[{"poiid":"B2094757D06EAAFA4799","title":"吴江路美食街","lon":"121.45953","lat":"31.22911","category":"68","category_name":"快餐厅","address":"静安区吴江路美食休闲购物(近石门一路)"},{"poiid":"B2094655D26EA1F4449E","title":"四季酒店","lon":"121.46235","lat":"31.22727","category":"213","category_name":"五星级宾馆","address":"静安区威海路500号(近石门一路)"},{"poiid":"B2094655D268A3FB479D","title":"葡京茶餐厅(吴江路店)","lon":"121.45934","lat":"31.22889","category":"72","category_name":"广东菜","address":"静安区吴江路269号湟普汇303号商铺(近茂名北路)"},{"poiid":"B2094753D76FAAFA449C","title":"上海滩国泰旗舰店","lon":"121.466011","lat":"31.216125","category":"249","category_name":"购物服务","address":"淮海中路868号"},{"poiid":"B209475CD564A7F84292","title":"上海滩新天地店","lon":"121.47463","lat":"31.22164","category":"119","category_name":"商场","address":"\"太仓路181弄新天地北里15号\r\n\""},{"poiid":"B209475CD564A7F8439E","title":"上海滩中信泰富店","lon":"121.45602","lat":"31.22851","category":"119","category_name":"商场","address":"\"南京西路1168号中信泰富广场，店铺号221.\r\n\""},{"poiid":"B2094655D26FABFF419D","title":"静安小亭麻辣烫 吴江路店","lon":"121.459811054","lat":"31.229479793","category":"68","category_name":"快餐厅","address":"静安区吴江路269号湟普汇2楼(近茂名北路)"},{"poiid":"B2094757D06EABF5459E","title":"Awfully Chocolate(吴江路店)","lon":"121.46056","lat":"31.22957","category":"67","category_name":"甜品店","address":"静安区吴江路169号四季坊1楼(近石门一路)"},{"poiid":"B2094655D26DA2F54493","title":"星巴克(威海路店)","lon":"121.4629758","lat":"31.22691","category":"65","category_name":"咖啡厅","address":"静安区威海路433、439号(石门一路口)"},{"poiid":"B2094757D06EABF54199","title":"洋面屋五右卫门 吴江路店","lon":"121.4595113","lat":"31.2295151","category":"98","category_name":"意式菜品餐厅","address":"静安区吴江路169号四季坊2楼(近吴江路美食街)"},{"poiid":"B2094757D06FA2FC439E","title":"南翔馒头店(吴江路店)","lon":"121.46085","lat":"31.22968","category":"68","category_name":"快餐厅","address":"静安区吴江路269号湟普汇2楼(近茂名北路)"},{"poiid":"B2094757D06AA5FE429E","title":"滋滋星","lon":"121.46021973","lat":"31.229662288","category":"99","category_name":"泰国／越南菜品餐厅","address":"静安区吴江路200号2楼(近南京西路)"},{"poiid":"B2094757D06FA2FA449F","title":"西北郎烧烤(吴江路店)","lon":"121.46028","lat":"31.22956","category":"68","category_name":"快餐厅","address":"静安区吴江路休闲街200号2楼(近泰兴路)"},{"poiid":"B2094654D564ABFA419B","title":"东方海外大厦","lon":"121.461","lat":"31.2295","category":"46","category_name":"楼宇","address":"上海,上海市,延安中路841号"},{"poiid":"B2094757D06FA1F84492","title":"棒约翰比萨(四季坊店)","lon":"121.460259767","lat":"31.2294456435","category":"94","category_name":"西餐厅","address":"静安区吴江路169号四季坊108(泰兴路吴江路)"},{"poiid":"B2094757D06FA0F5479D","title":"蝶园(吴江路店)","lon":"121.45954","lat":"31.22913","category":"76","category_name":"上海菜","address":"静安区吴江路269号301-302室(近茂名北路)"},{"poiid":"B2094757D56CABFB419A","title":"顺风港湾","lon":"121.45971","lat":"31.229015","category":"76","category_name":"上海菜","address":"静安区泰兴路175号经典茂名裙房4楼(近吴江路)"},{"poiid":"B2094757D06FA2FE499B","title":"红宝石(吴江店)","lon":"121.46073","lat":"31.22963","category":"67","category_name":"甜品店","address":"静安区吴江路198号(近泰兴路)"},{"poiid":"B2094654DA6CA1F5469A","title":"香啡缤 吴江路店 Coffee Bean&Tea Leaf","lon":"121.461022054","lat":"31.229906793","category":"65","category_name":"咖啡厅","address":"静安区吴江路169号静安四季坊145-146单元(近石门一路)"},{"poiid":"B2094757D06FA2FE499A","title":"麦当劳(四季坊店)","lon":"121.46101","lat":"31.22957","category":"68","category_name":"快餐厅","address":"静安区吴江路169号四季坊B1楼B101号铺(近南京西路地铁站3号出口)"},{"poiid":"B2094757D069A1FD469B","title":"四季酒店宴会厅","lon":"121.46264","lat":"31.227","category":"76","category_name":"上海菜","address":"静安区威海路500号四季酒店3楼(近石门一路)"},{"poiid":"B2094654DB69A7FD479A","title":"四季咖啡厅","lon":"121.46246127811","lat":"31.227011244415","category":"268","category_name":"自助","address":"静安区威海路500号四季酒店1楼(近石门一路)"},{"poiid":"B2094757D06FA7FD449D","title":"阿拉丁麻辣烫(四季坊店)","lon":"121.46058397","lat":"31.229648747","category":"68","category_name":"快餐厅","address":"静安区吴江路169号四季坊B1109号商铺(近石门一路)"},{"poiid":"B2094757D06BA7F8409C","title":"威海路","lon":"121.46253204","lat":"31.226638793","category":"500","category_name":"未知分类","address":"静安区威海路"},{"poiid":"B2094752D665A0FD4092","title":"啡你啡思","lon":"121.460995","lat":"31.227367","category":"247","category_name":"餐饮美食","address":null},{"poiid":"B2094757D06FA1FD459B","title":"芭斯罗缤(四季坊店)","lon":"121.4603","lat":"31.22955","category":"67","category_name":"甜品店","address":"静安区吴江路169号四季坊111号(近石门一路)"},{"poiid":"B2094655D26DA6FA479B","title":"一兆韦德健身(吴江路)","lon":"121.46054","lat":"31.22963","category":"221","category_name":"健身中心","address":"静安区吴江路169号四季坊B1楼15号(近石门一路)"},{"poiid":"B2094757D064A2F94492","title":"茂名北路威海路","lon":"121.46008673","lat":"31.227478241","category":"260","category_name":"其他","address":"上海茂名北路威海路"},{"poiid":"B2094757D06FAAFE4192","title":"奥茉优格(吴江路店)","lon":"121.460049195","lat":"31.2294765546","category":"113","category_name":"冷饮店","address":"徐汇区石龙路569号2号楼(近上海南站)"},{"poiid":"B2094757D06BA6FD499C","title":"新太郎","lon":"121.46246127811","lat":"31.227011244415","category":"95","category_name":"日本料理","address":"静安区威海路500号四季酒店2楼(近石门一路)"},{"poiid":"B2094752DA6CA1FE469E","title":"啡你啡思 Faneeface Cafe","lon":"121.460765","lat":"31.227147","category":"247","category_name":"餐饮美食","address":"大沽路"},{"poiid":"B2094757D068A0FB459C","title":"上海国际集团大厦","lon":"121.461769104","lat":"31.2266635895","category":"46","category_name":"楼宇","address":"上海威海路511号"},{"poiid":"B2094654DB65A7F9489F","title":"汉庭酒店(南京西路店)","lon":"121.46238","lat":"31.22823","category":"216","category_name":"经济型连锁酒店","address":"静安区石门一路239号(近吴江路)"},{"poiid":"B2094654DA6CA1F8439B","title":"上海市公惠医院","lon":"121.46131","lat":"31.22935","category":"162","category_name":"医院","address":"上海静安区石门一路315弄6号(近南京西路)  "},{"poiid":"B2094757D16CABFB4599","title":"上汽大厦","lon":"121.462093738","lat":"31.2264542196","category":"46","category_name":"楼宇","address":"上海市静安区威海路489号"},{"poiid":"B2094654DB6BA6F54398","title":"四季坊(西门)","lon":"121.4598","lat":"31.22935","category":"119","category_name":"商场","address":""},{"poiid":"B2094752D16DA1F44492","title":"合掌火锅","lon":"121.461533","lat":"31.229783","category":"247","category_name":"餐饮美食","address":"吴江路四季坊217"},{"poiid":"B2094654D564ABF9479F","title":"达安广场","lon":"121.461","lat":"31.2298","category":"46","category_name":"楼宇","address":"格林SOHO位于和平十三纬路云集街10号甲(东北炊具城西侧)"},{"poiid":"B2094655D26FA6F5439B","title":"四方新城","lon":"121.462","lat":"31.2277","category":"47","category_name":"住宅区","address":"四方新城位于静安巨鹿路568弄"},{"poiid":"B2094654DA6CA1F84598","title":"绅士大厦","lon":"121.46167","lat":"31.22651","category":"46","category_name":"楼宇","address":"静安区上海市威海路511号"},{"poiid":"B2094654DA6CA1F44692","title":"上海毛泽东旧居","lon":"121.46047","lat":"31.22611","category":"243","category_name":"纪念馆","address":"静安区茂名北路120弄5-9号"},{"poiid":"B2094655D268A3FB489A","title":"湟普汇","lon":"121.45933","lat":"31.22889","category":"119","category_name":"商场","address":"静安区吴江路269号(近茂名北路)"},{"poiid":"B2094752DB6FA1F4429D","title":"藍瑪赫","lon":"121.459806","lat":"31.228891","category":"247","category_name":"餐饮美食","address":"上海市 梅龍鎮廣場"},{"poiid":"B2094654DA6CA1F54599","title":"富天小厨","lon":"121.46083","lat":"31.22967","category":"257","category_name":"中餐厅","address":"静安区吴江路169号四季坊218号(近石门一路)"},{"poiid":"B2094757D068A7FD409B","title":"六佰碗","lon":"121.4604187","lat":"31.226131439","category":"68","category_name":"快餐厅","address":"静安区茂名北路148号(近威海路)"},{"poiid":"B2094757D06AA3F8499C","title":"梅龙镇8楼美国领馆驻上海办事处","lon":"121.45987473","lat":"31.226206214","category":"500","category_name":"未知分类","address":"上海市静安区陕西北路"},{"poiid":"B2094654D564ABF94699","title":"锦延大楼","lon":"121.461","lat":"31.2289","category":"46","category_name":"楼宇","address":"北一环与亳州路交叉口(庐阳区政府对面)"},{"poiid":"B2094757D068AAFC4892","title":"张园","lon":"121.460235596","lat":"31.2279987335","category":"260","category_name":"其他","address":"上海威海路590弄"},{"poiid":"B2094655D26DA3FE4698","title":"泰王国驻上海总领事馆(威海路)","lon":"121.46094","lat":"31.22665","category":"252","category_name":"楼宇机构","address":"威海路567-579号晶采世纪大厦15A-C"},{"poiid":"B2094757D065A2FD4292","title":"上海汽车集团股份有限公司","lon":"121.46233623","lat":"31.22651422","category":"46","category_name":"楼宇","address":"上海静安区威海路489号"},{"poiid":"B2094654DB69A7FF489A","title":"上海市虹口足球场体育健身活动中心","lon":"121.46127","lat":"31.22672","category":"230","category_name":"足球场","address":"虹口区威海路681号"},{"poiid":"B209475CD36DABFA4098","title":"力士相扑烧肉","lon":"121.46032531","lat":"31.22963508","category":"95","category_name":"日本料理","address":"吴江路169号四季坊2楼201-206单元(近泰兴路)"},{"poiid":"B2094655D36CA1FD459D","title":"石门一路南京西路","lon":"121.46202","lat":"31.22943","category":"38","category_name":"公交车站","address":""},{"poiid":"B2094751D465ABFD459A","title":"莉莲蛋挞(吴江路店)","lon":"121.46034","lat":"31.22968","category":"67","category_name":"甜品店","address":"静安区吴江路169号四季坊121号商铺(近石门一路)"},{"poiid":"B2094757D66CA6FE489D","title":"海粤天","lon":"121.46048","lat":"31.22849","category":"72","category_name":"广东菜","address":"静安区泰兴路89号海粤天大酒店1楼(近南京西路)"},{"poiid":"B2094655D26CABFF4499","title":"w wagas(静安四季北)","lon":"121.46081","lat":"31.22967","category":"141","category_name":"服装鞋帽皮具店","address":""},{"poiid":"B2094753D46CA3F84592","title":"恒隆广场","lon":"121.46305","lat":"31.227308","category":"500","category_name":"未知分类","address":"上海市 南京西路1299号"},{"poiid":"B2094757D56CA1F4459D","title":"好食汇","lon":"121.459906054","lat":"31.226187793","category":"68","category_name":"快餐厅","address":"静安区茂名北路157号(近威海路)"},{"poiid":"B2094655D265ABFD4892","title":"上汽集团食堂","lon":"121.46253","lat":"31.22664","category":"76","category_name":"上海菜","address":"静安区威海路489号2楼(近石门一路)"},{"poiid":"B2094655D36CA3FF429C","title":"茂名北路山东煎饼摊","lon":"121.45917","lat":"31.22842","category":"68","category_name":"快餐厅","address":"静安区茂名北路144号(近威海路)"},{"poiid":"B2094654DA6CA1F4419E","title":"经典茂名公寓","lon":"121.45948","lat":"31.22879","category":"47","category_name":"住宅区","address":"上海市静安区茂名北路318弄"},{"poiid":"B2094751DB6CA4FD459D","title":"La Pause Cafe","lon":"121.46232","lat":"31.2278","category":"94","category_name":"西餐厅","address":"静安区石门一路211号旺旺大厦1楼大堂内(近威海路)"},{"poiid":"B2094654DA6CA1FA489A","title":"茂名公寓","lon":"121.46094","lat":"31.225435","category":"47","category_name":"住宅区","address":"茂名北路90弄2-18号"},{"poiid":"B2094757D06FA0F8429A","title":"全家便利(威海店)","lon":"121.45947","lat":"31.22635","category":"117","category_name":"便民商店/便利店","address":"上海静安区威海路656号"},{"poiid":"B2094757D06FA5FA419B","title":"一茶一坐(吴江路店)","lon":"121.460048","lat":"31.229282","category":"91","category_name":"台湾菜","address":"上海静安区吴江路169号四季坊1-2楼(近石门一路)"},{"poiid":"B2094757D16BA3FA4892","title":"爱西西里","lon":"121.460355738","lat":"31.2293552814","category":"500","category_name":"未知分类","address":"上海市静安区北京西路"},{"poiid":"B2094655D265A0F5469B","title":"万宁超市","lon":"121.46124","lat":"31.22981","category":"118","category_name":"超级市场","address":""},{"poiid":"B2094757D165A4F44892","title":"环球金融中心下沉广场","lon":"121.46105273","lat":"31.227171234","category":"500","category_name":"未知分类","address":"上海环球金融中心B1室外"},{"poiid":"B2094757D16AA0F94092","title":"張園","lon":"121.459138738","lat":"31.2283532601","category":"500","category_name":"未知分类","address":"上海静安区泰興路"},{"poiid":"B209475CD265A6FD4593","title":"牛阵火锅,吴江路店","lon":"121.46041","lat":"31.22956","category":"95","category_name":"日本料理","address":"吴江路169号四季坊242单元(近石门一路)"},{"poiid":"B2094655D26EA4F94393","title":"终于原味泡沫红茶(威海路店)","lon":"121.45964","lat":"31.22671","category":"66","category_name":"茶艺馆","address":"静安区威海路638号"},{"poiid":"B2094757D16FABFE4998","title":"芝士焗番薯(吴江路店)","lon":"121.460935671","lat":"31.2293174473","category":"247","category_name":"餐饮美食","address":"上海吴江路198-2号"},{"poiid":"B2094757D16DA0FE479E","title":"台北吳記","lon":"121.459627388","lat":"31.2284982832","category":"500","category_name":"未知分类","address":"上海江寧路77号"},{"poiid":"B2094757D16AA4FD429C","title":"甘杯 COME BUY(芮欧百货店)","lon":"121.45937503","lat":"31.227583143","category":"113","category_name":"冷饮店","address":"上海南京西路1601号越洋广场B2"},{"poiid":"B2094751D26DA0FA419A","title":"万寿斋","lon":"121.459472","lat":"31.228435","category":"247","category_name":"餐饮美食","address":"虹口区山阴路123号"},{"poiid":"B2094757D168A5FE4092","title":"道顿崛Kukuru","lon":"121.46188643","lat":"31.228939272","category":"500","category_name":"未知分类","address":"上海吴江路"},{"poiid":"B2094654DA6CA1F4449F","title":"威海楼","lon":"121.46025","lat":"31.22622","category":"46","category_name":"楼宇","address":"茂名北路148"},{"poiid":"B2094654DB6AA3F44198","title":"汽车工业大厦","lon":"121.46239","lat":"31.22672","category":"46","category_name":"楼宇","address":"静安区威海路489号"},{"poiid":"B2094654DA6CA1F44698","title":"锦茂教科园","lon":"121.46007","lat":"31.22697","category":"46","category_name":"楼宇","address":"威海路598"},{"poiid":"B2094654DA6CA1F8439C","title":"上海市瑞金医院-公惠医院肾内科联合病房","lon":"121.4613","lat":"31.22935","category":"162","category_name":"医院","address":"石门一路315弄1-33号"},{"poiid":"B2094655D26DA2FB459D","title":"绅士大厦(北二门)","lon":"121.46141","lat":"31.22679","category":"46","category_name":"楼宇","address":""},{"poiid":"B2094655D26DA2FB459C","title":"绅士大厦(北一门)","lon":"121.46205","lat":"31.22676","category":"46","category_name":"楼宇","address":""},{"poiid":"B2094655D26DA1FC4992","title":"张园大客堂","lon":"121.46028","lat":"31.22833","category":"252","category_name":"楼宇机构","address":"静安区威海路590弄72支弄1号(茂名北路威海路)"},{"poiid":"B2094654DB65A5FB449A","title":"好德No.595","lon":"121.4598","lat":"31.22728","category":"117","category_name":"便民商店/便利店","address":"茂名北路212临"},{"poiid":"B2094655D26AA7FB469D","title":"四季大酒店健身中心","lon":"121.46236","lat":"31.22727","category":"247","category_name":"餐饮美食","address":"静安区威海路500号(近石门一路)"},{"poiid":"B2094757D06FA3FB449B","title":"杯子布丁(吴江路店)","lon":"121.45974","lat":"31.22895","category":"67","category_name":"甜品店","address":"上海静安区吴江路269号湟普汇1楼(近泰兴路)"},{"poiid":"B2094757D06BA7FE4998","title":"Next City 下一城","lon":"121.46029693","lat":"31.229393882","category":"47","category_name":"住宅区","address":"上海吴江路267号"},{"poiid":"B2094654DB6BA6F5429F","title":"静安茂名公寓(西门)","lon":"121.46031","lat":"31.22602","category":"47","category_name":"住宅区","address":"茂名北路118弄2-8号"},{"poiid":"B2094655D265A4FF449E","title":"商朝网络","lon":"121.46188","lat":"31.22939","category":"176","category_name":"网吧","address":"静安区石门一路307号(近吴江路)"},{"poiid":"B2094751D26CA7F94099","title":"味莼园","lon":"121.462247","lat":"31.227775","category":"76","category_name":"上海菜","address":"静安区石门一路239号(近吴江路)"},{"poiid":"B2094655D26DA7FE409E","title":"荣康里一街(西门)","lon":"121.45967","lat":"31.22754","category":"47","category_name":"住宅区","address":"茂名北路230弄3-13"},{"poiid":"B2094757D16BA1FE409B","title":"Edwin新天地时尚","lon":"121.460618738","lat":"31.225485199","category":"500","category_name":"未知分类","address":"上海新天地时尚"},{"poiid":"B2094757D66EA2FD4399","title":"bon matin paris","lon":"121.461763138","lat":"31.2290244744","category":"500","category_name":"未知分类","address":"上海南京西路吴江路"},{"poiid":"B2094757D16CABFE4798","title":"娇莉芙茂名路店","lon":"121.460168","lat":"31.226466","category":"500","category_name":"未知分类","address":"上海茂名北路148号2楼"},{"poiid":"B2094757D16AAAF9449B","title":"青岛国际啤酒城","lon":"121.4600002","lat":"31.228324792","category":"247","category_name":"餐饮美食","address":"上海青岛"},{"poiid":"B2094655D26EA5FE479E","title":"梦幻工厂","lon":"121.46207","lat":"31.22903","category":"257","category_name":"中餐厅","address":"静安区石门一路291号"},{"poiid":"B2094654DA6CA1FB469C","title":"茂北社区卫生服务站","lon":"121.45922","lat":"31.22745","category":"162","category_name":"医院","address":"茂名北路235弄3号"},{"poiid":"B2094750D66AA7FC4699","title":"俏江南","lon":"121.460227","lat":"31.227945","category":"500","category_name":"未知分类","address":null},{"poiid":"B2094757D66FA0F9459A","title":"许记生煎锅帖店","lon":"121.460588778","lat":"31.2292902401","category":"247","category_name":"餐饮美食","address":"上海共和新路4701号(4703弄弄堂內)"},{"poiid":"B2094654DA6CA1F4429E","title":"尊龙","lon":"121.45935","lat":"31.2282","category":"141","category_name":"服装鞋帽皮具店","address":"茂名北路264弄3-3临"},{"poiid":"B2094654DA6CA1F4469D","title":"甲秀里","lon":"121.46047","lat":"31.22611","category":"47","category_name":"住宅区","address":"茂名北路120弄5-9号"},{"poiid":"B2094753D268ABFB479B","title":"上海社科院","lon":"121.461453","lat":"31.227349","category":"500","category_name":"未知分类","address":"上海市 淮海路622号"},{"poiid":"B209475CDA6DA1FF489A","title":"上海长风公园海洋世界","lon":"121.460899","lat":"31.22631","category":"500","category_name":"未知分类","address":"上海市 大渡河路451号长风公园内"},{"poiid":"B2094654DA6CA1F44192","title":"德庆里","lon":"121.4595","lat":"31.228333","category":"47","category_name":"住宅区","address":"茂名北路264弄1-21号"},{"poiid":"B2094654DA6CA1F44398","title":"震兴里三街","lon":"121.4599","lat":"31.227436","category":"47","category_name":"住宅区","address":"茂名北路220弄3-25号"},{"poiid":"B2094654DB6BA6F54298","title":"德庆里(一门)","lon":"121.45942","lat":"31.22806","category":"47","category_name":"住宅区","address":"茂名北路264弄1-21号"},{"poiid":"B2094655D26CABF9479F","title":"艾手艾脚甲文化","lon":"121.46082","lat":"31.22967","category":"148","category_name":"美容美发店","address":""},{"poiid":"B2094654DA6CA1F4439F","title":"震兴里一街","lon":"121.45998","lat":"31.227205","category":"47","category_name":"住宅区","address":"茂名北路200弄3-14号"},{"poiid":"B2094655D26DA7FE479C","title":"蕃祉里四街(东门)","lon":"121.45901","lat":"31.22842","category":"47","category_name":"住宅区","address":"茂名北路285弄4-8号"},{"poiid":"B2094654DA6CA1F4439A","title":"荣康里二街","lon":"121.45975","lat":"31.22777","category":"47","category_name":"住宅区","address":"茂名北路240弄3-9号"},{"poiid":"B2094655D26DA7FD4693","title":"震兴里二街(西门)","lon":"121.45979","lat":"31.22722","category":"47","category_name":"住宅区","address":"茂名北路210弄3-23号"},{"poiid":"B2094757D16DA2F9419B","title":"江宁路北京西路","lon":"121.459812738","lat":"31.2283842608","category":"500","category_name":"未知分类","address":"上海市静安区北京西路"},{"poiid":"B2094654DA6CA1F44293","title":"荣康里三街","lon":"121.4597","lat":"31.2279","category":"47","category_name":"住宅区","address":"茂名北路250弄3-9号"},{"poiid":"B2094655D26EA2FE489C","title":"荣康里三街(西门)","lon":"121.45954","lat":"31.22784","category":"47","category_name":"住宅区","address":"茂名北路250弄3-9号"},{"poiid":"B2094655D26FA4FF4493","title":"德庆里(二门)","lon":"121.45933","lat":"31.22823","category":"47","category_name":"住宅区","address":"茂名北路274弄3-19号"},{"poiid":"B2094655D264A2F8499A","title":"怡庐","lon":"121.45967","lat":"31.22649","category":"47","category_name":"住宅区","address":"威海路629弄4-12号"},{"poiid":"B2094655D26DA7FE4298","title":"蕃祉里三街(东门)","lon":"121.45912","lat":"31.22817","category":"47","category_name":"住宅区","address":"茂名北路277弄4-8号"},{"poiid":"B2094655D26DA7FE409D","title":"甲秀里(西门)","lon":"121.46031","lat":"31.22605","category":"47","category_name":"住宅区","address":"茂名北路120弄5-9号"},{"poiid":"B2094655D26EA3F4429E","title":"蕃祉里二街(东门)","lon":"121.45893","lat":"31.22794","category":"47","category_name":"住宅区","address":"茂名北路267弄2-8号"},{"poiid":"B2094655D26FA7FA469C","title":"德庆里(三门)","lon":"121.45925","lat":"31.22846","category":"47","category_name":"住宅区","address":"茂名北路282弄3-19号"},{"poiid":"B2094655D26CAAF44299","title":"蕃祉里二街","lon":"121.45917","lat":"31.22805","category":"47","category_name":"住宅区","address":"茂名北路267弄2-8号"},{"poiid":"B2094655D26DA7FE439B","title":"丰盛里二街(东门)","lon":"121.45937","lat":"31.22755","category":"47","category_name":"住宅区","address":"茂名北路235弄1-18号"},{"poiid":"B2094655D26DA7FE4099","title":"震兴里一街(西门)","lon":"121.45982","lat":"31.22714","category":"47","category_name":"住宅区","address":"茂名北路200弄3-14号"},{"poiid":"B2094655D26CABF44899","title":"震兴里三街(西门)","lon":"121.45973","lat":"31.22737","category":"47","category_name":"住宅区","address":"茂名北路220弄3-25号"},{"poiid":"B2094655D26DA4F9419D","title":"荣康里二街(西门)","lon":"121.4596","lat":"31.22769","category":"47","category_name":"住宅区","address":"茂名北路240弄3-9号"},{"poiid":"B2094655D26CAAFA4392","title":"蕃祉里一街(东门)","lon":"121.45924","lat":"31.22788","category":"47","category_name":"住宅区","address":"茂名北路257弄4-8号"},{"poiid":"B2094654DA6CA1F4439E","title":"震兴里二街","lon":"121.45996","lat":"31.227312","category":"47","category_name":"住宅区","address":"茂名北路210弄3-23号"},{"poiid":"B2094654DA6CA1F5439E","title":"IKEA","lon":"121.45996","lat":"31.22635","category":"141","category_name":"服装鞋帽皮具店","address":"茂名北路147"},{"poiid":"B2094757D16BA5F4439A","title":"浙商银行上海分行","lon":"121.46109273","lat":"31.226423219","category":"150","category_name":"银行","address":"静安区威海路567号晶采世纪大厦(近茂名北路)"},{"poiid":"B2094655D26FA6FC429A","title":"四季酒店(南门)","lon":"121.46159","lat":"31.22701","category":"656","category_name":"大门","address":"威海路500号"},{"poiid":"B2094654DB6AA7F8449D","title":"爵士37酒吧","lon":"121.46236","lat":"31.22727","category":"260","category_name":"其他","address":"静安区威海路500号四季酒店三十七楼"},{"poiid":"B2094757D169A0F8459E","title":"泰煌鸡","lon":"121.46238708","lat":"31.228229522","category":"500","category_name":"未知分类","address":"上海南京西路店"},{"poiid":"B2094655D26DA6F94193","title":"crocs(静安四季北)","lon":"121.46082","lat":"31.22967","category":"141","category_name":"服装鞋帽皮具店","address":""},{"poiid":"B2094654DA6CA1F5439B","title":"SKY ONE","lon":"121.46002","lat":"31.22623","category":"141","category_name":"服装鞋帽皮具店","address":"南京西路"},{"poiid":"B2094654DA6CA1F54292","title":"A-E","lon":"121.46021","lat":"31.22578","category":"141","category_name":"服装鞋帽皮具店","address":"茂名北路117"},{"poiid":"B2094752DB65A0F84793","title":"白马会所","lon":"121.462275","lat":"31.227696","category":"500","category_name":"未知分类","address":"上海市 石门一路211号旺旺大厦23F"},{"poiid":"B2094654DA6CA1FB489A","title":"MS.","lon":"121.45915","lat":"31.22813","category":"141","category_name":"服装鞋帽皮具店","address":"茂名北路267弄4"},{"poiid":"B2094654DA6CA1F44699","title":"名牌服饰","lon":"121.46028","lat":"31.22615","category":"141","category_name":"服装鞋帽皮具店","address":"茂名北路146-2"},{"poiid":"B2094654DA6CA1F4419D","title":"BABY","lon":"121.45925","lat":"31.2285","category":"141","category_name":"服装鞋帽皮具店","address":"茂名北路282弄3-2"},{"poiid":"B2094654DA6CA1FB449C","title":"HELLO MISS","lon":"121.45974","lat":"31.22676","category":"141","category_name":"服装鞋帽皮具店","address":"茂名北路181"},{"poiid":"B2094655D265AAFC4493","title":"Levi's(静安四季北)","lon":"121.45989","lat":"31.22927","category":"141","category_name":"服装鞋帽皮具店","address":""},{"poiid":"B2094757D169A1FA489A","title":"苹果SUNION","lon":"121.46138973","lat":"31.22931828","category":"500","category_name":"未知分类","address":"上海吴江路步行街"},{"poiid":"B209475CD769A1F4479F","title":"ZARA HOME","lon":"121.461067","lat":"31.226713","category":"500","category_name":"未知分类","address":"上海市 静安区南京西路1165hao"},{"poiid":"B209475CDA6EABF54998","title":"豚太郎","lon":"121.461585","lat":"31.225721","category":"500","category_name":"未知分类","address":"上海市 2号线南京西路站4号口"},{"poiid":"B2094757D165A0FF4298","title":"尊龙工作室","lon":"121.45955","lat":"31.22785","category":"148","category_name":"美容美发店","address":"静安区茂名北路264号(近南京西路)"},{"poiid":"B2094654DA6CA0FC4499","title":"静安梅迪亚中心","lon":"121.46248","lat":"31.22796","category":"263","category_name":"公司","address":"石门一路211号旺旺大厦11-22层"},{"poiid":"B2094757D568A1FD409E","title":"SUSU女包(茂名北路店)","lon":"121.460071","lat":"31.226002","category":"141","category_name":"服装鞋帽皮具店","address":"静安区茂名北路141-6号(近威海路)"},{"poiid":"B2094757D068A2FD449B","title":"13","lon":"121.45987","lat":"31.22623","category":"141","category_name":"服装鞋帽皮具店","address":"上海静安区威海路631号(近茂名南路)"},{"poiid":"B2094655D26CAAF9489B","title":"上海国际教育进修学校(威海路)","lon":"121.46008","lat":"31.22698","category":"53","category_name":"成人教育","address":"威海路598号锦茂教科园A楼2层213"},{"poiid":"B2094753D76DA7FF4898","title":"甲秀里 毛泽东故居","lon":"121.459976","lat":"31.22668","category":"500","category_name":"未知分类","address":"上海市 茂名北路120弄"},{"poiid":"B2094757D16EA5FD459F","title":"09j8(梅陇镇广场店)","lon":"121.460746738","lat":"31.226423219","category":"500","category_name":"未知分类","address":"上海梅陇镇广场415b"},{"poiid":"B2094757D06AAAF9469E","title":"家族亭(石门一路店)","lon":"121.46246","lat":"31.22754","category":"500","category_name":"未知分类","address":"上海静安区石门一路211号旺旺大厦1楼(近威海路)  "},{"poiid":"B2094654DB6BA6F54198","title":"上海汽车工业(集团)总公司(石门一路)","lon":"121.46253","lat":"31.22663","category":"263","category_name":"公司","address":"威海路489号"},{"poiid":"B2094757D165A4FE439A","title":"卡地亚上海办公室","lon":"121.46092987","lat":"31.226459503","category":"500","category_name":"未知分类","address":"上海南京西路1168号恒隆广场9-10楼市"},{"poiid":"B2094750D76CAAF84292","title":"中凯豪生酒店花园咖啡厅","lon":"121.463","lat":"31.2266","category":"260","category_name":"其他","address":"静安区石门一路118号中凯豪生酒店1楼"},{"poiid":"B2094654DA6CA1F54592","title":"匡威鞋店","lon":"121.46033","lat":"31.22953","category":"140","category_name":"体育用品店","address":""},{"poiid":"B2094752D268A7FC4593","title":"长乐路","lon":"121.460909","lat":"31.225493","category":"249","category_name":"购物服务","address":"长乐路346号"},{"poiid":"B2094757D065AAFC4499","title":"葡京港式餐厅","lon":"121.46233367","lat":"31.22700119","category":"500","category_name":"未知分类","address":"上海吴江路"},{"poiid":"B2094757D16DA1F94693","title":"田子坊五元素餐厅","lon":"121.462681225","lat":"31.2287753927","category":"500","category_name":"未知分类","address":"上海建国中路155弄14号"},{"poiid":"B2094757D66CAAFB4899","title":"葡萄牙驻沪总领事馆","lon":"121.46008173","lat":"31.22742924","category":"500","category_name":"未知分类","address":"上海威海路567号晶采世纪大厦16楼"},{"poiid":"B2094757D16FA4F8469B","title":"灵思传播机构","lon":"121.462179","lat":"31.227864","category":"500","category_name":"未知分类","address":"上海静安区石门一路211号21～22楼"},{"poiid":"B209475CD66CA1FD429B","title":"南京西路一兆韦德","lon":"121.461509","lat":"31.229362","category":"500","category_name":"未知分类","address":"上海市 南京西路"},{"poiid":"B2094757D069A7FD449A","title":"享乐时光桌游咖啡吧","lon":"121.46288","lat":"31.22739","category":"175","category_name":"棋牌室","address":"静安区石门一路211号旺旺大厦B1楼(近威海路)"},{"poiid":"B2094757DA6EAAFA4599","title":"CM飞跃回力鞋业(茂名北路店)","lon":"121.459964000001","lat":"31.2263589999998","category":"249","category_name":"购物服务","address":"静安区茂名北路147号(近静安别墅)"},{"poiid":"B2094655D26DA2FA479F","title":"四季酒店(东门)","lon":"121.46264","lat":"31.22758","category":"656","category_name":"大门","address":"威海路500号"},{"poiid":"B2094757D16FA6F4479B","title":"爱德曼公关","lon":"121.462214488","lat":"31.2276162444","category":"263","category_name":"公司","address":"上海静安区211号旺旺大厦3楼"},{"poiid":"B2094757D66CABFD419A","title":"央视市场研究(CTR)上海分公司","lon":"121.46191006","lat":"31.226882008","category":"500","category_name":"未知分类","address":"上海静安区青海路118号云海苑四层"},{"poiid":"B2094757D56DA5F84798","title":"易传媒","lon":"121.4622688293457","lat":"31.227940350677745","category":"263","category_name":"公司","address":"上海静安区石门一路211号旺旺大厦20楼"},{"poiid":"B2094757D16BA2FC459C","title":"Miss Cat 一号店","lon":"121.45942873","lat":"31.227292237","category":"500","category_name":"未知分类","address":"上海静安区茂名北路210弄3号底楼店铺"},{"poiid":"B2094757D164A3FC4599","title":"✨专属尛⒉貨","lon":"121.459545738","lat":"31.2267232254","category":"500","category_name":"未知分类","address":"上海有你在身邊就好了、"},{"poiid":"B2094757D66CA0F8489E","title":"木奈油畫室","lon":"121.46052273","lat":"31.225848206","category":"500","category_name":"未知分类","address":"上海市静安区南京西路靜安公寓"},{"poiid":"B2094757D66EA4FD4898","title":"Daiko-sh","lon":"121.46174173","lat":"31.228217257","category":"500","category_name":"未知分类","address":"上海市静安区奉贤路"},{"poiid":"B2094757D16DA1FC409A","title":"香港天龙行上海分行(大闸蟹)","lon":"121.46163373","lat":"31.228177256","category":"500","category_name":"未知分类","address":"上海市静安区余姚路782号"},{"poiid":"B2094654DA6CA1FB439F","title":"博茶堂(威海路)","lon":"121.45912","lat":"31.22661","category":"260","category_name":"其他","address":"静安区威海路662号(近茂名北路)"},{"poiid":"B2094757D568A7FB4692","title":"上海故事石门一路店","lon":"121.4624778","lat":"31.22889278","category":"249","category_name":"购物服务","address":"静安区石门一路292号(近吴江路)"},{"poiid":"B2094757D568A0F5419E","title":"VKSHOP","lon":"121.4603864","lat":"31.22612667","category":"249","category_name":"购物服务","address":"茂名北路146号-1"},{"poiid":"B2094757D569A3F9489A","title":"鱿鱼SUI","lon":"121.4597469","lat":"31.2268","category":"249","category_name":"购物服务","address":"茂名北路183号"},{"poiid":"B2094757D16AABF4479E","title":"11间","lon":"121.460514598","lat":"31.226191174","category":"249","category_name":"购物服务","address":"上海茂名北路威海路"},{"poiid":"B2094757D569A3FC469A","title":"8的3次方","lon":"121.4598689","lat":"31.22699889","category":"249","category_name":"购物服务","address":"茂名北路190-1号"},{"poiid":"B2094757D064A7F54299","title":"华建二街坊","lon":"121.460189738","lat":"31.2291262766","category":"252","category_name":"楼宇机构","address":"上海徐汇区老沪闵路1290弄"},{"poiid":"B2094757D568A6F5429B","title":"Cos Mart","lon":"121.46014893","lat":"31.22945584","category":"249","category_name":"购物服务","address":"中国上海市静安区吴江路160"},{"poiid":"B2094757D66CA3F54998","title":"鸥美药妆(吴江路店)","lon":"121.46006353","lat":"31.229408582","category":"249","category_name":"购物服务","address":"静安区吴江路169号四季坊1楼119号(近石门一路)"},{"poiid":"B2094757D568ABFB489A","title":"WEISS","lon":"121.4599761","lat":"31.22632389","category":"249","category_name":"购物服务","address":"茂名北路141弄6号"},{"poiid":"B2094655D26DABF5409A","title":"大广广告","lon":"121.46246","lat":"31.22795","category":"263","category_name":"公司","address":"石门一路211号旺旺大厦12层"},{"poiid":"B2094757D069A4F84993","title":"上海纵游(DeNA中国)网络技术有限公司","lon":"121.460422371","lat":"31.2274021065","category":"263","category_name":"公司","address":"上海市静安区威海路567号晶采世纪大厦19楼"},{"poiid":"B2094654DA6CA1F5449E","title":"上海静安置业(集团)有限公司","lon":"121.45993","lat":"31.22821","category":"263","category_name":"公司","address":"威海路590弄77"},{"poiid":"B2094654DA6CA1F8469A","title":"日本株式会社日航旅行上海办事处","lon":"121.46167","lat":"31.22651","category":"248","category_name":"生活娱乐","address":"威海路511号绅士大厦1005"},{"poiid":"B2094655D26CAAF8419D","title":"太平人寿保险有限公司上海分公司(石门一路)","lon":"121.46246","lat":"31.22795","category":"219","category_name":"其他","address":"静安区石门一路211号旺旺大厦5、6、7层"},{"poiid":"B2094654DA6CA1F4489B","title":"上海市广播科学研究所","lon":"121.45938","lat":"31.22646","category":"191","category_name":"科研机构","address":"威海路647弄1-15号"},{"poiid":"B2094752D36DAAF8449D","title":"上海静安瑞泰酒店","lon":"121.459","lat":"31.228287","category":"251","category_name":"出行住宿","address":"上海静安区泰兴路178号"},{"poiid":"B2094750D26FA2F5419C","title":"上海市静安区","lon":"121.461128","lat":"31.225833","category":"251","category_name":"出行住宿","address":"茂名北路"},{"poiid":"B2094655D26FA4FF449A","title":"旺旺大厦(东二门)","lon":"121.46255","lat":"31.22769","category":"656","category_name":"大门","address":""},{"poiid":"B2094752D16CABFE419E","title":"WESTIN SHANGHAI","lon":"121.462087","lat":"31.226475","category":"251","category_name":"出行住宿","address":"上海市黄浦区河南中路88号"},{"poiid":"B2094757D164A5F9419C","title":"工商银行（石门一路）","lon":"121.46210479","lat":"31.227682113","category":"260","category_name":"其他","address":"上海石门一路211号旺旺大厦1f"},{"poiid":"B2094654DA6CA1F54598","title":"静安四季(西门)","lon":"121.45999","lat":"31.22901","category":"656","category_name":"大门","address":"泰兴路158号"},{"poiid":"B2094655D26DA3F5449B","title":"旺旺大厦(东一门)","lon":"121.46238","lat":"31.22816","category":"656","category_name":"大门","address":""},{"poiid":"B2094655D26DA7FE479F","title":"晶采世纪大厦(北一门)","lon":"121.46123","lat":"31.22676","category":"656","category_name":"大门","address":""},{"poiid":"B2094655D26DA7FE449F","title":"静安四季(东门)","lon":"121.46172","lat":"31.2296","category":"656","category_name":"大门","address":"石门一路333弄"},{"poiid":"B2094655D26FA7FB409C","title":"经典茂名公寓(西门)","lon":"121.45918","lat":"31.22862","category":"656","category_name":"大门","address":"茂名北路318"},{"poiid":"B2094655D26FA7FF4593","title":"九福新邨(东一门)","lon":"121.46001","lat":"31.22626","category":"656","category_name":"大门","address":"茂名北路141弄6-1"},{"poiid":"B2094654DB6BA6F5439A","title":"兴庆里(东二门)","lon":"121.46026","lat":"31.22563","category":"656","category_name":"大门","address":"茂名北路111弄3-17号"},{"poiid":"B2094655D268ABFC489A","title":"经典茂名公寓(东门)","lon":"121.45977","lat":"31.2289","category":"656","category_name":"大门","address":""},{"poiid":"B2094655D26DA3FE4699","title":"晶采世纪大厦(北二门)","lon":"121.46056","lat":"31.22668","category":"656","category_name":"大门","address":""}]