[{"poiid":"B2094655D26CA4FB4499","title":"上海滩国际大厦","lon":"121.499","lat":"31.2502","category":"46","category_name":"楼宇","address":"丰台学城海鹰路1号,3号"},{"poiid":"B2094757D06FA5FE4793","title":"周家嘴路新建路","lon":"121.496022","lat":"31.255533","category":"260","category_name":"其他","address":"上海周家嘴路新建路,海伦路"},{"poiid":"B2094757D068A3F5469E","title":"海员医院(东长治路分院)","lon":"121.498129972","lat":"31.250511409","category":"162","category_name":"医院","address":"上海虹口区东长治路505号"},{"poiid":"B209475CD564A7F84392","title":"上海滩浦东香格里拉店","lon":"121.50058","lat":"31.23634","category":"119","category_name":"商场","address":"浦东富成路33号香格里拉酒店内大堂层"},{"poiid":"B2094757D068A1FE499B","title":"浦江名邸","lon":"121.49659","lat":"31.255047","category":"47","category_name":"住宅区","address":"广西北路246号百米香榭商业街南区260"},{"poiid":"B2094654D56DABFE499C","title":"宝矿国际大厦","lon":"121.497534","lat":"31.254199","category":"46","category_name":"楼宇","address":"上海市虹口区吴淞路218号"},{"poiid":"B2094757D06FA4FE4999","title":"海湾大厦","lon":"121.498","lat":"31.2499","category":"46","category_name":"楼宇","address":"虹口区黄浦路53号(近外白渡桥)"},{"poiid":"B2094757D06FA3F44092","title":"新建路隧道","lon":"121.49868207","lat":"31.25213545","category":"260","category_name":"其他","address":"上海虹口区新建路-浦东新区陆家嘴环路"},{"poiid":"B2094757DB6CA4FB4993","title":"外滩公馆","lon":"121.494","lat":"31.25196","category":"76","category_name":"上海菜","address":"虹口区东余杭路275弄3号(近梧州路)"},{"poiid":"B2094757D06FA7FF469C","title":"耀江国际广场","lon":"121.497","lat":"31.2555","category":"46","category_name":"楼宇","address":"上海市松江区镇横港路633号"},{"poiid":"B2094655D26BA2F9479E","title":"唐山路新建路","lon":"121.49753","lat":"31.25193","category":"38","category_name":"公交车站","address":""},{"poiid":"B2094654DA6FA6FE429B","title":"恒升半岛国际中心","lon":"121.49564983911","lat":"31.252855823114","category":"46","category_name":"楼宇","address":"上海市虹口区吴淞路205号"},{"poiid":"B2094655D26BABFF4098","title":"名江七星城","lon":"121.49435","lat":"31.251509","category":"47","category_name":"住宅区","address":"上海市虹口区东汉阳路309弄"},{"poiid":"B2094757D16CA7FE429E","title":"崇明私房菜","lon":"121.494195403","lat":"31.2537960749","category":"76","category_name":"上海菜","address":"虹口区周家嘴路328号(近新建路)"},{"poiid":"B2094757D068A2F84593","title":"白金府邸","lon":"121.49451","lat":"31.250563","category":"252","category_name":"楼宇机构","address":"虹口区旅顺路199弄"},{"poiid":"B2094757D06BA4FC459F","title":"美年体检","lon":"121.49821","lat":"31.250433","category":"162","category_name":"医院","address":"虹口区东长治路505号"},{"poiid":"B209475DDB64ABFA4993","title":"canil狗窝","lon":"121.496696","lat":"31.252607","category":"247","category_name":"餐饮美食","address":"上海市 溧阳路611号1933老场坊1-109室(近海宁路)"},{"poiid":"B2094654D56DA4F54993","title":"上海市虹口区东余杭路幼儿园","lon":"121.49711","lat":"31.2523","category":"57","category_name":"幼儿园","address":"东汉阳路453"},{"poiid":"B2094654DB64A6FB499F","title":"如家快捷酒店(上海北外滩店)","lon":"121.49597","lat":"31.25448","category":"216","category_name":"经济型连锁酒店","address":"上海市虹口区周家嘴路345号(近金田路)"},{"poiid":"B2094654DB65A4FC449A","title":"莫泰168连锁旅店(周家嘴路店)","lon":"121.49899","lat":"31.25588","category":"216","category_name":"经济型连锁酒店","address":"上海虹口区周家嘴路518号（近高阳路）"},{"poiid":"B2094750DA64A2F4489C","title":"陆家嘴金融区","lon":"121.4972","lat":"31.253206","category":"500","category_name":"未知分类","address":null},{"poiid":"B2094654D56DA4F5429B","title":"京世造型·美容(东汉阳路)","lon":"121.49536","lat":"31.25139","category":"148","category_name":"美容美发店","address":""},{"poiid":"B2094654D56DAAFE449C","title":"中皇广场","lon":"121.49439","lat":"31.25442","category":"47","category_name":"住宅区","address":"中皇广场(中皇.外滩)位于虹口周家嘴路(近金田路,梧州路)"},{"poiid":"B2094757D66DA4FF4692","title":"唐山路商丘路烧烤摊","lon":"121.4960231","lat":"31.251600029","category":"68","category_name":"快餐厅","address":"虹口区商丘路"},{"poiid":"B2094752D765A7FD4099","title":"顺风大酒店","lon":"121.492684","lat":"31.252119","category":"247","category_name":"餐饮美食","address":"虹口区汉阳路88号1-3楼"},{"poiid":"B2094750D26AA2F5429E","title":"蓝村路地铁站","lon":"121.495605","lat":"31.252359","category":"36","category_name":"地铁站","address":null},{"poiid":"B2094655D26FA6FC479D","title":"章氏 唐山店","lon":"121.50104949388","lat":"31.253911762853","category":"68","category_name":"快餐厅","address":"虹口区唐山路216号(近高阳路)"},{"poiid":"B209475CDA68A2FE419E","title":"五角场万达广场","lon":"121.496681","lat":"31.251993","category":"500","category_name":"未知分类","address":"上海市 翔殷路"},{"poiid":"B2094655D268A7FF449E","title":"上海北外滩白玉兰广场","lon":"121.49682","lat":"31.24851","category":"119","category_name":"商场","address":""},{"poiid":"B2094757D06BA3F44599","title":"英腾国际健身中心","lon":"121.4947","lat":"31.25091","category":"148","category_name":"美容美发店","address":"虹口区东汉阳路309弄17号名江七星城会所(近宇泰公寓)"},{"poiid":"B2094654D56DA4F5459B","title":"上海海员医院门急诊部","lon":"121.49723","lat":"31.25099","category":"162","category_name":"医院","address":"商邱路250"},{"poiid":"B2094757D068AAFC4698","title":"公平路唐山路","lon":"121.5008606","lat":"31.253434067","category":"500","category_name":"未知分类","address":"上海公平路唐山路"},{"poiid":"B2094654D56DAAFE409F","title":"海伦大厦","lon":"121.49566","lat":"31.255604","category":"47","category_name":"住宅区","address":"普陀中山北路2550号"},{"poiid":"B2094757D068A3F5479F","title":"和泰玫瑰园","lon":"121.50043","lat":"31.251926","category":"500","category_name":"未知分类","address":"和泰玫瑰园位于虹口东长治路655号"},{"poiid":"B2094654D56DA4F54893","title":"建唐大楼","lon":"121.49776","lat":"31.25226","category":"47","category_name":"住宅区","address":"东汉阳路490"},{"poiid":"B2094655D26FA0FA4393","title":"建唐大楼(北门)","lon":"121.49768","lat":"31.25239","category":"47","category_name":"住宅区","address":"东汉阳路490"},{"poiid":"B2094654D56DA4F5429E","title":"快客No.6606","lon":"121.49588","lat":"31.25155","category":"117","category_name":"便民商店/便利店","address":"东汉阳路343"},{"poiid":"B2094757D568A7FD4699","title":"7天上海北外滩店","lon":"121.49877035","lat":"31.2525982","category":"216","category_name":"经济型连锁酒店","address":"唐山路145号(新建路隧道口)"},{"poiid":"B2094757D165AAFC469E","title":"小杨庄","lon":"121.4967693","lat":"31.252599291","category":"500","category_name":"未知分类","address":"上海梧州路218弄5号1X04"},{"poiid":"B2094655D26FA0F54392","title":"宝华住宅小区(北门)","lon":"121.49754","lat":"31.25169","category":"47","category_name":"住宅区","address":"唐山路62"},{"poiid":"B2094752D268AAFE4699","title":"1933老场房","lon":"121.495553","lat":"31.252595","category":"248","category_name":"生活娱乐","address":"上海市虹口区沙泾路"},{"poiid":"B2094655D26DA6F94892","title":"好德No.844","lon":"121.49713","lat":"31.2537","category":"117","category_name":"便民商店/便利店","address":"新建路185"},{"poiid":"B2094757D064A3FA489F","title":"建桥69创意园区","lon":"121.49902","lat":"31.25464","category":"179","category_name":"音乐厅","address":"虹口区通州路69号(通州路周家嘴路)"},{"poiid":"B2094757D069AAF94192","title":"85路终点站","lon":"121.49845758","lat":"31.2526024166","category":"500","category_name":"未知分类","address":"上海浦东陆家嘴"},{"poiid":"B2094655D26CA1F44099","title":"上海市虹口区伟荣食品商店","lon":"121.49573","lat":"31.25289","category":"117","category_name":"便民商店/便利店","address":"商邱路390"},{"poiid":"B2094654DB65A3FA459C","title":"龙门大楼","lon":"121.49633","lat":"31.25398","category":"46","category_name":"楼宇","address":"周家嘴路318、328号"},{"poiid":"B2094654D56DABFD499D","title":"上海海员医院体检中心","lon":"121.49774","lat":"31.25025","category":"162","category_name":"医院","address":"提篮桥"},{"poiid":"B2094654D56DA4F5469A","title":"宝华住宅小区","lon":"121.49769","lat":"31.251369","category":"47","category_name":"住宅区","address":"唐山路62弄"},{"poiid":"B2094757D168A2FC409A","title":"19路吴淞路天潼路站","lon":"121.496476","lat":"31.253201","category":"500","category_name":"未知分类","address":"上海市虹口区吴淞路近天潼路"},{"poiid":"B209475DD76EA3F4489F","title":"金牌外婆家国金中心店","lon":"121.495743","lat":"31.250378","category":"257","category_name":"中餐厅","address":"浦东新区世纪大道8号上海国金中心内LG2层55号(近陆家嘴东路)"},{"poiid":"B2094757D065A5F4459C","title":"17路周家嘴路新建路站","lon":"121.494636536","lat":"31.2534046173","category":"38","category_name":"公交车站","address":"上海市虹口区周家嘴路近新建路"},{"poiid":"B2094757D16BABF9419F","title":"Unisono","lon":"121.49561309","lat":"31.252954483","category":"500","category_name":"未知分类","address":"上海沙径路25号5号楼"},{"poiid":"B2094655D36DA0FC4998","title":"新建路","lon":"121.49629","lat":"31.25437","category":"38","category_name":"公交车站","address":""},{"poiid":"B2094655D26FA6F54598","title":"上海市虹口区提篮桥地段医院","lon":"121.49478","lat":"31.251","category":"162","category_name":"医院","address":"虹口区东汉阳路246号"},{"poiid":"B2094757D06BA3FE459F","title":"海泰苑","lon":"121.49942","lat":"31.255056","category":"252","category_name":"楼宇机构","address":"上海市虹口区通州路88弄"},{"poiid":"B2094655D36CA6F4439C","title":"东长治路旅顺路","lon":"121.49693","lat":"31.24975","category":"38","category_name":"公交车站","address":""},{"poiid":"B2094752D264AAFA4999","title":"美特斯邦威总部","lon":"121.496576","lat":"31.250919","category":"500","category_name":"未知分类","address":"上海东大名路588号"},{"poiid":"B2094654D56DA4F4489D","title":"骨头汤大碗面","lon":"121.49342","lat":"31.25248","category":"68","category_name":"快餐厅","address":"虹口区梧州路97号(近周家嘴路)"},{"poiid":"B2094654DB6BA3F8429E","title":"美林小厨 周家嘴店 Merrylin Cafeteria","lon":"121.49792247708","lat":"31.255992902549","category":"72","category_name":"广东菜","address":"虹口区周家嘴路518号(近通州路)"},{"poiid":"B2094654D56DABFD439D","title":"前进住宅小区","lon":"121.49414","lat":"31.25297","category":"47","category_name":"住宅区","address":"周家嘴路86弄1-24号"},{"poiid":"B2094752D165A2FB4299","title":"新华保险大厦","lon":"121.494843","lat":"31.250205","category":"252","category_name":"楼宇机构","address":"东大名路558号"},{"poiid":"B2094654D56DABFD499F","title":"海顺商务楼","lon":"121.49787","lat":"31.25031","category":"46","category_name":"楼宇","address":"东长治路503"},{"poiid":"B2094655D36CA6FB4599","title":"东汉阳路梧州路","lon":"121.49453","lat":"31.25106","category":"38","category_name":"公交车站","address":""},{"poiid":"B2094757D168A0FE4692","title":"新招鲜","lon":"121.496894103","lat":"31.2549610992","category":"500","category_name":"未知分类","address":"上海市虹口区新建路唐山路"},{"poiid":"B2094654D56DA4F5409C","title":"翠花上酸菜","lon":"121.49343","lat":"31.2511","category":"82","category_name":"东北菜","address":"虹口区梧州路19号(近东汉阳路)"},{"poiid":"B2094654D56DA4F4489A","title":"梧州路馒头店","lon":"121.4934","lat":"31.25278","category":"68","category_name":"快餐厅","address":"虹口区梧州路117号"},{"poiid":"B2094654D56DABFE409A","title":"光明便利(东长治路)","lon":"121.49758","lat":"31.25022","category":"117","category_name":"便民商店/便利店","address":"虹口区东长治路497号(东长治路商丘路)"},{"poiid":"B2094654D56DABFE4099","title":"师善里","lon":"121.49681","lat":"31.25028","category":"47","category_name":"住宅区","address":"东长治路449弄1-69号"},{"poiid":"B2094655D264A7F5499F","title":"有恒邨","lon":"121.49875","lat":"31.25387","category":"47","category_name":"住宅区","address":"东余杭路557弄1-59号"},{"poiid":"B2094654D56DAAFE419A","title":"希望义卖中心永乐生活电器义卖店","lon":"121.49629","lat":"31.25471","category":"138","category_name":"家电电子卖场","address":"周家嘴路373"},{"poiid":"B2094751D565A6FB499C","title":"浦东新区陆家嘴西路","lon":"121.4963887652643","lat":"31.25426689333703","category":"500","category_name":"未知分类","address":null},{"poiid":"B2094757D164A6FD4799","title":"克丽缇娜(东汉阳店)","lon":"121.495284","lat":"31.251378","category":"148","category_name":"美容美发店","address":"上海东汉阳路315号"},{"poiid":"B2094655D26BAAFE4698","title":"有恒邨(南门)","lon":"121.49887","lat":"31.25375","category":"47","category_name":"住宅区","address":"东余杭路557弄1-59号"},{"poiid":"B2094654D56DA4FB4899","title":"德裕社区理发店","lon":"121.49876","lat":"31.25369","category":"148","category_name":"美容美发店","address":""},{"poiid":"B2094757D065A4FB489A","title":"东方有线网络有限公司(虹口分公司)","lon":"121.4969","lat":"31.254092","category":"500","category_name":"未知分类","address":"上海新建路100号(近周家嘴路)"},{"poiid":"B2094654D56DAAFE4498","title":"河南拉面(梧州路)","lon":"121.49356","lat":"31.25434","category":"68","category_name":"快餐厅","address":"虹口区东余杭路(近梧州路)"},{"poiid":"B2094654D56DA4F54199","title":"名江七星城(边门)","lon":"121.49432","lat":"31.25149","category":"47","category_name":"住宅区","address":"东汉阳路309弄1-17号"},{"poiid":"B2094654DB69A5F9459D","title":"永乐电器(周家嘴路店)","lon":"121.49588","lat":"31.25471","category":"138","category_name":"家电电子卖场","address":"虹口区周家嘴路345-377号"},{"poiid":"B2094757D46DABF8449E","title":"清馔房","lon":"121.4937405","lat":"31.2498914","category":"76","category_name":"上海菜","address":"虹口区西安路58号(近旅顺路)"},{"poiid":"B2094753D56DABF94493","title":"上海环球金融中心100层","lon":"121.499992","lat":"31.25242","category":"500","category_name":"未知分类","address":"上海市 上海环球金融中心"},{"poiid":"B2094654D56DABFD4592","title":"东方有线网络有限公司虹口分公司","lon":"121.49687","lat":"31.25408","category":"263","category_name":"公司","address":"新建路211"},{"poiid":"B2094654DB64A4FC409D","title":"司麦脱大厦","lon":"121.50041","lat":"31.25276","category":"46","category_name":"楼宇","address":"唐山路216"},{"poiid":"B2094654DB6BA3F84399","title":"前进住宅小区(北门)","lon":"121.49414","lat":"31.25325","category":"47","category_name":"住宅区","address":"周家嘴路86弄1-24号"},{"poiid":"B2094654D56DA4FB479F","title":"福赐公寓","lon":"121.49955","lat":"31.253382","category":"47","category_name":"住宅区","address":"东余杭路578弄1-7号"},{"poiid":"B2094655D26FA0F54498","title":"师善里(南门)","lon":"121.4971","lat":"31.25001","category":"47","category_name":"住宅区","address":"东长治路449弄1-69号"},{"poiid":"B2094654D56DABFC4892","title":"蔡红母婴会所虹口会所","lon":"121.49584","lat":"31.25055","category":"128","category_name":"儿童用品店","address":"虹口区西安路203号(近旅顺路)"},{"poiid":"B2094655D26FABFA449A","title":"商务楼(唐山路)","lon":"121.50006","lat":"31.253","category":"46","category_name":"楼宇","address":"唐山路215"},{"poiid":"B2094654DB6BA3F84298","title":"福赐公寓(北门)","lon":"121.49937","lat":"31.25372","category":"47","category_name":"住宅区","address":"东余杭路578弄1-7号"},{"poiid":"B2094757D06BABF94893","title":"京世汉阳路店","lon":"121.494824103","lat":"31.2511650199","category":"500","category_name":"未知分类","address":"上海市虹口区东汉阳路333号"},{"poiid":"B2094757D069A5F54098","title":"金田路","lon":"121.496070103","lat":"31.254231084","category":"500","category_name":"未知分类","address":"上海市虹口区金田路"},{"poiid":"B2094655D26CA1F4459E","title":"虹口区提篮创业园区","lon":"121.49781","lat":"31.2551","category":"45","category_name":"产业园区","address":"周家嘴路448"},{"poiid":"B2094654D56DABFD459F","title":"上海博海拍卖有限公司","lon":"121.49667","lat":"31.25418","category":"249","category_name":"购物服务","address":"周家嘴路366-368"},{"poiid":"B2094655D26FA0FD499F","title":"存德坊(北门)","lon":"121.49595","lat":"31.25498","category":"47","category_name":"住宅区","address":"海伦路31弄2-59号"},{"poiid":"B2094654D56DABFD439B","title":"东余杭路第一小学分校","lon":"121.49372","lat":"31.25225","category":"56","category_name":"小学","address":"梧州路110号"},{"poiid":"B2094757D065A1F94793","title":"馨虹苑","lon":"121.4950051","lat":"31.254517089","category":"252","category_name":"楼宇机构","address":"上海市浦东新区浦东大道2516号"},{"poiid":"B2094757D16BA2F94499","title":"中国银行(旅顺路支行)","lon":"121.494612103","lat":"31.2510500175","category":"150","category_name":"银行","address":"虹口区东汉阳路285号(东汉阳路旅顺路)"},{"poiid":"B2094654D56DA4F4479D","title":"田野秀·发型美容梧州路店","lon":"121.49339","lat":"31.25311","category":"148","category_name":"美容美发店","address":"虹口区梧州路133号"},{"poiid":"B2094655D26CA1F4459F","title":"虹口区提篮创业园区(北门)","lon":"121.49765","lat":"31.25522","category":"45","category_name":"产业园区","address":"周家嘴路448"},{"poiid":"B2094654DB6BA3F8439E","title":"馨虹苑(北门)","lon":"121.49642","lat":"31.25409","category":"656","category_name":"大门","address":"周家嘴路338弄"},{"poiid":"B2094655D265A6F54199","title":"和泰玫瑰苑","lon":"121.50043","lat":"31.25193","category":"47","category_name":"住宅区","address":"上海市虹口区东长治路665弄"},{"poiid":"B2094757D164A5FB439B","title":"上海大众汽车虹口特约维修点","lon":"121.4972596","lat":"31.255065318","category":"163","category_name":"4S店","address":"上海周家嘴路414﹣418号"},{"poiid":"B2094757D16EA7FF4592","title":"Messi's Home","lon":"121.498325103","lat":"31.2541960832","category":"500","category_name":"未知分类","address":"上海市虹口区东余杭路527号"},{"poiid":"B2094654DB6BA3F84293","title":"宇泰公寓(北门)","lon":"121.49577","lat":"31.25099","category":"48","category_name":"楼宇大门","address":"东汉阳路338弄1-8号"},{"poiid":"B2094654D56DA4F9479E","title":"光明便利No.016","lon":"121.50003","lat":"31.25109","category":"117","category_name":"便民商店/便利店","address":"东长治路623"},{"poiid":"B2094655D26CA1FA469A","title":"馨虹苑(东门)","lon":"121.4972","lat":"31.2536","category":"656","category_name":"大门","address":""},{"poiid":"B2094757D168ABF9469E","title":"北外滩敬老院","lon":"121.498925","lat":"31.252608","category":"615","category_name":"敬老院","address":"虹口区唐山路145号"},{"poiid":"B2094655D26FA6FF4298","title":"春阳住宅小区","lon":"121.49282","lat":"31.252275","category":"47","category_name":"住宅区","address":"东余杭路211弄"},{"poiid":"B2094655D26CA1F4479A","title":"长治住宅小区","lon":"121.49976","lat":"31.25112","category":"47","category_name":"住宅区","address":""},{"poiid":"B2094757D06AA1F5439C","title":"君岸商务楼","lon":"121.497387","lat":"31.254736894","category":"252","category_name":"楼宇机构","address":"上海虹口区高阳路553号"},{"poiid":"B2094750D56DABF4439B","title":"匠邑世界顶级汽车美容护理","lon":"121.494316","lat":"31.250921","category":"249","category_name":"购物服务","address":"虹口区东汉阳路276号"},{"poiid":"B209475CD768A6FA499C","title":"东郊宾馆","lon":"121.499694","lat":"31.252273","category":"217","category_name":"旅馆招待所","address":"上海市 金科路1800号"},{"poiid":"B2094655D26CA1F4479B","title":"长治住宅小区(南门)","lon":"121.49983","lat":"31.25102","category":"47","category_name":"住宅区","address":""},{"poiid":"B2094757D16BA7F4459A","title":"Josie's Base","lon":"121.494096103","lat":"31.2521170398","category":"500","category_name":"未知分类","address":"上海市虹口区新建路"},{"poiid":"B2094655D26CA1FF4093","title":"中国工商银行东长治路支行","lon":"121.499","lat":"31.25072","category":"150","category_name":"银行","address":"东长治路557"},{"poiid":"B2094757D569A6FA489F","title":"浦江名邸二期","lon":"121.49591","lat":"31.25596389","category":"47","category_name":"住宅区","address":"上海市虹口区海伦路88弄"},{"poiid":"B2094757D068ABF5489A","title":"7-ELEVEN(汉阳路店)","lon":"121.49501068","lat":"31.249482372","category":"117","category_name":"便民商店/便利店","address":"虹口区汉阳路39号(近吴淞路)"},{"poiid":"B2094757D568A6F5449B","title":"晟晖宾馆","lon":"121.49703017","lat":"31.25384874","category":"251","category_name":"出行住宿","address":"新建路195、199"},{"poiid":"B2094751D26EA0FB4599","title":"唐山路保定路","lon":"121.4962","lat":"31.25513","category":"500","category_name":"未知分类","address":null},{"poiid":"B2094757D66CAAF9419A","title":"周家嘴路海伦路","lon":"121.495946","lat":"31.254991","category":"500","category_name":"未知分类","address":"上海海伦路31弄"},{"poiid":"B2094757D16DA3F5419D","title":"迪亚天天(唐山路店)","lon":"121.50042","lat":"31.25231","category":"117","category_name":"便民商店/便利店","address":"上海虹口区唐山路216号  "},{"poiid":"B2094655D26FABFA449B","title":"名江七星城(北一门)","lon":"121.4951","lat":"31.25196","category":"656","category_name":"大门","address":"东汉阳路309弄1-17号"},{"poiid":"B2094655D265A7FD419A","title":"洪福里","lon":"121.49337","lat":"31.25392","category":"47","category_name":"住宅区","address":"梧州路191弄3-7号"},{"poiid":"B2094757D064A3FB419C","title":"七星城","lon":"121.494271","lat":"31.250695","category":"500","category_name":"未知分类","address":"上海东汉阳路"},{"poiid":"B2094757D069A5FB499D","title":"总舵","lon":"121.494608","lat":"31.250594","category":"249","category_name":"购物服务","address":"上海某国某城某地"},{"poiid":"B2094757D16CA3FB419F","title":"丽萍拉面馆","lon":"121.50033881","lat":"31.253905687","category":"247","category_name":"餐饮美食","address":"上海骊山路南头"},{"poiid":"B2094757D568AAFE4198","title":"上海兄马缝纫设备有限公司","lon":"121.4991452","lat":"31.25078071","category":"255","category_name":"专卖店","address":"东长治路567"},{"poiid":"B2094757D16AA2F84598","title":"上海博海拍卖行","lon":"121.496475103","lat":"31.2550331007","category":"263","category_name":"公司","address":"上海周家嘴路新建路"},{"poiid":"B2094757D168AAFD479E","title":"573路","lon":"121.4968401","lat":"31.255263105","category":"500","category_name":"未知分类","address":"上海虹口区四川北路海宁路站"},{"poiid":"B2094655D26CA7FC439B","title":"杨子江大厦(东门)","lon":"121.49472","lat":"31.24905","category":"47","category_name":"住宅区","address":"东长治路299弄1-2号"},{"poiid":"B2094757D16FA0F44193","title":"司麦脱商务中心","lon":"121.50037","lat":"31.25236","category":"500","category_name":"未知分类","address":"上海虹口区唐山路215号(近高阳路)"},{"poiid":"B2094655D26FA6FD409F","title":"仁德南里(北门)","lon":"121.50055","lat":"31.25101","category":"47","category_name":"住宅区","address":""},{"poiid":"B2094757D065A2FC4999","title":"上海联通北外滩局","lon":"121.4938131","lat":"31.24974699","category":"500","category_name":"未知分类","address":"上海市虹口区西安路78号"},{"poiid":"B2094757D568A5FB4998","title":"衣尚会所","lon":"121.4980642","lat":"31.25547526","category":"141","category_name":"服装鞋帽皮具店","address":"中国上海市虹口区周家嘴路444"},{"poiid":"B2094655D26FA5FA4099","title":"百福小区","lon":"121.49554","lat":"31.248446","category":"47","category_name":"住宅区","address":"东长治路340弄1-4号"},{"poiid":"B2094655D268A2F54398","title":"上海纺织工业职工大学(南门)","lon":"121.50028","lat":"31.25444","category":"678","category_name":"学校大门","address":"东余杭路627"},{"poiid":"B2094655D26CA1F5459F","title":"上海市时代工业学校(南门)","lon":"121.50027","lat":"31.25446","category":"678","category_name":"学校大门","address":"东余杭路627号"},{"poiid":"B2094753D46EA2F4459F","title":"1933老厂房","lon":"121.494702","lat":"31.255092","category":"500","category_name":"未知分类","address":"上海市 海伦路"},{"poiid":"B2094757D66EA2FA4292","title":"宝华里","lon":"121.5000821","lat":"31.251370024","category":"252","category_name":"楼宇机构","address":"上海市虹口区东长治路573弄"},{"poiid":"B2094654D56DA4F54198","title":"久兴宠物诊所","lon":"121.49407","lat":"31.25113","category":"668","category_name":"诊所","address":"虹口区东汉阳路275号(近梧州路)"},{"poiid":"B2094757D168A7FB429A","title":"上海职业技能鉴定中心","lon":"121.500247","lat":"31.251229221","category":"500","category_name":"未知分类","address":"上海天山路1800号"},{"poiid":"B2094655D26CA1F4409E","title":"名江七星城(北门)","lon":"121.49442","lat":"31.25189","category":"656","category_name":"大门","address":"东汉阳路309弄1-17号"},{"poiid":"B2094757D168A5F4469E","title":"中国工商银行(周家嘴路支行)","lon":"121.49291","lat":"31.25306","category":"150","category_name":"银行","address":"虹口区周家嘴路16号近溧阳路(溧阳路周家嘴路)"},{"poiid":"B2094655D26CA1F5459C","title":"新高阳蔬菜集贸市场","lon":"121.50061","lat":"31.25402","category":"117","category_name":"便民商店/便利店","address":""},{"poiid":"B2094753D165AAFA489E","title":"黄浦江上","lon":"121.497714","lat":"31.248992","category":"500","category_name":"未知分类","address":"上海市 黄浦江"},{"poiid":"B2094655D26CA0FB4693","title":"百福小区(北门)","lon":"121.49536","lat":"31.2487","category":"47","category_name":"住宅区","address":"东长治路340弄1-4号"},{"poiid":"B2094655D26DA5F5449C","title":"仁德南里","lon":"121.50067","lat":"31.25082","category":"47","category_name":"住宅区","address":""},{"poiid":"B2094654D56DA4F4479A","title":"提篮桥街道职业介绍所","lon":"121.49781","lat":"31.25531","category":"252","category_name":"楼宇机构","address":"周家嘴路448号B"},{"poiid":"B2094654D56DABFC4998","title":"上海双天遥控模型专卖店","lon":"121.49494","lat":"31.24964","category":"255","category_name":"专卖店","address":"西安路139-141"},{"poiid":"B2094757D168A1F84898","title":"田野秀时尚造型","lon":"121.49312323","lat":"31.253943478","category":"148","category_name":"美容美发店","address":"虹口区梧州路133号(近周家嘴路)"},{"poiid":"B2094654D56DABFC449F","title":"宝原地产东汉阳店","lon":"121.4941","lat":"31.25067","category":"248","category_name":"生活娱乐","address":"东汉阳路268"},{"poiid":"B2094757D16AA1F44992","title":"上海市民进自强进修学院","lon":"121.500463603","lat":"31.2519037354","category":"500","category_name":"未知分类","address":"上海漕宝路300号"},{"poiid":"B2094757D568A7FA4198","title":"上海成达驾校报名处","lon":"121.49392036","lat":"31.25060981","category":"248","category_name":"生活娱乐","address":"虹口区东汉阳路258号(东汉阳路梧州路)"},{"poiid":"B2094757D568A1F5469A","title":"美包在线","lon":"121.4935681","lat":"31.25432306","category":"249","category_name":"购物服务","address":"虹口区梧州路231号(近周家嘴路)"},{"poiid":"B2094757D568AAF9409D","title":"上海杰耀缝纫机销售有限公司","lon":"121.5006353","lat":"31.25139567","category":"255","category_name":"专卖店","address":"东长治路649"},{"poiid":"B2094655D26DABF8449C","title":"名江七星城(南门)","lon":"121.49432","lat":"31.2512","category":"656","category_name":"大门","address":"东汉阳路309弄1-17号"},{"poiid":"B2094757D16AA6F9469B","title":"幸福路1314号","lon":"121.49660302","lat":"31.248285459","category":"500","category_name":"未知分类","address":"上海520室"},{"poiid":"B2094654D56DA4FA4592","title":"随园餐厅","lon":"121.50067","lat":"31.25389","category":"260","category_name":"其他","address":"虹口区高阳路345号(近东余杭路)"},{"poiid":"B2094655D26CA7FC439A","title":"白金府邸(东门)","lon":"121.49493","lat":"31.25049","category":"656","category_name":"大门","address":"旅顺路199弄"},{"poiid":"B2094757D569A2F8429F","title":"赛峰电动车专卖(东汉阳路)","lon":"121.49302816","lat":"31.25066922","category":"133","category_name":"自行车专卖店","address":"东汉阳路213"},{"poiid":"B2094750DB6CAAFE439E","title":"滨果coffee","lon":"121.500915","lat":"31.252082","category":"260","category_name":"其他","address":"虹口区高阳路77号北外滩滨江绿地内(近东大名路)"},{"poiid":"B2094757D06AA3FC499C","title":"my bed","lon":"121.4963811","lat":"31.256176124","category":"500","category_name":"未知分类","address":null},{"poiid":"B2094655D26FA1F54798","title":"海泰苑(西门)","lon":"121.49876","lat":"31.25503","category":"656","category_name":"大门","address":"通州路88弄1-4号"},{"poiid":"B2094655D26FA0F54598","title":"中皇广场(西门)","lon":"121.49383","lat":"31.25461","category":"48","category_name":"楼宇大门","address":"梧州路218弄"},{"poiid":"B2094757D66DABFC479B","title":"APP","lon":"121.4951151","lat":"31.249017975","category":"249","category_name":"购物服务","address":"上海市虹口区旅顺路"},{"poiid":"B2094654D56DABF94299","title":"嘉兴路派出所(海伦路)","lon":"121.49539","lat":"31.2559","category":"248","category_name":"生活娱乐","address":"海伦路87"},{"poiid":"B2094654D56DABFF489A","title":"上海天华旅行社有限公司","lon":"121.49602","lat":"31.24827","category":"248","category_name":"生活娱乐","address":"旅顺路51"},{"poiid":"B2094655D26FABFA489C","title":"海泰苑(南门)","lon":"121.49964","lat":"31.25417","category":"656","category_name":"大门","address":"通州路88弄1-4号"},{"poiid":"B2094655D26FA0FA459A","title":"浦江名邸(南门)","lon":"121.49591","lat":"31.25597","category":"656","category_name":"大门","address":"海伦路88弄1-23号"},{"poiid":"B2094654DB6BA3F84099","title":"和泰玫瑰园(北门)","lon":"121.50035","lat":"31.25263","category":"656","category_name":"大门","address":""},{"poiid":"B2094655D26FA0FA459B","title":"海伦大厦(北一门)","lon":"121.49593","lat":"31.25557","category":"656","category_name":"大门","address":"海伦路69弄1-5号"},{"poiid":"B2094655D26DABF84699","title":"浦江名邸(东门)","lon":"121.49702","lat":"31.25566","category":"656","category_name":"大门","address":"海伦路88弄2"},{"poiid":"B2094655D268A0F84093","title":"春阳住宅小区(北门)","lon":"121.4928","lat":"31.2532","category":"656","category_name":"大门","address":"东余杭路209"},{"poiid":"B2094655D26FA7FD4499","title":"春阳住宅小区(南门)","lon":"121.49288","lat":"31.2518","category":"656","category_name":"大门","address":"东余杭路209"},{"poiid":"B2094654D56DABFC4492","title":"白金府邸(南门)","lon":"121.49393","lat":"31.25011","category":"656","category_name":"大门","address":""},{"poiid":"B2094655D26CA0FF489B","title":"海伦大厦(北二门)","lon":"121.49553","lat":"31.25583","category":"656","category_name":"大门","address":""},{"poiid":"B2094655D264A4FF479B","title":"浦江名邸(南一门)","lon":"121.49609","lat":"31.25608","category":"656","category_name":"大门","address":"海伦路"}]