[{"poiid":"B2094654DB6BA4FD4592","title":"上海音乐学院","lon":"121.45487","lat":"31.21309","category":"671","category_name":"高校中心点","address":"徐汇区汾阳路20号(近复兴中路)"},{"poiid":"B2094757D06EAAFD4692","title":"Whisk","lon":"121.45298","lat":"31.21402","category":"67","category_name":"甜品店","address":"徐汇区淮海中路1250号(地铁1号线常熟路地铁站2号出口对面)"},{"poiid":"B2094757D06EAAF9409E","title":"常熟路地铁站","lon":"121.451084","lat":"31.213396","category":"36","category_name":"地铁站","address":"上海轨道交通 一号线 七号线 轨交常熟路站 1 7"},{"poiid":"B2094753D76FAAFA449C","title":"上海滩国泰旗舰店","lon":"121.466011","lat":"31.216125","category":"249","category_name":"购物服务","address":"淮海中路868号"},{"poiid":"B209475CD564A7F84292","title":"上海滩新天地店","lon":"121.47463","lat":"31.22164","category":"119","category_name":"商场","address":"\"太仓路181弄新天地北里15号\r\n\""},{"poiid":"B209475CD564A7F8439E","title":"上海滩中信泰富店","lon":"121.45602","lat":"31.22851","category":"119","category_name":"商场","address":"\"南京西路1168号中信泰富广场，店铺号221.\r\n\""},{"poiid":"B2094654DB65A5F8479D","title":"贺绿汀音乐厅","lon":"121.45461","lat":"31.21331","category":"179","category_name":"音乐厅","address":"徐汇区汾阳路20号上海音乐学院内(近淮海中路)"},{"poiid":"B2094757D16AAAFD459A","title":"上海汾陽花園酒店","lon":"121.455160738","lat":"31.212530923","category":"217","category_name":"旅馆招待所","address":"上海汾陽45號"},{"poiid":"B2094757D069A3FA429E","title":"Aura Restaurant","lon":"121.45183358","lat":"31.212174077","category":"500","category_name":"未知分类","address":"上海市 汾阳路 复兴中路"},{"poiid":"B2094757D06FA4F94799","title":"淮海中路常熟路","lon":"121.451735","lat":"31.21375","category":"38","category_name":"公交车站","address":"上海911, 920, 926, 911区间车, 320路 公交车站"},{"poiid":"B2094757D069A3F54799","title":"El Patio","lon":"121.45368458","lat":"31.210532045","category":"94","category_name":"西餐厅","address":"徐汇区汾阳路110号(近太原路)"},{"poiid":"B2094750D26EA7FE479D","title":"人民广场地铁站","lon":"121.452407","lat":"31.213254","category":"36","category_name":"地铁站","address":null},{"poiid":"B2094757D468A4FE439C","title":"埃哇餐厅 汾阳路店 AURA","lon":"121.454274","lat":"31.2113792","category":"94","category_name":"西餐厅","address":"徐汇区汾阳路64弄4号(近复兴中路)"},{"poiid":"B2094752D16FA3F8439C","title":"petit paris小巴黎咖啡厅","lon":"121.45103","lat":"31.21387","category":"247","category_name":"餐饮美食","address":"淮海中路1288号，华亭路93弄"},{"poiid":"B2094757D06FA4F84599","title":"上方花园","lon":"121.45129","lat":"31.212694","category":"47","category_name":"住宅区","address":"淮海中路1285弄1-77号"},{"poiid":"B2094757D66CA1FB449B","title":"88club","lon":"121.45549011","lat":"31.214376449","category":"500","category_name":"未知分类","address":"上海徐汇区富民路"},{"poiid":"B2094757D068A6F8449D","title":"邮电医院南部","lon":"121.45559842","lat":"31.211518436","category":"162","category_name":"医院","address":"徐汇区复兴中路1315号(近汾阳路)"},{"poiid":"B2094655D265A7FF429F","title":"上海音乐学院(南门)","lon":"121.45434","lat":"31.21193","category":"52","category_name":"高等院校","address":"复兴中路1330"},{"poiid":"B2094757D065A3F94398","title":"茜茜莉亚音乐咖啡","lon":"121.4542747","lat":"31.211379","category":"65","category_name":"咖啡厅","address":"徐汇区汾阳路64弄2号(近复兴中路)"},{"poiid":"B2094753D464AAF8489D","title":"上海交响乐团音乐厅","lon":"121.451896","lat":"31.21169","category":"500","category_name":"未知分类","address":"复兴中路1380号"},{"poiid":"B2094757D568A0F4459D","title":"汾阳花园酒店","lon":"121.45546767","lat":"31.21291558","category":"214","category_name":"四星级宾馆","address":"上海徐汇区汾阳路45号(近复兴中路)"},{"poiid":"B2094757D16FA6F44099","title":"上海音乐学院 北楼","lon":"121.45405058","lat":"31.213074095","category":"500","category_name":"未知分类","address":"上海汾阳路二十号 新教学楼"},{"poiid":"B2094750DA6AABFC429C","title":"上海国际F1赛车场","lon":"121.454673","lat":"31.214015","category":"500","category_name":"未知分类","address":null},{"poiid":"B2094757D568AAFE4892","title":"上海音乐学院餐厅","lon":"121.4545131","lat":"31.21272194","category":"68","category_name":"快餐厅","address":"徐汇区汾阳路20号上海音乐学院内(近复兴中路)"},{"poiid":"B2094757D56DA6F54093","title":"上海音乐学院","lon":"121.454287","lat":"31.213444","category":"52","category_name":"高等院校","address":"汾阳路20号"},{"poiid":"B2094753D569A4F44798","title":"DoroqGarden 多洛库花园","lon":"121.453735","lat":"31.212795","category":"47","category_name":"住宅区","address":"上海市 上海市徐汇区延庆路140号"},{"poiid":"B2094757D06FA7FA4998","title":"Memo bar & restaurant","lon":"121.4543","lat":"31.21143","category":"94","category_name":"西餐厅","address":"嘉善路259弄旁嘉善老市内（建国西路和永嘉路之间）"},{"poiid":"B2094655D264A0FB419D","title":"淮海公寓","lon":"121.45298","lat":"31.214819","category":"47","category_name":"住宅区","address":"上海市卢湾区淮海中路1202号"},{"poiid":"B2094757DB6CA3FC4699","title":"上海汾阳花园酒店","lon":"121.455148","lat":"31.212659","category":"213","category_name":"五星级宾馆","address":"上海市徐汇区汾阳路45号(近复兴中路)"},{"poiid":"B2094757D06EAAFD4392","title":"磨咕咖啡馆 mogoo cafe","lon":"121.454309054","lat":"31.211203793","category":"260","category_name":"其他","address":"徐汇区汾阳路77号(近音乐学院)"},{"poiid":"B2094757D069A7FC489F","title":"十号名邸","lon":"121.45163243","lat":"31.212480733","category":"47","category_name":"住宅区","address":"宝庆路10号2-4楼近复兴中路"},{"poiid":"B2094757D165A7FC4892","title":"上海音乐学院 北楼报告厅","lon":"121.454496638","lat":"31.2131364359","category":"500","category_name":"未知分类","address":"上海汾阳路20号"},{"poiid":"B2094757D068A4F8409F","title":"柏斯琴行(汾阳路店)","lon":"121.454502218","lat":"31.2121623067","category":"260","category_name":"其他","address":"徐汇区汾阳路30号(近复兴西路)"},{"poiid":"B2094655D26FA7F8459F","title":"新康花园","lon":"121.45245","lat":"31.21299","category":"47","category_name":"住宅区","address":"淮海中路1273弄1-25,26,28号"},{"poiid":"B2094654DB65A4FB4098","title":"上音小区","lon":"121.45383","lat":"31.212023","category":"47","category_name":"住宅区","address":"复兴中路1340弄1-2号"},{"poiid":"B2094757D06AA5FC419F","title":"happy face coffe","lon":"121.45177058","lat":"31.214046114","category":"500","category_name":"未知分类","address":"上海市淮海中路1288号"},{"poiid":"B209475CDB6FA4FC4599","title":"上海当代艺术馆","lon":"121.453796","lat":"31.213859","category":"500","category_name":"未知分类","address":"上海市 南京西路231号人民公园7号门"},{"poiid":"B2094757D06BA1FD429B","title":"南十字星","lon":"121.451812245","lat":"31.2138919748","category":"260","category_name":"其他","address":"徐汇区淮海中路1276号(近华亭路)"},{"poiid":"B2094757D165A2F44699","title":"上海音乐学院学术厅","lon":"121.45461945","lat":"31.213130829","category":"500","category_name":"未知分类","address":"上海汾阳路20号"},{"poiid":"B2094655D26AA0F94699","title":"地铁常熟路站","lon":"121.45107","lat":"31.2134","category":"36","category_name":"地铁站","address":""},{"poiid":"B2094655D268A2FA469D","title":"音苑小区","lon":"121.45316","lat":"31.211926","category":"47","category_name":"住宅区","address":"复兴中路1350弄1-23号"},{"poiid":"B2094757D06AA3FB4199","title":"中国银行(淮海支行)","lon":"121.4530235","lat":"31.2143001","category":"150","category_name":"银行","address":"徐汇区淮海中路1216号(近常熟路)"},{"poiid":"B2094752D668A4FD489A","title":"查餐厅","lon":"121.455439","lat":"31.211717","category":"247","category_name":"餐饮美食","address":"思南路"},{"poiid":"B2094757D06EAAFE469F","title":"微听Waiting Cafe(复兴中路近汾阳路)","lon":"121.453418","lat":"31.211411","category":"65","category_name":"咖啡厅","address":"上海复兴中路1323号，近汾阳路"},{"poiid":"B2094655D36CA5F9479D","title":"常熟路","lon":"121.45126","lat":"31.21355","category":"38","category_name":"公交车站","address":""},{"poiid":"B2094757D16FA7FB489D","title":"瑞金医院远洋分院","lon":"121.454749738","lat":"31.2148719729","category":"162","category_name":"医院","address":"上海市静安区长乐路"},{"poiid":"B209475CD26DA1F5419F","title":"the TERRACE","lon":"121.452026","lat":"31.21331","category":"500","category_name":"未知分类","address":"上海市 安福路23号"},{"poiid":"B2094752D76CA3FF4698","title":"Casa Cafe","lon":"121.452558","lat":"31.211965","category":"247","category_name":"餐饮美食","address":"63 永康路"},{"poiid":"B2094654DA6DA4F4499C","title":"杰天阁随意小吃","lon":"121.4542","lat":"31.21141","category":"76","category_name":"上海菜","address":"徐汇区汾阳路64弄1号"},{"poiid":"B2094654DB6BA5FB4093","title":"巴比馒头 汾阳路店 Babi Food","lon":"121.454144054","lat":"31.211533793","category":"68","category_name":"快餐厅","address":"徐汇区汾阳路57号(近复兴路)"},{"poiid":"B2094757D069ABFF4292","title":"招商银行(淮海支行)","lon":"121.4542","lat":"31.21422","category":"150","category_name":"银行","address":"徐汇区淮海中路1155号(近汾阳路)"},{"poiid":"B2094757DB68A7F9439B","title":"上海音乐学院研究生部","lon":"121.454265","lat":"31.213508","category":"253","category_name":"校园生活","address":"徐汇区汾阳路20号"},{"poiid":"B2094655D265A7FB4798","title":"悟茶茶馆","lon":"121.45489","lat":"31.21179","category":"66","category_name":"茶艺馆","address":"复兴中路1315-2临"},{"poiid":"B2094750D36BABFA4692","title":"致尚生活的爱","lon":"121.45278908724","lat":"31.211112767704","category":"247","category_name":"餐饮美食","address":"徐汇区复兴中路1335号(近音乐学院)"},{"poiid":"B2094757D16CA1F94893","title":"Jenny's blue bar","lon":"121.45295458","lat":"31.213430102","category":"500","category_name":"未知分类","address":"上海东湖路"},{"poiid":"B2094757D16BABF8469A","title":"El Gato Verde","lon":"121.454563586","lat":"31.2111980588","category":"94","category_name":"西餐厅","address":"徐汇区汾阳路74号(近复兴中路)"},{"poiid":"B2094654DA6DA4F5409B","title":"罗森复兴中路店","lon":"121.45378","lat":"31.21152","category":"117","category_name":"便民商店/便利店","address":"复兴中路1319"},{"poiid":"B2094753D468A5F8419D","title":"Grace studio","lon":"121.451896","lat":"31.212638","category":"500","category_name":"未知分类","address":"上海市 五原路96弄1号(近常熟路地铁站)"},{"poiid":"B2094655D268A2FA4692","title":"音苑小区(南门)","lon":"121.45324","lat":"31.2116","category":"47","category_name":"住宅区","address":"复兴中路1350弄1-23号"},{"poiid":"B2094757D065A4FB459A","title":"OgilvyOne","lon":"121.452948322","lat":"31.2136250687","category":"500","category_name":"未知分类","address":"上海市长乐路989号26楼"},{"poiid":"B2094757D66DA3FE449C","title":"地鐵1號綫","lon":"121.451383","lat":"31.213704","category":"500","category_name":"未知分类","address":"上海邊走邊換！"},{"poiid":"B2094757D06AA1FC4293","title":"小绿猫墨西哥风味卷饼店","lon":"121.454086","lat":"31.211154","category":"247","category_name":"餐饮美食","address":"上海市徐汇区汾阳路74号"},{"poiid":"B2094654DA6EA2FB4493","title":"复兴音乐书店","lon":"121.45348","lat":"31.21175","category":"125","category_name":"书店","address":"复兴中路1350号"},{"poiid":"B2094757D16AA3F9449C","title":"50弄","lon":"121.45279817","lat":"31.212267195","category":"500","category_name":"未知分类","address":"上海徐汇区五原路"},{"poiid":"B2094654D564ABFD459E","title":"上海交通大学医学院附属瑞金医院远洋分院(淮中大楼西北)","lon":"121.45349","lat":"31.21508","category":"162","category_name":"医院","address":"淮海中路1174号"},{"poiid":"B2094752D364AAFC459A","title":"Costa汾阳路","lon":"121.455585","lat":"31.214076","category":"247","category_name":"餐饮美食","address":null},{"poiid":"B2094751D465A3F5449A","title":"hoF","lon":"121.455483","lat":"31.211434","category":"249","category_name":"购物服务","address":"思南路淮海中路"},{"poiid":"B2094753D66DABFC419B","title":"Dream Yard","lon":"121.452743","lat":"31.213843","category":"500","category_name":"未知分类","address":"上海市 卢湾区襄阳南路222号"},{"poiid":"B209475CD06CA6F4479E","title":"恒春元食堂","lon":"121.45144","lat":"31.21363","category":"68","category_name":"快餐厅","address":"淮海中路1280号1楼(近华亭路)"},{"poiid":"B2094753DB64A1F4499C","title":"Le Marais蓝玛赫","lon":"121.453926","lat":"31.214979","category":"247","category_name":"餐饮美食","address":"上海市 上海市静安区南京西路1038号梅龙镇广场3楼319A(近江宁路)"},{"poiid":"B2094655D268A7F8489F","title":"新康花园(南门)","lon":"121.45298","lat":"31.2115","category":"47","category_name":"住宅区","address":"复兴中路1360弄1-4号"},{"poiid":"B2094751D264A5FD489E","title":"陕西南路1号线地铁站","lon":"121.4521672","lat":"31.2152085","category":"36","category_name":"地铁站","address":null},{"poiid":"B2094655D26CA1FE4498","title":"交通银行职工宿舍","lon":"121.45372","lat":"31.21147","category":"47","category_name":"住宅区","address":"复兴中路1321弄1-2号"},{"poiid":"B2094655D26EAAF5499B","title":"张元济故居","lon":"121.45128","lat":"31.21269","category":"66","category_name":"茶艺馆","address":"徐汇区淮海中路1285号上方花园24号(近常熟路地铁站)"},{"poiid":"B2094654DA6DA6F84199","title":"安盛商务楼","lon":"121.4543","lat":"31.21079","category":"46","category_name":"楼宇","address":"汾阳路77号"},{"poiid":"B209475CD064AAFB409F","title":"AURA 汾阳路","lon":"121.45427","lat":"31.21137","category":"94","category_name":"西餐厅","address":"汾阳路64弄4号(近复兴中路)"},{"poiid":"B2094751DA6BA2FE439B","title":"田子访","lon":"121.4542829","lat":"31.211264","category":"247","category_name":"餐饮美食","address":null},{"poiid":"B2094654D564ABFD4598","title":"光明公寓(南门)","lon":"121.45271","lat":"31.21425","category":"47","category_name":"住宅区","address":"淮海中路1224、1228-1230"},{"poiid":"B2094757D16AABF9419E","title":"Happy Face","lon":"121.45109958","lat":"31.213467103","category":"500","category_name":"未知分类","address":"上海市淮海中路1288号"},{"poiid":"B2094654DB65AAF9469A","title":"东湖双拥小区","lon":"121.45333","lat":"31.2146","category":"47","category_name":"住宅区","address":"淮海中路1200弄1-25号"},{"poiid":"B2094654DA6EA2F44099","title":"亨事利(淮海中路)","lon":"121.45232","lat":"31.21379","category":"141","category_name":"服装鞋帽皮具店","address":"徐汇区淮海中路1251弄"},{"poiid":"B2094655D268A5FF429F","title":"盖司康公寓(南门)","lon":"121.45295","lat":"31.21438","category":"47","category_name":"住宅区","address":"淮海中路1212"},{"poiid":"B2094654D564ABFD4592","title":"Azure Blu(淮海中路)","lon":"121.45289","lat":"31.21432","category":"141","category_name":"服装鞋帽皮具店","address":""},{"poiid":"B2094654DB6BA4FD469E","title":"亚振家具","lon":"121.4522","lat":"31.21364","category":"123","category_name":"家具建材市场","address":"徐汇区淮海中路1253号(华亭路淮海中路)"},{"poiid":"B2094655D268A1FC4593","title":"盖司康公寓","lon":"121.45303","lat":"31.214455","category":"47","category_name":"住宅区","address":"淮海中路1212号"},{"poiid":"B2094757D568A7F5459B","title":"快客便利店(淮海中路)","lon":"121.45177816","lat":"31.21352403","category":"117","category_name":"便民商店/便利店","address":"淮海中路1285弄6-1"},{"poiid":"B2094654DB69A7F44599","title":"荣和商务中心","lon":"121.45469","lat":"31.21514","category":"46","category_name":"楼宇","address":"石景山区阜石路与杨庄东街交叉口西北角"},{"poiid":"B2094751D464ABF5419E","title":"上海理工大学中英国际学院","lon":"121.454946","lat":"31.2145127","category":"671","category_name":"高校中心点","address":null},{"poiid":"B2094757D06EAAF4449F","title":"Jiepang SH Office Garden","lon":"121.4509543","lat":"31.2132879","category":"197","category_name":"动物园","address":"上海徐汇区淮海中路1285弄小院子"},{"poiid":"B2094757DB6CABFC449A","title":"上海帝国理工大学中英皇家国际学院","lon":"121.455296","lat":"31.214148","category":"253","category_name":"校园生活","address":"复兴中路1195号"},{"poiid":"B2094757D164A0F4409E","title":"926","lon":"121.45233474","lat":"31.21371487","category":"500","category_name":"未知分类","address":"上海公车"},{"poiid":"B2094757D064A3FC459C","title":"复兴中路近汾阳路","lon":"121.4519967","lat":"31.211072371","category":"500","category_name":"未知分类","address":"上海1333弄"},{"poiid":"B2094654D564ABFD459B","title":"上海真丝商厦淮海店","lon":"121.45279","lat":"31.2143","category":"141","category_name":"服装鞋帽皮具店","address":"淮海中路1226"},{"poiid":"B2094757D06BA7FD419E","title":"Neo@Ogilvy SH","lon":"121.45214843","lat":"31.212257385","category":"500","category_name":"未知分类","address":"上海长乐路989号世纪商贸广场22楼"},{"poiid":"B2094655D268A5F54492","title":"永福第三小区(南门)","lon":"121.45182","lat":"31.21386","category":"47","category_name":"住宅区","address":"淮海中路1270弄1-31号"},{"poiid":"B2094753D66BA7FF479A","title":"福记港式茶粥面","lon":"121.451179","lat":"31.213457","category":"247","category_name":"餐饮美食","address":"上海市 陕西南路11号"},{"poiid":"B2094655D26FA6F44298","title":"光明公寓","lon":"121.45264","lat":"31.214552","category":"47","category_name":"住宅区","address":"淮海中路1224,1228-1230"},{"poiid":"B2094655D268A7F8499E","title":"汾阳路9弄小区(西门)","lon":"121.45552","lat":"31.21369","category":"47","category_name":"住宅区","address":"汾阳路9弄1-11号"},{"poiid":"B209475CD069A7F5409C","title":"小巴黎花园咖啡馆","lon":"121.451061","lat":"31.213728","category":"65","category_name":"咖啡厅","address":"淮海中路1288号(近常熟路地铁站)"},{"poiid":"B209475CD66CA2FA4198","title":"茶の彩","lon":"121.45243","lat":"31.214504","category":"249","category_name":"购物服务","address":"上海市 静安区南京西路1618号久光百货B1"},{"poiid":"B2094654DA6DA6FF459F","title":"玛莎","lon":"121.45577","lat":"31.21206","category":"141","category_name":"服装鞋帽皮具店","address":"复兴中路1303"},{"poiid":"B2094757D66EA1FA4392","title":"上海爱乐","lon":"121.455225","lat":"31.213186","category":"500","category_name":"未知分类","address":"上海徐汇区汾阳路21号"},{"poiid":"B209475CD16DA7FD4292","title":"El Amor De La Vida","lon":"121.452","lat":"31.21115","category":"65","category_name":"咖啡厅","address":"复兴中路1335号(近音乐学院)"},{"poiid":"B2094752D36EAAFA489B","title":"阿娘面馆","lon":"121.455424","lat":"31.211701","category":"247","category_name":"餐饮美食","address":"司南路36号"},{"poiid":"B2094757D16CA0F5479D","title":"徐汇区公积金中心","lon":"121.452474586","lat":"31.2112557968","category":"500","category_name":"未知分类","address":"上海复兴中路1331号"},{"poiid":"B2094753D76AA1F5489D","title":"锅德港式海鲜肥牛火锅(淮海中路店)","lon":"121.455767","lat":"31.214233","category":"86","category_name":"火锅店","address":"上海市徐汇区汾阳路3号2号楼2-3楼(近淮海中路)"},{"poiid":"B2094654DA6DA4F4499D","title":"卡拉斯音像","lon":"121.45412","lat":"31.21162","category":"127","category_name":"音像店","address":"徐汇区汾阳路64弄3号(近复兴路)"},{"poiid":"B2094655D268A5F5449D","title":"永福第三小区","lon":"121.45175","lat":"31.21426","category":"47","category_name":"住宅区","address":"淮海中路1270弄1-31号"},{"poiid":"B2094757D169A7FA449F","title":"怡琴坊","lon":"121.454455","lat":"31.211509","category":"500","category_name":"未知分类","address":"上海汾阳路55号"},{"poiid":"B2094654D564ABFD4492","title":"淮中大楼","lon":"121.45417","lat":"31.214918","category":"47","category_name":"住宅区","address":"淮海中路1162号"},{"poiid":"B2094750DB6BA0FE4798","title":"中国平安财产保险股份有限公司上海分公司车险理赔大厅","lon":"121.452423","lat":"31.214492","category":"500","category_name":"未知分类","address":"静安区常熟路8号"},{"poiid":"B2094654DA6EA2FB4992","title":"华东师范大学淮海路校区图书馆","lon":"121.45569","lat":"31.21418","category":"181","category_name":"图书馆","address":"汾阳路3"},{"poiid":"B2094757D66AAAFA449E","title":"欢颜咖啡馆 HAPPYFACE COFFEE","lon":"121.451048","lat":"31.213797","category":"260","category_name":"其他","address":"徐汇区淮海中路1288号(近常熟路地铁站)"},{"poiid":"B2094655D26BA3FD419A","title":"达芬奇家居","lon":"121.45372","lat":"31.21475","category":"123","category_name":"家具建材市场","address":"徐汇区淮海中路1177号(近汾阳路)"},{"poiid":"B2094757D165AAFE4399","title":"衡安大楼","lon":"121.453","lat":"31.2112","category":"252","category_name":"楼宇机构","address":"上海徐汇区衡山路20号"},{"poiid":"B2094655D26FAAFD499E","title":"天平街道桃源村小区(北门)","lon":"121.4559","lat":"31.21209","category":"47","category_name":"住宅区","address":"复兴中路1295弄1-75号"},{"poiid":"B2094757D568A0FA479B","title":"爱其佰蓝淮海中路店","lon":"121.4528475","lat":"31.21442167","category":"249","category_name":"购物服务","address":"卢湾区淮海中路1220号(近华亭路)"},{"poiid":"B2094655D26CA4FA459D","title":"珊珊小区（北门）","lon":"121.45219","lat":"31.21103","category":"47","category_name":"住宅区","address":"复兴中路1333弄1-6号"},{"poiid":"B2094757D16AA5FF469C","title":"火车票代售 （复兴中路）","lon":"121.45482635","lat":"31.212825775","category":"251","category_name":"出行住宿","address":"上海复兴中路1330号近汾阳路音乐学院"},{"poiid":"B2094654DB6BA6FC419E","title":"上海市住安建设发展股份有限公司(淮海中路)","lon":"121.45236","lat":"31.21415","category":"263","category_name":"公司","address":"淮海中路1250"},{"poiid":"B2094757D069A3FD449B","title":"上海市商贸旅游学校","lon":"121.45610973","lat":"31.21234377","category":"54","category_name":"职业技术学校","address":"上海浦东南路1548号"},{"poiid":"B2094654DA6DA6FF459D","title":"玲珑坊(复兴中路)","lon":"121.45563","lat":"31.21202","category":"141","category_name":"服装鞋帽皮具店","address":""},{"poiid":"B2094757D569A3FD4399","title":"Amour Cache(淮海中路店)","lon":"121.4518431","lat":"31.21388194","category":"249","category_name":"购物服务","address":"淮海中路1260号"},{"poiid":"B2094655D268A6F5439C","title":"延庆路123弄小区","lon":"121.45226","lat":"31.21505","category":"47","category_name":"住宅区","address":"延庆路123弄1-34号"},{"poiid":"B2094654DA6DA4F4499B","title":"兆林提琴","lon":"121.45407","lat":"31.21113","category":"255","category_name":"专卖店","address":"徐汇区汾阳路76"},{"poiid":"B2094757D165A5FA4193","title":"水木多多","lon":"121.4525299","lat":"31.215013504","category":"247","category_name":"餐饮美食","address":"上海常熟路83号4层"},{"poiid":"B2094654DA6EA2F4409E","title":"佳映快印","lon":"121.45175","lat":"31.2135","category":"248","category_name":"生活娱乐","address":"徐汇区淮海中路1273弄门口(近华亭路)"},{"poiid":"B2094757D165A0FD469B","title":"Tantra","lon":"121.45450273","lat":"31.214450963","category":"260","category_name":"其他","address":"卢湾区淮海中路1131号"},{"poiid":"B2094654DA6EA2FB499F","title":"华东师范大学上海会展学院","lon":"121.45588","lat":"31.21418","category":"52","category_name":"高等院校","address":"汾阳路3"},{"poiid":"B2094654DA6EA2FB499C","title":"华东师范大学继续教育学院","lon":"121.45589","lat":"31.21418","category":"52","category_name":"高等院校","address":"汾阳路3号6层"},{"poiid":"B2094654DA6DABFD4193","title":"音乐之声(复兴中路)","lon":"121.45281","lat":"31.21122","category":"127","category_name":"音像店","address":"复兴中路1327"},{"poiid":"B2094757D66DABFD459B","title":"1288","lon":"121.45182758","lat":"31.214019114","category":"500","category_name":"未知分类","address":null},{"poiid":"B2094655D268A5F5489D","title":"延庆路51弄小区","lon":"121.45257","lat":"31.21536","category":"47","category_name":"住宅区","address":"延庆路51弄1-26号"},{"poiid":"B2094757D164A7F94392","title":"海阔天空","lon":"121.45308733","lat":"31.214700527","category":"249","category_name":"购物服务","address":"上海柳州路300"},{"poiid":"B2094757D165A3FE4198","title":"荆棘鸟书会","lon":"121.45114658","lat":"31.212665087","category":"260","category_name":"其他","address":"徐汇区淮海中路1285弄16号(近1号线常熟路地铁站)"},{"poiid":"B2094655D265ABF8479C","title":"淮海公寓(东门)","lon":"121.45319","lat":"31.21477","category":"48","category_name":"楼宇大门","address":"淮海中路1202"},{"poiid":"B2094757D164A7F8429E","title":"新汾阳公寓","lon":"121.45455","lat":"31.210863","category":"252","category_name":"楼宇机构","address":"新汾阳公寓位于徐汇汾阳路77号"},{"poiid":"B2094655D268A5F84993","title":"珊珊小区","lon":"121.45242","lat":"31.21065","category":"47","category_name":"住宅区","address":"复兴中路1333弄1-6号"},{"poiid":"B2094655D26EA7F4449E","title":"新汾阳公寓(2号门)","lon":"121.45404","lat":"31.21037","category":"47","category_name":"住宅区","address":"汾阳路77"},{"poiid":"B2094757D164A0FF499C","title":"长宁路","lon":"121.45200403","lat":"31.21458882","category":"500","category_name":"未知分类","address":"上海长宁路155弄"},{"poiid":"B2094757D06AA5F8479D","title":"悟空悟茶","lon":"121.45509","lat":"31.21139","category":"500","category_name":"未知分类","address":"上海徐汇区复兴中路1315号(近汾阳路)  "},{"poiid":"B2094654DA6DA6FF459B","title":"1293WEAR","lon":"121.45598","lat":"31.21211","category":"141","category_name":"服装鞋帽皮具店","address":"天平路"},{"poiid":"B2094654DA6DA6F8419A","title":"上海市电信有限公司南区电信局线路中心","lon":"121.4547","lat":"31.21119","category":"263","category_name":"公司","address":"汾阳路61"},{"poiid":"B2094757D568A5FC469F","title":"浅蓝书坊淮海中路店","lon":"121.4508761","lat":"31.21334917","category":"125","category_name":"书店","address":"徐汇区淮海中路1288号(近常熟路地铁站)"},{"poiid":"B2094757D069A4F94899","title":"Aegis Media Group","lon":"121.45473373","lat":"31.214693969","category":"500","category_name":"未知分类","address":"上海市徐汇区淮海中路1045号淮海国际广场28楼"},{"poiid":"B2094654DA6DA6F84093","title":"上海市电信有限公司客户响应中心(汾阳路)","lon":"121.4547","lat":"31.2112","category":"263","category_name":"公司","address":"汾阳路61"},{"poiid":"B2094757D16DA4FF4893","title":"2逼天堂","lon":"121.452996686","lat":"31.2107817507","category":"500","category_name":"未知分类","address":null},{"poiid":"B2094757D06AABF8449F","title":"legend star 日系男装","lon":"121.454575786","lat":"31.2148065294","category":"500","category_name":"未知分类","address":"上海市长乐路190号都市风情街B32"},{"poiid":"B2094655D268A2FF409F","title":"中国电信汾阳分局","lon":"121.45471","lat":"31.21119","category":"263","category_name":"公司","address":"汾阳路61"},{"poiid":"B2094654DA6DABFD429F","title":"上海市物业管理行业协会","lon":"121.45242","lat":"31.21065","category":"250","category_name":"公园户外","address":"复兴中路1333弄1之6-7号"},{"poiid":"B2094757D164A1F94492","title":"复襄居委会","lon":"121.45573973","lat":"31.213719948","category":"500","category_name":"未知分类","address":"上海汾阳路9弄10号"},{"poiid":"B2094752D368A1F5489C","title":"知音琴行","lon":"121.453825","lat":"31.214618","category":"255","category_name":"专卖店","address":"卢湾区淮海中路1177号"},{"poiid":"B2094757D16AA6FF439B","title":"iniphoto","lon":"121.45105358","lat":"31.213562105","category":"500","category_name":"未知分类","address":"上海市淮河中路1288号"},{"poiid":"B2094757D16BA6FD419E","title":"亦圆","lon":"121.452255186","lat":"31.2146392261","category":"217","category_name":"旅馆招待所","address":"上海安福路１６８号"},{"poiid":"B2094757D06BA6F8449A","title":"VIVAN新人有约婚纱馆","lon":"121.45421717","lat":"31.210527127","category":"500","category_name":"未知分类","address":"上海市雁荡路107号雁荡大厦10楼H座"},{"poiid":"B2094757D66CA0F5419C","title":"复兴中路衡山路东平路桃江路跑步","lon":"121.45194158","lat":"31.21079205","category":"500","category_name":"未知分类","address":"上海复兴中路衡山路"},{"poiid":"B2094750DB65A7F94599","title":"上海明捷万丽酒店","lon":"121.454925","lat":"31.214504","category":"627","category_name":"一般地点标志","address":null},{"poiid":"B2094757D069A5FF4693","title":"96路复兴中路汾阳路站","lon":"121.45493214","lat":"31.210934269","category":"500","category_name":"未知分类","address":"上海复兴中路1300号"},{"poiid":"B2094757D169A3F84699","title":"Richemont","lon":"121.45458984","lat":"31.210504531","category":"500","category_name":"未知分类","address":"上海市淮海中路1325号艾美高大厦5楼"},{"poiid":"B2094757D069ABFC449E","title":"大瓶De可乐秘密仓库","lon":"121.45267578","lat":"31.210452944","category":"500","category_name":"未知分类","address":null}]