[{"poiid":"B2094655D268A3FF449E","title":"世博演艺中心","lon":"121.494","lat":"31.18899","category":"180","category_name":"剧场","address":"上海市浦东新区世博大道"},{"poiid":"B2094757D064ABFB4392","title":"梅赛德斯奔驰文化中心音乐俱乐部","lon":"121.495735738","lat":"31.1882344057","category":"500","category_name":"未知分类","address":"上海世博大道1200号西门一层"},{"poiid":"B2094750D365ABFA4392","title":"梅赛得斯-奔驰文化中心","lon":"121.493125","lat":"31.189492","category":"500","category_name":"未知分类","address":"世博大道1200号"},{"poiid":"B2094655D268A3FF4498","title":"世博园区中国馆","lon":"121.49475","lat":"31.18453","category":"183","category_name":"展览馆","address":""},{"poiid":"B2094757D06FA2FE4092","title":"世纪星滑冰俱乐部(Century Star Rink)","lon":"121.49329056","lat":"31.18833552","category":"260","category_name":"其他","address":"浦东新区世博大道1200号梅赛德斯奔驰文化中心B1楼"},{"poiid":"B2094757D06EAAF9409C","title":"世博会中国国家馆","lon":"121.494923671","lat":"31.184639805","category":"260","category_name":"其他","address":"上海浦东新区国展路云台路口(原上海世博会A片区)"},{"poiid":"B2094757DA6EA6FE489C","title":"望湘园(世博店)","lon":"121.4943","lat":"31.18886","category":"77","category_name":"湖南菜","address":"浦东新区世博大道1200号梅赛德斯奔驰文化中心6楼603号(近上南路)"},{"poiid":"B2094750D66CA7F9449E","title":"月亮船","lon":"121.496009","lat":"31.188825","category":"500","category_name":"未知分类","address":null},{"poiid":"B2094757DA6EA4F8459F","title":"世博场馆沙特阿拉伯馆","lon":"121.4958","lat":"31.188443","category":"252","category_name":"楼宇机构","address":"浦东新区博成路1221号(近高科西路口)"},{"poiid":"B2094751D56BA1F5479A","title":"世博源(The River Mall)","lon":"121.491795","lat":"31.187409","category":"247","category_name":"餐饮美食","address":"浦东新区世博大道1368号(近中华艺术宫)"},{"poiid":"B2094752DB6AA3FB489A","title":"银乐迪","lon":"121.492111","lat":"31.187576","category":"500","category_name":"未知分类","address":"上海市 世博大道1368号1G13(近上南路)"},{"poiid":"B2094751DA68ABFA459D","title":"世博源王鼎日本料理","lon":"121.491779","lat":"31.187822","category":"247","category_name":"餐饮美食","address":"世博源"},{"poiid":"B2094757D06EABF4499A","title":"The Mixing Room&amp;MUSE","lon":"121.4909603","lat":"31.1862715","category":"179","category_name":"音乐厅","address":"上海浦东新区世博大道1200号(梅赛德斯-奔驰文化中心B1层)"},{"poiid":"B2094751D464A7F9499C","title":"梅赛德斯文化中心","lon":"121.492462","lat":"31.188721","category":"500","category_name":"未知分类","address":"上海浦东"},{"poiid":"B2094757D06FA4FE4698","title":"味千拉面(世博文化中心店)","lon":"121.49320902","lat":"31.188971979","category":"68","category_name":"快餐厅","address":"浦东新区世博大道1200号B1层B101-103号"},{"poiid":"B2094751DA6FA7F44093","title":"麝香猫咖啡世博店","lon":"121.49202","lat":"31.18782","category":"247","category_name":"餐饮美食","address":"浦东新区浦东南路3588号世博源购物中心LM楼1LM06室"},{"poiid":"B2094757D069A0FF4298","title":"乐町Rakumachi 日本料理","lon":"121.49200542","lat":"31.187594186","category":"500","category_name":"未知分类","address":"上海浦东世博大道1200号世博文化中心6楼605"},{"poiid":"B2094757D068ABF84899","title":"世博庆典广场","lon":"121.49148323","lat":"31.188546226","category":"201","category_name":"城市广场","address":"原上海世博会世博园世博轴北面(近黄浦江畔)"},{"poiid":"B2094752D065A0FE449B","title":"王鼎日本料理铁板烧","lon":"121.492686","lat":"31.189287","category":"247","category_name":"餐饮美食","address":"世博大道1368号世博源1LM03-04号铺(近梅赛德斯奔驰文化中心西门)"},{"poiid":"B2094757D068A3F94492","title":"世博会阿联酋馆","lon":"121.49784","lat":"31.18622","category":"260","category_name":"其他","address":"上海浦东新区国展路近云台路(原上海世博会A片区)"},{"poiid":"B2094751DA69A7F44992","title":"王鼎","lon":"121.492645","lat":"31.189255","category":"247","category_name":"餐饮美食","address":"浦东新区世博大道1368号世博源1LM03-04号铺(近梅赛德斯奔驰文化中心西门)"},{"poiid":"B2094752DB6DA3FC4393","title":"银乐迪（世博源店）","lon":"121.490905","lat":"31.187173","category":"500","category_name":"未知分类","address":"上海市 世博大道1368号1G11"},{"poiid":"B2094751D26FA2F54699","title":"上海地铁8号线中华艺术宫站","lon":"121.49370496826168","lat":"31.184915300620595","category":"36","category_name":"地铁站","address":"浦东新区上南路近博成路"},{"poiid":"B2094750DB6AA7F5439D","title":"上海新国际博览中心","lon":"121.493598","lat":"31.189872","category":"500","category_name":"未知分类","address":"浦东新区龙阳路2345号"},{"poiid":"B2094750DA64ABFE4493","title":"上海世博园沙特馆","lon":"121.495628","lat":"31.188323","category":"500","category_name":"未知分类","address":null},{"poiid":"B2094753D665AAF84998","title":"上海儿童艺术剧场","lon":"121.494537","lat":"31.19647","category":"500","category_name":"未知分类","address":"上海市 苗江路800号"},{"poiid":"B2094757D164A5F94299","title":"乐町","lon":"121.49369173","lat":"31.189618435","category":"95","category_name":"日本料理","address":"浦东新区世博大道1200号世博文化中心6楼605室(近中国馆)"},{"poiid":"B2094752DB6DA3FB429B","title":"梅德赛斯奔驰文化中心","lon":"121.493049","lat":"31.188869","category":"500","category_name":"未知分类","address":"上海市 世博大道"},{"poiid":"B2094655D26BABFE4699","title":"集散广场(L2轮渡码头东)","lon":"121.49696","lat":"31.19167","category":"201","category_name":"城市广场","address":"上海世博园区"},{"poiid":"B2094757D168A4FB479A","title":"海逸酒家","lon":"121.497772217","lat":"31.1877937317","category":"247","category_name":"餐饮美食","address":"浦东新区世博大道1200号世博文化中心6楼"},{"poiid":"B2094757D568AAF8469A","title":"休闲广场(亚洲广场东北)","lon":"121.4975973","lat":"31.19002477","category":"201","category_name":"城市广场","address":"上海世博园区"},{"poiid":"B2094752D664A4F9449A","title":"广潮味","lon":"121.491635","lat":"31.187727","category":"247","category_name":"餐饮美食","address":"世博源"},{"poiid":"B2094750D26CA6FD4598","title":"辰辰小厨 coco`s kitchen","lon":"121.493104","lat":"31.189152","category":"68","category_name":"快餐厅","address":"浦东新区世博大道1200号梅赛德斯奔驰中心内(近音乐俱乐部)"},{"poiid":"B2094753D569ABFD489B","title":"上海梅塞德斯奔驰文化中心","lon":"121.494567","lat":"31.188966","category":"500","category_name":"未知分类","address":"上海市 上海"},{"poiid":"B2094757D065A5F9499F","title":"Lavazza红磡意大利餐厅","lon":"121.50086773","lat":"31.194968549","category":"500","category_name":"未知分类","address":"浦东新区世博大道690号(近白莲泾公园)"},{"poiid":"B2094655D268A6F4489D","title":"越南&老挝&缅甸租赁馆","lon":"121.49784","lat":"31.19014","category":"183","category_name":"展览馆","address":""},{"poiid":"B2094655D268A6F84092","title":"亚美尼亚租赁馆","lon":"121.49816","lat":"31.19035","category":"183","category_name":"展览馆","address":""},{"poiid":"B2094752D36DA4F4469B","title":"奔驰梅赛德斯文化中心","lon":"121.491959","lat":"31.187866","category":"500","category_name":"未知分类","address":"世博源公馆"},{"poiid":"B2094753D76AA1FB499B","title":"BES,CLUB","lon":"121.491666","lat":"31.188207","category":"256","category_name":"外国餐厅","address":"上海市浦东新区世博大道1368号世博源LM02号商铺(上南路口)"},{"poiid":"B2094655D26FAAF8499B","title":"上海世博会世博园区样板组团工程观摩会","lon":"121.49868","lat":"31.18991","category":"46","category_name":"楼宇","address":""},{"poiid":"B2094752D669A5F54993","title":"梅赛德斯奔驰文化中心","lon":"121.499021","lat":"31.186684","category":"500","category_name":"未知分类","address":null},{"poiid":"B2094752D465A0F8449E","title":"鱻道","lon":"121.49171","lat":"31.187348","category":"247","category_name":"餐饮美食","address":"世博大道1368号世博源1G08号铺(近上南路)"},{"poiid":"B2094750D66CAAFD4792","title":"上海东方体育中心","lon":"121.494178","lat":"31.185503","category":"500","category_name":"未知分类","address":null},{"poiid":"B2094750D76CA1FD459E","title":"东京甜品","lon":"121.493","lat":"31.1891","category":"113","category_name":"冷饮店","address":"浦东新区世博大道1200号梅赛德斯奔驰文化中心6楼(近世博国际影院)"},{"poiid":"B2094750D26EA2FA4093","title":"大悦城","lon":"121.503593","lat":"31.190885","category":"500","category_name":"未知分类","address":"西藏南路曲阜路"},{"poiid":"B2094757D168ABF8449A","title":"四川北路海伦西路","lon":"121.498284038","lat":"31.1913415774","category":"500","category_name":"未知分类","address":"上海四川北路海伦西路口"},{"poiid":"B2094751D26BA4F4419A","title":"世博洲际酒店","lon":"121.500463","lat":"31.191658","category":"256","category_name":"外国餐厅","address":"上海市 雪野路"},{"poiid":"B2094753D769AAF9419A","title":"海逸海鲜(世博店)","lon":"121.493207","lat":"31.188954","category":"72","category_name":"广东菜","address":"上海市浦东新区世博大道1200号世博文化中心6楼"},{"poiid":"B2094750DB6BAAFF449A","title":"上海爵士音乐节","lon":"121.491935","lat":"31.188577","category":"250","category_name":"公园户外","address":"世博公园"},{"poiid":"B2094757D168A6FA459A","title":"世博会时乐美食","lon":"121.4972763","lat":"31.188724517","category":"247","category_name":"餐饮美食","address":"上海世博演艺中心一楼"},{"poiid":"B2094655D264A6F8479A","title":"哈撒克斯坦馆","lon":"121.49919","lat":"31.18996","category":"183","category_name":"展览馆","address":"上海世博园区"},{"poiid":"B2094751DA6DAAFB429E","title":"王鼎日料","lon":"121.492645","lat":"31.189255","category":"247","category_name":"餐饮美食","address":null},{"poiid":"B2094752D76FA6FC4598","title":"世博影城6号厅","lon":"121.494064","lat":"31.18808","category":"178","category_name":"电影院","address":null},{"poiid":"B2094757D469A3F94193","title":"心乐蝶舞灵性舞蹈养生餐厅","lon":"121.4909603","lat":"31.1862715","category":"76","category_name":"上海菜","address":"世博大道1515号梅赛德斯奔驰文化中心L601近雪野路"},{"poiid":"B2094655D36CA3FD4492","title":"罗森","lon":"121.4996","lat":"31.18985","category":"117","category_name":"便民商店/便利店","address":"上海世博园区"},{"poiid":"B2094757D16EA0FB469A","title":"星巴克 STARBUCKS (嘉年华店)","lon":"121.50054073","lat":"31.191624477","category":"65","category_name":"咖啡厅","address":"上海浦东新区白莲泾路(世博大道与浦东南路间，原世博园4号口)"},{"poiid":"B2094757D568A1FB469F","title":"Pasta & Coffee","lon":"121.49383762","lat":"31.18962646","category":"65","category_name":"咖啡厅","address":"上海世博园区"},{"poiid":"B2094753DA6BA0F4479C","title":"猛哥芒果冰","lon":"121.493026","lat":"31.188022","category":"247","category_name":"餐饮美食","address":"上海市 日月光台湾馆"},{"poiid":"B2094752D768A3FA4299","title":"梅赛德斯奔驰文化中心","lon":"121.499401","lat":"31.194805","category":"500","category_name":"未知分类","address":null},{"poiid":"B209475CD06CA4FA459B","title":"王鼎铁板烧精致料理 世博源店","lon":"121.49183","lat":"31.18802","category":"268","category_name":"自助","address":"世博大道1368号世博源1LM03-04号铺(近梅赛德斯奔驰文化中心西门)"},{"poiid":"B2094750DB6BA0F94898","title":"浦东图书馆","lon":"121.493591","lat":"31.189863","category":"500","category_name":"未知分类","address":"浦东新区前程路88号(近锦绣路)"},{"poiid":"B2094757D06BA3F5499A","title":"世博会L1码头","lon":"121.50177002","lat":"31.195886611","category":"500","category_name":"未知分类","address":"上海世博会L1码头"},{"poiid":"B209475CD265A5FB499F","title":"心乐蝶舞精致上海美食餐厅","lon":"121.4931","lat":"31.18915","category":"76","category_name":"上海菜","address":"世博大道1200号梅赛德斯奔驰文化中心L601号(近庆典广场)"},{"poiid":"B2094750D669A4FD4792","title":"上海新国际博览中心","lon":"121.493591","lat":"31.189865","category":"500","category_name":"未知分类","address":"浦东新区芳甸路"},{"poiid":"B2094750D66FA2FC489C","title":"金桥国际广场","lon":"121.493606","lat":"31.18988","category":"500","category_name":"未知分类","address":null},{"poiid":"B2094655D268A6F8409D","title":"上海世博会浦东临时场馆及配套设施项目A片区","lon":"121.49526","lat":"31.18758","category":"46","category_name":"楼宇","address":""},{"poiid":"B2094753D26AAAF4439A","title":"鼎味源","lon":"121.492577","lat":"31.189119","category":"247","category_name":"餐饮美食","address":"上海市 世博大道1368号世博源"},{"poiid":"B2094753D26DA7FC4498","title":"友丽拌饭","lon":"121.492316","lat":"31.188794","category":"247","category_name":"餐饮美食","address":"上海市 世博大道1200号梅赛德斯奔驰文化中心B1楼B130室"},{"poiid":"B2094753D76AA1FB489E","title":"太平洋咖啡(世博源店)","lon":"121.492","lat":"31.18764","category":"65","category_name":"咖啡厅","address":"上海市浦东新区世博大道1368号世博源L203号铺"},{"poiid":"B2094757D069A3FA499F","title":"世博会朝鲜馆","lon":"121.499862671","lat":"31.1886100769","category":"182","category_name":"博物馆","address":"上海世博会A片区"},{"poiid":"B2094750D76EA2FF469B","title":"FreshMix(世博奔驰文化中心店)","lon":"121.493","lat":"31.1889","category":"68","category_name":"快餐厅","address":"世博大道1200号梅赛德斯奔驰文化演艺中心6楼(近世博影城5号厅旁)"},{"poiid":"B209475CD76DA6F9419B","title":"世博源","lon":"121.496467","lat":"31.187179","category":"500","category_name":"未知分类","address":"上海市 浦东世博源"},{"poiid":"B2094752D26BA5FD409F","title":"斗牛士","lon":"121.491699","lat":"31.187439","category":"247","category_name":"餐饮美食","address":"梅赛德斯"},{"poiid":"B2094757D068A6FA4499","title":"世博会中国船舶馆","lon":"121.49313","lat":"31.19636","category":"260","category_name":"其他","address":"上海世博会E片区"},{"poiid":"B2094757D064A3FE489C","title":"世博会乌兹别克斯坦馆","lon":"121.49851226","lat":"31.189399719","category":"500","category_name":"未知分类","address":"上海世博会A片区"},{"poiid":"B209475CD26CA2FB4492","title":"广潮味","lon":"121.493003","lat":"31.187994","category":"247","category_name":"餐饮美食","address":"上海市 上海浦东世博大道1368号世博源1层"},{"poiid":"B2094757D16EA1FD439B","title":"世博演艺中心地下室…","lon":"121.49504","lat":"31.188704","category":"500","category_name":"未知分类","address":"上海世博演艺中心"},{"poiid":"B2094750DA6CA5F9489D","title":"上海东锦江希尔顿酒店","lon":"121.493591","lat":"31.189868","category":"500","category_name":"未知分类","address":"杨高南路"},{"poiid":"B2094752D265A3FE459F","title":"世博源公馆","lon":"121.493027","lat":"31.186973","category":"247","category_name":"餐饮美食","address":"上海市浦东新区世博大道1368号"},{"poiid":"B2094655D264A2FA419F","title":"中心广场(阿曼馆北)","lon":"121.49552","lat":"31.18748","category":"201","category_name":"城市广场","address":"上海世博园区"},{"poiid":"B2094655D265A1FF469F","title":"中国国家馆下沉广场","lon":"121.49467","lat":"31.18577","category":"183","category_name":"展览馆","address":"上海世博园区"},{"poiid":"B2094753D564ABF8449F","title":"鼎味源融合菜","lon":"121.490716","lat":"31.187739","category":"76","category_name":"上海菜","address":"浦东新区世博大道1368号世博源1LM(奔驰文化中心,西门进入,左转直行))"},{"poiid":"B2094753DA6FA6F4439F","title":"友丽拌饭（奔驰文化中心店）","lon":"121.492825","lat":"31.18806","category":"247","category_name":"餐饮美食","address":"上海市浦东新区世博大道1200号梅赛德斯-奔驰文化中心B1楼B130（溜冰场旁）"},{"poiid":"B2094751DA69A0F44198","title":"第一八佰伴","lon":"121.4987051559967","lat":"31.18380815258452","category":"247","category_name":"餐饮美食","address":"上海浦东张扬路501号第一八佰伴9楼"},{"poiid":"B2094753D56DA1FF449B","title":"上海梅赛德斯奔驰文化中心","lon":"121.496444","lat":"31.187229","category":"500","category_name":"未知分类","address":"上海市 上海"},{"poiid":"B2094757D06FA3F9429A","title":"世博会日本馆","lon":"121.4981","lat":"31.19071","category":"260","category_name":"其他","address":"上海浦东新区博成路白莲泾路口(原上海世博会A片区)"},{"poiid":"B2094752D369A1FC499D","title":"浦东嘉里城","lon":"121.495691","lat":"31.187632","category":"500","category_name":"未知分类","address":null},{"poiid":"B2094757D16DA3FF4899","title":"浦东南路","lon":"121.49919246","lat":"31.186612791","category":"500","category_name":"未知分类","address":"上海浦东南路"},{"poiid":"B2094757D068A2FE459D","title":"世博会马尔代夫馆(亚洲联合馆一)","lon":"121.49986267","lat":"31.189399719","category":"500","category_name":"未知分类","address":"上海世博会A片区"},{"poiid":"B2094655D26DA7FA4993","title":"华南名苑","lon":"121.5041","lat":"31.18997","category":"47","category_name":"住宅区","address":"上海市浦东新区浦东南路3666号"},{"poiid":"B2094753D26FAAFC499F","title":"蜀府","lon":"121.489499","lat":"31.189642","category":"247","category_name":"餐饮美食","address":"上海市 梅赛德斯"},{"poiid":"B2094757D568A5FA4493","title":"中国邮政(世博文化中心东)","lon":"121.49401991","lat":"31.18924289","category":"621","category_name":"邮局","address":"上海世博园区"},{"poiid":"B2094752DB6CA4FC4998","title":"银乐迪ktv","lon":"121.491618","lat":"31.187821","category":"170","category_name":"KTV","address":"上海市 世博源"},{"poiid":"B2094757D164A2F8499B","title":"心乐蝶舞灵性舞蹈养生餐厅","lon":"121.49228434","lat":"31.188778627","category":"500","category_name":"未知分类","address":"上海世博大道1200号世博文化中心六楼"},{"poiid":"B2094757D168ABFA4299","title":"南京西路338天安廣場","lon":"121.493188","lat":"31.18896","category":"500","category_name":"未知分类","address":"上海Mercedes-Benz"},{"poiid":"B2094750DA6BA5F44093","title":"世博会沙特馆","lon":"121.494422","lat":"31.187765","category":"263","category_name":"公司","address":null},{"poiid":"B2094752D66AA0FA4599","title":"张江","lon":"121.493853","lat":"31.188463","category":"500","category_name":"未知分类","address":null},{"poiid":"B2094757DB69A1FA489E","title":"白莲泾公园","lon":"121.495446","lat":"31.196305","category":"250","category_name":"公园户外","address":"世博大道白莲泾路"},{"poiid":"B2094757D16BA0FD409C","title":"嘉年华","lon":"121.50063873","lat":"31.191059465","category":"500","category_name":"未知分类","address":"上海白莲泾"},{"poiid":"B2094655D265AAFB429E","title":"俏江南","lon":"121.49559","lat":"31.19734","category":"71","category_name":"四川菜","address":"上海世博园区"},{"poiid":"B2094757D165A0FA449E","title":"fresh mix","lon":"121.496304638","lat":"31.1877311949","category":"500","category_name":"未知分类","address":null},{"poiid":"B209475DD76DA6FF499D","title":"比比客世博店","lon":"121.49246","lat":"31.187023","category":"247","category_name":"餐饮美食","address":"上海市浦东大道1368号"},{"poiid":"B2094757D064A0FC4893","title":"久斯台球俱乐部(浦东游泳馆店)","lon":"121.50067953","lat":"31.186198112","category":"171","category_name":"台球厅","address":"上海浦东南路浦东游泳馆二楼"},{"poiid":"B209475CD06CAAFF429E","title":"贝斯音乐餐厅  BES CLUB","lon":"121.49166","lat":"31.1882","category":"94","category_name":"西餐厅","address":"世博大道1368号世博源LM02号商铺近上南路口"},{"poiid":"B2094753D76AA1FB4792","title":"三米蓝南洋风味餐厅","lon":"121.492","lat":"31.187292","category":"256","category_name":"外国餐厅","address":"上海市浦东新区世博大道1368号世博源1G03号铺(近上南路)"},{"poiid":"B2094655D268A3FF4499","title":"中国2010年上海世界博览会AB片区外国自建馆办公区","lon":"121.49754","lat":"31.18379","category":"46","category_name":"楼宇","address":""},{"poiid":"B2094757D469A1F5469D","title":"老鱼","lon":"121.49142","lat":"31.18644","category":"260","category_name":"其他","address":"浦东新区世博大道746号(近梅赛德斯-奔驰文化中心)"},{"poiid":"B2094655D264A4F8449A","title":"赵金志金钥匙博物馆","lon":"121.49591","lat":"31.18534","category":"182","category_name":"博物馆","address":"Lázeňská3TepláValley"},{"poiid":"B2094757D16BA7FC4998","title":"妈咪中心","lon":"121.50127973","lat":"31.190029443","category":"500","category_name":"未知分类","address":"上海华山路汇银广场"},{"poiid":"B2094753D36CA1FD429B","title":"鱻道创作料理","lon":"121.490944","lat":"31.18779","category":"95","category_name":"日本料理","address":"世博大道1368号1G08B1"},{"poiid":"B2094757D068A4F9419A","title":"世博园四号门","lon":"121.5012141","lat":"31.190914533","category":"260","category_name":"其他","address":"上海世博园四号门白莲泾出入口"},{"poiid":"B2094757D164A3F54793","title":"雪野路","lon":"121.502169562","lat":"31.1870274938","category":"250","category_name":"公园户外","address":"上海浦东新区雪野路"},{"poiid":"B2094752D06EA4FD4892","title":"世博源","lon":"121.491087","lat":"31.189154","category":"250","category_name":"公园户外","address":null},{"poiid":"B2094752D669A6FA429D","title":"昌里路夜市","lon":"121.502655","lat":"31.195737","category":"247","category_name":"餐饮美食","address":null},{"poiid":"B2094753D664AAF44692","title":"巴国布衣世博店","lon":"121.491699","lat":"31.187456","category":"500","category_name":"未知分类","address":"上海市 世纪大道1368号111号"},{"poiid":"B2094757D66CA1FE409B","title":"上海城建(集团)公司","lon":"121.50102713","lat":"31.189468431","category":"263","category_name":"公司","address":"上海福山路500号"},{"poiid":"B2094752D764A5FF499D","title":"Musk Cat Coffee","lon":"121.491409","lat":"31.188141","category":"248","category_name":"生活娱乐","address":"世博大道1368号第LM层1LM06室"},{"poiid":"B2094757D16AABFD4798","title":"苗江路半淞园路","lon":"121.49456024","lat":"31.196464538","category":"500","category_name":"未知分类","address":"上海苗江路半淞园路"},{"poiid":"B209475CD66DA0FA469B","title":"上海老码头","lon":"121.497016","lat":"31.196842","category":"500","category_name":"未知分类","address":"上海市 中山南路"},{"poiid":"B2094757D569A7FE439D","title":"绿地广场","lon":"121.49047092","lat":"31.19454102","category":"201","category_name":"城市广场","address":"上海世博园区"},{"poiid":"B2094752D06DABF84693","title":"裕泰東方","lon":"121.491675","lat":"31.188256","category":"247","category_name":"餐饮美食","address":"世博大道1368号1LM09"},{"poiid":"B2094750DB6DA4FF4493","title":"上海地产集团","lon":"121.5001827362335","lat":"31.1954312401603","category":"263","category_name":"公司","address":"雪野路928号"},{"poiid":"B2094757D66EA2FB4598","title":"曹杨路(西宫后门)","lon":"121.492415048","lat":"31.1876424731","category":"500","category_name":"未知分类","address":"上海曹杨路520号"},{"poiid":"B2094757D66EA4FE419E","title":"snacko","lon":"121.49176432","lat":"31.188153145","category":"500","category_name":"未知分类","address":"上海世博会"},{"poiid":"B2094757D069A3FB409B","title":"世博会中国省区市联合馆","lon":"121.49562072","lat":"31.184608459","category":"183","category_name":"展览馆","address":"上海世博会A片区"},{"poiid":"B2094757D165A7F94999","title":"齐岸健身浦东游泳馆店","lon":"121.50009633","lat":"31.195798366","category":"500","category_name":"未知分类","address":"上海浦东南路"},{"poiid":"B2094752D16DA0F8499C","title":"世博影城2号厅","lon":"121.491875","lat":"31.195005","category":"178","category_name":"电影院","address":null},{"poiid":"B2094750D26FAAF5499B","title":"CCG会场","lon":"121.497024","lat":"31.195695","category":"627","category_name":"一般地点标志","address":null},{"poiid":"B2094751D56BA4FC409F","title":"淮海路","lon":"121.499028","lat":"31.196439","category":"249","category_name":"购物服务","address":null},{"poiid":"B209475CD668A1F8499E","title":"世博公园","lon":"121.49031","lat":"31.188146","category":"500","category_name":"未知分类","address":"上海市 国展路"},{"poiid":"B2094757D068A7F9409E","title":"世博园五号门","lon":"121.49645449","lat":"31.183726531","category":"500","category_name":"未知分类","address":"上海世博园五号门高科西路出入口"},{"poiid":"B2094757D56EA5F94498","title":"佰草集汉方SPA(世博店)","lon":"121.5029333","lat":"31.1894827","category":"249","category_name":"购物服务","address":"浦东新区雪野路1101号(近华丰路)"},{"poiid":"B209475DD76FAAF54799","title":"k11","lon":"121.498527","lat":"31.185899","category":"627","category_name":"一般地点标志","address":"上海市 上海"},{"poiid":"B2094757D064A0FA409F","title":"白莲泾路浦东南路","lon":"121.50367955","lat":"31.188651119","category":"500","category_name":"未知分类","address":"上海白莲泾路浦东南路"},{"poiid":"B2094757D06AA0F84992","title":"世博会万科馆","lon":"121.4945","lat":"31.19823","category":"263","category_name":"公司","address":"上海世博会E片区"},{"poiid":"B2094753D765A7FD439E","title":"儿童艺术剧场","lon":"121.493019","lat":"31.19742","category":"500","category_name":"未知分类","address":"上海市 苗江路800号"},{"poiid":"B2094757D168ABFE489C","title":"东渡名人大厦","lon":"121.49715373","lat":"31.184279321","category":"252","category_name":"楼宇机构","address":"上海曲阳路"},{"poiid":"B2094757D56EA6FD4598","title":"世博E区","lon":"121.495399475097","lat":"31.1970177294002","category":"251","category_name":"出行住宿","address":"上海世博园E区"},{"poiid":"B2094757D06EAAFE4993","title":"2011上海国际嘉年华","lon":"121.49152473","lat":"31.186532369","category":"173","category_name":"游戏厅","address":"浦东新区上海世博区白莲泾路世博园4号入口(近浦东南路)"},{"poiid":"B2094757D069A2FF4392","title":"世博会阿曼馆","lon":"121.49681854","lat":"31.184967041","category":"260","category_name":"其他","address":"上海浦东新区国展路云台路口(原上海世博会A片区)"},{"poiid":"B2094757D065A7F8429A","title":"世博会中国馆41米小火车","lon":"121.49461191","lat":"31.184457375","category":"260","category_name":"其他","address":"上海浦东"}]