[{"poiid":"B2094654DA6EA2F4499A","title":"上海中医药大学附属龙华医院","lon":"121.45011","lat":"31.18796","category":"162","category_name":"医院","address":"徐汇区零陵路532号"},{"poiid":"B2094757DA68A1F9429C","title":"蜀地香天下火锅","lon":"121.446033","lat":"31.188724","category":"86","category_name":"火锅店","address":"徐汇区双峰北路1号2楼(近斜土路)"},{"poiid":"B2094757D06FA3FB439A","title":"上海市精神卫生中心","lon":"121.44868469","lat":"31.188173294","category":"162","category_name":"医院","address":"徐汇区宛平南路600号(零陵路宛平南路)"},{"poiid":"B2094655D36CA1F8439D","title":"龙华医院","lon":"121.44931","lat":"31.18777","category":"162","category_name":"医院","address":""},{"poiid":"B2094757D06FA3FD4593","title":"三人行骨头王火锅(南丹东路店)","lon":"121.44566357","lat":"31.190540663","category":"86","category_name":"火锅店","address":"徐汇区南丹东路8号(斜土路口)"},{"poiid":"B2094757D068A2FE4098","title":"复茂小龙虾 宛平南路店","lon":"121.44731483072","lat":"31.190466090829","category":"68","category_name":"快餐厅","address":"徐汇区宛平南路400号(近斜土路)"},{"poiid":"B2094750DA69ABF94299","title":"宛平剧院","lon":"121.448257","lat":"31.187332","category":"248","category_name":"生活娱乐","address":"徐汇区中山南二路859号(近宛平南路)"},{"poiid":"B2094655D26BA3FC4392","title":"福地大酒店","lon":"121.4476610206","lat":"31.189998994849","category":"76","category_name":"上海菜","address":"徐汇区宛平南路465号(零陵路斜土路间)"},{"poiid":"B2094757D068ABF94398","title":"Blue Frog","lon":"121.44707489","lat":"31.1903934479","category":"500","category_name":"未知分类","address":"上海致真汇  徐汇区辛耕路109号永新坊1-2楼(近天钥桥路)  "},{"poiid":"B2094757D06FA4FD489E","title":"苏武牧羊(徐汇店)","lon":"121.44805","lat":"31.19126","category":"86","category_name":"火锅店","address":"徐汇区斜土路2422号(近宛平南路)"},{"poiid":"B2094655D26EA2F4449B","title":"衡山小馆斜土路店","lon":"121.44648","lat":"31.1911","category":"72","category_name":"广东菜","address":"徐汇区斜土路2428号海螺花园(近宛平南路)"},{"poiid":"B2094654DB69A5FD4299","title":"锦江之星(宛平南路店)","lon":"121.44693","lat":"31.19016","category":"216","category_name":"经济型连锁酒店","address":"徐汇区宛平南路404号(近零陵路)"},{"poiid":"B2094757D16CA1FF4999","title":"龙华医院急诊","lon":"121.446744536","lat":"31.1877531506","category":"162","category_name":"医院","address":"上海徐汇区宛平南路725号"},{"poiid":"B2094757D068ABF8469E","title":"NIKE","lon":"121.449768586","lat":"31.189207629","category":"196","category_name":"公园","address":"徐汇区漕溪北路1111号东亚体育文化中心1号门(零陵路口)"},{"poiid":"B2094655D26AA6FE429D","title":"圆苑酒家宛平南路店","lon":"121.44832","lat":"31.18921","category":"76","category_name":"上海菜","address":"徐汇区宛平南路550号(近零陵路)"},{"poiid":"B2094757DA6FA1FE4399","title":"梅赛德斯-奔驰文化中心","lon":"121.448848","lat":"31.191104","category":"248","category_name":"生活娱乐","address":"浦东世博大道1200号"},{"poiid":"B2094757D06FA6FC4899","title":"厚街粤菜馆","lon":"121.44548158","lat":"31.1877636","category":"72","category_name":"广东菜","address":"徐汇区天钥桥路325-327号华美达酒店内(近南丹东路)"},{"poiid":"B2094750DB64A0FE469E","title":"牛New壽喜燒","lon":"121.447868","lat":"31.190422","category":"247","category_name":"餐饮美食","address":"天鈅橋路131號 永新坊"},{"poiid":"B2094655D268A7F8459E","title":"电影华苑","lon":"121.446","lat":"31.1901","category":"47","category_name":"住宅区","address":"上海市徐汇区零陵路751号"},{"poiid":"B2094654DA6DA2FB499A","title":"海洋石油大厦","lon":"121.44766","lat":"31.18876","category":"46","category_name":"楼宇","address":"北一环与亳州路交叉口(庐阳区政府对面)"},{"poiid":"B2094751D269A6F44599","title":"上海南站","lon":"121.4478","lat":"31.1901","category":"500","category_name":"未知分类","address":null},{"poiid":"B2094757D769A7F54193","title":"东北四季饺子王 宛平南路店","lon":"121.44769328637","lat":"31.189409271872","category":"82","category_name":"东北菜","address":"徐汇区宛平南路520号(近零陵路)"},{"poiid":"B2094654DB6BA5F8429E","title":"莫泰168连锁旅店(宛平南路店)","lon":"121.44722","lat":"31.19062","category":"216","category_name":"经济型连锁酒店","address":"上海市宛平南路400号（近斜土路）"},{"poiid":"B2094655D26CA4FB4799","title":"上海交通大学医学院附属精神卫生中心","lon":"121.44866","lat":"31.18754","category":"52","category_name":"高等院校","address":"宛平南路600"},{"poiid":"B209475DDA6FA5FA4992","title":"上海八万人体育馆","lon":"121.447906","lat":"31.189407","category":"250","category_name":"公园户外","address":"上海市 天钥桥路666号"},{"poiid":"B2094757D068A7F44899","title":"上海中医药大学","lon":"121.449485","lat":"31.188716","category":"671","category_name":"高校中心点","address":"上海市浦东新区蔡伦路1200号"},{"poiid":"B2094757D16FA5F9419E","title":"一茶一座星游城店","lon":"121.445595786","lat":"31.1884724146","category":"86","category_name":"火锅店","address":"上海徐汇区星游城2楼"},{"poiid":"B2094654DB69A7F5449A","title":"爱达大厦","lon":"121.44848","lat":"31.1888","category":"46","category_name":"楼宇","address":"浦东区崂山东路410号"},{"poiid":"B2094654DA6DA2F44092","title":"雅舍宾馆","lon":"121.44844","lat":"31.18868","category":"250","category_name":"公园户外","address":"徐汇区宛平南路590号(近零陵路)"},{"poiid":"B2094757D469A0FE4693","title":"SHABUSHABU","lon":"121.446388","lat":"31.187724","category":"95","category_name":"日本料理","address":"徐汇区零陵路631号"},{"poiid":"B2094655D268A1F4419F","title":"上海中医药大学学生公寓","lon":"121.44953","lat":"31.18661","category":"47","category_name":"住宅区","address":""},{"poiid":"B2094757D464A7FF489E","title":"星期五 しゃぶしゃぶ食放題 Friday","lon":"121.44661382236","lat":"31.187398429974","category":"95","category_name":"日本料理","address":"零陵路627号近双峰北路"},{"poiid":"B2094654DB69A7FC429F","title":"Friday火锅","lon":"121.44673","lat":"31.18781","category":"86","category_name":"火锅店","address":"徐汇区零陵路631号爱建城1楼(近双峰北路)"},{"poiid":"B2094757D568ABFD419D","title":"Friday日本料理","lon":"121.4460736","lat":"31.18858472","category":"95","category_name":"日本料理","address":"徐汇区双峰北路1号(近斜土路)"},{"poiid":"B2094655D26FA3FF419E","title":"古奇面包","lon":"121.44868","lat":"31.18817","category":"112","category_name":"糕饼店","address":""},{"poiid":"B2094757D164A3FA4492","title":"赵记食为天","lon":"121.44465","lat":"31.18664","category":"68","category_name":"快餐厅","address":"徐汇区零陵路663号(近天钥桥路)"},{"poiid":"B2094750D56FA0F5499B","title":"上海市精神卫生中心脑残诊疗室（近2号太平间）","lon":"121.44783","lat":"31.188796","category":"500","category_name":"未知分类","address":null},{"poiid":"B2094655D26EA1FD4893","title":"上海市精神卫生中心老年期痴呆诊疗中心","lon":"121.44867","lat":"31.18754","category":"162","category_name":"医院","address":"宛平南路600号"},{"poiid":"B2094654DA6DA2FB4899","title":"爱乐大厦","lon":"121.44646","lat":"31.18799","category":"46","category_name":"楼宇","address":"零陵路631"},{"poiid":"B2094757D16FA7FF459F","title":"上海中医药大学附属龙华医院血液科","lon":"121.449080886","lat":"31.1891522279","category":"500","category_name":"未知分类","address":"上海市宛平南路725号住院部东十一楼"},{"poiid":"B2094654DA6DA2F4409F","title":"小伊顿双语幼稚园","lon":"121.44846","lat":"31.18864","category":"57","category_name":"幼儿园","address":"宛平南路592"},{"poiid":"B2094757D465A7FD409B","title":"古奇面包咖啡 宛平南路店","lon":"121.448615054","lat":"31.188129793","category":"260","category_name":"其他","address":"徐汇区零陵路598号(近宛平南路)"},{"poiid":"B2094655D26FA6FB4592","title":"爱建城","lon":"121.44681","lat":"31.1884","category":"47","category_name":"住宅区","address":"爱建城位于徐汇上海市零陵路585号"},{"poiid":"B2094757D065A0FE419D","title":"上海市心理咨询与治疗中心","lon":"121.447723","lat":"31.187773","category":"162","category_name":"医院","address":"上海徐汇区零陵路604号"},{"poiid":"B2094654DA6DA2F4409C","title":"爱建设","lon":"121.44844","lat":"31.18867","category":"47","category_name":"住宅区","address":"宛平南路590"},{"poiid":"B2094757D16FA2FE459E","title":"秦淮坊一品灌汤包(宛平南路店)","lon":"121.44599","lat":"31.19395","category":"68","category_name":"快餐厅","address":"徐汇区宛平南路160号(近辛耕路)"},{"poiid":"B2094757D16AA0FD489E","title":"中国工商银行(东安路支行)","lon":"121.448692","lat":"31.188917","category":"150","category_name":"银行","address":"上海徐汇区宛平南路521号近零陵路"},{"poiid":"B2094654DA6EA2F5419F","title":"恒昌花园B座","lon":"121.44941","lat":"31.18903","category":"46","category_name":"楼宇","address":""},{"poiid":"B2094655D26BA3FC4492","title":"新岸录音棚","lon":"121.44746","lat":"31.18828","category":"170","category_name":"KTV","address":"徐汇区零陵路585号爱邦大厦23-D(近宛平南路)"},{"poiid":"B2094752DA6CAAFF4792","title":"日月光广场","lon":"121.447923","lat":"31.189563","category":"247","category_name":"餐饮美食","address":"宝燕海鲜自助火锅"},{"poiid":"B2094654DB65A7FF489B","title":"全家便利店(宛平店)","lon":"121.4485","lat":"31.18954","category":"117","category_name":"便民商店/便利店","address":"徐汇区宛平南路487号(近辛耕路)"},{"poiid":"B2094654DA6DA2FB499D","title":"上海市疾病预防控制精神卫生分中心","lon":"121.44773","lat":"31.18777","category":"162","category_name":"医院","address":"零陵路604"},{"poiid":"B209475DD06DAAFE439C","title":"上海环球金融中心","lon":"121.447898","lat":"31.189393","category":"500","category_name":"未知分类","address":"上海市 上海市浦东新区世纪大道100号"},{"poiid":"B2094752D569A0F8459F","title":"王品牛排","lon":"121.446143","lat":"31.188735","category":"247","category_name":"餐饮美食","address":"漕溪北路"},{"poiid":"B2094654DA6EA2F5469B","title":"恒昌花园A座","lon":"121.44911","lat":"31.18914","category":"47","category_name":"住宅区","address":"宛平南路521"},{"poiid":"B2094654DA6DA1FC469A","title":"佳安公寓","lon":"121.44669","lat":"31.189707","category":"47","category_name":"住宅区","address":"宛平南路420弄1-14号"},{"poiid":"B2094654DA6DA1FC469F","title":"海螺花园(宛平南路)","lon":"121.44661","lat":"31.19069","category":"47","category_name":"住宅区","address":"宛平南路388弄1-6号"},{"poiid":"B2094757D66EA7FB4093","title":"四川省阿坝州九寨沟","lon":"121.44780349","lat":"31.188445764","category":"500","category_name":"未知分类","address":"苏州九寨沟口"},{"poiid":"B2094655D265A0FB4599","title":"徐汇尚座","lon":"121.44759","lat":"31.18979","category":"47","category_name":"住宅区","address":"徐汇尚座位于徐汇宛平南路470号"},{"poiid":"B2094757D66FA6FE4792","title":"龙华医院肿瘤科","lon":"121.449067086","lat":"31.1891528279","category":"162","category_name":"医院","address":"上海宛平南路725号龙华医院东七楼"},{"poiid":"B2094655D26FABFE4092","title":"恒昌花园游泳馆","lon":"121.44911","lat":"31.18914","category":"231","category_name":"游泳馆","address":"宛平南路521号"},{"poiid":"B2094654DA6DA2FB499F","title":"注意力缺陷多动障碍健康教育中心(零陵路)","lon":"121.44773","lat":"31.18777","category":"162","category_name":"医院","address":"零陵路604"},{"poiid":"B2094655D268A4F44698","title":"宛平南路500弄小区","lon":"121.44766","lat":"31.18943","category":"47","category_name":"住宅区","address":"宛平南路500弄"},{"poiid":"B2094654DA6EA2F5469A","title":"可的(零陵路)","lon":"121.44916","lat":"31.18883","category":"117","category_name":"便民商店/便利店","address":"徐汇区零陵路549号(零陵路宛平南路)"},{"poiid":"B2094655D268A4FB499F","title":"宛平南路500弄小区(东门)","lon":"121.44815","lat":"31.18953","category":"47","category_name":"住宅区","address":"宛平南路500弄"},{"poiid":"B2094757D66EAAF5449D","title":"纠结","lon":"121.448445786","lat":"31.1886426179","category":"500","category_name":"未知分类","address":"上海同上"},{"poiid":"B2094757D568AAF8449E","title":"古奇咖啡","lon":"121.4486769","lat":"31.187545","category":"65","category_name":"咖啡厅","address":"宛平南路600号"},{"poiid":"B2094654DB69AAF9419F","title":"湘轩土菜馆(徐家汇店)","lon":"121.44734","lat":"31.19093","category":"247","category_name":"餐饮美食","address":"徐汇区宛平南路368号(近斜土路)"},{"poiid":"B2094654DA6DA1FC459D","title":"恒安阁","lon":"121.44758","lat":"31.189789","category":"47","category_name":"住宅区","address":"恒安阁位于徐汇宛平南路470号"},{"poiid":"B2094654DA6DA2FB429F","title":"家常饭(零陵路)","lon":"121.4461","lat":"31.18763","category":"76","category_name":"上海菜","address":"徐汇区零陵路637号(近双峰北路)"},{"poiid":"B2094654DA6DA1FC469B","title":"偶巴尔坛宛平南路店","lon":"121.44765","lat":"31.19048","category":"96","category_name":"韩国料理","address":"徐汇区宛平南路404"},{"poiid":"B2094655D264ABFE459F","title":"爱谦大厦","lon":"121.44646","lat":"31.1889","category":"46","category_name":"楼宇","address":"双峰北路1"},{"poiid":"B2094757D065A0F9469B","title":"7／11便利店","lon":"121.44765472","lat":"31.189409256","category":"500","category_name":"未知分类","address":"上海辛耕路"},{"poiid":"B2094655D268A1F4419C","title":"上海交通大学医学院精神卫生学系","lon":"121.44867","lat":"31.18754","category":"52","category_name":"高等院校","address":"宛平南路600"},{"poiid":"B2094757D068A0FD489E","title":"老娘舅 天钥桥路店","lon":"121.441437","lat":"31.192859","category":"68","category_name":"快餐厅","address":"徐汇区天钥桥路123号2楼(近辛耕路)"},{"poiid":"B2094757DA6EA4FD409C","title":"韩元庄","lon":"121.447621","lat":"31.190539","category":"247","category_name":"餐饮美食","address":"徐汇区宛平南路404号(近零陵路)"},{"poiid":"B2094757D069A7FD409F","title":"复旦大学红旗教师公寓","lon":"121.44932165","lat":"31.190274594","category":"500","category_name":"未知分类","address":"上海市斜土路2200弄"},{"poiid":"B2094757D16CA0FE4398","title":"东影大厦","lon":"121.44555658","lat":"31.188468614","category":"46","category_name":"楼宇","address":"上海斜土路2570号"},{"poiid":"B2094757D568A0FA489A","title":"北京名炉烤鸭零陵路店","lon":"121.4482581","lat":"31.18822528","category":"249","category_name":"购物服务","address":"零陵路580号近天钥桥路"},{"poiid":"B2094654DB65A2FE409C","title":"上海市精神卫生临床质量控制中心","lon":"121.44866","lat":"31.18753","category":"162","category_name":"医院","address":"宛平南路600号"},{"poiid":"B2094655D36CA1F94699","title":"零陵路双峰北路","lon":"121.44557","lat":"31.18717","category":"38","category_name":"公交车站","address":"上海零陵路双峰北路"},{"poiid":"B2094654DB6AA3FA419B","title":"上海爱建建筑设计研究院","lon":"121.44845","lat":"31.18868","category":"191","category_name":"科研机构","address":"徐汇区宛平南路590号"},{"poiid":"B2094750D768A0FF4198","title":"老五烧烤","lon":"121.446","lat":"31.1874","category":"68","category_name":"快餐厅","address":"徐汇区零陵路(双峰北路口)"},{"poiid":"B209475CD36EA6FE4299","title":"蜀地四川香天下火锅","lon":"121.44597","lat":"31.18891","category":"86","category_name":"火锅店","address":"双峰北路1号2楼(近斜土路)"},{"poiid":"B2094757D06FAAF4409F","title":"国泰广告","lon":"121.44706726","lat":"31.186986923","category":"46","category_name":"楼宇","address":"上海天钥桥路333号腾飞大厦25楼"},{"poiid":"B2094757D064ABFA4498","title":"龙华医院远志楼","lon":"121.44994","lat":"31.186949","category":"162","category_name":"医院","address":"上海宛平南路725号"},{"poiid":"B2094654DB69A7F84099","title":"上海枫林中学","lon":"121.44975","lat":"31.18892","category":"55","category_name":"中学","address":"徐汇区零陵路531号"},{"poiid":"B2094654DA6DA2F44692","title":"新亚徐汇公寓","lon":"121.44638","lat":"31.189569","category":"47","category_name":"住宅区","address":"新亚徐汇公寓位于徐汇斜土路2526号"},{"poiid":"B2094654DA6DA1FC449D","title":"上海市针灸经络研究所门诊部","lon":"121.44977","lat":"31.1865","category":"162","category_name":"医院","address":"徐汇区宛平南路650号"},{"poiid":"B2094752D564A7F8439C","title":"上海新国际博览中心","lon":"121.449661","lat":"31.188522","category":"500","category_name":"未知分类","address":null},{"poiid":"B2094654DA6DA2F4459C","title":"上海广电影视制作有限公司","lon":"121.44518","lat":"31.18856","category":"252","category_name":"楼宇机构","address":"斜土路2570"},{"poiid":"B2094654DA6DA2FB489F","title":"中国银行上海市零陵路支行","lon":"121.44694","lat":"31.18804","category":"150","category_name":"银行","address":"零陵路621"},{"poiid":"B2094654DA6DA0F54293","title":"东亚大厦","lon":"121.44641755121","lat":"31.186094978075","category":"46","category_name":"楼宇","address":"上海中山南二路1500号"},{"poiid":"B2094655D26BA1F84299","title":"南丹路","lon":"121.44587","lat":"31.18956","category":"38","category_name":"公交车站","address":""},{"poiid":"B2094757D16DA7F4489A","title":"兰雀棋牌","lon":"121.44733429","lat":"31.1881904602","category":"248","category_name":"生活娱乐","address":"上海斜土路2356号二楼（近宛平南路口）"},{"poiid":"B2094757D468A0FB4198","title":"重庆酸菜鱼","lon":"121.447260054","lat":"31.190825793","category":"71","category_name":"四川菜","address":"徐汇区宛平南路400号(近斜土路)"},{"poiid":"B2094750DA6FA6F4439B","title":"香港半岛酒店","lon":"121.449226","lat":"31.189361","category":"500","category_name":"未知分类","address":null},{"poiid":"B2094654DB6BA5F8409C","title":"喜士多便利连锁","lon":"121.44602","lat":"31.18806","category":"117","category_name":"便民商店/便利店","address":"双峰北路4-1识别"},{"poiid":"B2094654DA6DA2F4469D","title":"快客(斜土路)","lon":"121.44606","lat":"31.1893","category":"117","category_name":"便民商店/便利店","address":"斜土路2526"},{"poiid":"B2094757D66EA2FB429C","title":"建设银行斜土路","lon":"121.44882158","lat":"31.189588636","category":"500","category_name":"未知分类","address":"上海市徐汇区斜土路"},{"poiid":"B2094655D268A4F84198","title":"佳安公寓(北门)","lon":"121.44687","lat":"31.18995","category":"47","category_name":"住宅区","address":"宛平南路420弄"},{"poiid":"B2094654DB69A5F84999","title":"文峰美容美发(宛平南路店)","lon":"121.44764","lat":"31.19048","category":"148","category_name":"美容美发店","address":"徐汇区宛平南路404号(近斜土路)"},{"poiid":"B2094757D16AA5FE4892","title":"联华超市 八万人店","lon":"121.449793812","lat":"31.1887876777","category":"249","category_name":"购物服务","address":"上海八万人体育馆"},{"poiid":"B209475CD16AABFF489A","title":"星巴克(永新店)","lon":"121.447288","lat":"31.190412","category":"500","category_name":"未知分类","address":"徐汇区辛耕路129号永新坊内(近天钥桥路)"},{"poiid":"B2094750D56AA2F5459C","title":"同济杰座―同汇苑","lon":"121.4455718","lat":"31.1892414","category":"47","category_name":"住宅区","address":"同济杰座―同汇苑位于徐汇斜土路2465号"},{"poiid":"B2094655D26CA4FA4099","title":"海螺花园(东门)","lon":"121.44741","lat":"31.19081","category":"47","category_name":"住宅区","address":"宛平南路388弄1-6号"},{"poiid":"B2094757D16AA1F9499A","title":"龙华医院食堂","lon":"121.4508638","lat":"31.188627932","category":"68","category_name":"快餐厅","address":"徐汇区宛平南路725号(近零陵路)"},{"poiid":"B2094757D165AAF84598","title":"畜牧研究所猫狗宠物医院","lon":"121.44621","lat":"31.18995","category":"162","category_name":"医院","address":"上海徐汇区斜土路2451号(近宛平南路)  "},{"poiid":"B2094757D16AA2FC409B","title":"葫芦娃主题桌游","lon":"121.445369386","lat":"31.1884976151","category":"248","category_name":"生活娱乐","address":"徐汇区零陵路631号爱乐大厦10楼H座(近上海体育场)"},{"poiid":"B2094757D068A4F5499A","title":"上海针灸研究所","lon":"121.44957295","lat":"31.186136422","category":"260","category_name":"其他","address":"上海宛平南路650号"},{"poiid":"B2094655D26FA0F5429D","title":"东安三村(零陵路)","lon":"121.45021","lat":"31.18993","category":"47","category_name":"住宅区","address":"徐汇区零陵路天钥新村27号"},{"poiid":"B2094654DA6EA2F44998","title":"阿人美食坊","lon":"121.45093","lat":"31.18903","category":"76","category_name":"上海菜","address":"徐汇区零陵路528号(近宛平南路)"},{"poiid":"B209475CD26CA2FC4192","title":"阿春家纯正蟹黄灌汤包","lon":"121.45063","lat":"31.189281","category":"247","category_name":"餐饮美食","address":"斜土路南丹路口"},{"poiid":"B2094654DB64AAFC4692","title":"畅安阁养生会所","lon":"121.44603","lat":"31.18922","category":"149","category_name":"洗浴推拿场所","address":"斜土路2526"},{"poiid":"B2094654DA6EA2F54893","title":"宛轻商务楼","lon":"121.44778","lat":"31.19141","category":"46","category_name":"楼宇","address":"宛平南路381"},{"poiid":"B2094757D16EA5FC4893","title":"龙华医院肝科","lon":"121.45042249","lat":"31.188931489","category":"162","category_name":"医院","address":"上海宛平南路725号"},{"poiid":"B2094654DA6EA2F5489F","title":"宛一物业小区(西门)","lon":"121.44787","lat":"31.19072","category":"47","category_name":"住宅区","address":"宛平南路431弄1-12号"},{"poiid":"B2094654DA6DA2FB439D","title":"地下停车库","lon":"121.44593","lat":"31.18891","category":"250","category_name":"公园户外","address":"徐家汇"},{"poiid":"B209475CD568A4F84899","title":"新韩1洞乐城店","lon":"121.44989","lat":"31.187555","category":"500","category_name":"未知分类","address":"上海市 中山南二路699号3-201"},{"poiid":"B2094655D26FA5FC499F","title":"宛一物业小区","lon":"121.44816","lat":"31.19065","category":"47","category_name":"住宅区","address":"宛平南路431弄1-12号"},{"poiid":"B2094757D66FA7FA479D","title":"弘汇商务中心","lon":"121.44623658","lat":"31.189151627","category":"500","category_name":"未知分类","address":"上海市徐汇区斜土路2526号"},{"poiid":"B2094757D16AA4F5419A","title":"小春","lon":"121.44979208","lat":"31.188542748","category":"500","category_name":"未知分类","address":"徐汇区南丹东路107号"},{"poiid":"B2094757D66EABFC4893","title":"复茂","lon":"121.447226","lat":"31.190625","category":"500","category_name":"未知分类","address":"上海宛平南路400号"},{"poiid":"B2094757D165A4FA439E","title":"柯达冲印店(斜土路店)","lon":"121.44773","lat":"31.19017","category":"611","category_name":"照相馆","address":"徐汇区天钥桥路133号(近永新坊)"},{"poiid":"B2094654DA6DA2FB489E","title":"爱建证券有限责任公司零陵路证券营业部","lon":"121.44688","lat":"31.18803","category":"219","category_name":"其他","address":"零陵路621"},{"poiid":"B2094757D064AAF8489F","title":"海螺花园","lon":"121.446619","lat":"31.190685","category":"47","category_name":"住宅区","address":"上海宛平南路388弄"},{"poiid":"B2094654DA6DA1FC4692","title":"好德No.064","lon":"121.44735","lat":"31.19091","category":"117","category_name":"便民商店/便利店","address":"徐家汇"},{"poiid":"B2094654DA6DA1FC469E","title":"桌球游艺","lon":"121.44721","lat":"31.19062","category":"171","category_name":"台球厅","address":"宛平南路400号3层"},{"poiid":"B2094654DA6DA2FB4392","title":"爱诺婚礼企划","lon":"121.44647","lat":"31.188","category":"248","category_name":"生活娱乐","address":"徐汇区零陵路631号爱乐大厦24层"},{"poiid":"B2094757D16CA6F9409D","title":"徐家汇街道社区事务受理服务中心","lon":"121.45043182","lat":"31.189588546","category":"500","category_name":"未知分类","address":"上海徐汇区斜土路2431号"},{"poiid":"B2094750DB6DA7FD449D","title":"海澜米粉","lon":"121.44547","lat":"31.18724","category":"68","category_name":"快餐厅","address":"徐汇区零陵路649号-4临(近天钥桥路)"},{"poiid":"B2094757D16DA3F9479A","title":"上海银行","lon":"121.4475","lat":"31.190588","category":"150","category_name":"银行","address":"上海徐汇区辛耕路102号"},{"poiid":"B2094654DA6DA2F4469B","title":"同汇苑(后门)","lon":"121.44533","lat":"31.18913","category":"47","category_name":"住宅区","address":"斜土路2455弄"},{"poiid":"B2094654DA6DA1FC449E","title":"爱中爱华公寓","lon":"121.44948","lat":"31.186041","category":"47","category_name":"住宅区","address":"宛平南路656-658"},{"poiid":"B2094757D06BA0FA4798","title":"趣奇网KUUKIE.com","lon":"121.44636324","lat":"31.191153547","category":"46","category_name":"楼宇","address":"上海斜土路2430号海螺花园"},{"poiid":"B2094655D268A4F4469E","title":"恒安阁(东一门)","lon":"121.44805","lat":"31.18967","category":"656","category_name":"大门","address":""},{"poiid":"B2094654DA6EA2F5489D","title":"辉煌公寓(西门)","lon":"121.44777","lat":"31.19102","category":"47","category_name":"住宅区","address":"宛平南路389弄1-2号"},{"poiid":"B2094757D16EAAFB479B","title":"day day holiday(徐汇店)","lon":"121.448528386","lat":"31.1911657672","category":"500","category_name":"未知分类","address":"上海市徐汇区斜土路2200弄8号"},{"poiid":"B2094655D268A4FA409A","title":"玉石公寓(南门)","lon":"121.44528","lat":"31.18893","category":"47","category_name":"住宅区","address":"斜土路2471"},{"poiid":"B2094655D264A0FF439D","title":"惠风堂茶馆","lon":"121.44657","lat":"31.19136","category":"66","category_name":"茶艺馆","address":"斜土路2420号(近宛平南路)"},{"poiid":"B209475CD26FA5FF4493","title":"镰仓PASTA（星游城店）","lon":"121.449806","lat":"31.186798","category":"500","category_name":"未知分类","address":"上海市 天钥桥路576号"},{"poiid":"B2094655D264A0FF4898","title":"爱建房产","lon":"121.44639","lat":"31.18772","category":"248","category_name":"生活娱乐","address":"零陵路631-3临"},{"poiid":"B2094655D268A1F4419A","title":"上海中医药大学学生公寓(南门)","lon":"121.4496","lat":"31.18649","category":"47","category_name":"住宅区","address":""},{"poiid":"B2094654DA6DA2FB439C","title":"上海爱建信托投资有限责任公司","lon":"121.44589","lat":"31.189","category":"263","category_name":"公司","address":""},{"poiid":"B2094757D66DA1F8459D","title":"上海第一福利院","lon":"121.448525886","lat":"31.1911695673","category":"500","category_name":"未知分类","address":"徐汇区宛平南路465号(近福地大酒店)"},{"poiid":"B2094655D26BA1F8429C","title":"南丹东路宛平南路","lon":"121.44658","lat":"31.19133","category":"38","category_name":"公交车站","address":""},{"poiid":"B2094757D165AAFC449F","title":"徐汇财政局","lon":"121.45059967","lat":"31.188663482","category":"500","category_name":"未知分类","address":"上海南丹东路56号"},{"poiid":"B2094655D268A4F44693","title":"恒安阁(东二门)","lon":"121.44789","lat":"31.18984","category":"656","category_name":"大门","address":"宛平南路470"},{"poiid":"B2094654DA6DA2F44593","title":"玉石公寓","lon":"121.4451","lat":"31.189096","category":"47","category_name":"住宅区","address":"斜土路2471号"},{"poiid":"B2094757D164A2FB4592","title":"優派（徐匯店）","lon":"121.44673156","lat":"31.19039154","category":"500","category_name":"未知分类","address":"上海新耕路"},{"poiid":"B2094757D06BA6FA4592","title":"永琪美容美发(斜土路店)","lon":"121.44837","lat":"31.19091","category":"148","category_name":"美容美发店","address":"徐汇区斜土路2200弄1号(近东安路)"},{"poiid":"B2094654DA6DA1FC4499","title":"罗森(爱中爱华公寓南)","lon":"121.44983","lat":"31.18641","category":"117","category_name":"便民商店/便利店","address":""},{"poiid":"B2094757D164A5FA4293","title":"广电影视制作","lon":"121.445358","lat":"31.188681","category":"500","category_name":"未知分类","address":"上海斜土路2568"},{"poiid":"B2094654DA6DA2F4459D","title":"上海科学教育电影制片厂(西部)","lon":"121.44519","lat":"31.18855","category":"63","category_name":"出版社","address":"斜土路2570"},{"poiid":"B2094654DA6DA2F44592","title":"洪源保健按摩厅","lon":"121.44523","lat":"31.18887","category":"149","category_name":"洗浴推拿场所","address":"徐汇区斜土路2471号(双峰北路口)"},{"poiid":"B2094757D069AAF44798","title":"上海广电影视制作有限公司","lon":"121.44594258","lat":"31.189608636","category":"646","category_name":"文化体育类公司","address":"上海市斜土路2568号"},{"poiid":"B2094757D168A0FE459B","title":"自然美","lon":"121.447243","lat":"31.190781","category":"500","category_name":"未知分类","address":"上海大吉路190号"},{"poiid":"B2094655D268A4F44798","title":"恒安阁(东门)","lon":"121.44786","lat":"31.18999","category":"656","category_name":"大门","address":"宛平南路470"},{"poiid":"B2094752D565ABFB469A","title":"美罗城","lon":"121.446167","lat":"31.190475","category":"500","category_name":"未知分类","address":null},{"poiid":"B2094655D268A4FF429A","title":"辉煌公寓","lon":"121.44817","lat":"31.191328","category":"47","category_name":"住宅区","address":"宛平南路389弄"},{"poiid":"B2094757D16CA1FC4499","title":"交通银行(斜土路支行)","lon":"121.44694","lat":"31.1909","category":"150","category_name":"银行","address":"徐汇区斜土路2426号海螺花园(宛平南路斜土路)"},{"poiid":"B2094655D26FA6F44498","title":"红旗教师公寓","lon":"121.44937","lat":"31.1912","category":"47","category_name":"住宅区","address":"斜土路2200弄28-29号"},{"poiid":"B2094655D268A4FA4198","title":"新亚徐汇公寓(西门)","lon":"121.44605","lat":"31.18951","category":"48","category_name":"楼宇大门","address":"斜土路2526"},{"poiid":"B209475CD76CABFE449E","title":"上海市徐汇区滨江绿地","lon":"121.450988","lat":"31.188995","category":"500","category_name":"未知分类","address":"上海市 上海市徐汇区滨江绿地龙腾中路"},{"poiid":"B2094655D26FABFE419A","title":"东安三村(南一门)","lon":"121.44971","lat":"31.18902","category":"656","category_name":"大门","address":""},{"poiid":"B2094757D66CA0FD4093","title":"春草堂","lon":"121.4499836","lat":"31.1865153","category":"500","category_name":"未知分类","address":"上海宛平南路"},{"poiid":"B2094757D169ABFE4099","title":"上海农科院畜牧兽医研究所动物门诊部","lon":"121.445591","lat":"31.190448","category":"500","category_name":"未知分类","address":"上海斜土路2451号"},{"poiid":"B2094757D164A6FF499C","title":"pinky 双色婚纱","lon":"121.447162","lat":"31.191116","category":"249","category_name":"购物服务","address":"上海天钥桥路380弄"},{"poiid":"B2094757D064ABFC499D","title":"优派时尚派对","lon":"121.44619917","lat":"31.190983603","category":"500","category_name":"未知分类","address":"上海天钥桥路123号（近辛耕路）"},{"poiid":"B2094757D065A7FB419B","title":"572天钥桥路辛耕路站","lon":"121.44620513","lat":"31.191003799","category":"500","category_name":"未知分类","address":"上海天钥桥路辛耕路"},{"poiid":"B2094757D164A2FE4292","title":"乐再乐","lon":"121.447039","lat":"31.1913","category":"500","category_name":"未知分类","address":"上海斜土路"},{"poiid":"B2094654DA6EA2F5499A","title":"上海京荣船舶设计有限公司","lon":"121.44777","lat":"31.1914","category":"263","category_name":"公司","address":"宛平南路381号宛轻商务楼"},{"poiid":"B2094655D268A1F44199","title":"爱中爱华公寓(东门)","lon":"121.44977","lat":"31.18647","category":"48","category_name":"楼宇大门","address":"宛平南路656-658"},{"poiid":"B2094654DA6EA1FC409E","title":"东益洋酒商行","lon":"121.44779","lat":"31.1917","category":"136","category_name":"烟酒专卖店","address":"徐汇区斜土路(近宛平南路)"}]