[{"poiid":"B2094757D06FA3FD4592","title":"同乐坊","lon":"121.44327","lat":"31.23616","category":"172","category_name":"酒吧","address":"静安区余姚路60号(近海防路)"},{"poiid":"B2094655D26AA1FB479F","title":"静安区中心医院","lon":"121.44982","lat":"31.23057","category":"162","category_name":"医院","address":"静安区西康路259号(近新闸路)"},{"poiid":"B2094757D06FA0F84198","title":"澳门葡国餐厅 MACAU PORTUGUESE RESTAURANT","lon":"121.44789477408","lat":"31.233534776121","category":"94","category_name":"西餐厅","address":"静安区西康路466号(近康定路)"},{"poiid":"B2094753D76FAAFA449C","title":"上海滩国泰旗舰店","lon":"121.466011","lat":"31.216125","category":"249","category_name":"购物服务","address":"淮海中路868号"},{"poiid":"B209475CD564A7F84292","title":"上海滩新天地店","lon":"121.47463","lat":"31.22164","category":"119","category_name":"商场","address":"\"太仓路181弄新天地北里15号\r\n\""},{"poiid":"B209475CD564A7F8439E","title":"上海滩中信泰富店","lon":"121.45602","lat":"31.22851","category":"119","category_name":"商场","address":"\"南京西路1168号中信泰富广场，店铺号221.\r\n\""},{"poiid":"B2094757D069A3FE489E","title":"康定路西康路","lon":"121.4474485","lat":"31.2337965","category":"500","category_name":"未知分类","address":"上海康定路西康路"},{"poiid":"B2094654DA6CA3FB419D","title":"东方亚克西(北)","lon":"121.4487","lat":"31.23226","category":"90","category_name":"清真餐馆","address":"静安区西康路379号(近武定路)"},{"poiid":"B2094655D264A0FB439F","title":"静安枫景","lon":"121.4465","lat":"31.23043","category":"47","category_name":"住宅区","address":"上海市静安区常德路500弄"},{"poiid":"B2094757D068A6F4449F","title":"CHOC REPUBLIC","lon":"121.44278","lat":"31.23669","category":"67","category_name":"甜品店","address":"静安区余姚路88号(海防路口)"},{"poiid":"B2094757D06FA4F5449F","title":"东北四季饺子王 西康店","lon":"121.448610054","lat":"31.232287793","category":"82","category_name":"东北菜","address":"静安区西康路379号(近武定路)"},{"poiid":"B2094655D26AAAFB4898","title":"川享海派川菜","lon":"121.448303","lat":"31.232389","category":"71","category_name":"四川菜","address":"静安区西康路400号2楼(近武定路)"},{"poiid":"B2094757D665A2FF4298","title":"泰国家 武定路店 Thai House","lon":"121.44769587641","lat":"31.232183337386","category":"99","category_name":"泰国／越南菜品餐厅","address":"静安区武定路657弄12号205室(近西康路)"},{"poiid":"B2094752D16FA2FA4699","title":"点点心港式茶餐","lon":"121.450125","lat":"31.231313","category":"247","category_name":"餐饮美食","address":"南京西路889号"},{"poiid":"B2094757D068A7FA449B","title":"新邓家菜","lon":"121.44724","lat":"31.229","category":"76","category_name":"上海菜","address":"静安区常德路466号(近新闸路)"},{"poiid":"B2094654DA6CA3F4499F","title":"本本大厦","lon":"121.4504","lat":"31.23115","category":"46","category_name":"楼宇","address":"越秀区广州沿江中路298号"},{"poiid":"B2094757D069A3FB469B","title":"肯德基 KFC (武定店)","lon":"121.44892308","lat":"31.231441996","category":"68","category_name":"快餐厅","address":"静安区西康路400号(近武定路)"},{"poiid":"B2094750D26FA7F84598","title":"UVA Wine Bar","lon":"121.4447","lat":"31.23062","category":"260","category_name":"其他","address":"静安区陕西北路819号(近康定路)"},{"poiid":"B2094654DB64A6FB4892","title":"锦江之星(恒隆广场店)","lon":"121.4489","lat":"31.2324","category":"216","category_name":"经济型连锁酒店","address":"静安区西康路400号(近武定路)"},{"poiid":"B2094757D068A0FE419F","title":"玲珑鱼坊","lon":"121.44886533669","lat":"31.231894470951","category":"71","category_name":"四川菜","address":"静安区西康路326号(近新闸路)"},{"poiid":"B2094757D069ABFD439D","title":"常德路新闸路","lon":"121.446208","lat":"31.230472","category":"500","category_name":"未知分类","address":"上海常德路新闸路口"},{"poiid":"B2094757D465A3FE429A","title":"Crocus bar&restaurant","lon":"121.447185054","lat":"31.233531793","category":"65","category_name":"咖啡厅","address":"康定路528号互动创意空间园区近西康路"},{"poiid":"B2094655D269A4FB479D","title":"Lange","lon":"121.4482","lat":"31.23214","category":"94","category_name":"西餐厅","address":"静安区武定路661号朗格商务酒店内(近西康路)"},{"poiid":"B2094654DA6CA3FB4599","title":"静安枫景苑(新闸路)","lon":"121.44695","lat":"31.23073","category":"47","category_name":"住宅区","address":"上海静安区新闸路1550号(近常德路)"},{"poiid":"B2094757D065A0FF409D","title":"静安豪景苑","lon":"121.448506586","lat":"31.232019466","category":"47","category_name":"住宅区","address":"朝阳区东四环慈云寺桥东北角,向东400米路南"},{"poiid":"B209475CD36CA3FE469C","title":"松饼先生 武定路店 Mr Pancake House","lon":"121.4448","lat":"31.23065","category":"101","category_name":"美式风味","address":"武定路877号(近常德路)"},{"poiid":"B2094654DA6CA0FB4993","title":"金航大厦","lon":"121.45","lat":"31.231","category":"46","category_name":"楼宇","address":"卫清西路139_149号等"},{"poiid":"B2094750D76FAAF84299","title":"豫园城隍庙传统小吃连锁(武定路店)","lon":"121.448","lat":"31.2321","category":"68","category_name":"快餐厅","address":"静安区武定路(近第一医药商店)"},{"poiid":"B2094654D565A7FC409F","title":"紫安大厦","lon":"121.449","lat":"31.2295","category":"46","category_name":"楼宇","address":"行宫位于沈河北站一路41号"},{"poiid":"B2094750D665A6FB4893","title":"永福苏州汤包馆(西康路店)","lon":"121.449","lat":"31.2322","category":"68","category_name":"快餐厅","address":"静安区西康路379号(近武定路)"},{"poiid":"B2094757D06BA1FB449F","title":"全家便利(中信泰富广场店)","lon":"121.44685685","lat":"31.231782661","category":"117","category_name":"便民商店/便利店","address":"上海静安区南京西路1168号中信泰富广场5楼(近陕西北路)"},{"poiid":"B2094757D064A1FC459F","title":"嘉庆坊","lon":"121.44816","lat":"31.23322","category":"76","category_name":"上海菜","address":"静安区西康路480号(近康定路)"},{"poiid":"B2094654DB64A6FB4993","title":"上海朗格商务酒店","lon":"121.44819","lat":"31.23214","category":"250","category_name":"公园户外","address":"静安区武定路661号(近西康路)"},{"poiid":"B2094654DA6CA3FB449A","title":"上海市静安区第一中心小学","lon":"121.44895","lat":"31.2303","category":"56","category_name":"小学","address":"静安区新闸路1451号(近西康路)"},{"poiid":"B2094654DB69A6FE4692","title":"纪明广场","lon":"121.44861","lat":"31.23088","category":"46","category_name":"楼宇","address":"石景山区阜石路与杨庄东街交叉口西北角"},{"poiid":"B2094757D169A5FE499F","title":"静安区民政局","lon":"121.449019","lat":"31.23228","category":"500","category_name":"未知分类","address":"上海西康路370弄50号"},{"poiid":"B2094757D069A7F4439C","title":"BONO SALON","lon":"121.44503","lat":"31.23058","category":"148","category_name":"美容美发店","address":"上海静安区武定路870号(近常德路)"},{"poiid":"B2094654D565ABF4429D","title":"延平大厦","lon":"121.448","lat":"31.2344","category":"46","category_name":"楼宇","address":"朝阳区北三环东路与京顺路交接处路口北侧"},{"poiid":"B2094654DA6CA3FB4792","title":"培明中学","lon":"121.44767","lat":"31.2294","category":"55","category_name":"中学","address":"静安区新闸路1607号(近常德路)"},{"poiid":"B2094757D06BAAFB4198","title":"凯德·曼克顿豪庭(怡景苑)","lon":"121.44867706","lat":"31.232706069","category":"47","category_name":"住宅区","address":"上海静安区西康路339弄(近新闸路)"},{"poiid":"B2094757DA69A1F9439B","title":"宝瑞佳国际月子会所","lon":"121.44696567201","lat":"31.234715627601","category":"162","category_name":"医院","address":"静安区西康路572号(近昌平路)"},{"poiid":"B2094757D66CABFF4293","title":"新丰路361号","lon":"121.447011686","lat":"31.2325662767","category":"47","category_name":"住宅区","address":"上海静安区西康路新丰路361号"},{"poiid":"B209475DDB6AAAFA449D","title":"静安嘉里中心","lon":"121.449409","lat":"31.230958","category":"247","category_name":"餐饮美食","address":"上海市 静安寺"},{"poiid":"B2094654DA6CA3FB4493","title":"上海交通大学附属儿童医院(新闸路)","lon":"121.44802","lat":"31.22982","category":"162","category_name":"医院","address":"新闸路1531号"},{"poiid":"B2094655D265A6FD4798","title":"重庆麻辣烫","lon":"121.4488","lat":"31.23273","category":"68","category_name":"快餐厅","address":"静安区武定路620号(近西康路)"},{"poiid":"B2094757D06BA0FB4892","title":"武定路西康路","lon":"121.448593296","lat":"31.232489374","category":"500","category_name":"未知分类","address":"上海武定路西康路"},{"poiid":"B2094757D664ABFD4392","title":"Kuluska","lon":"121.447291054","lat":"31.233578793","category":"94","category_name":"西餐厅","address":"静安区康定路528号(近西康路)"},{"poiid":"B2094757D069A3F8439D","title":"No.76 Tao.dada shop","lon":"121.44776958","lat":"31.232070467","category":"500","category_name":"未知分类","address":"上海南京西路1025弄静安别墅76号"},{"poiid":"B2094757D66FA6F8439B","title":"雅仕居","lon":"121.44734558","lat":"31.231319452","category":"500","category_name":"未知分类","address":"上海新南路99弄"},{"poiid":"B2094655D268ABFE419D","title":"康定大厦","lon":"121.44834","lat":"31.233528","category":"47","category_name":"住宅区","address":"嘉定区金沙江路3131号(近新郁路)"},{"poiid":"B2094757D16BABFC449B","title":"贝罗萨","lon":"121.44800158","lat":"31.231625458","category":"500","category_name":"未知分类","address":"上海陕西南路888弄6号"},{"poiid":"B2094757D06BA2FD469A","title":"鱼门客栈(静安店)","lon":"121.44729","lat":"31.2289","category":"71","category_name":"四川菜","address":"静安区常德路460号(近新闸路)"},{"poiid":"B2094655D26DA7F8499E","title":"静安豪景苑(南门)","lon":"121.44731","lat":"31.23216","category":"656","category_name":"大门","address":"武定路650号"},{"poiid":"B2094757D66BA6FD459F","title":"Rhumerie Bounty 武定路店","lon":"121.448825","lat":"31.232837","category":"260","category_name":"其他","address":"静安区武定路550号(近西康路)"},{"poiid":"B2094654DA6CA3FB429A","title":"怡景苑","lon":"121.4485","lat":"31.231504","category":"47","category_name":"住宅区","address":"上海市静安区西康路339号"},{"poiid":"B2094757D16EABFB449F","title":"星巴克Starbucks(太古汇店)","lon":"121.445446886","lat":"31.2312458509","category":"247","category_name":"餐饮美食","address":"广州天河区天河东路75号太古汇(近地铁石牌桥站D出口)"},{"poiid":"B2094757D568A5FB489B","title":"开吧","lon":"121.4467839","lat":"31.23371306","category":"247","category_name":"餐饮美食","address":"康定路528弄内(近西康路)"},{"poiid":"B2094757D16CA1F8459E","title":"One Park Avenue 静安枫景苑10号楼","lon":"121.44814308","lat":"31.231967665","category":"252","category_name":"楼宇机构","address":"上海武定路801号"},{"poiid":"B2094757D06AA2F54892","title":"Kaiba(康定路店)","lon":"121.448151291","lat":"31.234427553","category":"172","category_name":"酒吧","address":"上海静安区康定路528号(近西康路)"},{"poiid":"B2094757D065A0FD419C","title":"易统家居(静安店)","lon":"121.446832","lat":"31.231879","category":"249","category_name":"购物服务","address":"静安区万航渡路235号"},{"poiid":"B2094655D26DA7F9419A","title":"怡景苑(东门)","lon":"121.4489","lat":"31.23196","category":"47","category_name":"住宅区","address":"西康路339弄1-9号"},{"poiid":"B2094757D16EA3F5479F","title":"冠生园(集团)有限公司","lon":"121.448832","lat":"31.230975","category":"263","category_name":"公司","address":"上海新闸路1418号"},{"poiid":"B209475DD564A5FD429E","title":"五星海南鸡饭","lon":"121.447891","lat":"31.2343","category":"247","category_name":"餐饮美食","address":"上海市 胶州路176号"},{"poiid":"B2094757D16BA4FB459E","title":"Just Dance Arts Center","lon":"121.44730491","lat":"31.232526436","category":"500","category_name":"未知分类","address":"上海武定路650号静安豪景会所"},{"poiid":"B2094655D26DA4F84998","title":"大家乐","lon":"121.44527","lat":"31.23114","category":"112","category_name":"糕饼店","address":"常德路610-1"},{"poiid":"B2094655D26FA3FC4499","title":"克莉丝汀 康定路二店","lon":"121.447739054","lat":"31.233661793","category":"112","category_name":"糕饼店","address":"静安区康定路463号(近西康路)"},{"poiid":"B2094757D16DA7F8489D","title":"The Shed","lon":"121.44651458","lat":"31.233574496","category":"500","category_name":"未知分类","address":"528 Kangding Lu (Xikang Lu)"},{"poiid":"B2094655D26DA5FB439A","title":"心一代豆浆(西康路)","lon":"121.44904","lat":"31.23225","category":"68","category_name":"快餐厅","address":"静安区西康路400号(近武定路)"},{"poiid":"B2094757D064A7FF479B","title":"华江加油站","lon":"121.446223636","lat":"31.2318436793","category":"154","category_name":"加油加气站","address":"静安区万航渡路(镇宁路路口)"},{"poiid":"B2094654DB6BA6F4429A","title":"好德No.062","lon":"121.44867","lat":"31.2327","category":"117","category_name":"便民商店/便利店","address":"武定路624临"},{"poiid":"B2094752D16DA0FF429C","title":"梅隆镇广场","lon":"121.448706","lat":"31.232198","category":"500","category_name":"未知分类","address":null},{"poiid":"B2094655D26EA2F54192","title":"光明便利西康店","lon":"121.44896","lat":"31.2323","category":"117","category_name":"便民商店/便利店","address":""},{"poiid":"B2094757D16EA7FE479E","title":"冠生园门市部","lon":"121.44924","lat":"31.23062","category":"112","category_name":"糕饼店","address":"静安区新闸路1458号(近西康路)"},{"poiid":"B2094757D16FAAFD499A","title":"TOP JEANS","lon":"121.44798208","lat":"31.230972145","category":"500","category_name":"未知分类","address":"上海黄浦区福州路568号(近浙江中路)"},{"poiid":"B2094654DA6CA3F9499C","title":"康定商务楼","lon":"121.4479","lat":"31.23348","category":"46","category_name":"楼宇","address":"西康路468"},{"poiid":"B2094655D26DAAF44099","title":"万航渡路269弄小区","lon":"121.4457023549","lat":"31.232464933679","category":"47","category_name":"住宅区","address":"万航渡路269弄"},{"poiid":"B2094750D26AAAFD489E","title":"Grand Yard","lon":"121.446792","lat":"31.234865","category":"500","category_name":"未知分类","address":"西康路608号"},{"poiid":"B2094750D169AAF94099","title":"儿童医院","lon":"121.445983","lat":"31.233097","category":"162","category_name":"医院","address":null},{"poiid":"B2094757D064A4FE409C","title":"新闸路陕西北路","lon":"121.448479","lat":"31.230778","category":"500","category_name":"未知分类","address":"上海新闸路陕西北路"},{"poiid":"B2094654DA6CA2FF419F","title":"静安枫景苑(西门)","lon":"121.44689","lat":"31.23147","category":"656","category_name":"大门","address":"武定路801号"},{"poiid":"B2094654DA6CA3FA4092","title":"群众商务楼","lon":"121.44921","lat":"31.23262","category":"46","category_name":"楼宇","address":"武定路609号"},{"poiid":"B2094757D16DA1FD4498","title":"朗格磨坊西餐厅","lon":"121.44764558","lat":"31.23325149","category":"500","category_name":"未知分类","address":"上海武定路661号"},{"poiid":"B2094757D66BA2F5429E","title":"桐庐山里人家 西康路店","lon":"121.44848415906","lat":"31.23220705259","category":"260","category_name":"其他","address":"静安区西康路379号(武定路口)"},{"poiid":"B2094654D565ABF44299","title":"新平公寓","lon":"121.448","lat":"31.2347","category":"46","category_name":"楼宇","address":"盛和大厦位于崂山商务一区,即海尔路西侧。青医附院崂山分院南侧"},{"poiid":"B2094655D26DA3FB4399","title":"好德便利No.351","lon":"121.44779","lat":"31.23005","category":"117","category_name":"便民商店/便利店","address":"新闸路1529"},{"poiid":"B2094757D465A7FF449F","title":"永丰昌餐厅","lon":"121.449949054","lat":"31.231465793","category":"68","category_name":"快餐厅","address":"静安区新闸路1396号(近西康路)"},{"poiid":"B2094655D26EA4FA4098","title":"亲奶奶私房菜","lon":"121.4479184","lat":"31.2332787","category":"257","category_name":"中餐厅","address":"西康路466号近康定路"},{"poiid":"B2094654D565A7FC4492","title":"国际丽都公馆","lon":"121.44961885029","lat":"31.2297349328","category":"46","category_name":"楼宇","address":"静安区愚园路268号201室(近二号线静安寺站)"},{"poiid":"B2094757D16EA7FC459F","title":"COCO奶茶铺","lon":"121.44640258","lat":"31.230091428","category":"247","category_name":"餐饮美食","address":"上海市静安区万航渡路"},{"poiid":"B2094655D26CABFE499E","title":"上海市人才发展服务中心静安中心","lon":"121.44877","lat":"31.23215","category":"252","category_name":"楼宇机构","address":"西康路379"},{"poiid":"B2094757D16EAAFF4792","title":"上海市人才服务中心(静安区分部)","lon":"121.44909","lat":"31.23181","category":"500","category_name":"未知分类","address":"静安区西康路379号5楼(近武定路)"},{"poiid":"B2094757D165A5FE479C","title":"邓家菜","lon":"121.44970758","lat":"31.23122245","category":"247","category_name":"餐饮美食","address":"上海市静安区常德路466号"},{"poiid":"B2094654DA6CA3FA4198","title":"华庆办公楼","lon":"121.44942","lat":"31.23283","category":"46","category_name":"楼宇","address":"武定路595"},{"poiid":"B2094654DA6CA3FA419B","title":"武定坊","lon":"121.44907","lat":"31.233421","category":"47","category_name":"住宅区","address":"武定路600弄1-36号"},{"poiid":"B2094757D169AAFF489F","title":"蟹蟹怡回娘家","lon":"121.447918419","lat":"31.2329907517","category":"500","category_name":"未知分类","address":"上海静安区陕西北路721弄"},{"poiid":"B2094757D065A4FE439C","title":"浙江泰隆商业银行","lon":"121.44660505","lat":"31.229106544","category":"150","category_name":"银行","address":"静安区常德路425号"},{"poiid":"B2094655D26CABF8419E","title":"快客康宁路店","lon":"121.44767","lat":"31.23373","category":"117","category_name":"便民商店/便利店","address":"康定路463"},{"poiid":"B2094654DB6AA1FC449B","title":"上海开开天德制衣有限公司","lon":"121.4487","lat":"31.23226","category":"263","category_name":"公司","address":"西康路379号5楼"},{"poiid":"B2094655D26DA2F44899","title":"良友金伴(康定路)","lon":"121.44593","lat":"31.23342","category":"117","category_name":"便民商店/便利店","address":"康定路570"},{"poiid":"B2094752D56EA0FA429E","title":"美国驻上海总领事馆","lon":"121.446085","lat":"31.230306","category":"500","category_name":"未知分类","address":"南京西路1038号梅龙镇广场8楼"},{"poiid":"B2094654DA6CA2FC4899","title":"上海市华山神经外科(集团)医院静安分院","lon":"121.44982","lat":"31.23057","category":"162","category_name":"医院","address":"西康路281"},{"poiid":"B2094757D66CA5FB489E","title":"西康路馒头店","lon":"121.44755","lat":"31.23372","category":"247","category_name":"餐饮美食","address":"上海静安区西康路520号(近康定路)  "},{"poiid":"B2094655D26DA2F9449A","title":"静安国际广场(南门)","lon":"121.44842","lat":"31.23084","category":"48","category_name":"楼宇大门","address":"新闸路1508"},{"poiid":"B2094654DA6CA3FA409A","title":"伯龙公寓","lon":"121.44834","lat":"31.233526","category":"47","category_name":"住宅区","address":"西康路446号"},{"poiid":"B2094753DB64A3F8479F","title":"掌上韩品","lon":"121.447242","lat":"31.234134","category":"247","category_name":"餐饮美食","address":"上海市 陕西南路145号"},{"poiid":"B2094654DA6CA3FB459E","title":"锦桥商务楼","lon":"121.44718","lat":"31.22952","category":"46","category_name":"楼宇","address":"新闸路1609"},{"poiid":"B2094655D264A2FD439C","title":"中国光大银行常德支行24小时自助银行","lon":"121.44808","lat":"31.23066","category":"152","category_name":"ATM","address":""},{"poiid":"B2094655D26DA2F4499E","title":"快客No.6975","lon":"121.44537","lat":"31.23319","category":"117","category_name":"便民商店/便利店","address":"康定路606"},{"poiid":"B2094752D16DA0FF4699","title":"梅陇镇广场","lon":"121.448706","lat":"31.232198","category":"500","category_name":"未知分类","address":null},{"poiid":"B2094753DB64A7F8489E","title":"Captain Tattoo","lon":"121.446388","lat":"31.230287","category":"500","category_name":"未知分类","address":"上海市 上海市静安区胶州路498号"},{"poiid":"B2094655D26EA3FE479D","title":"康定大楼","lon":"121.44765","lat":"31.234407","category":"46","category_name":"楼宇","address":"康定路460弄"},{"poiid":"B2094757D66AA6F8459A","title":"开巴 康定路店 Kaiba","lon":"121.44828","lat":"31.23422","category":"260","category_name":"其他","address":"静安区康定路528号(近西康路)"},{"poiid":"B2094757D16FABF54592","title":"康定路常德路公交站","lon":"121.444424","lat":"31.231914","category":"38","category_name":"公交车站","address":"上海静安区康定路(近常德路)"},{"poiid":"B2094757D66FA7FF4293","title":"KD528 bar","lon":"121.4468","lat":"31.23323","category":"260","category_name":"其他","address":"静安区康定路528号(近西康路)"},{"poiid":"B2094752D66BA0F9459A","title":"恒隆广场商务楼（二期）","lon":"121.448523","lat":"31.230238","category":"252","category_name":"楼宇机构","address":null},{"poiid":"B2094757D16FA5FE439F","title":"护理学会教育基地","lon":"121.44683078","lat":"31.230282332","category":"500","category_name":"未知分类","address":"上海新闸路1531号"},{"poiid":"B2094753D764A0FF429D","title":"正大广场","lon":"121.445625","lat":"31.230154","category":"500","category_name":"未知分类","address":"上海市 陆家嘴中心"},{"poiid":"B2094757D66EA2F5449A","title":"138路(常德路新闸路站)","lon":"121.445995486","lat":"31.2305771378","category":"500","category_name":"未知分类","address":"上海常德路新闸路"},{"poiid":"B2094654DA6CA3F9489D","title":"向新新村","lon":"121.4483","lat":"31.233803","category":"47","category_name":"住宅区","address":"康定路445弄1-21号"},{"poiid":"B2094655D36DA1FB4598","title":"西康路康定路","lon":"121.44713","lat":"31.23415","category":"38","category_name":"公交车站","address":""},{"poiid":"B2094654DA6CA3FB439D","title":"上海冠生园调味品有限公司","lon":"121.44883","lat":"31.23097","category":"263","category_name":"公司","address":"新闸路1458号"},{"poiid":"B2094757D16DAAF84899","title":"公交（136）","lon":"121.447853088","lat":"31.2300701141","category":"500","category_name":"未知分类","address":"上海真北新村－北京西路温州路"},{"poiid":"B2094757D569A2F5459D","title":"好德便利店(又一邨东北)","lon":"121.44605442","lat":"31.23000868","category":"117","category_name":"便民商店/便利店","address":"常德路521"},{"poiid":"B2094757D065A5F44592","title":"西康路新闸路","lon":"121.450411","lat":"31.231153","category":"500","category_name":"未知分类","address":"上海本本大厦"},{"poiid":"B2094757D165A1F44192","title":"竹鑫园","lon":"121.447267586","lat":"31.2334914948","category":"500","category_name":"未知分类","address":"上海西康路520号"},{"poiid":"B2094654DB69A7F84693","title":"武定路579号","lon":"121.44961","lat":"31.23293","category":"47","category_name":"住宅区","address":"静安区武定路"},{"poiid":"B2094757D064A4F9479B","title":"Deli de Li","lon":"121.449401697","lat":"31.2321146521","category":"500","category_name":"未知分类","address":"上海市静安区西康路356号"},{"poiid":"B2094655D26DAAFA499D","title":"向新新村(北门)","lon":"121.44799","lat":"31.2339","category":"47","category_name":"住宅区","address":"康定路445弄1-21号"},{"poiid":"B2094757D16AA7FC429E","title":"西康路370弄","lon":"121.449211","lat":"31.232138","category":"252","category_name":"楼宇机构","address":"上海西康路370弄"},{"poiid":"B2094655D26BABFF449F","title":"光大期货有限公司","lon":"121.44815","lat":"31.23072","category":"219","category_name":"其他","address":"新闸路1518"},{"poiid":"B2094655D26DA3FB4298","title":"广源门","lon":"121.44999","lat":"31.23145","category":"257","category_name":"中餐厅","address":"静安区新闸路(近西康路)"},{"poiid":"B2094752D36EA3FA4699","title":"星巴克（恒隆二店）","lon":"121.448734","lat":"31.230179","category":"500","category_name":"未知分类","address":"南京西路1266号恒隆广场期"},{"poiid":"B2094757D06AA5FA4598","title":"复旦大学枫林校区第一教学楼","lon":"121.44950108","lat":"31.233625997","category":"500","category_name":"未知分类","address":"上海东安路130号复旦大学枫林校区内"},{"poiid":"B2094654DA6CA3FB4099","title":"武定坊社区卫生服务站","lon":"121.44954","lat":"31.23324","category":"162","category_name":"医院","address":"武定路580-临1"},{"poiid":"B2094655D26DA2FF499B","title":"恒德里(东门)","lon":"121.44466","lat":"31.23142","category":"47","category_name":"住宅区","address":"常德路633弄4-150号"},{"poiid":"B2094655D26DA2FF499A","title":"恒德里(常德路)","lon":"121.44431","lat":"31.23121","category":"47","category_name":"住宅区","address":"常德路633弄4-150号"},{"poiid":"B2094654DB6BA6F44092","title":"联华超市西康店","lon":"121.44766","lat":"31.23408","category":"118","category_name":"超级市场","address":"西康路520号"},{"poiid":"B2094757D16AA6FE439F","title":"HOME","lon":"121.446405","lat":"31.229739","category":"500","category_name":"未知分类","address":null},{"poiid":"B2094752D46AA5F5479B","title":"Burdigala Bordeaux Wine Bar","lon":"121.449905","lat":"31.233361","category":"247","category_name":"餐饮美食","address":"武定路550号(近陕西北路)"},{"poiid":"B2094757D16BABF5439E","title":"Jamaicablue","lon":"121.44628558","lat":"31.230082428","category":"500","category_name":"未知分类","address":"上海市静安区常德路535号"},{"poiid":"B2094654DB65A6F9479A","title":"华东理工大学继续教育学院(新闸路)","lon":"121.44766","lat":"31.2294","category":"53","category_name":"成人教育","address":"新闸路1607"},{"poiid":"B2094654DB6BA6F44093","title":"康定菜市场(西康路)","lon":"121.44734","lat":"31.23414","category":"117","category_name":"便民商店/便利店","address":"西康路520"},{"poiid":"B2094757D16BA1FF439A","title":"江宁路新闸路","lon":"121.44656858","lat":"31.229492416","category":"500","category_name":"未知分类","address":"上海静安区江宁路301号"},{"poiid":"B2094655D265A4F9449D","title":"大清花(旗舰店)","lon":"121.44685","lat":"31.22931","category":"247","category_name":"餐饮美食","address":"常德路466号"},{"poiid":"B2094750D76EA2FB439E","title":"向秀酒吧","lon":"121.448","lat":"31.2329","category":"260","category_name":"其他","address":"静安区西康路432号(近武定路)"},{"poiid":"B2094655D26DA3FE4492","title":"康定大厦(西门)","lon":"121.44811","lat":"31.23328","category":"48","category_name":"楼宇大门","address":"西康路464"},{"poiid":"B2094654DA6CA3F4489B","title":"上海摩士达技术学校","lon":"121.44628","lat":"31.23432","category":"54","category_name":"职业技术学校","address":"西康路567弄2-64号"},{"poiid":"B2094655D26DA7F9419B","title":"华通公寓(西门)","lon":"121.44725","lat":"31.23423","category":"47","category_name":"住宅区","address":"西康路520"},{"poiid":"B2094757D069A6FE479E","title":"巧克力小屋","lon":"121.4496231","lat":"31.231645584","category":"500","category_name":"未知分类","address":"上海西康路新闸路曼克顿豪庭"},{"poiid":"B2094654DA6CA3F44899","title":"上海市轻工业工业技术学校静安分部","lon":"121.44628","lat":"31.23432","category":"54","category_name":"职业技术学校","address":"西康路567弄2-64号"},{"poiid":"B2094757D16DA7FD459E","title":"2012","lon":"121.446566759","lat":"31.2338063482","category":"500","category_name":"未知分类","address":"上海胶州路"},{"poiid":"B2094654D565ABF4429E","title":"金叶公寓","lon":"121.44782683621","lat":"31.234418299248","category":"47","category_name":"住宅区","address":"延平路841号"},{"poiid":"B2094655D26BA4F54493","title":"静安豪景苑(东门)","lon":"121.44788","lat":"31.23312","category":"656","category_name":"大门","address":""},{"poiid":"B2094655D264A6FC459F","title":"中原地产","lon":"121.44756","lat":"31.22991","category":"248","category_name":"生活娱乐","address":"中山路801号"},{"poiid":"B2094752D369A5F8499A","title":"WINE MUST 红酒吧","lon":"121.44460557002","lat":"31.230413190145","category":"111","category_name":"休闲餐饮场所","address":"武定路881号"},{"poiid":"B2094753D26BA7FD489C","title":"Brotzeit German bier ba r","lon":"121.449473","lat":"31.2303","category":"500","category_name":"未知分类","address":"上海市 上海南京西路"},{"poiid":"B2094757DB6FA0FA429B","title":"上海市教委教研室","lon":"121.448386","lat":"31.234121","category":"252","category_name":"楼宇机构","address":"陕西北路500号"},{"poiid":"B2094757D16CA3FB4699","title":"东亚银行上海静安支行","lon":"121.44471258","lat":"31.231356453","category":"500","category_name":"未知分类","address":"上海南京西路1468号中欣大厦1P(近铜仁路口)"},{"poiid":"B2094752D66AA1FC4798","title":"白洋淀足球场","lon":"121.450413","lat":"31.231693","category":"220","category_name":"运动场所","address":"周家嘴路军工路"},{"poiid":"B2094757D169A2FE459C","title":"南京银行","lon":"121.44679858","lat":"31.233934503","category":"150","category_name":"银行","address":"上海营口路国顺东路"},{"poiid":"B2094757D16DA7FF449B","title":"西康路南阳路","lon":"121.44862388","lat":"31.233973994","category":"500","category_name":"未知分类","address":"上海西康路南阳路"},{"poiid":"B2094750DB6FA4FB419E","title":"若然雅居","lon":"121.44485","lat":"31.23066","category":"260","category_name":"其他","address":"静安区武定路873号1-4楼(近常德路)"},{"poiid":"B2094757D66DA4FF449C","title":"柳迎村","lon":"121.45","lat":"31.2315","category":"500","category_name":"未知分类","address":"上海市静安区北京西路1729弄"},{"poiid":"B2094757DA65A7FE499C","title":"I.T 恒隆店","lon":"121.449216","lat":"31.229604","category":"249","category_name":"购物服务","address":"南京西路西康路"},{"poiid":"B2094757D169A0F9409F","title":"静安区游泳馆","lon":"121.44489","lat":"31.23032","category":"220","category_name":"运动场所","address":"上海静安区武定路423号  "},{"poiid":"B2094654DB69A7F8409D","title":"浦东新区地方税务局稽查分局","lon":"121.44652","lat":"31.22917","category":"250","category_name":"公园户外","address":"常德路175号轻工机械大厦10-17楼"},{"poiid":"B2094752D268ABFF4193","title":"881創意園","lon":"121.444876","lat":"31.230308","category":"252","category_name":"楼宇机构","address":"武定路881號"},{"poiid":"B2094753D46CA0FE4098","title":"上海同济大学","lon":"121.444259","lat":"31.23207","category":"500","category_name":"未知分类","address":"上海市 上海市杨浦区四平路"},{"poiid":"B2094757DA69A2F9439F","title":"欧瑞企业管理咨询","lon":"121.44502","lat":"31.23141","category":"633","category_name":"商务服务类公司","address":"上海市静安区常德路800号C4幢4楼"},{"poiid":"B2094757D069A1F44092","title":"泰隆商业银行上海分行","lon":"121.445941586","lat":"31.2293444137","category":"150","category_name":"银行","address":"上海市静安区常德路"},{"poiid":"B2094757D16CA2F44393","title":"胖胖蔡小姐'home","lon":"121.445781586","lat":"31.2296774202","category":"500","category_name":"未知分类","address":null},{"poiid":"B209475CD46FA7F44193","title":"沪纺大厦","lon":"121.448921","lat":"31.234306","category":"252","category_name":"楼宇机构","address":"上海市 静安区陕西北路670号"},{"poiid":"B2094753D26BA2FD419D","title":"Windows too","lon":"121.449406","lat":"31.229581","category":"500","category_name":"未知分类","address":"上海市 久光百货2楼"},{"poiid":"B2094757D569A3FD479F","title":"有茗堂茶业","lon":"121.4461889","lat":"31.229345","category":"255","category_name":"专卖店","address":"新闸路1628号"},{"poiid":"B2094752D36BAAF94292","title":"Cafe,des,Stagiaires(武定路店)","lon":"121.44728","lat":"31.22875","category":"94","category_name":"西餐厅","address":"静安区武定路1085号(近胶州路)"},{"poiid":"B2094757D168A7F9499A","title":"老前门烤鸭武定路(近陕西路)","lon":"121.449708936","lat":"31.2335155953","category":"500","category_name":"未知分类","address":"上海武定路529号"},{"poiid":"B2094654DA6CA3F4499C","title":"上海现代建筑设计(集团)有限公司规划建筑设计院","lon":"121.4504","lat":"31.23115","category":"263","category_name":"公司","address":"西康路300号本本大厦21-22层"},{"poiid":"B2094655D26DA1FC439A","title":"静安枫景苑(南门)","lon":"121.44721","lat":"31.22992","category":"656","category_name":"大门","address":"新闸路1550号"},{"poiid":"B2094654DB6BA6F44399","title":"联谊·西康大厦(西门)","lon":"121.44703","lat":"31.23446","category":"48","category_name":"楼宇大门","address":"西康路556弄1-3号"},{"poiid":"B2094655D26DA3FE449A","title":"武定坊(南门)","lon":"121.44911","lat":"31.23293","category":"656","category_name":"大门","address":"武定路600弄1-36号"},{"poiid":"B2094654DA6CA3F54199","title":"香港环球唱片有限公司上海代表处","lon":"121.4504","lat":"31.23115","category":"263","category_name":"公司","address":"西康路300号本本大厦501"},{"poiid":"B2094753D369A7FC409D","title":"西康公园","lon":"121.44975","lat":"31.23003","category":"33","category_name":"公园景点售票处","address":"静安区西康路255号(西康路新闸路)"},{"poiid":"B2094655D26DA7FF4592","title":"又一邨(东门)","lon":"121.44611","lat":"31.22983","category":"656","category_name":"大门","address":"常德路519弄1-24号"},{"poiid":"B2094750D36EAAF54793","title":"paradox","lon":"121.444557","lat":"31.23071","category":"260","category_name":"其他","address":"静安区武定路890号(近常德路)"},{"poiid":"B2094655D26DA2F5459C","title":"又一邨(南门)","lon":"121.44605","lat":"31.22927","category":"656","category_name":"大门","address":"新闸路1644弄1-7号"},{"poiid":"B2094655D26DA6F8449A","title":"武定坊(北门)","lon":"121.44903","lat":"31.23431","category":"656","category_name":"大门","address":""}]