[{"poiid":"B2094750D664A4FA419A","title":"耳光馄饨","lon":"121.481","lat":"31.216","category":"68","category_name":"快餐厅","address":"黄浦区肇周路209-213号(近合肥路)"},{"poiid":"B2094757D06FA3F5499C","title":"红房子妇产科医院产科楼","lon":"121.48381805","lat":"31.212343215","category":"162","category_name":"医院","address":"上海市黄浦区大林路358号"},{"poiid":"B2094757D068A2FB4692","title":"辣肉丝面馆","lon":"121.482194054","lat":"31.216874793","category":"68","category_name":"快餐厅","address":"黄浦区肇周路106号(近吉安路)"},{"poiid":"B2094753D76FAAFA449C","title":"上海滩国泰旗舰店","lon":"121.466011","lat":"31.216125","category":"249","category_name":"购物服务","address":"淮海中路868号"},{"poiid":"B209475CD564A7F84292","title":"上海滩新天地店","lon":"121.47463","lat":"31.22164","category":"119","category_name":"商场","address":"\"太仓路181弄新天地北里15号\r\n\""},{"poiid":"B209475CD564A7F8439E","title":"上海滩中信泰富店","lon":"121.45602","lat":"31.22851","category":"119","category_name":"商场","address":"\"南京西路1168号中信泰富广场，店铺号221.\r\n\""},{"poiid":"B209475CD564A7F84392","title":"上海滩浦东香格里拉店","lon":"121.50058","lat":"31.23634","category":"119","category_name":"商场","address":"浦东富成路33号香格里拉酒店内大堂层"},{"poiid":"B2094757D06FA0F84699","title":"红房子妇产科医院","lon":"121.48329615","lat":"31.214054702","category":"162","category_name":"医院","address":"上海黄浦区方斜路419号"},{"poiid":"B2094757D66FA7FA4499","title":"阿婆粢饭糕","lon":"121.482015738","lat":"31.2140172676","category":"247","category_name":"餐饮美食","address":"上海市卢湾区肇周路近合肥路"},{"poiid":"B2094757D06FA3FF479D","title":"长脚汤面","lon":"121.480717","lat":"31.216623","category":"68","category_name":"快餐厅","address":"卢湾区肇周路166弄弄堂里(近济南路)"},{"poiid":"B2094654DB65A3F84599","title":"上海市红房子妇产科医院门诊部","lon":"121.48278","lat":"31.21204","category":"162","category_name":"医院","address":"方斜路566号"},{"poiid":"B2094757D16CA7F84792","title":"肇周路","lon":"121.480401738","lat":"31.2139469532","category":"500","category_name":"未知分类","address":"上海市卢湾区"},{"poiid":"B2094654DA6EA7F84999","title":"易买得(老西门店)","lon":"121.48337","lat":"31.21698","category":"118","category_name":"超级市场","address":"黄浦区西藏南路666号(西藏南路肇周路)"},{"poiid":"B2094757D06FA1FF4392","title":"麟笼坊特色小笼包(建国东路店)","lon":"121.48073","lat":"31.21366","category":"68","category_name":"快餐厅","address":"卢湾区建国东路10号(近肇周路口)"},{"poiid":"B2094757D16CA5FC459F","title":"肇州路馄饨","lon":"121.48104573","lat":"31.215022976","category":"500","category_name":"未知分类","address":"上海肇州路合肥路"},{"poiid":"B2094750D365A5FE4698","title":"阿婆豆浆油条","lon":"121.482063","lat":"31.214328","category":"247","category_name":"餐饮美食","address":"卢湾区肇周路309号(建国新路口)"},{"poiid":"B2094757D06AA2FB459F","title":"十号线老西门站","lon":"121.481291738","lat":"31.2153389828","category":"500","category_name":"未知分类","address":"上海老西门"},{"poiid":"B2094757D06FAAF4419B","title":"沪南体育活动中心","lon":"121.48268","lat":"31.21256","category":"220","category_name":"运动场所","address":"黄浦区方斜路515号(近大吉路)"},{"poiid":"B2094655D26AA7FA449C","title":"黄浦轮滑馆羽毛球馆","lon":"121.48444","lat":"31.21289","category":"247","category_name":"餐饮美食","address":"黄浦区大林路235号黄浦轮滑馆4楼(近西藏南路)"},{"poiid":"B2094753D76AA7F8459F","title":"韵色","lon":"121.482657","lat":"31.213799","category":"76","category_name":"上海菜","address":"上海市黄浦区方斜路446号(近建国新路)"},{"poiid":"B2094757D068A1FA479D","title":"跃民大酒店 西藏南路店","lon":"121.48464","lat":"31.21509","category":"76","category_name":"上海菜","address":"黄浦区西藏南路770号(近陆家浜路)"},{"poiid":"B2094757D069A3F8429B","title":"老西门新苑","lon":"121.483051","lat":"31.216619","category":"47","category_name":"住宅区","address":"上海市黄浦区西藏南路688弄会所内"},{"poiid":"B2094654DB64A5F5439E","title":"如家快捷酒店(上海陆家浜路店)","lon":"121.48309","lat":"31.21245","category":"216","category_name":"经济型连锁酒店","address":"上海市黄浦区大林路265号(近方斜路红房子医院)"},{"poiid":"B2094654DB64A5FD409B","title":"斯巴顿健身会所(老西门店)","lon":"121.48316","lat":"31.21657","category":"221","category_name":"健身中心","address":"黄浦区西藏南路688弄15号(近复兴中路)"},{"poiid":"B2094654DA6EA7F5489C","title":"复旦大学上海市红房子妇产科医院","lon":"121.48274","lat":"31.21366","category":"162","category_name":"医院","address":"方斜路419"},{"poiid":"B2094757D069A1F54192","title":"安基大厦","lon":"121.48481881","lat":"31.214868763","category":"46","category_name":"楼宇","address":"朝阳区天辰东路7号"},{"poiid":"B2094750D768A0F5439D","title":"老刘烧烤","lon":"121.482","lat":"31.2135","category":"68","category_name":"快餐厅","address":"黄浦区大吉路华联超市门口(方斜路口)"},{"poiid":"B2094655D36CA0F9489F","title":"建国新路方斜路","lon":"121.4831","lat":"31.21472","category":"38","category_name":"公交车站","address":""},{"poiid":"B2094654DA6EA7F44398","title":"上海市红房子妇产科医院","lon":"121.48354","lat":"31.21214","category":"162","category_name":"医院","address":"大林路358"},{"poiid":"B2094757DB6DA4FD4392","title":"上海青瓷主题酒店","lon":"121.481594145","lat":"31.216474009","category":"216","category_name":"经济型连锁酒店","address":"黄浦区肇周路153号(近唐家湾路)"},{"poiid":"B2094757D069A1FB499D","title":"万有全海鲜大酒店","lon":"121.482403054","lat":"31.212869793","category":"76","category_name":"上海菜","address":"黄浦区方斜路515号(近大吉路)"},{"poiid":"B2094757D66DAAFF499F","title":"冷馄饨","lon":"121.48063773","lat":"31.215786992","category":"247","category_name":"餐饮美食","address":"上海肇周路"},{"poiid":"B2094750D76EA3F54698","title":"阿鑫面馆","lon":"121.481","lat":"31.2154","category":"68","category_name":"快餐厅","address":"黄浦区肇周路231-237号(近建国中路)"},{"poiid":"B2094654DA6EA7F8499C","title":"惠达大厦","lon":"121.4840164","lat":"31.21635627","category":"46","category_name":"楼宇","address":"惠达大厦位于卢湾西藏南路748号"},{"poiid":"B2094655D264A6FB489A","title":"宽道","lon":"121.48329","lat":"31.21405","category":"247","category_name":"餐饮美食","address":"黄浦区方斜路419号(方斜路复兴东路)"},{"poiid":"B2094654DB64A4FC4593","title":"南鼎建国大厦(后门)","lon":"121.4815","lat":"31.21387","category":"47","category_name":"住宅区","address":"上海市黄浦区唐家湾路158号"},{"poiid":"B2094655D26AA3FF429A","title":"沪南体育馆篮球场","lon":"121.48317","lat":"31.21317","category":"247","category_name":"餐饮美食","address":"黄浦区方斜路505号沪南体育馆内(大吉路方斜路)"},{"poiid":"B2094750D664ABF5419E","title":"肇周路大排档","lon":"121.481","lat":"31.2154","category":"76","category_name":"上海菜","address":"黄浦区肇周路237号"},{"poiid":"B2094757D16BA2F9429A","title":"唐家湾路","lon":"121.48174073","lat":"31.21475597","category":"500","category_name":"未知分类","address":"上海唐家湾路"},{"poiid":"B2094750DA6EA1F5469D","title":"哈尼甜品","lon":"121.482162","lat":"31.213146","category":"67","category_name":"甜品店","address":"黄浦区大吉路283号(近方斜路)"},{"poiid":"B2094757D469A7FA4098","title":"重庆鸡公煲 肇周路店","lon":"121.48189","lat":"31.21687","category":"71","category_name":"四川菜","address":"黄浦区肇周路108号(近西藏南路)"},{"poiid":"B2094654DA6EA7F5489D","title":"上海市红十字妇产科医院","lon":"121.48329","lat":"31.21405","category":"162","category_name":"医院","address":"方斜路419号"},{"poiid":"B2094654DA6EA7F8439C","title":"肇周小吃","lon":"121.48168","lat":"31.21676","category":"68","category_name":"快餐厅","address":"黄浦区肇周路吉安路口"},{"poiid":"B2094654DA6EA7F94093","title":"老西门新苑(3号门)","lon":"121.48365","lat":"31.21578","category":"47","category_name":"住宅区","address":"老西门"},{"poiid":"B2094757D66BA5F4489E","title":"亦熠餐厅","lon":"121.481064054","lat":"31.213391793","category":"76","category_name":"上海菜","address":"黄浦区肇周路340号(近建国中路)"},{"poiid":"B2094655D26EA0F5459F","title":"大吉小区","lon":"121.48407","lat":"31.21443","category":"47","category_name":"住宅区","address":"大吉路173弄13-30号"},{"poiid":"B209475CD36EA4F5469C","title":"老绍兴豆浆店","lon":"121.481126","lat":"31.214292","category":"68","category_name":"快餐厅","address":"肇周路309号(建国新路口)"},{"poiid":"B2094655D268A3FB469D","title":"启仁坊","lon":"121.48135","lat":"31.21485","category":"47","category_name":"住宅区","address":"肇周路281弄1-21号"},{"poiid":"B2094757D06AA4FB4998","title":"健维医疗","lon":"121.484773878","lat":"31.2146867747","category":"162","category_name":"医院","address":"黄浦区西藏南路770号安基大厦群房5楼(近建国新路)"},{"poiid":"B2094757D16AA6FA499F","title":"阿能面馆","lon":"121.48228308","lat":"31.213604945","category":"247","category_name":"餐饮美食","address":"上海厉城路108号"},{"poiid":"B2094757D16BA0FC4792","title":"王老头烧烤","lon":"121.48288","lat":"31.21309","category":"247","category_name":"餐饮美食","address":"黄浦区大吉路525号(方斜路口)"},{"poiid":"B2094654DA6EA7FA479B","title":"建国电影院","lon":"121.48078","lat":"31.21367","category":"178","category_name":"电影院","address":"建国东路11"},{"poiid":"B2094654DA6EA7F4469B","title":"明华大厦太古豪庭","lon":"121.4833","lat":"31.21255","category":"46","category_name":"楼宇","address":"方斜路525弄"},{"poiid":"B209475DD66DA1FC429F","title":"吉友粥底火锅","lon":"121.480743","lat":"31.213748","category":"247","category_name":"餐饮美食","address":"上海市 上海市建国东路23号(近肇周路)"},{"poiid":"B2094655D36CA1F44299","title":"老西门肇周路","lon":"121.48394","lat":"31.2149","category":"38","category_name":"公交车站","address":""},{"poiid":"B2094757D064A7FB459D","title":"市南邮政局","lon":"121.481491738","lat":"31.2146399679","category":"500","category_name":"未知分类","address":"上海西藏南路827号近大吉路"},{"poiid":"B2094655D36DA7FE449B","title":"肇周路老西门","lon":"121.48302","lat":"31.21724","category":"38","category_name":"公交车站","address":""},{"poiid":"B2094655D268A0F94398","title":"面包新语(西藏南路)","lon":"121.48355","lat":"31.21705","category":"112","category_name":"糕饼店","address":"黄浦区西藏南路666号易买得1楼(近肇周路)"},{"poiid":"B2094752D36BA7F5409B","title":"上海老面馆","lon":"121.48399","lat":"31.21451","category":"68","category_name":"快餐厅","address":"卢湾区合肥路93号"},{"poiid":"B2094654DA6EA7F9449D","title":"实惠家常菜","lon":"121.48082","lat":"31.21592","category":"68","category_name":"快餐厅","address":"卢湾区肇周路207号"},{"poiid":"B2094654DB6BA4FF4693","title":"伟成里小区(东门)","lon":"121.48072","lat":"31.21506","category":"47","category_name":"住宅区","address":"肇周路224弄1-63号"},{"poiid":"B2094757D06BA3FB489C","title":"西安科技大学十四号公寓楼","lon":"121.481542638","lat":"31.2150313763","category":"500","category_name":"未知分类","address":"西安科技大学十五号公寓楼旁"},{"poiid":"B2094757D66DA6FA4993","title":"JK新日式造型","lon":"121.481420538","lat":"31.2146036671","category":"500","category_name":"未知分类","address":"黄浦区肇周路213号(近西藏南路)"},{"poiid":"B2094654DA6EA7F4439F","title":"苏州藏书羊肉馆(方斜路)","lon":"121.48436","lat":"31.21596","category":"87","category_name":"特色／地方风味餐厅","address":"黄浦区方斜路16号(近复兴中路)"},{"poiid":"B2094654DB6AA6FE469D","title":"中国电信(车墩营业厅)","lon":"121.48104","lat":"31.2138","category":"151","category_name":"电讯营业厅","address":"松江区金三角集资房114房(近马路)"},{"poiid":"B2094654DA6EA7F8499E","title":"永乐生活电器老西门二店","lon":"121.48336","lat":"31.21698","category":"138","category_name":"家电电子卖场","address":"上海市黄浦区西藏南路666号"},{"poiid":"B2094757D16BA7F94993","title":"港麗餐廳長寧龍之夢店","lon":"121.480421738","lat":"31.2144219633","category":"500","category_name":"未知分类","address":"上海市長寧路1018號"},{"poiid":"B2094655D268A3FB469F","title":"大康里小区(东门)","lon":"121.48084","lat":"31.21429","category":"47","category_name":"住宅区","address":"肇周路298弄1-2号"},{"poiid":"B2094654DA6EA7F5499D","title":"安基大厦实华公寓","lon":"121.48434","lat":"31.214525","category":"47","category_name":"住宅区","address":"建国新路1号"},{"poiid":"B2094750D768A0F4439D","title":"川香阁鱼庄","lon":"121.481","lat":"31.2131","category":"71","category_name":"四川菜","address":"卢湾区肇周路348号(建国东路建国新路)"},{"poiid":"B2094757D065A3FA419E","title":"黄浦学校","lon":"121.48299705","lat":"31.212104623","category":"253","category_name":"校园生活","address":"黄浦区大吉路208号(近西藏南路)"},{"poiid":"B2094751D46AA7FD4293","title":"上海国际会议中心","lon":"121.481476","lat":"31.21579","category":"500","category_name":"未知分类","address":null},{"poiid":"B2094654DA6EA7F44192","title":"品客小站","lon":"121.4816","lat":"31.21273","category":"68","category_name":"快餐厅","address":"黄浦区肇周路395号(近徐家汇路)"},{"poiid":"B2094654DA6EA7F5499F","title":"大吉小区(后门)","lon":"121.48401","lat":"31.21473","category":"47","category_name":"住宅区","address":"大吉路173弄13-30号"},{"poiid":"B2094757D66DA1FD449F","title":"剪约","lon":"121.481669738","lat":"31.2155769879","category":"500","category_name":"未知分类","address":"上海东台路274号"},{"poiid":"B2094757D66BA4FC439B","title":"集宾酒楼","lon":"121.48026588107","lat":"31.213340264741","category":"76","category_name":"上海菜","address":"卢湾区建国东路23号(近顺昌路)"},{"poiid":"B2094757D66CAAFD4792","title":"家宅","lon":"121.48166873","lat":"31.215520786","category":"500","category_name":"未知分类","address":null},{"poiid":"B2094655D26FA3FD499F","title":"玫林夫妻肺片","lon":"121.48195","lat":"31.21306","category":"247","category_name":"餐饮美食","address":"大吉路308"},{"poiid":"B2094753D264A4F9469C","title":"翔鹰龙虾店","lon":"121.484521","lat":"31.215283","category":"247","category_name":"餐饮美食","address":"上海市 大兴街3号"},{"poiid":"B2094654DA6EA7F9459B","title":"Hong yun造型","lon":"121.48086","lat":"31.21551","category":"148","category_name":"美容美发店","address":"肇周路233"},{"poiid":"B2094654DA6EA7F94198","title":"桥苑公寓","lon":"121.48429","lat":"31.215481","category":"47","category_name":"住宅区","address":"西藏南路750号"},{"poiid":"B2094654DA6EA7F9419F","title":"老西门新苑(2号门)","lon":"121.48348","lat":"31.21618","category":"47","category_name":"住宅区","address":"西藏南路688弄1-18号"},{"poiid":"B2094654DA6EA7F5499E","title":"老西门邮政储蓄","lon":"121.48382","lat":"31.2147","category":"150","category_name":"银行","address":"建国新路25临"},{"poiid":"B2094752DA6AA3FD479D","title":"喜马拉雅中心","lon":"121.483935","lat":"31.213518","category":"500","category_name":"未知分类","address":"上海市 上海浦东芳甸路1188弄"},{"poiid":"B2094757D16BA6F84198","title":"肇周路合肥路夜拍档","lon":"121.480807738","lat":"31.2153789837","category":"500","category_name":"未知分类","address":"上海市肇周路合肥路"},{"poiid":"B2094654DA6EA7F9439E","title":"金汇商厦","lon":"121.4814","lat":"31.21635","category":"46","category_name":"楼宇","address":"肇周路"},{"poiid":"B2094655D26FA3FA4192","title":"思域射箭桌球馆","lon":"121.4844","lat":"31.21522","category":"171","category_name":"台球厅","address":"黄浦区西藏南路758号5楼"},{"poiid":"B2094655D26FAAF44292","title":"建新公寓(北门)","lon":"121.48393","lat":"31.21547","category":"47","category_name":"住宅区","address":""},{"poiid":"B2094752D369A2F4419B","title":"耳光餛飩","lon":"121.480766","lat":"31.215926","category":"247","category_name":"餐饮美食","address":"肇周路209-213号(近合肥路)"},{"poiid":"B2094655D26AA2FD4198","title":"薡茶 方斜路店","lon":"121.48443","lat":"31.21597","category":"113","category_name":"冷饮店","address":"黄浦区方斜路10号(近老西门地铁站)"},{"poiid":"B2094654DB65A1FB4199","title":"沈大成小吃世界","lon":"121.4803","lat":"31.21609","category":"112","category_name":"糕饼店","address":""},{"poiid":"B2094654DB65A1FB449C","title":"75B会所","lon":"121.48444","lat":"31.21541","category":"170","category_name":"KTV","address":""},{"poiid":"B2094750D668A3FF4793","title":"克来小夫咖啡店","lon":"121.484046","lat":"31.214355","category":"260","category_name":"其他","address":"黄浦区方斜路432号(近建国新路)"},{"poiid":"B2094757D664A5F54893","title":"大吉路王记烧烤","lon":"121.48446","lat":"31.21413","category":"269","category_name":"烧烤","address":"大吉路480号近西藏南路近红房子医院"},{"poiid":"B2094655D36CA0F9499F","title":"建国东路肇周路","lon":"121.48026","lat":"31.21362","category":"38","category_name":"公交车站","address":""},{"poiid":"B2094752DB6FA1FE409A","title":"新天地","lon":"121.482559","lat":"31.212128","category":"500","category_name":"未知分类","address":"上海市 复兴中路"},{"poiid":"B2094655D36DA1F54693","title":"斜桥(制造局路陆家浜路)","lon":"121.4815","lat":"31.21258","category":"38","category_name":"公交车站","address":""},{"poiid":"B2094654DB65A4FD479B","title":"光明便利","lon":"121.48116","lat":"31.21628","category":"117","category_name":"便民商店/便利店","address":"黄浦区温州路8号(北京西路温州路)"},{"poiid":"B2094654DB6BA4FF479E","title":"大康里小区(建国东路)","lon":"121.4804","lat":"31.21375","category":"47","category_name":"住宅区","address":"建国东路36弄1-101号"},{"poiid":"B2094654DA6EA7F54792","title":"实华公寓","lon":"121.48435","lat":"31.21453","category":"47","category_name":"住宅区","address":"大吉路135弄1-4号"},{"poiid":"B2094655D26AA2FC4292","title":"Wingsworld飞机模型专卖店","lon":"121.48435","lat":"31.21547","category":"247","category_name":"餐饮美食","address":"黄浦区西藏南路750号28楼E室(方斜路口)"},{"poiid":"B2094757D068A3FC479B","title":"斜桥","lon":"121.482611","lat":"31.21348","category":"500","category_name":"未知分类","address":"上海斜桥"},{"poiid":"B2094654DA6EA6FC459C","title":"好德便利No.509","lon":"121.4843","lat":"31.21569","category":"117","category_name":"便民商店/便利店","address":"西藏南路750"},{"poiid":"B2094757D66EA5FC499A","title":"易卖得","lon":"121.483305738","lat":"31.2162290018","category":"249","category_name":"购物服务","address":"上海市卢湾区济南路"},{"poiid":"B2094655D36DA1FB4298","title":"西藏南路老西门","lon":"121.48416","lat":"31.21673","category":"38","category_name":"公交车站","address":""},{"poiid":"B2094655D26CA4F9419C","title":"伟成里小区(肇周路)","lon":"121.48059","lat":"31.21571","category":"47","category_name":"住宅区","address":"肇周路200弄1-209号"},{"poiid":"B2094655D26BA6F44399","title":"潘记点心店","lon":"121.48046","lat":"31.21634","category":"68","category_name":"快餐厅","address":"卢湾区合肥路2号(近肇周路)"},{"poiid":"B2094757D068A7F84092","title":"广东小厨粤菜馆","lon":"121.48101692673","lat":"31.212828028012","category":"72","category_name":"广东菜","address":"黄浦区肇周路368号(近徐家汇路)"},{"poiid":"B2094654DB64AAFB4293","title":"大香港酒楼","lon":"121.48316","lat":"31.21314","category":"250","category_name":"公园户外","address":"方斜路515号上海沪南体育活动中心2-4层"},{"poiid":"B2094655D36CA0FB459D","title":"吉安路","lon":"121.48228","lat":"31.21687","category":"38","category_name":"公交车站","address":""},{"poiid":"B2094655D268A2F94493","title":"怡怡庐(东门)","lon":"121.48258","lat":"31.21286","category":"47","category_name":"住宅区","address":"方斜路524弄1-2号"},{"poiid":"B2094655D26CA4F5429D","title":"实华公寓(南门)","lon":"121.48464","lat":"31.21438","category":"47","category_name":"住宅区","address":"大吉路135弄1-4号"},{"poiid":"B2094654DA6EA6FC459B","title":"思域综合体育中心","lon":"121.48441","lat":"31.21522","category":"224","category_name":"综合体育馆","address":"西藏南路758号5层"},{"poiid":"B2094655D268A5FE409E","title":"唐家湾小区(北门)","lon":"121.48168","lat":"31.21653","category":"47","category_name":"住宅区","address":"肇周路137弄1-18号"},{"poiid":"B2094654DB6BA4FF4692","title":"老西门街道社区卫生服务中心肇周路门诊部","lon":"121.48085","lat":"31.21619","category":"162","category_name":"医院","address":"肇周路177"},{"poiid":"B2094753D66DA4F9439D","title":"宁静名猫生活馆","lon":"121.484599","lat":"31.215527","category":"500","category_name":"未知分类","address":"上海市 西藏南路765号"},{"poiid":"B2094654DA6EA7F4449F","title":"怡怡庐","lon":"121.48232","lat":"31.21278","category":"47","category_name":"住宅区","address":"方斜路524弄1-2号"},{"poiid":"B2094655D268A2FD4999","title":"启仁坊(东门)","lon":"121.48158","lat":"31.21488","category":"656","category_name":"大门","address":"唐家湾路90"},{"poiid":"B2094654DA6EA7F8439D","title":"兰州拉面(吉安路)","lon":"121.48169","lat":"31.2168","category":"257","category_name":"中餐厅","address":"黄浦区肇周路114弄1号(近易买得)"},{"poiid":"B2094655D26FA5FB4093","title":"Body &&&&&&&& Soul-the Tcm Clinic","lon":"121.4848","lat":"31.21457","category":"162","category_name":"医院","address":"西藏南路760号安基大厦1405-06"},{"poiid":"B2094655D36CA0F94992","title":"建国东路","lon":"121.48","lat":"31.21353","category":"38","category_name":"公交车站","address":"上海建国东路39弄"},{"poiid":"B2094655D268A2FD499F","title":"梨园坊(北门)","lon":"121.4804","lat":"31.21356","category":"47","category_name":"住宅区","address":"建国东路31弄1-12号"},{"poiid":"B2094655D26EA7F54498","title":"王中王","lon":"121.48318","lat":"31.21199","category":"257","category_name":"中餐厅","address":"黄浦区方斜路543号(近大林路)"},{"poiid":"B2094757D16EAAFE4498","title":"迈阿密汉堡(肇周路店)","lon":"121.4816","lat":"31.21211","category":"68","category_name":"快餐厅","address":"黄浦区肇周路400号(近永年路)"},{"poiid":"B2094753DA69AAFD419D","title":"世纪大道","lon":"121.48101","lat":"31.216312","category":"500","category_name":"未知分类","address":"上海市 浦东新区东方路2000号"},{"poiid":"B2094757D66CA6FB469A","title":"肇周路209","lon":"121.48071273","lat":"31.215772992","category":"500","category_name":"未知分类","address":"上海市卢湾区肇周路"},{"poiid":"B2094654DB6BA4FF4893","title":"快客(肇周路)","lon":"121.4813","lat":"31.2126","category":"117","category_name":"便民商店/便利店","address":"肇周路386"},{"poiid":"B2094655D268A2FE4099","title":"苏活台球","lon":"121.48441","lat":"31.21523","category":"171","category_name":"台球厅","address":""},{"poiid":"B2094655D36CA7F94798","title":"合肥路济南路","lon":"121.48006","lat":"31.21613","category":"38","category_name":"公交车站","address":""},{"poiid":"B2094654DA6EA7F4459B","title":"极真空手道训练馆","lon":"121.48316","lat":"31.21314","category":"221","category_name":"健身中心","address":"方斜路505号上海沪南体育活动中心2层"},{"poiid":"B2094654DA6EA7FF4892","title":"良友金伴(肇周路)","lon":"121.48064","lat":"31.21643","category":"117","category_name":"便民商店/便利店","address":"济南路321"},{"poiid":"B2094752D46AA2FE409B","title":"中国农业银行卢湾丽园路支行","lon":"121.483593","lat":"31.212753","category":"150","category_name":"银行","address":"上海市卢湾区丽园路857号"},{"poiid":"B2094654DB6BA4FF4699","title":"志成坊(肇周路)","lon":"121.48152","lat":"31.21684","category":"47","category_name":"住宅区","address":"肇周路126弄1-34号"},{"poiid":"B2094654DB6BA4FF489A","title":"可的(常盛酒楼西)","lon":"121.48008","lat":"31.21346","category":"117","category_name":"便民商店/便利店","address":"建国东路43-47"},{"poiid":"B2094757D66FA7FB4598","title":"伊妮德","lon":"121.482874738","lat":"31.2163130036","category":"500","category_name":"未知分类","address":"上海东台路279号国际广场A座1906号铺(近复兴中路)"},{"poiid":"B2094750D569A4F5429E","title":"御华庭 开元坊","lon":"121.484619","lat":"31.21313","category":"47","category_name":"住宅区","address":"上海市黄浦区西藏南路900弄"},{"poiid":"B2094654DA6EA7F4439B","title":"上海集爱遗传与不育诊疗中心","lon":"121.48261","lat":"31.21192","category":"162","category_name":"医院","address":"黄浦区方斜路588号(近陆家浜路)"},{"poiid":"B2094654DB6BA4FF499E","title":"复旦大学附属妇产科医院门诊部","lon":"121.4827","lat":"31.21201","category":"162","category_name":"医院","address":"方斜路566号"},{"poiid":"B2094654DA6EA6FC459E","title":"中国银行上海市西藏南路支行","lon":"121.48441","lat":"31.21554","category":"150","category_name":"银行","address":"黄浦区西藏南路758号(建国新路西藏南路)"},{"poiid":"B2094757D165A5FE489C","title":"Jackie's beernest","lon":"121.482717738","lat":"31.2169130163","category":"500","category_name":"未知分类","address":"上海Zhaozhou rd"},{"poiid":"B2094752D265A4FF459D","title":"天天摄影","lon":"121.48317","lat":"31.212616","category":"500","category_name":"未知分类","address":"大林路255弄2号楼702"},{"poiid":"B2094757D16CA2F84793","title":"布莱德先生の家","lon":"121.48367213","lat":"31.215999396","category":"500","category_name":"未知分类","address":"上海西藏南路"},{"poiid":"B2094655D268A3FB4698","title":"文盛里","lon":"121.4801","lat":"31.21577","category":"47","category_name":"住宅区","address":"合肥路29弄"},{"poiid":"B2094654DA6EA7FA4593","title":"龙妹保健品连锁店","lon":"121.47991","lat":"31.21359","category":"162","category_name":"医院","address":"建国东路56"},{"poiid":"B2094655D26DA4FA4399","title":"永理第三小区(肇周路)","lon":"121.48107","lat":"31.21263","category":"47","category_name":"住宅区","address":"肇周路384弄1号"},{"poiid":"B2094654DA6EA7F44299","title":"上海医学院妇产科学系","lon":"121.48178","lat":"31.21224","category":"52","category_name":"高等院校","address":"肇周路413"},{"poiid":"B2094655D26CA4F94193","title":"松龄里","lon":"121.47985","lat":"31.21372","category":"47","category_name":"住宅区","address":"建国东路58弄1-2号"},{"poiid":"B2094655D268A3FB469C","title":"启仁坊(西门)","lon":"121.48104","lat":"31.21483","category":"656","category_name":"大门","address":"肇周路281弄1-21号"},{"poiid":"B2094750D66EA5FA419E","title":"凯顿儿童美语","lon":"121.484649","lat":"31.215978","category":"253","category_name":"校园生活","address":"老西门分校"},{"poiid":"B2094655D264A4FA469E","title":"飞利浦永乐上海老西门二店","lon":"121.48338","lat":"31.21698","category":"138","category_name":"家电电子卖场","address":"西藏南路666号3层"},{"poiid":"B2094655D268A6F8429F","title":"富华里","lon":"121.48136","lat":"31.21699","category":"47","category_name":"住宅区","address":"吉安路328弄1-3号"},{"poiid":"B2094654DB6BA4FF4792","title":"思家公寓","lon":"121.48029","lat":"31.213007","category":"47","category_name":"住宅区","address":"建国东路37弄1-2号"},{"poiid":"B2094655D268A3FB469B","title":"文盛里(北门)","lon":"121.47998","lat":"31.21598","category":"47","category_name":"住宅区","address":"合肥路29弄"},{"poiid":"B209475DD16CA0FF4693","title":"新天地时尚购物中心","lon":"121.479713","lat":"31.214609","category":"500","category_name":"未知分类","address":"上海市 上海新天地"},{"poiid":"B2094655D268A6F8429E","title":"富华里(东门)","lon":"121.48156","lat":"31.21703","category":"47","category_name":"住宅区","address":"吉安路328弄1-3号"},{"poiid":"B2094757D16EABF84193","title":"肇州路一霸","lon":"121.481504","lat":"31.216684","category":"500","category_name":"未知分类","address":"上海盧灣區肇州路122號"},{"poiid":"B2094654DA6EA7F94092","title":"上海国泰拍卖行","lon":"121.48416","lat":"31.21601","category":"249","category_name":"购物服务","address":"西藏南路748号惠达大厦1-2层"},{"poiid":"B2094655D268A2FD499C","title":"永理第三小区南门(永年路)","lon":"121.4811","lat":"31.21235","category":"47","category_name":"住宅区","address":"永年路24弄2-10号"},{"poiid":"B2094655D26CABFC4492","title":"上海浦东发展银行东方国际大厦支行(西藏南路)","lon":"121.4849","lat":"31.21467","category":"150","category_name":"银行","address":"娄山关路85号东方国际大厦"},{"poiid":"B2094654DA6EA7F54593","title":"上海市轮滑俱乐部","lon":"121.48445","lat":"31.21289","category":"220","category_name":"运动场所","address":"黄浦区大林路235号黄浦轮滑馆南大门(近陆家浜路)"},{"poiid":"B2094751D26EA4FE459C","title":"花木路","lon":"121.4797","lat":"31.21547","category":"500","category_name":"未知分类","address":null},{"poiid":"B2094655D26FA7F4449A","title":"安基大厦实华公寓(北门)","lon":"121.48454","lat":"31.21486","category":"48","category_name":"楼宇大门","address":"建国新路1号"},{"poiid":"B2094654DA6EA6FC4199","title":"上海奥维思市场营销管理有限公司","lon":"121.4848","lat":"31.21456","category":"263","category_name":"公司","address":"西藏南路760号安基大厦1101-1104"},{"poiid":"B2094654DA6EA6FC449C","title":"tuxEr上海欣煌","lon":"121.48481","lat":"31.21457","category":"263","category_name":"公司","address":"西藏南路760号安基大厦22层"},{"poiid":"B2094757D06AA1F84893","title":"Fancy主题桌游","lon":"121.484217613","lat":"31.2161582855","category":"175","category_name":"棋牌室","address":"上海黄浦区西藏南路748号惠达大厦5F-08室"},{"poiid":"B2094654DA6EA7F54592","title":"上海市黄浦学校(南大门)","lon":"121.48445","lat":"31.21289","category":"253","category_name":"校园生活","address":"大林路235号"},{"poiid":"B2094654DA6EA7FB469D","title":"天天照相艺术婚纱摄影部(肇周路)","lon":"121.48132","lat":"31.21254","category":"248","category_name":"生活娱乐","address":"肇周路390"},{"poiid":"B2094757D165A4FA4093","title":"新黄浦公证处","lon":"121.48299773","lat":"31.212185915","category":"500","category_name":"未知分类","address":"上海市黄浦区陆家浜路1295号6楼"},{"poiid":"B2094654DA6EA7F9409D","title":"姚美然私立口腔诊所","lon":"121.484","lat":"31.21622","category":"668","category_name":"诊所","address":"黄浦区西藏南路748号710室(方斜路西藏南路)"},{"poiid":"B2094654DA6EA6FC4098","title":"沈静珍私立齿科诊所","lon":"121.4848","lat":"31.21457","category":"668","category_name":"诊所","address":"黄浦区西藏南路760号安基大厦505(建国新路西藏南路)"},{"poiid":"B2094757D068A5FE4699","title":"家(斜桥公寓)","lon":"121.4817368","lat":"31.211923","category":"500","category_name":"未知分类","address":"上海肇周路421弄2号"},{"poiid":"B2094655D26CA4F5439A","title":"明华大厦(东门)","lon":"121.48378","lat":"31.21253","category":"48","category_name":"楼宇大门","address":"大林路255"},{"poiid":"B2094757D56EA5F44198","title":"COCO","lon":"121.483371","lat":"31.2169870000002","category":"263","category_name":"公司","address":"西藏南路666"},{"poiid":"B2094655D26FA7F4489B","title":"明华大厦太古豪庭(南门)","lon":"121.48294","lat":"31.21269","category":"656","category_name":"大门","address":"方斜路525弄"},{"poiid":"B2094757D569A2F8419B","title":"天龙海温泉浴场","lon":"121.4831839","lat":"31.21206611","category":"248","category_name":"生活娱乐","address":"大林路368号"},{"poiid":"B2094655D26BA4FC419E","title":"沙县小吃(老西门新苑北)","lon":"121.48255","lat":"31.21716","category":"48","category_name":"楼宇大门","address":"东台路346"},{"poiid":"B2094655D268A4FB4598","title":"明华大厦太古豪庭(西门)","lon":"121.48302","lat":"31.21269","category":"656","category_name":"大门","address":"方斜路525弄"},{"poiid":"B2094655D268A2F94492","title":"开元坊(北门)","lon":"121.48478","lat":"31.21413","category":"656","category_name":"大门","address":""},{"poiid":"B2094757D16CABF5439E","title":"E战俱乐部","lon":"121.48472212","lat":"31.216010427","category":"260","category_name":"其他","address":"黄浦区西藏南路767号(方斜路口)"},{"poiid":"B2094655D268A3FB469A","title":"延寿里(南二门)","lon":"121.48023","lat":"31.21626","category":"656","category_name":"大门","address":"合肥路14弄1-106号"},{"poiid":"B2094752D06FA6FF449C","title":"twinsbaby  美甲屋","lon":"121.480528","lat":"31.216619","category":"627","category_name":"一般地点标志","address":"济南路311号"}]