[{"poiid":"B2094757D06FA6FE4299","title":"广粤路","lon":"121.465333","lat":"31.281548","category":"500","category_name":"未知分类","address":"上海市广粤路广中路"},{"poiid":"B2094757D06FA3F5439E","title":"慧芝湖花园","lon":"121.459801","lat":"31.281513","category":"47","category_name":"住宅区","address":"上海市闸北区平型关路"},{"poiid":"B2094655D36CA7F5409A","title":"广灵四路广粤路","lon":"121.46686","lat":"31.28637","category":"38","category_name":"公交车站","address":""},{"poiid":"B2094757D06FA1F4449D","title":"向天歌烧鹅老铺(凉城店)","lon":"121.46947","lat":"31.27982","category":"72","category_name":"广东菜","address":"上海虹口区凉城路42号(近广中路)"},{"poiid":"B2094654D56DA5FE419B","title":"上海市虹口高级中学","lon":"121.46659","lat":"31.28327","category":"55","category_name":"中学","address":"虹口区广粤路138号(近广中路)"},{"poiid":"B2094757DA6EAAFA439C","title":"今唐养生海鲜汇","lon":"121.465599299999","lat":"31.2861386","category":"260","category_name":"其他","address":"虹口区广粤路279号(广灵四路口)"},{"poiid":"B2094751D26AA5FE4398","title":"上海人民武装学院","lon":"121.468887","lat":"31.2849","category":"500","category_name":"未知分类","address":"广灵四路828号"},{"poiid":"B2094757D068A1F84192","title":"普陀山海鲜酒店(广粤店)","lon":"121.46547","lat":"31.28176","category":"76","category_name":"上海菜","address":"虹口区广粤路97-99号(近广中路)"},{"poiid":"B2094654D56DA5FD4593","title":"中虹花园","lon":"121.46911","lat":"31.285257","category":"47","category_name":"住宅区","address":"上海市虹口区凉城路215弄"},{"poiid":"B2094757D06FA0F9499F","title":"慧芝湖花园二期","lon":"121.465","lat":"31.2875","category":"47","category_name":"住宅区","address":"上海闸北平型关路1083弄(近广中路)"},{"poiid":"B2094757D06FA4FD409C","title":"水木年华花园","lon":"121.46356","lat":"31.287912","category":"47","category_name":"住宅区","address":"上海市虹口区广灵四路866号"},{"poiid":"B2094757D16CA4FF459E","title":"凯丽欣大酒店","lon":"121.463749103","lat":"31.2866927624","category":"247","category_name":"餐饮美食","address":"虹口区广粤路279号(近广灵四路)"},{"poiid":"B2094757D06AA1FF4399","title":"万峰梦湖苑","lon":"121.46288","lat":"31.282618","category":"47","category_name":"住宅区","address":"上海广灵四路881弄"},{"poiid":"B2094757D06AA1F4499D","title":"云峰大众4s店","lon":"121.4654369","lat":"31.285210031","category":"500","category_name":"未知分类","address":"上海广粤路"},{"poiid":"B2094654D56CA3FD4299","title":"上海市大宁国际小学","lon":"121.46085","lat":"31.28373","category":"56","category_name":"小学","address":"闸北区北宝兴路900号(北宝兴路彭江路)"},{"poiid":"B2094654D56DA5F4469D","title":"珊瑚苑","lon":"121.46266","lat":"31.279222","category":"47","category_name":"住宅区","address":"广中路680弄1-28号"},{"poiid":"B2094655D36CA7F4479C","title":"广中路广粤路","lon":"121.4664","lat":"31.28015","category":"38","category_name":"公交车站","address":""},{"poiid":"B2094757D06AA3F84393","title":"中虹花园丽都苑","lon":"121.46764","lat":"31.28512","category":"47","category_name":"住宅区","address":"上海市虹口区凉城路489号(近广灵四路)"},{"poiid":"B2094655D265A3FB4192","title":"同茂兴面菜馆","lon":"121.46502","lat":"31.28217","category":"68","category_name":"快餐厅","address":"虹口区广粤路51号A18(近广中路)"},{"poiid":"B2094757D66BA2F54199","title":"满庭芳","lon":"121.46620166347","lat":"31.284886218488","category":"77","category_name":"湖南菜","address":"虹口区广粤路199号(近广灵四路)"},{"poiid":"B2094655D265A7FA4892","title":"上海第五季","lon":"121.4653","lat":"31.28294","category":"47","category_name":"住宅区","address":"上海第五季位于虹口广粤路108号"},{"poiid":"B2094654D56DA5F4479C","title":"欣武大厦","lon":"121.466377","lat":"31.284776","category":"46","category_name":"楼宇","address":"上海市虹口区广中路694号"},{"poiid":"B2094655D265ABFF4093","title":"昌国商务楼","lon":"121.46334","lat":"31.2826","category":"46","category_name":"楼宇","address":"广粤路95-4临"},{"poiid":"B2094757D06FABFA4193","title":"新新潘晓婷撞球俱乐部凉城店","lon":"121.46922457","lat":"31.281813567","category":"171","category_name":"台球厅","address":"虹口区凉城路151号3楼(近广中路)"},{"poiid":"B2094654D56DA5FE4198","title":"上海市虹口高级中学(西门)","lon":"121.46584","lat":"31.28333","category":"678","category_name":"学校大门","address":"广粤路138"},{"poiid":"B2094750D76FA7FB4299","title":"绿廷苑酒店","lon":"121.465","lat":"31.2793","category":"76","category_name":"上海菜","address":"虹口区株洲路357号(近广中路)"},{"poiid":"B2094750D26FA5FF499A","title":"上海市第六人民医院","lon":"121.465888","lat":"31.283666","category":"162","category_name":"医院","address":null},{"poiid":"B2094654D56DA5FC469C","title":"环城公寓","lon":"121.46604","lat":"31.281115","category":"47","category_name":"住宅区","address":"广中路581弄1-17号"},{"poiid":"B2094654D56DA5FD4998","title":"中虹花园翡翠园","lon":"121.46818","lat":"31.28527","category":"47","category_name":"住宅区","address":"广灵四路561弄"},{"poiid":"B2094751DA69A2F44693","title":"维也纳国际酒店（虹口店）","lon":"121.465363","lat":"31.286011","category":"251","category_name":"出行住宿","address":"广粤路279号"},{"poiid":"B2094757D16EA0FE4592","title":"彭江医院","lon":"121.461797103","lat":"31.284377714","category":"162","category_name":"医院","address":"上海市闸北区彭江路51号"},{"poiid":"B2094757D66CAAFF469D","title":"伊晨餐厅","lon":"121.46723","lat":"31.28","category":"76","category_name":"上海菜","address":"虹口区广中路551号(近广粤路)"},{"poiid":"B2094655D26FA1F44499","title":"广粤路53弄小区(东门)","lon":"121.46496","lat":"31.28155","category":"47","category_name":"住宅区","address":"广粤路53弄1-43号"},{"poiid":"B2094757D169A3FD4993","title":"虹韵花园","lon":"121.4663141","lat":"31.283404693","category":"47","category_name":"住宅区","address":"上海市虹口区广粤路"},{"poiid":"B2094757D165A1FE469A","title":"518凉城路","lon":"121.4667201","lat":"31.284107708","category":"38","category_name":"公交车站","address":"上海凉城路广灵四路"},{"poiid":"B2094757D06AA6FC429F","title":"中虹花园—锦绣文华","lon":"121.468967846","lat":"31.2816135934","category":"500","category_name":"未知分类","address":"上海凉城路139弄"},{"poiid":"B2094655D26FA5F94899","title":"上海新侨酒店凉城店(东门)","lon":"121.46909","lat":"31.28038","category":"250","category_name":"公园户外","address":"凉城路61号"},{"poiid":"B2094654D56DA5FC499D","title":"久业家苑","lon":"121.46809","lat":"31.280691","category":"47","category_name":"住宅区","address":"广中路525弄1-32号"},{"poiid":"B2094757D065AAFC499D","title":"虹口宜家-海叶新苑","lon":"121.463729","lat":"31.281259","category":"500","category_name":"未知分类","address":"上海广中路633弄"},{"poiid":"B2094654D56CA3F84592","title":"上工新邨","lon":"121.462","lat":"31.2819","category":"47","category_name":"住宅区","address":"共和新路1895弄"},{"poiid":"B2094757D66CA0FC409A","title":"东北大菜馆(旺秀餐饮)","lon":"121.46347","lat":"31.27503","category":"82","category_name":"东北菜","address":"闸北区延长路2号(近上海大学)"},{"poiid":"B2094757D165A0FE419A","title":"呷哺呷哺(第二百家门店)","lon":"121.466893503","lat":"31.2843911142","category":"247","category_name":"餐饮美食","address":"上海多伦路四川北路"},{"poiid":"B2094751DA68A1FD4599","title":"宝山万达广场","lon":"121.4681989","lat":"31.2853212","category":"249","category_name":"购物服务","address":"一二八纪念路"},{"poiid":"B2094654D56DA5FF4192","title":"指压按摩足浴","lon":"121.4653","lat":"31.28408","category":"149","category_name":"洗浴推拿场所","address":"广粤路169号"},{"poiid":"B2094655D26DAAFB4293","title":"良友(广灵四路)","lon":"121.4634","lat":"31.2854","category":"117","category_name":"便民商店/便利店","address":"广灵四路828号2单元"},{"poiid":"B2094655D26BA4FE4592","title":"花鸟市场","lon":"121.46319","lat":"31.28122","category":"117","category_name":"便民商店/便利店","address":""},{"poiid":"B2094654D56DA5FC4698","title":"可的(广中路)","lon":"121.46574","lat":"31.28041","category":"117","category_name":"便民商店/便利店","address":"虹口区广中路589号(近广粤路)"},{"poiid":"B2094757D168A1FD4093","title":"梦湖苑","lon":"121.4618361","lat":"31.283070686","category":"500","category_name":"未知分类","address":"上海市广灵四路881弄广粤路口"},{"poiid":"B2094655D36CA5F5459D","title":"北宝兴路","lon":"121.46257","lat":"31.27997","category":"38","category_name":"公交车站","address":""},{"poiid":"B2094750D76BA0FE449C","title":"华山医院","lon":"121.466186","lat":"31.280603","category":"162","category_name":"医院","address":null},{"poiid":"B2094655D36CA1FA439E","title":"凉城路广灵二路","lon":"121.46949","lat":"31.28183","category":"38","category_name":"公交车站","address":""},{"poiid":"B2094654DB6BA3FF449D","title":"中虹花园·虹韵家园(西门)","lon":"121.46577","lat":"31.28358","category":"48","category_name":"楼宇大门","address":"广粤路150弄1-23号"},{"poiid":"B2094655D36CA5F5459C","title":"北宝兴路广中路","lon":"121.46127","lat":"31.28164","category":"38","category_name":"公交车站","address":""},{"poiid":"B2094655D26EA3FB449C","title":"小辣椒麻辣烫","lon":"121.47016","lat":"31.28445","category":"68","category_name":"快餐厅","address":"虹口区凉城路266号(近广灵二路)"},{"poiid":"B2094757D66FA6FF469C","title":"新同心路广中路","lon":"121.467005403","lat":"31.280026023","category":"500","category_name":"未知分类","address":"上海767新同心路广中路"},{"poiid":"B2094757D66DA3F5469B","title":"垚森商务楼","lon":"121.462724683","lat":"31.2834194439","category":"252","category_name":"楼宇机构","address":"上海广粤路95号10栋"},{"poiid":"B2094654DB6BA3FF4798","title":"恒源大楼","lon":"121.46326367537","lat":"31.28600737924","category":"47","category_name":"住宅区","address":"上海广中路696号"},{"poiid":"B2094654D56DA5F44498","title":"他佳她造型","lon":"121.46669","lat":"31.27979","category":"148","category_name":"美容美发店","address":"虹口区广中路576号(近广粤路)"},{"poiid":"B2094757D06AA4FD4098","title":"大宁国际小学羽毛球馆","lon":"121.46189","lat":"31.2806","category":"253","category_name":"校园生活","address":"上海闸北区北宝兴路900号(近广中路)"},{"poiid":"B2094655D36CA7F44799","title":"广中路新同心路","lon":"121.46658","lat":"31.28009","category":"38","category_name":"公交车站","address":""},{"poiid":"B2094654D56DA5FC469D","title":"环城公寓(南门)","lon":"121.46593","lat":"31.28042","category":"47","category_name":"住宅区","address":"广中路581弄1-17号"},{"poiid":"B2094757D16EAAFC409D","title":"全家便利(马戏城店)","lon":"121.4617101","lat":"31.281945663","category":"249","category_name":"购物服务","address":"上海市闸北区广中路共和新路"},{"poiid":"B2094654D56DA5F44592","title":"永巍公寓","lon":"121.46414","lat":"31.279554","category":"47","category_name":"住宅区","address":"上海市虹口区广中路672号"},{"poiid":"B2094654D56DA5FC4892","title":"广中小区","lon":"121.46733","lat":"31.28098","category":"47","category_name":"住宅区","address":"广中路547弄-561弄"},{"poiid":"B2094750DB68A3FF469A","title":"上海人民武装学校","lon":"121.468582","lat":"31.284814","category":"253","category_name":"校园生活","address":"虹口区广粤路281号"},{"poiid":"B2094655D26FA5F9499F","title":"上海云峰虹口汽车销售服务有限公司","lon":"121.46532","lat":"31.28522","category":"159","category_name":"汽车维修","address":"虹口区广粤路231号(近广灵四路)"},{"poiid":"B2094750DA6DA7FF439A","title":"人民武装学校","lon":"121.464294","lat":"31.285783","category":"253","category_name":"校园生活","address":null},{"poiid":"B2094654DB6AA7F5499B","title":"邮政储蓄凉城支所","lon":"121.46527","lat":"31.28508","category":"150","category_name":"银行","address":"虹口区广粤路213号-215号"},{"poiid":"B2094757D165A2FA4793","title":"7天连锁酒店(虹口体育场店)","lon":"121.469225103","lat":"31.2829325837","category":"217","category_name":"旅馆招待所","address":"虹口区凉城路61号(近广中路口)"},{"poiid":"B2094757D568A1FC4892","title":"平易近水虹口珊瑚苑","lon":"121.4626611","lat":"31.27922611","category":"47","category_name":"住宅区","address":"上海市浦东新区居家桥路688弄"},{"poiid":"B2094757D069A3FF449D","title":"上海大学G3宿舍","lon":"121.4632488","lat":"31.279812318","category":"47","category_name":"住宅区","address":"上海广中路805号"},{"poiid":"B2094757D165A3FA419B","title":"上海市虹口区广粤副食品市场","lon":"121.466286203","lat":"31.2850137273","category":"500","category_name":"未知分类","address":"上海虹口区广粤路广灵四路路口"},{"poiid":"B2094757D66EA1FE4793","title":"招商银行(凉城路自助银行)","lon":"121.467008173","lat":"31.2837824815","category":"150","category_name":"银行","address":"上海凉城路289号"},{"poiid":"B2094757D168A0FF4198","title":"海味阁","lon":"121.4643","lat":"31.28515","category":"260","category_name":"其他","address":"虹口区广灵四路805号(广粤路口)"},{"poiid":"B2094654D56DA5F9479D","title":"建明花苑","lon":"121.46442","lat":"31.27908","category":"47","category_name":"住宅区","address":"建明花苑位于虹口广中路666号"},{"poiid":"B2094654D56DA5F4469C","title":"永琪美容美发(广中路)","lon":"121.46308","lat":"31.27966","category":"148","category_name":"美容美发店","address":"广中路642"},{"poiid":"B2094654D56DA5F44892","title":"平型关路615弄小区","lon":"121.468","lat":"31.2807","category":"47","category_name":"住宅区","address":"平型关路615弄"},{"poiid":"B2094757D66DA0F44192","title":"Mothercare","lon":"121.468609103","lat":"31.2825306753","category":"500","category_name":"未知分类","address":"上海虹口龙之梦店"},{"poiid":"B2094654D56DA5FC4493","title":"鑫艺琴行虹口加盟店","lon":"121.46353","lat":"31.28034","category":"255","category_name":"专卖店","address":"广中路635"},{"poiid":"B2094654D56DA5F4449E","title":"克丽缇娜No.08025","lon":"121.46657","lat":"31.2798","category":"148","category_name":"美容美发店","address":"虹口区广中路580号"},{"poiid":"B2094655D26CA0F84698","title":"喜士多广粤门市","lon":"121.46675","lat":"31.27979","category":"117","category_name":"便民商店/便利店","address":"广中路574"},{"poiid":"B2094753D26CABF44992","title":"宝华城市花园","lon":"121.46569","lat":"31.278719","category":"47","category_name":"住宅区","address":"上海市 虹口区株洲路399弄"},{"poiid":"B2094654D56DA5F4479E","title":"今生有缘美容美体旗舰店","lon":"121.46205","lat":"31.27951","category":"148","category_name":"美容美发店","address":"广中路680弄6-7号"},{"poiid":"B2094757D468A3FC4498","title":"凡仔汉堡 凉城路店","lon":"121.469919054","lat":"31.281596793","category":"68","category_name":"快餐厅","address":"虹口区凉城路82号(近新侨饭店)"},{"poiid":"B2094757D16AABFE409C","title":"水木年花门口洗车点","lon":"121.4623191","lat":"31.28516773","category":"163","category_name":"4S店","address":"上海广灵四路866弄口"},{"poiid":"B2094757D069A3FA489A","title":"21路车站凉城路","lon":"121.46784973","lat":"31.286735534","category":"38","category_name":"公交车站","address":"上海凉城路广灵二路路口"},{"poiid":"B2094654D56DA5FC4893","title":"广中小区(南门)","lon":"121.46742","lat":"31.28027","category":"47","category_name":"住宅区","address":"广中路547-561弄"},{"poiid":"B2094751D568A4FE4592","title":"老李鱼头泡饼","lon":"121.468213","lat":"31.286457","category":"247","category_name":"餐饮美食","address":"广灵四路323号"},{"poiid":"B2094654D56DA5FE4899","title":"贤林茶社","lon":"121.46396","lat":"31.28559","category":"260","category_name":"其他","address":"虹口区广灵四路(近广粤路)"},{"poiid":"B2094757DA65A5F5459F","title":"汉庭快捷酒店（上海广粤路店）","lon":"121.465812027","lat":"31.286970316","category":"216","category_name":"经济型连锁酒店","address":"广粤路281号"},{"poiid":"B2094654D56DA5F44692","title":"珊瑚苑(北门)","lon":"121.46286","lat":"31.27961","category":"47","category_name":"住宅区","address":"广中路680弄1-28号"},{"poiid":"B2094757D16AA1F5439E","title":"久久丫鸭颈王(广中路店)","lon":"121.46673","lat":"31.27954","category":"247","category_name":"餐饮美食","address":"上海虹口区广中路590号(近广粤路)  "},{"poiid":"B2094654D56DA5FD4592","title":"罗森(凉城路)","lon":"121.46981","lat":"31.28495","category":"117","category_name":"便民商店/便利店","address":"虹口区凉城路309号"},{"poiid":"B2094654D56DA5FD409B","title":"广粤大楼","lon":"121.46862","lat":"31.28025","category":"46","category_name":"楼宇","address":"广中路517弄1-2号"},{"poiid":"B2094655D26FA0F94599","title":"东广大厦(北门)","lon":"121.46736","lat":"31.27973","category":"49","category_name":"无中心点楼宇大门","address":"广中路568"},{"poiid":"B2094654D56DA5F44393","title":"春满园公寓南方·格林蓝天","lon":"121.46707","lat":"31.27923","category":"47","category_name":"住宅区","address":"广中路586弄"},{"poiid":"B2094654D56DA5FD459A","title":"文峰美发美容凉城二店","lon":"121.4697","lat":"31.28405","category":"148","category_name":"美容美发店","address":"凉城路253"},{"poiid":"B2094757D16CA6FD449B","title":"乾弘佳园","lon":"121.46376","lat":"31.278784","category":"47","category_name":"住宅区","address":"上海广中路620弄"},{"poiid":"B2094654DB6BA3FF449A","title":"海叶新苑虹口宜家(南门)","lon":"121.46362","lat":"31.28037","category":"656","category_name":"大门","address":"广中路633弄1-21号"},{"poiid":"B2094750DB69A4FD449B","title":"虹桥火车站","lon":"121.469123","lat":"31.285943","category":"500","category_name":"未知分类","address":null},{"poiid":"B2094654D56DA5FC4992","title":"久业家苑(南门)","lon":"121.4681","lat":"31.2802","category":"47","category_name":"住宅区","address":"广中路525弄1-32号"},{"poiid":"B2094654D56DA3F4449D","title":"广凉苑(西门)","lon":"121.46977","lat":"31.28219","category":"47","category_name":"住宅区","address":"凉城路210弄1-13号"},{"poiid":"B2094654D56DA5F94392","title":"春满园A区(东门)","lon":"121.46788","lat":"31.27818","category":"47","category_name":"住宅区","address":"新同心路285弄1-32号"},{"poiid":"B2094654D56DA5FD409D","title":"新侨点心部","lon":"121.473126054","lat":"31.278674793","category":"257","category_name":"中餐厅","address":"广中路317号近闸北体育场"},{"poiid":"B2094757D66CABF8459A","title":"丸奈虚宅宅宅","lon":"121.4634221","lat":"31.279873619","category":"500","category_name":"未知分类","address":null},{"poiid":"B2094757D66CAAF54898","title":"好德便利(店广中路店)","lon":"121.46757","lat":"31.27996","category":"117","category_name":"便民商店/便利店","address":"虹口区广中路549号(近新同心路)"},{"poiid":"B2094654D56DA5FD419C","title":"康态口腔门诊部","lon":"121.46923","lat":"31.28113","category":"162","category_name":"医院","address":"虹口区凉城路77号"},{"poiid":"B2094757D16FA5FC409D","title":"格林蓝天","lon":"121.4626681","lat":"31.279804618","category":"500","category_name":"未知分类","address":"上海广中路586弄"},{"poiid":"B2094654D56DA5F44398","title":"快客No.947","lon":"121.46842","lat":"31.27975","category":"117","category_name":"便民商店/便利店","address":"广中路"},{"poiid":"B2094751DA6FA1F54292","title":"中信泰富四川北路","lon":"121.460825","lat":"31.285363","category":"249","category_name":"购物服务","address":"四川北路1350号"},{"poiid":"B2094654D56DA5FD459B","title":"克丽缇娜No.06630","lon":"121.46974","lat":"31.28443","category":"148","category_name":"美容美发店","address":"凉城路279"},{"poiid":"B2094757D06BA4FE4292","title":"上海银行广中路支行","lon":"121.467596","lat":"31.279756","category":"500","category_name":"未知分类","address":"闸北区广中路879号(近共和新路)"},{"poiid":"B2094655D26FABFB4399","title":"新都苑(东门)","lon":"121.46956","lat":"31.28341","category":"47","category_name":"住宅区","address":"凉城路215弄"},{"poiid":"B2094654D56DA5FA4098","title":"三湘花苑","lon":"121.46474","lat":"31.277779","category":"47","category_name":"住宅区","address":"株洲路300弄1-12号,17-26号"},{"poiid":"B2094757D16CA6F44492","title":"上海雲峰進口車城市展廳","lon":"121.4702271","lat":"31.284358713","category":"46","category_name":"楼宇","address":"上海廣靈四路755號"},{"poiid":"B2094655D26CA1F9499D","title":"快客No.5150","lon":"121.46954","lat":"31.28094","category":"117","category_name":"便民商店/便利店","address":""},{"poiid":"B2094655D265A7FD4398","title":"中国电信天翼专营店","lon":"121.46754","lat":"31.28617","category":"138","category_name":"家电电子卖场","address":"广灵四路587-589号"},{"poiid":"B2094654D56DA5FE4893","title":"万峰梦湖苑(北门)","lon":"121.46285","lat":"31.28483","category":"656","category_name":"大门","address":"广灵四路881弄1-54号"},{"poiid":"B2094654D56DA5FD449F","title":"艾美","lon":"121.46961","lat":"31.28358","category":"148","category_name":"美容美发店","address":"凉城路235"},{"poiid":"B2094655D265A3FF419A","title":"新新桌球俱乐部","lon":"121.46931","lat":"31.28183","category":"171","category_name":"台球厅","address":"虹口区大连西路235号3楼(近曲阳路)"},{"poiid":"B2094757D06AA6F54799","title":"108同心路终点站","lon":"121.4650741","lat":"31.278200584","category":"500","category_name":"未知分类","address":"上海市虹口区株洲路新同心路"},{"poiid":"B2094654D56DA3F44492","title":"联华超市(凉城路)","lon":"121.46974","lat":"31.28207","category":"118","category_name":"超级市场","address":"虹口区车站北路(近凉城路)"},{"poiid":"B2094757D068A6F4429E","title":"乾虹佳苑","lon":"121.46552708","lat":"31.277394646","category":"47","category_name":"住宅区","address":"上海广中路620弄"},{"poiid":"B2094757D66DABFD469B","title":"仁音琴行","lon":"121.469638103","lat":"31.2833626927","category":"249","category_name":"购物服务","address":"虹口区凉城路226号(近广灵二路)"},{"poiid":"B2094757D16CA3FC449B","title":"今生有缘SPA生活馆","lon":"121.46265","lat":"31.2794","category":"500","category_name":"未知分类","address":"闸北区广中路680弄6号(近平型关路)"},{"poiid":"B2094655D265A3FC459D","title":"丽婴房","lon":"121.46951","lat":"31.28317","category":"128","category_name":"儿童用品店","address":"虹口区凉城路209号(近广灵二路)"},{"poiid":"B2094655D26DA6F84193","title":"海叶新苑虹口宜家(东门)","lon":"121.46491","lat":"31.28096","category":"656","category_name":"大门","address":""},{"poiid":"B2094751D26BA5FD449B","title":"日月光","lon":"121.469966","lat":"31.283032","category":"500","category_name":"未知分类","address":null},{"poiid":"B2094757D06BA0FB419D","title":"花花公主","lon":"121.463307","lat":"31.278404","category":"67","category_name":"甜品店","address":"杨浦区政民路488号(近国定路)"},{"poiid":"B2094655D26EA2FB449E","title":"好德便利No.504","lon":"121.46989","lat":"31.28528","category":"117","category_name":"便民商店/便利店","address":"凉城路359"},{"poiid":"B2094655D26DA5F4439C","title":"凉城路68弄小区(西门)","lon":"121.46952","lat":"31.2808","category":"47","category_name":"住宅区","address":"凉城路68弄1-4号"},{"poiid":"B209475DD26DA4F54298","title":"大宁国际商业广场","lon":"121.465049","lat":"31.278583","category":"500","category_name":"未知分类","address":"上海市 闸北区共和新路"},{"poiid":"B2094655D265ABFE4698","title":"宇航轮胎总汇","lon":"121.46142","lat":"31.2852","category":"248","category_name":"生活娱乐","address":"北宝兴路857"},{"poiid":"B2094654D56DA5FD439F","title":"交通银行上海广灵支行","lon":"121.4695","lat":"31.28304","category":"150","category_name":"银行","address":"虹口区凉城路197-201号(广灵二路凉城路)"},{"poiid":"B2094655D26CA1F9499C","title":"凉城路八十弄小区(西门)","lon":"121.46952","lat":"31.28081","category":"47","category_name":"住宅区","address":"凉城路八十弄1-4号"},{"poiid":"B2094654D56DA5FD489D","title":"良友金伴(广灵四路)","lon":"121.46893","lat":"31.28672","category":"117","category_name":"便民商店/便利店","address":"广灵四路507"},{"poiid":"B2094655D26EA2FB439A","title":"凉城路八十弄小区","lon":"121.46953","lat":"31.2808","category":"47","category_name":"住宅区","address":"凉城路八十弄1-4号"},{"poiid":"B2094654D56DA5F44593","title":"永巍公寓(北门)","lon":"121.4639","lat":"31.27979","category":"48","category_name":"楼宇大门","address":"广中路618"},{"poiid":"B2094751D56CA0F9449C","title":"当代艺术博物馆","lon":"121.4655827","lat":"31.2882942","category":"500","category_name":"未知分类","address":"上海市黄浦区花园港路200号"},{"poiid":"B2094654D56DA5F94792","title":"建明花苑(东门)","lon":"121.46485","lat":"31.27933","category":"48","category_name":"楼宇大门","address":"株洲路388弄1-19号"},{"poiid":"B2094654D56DA5F4439F","title":"上海银行上财支行营业部","lon":"121.46755","lat":"31.27976","category":"150","category_name":"银行","address":"广中路566号"},{"poiid":"B2094757D16CA1FD479B","title":"上海移动南汇分公司","lon":"121.4692251","lat":"31.282932583","category":"500","category_name":"未知分类","address":"上海浦东新区人民东路2471号"},{"poiid":"B2094655D26CA0FC4698","title":"万峰梦湖苑(西门)","lon":"121.46155","lat":"31.28177","category":"656","category_name":"大门","address":""},{"poiid":"B2094757D169A2FC469F","title":"上海社科院 五楼报告厅","lon":"121.4668971","lat":"31.286667761","category":"500","category_name":"未知分类","address":"上海徐汇区中山西路1610号 近徐虹中路"},{"poiid":"B2094757D66EA4FF4499","title":"975路凉城路站","lon":"121.469485","lat":"31.281894","category":"500","category_name":"未知分类","address":"上海凉城路广灵二路"},{"poiid":"B2094655D26CA1F94993","title":"凉城路126弄小区(西门)","lon":"121.47015","lat":"31.2816","category":"47","category_name":"住宅区","address":"凉城路126弄1-8号"},{"poiid":"B2094757D569A0FE4499","title":"磊盛足道","lon":"121.4649508","lat":"31.27887389","category":"149","category_name":"洗浴推拿场所","address":"虹口区株洲路360号(近广中路)"},{"poiid":"B2094655D26FA0F9459E","title":"乾弘佳园(北一门)","lon":"121.46377","lat":"31.27976","category":"656","category_name":"大门","address":"广中路620弄"},{"poiid":"B2094757D165A0F4459A","title":"百乐餐厅","lon":"121.469384103","lat":"31.2835606969","category":"500","category_name":"未知分类","address":"上海大沽路199号"},{"poiid":"B2094655D26CA0FC469B","title":"万峰梦湖苑(南门)","lon":"121.46202","lat":"31.2806","category":"656","category_name":"大门","address":""},{"poiid":"B2094654D56DA5F4459D","title":"诹访棋牌馆","lon":"121.46421","lat":"31.27986","category":"175","category_name":"棋牌室","address":"广中路616"},{"poiid":"B2094654D56DA5FE499D","title":"水木年华花园(南门)","lon":"121.46295","lat":"31.28544","category":"656","category_name":"大门","address":"广灵四路866弄"},{"poiid":"B2094654D56DA5F4449A","title":"春满园公寓南方·格林蓝天(北门)","lon":"121.46714","lat":"31.27973","category":"48","category_name":"楼宇大门","address":"广中路586弄"},{"poiid":"B2094757D16CA7FA4298","title":"Neverain Land","lon":"121.4615801","lat":"31.279356609","category":"500","category_name":"未知分类","address":"上海市中环线"},{"poiid":"B2094655D26FA0FB419D","title":"梦庭保健会所","lon":"121.46952","lat":"31.28314","category":"149","category_name":"洗浴推拿场所","address":"凉城路207"},{"poiid":"B2094757D16FA0F9419F","title":"格调造型","lon":"121.468666","lat":"31.286778","category":"148","category_name":"美容美发店","address":"上海虹口区广灵四路517号(凉城路口)"},{"poiid":"B2094654D56DA5FA4099","title":"三湘花苑(东门)","lon":"121.46514","lat":"31.27783","category":"47","category_name":"住宅区","address":"株洲路300弄1-12号、17-26号"},{"poiid":"B2094654D56DA5FD469E","title":"今日浪莎美容按摩休闲凉城路店","lon":"121.46991","lat":"31.28548","category":"148","category_name":"美容美发店","address":"虹口区凉城路365号(近广灵四路)"},{"poiid":"B2094655D26CA0FC459C","title":"日富休闲会所","lon":"121.46961","lat":"31.2837","category":"149","category_name":"洗浴推拿场所","address":"凉城路245"},{"poiid":"B2094757D069A4F84799","title":"三湘明珠花苑","lon":"121.464743","lat":"31.277779","category":"47","category_name":"住宅区","address":"上海市虹口区"},{"poiid":"B2094757D66CA0F8459A","title":"广中路581弄环城公寓","lon":"121.467574103","lat":"31.2796506151","category":"500","category_name":"未知分类","address":"上海环城公寓"},{"poiid":"B2094757D66FA2FB479F","title":"花园宝宝","lon":"121.467922103","lat":"31.2864307569","category":"249","category_name":"购物服务","address":"上海四川北路1661号凯鸿商场4楼(近东宝兴路)"},{"poiid":"B2094654DB69A4FF479F","title":"象王洗得好(凉城店)","lon":"121.46961","lat":"31.28355","category":"249","category_name":"购物服务","address":"虹口区凉城路231号"},{"poiid":"B2094757D169ABFE489D","title":"Seven_杰家","lon":"121.469775103","lat":"31.2830686866","category":"500","category_name":"未知分类","address":null},{"poiid":"B2094654D56DA5FD4999","title":"中虹花园翡翠园(北门)","lon":"121.46799","lat":"31.28635","category":"48","category_name":"楼宇大门","address":"广灵四路561弄"},{"poiid":"B2094654D56DA5F9499C","title":"上海市园林工程有限公司","lon":"121.46492","lat":"31.27827","category":"263","category_name":"公司","address":"广中路668号"},{"poiid":"B2094655D36CA3F84398","title":"安溪新桥茶业","lon":"121.46892","lat":"31.28031","category":"255","category_name":"专卖店","address":"凉城路51"},{"poiid":"B2094757D16FA2FE4998","title":"上海银都会Sliver City Club","lon":"121.4593871","lat":"31.281205647","category":"500","category_name":"未知分类","address":"上海市闵行区银都路银都名墅内"},{"poiid":"B2094757D165A2FF4292","title":"克丽缇娜(凉城路)","lon":"121.469739","lat":"31.284435","category":"148","category_name":"美容美发店","address":"上海凉城路279号"},{"poiid":"B2094654D56DA5FD4192","title":"中虹花园锦绣文华(东门)","lon":"121.46894","lat":"31.2817","category":"48","category_name":"楼宇大门","address":"凉城路139弄"},{"poiid":"B2094757D16DA4F5499D","title":"天一生水护肤养生会所","lon":"121.46511","lat":"31.27828","category":"148","category_name":"美容美发店","address":"上海静安区吴江路188号静安新时代大厦6A座(近南京西路)  "},{"poiid":"B2094654D56DA5FE4792","title":"秀苑小区(南门)","lon":"121.46871","lat":"31.28704","category":"656","category_name":"大门","address":"广灵四路572弄1-54号"},{"poiid":"B2094757D16BA7FE499C","title":"451路崂山路张杨路站","lon":"121.468704003","lat":"31.2798246188","category":"500","category_name":"未知分类","address":"上海崂山路张扬路"},{"poiid":"B2094750D26DA4FE449E","title":"伊诺咖啡 株洲路店 Y.N.C COFFEE","lon":"121.465515","lat":"31.278875","category":"260","category_name":"其他","address":"虹口区株洲路379号(近广中路)"},{"poiid":"B2094655D26CA0FF499D","title":"慧芝湖花园(南门)","lon":"121.45963","lat":"31.27982","category":"656","category_name":"大门","address":""},{"poiid":"B2094654D56DA5FF4693","title":"上海华一教育培训中心","lon":"121.46685","lat":"31.28845","category":"190","category_name":"培训机构","address":"广粤路328号"},{"poiid":"B2094655D265ABFB439B","title":"欣悦棋牌室","lon":"121.46934","lat":"31.28206","category":"175","category_name":"棋牌室","address":""},{"poiid":"B2094757D66CA5FD469D","title":"宝宝家","lon":"121.4697421","lat":"31.280779638","category":"500","category_name":"未知分类","address":"上海市凉城路"},{"poiid":"B2094655D26DABF84198","title":"乾弘佳园(北二门)","lon":"121.46299","lat":"31.27966","category":"656","category_name":"大门","address":""},{"poiid":"B2094654D56DA5FD439D","title":"华安保险(凉城路)","lon":"121.46952","lat":"31.2831","category":"219","category_name":"其他","address":"凉城路205"},{"poiid":"B2094757D164ABF8469A","title":"鸿飞模型","lon":"121.46695","lat":"31.27969","category":"260","category_name":"其他","address":"虹口区广中路633弄3号601室(近广粤路)"},{"poiid":"B2094654D56DA5FF4892","title":"上海手术器械厂","lon":"121.4615","lat":"31.28797","category":"263","category_name":"公司","address":"粤秀路351号"},{"poiid":"B2094750D565A0F4499D","title":"杭州","lon":"121.459213","lat":"31.280603","category":"627","category_name":"一般地点标志","address":"西湖大道"},{"poiid":"B2094655D26FA0F4439B","title":"欣武大厦(北门)","lon":"121.45996","lat":"31.27931","category":"48","category_name":"楼宇大门","address":"广中路698"},{"poiid":"B2094757D16BABFE4598","title":"547车站","lon":"121.460980103","lat":"31.2793786095","category":"251","category_name":"出行住宿","address":"上海市虹口区广中路"},{"poiid":"B2094655D26FA6FC459E","title":"水木年华花园(西门)","lon":"121.46168","lat":"31.28725","category":"656","category_name":"大门","address":""},{"poiid":"B2094655D26DABFB409E","title":"秀苑小区(西门)","lon":"121.46669","lat":"31.28823","category":"656","category_name":"大门","address":""}]