[{"poiid":"B2094757D06FA2FE4799","title":"上海瑞金洲际酒店","lon":"121.46510953447012","lat":"31.213619361647314","category":"217","category_name":"旅馆招待所","address":"卢湾区瑞金二路118号上海瑞金洲际酒店内(近复兴中路)"},{"poiid":"B2094654DA6EA4FB409C","title":"Club G Plus","lon":"121.465873","lat":"31.214857","category":"260","category_name":"其他","address":"卢湾区兴业路123弄新天地南里广场6号楼5楼(近马当路)"},{"poiid":"B2094757D06FA3F5469A","title":"瑞金医院急诊","lon":"121.46610563","lat":"31.212050682","category":"162","category_name":"医院","address":"上海卢湾区瑞金二路197号瑞金医院内"},{"poiid":"B2094753D76FAAFA449C","title":"上海滩国泰旗舰店","lon":"121.466011","lat":"31.216125","category":"249","category_name":"购物服务","address":"淮海中路868号"},{"poiid":"B209475CD564A7F84292","title":"上海滩新天地店","lon":"121.47463","lat":"31.22164","category":"119","category_name":"商场","address":"\"太仓路181弄新天地北里15号\r\n\""},{"poiid":"B209475CD564A7F8439E","title":"上海滩中信泰富店","lon":"121.45602","lat":"31.22851","category":"119","category_name":"商场","address":"\"南京西路1168号中信泰富广场，店铺号221.\r\n\""},{"poiid":"B2094757D06FA3FC409E","title":"瑞福园(茂名店)","lon":"121.46258","lat":"31.21393","category":"76","category_name":"上海菜","address":"卢湾区茂名南路132号乙(近复兴中路)"},{"poiid":"B2094654DB69A4F8439F","title":"星巴克(瑞金路店)","lon":"121.4649203","lat":"31.2150973","category":"260","category_name":"其他","address":"卢湾区瑞金二路101-107号(近复兴中路)"},{"poiid":"B2094757D06FA2FC409E","title":"蓝蛙(茂名店)","lon":"121.46315667","lat":"31.212204032","category":"260","category_name":"其他","address":"卢湾区茂名南路207号(近复兴中路)"},{"poiid":"B2094757D168A4F9489B","title":"瑞金医院住院部","lon":"121.46528073","lat":"31.212016312","category":"162","category_name":"医院","address":"上海瑞金二路197号"},{"poiid":"B2094757D068A5F54199","title":"park97","lon":"121.465627738","lat":"31.2151659791","category":"172","category_name":"酒吧","address":"上海市卢湾区茂名南路"},{"poiid":"B2094757D06FA4FA419C","title":"永兴餐厅","lon":"121.46444","lat":"31.21441","category":"76","category_name":"上海菜","address":"卢湾区复兴中路626弄1号(茂名路瑞金路间)"},{"poiid":"B2094655D26EA0F44998","title":"扬州饭店(瑞金店)","lon":"121.46484","lat":"31.21428","category":"74","category_name":"江苏菜","address":"卢湾区瑞金二路108号民防大厦3楼(近复兴中路)"},{"poiid":"B2094752DB6BA3F9459B","title":"上海文化广场剧院","lon":"121.465729","lat":"31.215866","category":"500","category_name":"未知分类","address":"上海市 上海市复兴中路597号"},{"poiid":"B2094757D06FA3F4499E","title":"Mi Tierra","lon":"121.46475","lat":"31.21089","category":"94","category_name":"西餐厅","address":"卢湾区永嘉路17号(近茂名南路)"},{"poiid":"B2094654DA6EA1F5499D","title":"瑞金宾馆(西门)","lon":"121.46297","lat":"31.21274","category":"250","category_name":"公园户外","address":"茂名南路207"},{"poiid":"B2094757D06FAAF44798","title":"EASO ROOM","lon":"121.46515","lat":"31.21538","category":"260","category_name":"其他","address":"卢湾区香山路32号(近瑞金二路)"},{"poiid":"B2094757D06FAAFC4098","title":"永和大王(瑞金二路店)","lon":"121.46597","lat":"31.21133","category":"68","category_name":"快餐厅","address":"上海卢湾区瑞金二路120号(近永嘉路)  "},{"poiid":"B2094753D56DA3FA4098","title":"鱼酷活鱼现烤","lon":"121.463157","lat":"31.214649","category":"247","category_name":"餐饮美食","address":"上海市 淮海中路988号黄金世界地下1层"},{"poiid":"B2094757D06AA2F54593","title":"南蛮亭 思南公馆店","lon":"121.468088","lat":"31.214529","category":"95","category_name":"日本料理","address":"卢湾区思南路45号思南公馆32号楼3楼(近复兴中路)"},{"poiid":"B2094757D069A6F9409D","title":"瑞金医院急诊补液室","lon":"121.46620633","lat":"31.2116813889","category":"162","category_name":"医院","address":"上海卢湾区瑞金二路197号瑞金医院内"},{"poiid":"B209475CD46CA1FD4099","title":"StayReal Café by GABEE.","lon":"121.458085","lat":"31.214526","category":"247","category_name":"餐饮美食","address":"上海市徐汇区淮海中路999号环贸广场iapm LG2-246号"},{"poiid":"B2094753DB69AAF84892","title":"千两","lon":"121.462593","lat":"31.213531","category":"247","category_name":"餐饮美食","address":"上海市 淮海中路999号环贸广场"},{"poiid":"B2094757D168A6F84893","title":"瑞金11号私房菜","lon":"121.46442473","lat":"31.213289939","category":"76","category_name":"上海菜","address":"卢湾区瑞金二路118号瑞金宾馆11号楼(近复兴中路)"},{"poiid":"B2094757D168A4FB4799","title":"瑞金宾馆11号","lon":"121.46414973","lat":"31.213976953","category":"217","category_name":"旅馆招待所","address":"上海市黄浦区瑞金二路118号（近复兴中路）"},{"poiid":"B2094655D36CA6FF439C","title":"复兴中路瑞金二路","lon":"121.46427","lat":"31.2147","category":"38","category_name":"公交车站","address":""},{"poiid":"B2094757D06BA3F8439C","title":"瑞金宾馆百合苑","lon":"121.464818","lat":"31.212616","category":"217","category_name":"旅馆招待所","address":"上海瑞金宾馆内"},{"poiid":"B2094757D06AA5FA479D","title":"阿三烤鸭","lon":"121.46508","lat":"31.21477","category":"68","category_name":"快餐厅","address":"卢湾区复兴中路589号(近瑞金二路)"},{"poiid":"B2094654DA6DA6F44992","title":"松林酒家","lon":"121.46534","lat":"31.21387","category":"68","category_name":"快餐厅","address":"卢湾区瑞金二路121号(近复兴中路)"},{"poiid":"B2094757D068A4FC449D","title":"园梅","lon":"121.46394","lat":"31.21421","category":"149","category_name":"洗浴推拿场所","address":"卢湾区复兴中路614号(近瑞金二路)"},{"poiid":"B2094655D26AA7FC479A","title":"瑞金宾馆宴会厅","lon":"121.46607","lat":"31.2139","category":"247","category_name":"餐饮美食","address":"卢湾区瑞金二路118号瑞金宾馆内(近复兴中路)查看地图"},{"poiid":"B2094654DA6EA1FA4193","title":"中国移动瑞金二路营业厅","lon":"121.46511","lat":"31.2136","category":"151","category_name":"电讯营业厅","address":"瑞金二路118乙"},{"poiid":"B2094757D064A3F4499B","title":"一豚","lon":"121.465683738","lat":"31.2149439744","category":"95","category_name":"日本料理","address":"卢湾区复兴中路581号(近瑞金二路)"},{"poiid":"B209475CD26CA4FC4598","title":"iapm上海环贸广场","lon":"121.46421","lat":"31.215311","category":"500","category_name":"未知分类","address":"上海市 淮海中路999号"},{"poiid":"B209475CD06EA7FA4098","title":"琅庐","lon":"121.46518","lat":"31.2134","category":"97","category_name":"法式菜品餐厅","address":"瑞金二路118号瑞金洲际酒店主楼1楼"},{"poiid":"B2094654DA6EA1FB469A","title":"Pane e Vino","lon":"121.46327","lat":"31.21199","category":"94","category_name":"西餐厅","address":"卢湾区思南路47号(近复兴中路)"},{"poiid":"B2094752D268AAF44892","title":"思南公馆","lon":"121.465452","lat":"31.212734","category":"500","category_name":"未知分类","address":"上海市思南路51号"},{"poiid":"B2094654DA6DA6F5409B","title":"花园坊","lon":"121.46608","lat":"31.213909","category":"47","category_name":"住宅区","address":"卢湾区瑞金二路129弄(近复兴中路)"},{"poiid":"B209475DD468A2FA479C","title":"小小南国","lon":"121.46434","lat":"31.214624","category":"247","category_name":"餐饮美食","address":"上海市 上海市徐汇区淮海中路939号"},{"poiid":"B2094757D064A3F9469C","title":"紋兵衛 瑞金店","lon":"121.46328773","lat":"31.213058934","category":"257","category_name":"中餐厅","address":"上海茂名南路205瑞金大厦１ＦA室"},{"poiid":"B2094757D069A2FF4598","title":"瑞金医院内科急症","lon":"121.465460584","lat":"31.2126681714","category":"162","category_name":"医院","address":"上海卢湾区瑞金二路197号急诊三楼"},{"poiid":"B2094654DA6EA1FA409A","title":"瑞金宾馆上海梦菲思食品有限公司","lon":"121.46508","lat":"31.2137","category":"112","category_name":"糕饼店","address":"瑞金二路118号"},{"poiid":"B2094654DA6EA1FA4098","title":"瑞金商务楼","lon":"121.46534","lat":"31.21311","category":"46","category_name":"楼宇","address":"瑞金二路118乙"},{"poiid":"B2094750D664A6FA449C","title":"瑞金宾馆百合厅","lon":"121.465","lat":"31.2131","category":"76","category_name":"上海菜","address":"徐汇区瑞金二路118号瑞金宾馆内(近瑞金医院)"},{"poiid":"B2094655D26EA4FE4292","title":"Art Deco Garden Cafe Bar","lon":"121.46507","lat":"31.21369","category":"172","category_name":"酒吧","address":"卢湾区瑞金二路118号3号楼"},{"poiid":"B2094654DA6DA6F44993","title":"好德No.086","lon":"121.46535","lat":"31.21382","category":"117","category_name":"便民商店/便利店","address":"瑞金二路125"},{"poiid":"B2094757D568ABFC4799","title":"交大医学院西校区","lon":"121.46739","lat":"31.21463","category":"52","category_name":"高等院校","address":"重庆南路280号"},{"poiid":"B2094655D268A6F9429C","title":"瑞金宾馆贵宾楼","lon":"121.46363","lat":"31.21397","category":"213","category_name":"五星级宾馆","address":""},{"poiid":"B2094757D66BABFD419B","title":"北万新 香山店","lon":"121.464814054","lat":"31.214811793","category":"68","category_name":"快餐厅","address":"卢湾区瑞金二路111号(近复兴中路)"},{"poiid":"B2094750D664A6FA4499","title":"瑞金宾馆水仙厅","lon":"121.465","lat":"31.214","category":"217","category_name":"旅馆招待所","address":"卢湾区瑞金二路118号瑞金宾馆内(近复兴中路)"},{"poiid":"B2094655D268A1FF4492","title":"罗森","lon":"121.46478","lat":"31.21388","category":"117","category_name":"便民商店/便利店","address":"思南社区西南"},{"poiid":"B2094757D069A4FD459B","title":"老锦江饭店夜上海餐厅","lon":"121.463289476","lat":"31.2152020027","category":"76","category_name":"上海菜","address":"上海茂名路"},{"poiid":"B2094757D16AA1FC439E","title":"民防科普教育馆","lon":"121.46327","lat":"31.21381","category":"179","category_name":"音乐厅","address":"上海卢湾区复兴中路593号民防大厦内(近瑞金二路)  "},{"poiid":"B2094655D26EA2FD4399","title":"Art Deco咖啡厅","lon":"121.46507","lat":"31.21369","category":"260","category_name":"其他","address":"卢湾区瑞金二路118号瑞金宾馆3号楼1楼(近复兴中路)"},{"poiid":"B2094757D16DA2FD4899","title":"梦菲思饼屋","lon":"121.462689054","lat":"31.213735793","category":"67","category_name":"甜品店","address":"卢湾区瑞金二路118号瑞金宾馆1楼(近复兴中路)"},{"poiid":"B2094655D36CA6FF439F","title":"复兴中路茂名南路","lon":"121.46384","lat":"31.21459","category":"38","category_name":"公交车站","address":"上海复兴中路茂名南路"},{"poiid":"B2094655D26AA7FB4199","title":"金仕健身俱乐部","lon":"121.46472","lat":"31.21399","category":"247","category_name":"餐饮美食","address":"卢湾区复兴中路593号(近瑞金二路)"},{"poiid":"B2094757D56EA5F5469B","title":"钱柜","lon":"121.465442","lat":"31.2117370000001","category":"248","category_name":"生活娱乐","address":"卢湾区瑞金二路120号"},{"poiid":"B2094654DA6DA6F4499D","title":"坂田发型制作","lon":"121.46533","lat":"31.21394","category":"148","category_name":"美容美发店","address":"瑞金二路119号"},{"poiid":"B209475DD26BA4FB419F","title":"查厘士港式餐厅","lon":"121.463211","lat":"31.213726","category":"247","category_name":"餐饮美食","address":"上海市 徐汇区淮海中路988号3F"},{"poiid":"B2094654DA6DA6F54299","title":"新广商苑","lon":"121.46568","lat":"31.21269","category":"46","category_name":"楼宇","address":"瑞金二路181"},{"poiid":"B2094654DB6BA4FE449E","title":"瑞金宾馆新接待大楼","lon":"121.46363","lat":"31.21398","category":"213","category_name":"五星级宾馆","address":""},{"poiid":"B2094757D164A6F8489F","title":"总相宜","lon":"121.465449","lat":"31.213519","category":"249","category_name":"购物服务","address":"上海宝隆隔壁dhl对过"},{"poiid":"B2094654DA6DA6F5449D","title":"上海第二医科大学瑞金临床医学院","lon":"121.46653","lat":"31.2115","category":"52","category_name":"高等院校","address":"瑞金二路197号瑞金医院"},{"poiid":"B2094757D16CAAFB489D","title":"hana's home","lon":"121.46561132","lat":"31.21369855","category":"500","category_name":"未知分类","address":null},{"poiid":"B2094752D565A5FA4299","title":"南京路步行街","lon":"121.465666","lat":"31.212839","category":"500","category_name":"未知分类","address":null},{"poiid":"B2094757D46BA4F9449A","title":"祥兴麻辣烫","lon":"121.465238","lat":"31.211814","category":"68","category_name":"快餐厅","address":"卢湾区永嘉路9号(瑞金路)"},{"poiid":"B2094757D169ABF4449F","title":"quailegg's studio","lon":"121.46530151","lat":"31.213088989","category":"500","category_name":"未知分类","address":"上海瑞金二路129弄花园坊"},{"poiid":"B2094654DA6EA1FA4299","title":"中国工商银行瑞金二路支行24小时自助银行","lon":"121.46518","lat":"31.21331","category":"152","category_name":"ATM","address":"瑞金二路118丙"},{"poiid":"B209475CD46BA6FA439B","title":"天家","lon":"121.463668","lat":"31.213272","category":"247","category_name":"餐饮美食","address":"上海市 淮海中路iapm"},{"poiid":"B2094757D16EA5F4499D","title":"瑞金医院消化内科","lon":"121.466053","lat":"31.211797","category":"162","category_name":"医院","address":"上海瑞金医院"},{"poiid":"B2094655D26FAAF84899","title":"思南社区","lon":"121.46537","lat":"31.21448","category":"47","category_name":"住宅区","address":"复兴中路587弄1-7号"},{"poiid":"B2094757D169A7F9499B","title":"大宅院老北京涮羊肉(复兴店)","lon":"121.46476","lat":"31.21449","category":"247","category_name":"餐饮美食","address":"上海卢湾区复兴中路597号(近茂名南路)  "},{"poiid":"B2094654DB69AAF9419E","title":"中国银行卢湾支行","lon":"121.4629","lat":"31.21385","category":"150","category_name":"银行","address":"上海市卢湾区茂名南路205号"},{"poiid":"B2094654DA6DA5FC4992","title":"良友金伴No.491","lon":"121.46511","lat":"31.21471","category":"117","category_name":"便民商店/便利店","address":"复兴中路591"},{"poiid":"B2094757D16CA5FB499C","title":"上海市安全生产监督管理局","lon":"121.46467827","lat":"31.214404529","category":"500","category_name":"未知分类","address":"上海复兴中路593号民防大厦18、19楼"},{"poiid":"B2094655D264A5FC449E","title":"illy","lon":"121.46504","lat":"31.21569","category":"256","category_name":"外国餐厅","address":"卢湾区建国中路155弄39号"},{"poiid":"B2094757D069A5F94899","title":"新亚大包(瑞金二路店)","lon":"121.46603","lat":"31.21115","category":"68","category_name":"快餐厅","address":"卢湾区瑞金二路120号甲(瑞金医院对面)"},{"poiid":"B2094750DB6AA5FB499E","title":"上海市文化广场","lon":"121.46582","lat":"31.214744","category":"500","category_name":"未知分类","address":null},{"poiid":"B2094757D16EAAFE4192","title":"西贡越南河粉世家","lon":"121.465492738","lat":"31.2147689707","category":"247","category_name":"餐饮美食","address":"上海复兴中路瑞金二路"},{"poiid":"B2094751D56FA7F5429F","title":"Morceau cafe","lon":"121.46607","lat":"31.21499","category":"247","category_name":"餐饮美食","address":"卢湾区复兴中路571号(近思南公馆)"},{"poiid":"B2094757D56EA4FF4998","title":"上海南京路新世界","lon":"121.464692","lat":"31.215499","category":"249","category_name":"购物服务","address":"上海市南京西路2－68号(88号)五层"},{"poiid":"B2094757D065AAFF4399","title":"明谦咖啡","lon":"121.46298473","lat":"31.213294939","category":"260","category_name":"其他","address":"卢湾区茂名南路205号瑞金大厦1楼内(近复兴中路)"},{"poiid":"B209475DD268A3FB439E","title":"新肴珍宝海鲜（JUMBO Seafood）","lon":"121.463203","lat":"31.214633","category":"247","category_name":"餐饮美食","address":"上海市 淮海中路999号环贸广场L5-502"},{"poiid":"B2094750D36DA4FA429B","title":"上海市交大附属瑞金医院","lon":"121.466013","lat":"31.211691","category":"162","category_name":"医院","address":"卢湾区瑞金二路197号"},{"poiid":"B2094757D465A1F4419E","title":"清真顺和饮食店","lon":"121.466583054","lat":"31.215056793","category":"68","category_name":"快餐厅","address":"卢湾区复兴中路565号(近思南路)"},{"poiid":"B209475CDA6EA7F4449A","title":"ipam环贸","lon":"121.465614","lat":"31.215686","category":"500","category_name":"未知分类","address":"上海市 淮海中路"},{"poiid":"B2094757D16FA7F5489C","title":"北万新","lon":"121.46489317","lat":"31.214775187","category":"500","category_name":"未知分类","address":"上海复兴路瑞金路转角"},{"poiid":"B2094655D26FAAF84898","title":"思南社区(北门)","lon":"121.46527","lat":"31.21474","category":"47","category_name":"住宅区","address":"复兴中路587弄1-7号"},{"poiid":"B2094751D56EA6FD459D","title":"Blend Cafe & Lounge","lon":"121.4645","lat":"31.21132","category":"247","category_name":"餐饮美食","address":"徐汇区永嘉路15弄3号(近瑞金宾馆)"},{"poiid":"B2094757DA6EABFE419C","title":"葡萄酒吧pluswine","lon":"121.465891999998","lat":"31.2148339999999","category":"247","category_name":"餐饮美食","address":"卢湾区复兴中路579号"},{"poiid":"B2094655D26FA4F5469E","title":"复兴中路553弄小区","lon":"121.46691","lat":"31.21464","category":"47","category_name":"住宅区","address":"复兴中路553弄1-97号"},{"poiid":"B2094757D464A7FB4293","title":"春秋火锅","lon":"121.46578","lat":"31.21485","category":"86","category_name":"火锅店","address":"卢湾区复兴中路581号(近瑞金二路)"},{"poiid":"B2094757D468AAFC4599","title":"摩洛哥餐厅 茂名南路店 El wajh MaoMing","lon":"121.4636360347","lat":"31.211572614574","category":"94","category_name":"西餐厅","address":"卢湾区茂名南路207号8座(近永嘉路)"},{"poiid":"B2094757D06AA6FC4493","title":"田仓米粉(瑞金店)","lon":"121.46599","lat":"31.21091","category":"68","category_name":"快餐厅","address":"卢湾区瑞金二路132弄31号(近绍兴路)"},{"poiid":"B2094655D26FAAF8489A","title":"野花园小区","lon":"121.46627","lat":"31.21455","category":"47","category_name":"住宅区","address":"复兴中路565弄1-25号"},{"poiid":"B2094654DA6EA1F9499C","title":"中信证券(复兴中路)","lon":"121.46478","lat":"31.21389","category":"219","category_name":"其他","address":"复兴中路593号"},{"poiid":"B209475DD268A3F94399","title":"查厘士","lon":"121.463363","lat":"31.214504","category":"247","category_name":"餐饮美食","address":"上海市 淮海中路988号"},{"poiid":"B2094757D16DA0FD489A","title":"罗森便利(复兴中路店)","lon":"121.4652693","lat":"31.2148778","category":"117","category_name":"便民商店/便利店","address":"上海复兴中路1319号"},{"poiid":"B2094757D16FA4FE4698","title":"Cafe Amelie","lon":"121.465630838","lat":"31.2147480702","category":"500","category_name":"未知分类","address":"上海卢湾区复兴中路559号(近瑞金二路)"},{"poiid":"B2094757D068A4F44092","title":"避风塘茶楼(瑞金二路店)","lon":"121.46577","lat":"31.21111","category":"113","category_name":"冷饮店","address":"卢湾区瑞金二路120-4号(近永嘉路)"},{"poiid":"B209475DD06EABF5479B","title":"正斗粥面专家","lon":"121.463035","lat":"31.214584","category":"247","category_name":"餐饮美食","address":"上海市 卢湾区淮海中路999号环贸广场5楼517"},{"poiid":"B2094757D06AA0FC4292","title":"ID Hair","lon":"121.46608912","lat":"31.21476192","category":"500","category_name":"未知分类","address":"上海卢湾区南昌路350号"},{"poiid":"B209475CD66DA7FF4699","title":"百丽宫影城","lon":"121.463729","lat":"31.214786","category":"178","category_name":"电影院","address":"上海市 淮海中路999号"},{"poiid":"B2094757DB6FA1F84099","title":"卢湾区","lon":"121.4666075","lat":"31.2131568","category":"627","category_name":"一般地点标志","address":"卢湾区"},{"poiid":"B2094654DA6EA1FB4592","title":"大吉日本料理(茂名南路)","lon":"121.46321","lat":"31.21212","category":"95","category_name":"日本料理","address":"卢湾区茂名南路207号(近复兴中路)"},{"poiid":"B2094655D265A7FC439A","title":"潘多啦","lon":"121.46299","lat":"31.21246","category":"247","category_name":"餐饮美食","address":"卢湾区茂名南路18号(近延安中路)"},{"poiid":"B2094757D06AABFA409F","title":"中国移动营业厅(瑞金二路店)","lon":"121.464808138","lat":"31.2146063672","category":"150","category_name":"银行","address":"上海瑞金二路118号"},{"poiid":"B2094655D268A2FD4692","title":"野花园小区(北门)","lon":"121.46619","lat":"31.2149","category":"47","category_name":"住宅区","address":"复兴中路565弄1-25号"},{"poiid":"B2094757D069AAFC4498","title":"Subway淮海路百盛店","lon":"121.4653632","lat":"31.215134489","category":"500","category_name":"未知分类","address":"上海淮海路百盛负一楼"},{"poiid":"B2094757D568AAFA429B","title":"瑞金宾馆银杏厅","lon":"121.4629739","lat":"31.21274306","category":"251","category_name":"出行住宿","address":"上海瑞金二路118号"},{"poiid":"B209475CD66BABFE459B","title":"瑞金宾馆主楼","lon":"121.464019","lat":"31.214515","category":"500","category_name":"未知分类","address":"上海市 上海市卢湾区瑞金二路118号"},{"poiid":"B2094654DA6DA5FD419B","title":"快客(复兴中路)","lon":"121.46655","lat":"31.21497","category":"117","category_name":"便民商店/便利店","address":"复兴中路563"},{"poiid":"B209475CD26CA3FB4693","title":"GREY HOUND CAFE","lon":"121.462814","lat":"31.214693","category":"500","category_name":"未知分类","address":"上海市 iapm 5F, Shanghai"},{"poiid":"B2094655D264A5FB4592","title":"城市建设投资开发公司办公楼","lon":"121.46426","lat":"31.21138","category":"46","category_name":"楼宇","address":"永嘉路18号"},{"poiid":"B2094757D568A6FE4092","title":"三金大厦","lon":"121.464","lat":"31.2115","category":"46","category_name":"楼宇","address":"襄阳南路500号"},{"poiid":"B2094757D169AAFB469C","title":"复兴中路第二幼儿园","lon":"121.465540738","lat":"31.2148449723","category":"253","category_name":"校园生活","address":"上海复兴中路585号"},{"poiid":"B2094757D16BA5F4469E","title":"PHO88","lon":"121.465479738","lat":"31.2148909733","category":"500","category_name":"未知分类","address":"上海复兴中路581号"},{"poiid":"B2094655D26EABFC4092","title":"香扇阁保健会所","lon":"121.46507","lat":"31.21533","category":"149","category_name":"洗浴推拿场所","address":"卢湾区瑞金二路87-89号(近复兴中路)"},{"poiid":"B209475DD665A4F84392","title":"查厘士","lon":"121.463127","lat":"31.214542","category":"247","category_name":"餐饮美食","address":"上海市 淮海中路988号3F"},{"poiid":"B2094757D168A0FC4198","title":"上海城投","lon":"121.46426","lat":"31.211376","category":"500","category_name":"未知分类","address":"上海永嘉路18号"},{"poiid":"B2094752D164A7FF409B","title":"My Wine Club","lon":"121.466421","lat":"31.211566","category":"247","category_name":"餐饮美食","address":"思南路107号"},{"poiid":"B2094757D16CA6FF4399","title":"小兔家","lon":"121.463524738","lat":"31.2136037458","category":"500","category_name":"未知分类","address":null},{"poiid":"B2094757D168A6F94699","title":"96路复兴中路瑞金二路站","lon":"121.465832","lat":"31.215042","category":"500","category_name":"未知分类","address":"上海复兴中路瑞金二路"},{"poiid":"B209475DDA6DA4F5459D","title":"静安嘉里中心","lon":"121.46331","lat":"31.212835","category":"248","category_name":"生活娱乐","address":"上海市 南京西路"},{"poiid":"B2094757D169A4FE499F","title":"橘日本料理","lon":"121.46720773","lat":"31.21381395","category":"500","category_name":"未知分类","address":"上海市卢湾区茂名南路思南公馆26E"},{"poiid":"B2094757D465A5FB4899","title":"ArtDeco咖啡厅","lon":"121.462689054","lat":"31.213735793","category":"65","category_name":"咖啡厅","address":"瑞金二路118号瑞金宾馆3号楼近复兴中路"},{"poiid":"B2094757D064A3F5499E","title":"恒康纯按摩","lon":"121.464145","lat":"31.212199","category":"148","category_name":"美容美发店","address":"上海卢湾区重庆南路205弄73号（近复兴中路）"},{"poiid":"B2094655D26FA5F84393","title":"全家便利店(瑞金店)","lon":"121.46586","lat":"31.21094","category":"117","category_name":"便民商店/便利店","address":"卢湾区瑞金二路388号"},{"poiid":"B2094751D464A7FC439E","title":"Brompton junction","lon":"121.463521","lat":"31.214405","category":"249","category_name":"购物服务","address":"复兴中路634号"},{"poiid":"B209475CD665A1F84393","title":"StayReal Cafe","lon":"121.463897","lat":"31.21491","category":"500","category_name":"未知分类","address":"上海市 徐汇区淮海中路999号"},{"poiid":"B2094757D164A4FB479F","title":"太仓路","lon":"121.466802","lat":"31.215426","category":"500","category_name":"未知分类","address":"上海市卢湾区"},{"poiid":"B2094752D36BA7FE4392","title":"秘鲁咖啡厅","lon":"121.46665","lat":"31.21498","category":"247","category_name":"餐饮美食","address":"徐汇区复兴中路559号(近思南路)"},{"poiid":"B2094654DB6BA5FB459B","title":"阳光四季公寓","lon":"121.465","lat":"31.2112","category":"47","category_name":"住宅区","address":"阳光四季公寓位于徐汇建国西路285-287号"},{"poiid":"B209475CD668A0F8419B","title":"瑞金宾馆","lon":"121.466003","lat":"31.2117","category":"217","category_name":"旅馆招待所","address":"上海市 瑞金南路复兴中路"},{"poiid":"B2094752D368A0FC4599","title":"瑞金医院","lon":"121.465827","lat":"31.215841","category":"162","category_name":"医院","address":null},{"poiid":"B2094757D06BA4F44892","title":"Vue","lon":"121.46687873","lat":"31.214891973","category":"249","category_name":"购物服务","address":"上海32/F Hyatt on the Bund"},{"poiid":"B2094757D169A6FE409F","title":"986车站","lon":"121.46477303","lat":"31.214648468","category":"251","category_name":"出行住宿","address":"上海瑞金二路复兴中路站(近星巴克瑞金店门口)"},{"poiid":"B2094757D16CA5FE499C","title":"罗森便利(瑞金大厦店)","lon":"121.46262395","lat":"31.21381414","category":"117","category_name":"便民商店/便利店","address":"上海茂名南路205-2号"},{"poiid":"B2094654DA6DABF9409F","title":"菩提晶品","lon":"121.4651","lat":"31.21524","category":"131","category_name":"珠宝首饰工艺品","address":"卢湾区瑞金二路95号(瑞金二路香山路)"},{"poiid":"B2094757D16AA7FA489B","title":"热气球热狗","lon":"121.464783538","lat":"31.2151800794","category":"500","category_name":"未知分类","address":"上海市卢湾区瑞金二路(近香山路)"},{"poiid":"B2094757D16CA2FA419D","title":"甜蜜蜜成山店","lon":"121.4656536","lat":"31.215224513","category":"500","category_name":"未知分类","address":"上海巴黎春天B1"},{"poiid":"B2094757D16FA3F9499B","title":"香山丽舍","lon":"121.46539","lat":"31.215477","category":"500","category_name":"未知分类","address":"上海香山路33号"},{"poiid":"B2094654DA6DABF94099","title":"尚扇阁保健会所","lon":"121.46507","lat":"31.21534","category":"149","category_name":"洗浴推拿场所","address":"瑞金二路87-89"},{"poiid":"B2094654DA6DABF94093","title":"皇家摄影","lon":"121.46633","lat":"31.21514","category":"248","category_name":"生活娱乐","address":"复兴中路532"},{"poiid":"B2094757D16CA1FE4198","title":"老刘野生大鱼坊","lon":"121.46256256","lat":"31.213943481","category":"247","category_name":"餐饮美食","address":"上海陕西南路117号二层"},{"poiid":"B2094757D16CABF5489E","title":"zigzag","lon":"121.46484977","lat":"31.215253647","category":"500","category_name":"未知分类","address":"天津曲折的人生啊！！！"},{"poiid":"B2094655D26CA4F9479C","title":"金谷邨","lon":"121.46588","lat":"31.2109","category":"47","category_name":"住宅区","address":"瑞金二路132弄1-83号"},{"poiid":"B2094757D16CA5FF459C","title":"瑞金医院6号楼移植病房","lon":"121.46684863","lat":"31.212071913","category":"500","category_name":"未知分类","address":"上海瑞金二路197号"},{"poiid":"B2094757D66CA6FE469F","title":"新城隍庙特色小吃","lon":"121.46646881","lat":"31.215858459","category":"247","category_name":"餐饮美食","address":"上海淮海中路816弄43号(近茂名路)"},{"poiid":"B2094655D265A1FF4292","title":"原法国总会(花园饭店裙房)","lon":"121.46257","lat":"31.21375","category":"250","category_name":"公园户外","address":"茂名南路58号"},{"poiid":"B2094757D064A3FE4992","title":"墨西哥餐厅","lon":"121.465162","lat":"31.21148","category":"500","category_name":"未知分类","address":"上海永嘉路13号"},{"poiid":"B2094654DB6AA1FC469E","title":"日立信息系统(上海)有限公司浦西办事处","lon":"121.4629","lat":"31.21385","category":"263","category_name":"公司","address":"茂名南路205号瑞金大厦1407B号1409室"},{"poiid":"B2094757D168A0FA4492","title":"圆梅按摩","lon":"121.46413523","lat":"31.215365983","category":"148","category_name":"美容美发店","address":"上海复兴中路614号"},{"poiid":"B2094753DA69A6FA4093","title":"贝克街211B主题coffee","lon":"121.464622","lat":"31.216066","category":"500","category_name":"未知分类","address":"上海市 瑞金二路50号"},{"poiid":"B2094757DA6FA3FA4993","title":"瑞金医院工会俱乐部","lon":"121.465839999998","lat":"31.2116879999998","category":"248","category_name":"生活娱乐","address":"卢湾区瑞金二路197号"},{"poiid":"B2094655D26FAAFE459F","title":"瑞金大厦(西一门)","lon":"121.46271","lat":"31.21369","category":"48","category_name":"楼宇大门","address":"茂名南路205"},{"poiid":"B2094757D569A3FD459F","title":"Nature & Beauty","lon":"121.46299","lat":"31.21246333","category":"249","category_name":"购物服务","address":"茂名南路18号南"},{"poiid":"B2094757D66AA0FF469E","title":"怡园酒庄 Grace Vineyard","lon":"121.464887054","lat":"31.216005793","category":"172","category_name":"酒吧","address":"卢湾区瑞金二路97号(近香山路)"},{"poiid":"B2094752D069A4F5489E","title":"上海高岛屋takashimaya","lon":"121.46646","lat":"31.211131","category":"500","category_name":"未知分类","address":null},{"poiid":"B2094757D16CA4FC449E","title":"JS'space","lon":"121.46574773","lat":"31.215871994","category":"500","category_name":"未知分类","address":"上海市卢湾区"},{"poiid":"B2094757D569A1FF4593","title":"春秋TORO&KOBE BEEF专门店","lon":"121.4673142","lat":"31.21503306","category":"249","category_name":"购物服务","address":"复兴中路549号"},{"poiid":"B2094654DA6DA6F54493","title":"上海血液学研究所","lon":"121.46653","lat":"31.2115","category":"191","category_name":"科研机构","address":"瑞金二路197号瑞金医院"},{"poiid":"B2094655D26CA1FD469C","title":"香山丽舍(南门)","lon":"121.46589","lat":"31.2152","category":"656","category_name":"大门","address":""},{"poiid":"B2094654DB64A7F44199","title":"上海佟华峰口腔诊所","lon":"121.46529","lat":"31.21577","category":"668","category_name":"诊所","address":"卢湾区香山路30号(近瑞金二路)"},{"poiid":"B2094654DA6DA6F54492","title":"上海市伤骨科研究所","lon":"121.46653","lat":"31.2115","category":"191","category_name":"科研机构","address":"瑞金二路197号瑞金医院"},{"poiid":"B2094757D568A0FA479E","title":"瑞金宾馆白玉兰厅","lon":"121.4629739","lat":"31.21274306","category":"251","category_name":"出行住宿","address":"瑞金二路118号(近复兴中路)"},{"poiid":"B2094655D26FA7FF429E","title":"香山丽舍(西门)","lon":"121.46569","lat":"31.21563","category":"656","category_name":"大门","address":"香山路33弄1-16号"},{"poiid":"B2094757D568A5FB4398","title":"Chicco Doro Cafe","lon":"121.4631719","lat":"31.21205241","category":"260","category_name":"其他","address":"卢湾区茂名南路207-5号(近淮海中路)"}]