[{"poiid":"B2094757DA69A1FE489F","title":"CGV星星国际影城大华店","lon":"121.41499960156","lat":"31.270713207243","category":"178","category_name":"电影院","address":"宝山区大华路348号大华虎城嘉年华C区3楼(近大华一路)"},{"poiid":"B2094757D068A7FA459A","title":"哈根达斯(大华店)","lon":"121.4155148","lat":"31.2692846963","category":"113","category_name":"冷饮店","address":"宝山区大华一路198号虎城嘉年华1楼101商铺(近大华路)"},{"poiid":"B2094757D06FA2FA459A","title":"避风塘(大华店)","lon":"121.41445695","lat":"31.27104908","category":"72","category_name":"广东菜","address":"宝山区大华路518号大华乐购1楼(近新沪路)"},{"poiid":"B2094757D068A1FC419E","title":"大华虎城嘉年华","lon":"121.41429685","lat":"31.269314846","category":"500","category_name":"未知分类","address":"上海大华路大华三路"},{"poiid":"B2094654D465A0FA449D","title":"必胜客(大华店)","lon":"121.414356","lat":"31.270786","category":"94","category_name":"西餐厅","address":"宝山区大华路518号乐购内(近大华二路)"},{"poiid":"B2094655D26AA6F9439B","title":"大地数字影院大华店","lon":"121.4143","lat":"31.27167","category":"178","category_name":"电影院","address":"宝山区大华路518号霓虹儿童广场乐购4楼(近大华二路)"},{"poiid":"B2094757D06FA1F84598","title":"巴黎春天(大华店)","lon":"121.41614195","lat":"31.269108042","category":"119","category_name":"商场","address":"上海市宝山区真华路"},{"poiid":"B2094655D26AA6FC439B","title":"乐购(大华店)","lon":"121.4143","lat":"31.27167","category":"118","category_name":"超级市场","address":"宝山区大华路518号霓虹儿童广场内(近大华二路)"},{"poiid":"B2094655D265A0F4459F","title":"大华虎城","lon":"121.41433","lat":"31.2719","category":"248","category_name":"生活娱乐","address":"大华路518号"},{"poiid":"B2094757D06BA3F9459B","title":"大阪烧肉","lon":"121.4152076","lat":"31.2697894559","category":"269","category_name":"烧烤","address":"宝山区大华路520号虎城嘉年华1楼108号(近大华一路)"},{"poiid":"B2094757D469A5F9439E","title":"悦蓉香锅牛蛙 大华路店","lon":"121.415031","lat":"31.27095","category":"71","category_name":"四川菜","address":"宝山区大华路518号乐购霓虹儿童广场内(近大华虎城嘉年华)"},{"poiid":"B2094757D06FA5FD489D","title":"卡通尼儿童乐园(虎城嘉年华店)","lon":"121.41346395","lat":"31.2701470628","category":"173","category_name":"游戏厅","address":"上海大华路520号虎城嘉年华b1楼(近大华一路)"},{"poiid":"B2094757D069A0F44393","title":"同济医院大华门诊部","lon":"121.4186","lat":"31.27222","category":"162","category_name":"医院","address":"上海宝山区新沪路950号(近大华二路)  "},{"poiid":"B2094750DB6BA3FD409B","title":"阿华炸猪排","lon":"121.41817","lat":"31.27186","category":"68","category_name":"快餐厅","address":"宝山区大华新沪路689号(近大华二路)"},{"poiid":"B2094757D06FA2F9499B","title":"万得城(大华店)","lon":"121.41481395","lat":"31.2714920885","category":"138","category_name":"家电电子卖场","address":"上海大华路318号"},{"poiid":"B2094757D069A0FA4298","title":"泉记澳门粥面庄","lon":"121.41536793","lat":"31.269166104","category":"72","category_name":"广东菜","address":"宝山区大华路352号大华虎城嘉年华C208室(近巴黎春天)"},{"poiid":"B2094757D068A3FD4092","title":"巴贝拉(大华店)","lon":"121.414095745","lat":"31.2709712905","category":"94","category_name":"西餐厅","address":"宝山区大华路518号霓虹儿童广场1-2楼(近大华二路)"},{"poiid":"B2094757D065AAF4419C","title":"宝寿司(大华店)","lon":"121.41522655","lat":"31.2691151431","category":"95","category_name":"日本料理","address":"宝山区大华路311号(大华一路口)"},{"poiid":"B2094757D068AAF44899","title":"味千拉面(大华店)","lon":"121.41366695","lat":"31.269908058","category":"95","category_name":"日本料理","address":"宝山区华灵路1051-1067号九百购物中心1楼(华灵路新沪路)"},{"poiid":"B2094757D06BA4FD489A","title":"禾绿回转寿司(大华虎城店)","lon":"121.41703345","lat":"31.269569051","category":"95","category_name":"日本料理","address":"宝山区大华路520号虎城嘉年华B1楼(近大华一路)"},{"poiid":"B2094654D465A7FF419C","title":"大华营业厅","lon":"121.41575","lat":"31.27281","category":"151","category_name":"电讯营业厅","address":"宝山区大华二路155号"},{"poiid":"B2094757D069A1FE4492","title":"棒约翰(嘉年华店)","lon":"121.41329095","lat":"31.270054061","category":"68","category_name":"快餐厅","address":"宝山区大华路520号虎城嘉年华内(近大华一路)"},{"poiid":"B2094757D06FA2F8409E","title":"嘉华苑","lon":"121.417413","lat":"31.267056","category":"47","category_name":"住宅区","address":"上海市宝山区新村路789弄"},{"poiid":"B2094752D364A1FC4898","title":"巴黎春天","lon":"121.4172","lat":"31.26569","category":"247","category_name":"餐饮美食","address":"宝山区新村路789弄"},{"poiid":"B2094757D06FAAFE469B","title":"吞云小莳","lon":"121.41351895","lat":"31.269916058","category":"91","category_name":"台湾菜","address":"宝山区大华路352号110室(大华一路大华虎城)"},{"poiid":"B2094757D06FA3FA4593","title":"中环花苑","lon":"121.41709","lat":"31.264887","category":"47","category_name":"住宅区","address":"上海新村路1288弄"},{"poiid":"B2094757D068A7F5469F","title":"肯德基 KFC (虎城店)","lon":"121.41503575","lat":"31.271640024","category":"68","category_name":"快餐厅","address":"宝山区大华路518号乐购内(近大华二路)"},{"poiid":"B2094757D16CA0FB4099","title":"吴越人家(虎城店)","lon":"121.41630695","lat":"31.2695680517","category":"68","category_name":"快餐厅","address":"宝山区大华路520号虎城嘉年华B1楼(近大华一路)"},{"poiid":"B209475CD26AA7F54999","title":"酒窝甜品","lon":"121.416755","lat":"31.269292","category":"247","category_name":"餐饮美食","address":"上海市 真华路928弄第三空间127号"},{"poiid":"B2094757D06BA2F54298","title":"禾禄寿司","lon":"121.41425995","lat":"31.2700460608","category":"247","category_name":"餐饮美食","address":"上海市宝山区大华路大华虎城"},{"poiid":"B2094654D465A0F9429C","title":"大华二村二街坊","lon":"121.4172","lat":"31.26993","category":"47","category_name":"住宅区","address":"大华路301弄"},{"poiid":"B2094757D06AA0F84698","title":"新招鲜本地鸡窝(大华店)","lon":"121.41443327","lat":"31.271919316","category":"86","category_name":"火锅店","address":"宝山区大华路538号澳洲广场1楼(近大华二路)"},{"poiid":"B2094753D769AAF4429D","title":"上海小南国(大华店)","lon":"121.413668","lat":"31.270103","category":"76","category_name":"上海菜","address":"上海市宝山区大华一路198号虎城嘉年华A栋3楼"},{"poiid":"B2094757D16EAAF94793","title":"大华三路","lon":"121.41721595","lat":"31.267552013","category":"500","category_name":"未知分类","address":"上海大华三路"},{"poiid":"B2094757D16CA1FB419E","title":"城隍庙特色小吃","lon":"121.417734","lat":"31.271498","category":"247","category_name":"餐饮美食","address":"上海大华二路689号"},{"poiid":"B2094655D26CA0FC4898","title":"新沪路197弄小区(北门)","lon":"121.41776","lat":"31.26865","category":"47","category_name":"住宅区","address":"新沪路197弄边门"},{"poiid":"B2094655D26FA6FA409D","title":"莫泰168连锁旅店(新村路店)","lon":"121.41461","lat":"31.26635","category":"216","category_name":"经济型连锁酒店","address":"宝山区新村路873号(近万里家乐福)"},{"poiid":"B209475CD46CA2F5489A","title":"海金滋","lon":"121.415306","lat":"31.269048","category":"247","category_name":"餐饮美食","address":"上海市 宝山真华路950号-129"},{"poiid":"B2094757D568A0FE409D","title":"嘉华小学","lon":"121.41631348","lat":"31.26887424","category":"56","category_name":"小学","address":"大华一路151"},{"poiid":"B2094757D068AAF8469B","title":"怡華苑","lon":"121.41967","lat":"31.272065","category":"47","category_name":"住宅区","address":"上海市宝山区怡华苑路188号"},{"poiid":"B2094655D36CA5FC4492","title":"大华一路新沪路","lon":"121.41838","lat":"31.26875","category":"38","category_name":"公交车站","address":""},{"poiid":"B2094655D26CA0F44599","title":"新沪路197弄小区","lon":"121.41769","lat":"31.26835","category":"47","category_name":"住宅区","address":"新沪路197弄边门"},{"poiid":"B2094757D169A2FB459F","title":"肯德基KFC万得城店","lon":"121.41547485","lat":"31.2691201432","category":"500","category_name":"未知分类","address":"上海大华路万得城1F"},{"poiid":"B209475CD56BA2FE4298","title":"糖纸甜品","lon":"121.419349","lat":"31.26868","category":"247","category_name":"餐饮美食","address":"上海市 乐购"},{"poiid":"B2094757D16AA2F94792","title":"吉祥馄饨","lon":"121.41095","lat":"31.2705","category":"68","category_name":"快餐厅","address":"宝山区真华路888号巴黎春天B1楼(近大华一路)"},{"poiid":"B2094757D065A2FF419B","title":"肯德基","lon":"121.41469895","lat":"31.271163082","category":"500","category_name":"未知分类","address":"上海市宝山区大华乐购店"},{"poiid":"B2094752D268ABF5489A","title":"小南國","lon":"121.413665","lat":"31.27001","category":"247","category_name":"餐饮美食","address":"大華一路"},{"poiid":"B2094655D36CA5FC459F","title":"大华路大华一路","lon":"121.41513","lat":"31.2701","category":"38","category_name":"公交车站","address":""},{"poiid":"B2094757D06FA4FF459B","title":"大华羽毛球馆","lon":"121.413992985","lat":"31.2711081854","category":"220","category_name":"运动场所","address":"上海宝山区大华路518号4楼(近大华二路)"},{"poiid":"B2094757D069A2FF4193","title":"起跃台球俱乐部","lon":"121.4181228","lat":"31.2655422","category":"171","category_name":"台球厅","address":"宝山区新村路681号颐正大厦B1楼(新村路新沪路)"},{"poiid":"B2094757D06BA2F84493","title":"大华虎城大阪烧肉","lon":"121.41568795","lat":"31.269645053","category":"500","category_name":"未知分类","address":"上海市宝山区真华路"},{"poiid":"B2094655D26AAAF9409A","title":"重庆家富富侨大华店","lon":"121.41895","lat":"31.26556","category":"149","category_name":"洗浴推拿场所","address":"宝山区新村路681号颐正大厦4楼(近新沪路)"},{"poiid":"B2094757D16CA1FA4792","title":"香汁源","lon":"121.41392395","lat":"31.2701180622","category":"71","category_name":"四川菜","address":"宝山区大华路352号虎城嘉年华B1楼(近大华一路)"},{"poiid":"B2094750D768A0FB429B","title":"爱茜茜里意大利手工冰淇淋(大华店)","lon":"121.415","lat":"31.2713","category":"113","category_name":"冷饮店","address":"宝山区大华路520号虎城嘉年华1楼第一食品内(近大华一路)"},{"poiid":"B2094757D069A5FF419B","title":"大华好乐迪","lon":"121.41647895","lat":"31.2674330109","category":"248","category_name":"生活娱乐","address":"上海真华路950号"},{"poiid":"B2094757D16DA4FB4098","title":"永和豆浆大华虎城店","lon":"121.4156774","lat":"31.269511175","category":"500","category_name":"未知分类","address":"宝山区大华路520号虎城嘉年华1楼(近大华一路)"},{"poiid":"B2094757D068A6FA469B","title":"爱乐游园地(大华店)","lon":"121.41559004","lat":"31.26872072","category":"173","category_name":"游戏厅","address":"宝山区真华路888号巴黎春天3楼(近大华一路)"},{"poiid":"B2094757D16DA0FF479B","title":"指福门","lon":"121.41752895","lat":"31.267495012","category":"500","category_name":"未知分类","address":"闸北区沪太路915-923号2楼(近广中西路)"},{"poiid":"B209475CD56AA5FE469F","title":"糖纸","lon":"121.414459","lat":"31.271009","category":"500","category_name":"未知分类","address":"上海市 大华路"},{"poiid":"B2094752D068A0FA4193","title":"衡山路","lon":"121.416941","lat":"31.26902","category":"500","category_name":"未知分类","address":null},{"poiid":"B2094757D16AA5FD489D","title":"池牛寿喜烧","lon":"121.41560895","lat":"31.268369028","category":"247","category_name":"餐饮美食","address":"上海宝山区大华路虎城嘉年华"},{"poiid":"B2094750D76FAAFE419D","title":"豫中园老城隍庙特色小吃(大华二路店)","lon":"121.418","lat":"31.2721","category":"68","category_name":"快餐厅","address":"宝山区大华二路689号(近新沪路)"},{"poiid":"B2094655D26AA5F5499E","title":"余记龙虾","lon":"121.41793","lat":"31.27209","category":"68","category_name":"快餐厅","address":"宝山区新沪路689号(近大华二路)"},{"poiid":"B209475CDA6CA0FE409C","title":"三花奶奶的甜品","lon":"121.41574","lat":"31.270814","category":"247","category_name":"餐饮美食","address":"上海市 真华路950号(近大华二路)"},{"poiid":"B2094757D16BA2FD439E","title":"鱼乐全火锅村","lon":"121.41648395","lat":"31.2674430111","category":"247","category_name":"餐饮美食","address":"上海沪太路1250号"},{"poiid":"B2094757D064ABF9429D","title":"万里双子座","lon":"121.414","lat":"31.2693","category":"252","category_name":"楼宇机构","address":"上海市普陀区富平路727弄"},{"poiid":"B2094752D164A2F9489A","title":"迪卡侬大华店","lon":"121.415541","lat":"31.270526","category":"249","category_name":"购物服务","address":"大华路518号（近大华三路）"},{"poiid":"B2094655D26AA0FD409C","title":"乐乐糖炒栗子","lon":"121.418867054","lat":"31.273742793","category":"68","category_name":"快餐厅","address":"宝山区新沪路689号(近大华二路)"},{"poiid":"B2094753D768A2FC4092","title":"星巴克（大华店）","lon":"121.415405","lat":"31.269388","category":"500","category_name":"未知分类","address":"上海市 大华虎城第三空间"},{"poiid":"B2094752D164A7F4439F","title":"小南国大华虎城","lon":"121.413877","lat":"31.270132","category":"247","category_name":"餐饮美食","address":"大华路"},{"poiid":"B2094757D66FA7FE419B","title":"总部一号","lon":"121.41754695","lat":"31.269753055","category":"500","category_name":"未知分类","address":"上海都会路2338号"},{"poiid":"B2094655D26CA0FC489F","title":"大华二村(东门)","lon":"121.41956","lat":"31.26947","category":"47","category_name":"住宅区","address":"新沪路405弄1-8号、345弄1-7号、475弄1-35号、285弄1-48号"},{"poiid":"B2094757D16CA2FD4998","title":"新亚大包(大华店)","lon":"121.41601","lat":"31.27202","category":"68","category_name":"快餐厅","address":"宝山区大华二路48-52号(近大华路)"},{"poiid":"B2094751D26AA0FB479A","title":"日月光广场","lon":"121.414825","lat":"31.269433","category":"500","category_name":"未知分类","address":"打浦桥"},{"poiid":"B2094757D065A1F8489F","title":"大壶春(大华虎城店)","lon":"121.41518831","lat":"31.269230811","category":"247","category_name":"餐饮美食","address":"上海大华路518号2楼"},{"poiid":"B209475CDB6BA3FD459B","title":"新巴莎","lon":"121.41835","lat":"31.268238","category":"249","category_name":"购物服务","address":"上海市 宝山区大华路318号"},{"poiid":"B2094655D26FA2F5499E","title":"真功夫 大华乐购店","lon":"121.414457054","lat":"31.271207793","category":"68","category_name":"快餐厅","address":"大华路518号乐购大华店内J-20S1-20A"},{"poiid":"B2094655D26DA5FC469F","title":"大华二村二街坊(南门)","lon":"121.41725","lat":"31.26899","category":"656","category_name":"大门","address":"大华路301弄边门"},{"poiid":"B2094757D16DA5FC4698","title":"大华虎城泉记粥面馆","lon":"121.41695495","lat":"31.2711840826","category":"247","category_name":"餐饮美食","address":"上海大华路虎城嘉年华"},{"poiid":"B209475DD26FA3F4439F","title":"Casa spicy","lon":"121.419334","lat":"31.269525","category":"500","category_name":"未知分类","address":"上海市 上海市宝山区大华路518号"},{"poiid":"B2094655D26DA5FD409C","title":"颐正大厦","lon":"121.41903","lat":"31.26562","category":"46","category_name":"楼宇","address":"上海普陀区新村路681号"},{"poiid":"B2094757D06BA1FC479D","title":"卓越美式幼儿园","lon":"121.417412","lat":"31.267054","category":"253","category_name":"校园生活","address":"上海市新村路789弄80号"},{"poiid":"B2094757D069A0F5409B","title":"豪大大台湾大鸡排 大华店","lon":"121.41738","lat":"31.27232","category":"68","category_name":"快餐厅","address":"宝山区大华路363号(近大华二路)"},{"poiid":"B2094757D165AAF44598","title":"宜芝多(大华店)","lon":"121.41338555","lat":"31.269228845","category":"112","category_name":"糕饼店","address":"宝山区大华一路198号虎城嘉年华1楼第一食品内(近大华路)"},{"poiid":"B2094757D168AAFB449D","title":"禾苑 大华店","lon":"121.415034054","lat":"31.269572793","category":"47","category_name":"住宅区","address":"宝山区大华路518号乐购1楼(近大华二路)"},{"poiid":"B2094757D06BA7FD429A","title":"面包新语(大华店)","lon":"121.414304","lat":"31.271675","category":"112","category_name":"糕饼店","address":"宝山区大华路518号乐购1楼(大华二路)"},{"poiid":"B2094757D66EA1FB479C","title":"买卖提红玫瑰","lon":"121.41728995","lat":"31.267484011","category":"500","category_name":"未知分类","address":"上海市普陀区新村路"},{"poiid":"B2094757D469A7F8489B","title":"克莉丝汀 新沪路店 Christine","lon":"121.419526054","lat":"31.271213793","category":"112","category_name":"糕饼店","address":"宝山区新沪路228号(近怡华苑路)"},{"poiid":"B2094752D26CA6FF459E","title":"鼎杰海鲜","lon":"121.42034","lat":"31.27043","category":"247","category_name":"餐饮美食","address":"宝山区新沪路250号(近南华苑路)"},{"poiid":"B2094757D16FA7FC489F","title":"Qbake","lon":"121.41354495","lat":"31.269985059","category":"67","category_name":"甜品店","address":"宝山区大华路520号虎城嘉年华1楼(近大华一路)"},{"poiid":"B2094654D465A0F9429D","title":"嘉华苑(后门)","lon":"121.41706","lat":"31.26869","category":"656","category_name":"大门","address":"新村路789弄后门"},{"poiid":"B2094757D064ABFE4693","title":"苹果花园(新沪路店)","lon":"121.418032","lat":"31.272124","category":"47","category_name":"住宅区","address":"宝山区新沪路689号(近大华二路)"},{"poiid":"B2094757D16DA2FF4098","title":"都可茶饮(大华乐购店)","lon":"121.41459595","lat":"31.2715690899","category":"113","category_name":"冷饮店","address":"宝山区真华路950号第一坊美食休闲广场内(近大华二路)"},{"poiid":"B2094757D16BABF4469B","title":"新村路灵石路","lon":"121.41748095","lat":"31.267460011","category":"500","category_name":"未知分类","address":"上海市"},{"poiid":"B2094757D16EA1F8499E","title":"大华澳州广场","lon":"121.41509","lat":"31.27106","category":"119","category_name":"商场","address":"宝山区大华路538号乐购旁(近大华二路)"},{"poiid":"B209475DD56DA3FE4299","title":"星巴克（大华店）","lon":"121.414718","lat":"31.270996","category":"247","category_name":"餐饮美食","address":"上海市 上海市宝山区大华二路"},{"poiid":"B2094757D064A2F8499D","title":"来伊份(大华二路店)","lon":"121.41649","lat":"31.27227","category":"68","category_name":"快餐厅","address":"宝山区大华二路127-129号(近新沪路)"},{"poiid":"B2094757D168A0FC4098","title":"上海农商银行普陀支行","lon":"121.41913195","lat":"31.2678610191","category":"150","category_name":"银行","address":"普陀区新村路599号"},{"poiid":"B2094757DA6BA0FE419F","title":"嘉年华大厦","lon":"121.417036","lat":"31.271068","category":"252","category_name":"楼宇机构","address":"古墩路与余杭塘路交汇处西南角(余杭塘路279号)"},{"poiid":"B2094655D36DA0FC479F","title":"新沪路","lon":"121.41851","lat":"31.27152","category":"38","category_name":"公交车站","address":""},{"poiid":"B2094750D76EABF54493","title":"谢记重庆麻辣烫(大华店)","lon":"121.416","lat":"31.2724","category":"68","category_name":"快餐厅","address":"宝山区大华二路28号(近大华路)"},{"poiid":"B2094757D065A0F44598","title":"原味坊(大华虎城店)","lon":"121.41444095","lat":"31.269661053","category":"500","category_name":"未知分类","address":"上海宝山区大华路520号大华虎城嘉年华店一层"},{"poiid":"B2094757D064AAF84199","title":"anaKiN:CHOCOO's homE","lon":"121.4152657","lat":"31.2691626","category":"500","category_name":"未知分类","address":null},{"poiid":"B2094757D16BA0FB439E","title":"名巢靓家","lon":"121.41582745","lat":"31.270099421","category":"500","category_name":"未知分类","address":"上海大华虎城b1层"},{"poiid":"B2094654D465A0FB409C","title":"光明便利No.195","lon":"121.41854","lat":"31.27129","category":"117","category_name":"便民商店/便利店","address":"新沪路689-1临"},{"poiid":"B2094655D26AA6FB429A","title":"莉莲蛋挞 大华乐购店 Lillian Cake Shop","lon":"121.414521054","lat":"31.271922793","category":"247","category_name":"餐饮美食","address":"宝山区大华路518号乐购门口(近大华二路)"},{"poiid":"B2094757D16BABF8479A","title":"华氏大药房","lon":"121.41942995","lat":"31.2703850673","category":"162","category_name":"医院","address":"上海市宝山区南华苑路115号"},{"poiid":"B2094757D465A5F4419B","title":"重庆鸡公煲 虎城店","lon":"121.414599054","lat":"31.271505793","category":"71","category_name":"四川菜","address":"宝山区大华路518号乐购内(近大华二路)"},{"poiid":"B2094757D065A7FB4098","title":"112终点站","lon":"121.418548584","lat":"31.2707176208","category":"500","category_name":"未知分类","address":"上海大华路大华二路"},{"poiid":"B2094750D268A7FE449A","title":"陈记煲仔饭","lon":"121.41782999039","lat":"31.271838593938","category":"72","category_name":"广东菜","address":"宝山区新沪路689号(近大华二路)"},{"poiid":"B209475DD26EAAFA439B","title":"鱼酷","lon":"121.413825","lat":"31.270086","category":"500","category_name":"未知分类","address":"上海市 宝山区大华二路"},{"poiid":"B2094757D468A6F5409E","title":"必胜宅急送 大华店 Pizza Hut","lon":"121.41441693605","lat":"31.271743441954","category":"98","category_name":"意式菜品餐厅","address":"宝山区大华路518号(近大华二路)"},{"poiid":"B2094655D26FA2F4409B","title":"文峰美容美发(新沪路店)","lon":"121.41972","lat":"31.27069","category":"148","category_name":"美容美发店","address":"宝山区新沪路443号(近大华二路)"},{"poiid":"B2094654D465A0F4409A","title":"久华商务楼","lon":"121.42033","lat":"31.2704","category":"46","category_name":"楼宇","address":"新沪路250"},{"poiid":"B2094750D665A2F4409E","title":"万得城咖啡厅(大华店)","lon":"121.415","lat":"31.2696","category":"260","category_name":"其他","address":"宝山区大华路318号万得城电器3楼(近大华一路)"},{"poiid":"B2094655D269ABF9489F","title":"爱婴室澳洲广场店","lon":"121.4143","lat":"31.27167","category":"247","category_name":"餐饮美食","address":"宝山区大华路518号澳洲广场1楼(近大华二路)"},{"poiid":"B2094654D465A0F94292","title":"延旺车饰","lon":"121.41927","lat":"31.26826","category":"159","category_name":"汽车维修","address":"新沪路95-99"},{"poiid":"B2094757D16FA2FE4292","title":"麻辣天椒","lon":"121.41396795","lat":"31.269963059","category":"247","category_name":"餐饮美食","address":"上海大华路352号大华虎城"},{"poiid":"B2094654D465A7FE409F","title":"陈陈美容美发","lon":"121.41941","lat":"31.27104","category":"148","category_name":"美容美发店","address":"新沪路864"},{"poiid":"B2094757D16CA0FC489F","title":"银座","lon":"121.41508325","lat":"31.2721209005","category":"500","category_name":"未知分类","address":"上海银座位于普陀江宁路1078号"},{"poiid":"B2094757D069A3F54992","title":"大桶大足浴(广泉路店)","lon":"121.41599","lat":"31.26503","category":"149","category_name":"洗浴推拿场所","address":"上海普陀区广泉路220-224号(近新村路)"},{"poiid":"B2094757D16EA1FC4793","title":"万里派出所","lon":"121.416650398","lat":"31.2659143819","category":"609","category_name":"警察局","address":"上海新村路1299号"},{"poiid":"B2094654D465A7FD4893","title":"荣悦香蔓丽儿养生SPA生活馆","lon":"121.41862","lat":"31.27166","category":"148","category_name":"美容美发店","address":"新沪路912识别"},{"poiid":"B2094654D465A0FB4198","title":"中国建设银行上海大华支行","lon":"121.41948","lat":"31.27073","category":"150","category_name":"银行","address":"宝山区新沪路451号(南华苑路新沪路)"},{"poiid":"B2094751D26DA1F54398","title":"红灯笼小吃街","lon":"121.42012","lat":"31.271041","category":"111","category_name":"休闲餐饮场所","address":"宝山区新沪路689号"},{"poiid":"B2094757D06AABFF489D","title":"爱茜茜里大华虎城","lon":"121.414319","lat":"31.271903","category":"500","category_name":"未知分类","address":"上海宝山区大华虎城内"},{"poiid":"B2094757D16BAAFC4192","title":"新村路双山路869车站","lon":"121.41744315","lat":"31.2655048741","category":"38","category_name":"公交车站","address":"上海新村路双山路"},{"poiid":"B2094654DB6AA3F44398","title":"克丽缇娜特许柏翼美容院NO.09259","lon":"121.4198","lat":"31.27095","category":"148","category_name":"美容美发店","address":"宝山区新沪路830号"},{"poiid":"B2094757D068AAF5409B","title":"新沪路55弄","lon":"121.4191897","lat":"31.2674662","category":"500","category_name":"未知分类","address":"上海市宝山区新沪路55弄"},{"poiid":"B2094757D16FA7FD439A","title":"川味麻辣烫","lon":"121.418022","lat":"31.271916","category":"247","category_name":"餐饮美食","address":"上海市宝山区新沪路689号"},{"poiid":"B2094654DB64A6F84299","title":"上海俊辰儿童健康调理中心（大华店）","lon":"121.413989","lat":"31.27111","category":"128","category_name":"儿童用品店","address":"宝山区大华路518号(近大华二路)"},{"poiid":"B2094654DB6AABF44399","title":"馨华苑(二号门)","lon":"121.41735","lat":"31.27259","category":"47","category_name":"住宅区","address":"新沪路1059弄"},{"poiid":"B2094655D36CA7F44999","title":"广泉路新村路","lon":"121.41557","lat":"31.26522","category":"38","category_name":"公交车站","address":""},{"poiid":"B2094654D465A0FA439D","title":"上海千万里音乐茶室","lon":"121.4152","lat":"31.26622","category":"170","category_name":"KTV","address":"新村路869之3-4"},{"poiid":"B2094752D364A3F94893","title":"过桥缘(大华乐购店)","lon":"121.41429","lat":"31.27166","category":"68","category_name":"快餐厅","address":"宝山区大华路518号乐购左侧(近大华二路)"},{"poiid":"B2094654D465A0FA459F","title":"永乐生活电器大华店","lon":"121.41431","lat":"31.27167","category":"138","category_name":"家电电子卖场","address":"宝山区大华路518号霓虹儿童广场内(近大华二路)"},{"poiid":"B209475CD768A2F54392","title":"滴水湖","lon":"121.420303","lat":"31.271286","category":"500","category_name":"未知分类","address":"上海市 上海临港滴水湖"},{"poiid":"B2094655D36DA1F44693","title":"香泉路","lon":"121.4143","lat":"31.26624","category":"38","category_name":"公交车站","address":""},{"poiid":"B2094757D16AA3F9489C","title":"迈博健身(品尊店)","lon":"121.41481985","lat":"31.2713882865","category":"220","category_name":"运动场所","address":"上海普陀区 铜川路 58弄 26号"},{"poiid":"B2094655D26CA0F8499B","title":"光明便利No.568","lon":"121.41657","lat":"31.26547","category":"117","category_name":"便民商店/便利店","address":"新村路1292"},{"poiid":"B2094654D465A7FF4292","title":"中国移动大华营业厅","lon":"121.41638","lat":"31.27275","category":"151","category_name":"电讯营业厅","address":"大华二路119-121"},{"poiid":"B2094757D16FA4FC4698","title":"兰州拉面王","lon":"121.41764095","lat":"31.272329104","category":"247","category_name":"餐饮美食","address":"上海市宝山区真华路"},{"poiid":"B2094654D465A0FA429E","title":"上海市龙华中医医院集团普陀医院","lon":"121.41381","lat":"31.26667","category":"162","category_name":"医院","address":"新村路1317号"},{"poiid":"B2094757D66EABF44093","title":"百音琴行","lon":"121.41344795","lat":"31.269836056","category":"249","category_name":"购物服务","address":"宝山区大华路352号虎城嘉年华C301室(近大华一路)"},{"poiid":"B2094757D66DA5F54293","title":"东方先锋剧场","lon":"121.41832505","lat":"31.2728419142","category":"180","category_name":"剧场","address":"北京东城区东单三条8-2号东方广场东侧"},{"poiid":"B2094757D065AAFA4093","title":"幻蝶谷","lon":"121.41920995","lat":"31.2710610802","category":"500","category_name":"未知分类","address":"上海新沪路大华二路"},{"poiid":"B2094654D465A0FB4999","title":"伍缘折扣No.0163","lon":"121.42076","lat":"31.2703","category":"117","category_name":"便民商店/便利店","address":"南华苑路139-141"},{"poiid":"B2094655D264A5F4499E","title":"周鲁网吧","lon":"121.41982","lat":"31.27052","category":"176","category_name":"网吧","address":"宝山区新沪路431号(近怡华苑路)"},{"poiid":"B2094757D16CAAF5429E","title":"艺流美容美发(大华店)","lon":"121.41664","lat":"31.27243","category":"148","category_name":"美容美发店","address":"宝山区大华二路165号(近大华路)"},{"poiid":"B2094654DB6AABFB4398","title":"快客(大华二路)","lon":"121.41558","lat":"31.27247","category":"117","category_name":"便民商店/便利店","address":"大华二路40识别"},{"poiid":"B2094655D26FA1FA4592","title":"新沪路960弄小区","lon":"121.41884","lat":"31.27265","category":"47","category_name":"住宅区","address":"新沪路960弄150-189号"},{"poiid":"B2094757D16FAAFA4192","title":"池牛日本料理","lon":"121.41994095","lat":"31.267353009","category":"500","category_name":"未知分类","address":"上海大华虎城"},{"poiid":"B2094655D265A1FC4293","title":"喜士多便利(大华店)","lon":"121.4163","lat":"31.27277","category":"117","category_name":"便民商店/便利店","address":"大华二路125号"},{"poiid":"B2094757D164A4FB4099","title":"俊逸汽车用品公司","lon":"121.418091","lat":"31.27169","category":"500","category_name":"未知分类","address":"上海新沪路689号"},{"poiid":"B2094757D069A7FC429D","title":"第一食品(大华店)","lon":"121.416211","lat":"31.272552","category":"500","category_name":"未知分类","address":"上海宝山区大华路520号大华虎城嘉年华店一层"},{"poiid":"B2094654D465A0FB419C","title":"上海宋敏口腔诊所","lon":"121.419","lat":"31.27079","category":"668","category_name":"诊所","address":"新沪路459识别"},{"poiid":"B2094654D465A0FA4699","title":"上海百川药房","lon":"121.41516","lat":"31.27251","category":"162","category_name":"医院","address":"宝山区大华二路64-68号(近大华路)"},{"poiid":"B2094757D468ABF5479F","title":"京都拉面 大华店","lon":"121.414389","lat":"31.271996","category":"247","category_name":"餐饮美食","address":"大华路538号澳洲广场近大华二路"},{"poiid":"B2094757D165AAFA479E","title":"大华二路","lon":"121.416424","lat":"31.272371","category":"500","category_name":"未知分类","address":"上海大华二村301弄"},{"poiid":"B2094757D165A2FD429D","title":"克丽缇娜(大华店)","lon":"121.419804","lat":"31.270953","category":"148","category_name":"美容美发店","address":"上海新沪路830号"},{"poiid":"B2094757D06BA6FC449F","title":"古树咖啡 新村路店","lon":"121.41247","lat":"31.26823","category":"260","category_name":"其他","address":"普陀区新村路1531号(近真华路)"},{"poiid":"B2094757D068A4F54193","title":"池牛寿喜烧专门店","lon":"121.41358395","lat":"31.2700383607","category":"500","category_name":"未知分类","address":"上海大华嘉年华广场2F"},{"poiid":"B2094753D36CAAFB4093","title":"甲可宠美甲(大华二路店)","lon":"121.41641","lat":"31.27275","category":"148","category_name":"美容美发店","address":"大华二路117号"},{"poiid":"B2094654DB6AABFB4293","title":"新华书店","lon":"121.41432","lat":"31.2719","category":"125","category_name":"书店","address":"大华路518号乐购购物中心3层"},{"poiid":"B2094757D165A5F8409F","title":"browhaus","lon":"121.41353995","lat":"31.2700670612","category":"500","category_name":"未知分类","address":"上海大华虎城嘉年华"},{"poiid":"B2094655D26CA0FC489B","title":"久华佳苑(东门)","lon":"121.41912","lat":"31.26767","category":"656","category_name":"大门","address":"新沪路55弄"},{"poiid":"B2094757DA6EA4FE409C","title":"睿思教育(大华培训点)","lon":"121.414396999999","lat":"31.2710499999998","category":"253","category_name":"校园生活","address":"普陀区大华路518号霓虹儿童广场2楼D1-2"},{"poiid":"B2094654DB6AABF4409E","title":"新沪路960弄小区(西门)","lon":"121.41835","lat":"31.27283","category":"47","category_name":"住宅区","address":"新沪路960弄150-189号"},{"poiid":"B2094757D464A0F8469F","title":"伊诺咖啡 新村路店","lon":"121.41892","lat":"31.26552","category":"260","category_name":"其他","address":"宝山区新村路681号颐正大厦3楼(近新沪路)"},{"poiid":"B2094654D465A0F9419E","title":"上海青岛啤酒华东销售有限公司","lon":"121.41917","lat":"31.26645","category":"263","category_name":"公司","address":"新沪路2号"},{"poiid":"B2094655D26CA0FE4193","title":"中国建设银行(广泉路)","lon":"121.41587","lat":"31.26557","category":"150","category_name":"银行","address":""},{"poiid":"B2094751D569A1FF449A","title":"乐高活动中心（大华店）","lon":"121.413651","lat":"31.269974","category":"248","category_name":"生活娱乐","address":"大华路518号虎城嘉年华B108室"},{"poiid":"B2094655D26CA0F4459F","title":"久华佳苑(西门)","lon":"121.41998","lat":"31.26936","category":"656","category_name":"大门","address":"新沪路198弄1-29号"},{"poiid":"B2094757D064A4F4449A","title":"西奧冊老額被窩","lon":"121.42064371","lat":"31.267654667","category":"500","category_name":"未知分类","address":"上海被子裏"},{"poiid":"B2094655D26CA0F44598","title":"水韵华庭(西门)","lon":"121.41929","lat":"31.26745","category":"656","category_name":"大门","address":"新沪路58弄"},{"poiid":"B2094757D66EA1F84692","title":"舟山路菜场","lon":"121.41531995","lat":"31.271784094","category":"500","category_name":"未知分类","address":"上海舟山路"},{"poiid":"B2094757D16CABFC4492","title":"艾美美甲","lon":"121.414752","lat":"31.271666221","category":"148","category_name":"美容美发店","address":"宝山区大华二路223号(近乐购)"},{"poiid":"B2094654D465A0F9479B","title":"亿唐装潢设计","lon":"121.41613","lat":"31.2661","category":"248","category_name":"生活娱乐","address":"新村路837号"},{"poiid":"B2094757D064A1FF489C","title":"中国移动营业厅(大华二路店)","lon":"121.416387","lat":"31.272755","category":"150","category_name":"银行","address":"上海市大华二路119号"},{"poiid":"B2094751DA6DA7FD409F","title":"田子坊","lon":"121.4155791","lat":"31.2723456","category":"500","category_name":"未知分类","address":null},{"poiid":"B2094757D168AAF8459C","title":"小徐家。","lon":"121.415695","lat":"31.2658381","category":"500","category_name":"未知分类","address":null},{"poiid":"B2094757DA6EA6FF489E","title":"昂立教育(大华校区)","lon":"121.418031999998","lat":"31.272124","category":"248","category_name":"生活娱乐","address":"宝山区新沪路689号"},{"poiid":"B2094654D465A0F94699","title":"陈国民口腔诊所","lon":"121.41674","lat":"31.26597","category":"668","category_name":"诊所","address":"普陀区新村路813号(近大华路)"},{"poiid":"B2094654D465A7FF439E","title":"雅文宠物大华店","lon":"121.41675","lat":"31.27264","category":"129","category_name":"宠物用品店","address":"大华二路101号"},{"poiid":"B2094655D26DABF8479B","title":"嘉华苑(东门)","lon":"121.41883","lat":"31.26717","category":"656","category_name":"大门","address":"新村路789弄"},{"poiid":"B2094654D465A0F44093","title":"日本杰士达摩托","lon":"121.42059","lat":"31.27069","category":"159","category_name":"汽车维修","address":"宝山区南华苑路164号(近怡华苑路)"},{"poiid":"B2094654DB6AABFB439E","title":"大华二村二街坊(北门)","lon":"121.41642","lat":"31.27236","category":"656","category_name":"大门","address":"大华路455弄、837弄、301弄"},{"poiid":"B2094654D465A0FA439A","title":"上海银铉电子有限公司","lon":"121.41454","lat":"31.26636","category":"263","category_name":"公司","address":"新村路877号"},{"poiid":"B2094757D16EA2F44699","title":"107香泉路","lon":"121.415724","lat":"31.265251","category":"500","category_name":"未知分类","address":"上海香泉路"},{"poiid":"B2094757D164A7FA4699","title":"P&amp;S","lon":"121.41509725","lat":"31.2721246005","category":"500","category_name":"未知分类","address":null},{"poiid":"B2094654D465A0F9439C","title":"太平洋房屋万里店","lon":"121.41822","lat":"31.26572","category":"248","category_name":"生活娱乐","address":"新村路747"},{"poiid":"B2094757D56EA6FC479D","title":"达芙妮-大华乐购店","lon":"121.414304","lat":"31.271675","category":"249","category_name":"购物服务","address":"大华路518号"},{"poiid":"B2094757D569A3FD449D","title":"新雅粤菜馆食品连锁新村路店","lon":"121.4182514","lat":"31.26547278","category":"249","category_name":"购物服务","address":"普陀区新村路1038号(新村路新沪路)"},{"poiid":"B2094757D064AAFD4599","title":"日出茶太","lon":"121.4163416","lat":"31.2727390112","category":"500","category_name":"未知分类","address":"上海市宝山区大华二路113号"},{"poiid":"B2094654DB6AABF4409F","title":"怡华苑(西门)","lon":"121.41862","lat":"31.27177","category":"656","category_name":"大门","address":"怡华苑路188弄边门"},{"poiid":"B2094757D568A6F5479F","title":"Kappa大华店","lon":"121.4143289","lat":"31.27190194","category":"249","category_name":"购物服务","address":"宝山区大华路518号乐购旁滔博运动城内(近大华二路)"},{"poiid":"B2094757D16BA7F9449B","title":"78公交车","lon":"121.418223","lat":"31.271985","category":"260","category_name":"其他","address":"上海新沪路车站"},{"poiid":"B2094655D26DA4FF419B","title":"嘉华苑(南门)","lon":"121.41725","lat":"31.26588","category":"656","category_name":"大门","address":"新村路789弄"},{"poiid":"B2094654D465A0FB4998","title":"久华佳苑(北门)","lon":"121.42093","lat":"31.27027","category":"656","category_name":"大门","address":"新沪路198弄1-29"},{"poiid":"B2094655D265A3FB499F","title":"中环花苑(北门)","lon":"121.41665","lat":"31.26544","category":"656","category_name":"大门","address":""}]