[{"poiid":"B2094757D66FA6FA479F","title":"穹六人间","lon":"121.45227","lat":"31.205613","category":"260","category_name":"其他","address":"徐汇区岳阳路150号(近永嘉路)"},{"poiid":"B2094757D66EA5FA419F","title":"FOUNT BAR","lon":"121.451112586","lat":"31.2060839588","category":"260","category_name":"其他","address":"徐汇区永嘉路570号永嘉庭5号楼1楼511号(近岳阳路)"},{"poiid":"B2094757D06FA0FB429C","title":"苏浙汇(华泰大厦店)","lon":"121.450408","lat":"31.202926","category":"76","category_name":"上海菜","address":"徐汇区肇嘉浜路388号华泰大厦1-2楼(近襄阳南路)"},{"poiid":"B2094753D76FAAFA449C","title":"上海滩国泰旗舰店","lon":"121.466011","lat":"31.216125","category":"249","category_name":"购物服务","address":"淮海中路868号"},{"poiid":"B209475CD564A7F84292","title":"上海滩新天地店","lon":"121.47463","lat":"31.22164","category":"119","category_name":"商场","address":"\"太仓路181弄新天地北里15号\r\n\""},{"poiid":"B209475CD564A7F8439E","title":"上海滩中信泰富店","lon":"121.45602","lat":"31.22851","category":"119","category_name":"商场","address":"\"南京西路1168号中信泰富广场，店铺号221.\r\n\""},{"poiid":"B2094757D06FA6FE4998","title":"南伶酒家","lon":"121.45245","lat":"31.20485","category":"74","category_name":"江苏菜","address":"徐汇区岳阳路168号(近永嘉路)"},{"poiid":"B2094757D06FA1F94893","title":"the roof","lon":"121.45089155","lat":"31.205618961","category":"172","category_name":"酒吧","address":"徐汇区永嘉路570号永嘉庭5号楼4楼(近岳阳路)"},{"poiid":"B2094757D068ABF5409B","title":"Brown Stone","lon":"121.45122991","lat":"31.206031697","category":"172","category_name":"酒吧","address":"上海永嘉路57０号"},{"poiid":"B2094655D265A2FA4098","title":"永嘉庭","lon":"121.45142","lat":"31.20608","category":"46","category_name":"楼宇","address":"永嘉路570"},{"poiid":"B2094757D06FA5F44792","title":"Voce Cafe","lon":"121.45129679","lat":"31.206693725","category":"260","category_name":"其他","address":"上海徐汇区永嘉路566号(近岳阳路)"},{"poiid":"B2094757D06AA3FC4293","title":"中科院","lon":"121.453551","lat":"31.201298","category":"500","category_name":"未知分类","address":"上海岳阳路319号"},{"poiid":"B2094654DA6DABFC439A","title":"好望角大饭店","lon":"121.45418","lat":"31.20133","category":"76","category_name":"上海菜","address":"徐汇区肇嘉浜路500号好望角大饭店3楼(岳阳路口)"},{"poiid":"B2094654DB6AA7FB479E","title":"罗斯福顶级牛排馆","lon":"121.45432","lat":"31.20603","category":"94","category_name":"西餐厅","address":"徐汇区太原路160号太原别墅瑞金宾馆内(近永嘉路)"},{"poiid":"B2094757D66BA1FC489A","title":"御席公馆","lon":"121.450101","lat":"31.202679","category":"97","category_name":"法式菜品餐厅","address":"徐汇区建国西路568号(近建国西路)"},{"poiid":"B2094654DA6DABFC409A","title":"中国科学院上海生命科学研究院(中科大厦西)","lon":"121.45243","lat":"31.20132","category":"191","category_name":"科研机构","address":"徐汇区岳阳路320号"},{"poiid":"B2094757D06FA5F94093","title":"建科大厦","lon":"121.452","lat":"31.2018","category":"46","category_name":"楼宇","address":"上海徐汇区宛平南路75号"},{"poiid":"B2094757D068A0F8499F","title":"印度小厨(永嘉店)","lon":"121.45119","lat":"31.20528","category":"102","category_name":"印度风味","address":"徐汇区永嘉路570号永嘉庭1号楼4楼(近岳阳路)"},{"poiid":"B2094757D068A7FE499C","title":"上海五洲国际大厦","lon":"121.454","lat":"31.2043","category":"46","category_name":"楼宇","address":"徐汇区肇嘉浜路807号"},{"poiid":"B2094750D16BA4FD449E","title":"板烧王","lon":"121.454582","lat":"31.20439","category":"247","category_name":"餐饮美食","address":"卢湾区徐家汇路618号日月光中心广场B2楼台湾美食馆BT20-23室(近瑞金二路)"},{"poiid":"B2094757D068AAFB439D","title":"湘鄂情","lon":"121.45401","lat":"31.20091","category":"77","category_name":"湖南菜","address":"徐汇区肇嘉浜路500号好望角大酒店裙楼(岳阳路口)"},{"poiid":"B2094750DA68A4F44298","title":"vita bistro bar","lon":"121.450485","lat":"31.205255","category":"247","category_name":"餐饮美食","address":"徐汇区永嘉路557号花园内(近乌鲁木齐南路)"},{"poiid":"B2094654DA6DA6FC459A","title":"坤阳国际商务广场","lon":"121.452","lat":"31.2047","category":"46","category_name":"楼宇","address":"卫清西路139_149号等"},{"poiid":"B2094655D36CA0F94999","title":"建国西路","lon":"121.45565","lat":"31.20408","category":"38","category_name":"公交车站","address":"建国西路354弄"},{"poiid":"B2094750D665A2FE4299","title":"比萨马上诺(永嘉庭)","lon":"121.451","lat":"31.2057","category":"94","category_name":"西餐厅","address":"徐汇区永嘉路570号111单元(近岳阳路)"},{"poiid":"B2094654DA6DABFD4199","title":"伊泰利大厦","lon":"121.4552612","lat":"31.20184326","category":"46","category_name":"楼宇","address":"伊泰利大厦位于徐汇肇嘉浜路446弄"},{"poiid":"B2094654DB6BA5FA4799","title":"欧江大厦","lon":"121.453","lat":"31.2052","category":"46","category_name":"楼宇","address":"徐汇区肇嘉浜路768号"},{"poiid":"B2094757D16CAAF8489F","title":"中国科学院上海分院","lon":"121.45382308","lat":"31.203554409","category":"671","category_name":"高校中心点","address":"上海岳阳路319号"},{"poiid":"B2094757D065A3FF4092","title":"Brownstone","lon":"121.451477","lat":"31.205856","category":"260","category_name":"其他","address":"徐汇区永嘉路570号永嘉庭311单元(近岳阳路)"},{"poiid":"B2094654DA6DA7F54099","title":"怡甸大厦","lon":"121.453118","lat":"31.204807","category":"46","category_name":"楼宇","address":"上海市静安区南京西路555号"},{"poiid":"B2094750D165A2F54499","title":"韩国首尔SUM STUDIO","lon":"121.454948","lat":"31.203849","category":"248","category_name":"生活娱乐","address":"徐汇区建国西路379号(近岳阳路)"},{"poiid":"B2094757D16EA3FB4999","title":"Dione Hair &amp; Make up salon","lon":"121.45089235","lat":"31.205527972","category":"500","category_name":"未知分类","address":"上海永嘉路570号"},{"poiid":"B2094757D66EA6F5409F","title":"永嘉路","lon":"121.45019258","lat":"31.205445946","category":"500","category_name":"未知分类","address":"上海市徐汇区淮海中路"},{"poiid":"B2094654DA6DA4F5449F","title":"建襄小学","lon":"121.45315","lat":"31.20332","category":"56","category_name":"小学","address":"徐汇区岳阳路255号(近建国西路)"},{"poiid":"B2094757D065A3F9489F","title":"地铁1号线 常熟路站","lon":"121.451627586","lat":"31.2051945414","category":"500","category_name":"未知分类","address":"上海常熟路"},{"poiid":"B2094757D069A5F44799","title":"Lola Club","lon":"121.455173279","lat":"31.2044100305","category":"500","category_name":"未知分类","address":"上海永嘉路570号"},{"poiid":"B2094757D068A0F8469E","title":"龙头大厦","lon":"121.454","lat":"31.205","category":"46","category_name":"楼宇","address":"徐汇区肇嘉浜路736号(近高安路)"},{"poiid":"B2094757D568A6F84793","title":"菁英会","lon":"121.45333","lat":"31.203039","category":"257","category_name":"中餐厅","address":"徐汇区岳阳路265号1-2楼(近建国西路)"},{"poiid":"B2094757D069A6FB4192","title":"The Chalet","lon":"121.45457","lat":"31.20623","category":"500","category_name":"未知分类","address":"上海徐汇区永嘉路385弄(近太原路)  "},{"poiid":"B2094757D06AA5F9419C","title":"公安部第三研究所","lon":"121.45197862","lat":"31.206925644","category":"500","category_name":"未知分类","address":"上海市徐汇区岳阳路76号"},{"poiid":"B2094654DA6DA4F54192","title":"岳阳大楼","lon":"121.45306","lat":"31.203739","category":"47","category_name":"住宅区","address":"岳阳路221号"},{"poiid":"B2094750DA6AAAFC479F","title":"奈良本寿司","lon":"121.45543","lat":"31.20401","category":"95","category_name":"日本料理","address":"徐汇区永嘉路557号"},{"poiid":"B2094757D465A4F8439B","title":"Salley Garden","lon":"121.452781","lat":"31.206169","category":"260","category_name":"其他","address":"徐汇区永嘉路480号(近岳阳路)"},{"poiid":"B2094654DA6DA7F5479B","title":"锦都大厦","lon":"121.452","lat":"31.2059","category":"46","category_name":"楼宇","address":"闸北区江场西路38号(近共和新路)"},{"poiid":"B2094757D068A5FC4399","title":"倾城宝贝儿童摄影","lon":"121.452685","lat":"31.206144","category":"500","category_name":"未知分类","address":"卢湾区瑞金二路24号甲(淮海中路口)"},{"poiid":"B2094655D36DA0F4409D","title":"永嘉路岳阳路","lon":"121.45166","lat":"31.20582","category":"38","category_name":"公交车站","address":""},{"poiid":"B2094757D169A3F5479F","title":"家得利超市 建国西路","lon":"121.453067","lat":"31.203739","category":"118","category_name":"超级市场","address":"上海岳阳路221号"},{"poiid":"B2094654DA6DA4F5419B","title":"懿园","lon":"121.45071","lat":"31.203472","category":"47","category_name":"住宅区","address":"建国西路506弄1-57号"},{"poiid":"B2094757D469A5F84893","title":"明晨阳光","lon":"121.4497731","lat":"31.2015067","category":"94","category_name":"西餐厅","address":"徐汇区乌鲁木齐南路302号1号(近建国路)"},{"poiid":"B2094750D665A4FA469C","title":"江南小厨","lon":"121.453","lat":"31.2047","category":"76","category_name":"上海菜","address":"徐汇区岳阳路(近桃江路)"},{"poiid":"B2094654DB64A7F44599","title":"上海中国画院(岳阳路)","lon":"121.45272","lat":"31.20451","category":"252","category_name":"楼宇机构","address":"岳阳路197"},{"poiid":"B2094753D26EA4FF4199","title":"苏浙汇（徐汇店）","lon":"121.452499","lat":"31.20381","category":"500","category_name":"未知分类","address":"上海市 肇家浜路"},{"poiid":"B2094654DA6DA4F5419E","title":"华仁大厦","lon":"121.45298","lat":"31.204636","category":"47","category_name":"住宅区","address":"卢湾区复兴中路369号(马当路口)"},{"poiid":"B2094757D16FA2FE4392","title":"建国西路太原路","lon":"121.45368718","lat":"31.20413607","category":"500","category_name":"未知分类","address":"上海..."},{"poiid":"B2094654DA6DA4F5419C","title":"岳阳公寓(西门)","lon":"121.45281","lat":"31.20424","category":"47","category_name":"住宅区","address":"岳阳路217"},{"poiid":"B2094655D36CA0F94892","title":"建国西路岳阳路","lon":"121.45119","lat":"31.20304","category":"38","category_name":"公交车站","address":""},{"poiid":"B2094757D46FA0F44098","title":"Mature","lon":"121.45147","lat":"31.20585","category":"95","category_name":"日本料理","address":"徐汇区永嘉路570号永嘉庭1号楼2楼(近岳阳路)"},{"poiid":"B2094750D268A6FE429F","title":"人间穹六 People Six","lon":"121.452213054","lat":"31.205317793","category":"257","category_name":"中餐厅","address":"岳阳路150号近永嘉路西南角"},{"poiid":"B2094757D16DA6F9489B","title":"岳阳路建国西路49路车站","lon":"121.452063","lat":"31.203263","category":"500","category_name":"未知分类","address":"上海岳阳路建国西路"},{"poiid":"B2094752D06EA4FA419A","title":"蘇浙會","lon":"121.452504","lat":"31.20555","category":"247","category_name":"餐饮美食","address":"上海市 徐家匯 肇家浜路388號"},{"poiid":"B2094654DA6DA7F4429A","title":"金钟大厦","lon":"121.455","lat":"31.2058","category":"46","category_name":"楼宇","address":"沈河北中街123号"},{"poiid":"B2094757D568ABFA4692","title":"中科院地下食堂","lon":"121.453315","lat":"31.20148806","category":"68","category_name":"快餐厅","address":"徐汇区岳阳路319号中科大厦B1楼(近好望角大饭店)"},{"poiid":"B2094757D16CA6F9479E","title":"波特曼建业里","lon":"121.452095679","lat":"31.2036315021","category":"500","category_name":"未知分类","address":"上海建国西路岳阳路"},{"poiid":"B209475CD36BA5F9419B","title":"Stubb's Bar-B-Q","lon":"121.45051","lat":"31.202875","category":"269","category_name":"烧烤","address":"建国西路550号近乌鲁木齐南路"},{"poiid":"B2094654DA6DA4F5459A","title":"捷安特电动车服务中心(建国西路)","lon":"121.45214","lat":"31.20312","category":"133","category_name":"自行车专卖店","address":"建国西路441"},{"poiid":"B2094757D06FAAF84898","title":"永嘉庭创意园区","lon":"121.451179","lat":"31.205706","category":"260","category_name":"其他","address":"上海永嘉路570号"},{"poiid":"B2094654DA6DA4F54198","title":"科普弄(西门)","lon":"121.45261","lat":"31.20482","category":"47","category_name":"住宅区","address":"岳阳路195弄1-23号"},{"poiid":"B2094654DB65A6F54793","title":"兆丰帝景苑","lon":"121.45056","lat":"31.202584","category":"47","category_name":"住宅区","address":"上海市徐汇区肇嘉浜路1001号"},{"poiid":"B2094757D16BABFA4192","title":"实验厨房","lon":"121.45334278","lat":"31.204016418","category":"249","category_name":"购物服务","address":"上海肇嘉浜路500号"},{"poiid":"B2094757DA69A3F9429C","title":"Dione_Hair丽玺儿造型","lon":"121.45147","lat":"31.20585","category":"148","category_name":"美容美发店","address":"永嘉路570号永嘉庭1号楼3楼（近岳阳路）"},{"poiid":"B2094757D16DA4FD439A","title":"中国科学院上海生命科学研究院营养科学研究所","lon":"121.45531463","lat":"31.203165054","category":"46","category_name":"楼宇","address":"上海太原路294号"},{"poiid":"B2094757D06BA5FF4592","title":"文广培训中心","lon":"121.454450738","lat":"31.2040847431","category":"249","category_name":"购物服务","address":"上海岳阳路44号"},{"poiid":"B2094757D66CA7FE469E","title":"永嘉别墅","lon":"121.45004958","lat":"31.20516194","category":"47","category_name":"住宅区","address":"徐汇区永嘉路(近乌鲁木齐南路)查看地图"},{"poiid":"B2094654DA6DA4F54598","title":"东方科学仪器上海进出口有限公司","lon":"121.45206","lat":"31.2031","category":"263","category_name":"公司","address":"建国西路445之1-3识别"},{"poiid":"B2094654DA6DA4FB499B","title":"宜家百货","lon":"121.45066","lat":"31.2055","category":"117","category_name":"便民商店/便利店","address":""},{"poiid":"B2094757D66BA6F9429E","title":"半岛餐厅","lon":"121.45344535807","lat":"31.200745118072","category":"268","category_name":"自助","address":"徐汇区肇嘉浜路500号好望角大酒店3楼(岳阳路口)"},{"poiid":"B2094757D568ABFC409D","title":"中科院营养所食堂","lon":"121.455795","lat":"31.20277889","category":"68","category_name":"快餐厅","address":"徐汇区太原路294号(肇嘉浜路口)"},{"poiid":"B2094654DA6DABFC419E","title":"研究生电子阅览室","lon":"121.45332","lat":"31.20149","category":"181","category_name":"图书馆","address":"肇嘉浜路500"},{"poiid":"B2094655D26EA3FB4698","title":"人间","lon":"121.45223","lat":"31.20579","category":"172","category_name":"酒吧","address":"岳阳路150"},{"poiid":"B2094654DA6DA4F5459E","title":"中国科学院上海生物化学研究所","lon":"121.45166","lat":"31.20295","category":"191","category_name":"科研机构","address":"建国西路481"},{"poiid":"B2094654DA6DA4F5469B","title":"曹天钦·谢希德旧居","lon":"121.4508","lat":"31.20254","category":"243","category_name":"纪念馆","address":"徐汇区建国西路581弄1～6号"},{"poiid":"B2094757D16AA2F54399","title":"瑞金宾馆太原别墅中餐厅","lon":"121.45543","lat":"31.20554","category":"76","category_name":"上海菜","address":"杨浦区靖宇南路16号(靖宇南路永吉路)"},{"poiid":"B209475DD665A1F8469E","title":"大不同会馆","lon":"121.45259","lat":"31.204801","category":"248","category_name":"生活娱乐","address":"上海市 上海市徐汇区岳阳路200弄2号"},{"poiid":"B2094654DB6BA5F44792","title":"福禄邨","lon":"121.45494","lat":"31.20418","category":"47","category_name":"住宅区","address":"建国西路384弄1-44号"},{"poiid":"B2094654DA6DA4FB479E","title":"麒荣轩","lon":"121.45316","lat":"31.20609","category":"76","category_name":"上海菜","address":"徐汇区永嘉路(岳阳路口)"},{"poiid":"B2094750D76EA1F44392","title":"无名生煎","lon":"121.456","lat":"31.204","category":"68","category_name":"快餐厅","address":"徐汇区太原路236号(近建国西路)"},{"poiid":"B2094655D36CA3F8499D","title":"建国西路581弄小区","lon":"121.45096","lat":"31.20238","category":"47","category_name":"住宅区","address":"建国西路581弄1-6号"},{"poiid":"B2094757D468A4FF4293","title":"绝口老弄堂爆鱼","lon":"121.44996","lat":"31.20511","category":"68","category_name":"快餐厅","address":"徐汇区永嘉路573弄4号(近乌鲁木齐南路)"},{"poiid":"B209475DDB6CA1FB4792","title":"Wk Hawayi Cafe","lon":"121.455711","lat":"31.203805","category":"247","category_name":"餐饮美食","address":"上海市 永嘉路570号1号楼2楼(近岳阳路)"},{"poiid":"B2094750D26CA3FC489E","title":"寿司奈良本 永嘉路店","lon":"121.450485","lat":"31.205222","category":"95","category_name":"日本料理","address":"永嘉路557号近岳阳路"},{"poiid":"B2094654DA6DA4F5469E","title":"巴洛克宫廷","lon":"121.45051","lat":"31.202066","category":"47","category_name":"住宅区","address":"巴洛克宫廷位于徐汇建国西路585号"},{"poiid":"B2094655D26BA2FA4392","title":"太原路建国西路","lon":"121.4558","lat":"31.2034","category":"38","category_name":"公交车站","address":""},{"poiid":"B2094655D265ABF4439B","title":"建国西路581弄小区(北门)","lon":"121.45061","lat":"31.20263","category":"47","category_name":"住宅区","address":"建国西路581弄1-6号"},{"poiid":"B209475CD16CA3FD419B","title":"VITA Bistro & Bar","lon":"121.45048","lat":"31.20522","category":"65","category_name":"咖啡厅","address":"永嘉路557号花园内(近乌鲁木齐南路)"},{"poiid":"B2094757D069A6FE489A","title":"43路肇嘉浜路枫林路站","lon":"121.45452117","lat":"31.200782775","category":"38","category_name":"公交车站","address":"上海肇嘉浜路枫林路"},{"poiid":"B2094757DA65A3FF4499","title":"中山医院","lon":"121.45237118","lat":"31.20069962","category":"162","category_name":"医院","address":"徐汇区小木桥路"},{"poiid":"B2094757DB6CA4F8449A","title":"五角场","lon":"121.454996","lat":"31.202246","category":"500","category_name":"未知分类","address":"五角场"},{"poiid":"B2094757D66EA0F94892","title":"西点军校","lon":"121.45094958","lat":"31.203537909","category":"500","category_name":"未知分类","address":"上海市徐汇区建国西路506弄3号底楼"},{"poiid":"B2094654DB64AAFF4692","title":"James Cohan Gallery","lon":"121.45173","lat":"31.20522","category":"263","category_name":"公司","address":"岳阳路170弄1号楼1层"},{"poiid":"B2094757D469A1F9489C","title":"雷焰烧烤","lon":"121.454735054","lat":"31.200505793","category":"68","category_name":"快餐厅","address":"徐汇区肇嘉浜路567号(近枫林路)"},{"poiid":"B209475DDA68A2F4449A","title":"OTTIMO欧迪姆生蚝酒吧餐厅","lon":"121.455673","lat":"31.203741","category":"247","category_name":"餐饮美食","address":"徐汇区永嘉路570号1号楼4楼（永嘉庭）"},{"poiid":"B2094655D26BA0F5439D","title":"岳阳花苑","lon":"121.451","lat":"31.205034","category":"47","category_name":"住宅区","address":"岳阳路170弄5-6"},{"poiid":"B2094751D26FA2F8449A","title":"saffron India","lon":"121.453102","lat":"31.206451","category":"247","category_name":"餐饮美食","address":"桃江路"},{"poiid":"B209475CDA6EABFA409A","title":"fount胡歌家的餐厅","lon":"121.450866","lat":"31.205974","category":"500","category_name":"未知分类","address":"上海市 上海市徐汇区永嘉路570永嘉庭fount胡歌家的餐厅"},{"poiid":"B2094757D16CA3FA499A","title":"INFERNO","lon":"121.453552","lat":"31.206577","category":"260","category_name":"其他","address":"徐汇区永嘉路480号弄内(近太原路)"},{"poiid":"B2094654DA6DA4FB479F","title":"好德便利No.436","lon":"121.45243","lat":"31.20587","category":"117","category_name":"便民商店/便利店","address":"岳阳路145-1识别"},{"poiid":"B2094757D66DA0F44399","title":"太原路","lon":"121.45356958","lat":"31.206214961","category":"500","category_name":"未知分类","address":"上海市徐汇区衡山路"},{"poiid":"B2094757D66DA1FC489F","title":"肇嘉浜路枫林路公交站","lon":"121.45454458","lat":"31.201014859","category":"38","category_name":"公交车站","address":"上海肇嘉浜路枫林路"},{"poiid":"B2094753D56AA3F44492","title":"外滩18号","lon":"121.450614","lat":"31.205938","category":"500","category_name":"未知分类","address":"上海市 南京东路外滩18号"},{"poiid":"B2094654DB69A7F94198","title":"泓园","lon":"121.45057","lat":"31.20175","category":"47","category_name":"住宅区","address":"乌鲁木齐南路167号"},{"poiid":"B2094757D16FA1FE419F","title":"肇嘉浜路东安路公交站","lon":"121.45301988","lat":"31.200472649","category":"38","category_name":"公交车站","address":"上海肇嘉浜路东安路公交站"},{"poiid":"B2094655D36CA3F84992","title":"岳阳花苑(北门)","lon":"121.45102","lat":"31.20525","category":"47","category_name":"住宅区","address":"岳阳路170弄5-6"},{"poiid":"B2094750D26CA3FE459F","title":"好望角大饭店 宴会厅","lon":"121.453479054","lat":"31.200733793","category":"76","category_name":"上海菜","address":"肇嘉浜路500号好望角大饭店5楼近岳阳路"},{"poiid":"B2094757D16DA4F5499C","title":"笛芸摄影","lon":"121.453665919","lat":"31.2054546132","category":"500","category_name":"未知分类","address":"上海永嘉路502号"},{"poiid":"B2094654DA6DA4FB499A","title":"宜家饮食店","lon":"121.45073","lat":"31.20553","category":"257","category_name":"中餐厅","address":""},{"poiid":"B2094654DA6DA4F5419A","title":"伯爵会所","lon":"121.45062","lat":"31.20293","category":"248","category_name":"生活娱乐","address":"建国西路518"},{"poiid":"B2094655D36DA7FE439B","title":"肇嘉浜路枫林路","lon":"121.45451","lat":"31.20078","category":"38","category_name":"公交车站","address":""},{"poiid":"B2094757D06BA6F8449B","title":"EF英孚教育青少儿英语(太原路中心)","lon":"121.45518","lat":"31.20556","category":"190","category_name":"培训机构","address":"上海徐汇区太原路167号(近永嘉路)"},{"poiid":"B2094654DA6DA4FB4493","title":"夏氏琉璃艺术陈列馆","lon":"121.45204","lat":"31.2063","category":"183","category_name":"展览馆","address":"岳阳路118识别"},{"poiid":"B2094654DA6DA6F84892","title":"嘉善菜场","lon":"121.45581","lat":"31.20457","category":"117","category_name":"便民商店/便利店","address":"上海建国西路太原路"},{"poiid":"B2094655D26FA5FE4999","title":"永嘉新村","lon":"121.45029","lat":"31.205946","category":"47","category_name":"住宅区","address":"永嘉路580弄1-110号"},{"poiid":"B2094654DA6DAAFF409D","title":"枫林大楼","lon":"121.45303","lat":"31.200081","category":"47","category_name":"住宅区","address":"肇嘉浜路661-665"},{"poiid":"B2094757D164A4F9449A","title":"丰裕步高里","lon":"121.454967","lat":"31.204038","category":"500","category_name":"未知分类","address":"上海陕西南路建国路口"},{"poiid":"B2094655D264A2F8449A","title":"567餐厅","lon":"121.45516","lat":"31.20084","category":"76","category_name":"上海菜","address":"徐汇区肇嘉浜路567号(近张生记)"},{"poiid":"B209475DD368A7F9489A","title":"Fount日本料理","lon":"121.45552","lat":"31.204257","category":"500","category_name":"未知分类","address":"上海市 上海市徐汇区永嘉路570号"},{"poiid":"B209475DD265A1F94092","title":"W1 seafood and  raw bar","lon":"121.452552","lat":"31.206693","category":"500","category_name":"未知分类","address":"上海市 乌鲁木齐路甲1号"},{"poiid":"B2094654DA6DA4FB489A","title":"诺易画廊","lon":"121.45227","lat":"31.20561","category":"252","category_name":"楼宇机构","address":"徐汇区岳阳路150号"},{"poiid":"B2094655D26CA1FE449B","title":"思齐新邨","lon":"121.45278","lat":"31.20615","category":"47","category_name":"住宅区","address":"永嘉路500弄1-4号"},{"poiid":"B2094655D264A6F44992","title":"David'sHouse","lon":"121.45604","lat":"31.2043","category":"247","category_name":"餐饮美食","address":"建国西路355弄9号"},{"poiid":"B2094757D064A6FC429F","title":"中山医院门诊放射科","lon":"121.453616286","lat":"31.2001022419","category":"162","category_name":"医院","address":"上海枫林路180号中山医院门诊C3楼"},{"poiid":"B2094757D66FA7FE4499","title":"阿蒂米斯生活馆","lon":"121.45477573","lat":"31.205016763","category":"500","category_name":"未知分类","address":"上海市徐汇区永嘉路"},{"poiid":"B2094757D06BA5FB449B","title":"浦发银行(徐汇支行营业部)","lon":"121.45011","lat":"31.20175","category":"500","category_name":"未知分类","address":"徐汇区建国西路589号(建国西路乌鲁木齐南路)"},{"poiid":"B2094654DA6DA4F54992","title":"上海教育超市生科院店","lon":"121.45275","lat":"31.20064","category":"118","category_name":"超级市场","address":"徐汇区肇嘉浜路524号(近岳阳路)"},{"poiid":"B2094757D16DA2FE409D","title":"Fulton Place","lon":"121.45544433","lat":"31.203554153","category":"500","category_name":"未知分类","address":"永嘉路570号1楼近岳阳路"},{"poiid":"B2094655D264ABF44892","title":"宁远商务中心","lon":"121.45036","lat":"31.201","category":"46","category_name":"楼宇","address":"乌鲁木齐南路183弄1-5号"},{"poiid":"B2094757D06BA2FA479A","title":"Keep dancing studio","lon":"121.450496586","lat":"31.2020168793","category":"500","category_name":"未知分类","address":"上海乌鲁木齐南路183弄1号106室"},{"poiid":"B2094654DA6DA4FB4999","title":"永嘉新村(南门)","lon":"121.45058","lat":"31.20548","category":"47","category_name":"住宅区","address":"永嘉路580弄1-110号"},{"poiid":"B2094753DB6EA2F8429E","title":"上海瑞金宾馆太原别墅","lon":"121.455098","lat":"31.206012","category":"214","category_name":"四星级宾馆","address":"上海徐汇区太原路160号"},{"poiid":"B209475DD364A3FC4098","title":"Spice Bazaar香料集市新疆餐厅","lon":"121.453224","lat":"31.206869","category":"500","category_name":"未知分类","address":"上海市 上海市东平路29号(近乌鲁木齐南路)"},{"poiid":"B2094757D168A4FD489A","title":"徐汇机关建国幼儿园","lon":"121.450145","lat":"31.202716","category":"500","category_name":"未知分类","address":"上海建国西路570号"},{"poiid":"B2094655D26FA7F5409B","title":"泓园(边门)","lon":"121.44995","lat":"31.20175","category":"47","category_name":"住宅区","address":""},{"poiid":"B2094654DA6DABFC4198","title":"中国科学院上海科技查新咨询中心","lon":"121.45333","lat":"31.20148","category":"191","category_name":"科研机构","address":"肇嘉浜路500"},{"poiid":"B2094655D268A5F9409F","title":"永嘉大楼","lon":"121.44942","lat":"31.20455","category":"47","category_name":"住宅区","address":"永嘉路589号"},{"poiid":"B2094757D16EABF9459B","title":"YPASH野皮仕牛仔鞋吧","lon":"121.44975","lat":"31.20423","category":"141","category_name":"服装鞋帽皮具店","address":"徐汇区乌鲁木齐路117号(近永嘉路)"},{"poiid":"B2094751D264A5F84299","title":"Noeli Gallery 诺易画廊","lon":"121.452231","lat":"31.205838","category":"248","category_name":"生活娱乐","address":"岳阳路150号"},{"poiid":"B209475DDA6DA4F54493","title":"静安嘉里中心","lon":"121.456344","lat":"31.202396","category":"249","category_name":"购物服务","address":"上海市 南京西路"},{"poiid":"B2094757D66FA0FE499A","title":"徐汇区机关建国幼儿园","lon":"121.450093586","lat":"31.2044389267","category":"500","category_name":"未知分类","address":"上海市徐汇区高安路"},{"poiid":"B2094757D065A4FE429F","title":"乌鲁木齐南路建国西路","lon":"121.449592607","lat":"31.2020666515","category":"260","category_name":"其他","address":"上海乌鲁木齐南路建国西路"},{"poiid":"B2094655D268A1FA4192","title":"茂林村","lon":"121.45289","lat":"31.20684","category":"47","category_name":"住宅区","address":"岳阳路79弄1-30号"},{"poiid":"B2094654DB6AA7F94892","title":"中国科学院神经科学研究所","lon":"121.45166","lat":"31.20568","category":"191","category_name":"科研机构","address":"岳阳路"},{"poiid":"B2094757D064A4FA4698","title":"上海电信科学技术第一研究所","lon":"121.45495773","lat":"31.200534667","category":"500","category_name":"未知分类","address":"上海市徐汇区平江路48号"},{"poiid":"B2094655D265A2FA489C","title":"金碧公寓(东门)","lon":"121.44937","lat":"31.2024","category":"47","category_name":"住宅区","address":"乌鲁木齐南路228"},{"poiid":"B2094757D66CA3F8449D","title":"东安十五号","lon":"121.450632586","lat":"31.2008028556","category":"247","category_name":"餐饮美食","address":"上海市东安路15号"},{"poiid":"B2094655D26CA4FA4593","title":"永嘉大楼（北门）","lon":"121.44942","lat":"31.20478","category":"47","category_name":"住宅区","address":"永嘉路589"},{"poiid":"B2094757D069A6FA4198","title":"LE SALON","lon":"121.451422","lat":"31.206076","category":"500","category_name":"未知分类","address":"上海永嘉路570号3号楼332室"},{"poiid":"B2094757D66EA7FA469A","title":"205路肇家浜路枫林路站","lon":"121.45374658","lat":"31.200872857","category":"500","category_name":"未知分类","address":"上海市徐汇区乌鲁木齐南路"},{"poiid":"B2094655D26CA4FA469A","title":"茂林村（西门）","lon":"121.4523","lat":"31.20688","category":"47","category_name":"住宅区","address":"岳阳路79弄1-30号"},{"poiid":"B2094654DA6DA7FA449C","title":"上海市徐汇区工商业联合会","lon":"121.4494","lat":"31.20233","category":"250","category_name":"公园户外","address":"乌鲁木齐南路228"},{"poiid":"B2094655D264A1F4429E","title":"四九八原创生活馆","lon":"121.45291","lat":"31.2062","category":"208","category_name":"休闲场所","address":"永嘉路498号"},{"poiid":"B2094757D16DA4FD4299","title":"Deli &amp; Bakery","lon":"121.454571004","lat":"31.2059960303","category":"500","category_name":"未知分类","address":"上海汾阳路150号"},{"poiid":"B2094655D268A0F9469C","title":"天平派出所","lon":"121.45378","lat":"31.2067","category":"609","category_name":"警察局","address":"永嘉路460"},{"poiid":"B2094654DA6DABFC4693","title":"上海复旦枫林科技园有限公司","lon":"121.45526","lat":"31.20184","category":"263","category_name":"公司","address":"肇嘉浜路446弄1号伊泰利大厦2201-2204"},{"poiid":"B2094757D16BA6F8429B","title":"公安部三所","lon":"121.45135658","lat":"31.206380964","category":"263","category_name":"公司","address":"上海岳阳路76号"},{"poiid":"B2094654DA6DA4F54698","title":"上海浦东发展银行徐汇支行","lon":"121.44984","lat":"31.20201","category":"150","category_name":"银行","address":"建国西路589号"},{"poiid":"B2094654DA6DA7FA449E","title":"上海市徐汇区社会主义学院","lon":"121.4494","lat":"31.20233","category":"253","category_name":"校园生活","address":"乌鲁木齐南路228"},{"poiid":"B2094757D16FA1FE4699","title":"Disney英语","lon":"121.45318158","lat":"31.200509849","category":"253","category_name":"校园生活","address":"上海市徐汇区辛耕路"},{"poiid":"B2094753DB69A7FC429F","title":"WINE connoisseur","lon":"121.45156","lat":"31.206535","category":"500","category_name":"未知分类","address":"上海市 上海市乌鲁木齐中路1号近美领馆"},{"poiid":"B2094757D065A0FF4999","title":"翡翠(Jade)","lon":"121.45301018","lat":"31.200472649","category":"500","category_name":"未知分类","address":"上海Aya家"},{"poiid":"B2094757D16EA2FB439C","title":"上海市徐汇区岳阳路77弄","lon":"121.45034358","lat":"31.205920955","category":"500","category_name":"未知分类","address":"上海市徐汇区岳阳路77弄"},{"poiid":"B2094757D168A6F44693","title":"曼都佳人(乌鲁木齐旗舰店)","lon":"121.44983","lat":"31.20151","category":"249","category_name":"购物服务","address":"徐汇区乌鲁木齐南路288号(建国西路口)"},{"poiid":"B2094655D26FA4F5449E","title":"太原邸(西门)","lon":"121.45594","lat":"31.20331","category":"48","category_name":"楼宇大门","address":"太原路289弄"},{"poiid":"B2094757D165A3F54093","title":"Indian Kitchen","lon":"121.45044258","lat":"31.200691853","category":"500","category_name":"未知分类","address":"上海徐汇区永嘉路572号4楼"},{"poiid":"B209475CD76DA3FF449D","title":"上海锦辉艺术传播有限公司","lon":"121.451995","lat":"31.206991","category":"263","category_name":"公司","address":"上海市 徐汇区岳阳路58号"},{"poiid":"B2094757D56CAAF44192","title":"绿色阳台Lounge","lon":"121.451864054","lat":"31.206546793","category":"260","category_name":"其他","address":"徐汇区岳阳路58号3楼(近永嘉路)"},{"poiid":"B2094757D168ABF9449B","title":"威廉上海储存点","lon":"121.45144358","lat":"31.200242844","category":"500","category_name":"未知分类","address":"上海市高安路"},{"poiid":"B2094757D16FABFD4393","title":"龙韵轩棋牌室","lon":"121.44971058","lat":"31.201997878","category":"248","category_name":"生活娱乐","address":"上海大木桥路89号"},{"poiid":"B2094655D26FAAFD4999","title":"伊泰利大厦(南一门)","lon":"121.4551","lat":"31.2015","category":"656","category_name":"大门","address":"肇嘉浜路446弄1-2号"},{"poiid":"B2094655D268A4FA449F","title":"巴洛克宫廷(北门)","lon":"121.45014","lat":"31.20229","category":"656","category_name":"大门","address":"建国西路585"},{"poiid":"B2094750D56EA5FA439A","title":"友茶小筑","lon":"121.453163","lat":"31.206401","category":"260","category_name":"其他","address":"徐汇区永嘉路495弄1号(近岳阳路)"},{"poiid":"B2094752D16EA6F9459A","title":"美罗城广场","lon":"121.456307","lat":"31.204314","category":"248","category_name":"生活娱乐","address":null},{"poiid":"B2094655D26FAAFD499C","title":"伊泰利大厦(南二门)","lon":"121.45563","lat":"31.2017","category":"656","category_name":"大门","address":"肇嘉浜路446弄1-2号"},{"poiid":"B2094655D265ABFF4892","title":"巴洛克宫廷(西门)","lon":"121.44987","lat":"31.2018","category":"656","category_name":"大门","address":"天平路"}]