[{"poiid":"B2094655D26CAAF5489D","title":"华东政法大学(长宁校区)","lon":"121.41857","lat":"31.22386","category":"52","category_name":"高等院校","address":"长宁区万航渡路1575号(近华阳路)"},{"poiid":"B2094654D565A5FA4492","title":"中山公园","lon":"121.42031","lat":"31.22094","category":"196","category_name":"公园","address":"长宁区长宁路780号(近定西路)"},{"poiid":"B2094757D06FA3FB4493","title":"七叶和茶(长宁龙之梦店)","lon":"121.419709786","lat":"31.2243757165","category":"95","category_name":"日本料理","address":"长宁区长宁路1018号龙之梦购物中心7楼红中庭7207-7208号铺(近凯旋路)"},{"poiid":"B2094757D06FA2FC429D","title":"哈根达斯(长宁龙之梦店)","lon":"121.41237158","lat":"31.224131311","category":"113","category_name":"冷饮店","address":"长宁区长宁路1018号龙之梦购物中心1楼(近凯旋路)"},{"poiid":"B2094654D565A3F54799","title":"华东政法大学(光复西路)","lon":"121.41802","lat":"31.22741","category":"52","category_name":"高等院校","address":"上海市万航渡路1575号（长宁校区）"},{"poiid":"B2094757D06FA1FC4499","title":"华东政法大学韬奋楼","lon":"121.41784668","lat":"31.2257709503","category":"253","category_name":"校园生活","address":"上海市万航渡路1575号"},{"poiid":"B2094757D16EA2FB449C","title":"和民","lon":"121.41677758","lat":"31.219816227","category":"500","category_name":"未知分类","address":"上海市长宁区龙之梦"},{"poiid":"B2094655D26FA6F44993","title":"贝多芬广场","lon":"121.421","lat":"31.2241","category":"46","category_name":"楼宇","address":"长宁区长宁路1200号贝多芬广场内(近轻轨中山公园站)"},{"poiid":"B2094654DB69ABF44693","title":"威尔士健身会所(中山公园店)","lon":"121.41631","lat":"31.22008","category":"221","category_name":"健身中心","address":"长宁区汇川路88号凯欣豪园内(近中山公园地铁站7号出口)"},{"poiid":"B2094757D06FA7FF4398","title":"大华清水湾","lon":"121.413771564","lat":"31.2280468271","category":"47","category_name":"住宅区","address":"上海市普陀区凯旋北路1555弄"},{"poiid":"B2094757D66BA3F84999","title":"三月咖啡馆 SIMBA COFFEE","lon":"121.421185054","lat":"31.224780793","category":"260","category_name":"其他","address":"长宁区万航渡路1384弄12号湖丝栈创意园区1号楼2楼(近华阳路)"},{"poiid":"B2094757D06FA2FF4499","title":"魔厨卡利 Master Curry","lon":"121.415567054","lat":"31.218161793","category":"94","category_name":"西餐厅","address":"长宁路1018号龙之梦购物中心6楼近凯旋路"},{"poiid":"B2094655D26DABFD499E","title":"华东政法大学研究生部","lon":"121.41802","lat":"31.22741","category":"52","category_name":"高等院校","address":""},{"poiid":"B2094757D569A2FC4292","title":"樱膳日本料理","lon":"121.416282","lat":"31.21997","category":"95","category_name":"日本料理","address":"长宁区汇川路446号(近凯旋路)"},{"poiid":"B2094757D06FA2FC449C","title":"i.t(龙之梦店)","lon":"121.41329058","lat":"31.223194293","category":"141","category_name":"服装鞋帽皮具店","address":"长宁区长宁路1018号龙之梦购物中心2楼2201号铺(近凯旋路)"},{"poiid":"B2094757D06FA1FF4493","title":"蛋蛋屋 龙之梦二店 Dan bo fun","lon":"121.415567054","lat":"31.218161793","category":"68","category_name":"快餐厅","address":"长宁路1018号龙之梦购物中心1楼近凯旋路"},{"poiid":"B2094654D56BA0FF439C","title":"虹桥国际大厦","lon":"121.414","lat":"31.2228","category":"46","category_name":"楼宇","address":"上海市长宁区长宁路1551号"},{"poiid":"B2094757D068A0F9469A","title":"华东政法大学东风楼","lon":"121.41823577","lat":"31.224239349","category":"253","category_name":"校园生活","address":"上海万航渡路1575号"},{"poiid":"B2094655D26DA1FC409F","title":"湖丝栈创意产业园","lon":"121.42192","lat":"31.22534","category":"45","category_name":"产业园区","address":"万航渡路1384弄12"},{"poiid":"B2094757D068A7FC4992","title":"福岛拉面","lon":"121.416196","lat":"31.219942","category":"95","category_name":"日本料理","address":"长宁区汇川路458号(龙之梦88路终点站对面)"},{"poiid":"B2094752D665A7FF4393","title":"盅意精粤菜","lon":"121.417274","lat":"31.224615","category":"247","category_name":"餐饮美食","address":"中山公园龙之梦"},{"poiid":"B2094757D069A6FD4092","title":"虹桥世家花园","lon":"121.418","lat":"31.2258","category":"47","category_name":"住宅区","address":"上海市长宁区中山西路189弄"},{"poiid":"B2094757D06BA4F44993","title":"吉祥馄饨(汇川路店)","lon":"121.417419","lat":"31.223573","category":"68","category_name":"快餐厅","address":"长宁区汇川路400弄1068号107室(近龙之梦)"},{"poiid":"B2094655D36DA7F84593","title":"中山公园(万航渡路)","lon":"121.41832","lat":"31.22341","category":"38","category_name":"公交车站","address":""},{"poiid":"B2094655D26DA6F54199","title":"图书馆","lon":"121.41673","lat":"31.22531","category":"181","category_name":"图书馆","address":"机场路1035号"},{"poiid":"B2094757D16CA4FD469B","title":"司法鉴定科学技术研究所司法鉴定中心","lon":"121.419052","lat":"31.226657","category":"500","category_name":"未知分类","address":"上海光复西路1347号"},{"poiid":"B2094757D66CAAFC4198","title":"上海科教党校","lon":"121.41489658","lat":"31.221587262","category":"500","category_name":"未知分类","address":"上海凯旋路30号"},{"poiid":"B2094757D169A0FB499E","title":"龙之梦避风堂","lon":"121.415886586","lat":"31.2208372473","category":"500","category_name":"未知分类","address":"上海市普陀区中山西路龙之梦"},{"poiid":"B2094654D565A4FC449B","title":"万华小区","lon":"121.41891","lat":"31.224756","category":"47","category_name":"住宅区","address":"万航渡路1523弄1-17号"},{"poiid":"B2094757D16DA6FC4998","title":"华政黑暗料理街","lon":"121.41841","lat":"31.22588","category":"68","category_name":"快餐厅","address":"普陀区光复西路华政侧门"},{"poiid":"B2094654D565A4FC459A","title":"华院住宅小区","lon":"121.41681","lat":"31.22406","category":"47","category_name":"住宅区","address":"万航渡路1579弄1-11号"},{"poiid":"B2094654DB6BA6F9479F","title":"中山公园(北二门)","lon":"121.41931","lat":"31.22344","category":"656","category_name":"大门","address":"万航渡路1550"},{"poiid":"B2094757D16DA5FF419C","title":"Bit supermarket","lon":"121.419022","lat":"31.224194","category":"118","category_name":"超级市场","address":"上海万航渡路889号"},{"poiid":"B2094757D568A0FF4993","title":"中山公园臭豆腐摊","lon":"121.4193111","lat":"31.22344694","category":"68","category_name":"快餐厅","address":"长宁区万航渡路1550号中山公园门口(近华阳路)"},{"poiid":"B2094757D16CA7F54899","title":"华东政法大学篮球场","lon":"121.41678619","lat":"31.226070404","category":"500","category_name":"未知分类","address":"长宁区万航渡路1575号华东政法大学内(近华阳路)"},{"poiid":"B2094757D16CA0FC4798","title":"上海小马路美食街","lon":"121.41935","lat":"31.22212","category":"257","category_name":"中餐厅","address":"长宁区中山公园地铁站内(近长宁路)"},{"poiid":"B2094757D468ABFA469C","title":"花吉 汇川路店","lon":"121.41592025757","lat":"31.219903277007","category":"95","category_name":"日本料理","address":"长宁区汇川路460号D座(近龙之梦)"},{"poiid":"B2094757D168A4F94093","title":"大华清水湾三期华府樟园","lon":"121.414286673","lat":"31.2240827574","category":"500","category_name":"未知分类","address":"凯旋北路1555弄(近凯旋路桥)"},{"poiid":"B2094655D26DA3F4419E","title":"华院住宅小区(南门)","lon":"121.41705","lat":"31.22361","category":"47","category_name":"住宅区","address":"万航渡路1579弄1-11号"},{"poiid":"B2094757D16BA0F94393","title":"华师大文副楼","lon":"121.41549715","lat":"31.224391524","category":"500","category_name":"未知分类","address":"上海普陀区华东师范大学"},{"poiid":"B2094655D26BA7FD409B","title":"teastory","lon":"121.41912","lat":"31.22383","category":"111","category_name":"休闲餐饮场所","address":"万航渡路1548临"},{"poiid":"B209475CD169A5FA459F","title":"俏江南（龙之梦店）","lon":"121.417503","lat":"31.21997","category":"500","category_name":"未知分类","address":"上海市 中山公园龙之梦八楼近凯旋路"},{"poiid":"B2094757D464A0F8419C","title":"好客楼家常菜","lon":"121.413490054","lat":"31.223454793","category":"76","category_name":"上海菜","address":"普陀区凯旋北路1600号(近宁夏路)"},{"poiid":"B2094757D465A4FD4899","title":"吉祥特色馄饨 万航渡路店","lon":"121.419217054","lat":"31.223979793","category":"247","category_name":"餐饮美食","address":"长宁区万航渡路1534号"},{"poiid":"B2094654D565A3F5479B","title":"华东政法大学MPA教育中心","lon":"121.41802","lat":"31.22741","category":"52","category_name":"高等院校","address":""},{"poiid":"B2094655D26DA7FA4199","title":"万华小区(南门)","lon":"121.41904","lat":"31.22437","category":"47","category_name":"住宅区","address":"万航渡路1523弄1-17号"},{"poiid":"B2094757D06AA5FA419C","title":"921中山公园终点站","lon":"121.41484069","lat":"31.223224639","category":"38","category_name":"公交车站","address":"上海中山公园3号门"},{"poiid":"B2094757D06BA1FD419F","title":"世博会中国馆盖章点","lon":"121.41645813","lat":"31.2251911163","category":"263","category_name":"公司","address":"上海淮海中路810号"},{"poiid":"B2094757D06BAAF94499","title":"华东政法学院家属区华院小区","lon":"121.417053223","lat":"31.2236118317","category":"500","category_name":"未知分类","address":"上海万航渡路1579弄"},{"poiid":"B2094655D26DA2FA459E","title":"凯旋坊","lon":"121.41539","lat":"31.22029","category":"46","category_name":"楼宇","address":"上海凯旋路166号"},{"poiid":"B2094654D56BA0FF449D","title":"星火大厦","lon":"121.415","lat":"31.2228","category":"46","category_name":"楼宇","address":"上海长宁路1515号"},{"poiid":"B2094757D168A0FD429C","title":"华东政法大学司法鉴定中心","lon":"121.41967278","lat":"31.223274295","category":"500","category_name":"未知分类","address":"上海华阳路112号"},{"poiid":"B2094655D26DA3FB479C","title":"体育室","lon":"121.41731","lat":"31.22662","category":"224","category_name":"综合体育馆","address":""},{"poiid":"B2094654D565A4FC459C","title":"光明乳业(万航渡路)","lon":"121.41509","lat":"31.22339","category":"117","category_name":"便民商店/便利店","address":""},{"poiid":"B2094757D164A4F8489B","title":"策源總部","lon":"121.417071","lat":"31.223611","category":"500","category_name":"未知分类","address":"上海萬航渡路623弄1號"},{"poiid":"B2094753D765A7FA459E","title":"华府樟园","lon":"121.418785","lat":"31.22396","category":"500","category_name":"未知分类","address":"上海市 普陀区凯旋北路1555弄"},{"poiid":"B2094757D064ABFA479E","title":"华馨小区","lon":"121.42066","lat":"31.22364","category":"47","category_name":"住宅区","address":"上海万航渡路1486弄"},{"poiid":"B2094757D06BAAFC4093","title":"13路终点站","lon":"121.415001","lat":"31.22329","category":"500","category_name":"未知分类","address":"上海中山公园"},{"poiid":"B2094751D26AA3F44299","title":"家味螺丝粉","lon":"121.415451","lat":"31.225374","category":"500","category_name":"未知分类","address":"华师大店"},{"poiid":"B2094757D76AA7F5479E","title":"湘泉乡村土菜馆 凯旋路店","lon":"121.414213054","lat":"31.222678793","category":"77","category_name":"湖南菜","address":"普陀区凯旋北路1768号(近金沙江路)"},{"poiid":"B2094757D464A0F54599","title":"Cocolo","lon":"121.41561","lat":"31.22019","category":"94","category_name":"西餐厅","address":"长宁区凯旋路166号凯旋坊2栋2楼(近汇川路)"},{"poiid":"B2094757D568A5FF469D","title":"华东政法大学WTO研究中心","lon":"121.417251","lat":"31.225887","category":"191","category_name":"科研机构","address":"万航渡路1575弄40"},{"poiid":"B2094757D168A0FB449C","title":"上海人家(龙之梦)","lon":"121.41261869","lat":"31.223795475","category":"247","category_name":"餐饮美食","address":"上海长宁路"},{"poiid":"B2094654D565A4FC4492","title":"华东政法大学大学生社会法律援助中心","lon":"121.41798","lat":"31.22347","category":"252","category_name":"楼宇机构","address":""},{"poiid":"B2094654D565A5F5499D","title":"华航饭店","lon":"121.42107878099","lat":"31.224403743187","category":"257","category_name":"中餐厅","address":"长宁区万航渡路1492号(近华阳路)"},{"poiid":"B2094654D565A4FC429E","title":"华阳公寓","lon":"121.42087","lat":"31.224985","category":"47","category_name":"住宅区","address":"长宁万航渡路1455号"},{"poiid":"B209475CD268A1FE4392","title":"环球港","lon":"121.414001","lat":"31.224897","category":"500","category_name":"未知分类","address":"上海市 普陀区"},{"poiid":"B2094752DA6CA6FE469E","title":"中山公园","lon":"121.419791","lat":"31.222934","category":"247","category_name":"餐饮美食","address":"龙之梦"},{"poiid":"B2094757D168A5FE479A","title":"科辰公司","lon":"121.417846","lat":"31.225771","category":"263","category_name":"公司","address":"上海罗宁路1508号"},{"poiid":"B2094654D565A4FC459D","title":"笠园凯旋坊","lon":"121.41442","lat":"31.222387","category":"47","category_name":"住宅区","address":"笠园―凯旋坊位于长宁凯旋路88号"},{"poiid":"B2094757D16EA7FF429B","title":"司法鉴定科学研究所","lon":"121.41938774","lat":"31.226002569","category":"500","category_name":"未知分类","address":"上海光复西路1347号"},{"poiid":"B2094752DA6EAAF54798","title":"龙之梦","lon":"121.416042","lat":"31.227477","category":"500","category_name":"未知分类","address":"上海市 长宁路888号"},{"poiid":"B2094655D264A6FA489D","title":"凯旋路10弄小区(北门)","lon":"121.41477","lat":"31.22318","category":"47","category_name":"住宅区","address":"凯旋路10弄2-8号"},{"poiid":"B2094757D165A5FF489E","title":"海上人家","lon":"121.416305586","lat":"31.2215827619","category":"247","category_name":"餐饮美食","address":"上海龙之梦8楼"},{"poiid":"B2094753D06AA7F84893","title":"华东政法学院图书馆(长宁校区)","lon":"121.41802","lat":"31.22741","category":"181","category_name":"图书馆","address":"长宁区万航渡路1575号华东政法大学内(近华阳路)"},{"poiid":"B2094753D56DA1FA459F","title":"宝山万达","lon":"121.420005","lat":"31.224294","category":"500","category_name":"未知分类","address":"上海市 宝山区一二八纪念路"},{"poiid":"B2094757D66CABFA409D","title":"华航小区华阳路20弄","lon":"121.419893586","lat":"31.2247373236","category":"500","category_name":"未知分类","address":"上海华航小区 华阳路20弄"},{"poiid":"B2094757D16AA3FA439C","title":"蜀天祥云香辣蟹(五角场店)","lon":"121.41579158","lat":"31.227370875","category":"247","category_name":"餐饮美食","address":"上海政通路132号"},{"poiid":"B2094757D66EA0F94893","title":"凯旋路万航渡路","lon":"121.414605586","lat":"31.2224762794","category":"500","category_name":"未知分类","address":"上海凯旋路"},{"poiid":"B2094757D56EA4F9469A","title":"第五街 5th Street","lon":"121.416607","lat":"31.222931","category":"249","category_name":"购物服务","address":"上海市长宁路1018号"},{"poiid":"B2094757D56EA4F9479F","title":"布兰施 BRAUN BUFFEL","lon":"121.416607","lat":"31.222931","category":"249","category_name":"购物服务","address":"上海市长宁路1023号"},{"poiid":"B2094757D56EA4F9469F","title":"ABLE JEANS","lon":"121.416607","lat":"31.222931","category":"249","category_name":"购物服务","address":"上海市长宁路1019号"},{"poiid":"B2094757D56EA4F9469D","title":"蝶翠诗 DHC","lon":"121.416607","lat":"31.222931","category":"249","category_name":"购物服务","address":"上海市长宁路1018号"},{"poiid":"B2094757D56EA4F9489C","title":"瑞弗史东 RIVER STONE","lon":"121.416607","lat":"31.222931","category":"249","category_name":"购物服务","address":"上海市长宁路1018号"},{"poiid":"B2094757D56EA4F94699","title":"BODY POPS","lon":"121.416607","lat":"31.222931","category":"249","category_name":"购物服务","address":"上海市长宁路1022号"},{"poiid":"B2094757D56EA4F94798","title":"卓可 Zukka","lon":"121.416607","lat":"31.222931","category":"249","category_name":"购物服务","address":"上海市长宁路1018号"},{"poiid":"B2094757D56EA4F94698","title":"Bata","lon":"121.416607","lat":"31.222931","category":"249","category_name":"购物服务","address":"上海市长宁路1021号"},{"poiid":"B2094757D065AAF54199","title":"都恩客(长宁龙之梦店)","lon":"121.41634","lat":"31.21819","category":"112","category_name":"糕饼店","address":"长宁区长宁路1018号龙之梦购物中心B2楼K20号铺(近凯旋路)"},{"poiid":"B2094655D26DA7FA449B","title":"华航小区(南门)","lon":"121.42075","lat":"31.22464","category":"47","category_name":"住宅区","address":"华阳路20"},{"poiid":"B2094753D664AAF9429D","title":"德站琪韩国年糕料理（仙霞路总店）","lon":"121.418975","lat":"31.22853","category":"247","category_name":"餐饮美食","address":"上海市 长宁区仙霞路161号（近娄山关路）"},{"poiid":"B2094757D06BA2FA4293","title":"兆丰幼儿园","lon":"121.41756019","lat":"31.221674748","category":"57","category_name":"幼儿园","address":"长宁区长宁路712弄兆丰别墅151号(近中山公园)"},{"poiid":"B2094757D66EA0FE4698","title":"杯子花园","lon":"121.419638786","lat":"31.2216958641","category":"47","category_name":"住宅区","address":"上海中山公园内"},{"poiid":"B2094757D568A7FE469F","title":"华东政法大学刑法学研究中心","lon":"121.416458","lat":"31.226945","category":"191","category_name":"科研机构","address":"万航渡路1575弄16-36号"},{"poiid":"B2094750DB68A0FC419E","title":"王鼎日本料理铁板烧","lon":"121.417915","lat":"31.221021","category":"247","category_name":"餐饮美食","address":"南京西路258号7楼"},{"poiid":"B2094655D26CABFC409B","title":"好德No.578","lon":"121.421","lat":"31.22497","category":"117","category_name":"便民商店/便利店","address":"万航渡路1457"},{"poiid":"B2094757DA65A5F54093","title":"浦江快捷酒店（上海中山公园店）","lon":"121.421096921","lat":"31.224256777","category":"216","category_name":"经济型连锁酒店","address":"长宁区华阳路92号(近万航渡路)"},{"poiid":"B2094757D168A6F9459F","title":"联华超市(万航渡路店)","lon":"121.42062","lat":"31.22429","category":"118","category_name":"超级市场","address":"长宁区万航渡路1467号(近华阳路)"},{"poiid":"B2094655D269AAF94792","title":"翔鹰栗子中山公园店","lon":"121.42034","lat":"31.22118","category":"68","category_name":"快餐厅","address":"长宁区长宁路770号(中山公园口)"},{"poiid":"B2094655D26DA3FB419E","title":"画栋阁酒家","lon":"121.41432","lat":"31.22183","category":"257","category_name":"中餐厅","address":"长宁区凯旋路98号(近万航渡路)"},{"poiid":"B2094753D269A3FE4198","title":"海上渔家","lon":"121.413467","lat":"31.222331","category":"247","category_name":"餐饮美食","address":"上海市 长宁路1018号龙之梦八楼"},{"poiid":"B2094757D069AAFA499A","title":"迪斯尼英语","lon":"121.41540651","lat":"31.226898075","category":"253","category_name":"校园生活","address":"上海中山公园店"},{"poiid":"B209475CD268AAF9479E","title":"上海市普陀区环球港","lon":"121.415252","lat":"31.226947","category":"500","category_name":"未知分类","address":"上海市 上海市普陀区中山北路3300号"},{"poiid":"B2094654D565A5FB4192","title":"兆丰苑","lon":"121.42168","lat":"31.224358","category":"47","category_name":"住宅区","address":"华阳路81-83号"},{"poiid":"B2094757D16AA2FA4093","title":"长宁金廷88中心","lon":"121.421473586","lat":"31.2252803342","category":"500","category_name":"未知分类","address":"上海长宁区长宁支路125弄"},{"poiid":"B2094757D16AA6FD499C","title":"红玫瑰小龙虾烧烤","lon":"121.420706206","lat":"31.2261163406","category":"247","category_name":"餐饮美食","address":"上海曹杨路地铁站边"},{"poiid":"B2094654DB65A6FE4198","title":"上海市教育行政学院","lon":"121.41477","lat":"31.22172","category":"52","category_name":"高等院校","address":"长宁区凯旋路30号"},{"poiid":"B2094757D66FA1F8499F","title":"柠檬头","lon":"121.420337586","lat":"31.223839306","category":"500","category_name":"未知分类","address":"上海中山公园"},{"poiid":"B2094655D36CA2FD4299","title":"中园餐厅","lon":"121.4135","lat":"31.2216","category":"257","category_name":"中餐厅","address":"长宁区万航渡路2088号中山公园附近(近华东政法大学)"},{"poiid":"B2094655D26EA4FC4299","title":"莉莲蛋挞(中山公园店)","lon":"121.42034","lat":"31.22118","category":"112","category_name":"糕饼店","address":"长宁区地铁二号线中山公园站换乘通道内(近长宁路)"},{"poiid":"B2094654D565A5FA499F","title":"上海市长宁区卫生学校","lon":"121.42127","lat":"31.22307","category":"54","category_name":"职业技术学校","address":"华阳路112"},{"poiid":"B2094757D16EA6FC479E","title":"上海市现代职业技术学校","lon":"121.421276","lat":"31.22307","category":"253","category_name":"校园生活","address":"上海华阳路112号"},{"poiid":"B2094757D66DA0F9489A","title":"白玉路派出所","lon":"121.418833586","lat":"31.2287144014","category":"609","category_name":"警察局","address":"上海市普陀区宁夏路"},{"poiid":"B2094654DB64A5FD469D","title":"初升饮食店","lon":"121.42101990847","lat":"31.224633345755","category":"68","category_name":"快餐厅","address":"长宁区万航渡路1416号(近华阳路)"},{"poiid":"B2094655D26FA5FE4099","title":"明珠小区","lon":"121.41683","lat":"31.220329","category":"47","category_name":"住宅区","address":"汇川路400弄1050-1084号"},{"poiid":"B2094752D465A1FE419E","title":"Timook候场","lon":"121.421748","lat":"31.225247","category":"247","category_name":"餐饮美食","address":"上海市长宁区万航渡路1384弄12号1号楼3楼A座"},{"poiid":"B209475CD26DABFA4899","title":"末那","lon":"121.421005","lat":"31.224599","category":"249","category_name":"购物服务","address":"上海市 长宁路890号玫瑰坊B1"},{"poiid":"B2094752DB6BABFA4593","title":"华东政法大学交谊楼","lon":"121.41434","lat":"31.22663","category":"500","category_name":"未知分类","address":"上海市 万航渡路1575号"},{"poiid":"B2094654D565A5FA459A","title":"亲子乐园游乐场","lon":"121.42032","lat":"31.22093","category":"195","category_name":"游乐场","address":"长宁路780"},{"poiid":"B2094757D165A1FE4793","title":"华师大文史楼207","lon":"121.41359158","lat":"31.226741362","category":"500","category_name":"未知分类","address":"上海市普陀区中山西路"},{"poiid":"B2094757D568A0FD449C","title":"华东政法大学上海市国家安全法研究中心","lon":"121.416442","lat":"31.22694","category":"191","category_name":"科研机构","address":"万航渡路1575弄16-36号"},{"poiid":"B209475DD26FA1FB489B","title":"月星环球港","lon":"121.417236","lat":"31.228254","category":"500","category_name":"未知分类","address":"上海市 金沙江路"},{"poiid":"B209475CD269A2FB479D","title":"Mook Club","lon":"121.420997","lat":"31.224597","category":"500","category_name":"未知分类","address":"上海市 静安区南京西路758号5楼"},{"poiid":"B2094757D16EA6FD439B","title":"67路終點站","lon":"121.41687758","lat":"31.21995323","category":"500","category_name":"未知分类","address":"上海中山公園"},{"poiid":"B2094750DB6EA5F8469E","title":"兆丰嘉园","lon":"121.418034","lat":"31.220564","category":"47","category_name":"住宅区","address":"上海市长宁区长宁路888弄；汇川路300弄"},{"poiid":"B2094757D065ABF9469F","title":"慧俪轻体(龙之梦店)","lon":"121.418310536","lat":"31.221792266","category":"500","category_name":"未知分类","address":"上海市长宁区长宁路1088号5楼"},{"poiid":"B2094655D26DA4F8429A","title":"湖丝栈创意产业园(北门)","lon":"121.42199","lat":"31.22553","category":"45","category_name":"产业园区","address":"万航渡路1384弄12"},{"poiid":"B2094654DB6BA6FE419B","title":"曹家渡派出所(光复西路)","lon":"121.41996","lat":"31.22553","category":"248","category_name":"生活娱乐","address":"光复西路1327"},{"poiid":"B2094655D265A1FA459F","title":"万航渡路2032弄小区","lon":"121.41318","lat":"31.22223","category":"47","category_name":"住宅区","address":"万航渡路2032弄1-13号"},{"poiid":"B2094654D565A3F54398","title":"上海市普雄学校(顺义路)","lon":"121.41612","lat":"31.22946","category":"55","category_name":"中学","address":"顺义路4"},{"poiid":"B2094654D565A3F5479A","title":"中华人民共和国司法部司法鉴定科学技术研究所","lon":"121.41905","lat":"31.22666","category":"191","category_name":"科研机构","address":"光复西路1347号"},{"poiid":"B2094757D168A0F54392","title":"鲜之恋纯果汁(龙之梦店)","lon":"121.415920586","lat":"31.2207252451","category":"247","category_name":"餐饮美食","address":"上海长宁区龙之梦"},{"poiid":"B2094654D565A5FA4493","title":"依东外国原创美术博物馆","lon":"121.42032","lat":"31.22093","category":"182","category_name":"博物馆","address":"长宁路780"},{"poiid":"B2094753D26AA5F4469A","title":"过门香","lon":"121.41322","lat":"31.221912","category":"247","category_name":"餐饮美食","address":"上海市 长宁路1018号8楼"},{"poiid":"B2094655D264A7FA4698","title":"兆丰嘉园二期","lon":"121.41802","lat":"31.220596","category":"47","category_name":"住宅区","address":"上海市长宁区长宁路888弄"},{"poiid":"B2094655D26DA7F94993","title":"上海市现代职业技术学校(东门)","lon":"121.42185","lat":"31.22352","category":"678","category_name":"学校大门","address":"华阳路112"},{"poiid":"B209475CD169A6FE429F","title":"梧桐老镇","lon":"121.417404","lat":"31.219985","category":"500","category_name":"未知分类","address":"上海市 中山公园龙之梦7F"},{"poiid":"B2094757D16EA2FE4792","title":"快乐柠檬(昌里路店)","lon":"121.415210086","lat":"31.2207851463","category":"247","category_name":"餐饮美食","address":"上海上南路1152号昌里路口"},{"poiid":"B2094654DB6BA6F94999","title":"好德(宁康路)","lon":"121.41372","lat":"31.22148","category":"117","category_name":"便民商店/便利店","address":""},{"poiid":"B2094654DB6BA6F9479D","title":"中山公园(北一门)","lon":"121.41484","lat":"31.22322","category":"656","category_name":"大门","address":""},{"poiid":"B2094655D26BA1F44693","title":"喜士多汇川店","lon":"121.41693","lat":"31.22002","category":"117","category_name":"便民商店/便利店","address":"长宁区汇川路402号(近龙之梦)"},{"poiid":"B2094757D068A2F94592","title":"Vivigarden","lon":"121.421977","lat":"31.224385","category":"500","category_name":"未知分类","address":"上海长宁区长宁路890号玫瑰坊2F39B"},{"poiid":"B2094655D26CABFD4598","title":"快客No.5049","lon":"121.41675","lat":"31.22","category":"117","category_name":"便民商店/便利店","address":""},{"poiid":"B209475CD669AAF8449D","title":"徐家汇","lon":"121.413017","lat":"31.22701","category":"500","category_name":"未知分类","address":"上海市 徐汇区 徐家汇"},{"poiid":"B2094757D16DA2FC409C","title":"TOS COMPANY日本精品屋(静安店)","lon":"121.419490586","lat":"31.2220662713","category":"249","category_name":"购物服务","address":"上海市南京西路1699号伊美时尚广场A025"},{"poiid":"B2094753D46CA0FA4592","title":"苏州河","lon":"121.421981","lat":"31.224224","category":"500","category_name":"未知分类","address":"上海市 苏州河"},{"poiid":"B2094757D16DA5FC479C","title":"晶厚台北时尚","lon":"121.417373586","lat":"31.2200372317","category":"500","category_name":"未知分类","address":"上海市长宁区万航渡路"},{"poiid":"B209475CDA6CA2FF4492","title":"中山公园","lon":"121.413986","lat":"31.221689","category":"500","category_name":"未知分类","address":"上海市 长宁路"},{"poiid":"B2094654DB6BA6F9489A","title":"明珠小区(南门)","lon":"121.41701","lat":"31.22004","category":"47","category_name":"住宅区","address":"汇川路400弄1050-1084号"},{"poiid":"B2094757D168A7F5409F","title":"公园大道健身俱乐部","lon":"121.412853586","lat":"31.2222262745","category":"148","category_name":"美容美发店","address":"北京朝阳区六里屯"},{"poiid":"B2094757D66CA2F44298","title":"汇贤楼A203","lon":"121.414786","lat":"31.221743","category":"252","category_name":"楼宇机构","address":"上海华东政法大学"},{"poiid":"B2094654DB6BA6FD4993","title":"华东政法大学(东门)","lon":"121.41728","lat":"31.22779","category":"656","category_name":"大门","address":""},{"poiid":"B2094655D264A5F5419A","title":"笠园凯旋坊(北门)","lon":"121.41463","lat":"31.22297","category":"656","category_name":"大门","address":"凯旋路76"},{"poiid":"B2094757D16AA3FC4199","title":"中环五角场彩蛋","lon":"121.413237586","lat":"31.2218192665","category":"500","category_name":"未知分类","address":"上海邯郸路"},{"poiid":"B2094757D16FA7FD4498","title":"欧之馨","lon":"121.41308","lat":"31.22673","category":"500","category_name":"未知分类","address":"上海普陀区凯旋北路1555弄(近宁夏路)  "},{"poiid":"B2094757D16DA6FA449E","title":"华东政法大学五期宿舍","lon":"121.417221","lat":"31.228647","category":"500","category_name":"未知分类","address":"上海广富林路3455弄"},{"poiid":"B2094654D565A5FA4993","title":"上海申泰教育培训中心","lon":"121.42128","lat":"31.22307","category":"190","category_name":"培训机构","address":"华阳路112"},{"poiid":"B2094655D26DA7FA459F","title":"华阳公寓(南门)","lon":"121.42107","lat":"31.22503","category":"48","category_name":"楼宇大门","address":"万航渡路1455"},{"poiid":"B209475DD26BA4FA429A","title":"虎咖啡","lon":"121.415374","lat":"31.220176","category":"500","category_name":"未知分类","address":"上海市 中山公园"},{"poiid":"B2094757D164A7FE4392","title":"toysrus","lon":"121.41424758","lat":"31.220684244","category":"500","category_name":"未知分类","address":"上海龙之梦"},{"poiid":"B2094750D66FABF8449A","title":"野生动物园","lon":"121.416908","lat":"31.21994","category":"500","category_name":"未知分类","address":null},{"poiid":"B2094757D06BA1F5499B","title":"大宝藏","lon":"121.41543009","lat":"31.220805915","category":"500","category_name":"未知分类","address":"上海顺义路100弄92号"},{"poiid":"B2094655D26DA2FB409D","title":"华馨小区(北门)","lon":"121.42056","lat":"31.22427","category":"656","category_name":"大门","address":"万航渡路1486弄2-46号"},{"poiid":"B2094757D66EAAFF4099","title":"马车道","lon":"121.41441","lat":"31.22238","category":"260","category_name":"其他","address":"长宁区凯旋路166号凯旋坊2楼(近汇川路)"},{"poiid":"B2094757D66EA1F9409C","title":"龙之梦香谢阁","lon":"121.415229186","lat":"31.2207384454","category":"500","category_name":"未知分类","address":"上海七楼"},{"poiid":"B2094757D16EA2FA4292","title":"大家源新城理发室","lon":"121.41353607","lat":"31.221620559","category":"148","category_name":"美容美发店","address":"上海大家源新城东门"},{"poiid":"B2094655D26DABF54092","title":"大华清水湾花园(西二门)","lon":"121.41349","lat":"31.22719","category":"656","category_name":"大门","address":"凯旋北路1555弄"},{"poiid":"B2094757D568A6F84699","title":"多果手机玩乐站中山公园地铁站店","lon":"121.4203261","lat":"31.22095111","category":"249","category_name":"购物服务","address":"地铁2号线中山公园站2-106商铺"},{"poiid":"B2094655D26DA2FB4498","title":"华馨小区(东门)","lon":"121.42101","lat":"31.22434","category":"656","category_name":"大门","address":""},{"poiid":"B2094654DB6BA6FE4198","title":"水岸豪庭(西门)","lon":"121.42021","lat":"31.22759","category":"656","category_name":"大门","address":"白玉路669弄1-37号"},{"poiid":"B2094655D26DA7F9479E","title":"笠园凯旋坊(西门)","lon":"121.41413","lat":"31.22232","category":"656","category_name":"大门","address":"凯旋路88弄1-9号"},{"poiid":"B2094655D26CAAF94092","title":"兆丰苑(北门)","lon":"121.42121","lat":"31.22484","category":"656","category_name":"大门","address":""},{"poiid":"B2094655D26DA7F94999","title":"兆丰嘉园(西门)","lon":"121.41789","lat":"31.21981","category":"656","category_name":"大门","address":"汇川路300弄550-584号"},{"poiid":"B2094655D265A4FA459F","title":"万航渡路2032弄小区(东门)","lon":"121.41339","lat":"31.22246","category":"656","category_name":"大门","address":"万航渡路2032弄1-13号"},{"poiid":"B2094654DB65A3F94698","title":"上海市教育行政学院(西门)","lon":"121.41451","lat":"31.2215","category":"656","category_name":"大门","address":"长宁区凯旋路30号"},{"poiid":"B2094751D56BA1FE469F","title":"上海纹身越狱刺青店","lon":"121.4171290204","lat":"31.220036700495","category":"645","category_name":"机构及其他类公司","address":"长宁区汇川路404号"},{"poiid":"B2094655D26DA2FE449D","title":"大家源新城(东门)","lon":"121.4135","lat":"31.2216","category":"656","category_name":"大门","address":"万航渡路2088"},{"poiid":"B2094655D26DA1FC409E","title":"华秀小区(西门)","lon":"121.42192","lat":"31.22373","category":"656","category_name":"大门","address":"万航渡路1424弄50-78号"},{"poiid":"B2094655D264A6FE4898","title":"万航渡路2032弄小区(东二门)","lon":"121.41348","lat":"31.22218","category":"656","category_name":"大门","address":""},{"poiid":"B2094655D265A7FB499B","title":"万航渡路2032弄小区(东三门)","lon":"121.41355","lat":"31.22193","category":"656","category_name":"大门","address":""},{"poiid":"B2094655D26DA7FA409E","title":"兆丰苑(西门)","lon":"121.42189","lat":"31.22387","category":"656","category_name":"大门","address":"华阳路81-83号"}]