[{"poiid":"B2094757D06BA5FD469C","title":"大宁剧院","lon":"121.4566021","lat":"31.283634698","category":"179","category_name":"音乐厅","address":"上海市平型关路1222号"},{"poiid":"B2094757D06FA3F5439E","title":"慧芝湖花园","lon":"121.459801","lat":"31.281513","category":"47","category_name":"住宅区","address":"上海市闸北区平型关路"},{"poiid":"B2094757D06FA6FE4299","title":"广粤路","lon":"121.465333","lat":"31.281548","category":"500","category_name":"未知分类","address":"上海市广粤路广中路"},{"poiid":"B2094655D36CA7F5409A","title":"广灵四路广粤路","lon":"121.46686","lat":"31.28637","category":"38","category_name":"公交车站","address":""},{"poiid":"B2094757D16AA6FB4293","title":"和记小菜精菜坊(大宁店)","lon":"121.456698103","lat":"31.2831746888","category":"76","category_name":"上海菜","address":"闸北区灵石路217号海上文化中心6楼"},{"poiid":"B2094757DA6EAAFA439C","title":"今唐养生海鲜汇","lon":"121.465599299999","lat":"31.2861386","category":"260","category_name":"其他","address":"虹口区广粤路279号(广灵四路口)"},{"poiid":"B2094654D56DA5FE419B","title":"上海市虹口高级中学","lon":"121.46659","lat":"31.28327","category":"55","category_name":"中学","address":"虹口区广粤路138号(近广中路)"},{"poiid":"B2094654D56CA3FF439A","title":"上海大学(北门)","lon":"121.45778","lat":"31.27851","category":"656","category_name":"大门","address":"广中路788"},{"poiid":"B2094757D068A1F84192","title":"普陀山海鲜酒店(广粤店)","lon":"121.46547","lat":"31.28176","category":"76","category_name":"上海菜","address":"虹口区广粤路97-99号(近广中路)"},{"poiid":"B2094757D06FABFA419B","title":"海上文化中心","lon":"121.4574569","lat":"31.2833081","category":"260","category_name":"其他","address":"闸北区平型关路1222号(近灵石路)"},{"poiid":"B2094757D06FABF44199","title":"一兆韦德(平型关路店)","lon":"121.45887","lat":"31.27952","category":"221","category_name":"健身中心","address":"闸北区平型关路1087号(近广中路)"},{"poiid":"B2094757D06FA0F9499F","title":"慧芝湖花园二期","lon":"121.465","lat":"31.2875","category":"47","category_name":"住宅区","address":"上海闸北平型关路1083弄(近广中路)"},{"poiid":"B2094757D06AABFD449A","title":"上海大学科技楼","lon":"121.458487103","lat":"31.2776115725","category":"500","category_name":"未知分类","address":"上海市闸北区广中路"},{"poiid":"B2094757D06FA4FD409C","title":"水木年华花园","lon":"121.46356","lat":"31.287912","category":"47","category_name":"住宅区","address":"上海市虹口区广灵四路866号"},{"poiid":"B2094757D16CA4FF459E","title":"凯丽欣大酒店","lon":"121.463749103","lat":"31.2866927624","category":"247","category_name":"餐饮美食","address":"虹口区广粤路279号(近广灵四路)"},{"poiid":"B2094757D06AA1FF4399","title":"万峰梦湖苑","lon":"121.46288","lat":"31.282618","category":"47","category_name":"住宅区","address":"上海广灵四路881弄"},{"poiid":"B2094654D56CA3FD4299","title":"上海市大宁国际小学","lon":"121.46085","lat":"31.28373","category":"56","category_name":"小学","address":"闸北区北宝兴路900号(北宝兴路彭江路)"},{"poiid":"B2094654D56CA3FE469D","title":"泛欧现代大厦","lon":"121.459","lat":"31.2872","category":"46","category_name":"楼宇","address":"越秀区环市东路362-366号"},{"poiid":"B2094654D56DA5F4469D","title":"珊瑚苑","lon":"121.46266","lat":"31.279222","category":"47","category_name":"住宅区","address":"广中路680弄1-28号"},{"poiid":"B2094757D06AA1FB4698","title":"慧芝湖花园三期嘉悦天地","lon":"121.45646442327882","lat":"31.283087486077513","category":"47","category_name":"住宅区","address":"上海市闸北区灵石路208号"},{"poiid":"B2094757D06AA1F4499D","title":"云峰大众4s店","lon":"121.4654369","lat":"31.285210031","category":"500","category_name":"未知分类","address":"上海广粤路"},{"poiid":"B2094750DB64ABF84399","title":"上海梅赛德斯-奔驰文化中心","lon":"121.460708","lat":"31.278104","category":"500","category_name":"未知分类","address":"世博大道1200号"},{"poiid":"B2094655D36CA7F4479C","title":"广中路广粤路","lon":"121.4664","lat":"31.28015","category":"38","category_name":"公交车站","address":""},{"poiid":"B2094654D56CA3F84592","title":"上工新邨","lon":"121.462","lat":"31.2819","category":"47","category_name":"住宅区","address":"共和新路1895弄"},{"poiid":"B2094655D265ABFF4093","title":"昌国商务楼","lon":"121.46334","lat":"31.2826","category":"46","category_name":"楼宇","address":"广粤路95-4临"},{"poiid":"B2094757D16EA0FE4592","title":"彭江医院","lon":"121.461797103","lat":"31.284377714","category":"162","category_name":"医院","address":"上海市闸北区彭江路51号"},{"poiid":"B2094750D76FA7FB4299","title":"绿廷苑酒店","lon":"121.465","lat":"31.2793","category":"76","category_name":"上海菜","address":"虹口区株洲路357号(近广中路)"},{"poiid":"B2094655D36CA5F5459C","title":"北宝兴路广中路","lon":"121.46127","lat":"31.28164","category":"38","category_name":"公交车站","address":""},{"poiid":"B2094757D168A1FD4093","title":"梦湖苑","lon":"121.4618361","lat":"31.283070686","category":"500","category_name":"未知分类","address":"上海市广灵四路881弄广粤路口"},{"poiid":"B2094655D265A3FB4192","title":"同茂兴面菜馆","lon":"121.46502","lat":"31.28217","category":"68","category_name":"快餐厅","address":"虹口区广粤路51号A18(近广中路)"},{"poiid":"B2094757D06AA3F84393","title":"中虹花园丽都苑","lon":"121.46764","lat":"31.28512","category":"47","category_name":"住宅区","address":"上海市虹口区凉城路489号(近广灵四路)"},{"poiid":"B2094655D26BA1FC469E","title":"平型关路广中路","lon":"121.45822","lat":"31.28089","category":"38","category_name":"公交车站","address":""},{"poiid":"B2094757D065A1FF439F","title":"上海东方票务有限公司","lon":"121.45801984","lat":"31.282768626","category":"46","category_name":"楼宇","address":"上海平型关路1220号海上文化中心1号楼1层"},{"poiid":"B2094757D16EAAFC409D","title":"全家便利(马戏城店)","lon":"121.4617101","lat":"31.281945663","category":"249","category_name":"购物服务","address":"上海市闸北区广中路共和新路"},{"poiid":"B2094655D36CA5F5459D","title":"北宝兴路","lon":"121.46257","lat":"31.27997","category":"38","category_name":"公交车站","address":""},{"poiid":"B2094654D56DA5FA4198","title":"意和家园","lon":"121.4642","lat":"31.276701","category":"47","category_name":"住宅区","address":"上海市虹口区株洲路290号"},{"poiid":"B2094757D06AA4FD4098","title":"大宁国际小学羽毛球馆","lon":"121.46189","lat":"31.2806","category":"253","category_name":"校园生活","address":"上海闸北区北宝兴路900号(近广中路)"},{"poiid":"B2094655D26BA4FE4592","title":"花鸟市场","lon":"121.46319","lat":"31.28122","category":"117","category_name":"便民商店/便利店","address":""},{"poiid":"B2094757D66BA2F54199","title":"满庭芳","lon":"121.46620166347","lat":"31.284886218488","category":"77","category_name":"湖南菜","address":"虹口区广粤路199号(近广灵四路)"},{"poiid":"B2094757D164A4FB419C","title":"如家快捷酒店 上海马戏城店","lon":"121.4572359","lat":"31.2795308","category":"217","category_name":"旅馆招待所","address":"上海市闸北区广中路809号(近平型关路)"},{"poiid":"B2094757D065AAFC499D","title":"虹口宜家-海叶新苑","lon":"121.463729","lat":"31.281259","category":"500","category_name":"未知分类","address":"上海广中路633弄"},{"poiid":"B2094757D66CA0FC409A","title":"东北大菜馆(旺秀餐饮)","lon":"121.46347","lat":"31.27503","category":"82","category_name":"东北菜","address":"闸北区延长路2号(近上海大学)"},{"poiid":"B2094654D56DA5FC469C","title":"环城公寓","lon":"121.46604","lat":"31.281115","category":"47","category_name":"住宅区","address":"广中路581弄1-17号"},{"poiid":"B2094655D265A7FA4892","title":"上海第五季","lon":"121.4653","lat":"31.28294","category":"47","category_name":"住宅区","address":"上海第五季位于虹口广粤路108号"},{"poiid":"B2094654D56DA5F4479C","title":"欣武大厦","lon":"121.466377","lat":"31.284776","category":"46","category_name":"楼宇","address":"上海市虹口区广中路694号"},{"poiid":"B2094757D66CAAFF469D","title":"伊晨餐厅","lon":"121.46723","lat":"31.28","category":"76","category_name":"上海菜","address":"虹口区广中路551号(近广粤路)"},{"poiid":"B2094757D66DA3F5469B","title":"垚森商务楼","lon":"121.462724683","lat":"31.2834194439","category":"252","category_name":"楼宇机构","address":"上海广粤路95号10栋"},{"poiid":"B2094757D568A1FC4892","title":"平易近水虹口珊瑚苑","lon":"121.4626611","lat":"31.27922611","category":"47","category_name":"住宅区","address":"上海市浦东新区居家桥路688弄"},{"poiid":"B2094655D26FA1F44499","title":"广粤路53弄小区(东门)","lon":"121.46496","lat":"31.28155","category":"47","category_name":"住宅区","address":"广粤路53弄1-43号"},{"poiid":"B2094654D56DA5F4479E","title":"今生有缘美容美体旗舰店","lon":"121.46205","lat":"31.27951","category":"148","category_name":"美容美发店","address":"广中路680弄6-7号"},{"poiid":"B2094751DA69A2F44693","title":"维也纳国际酒店（虹口店）","lon":"121.465363","lat":"31.286011","category":"251","category_name":"出行住宿","address":"广粤路279号"},{"poiid":"B2094757D069A3FF449D","title":"上海大学G3宿舍","lon":"121.4632488","lat":"31.279812318","category":"47","category_name":"住宅区","address":"上海广中路805号"},{"poiid":"B2094654D56DA5FE4198","title":"上海市虹口高级中学(西门)","lon":"121.46584","lat":"31.28333","category":"678","category_name":"学校大门","address":"广粤路138"},{"poiid":"B2094654D56DA5F4469C","title":"永琪美容美发(广中路)","lon":"121.46308","lat":"31.27966","category":"148","category_name":"美容美发店","address":"广中路642"},{"poiid":"B2094654D56DA5F44592","title":"永巍公寓","lon":"121.46414","lat":"31.279554","category":"47","category_name":"住宅区","address":"上海市虹口区广中路672号"},{"poiid":"B2094655D26DAAFB4293","title":"良友(广灵四路)","lon":"121.4634","lat":"31.2854","category":"117","category_name":"便民商店/便利店","address":"广灵四路828号2单元"},{"poiid":"B2094750D26FA5FF499A","title":"上海市第六人民医院","lon":"121.465888","lat":"31.283666","category":"162","category_name":"医院","address":null},{"poiid":"B2094654D56DA5FC4698","title":"可的(广中路)","lon":"121.46574","lat":"31.28041","category":"117","category_name":"便民商店/便利店","address":"虹口区广中路589号(近广粤路)"},{"poiid":"B2094654D56DA5FC4493","title":"鑫艺琴行虹口加盟店","lon":"121.46353","lat":"31.28034","category":"255","category_name":"专卖店","address":"广中路635"},{"poiid":"B2094654D56DA5FC499D","title":"久业家苑","lon":"121.46809","lat":"31.280691","category":"47","category_name":"住宅区","address":"广中路525弄1-32号"},{"poiid":"B2094654D56DA5F44692","title":"珊瑚苑(北门)","lon":"121.46286","lat":"31.27961","category":"47","category_name":"住宅区","address":"广中路680弄1-28号"},{"poiid":"B2094654D56DA5F9479D","title":"建明花苑","lon":"121.46442","lat":"31.27908","category":"47","category_name":"住宅区","address":"建明花苑位于虹口广中路666号"},{"poiid":"B2094750D56FA5F9479E","title":"上海市虹口区人民法院","lon":"121.462226","lat":"31.276756","category":"608","category_name":"法院","address":"北宝兴路"},{"poiid":"B2094654DB6BA3FF4798","title":"恒源大楼","lon":"121.46326367537","lat":"31.28600737924","category":"47","category_name":"住宅区","address":"上海广中路696号"},{"poiid":"B2094750D76BA0FE449C","title":"华山医院","lon":"121.466186","lat":"31.280603","category":"162","category_name":"医院","address":null},{"poiid":"B2094654D56CA3FD4298","title":"罗森(平型关路)","lon":"121.45816","lat":"31.28207","category":"117","category_name":"便民商店/便利店","address":"闸北区平型关路1105号"},{"poiid":"B2094757D169A3FD4993","title":"虹韵花园","lon":"121.4663141","lat":"31.283404693","category":"47","category_name":"住宅区","address":"上海市虹口区广粤路"},{"poiid":"B2094655D26CA0FC4698","title":"万峰梦湖苑(西门)","lon":"121.46155","lat":"31.28177","category":"656","category_name":"大门","address":""},{"poiid":"B2094757D165A1FE469A","title":"518凉城路","lon":"121.4667201","lat":"31.284107708","category":"38","category_name":"公交车站","address":"上海凉城路广灵四路"},{"poiid":"B2094757D16FA5FC409D","title":"格林蓝天","lon":"121.4626681","lat":"31.279804618","category":"500","category_name":"未知分类","address":"上海广中路586弄"},{"poiid":"B2094655D26EA2F94292","title":"慧芝湖花园(北门)","lon":"121.45817","lat":"31.28172","category":"656","category_name":"大门","address":"平型关路1083弄"},{"poiid":"B2094654D56DA5F44498","title":"他佳她造型","lon":"121.46669","lat":"31.27979","category":"148","category_name":"美容美发店","address":"虹口区广中路576号(近广粤路)"},{"poiid":"B2094757D66FA6FF469C","title":"新同心路广中路","lon":"121.467005403","lat":"31.280026023","category":"500","category_name":"未知分类","address":"上海767新同心路广中路"},{"poiid":"B2094757D16AABFE409C","title":"水木年花门口洗车点","lon":"121.4623191","lat":"31.28516773","category":"163","category_name":"4S店","address":"上海广灵四路866弄口"},{"poiid":"B2094757D16CA6FD449B","title":"乾弘佳园","lon":"121.46376","lat":"31.278784","category":"47","category_name":"住宅区","address":"上海广中路620弄"},{"poiid":"B2094654D56DA5FC469D","title":"环城公寓(南门)","lon":"121.46593","lat":"31.28042","category":"47","category_name":"住宅区","address":"广中路581弄1-17号"},{"poiid":"B2094655D36CA7F44799","title":"广中路新同心路","lon":"121.46658","lat":"31.28009","category":"38","category_name":"公交车站","address":""},{"poiid":"B2094753D26CABF44992","title":"宝华城市花园","lon":"121.46569","lat":"31.278719","category":"47","category_name":"住宅区","address":"上海市 虹口区株洲路399弄"},{"poiid":"B2094654DB6BA3FF449A","title":"海叶新苑虹口宜家(南门)","lon":"121.46362","lat":"31.28037","category":"656","category_name":"大门","address":"广中路633弄1-21号"},{"poiid":"B2094751DA6FA1F54292","title":"中信泰富四川北路","lon":"121.460825","lat":"31.285363","category":"249","category_name":"购物服务","address":"四川北路1350号"},{"poiid":"B2094757D16CA3FC449B","title":"今生有缘SPA生活馆","lon":"121.46265","lat":"31.2794","category":"500","category_name":"未知分类","address":"闸北区广中路680弄6号(近平型关路)"},{"poiid":"B2094655D26BA1FC459E","title":"平型关路彭江路","lon":"121.45746","lat":"31.28336","category":"38","category_name":"公交车站","address":""},{"poiid":"B2094757D66CABF8459A","title":"丸奈虚宅宅宅","lon":"121.4634221","lat":"31.279873619","category":"500","category_name":"未知分类","address":null},{"poiid":"B2094757D16FA2FE4998","title":"上海银都会Sliver City Club","lon":"121.4593871","lat":"31.281205647","category":"500","category_name":"未知分类","address":"上海市闵行区银都路银都名墅内"},{"poiid":"B2094757D165A0FE419A","title":"呷哺呷哺(第二百家门店)","lon":"121.466893503","lat":"31.2843911142","category":"247","category_name":"餐饮美食","address":"上海多伦路四川北路"},{"poiid":"B2094654D56DA5FF4192","title":"指压按摩足浴","lon":"121.4653","lat":"31.28408","category":"149","category_name":"洗浴推拿场所","address":"广粤路169号"},{"poiid":"B2094757D16EA6FF4698","title":"罗森便利(平型关路店)","lon":"121.45812","lat":"31.28246","category":"117","category_name":"便民商店/便利店","address":"上海闸北区平型关路1105号  "},{"poiid":"B2094655D26CA0FC469B","title":"万峰梦湖苑(南门)","lon":"121.46202","lat":"31.2806","category":"656","category_name":"大门","address":""},{"poiid":"B2094750DA6DA7FF439A","title":"人民武装学校","lon":"121.464294","lat":"31.285783","category":"253","category_name":"校园生活","address":null},{"poiid":"B2094757D16CA7FA4298","title":"Neverain Land","lon":"121.4615801","lat":"31.279356609","category":"500","category_name":"未知分类","address":"上海市中环线"},{"poiid":"B2094757D06BA0FB419D","title":"花花公主","lon":"121.463307","lat":"31.278404","category":"67","category_name":"甜品店","address":"杨浦区政民路488号(近国定路)"},{"poiid":"B2094654D56DA5F4449E","title":"克丽缇娜No.08025","lon":"121.46657","lat":"31.2798","category":"148","category_name":"美容美发店","address":"虹口区广中路580号"},{"poiid":"B2094654D56DA5FA4098","title":"三湘花苑","lon":"121.46474","lat":"31.277779","category":"47","category_name":"住宅区","address":"株洲路300弄1-12号,17-26号"},{"poiid":"B2094655D26AA3FB479E","title":"利普职业培训学校","lon":"121.45985","lat":"31.27868","category":"247","category_name":"餐饮美食","address":"闸北区广中路698号4楼(平型关路口)"},{"poiid":"B2094654D56DA5FC4892","title":"广中小区","lon":"121.46733","lat":"31.28098","category":"47","category_name":"住宅区","address":"广中路547弄-561弄"},{"poiid":"B2094655D26CA0F84698","title":"喜士多广粤门市","lon":"121.46675","lat":"31.27979","category":"117","category_name":"便民商店/便利店","address":"广中路574"},{"poiid":"B2094655D26CA0FF499D","title":"慧芝湖花园(南门)","lon":"121.45963","lat":"31.27982","category":"656","category_name":"大门","address":""},{"poiid":"B2094757D168A0FF4198","title":"海味阁","lon":"121.4643","lat":"31.28515","category":"260","category_name":"其他","address":"虹口区广灵四路805号(广粤路口)"},{"poiid":"B2094750D669A5F4429A","title":"慧芝湖三期","lon":"121.458213","lat":"31.279575","category":"47","category_name":"住宅区","address":"平型关路广中路"},{"poiid":"B2094655D265ABFE4698","title":"宇航轮胎总汇","lon":"121.46142","lat":"31.2852","category":"248","category_name":"生活娱乐","address":"北宝兴路857"},{"poiid":"B2094654D56DA5F4489A","title":"上大东村","lon":"121.46081","lat":"31.277655","category":"47","category_name":"住宅区","address":"平型关路801,669弄"},{"poiid":"B2094757D16EA6FB4593","title":"慧芝湖三期售楼处","lon":"121.4582491","lat":"31.281187647","category":"500","category_name":"未知分类","address":"上海市闸北区共和新路"},{"poiid":"B2094750DB64A2FA499A","title":"虹口法院","lon":"121.45732169988","lat":"31.279439177906","category":"608","category_name":"法院","address":"北宝兴路531号"},{"poiid":"B2094654DB6BA3FF449D","title":"中虹花园·虹韵家园(西门)","lon":"121.46577","lat":"31.28358","category":"48","category_name":"楼宇大门","address":"广粤路150弄1-23号"},{"poiid":"B2094757D06AA6F54799","title":"108同心路终点站","lon":"121.4650741","lat":"31.278200584","category":"500","category_name":"未知分类","address":"上海市虹口区株洲路新同心路"},{"poiid":"B2094655D26FA5F9499F","title":"上海云峰虹口汽车销售服务有限公司","lon":"121.46532","lat":"31.28522","category":"159","category_name":"汽车维修","address":"虹口区广粤路231号(近广灵四路)"},{"poiid":"B2094654D56DA5F44792","title":"平广大楼","lon":"121.45937","lat":"31.27874","category":"47","category_name":"住宅区","address":"平型关路801弄14号"},{"poiid":"B2094654DB6AA7F5499B","title":"邮政储蓄凉城支所","lon":"121.46527","lat":"31.28508","category":"150","category_name":"银行","address":"虹口区广粤路213号-215号"},{"poiid":"B2094757D16CA2FA4498","title":"嘉悦天地","lon":"121.4579294","lat":"31.279319874","category":"500","category_name":"未知分类","address":"上海平型关路1088弄"},{"poiid":"B2094654D56DA5FE4899","title":"贤林茶社","lon":"121.46396","lat":"31.28559","category":"260","category_name":"其他","address":"虹口区广灵四路(近广粤路)"},{"poiid":"B2094757D16AA1F5439E","title":"久久丫鸭颈王(广中路店)","lon":"121.46673","lat":"31.27954","category":"247","category_name":"餐饮美食","address":"上海虹口区广中路590号(近广粤路)  "},{"poiid":"B2094654D56DA5F44892","title":"平型关路615弄小区","lon":"121.468","lat":"31.2807","category":"47","category_name":"住宅区","address":"平型关路615弄"},{"poiid":"B2094757D16CA4F8429E","title":"广中绿地","lon":"121.4590975","lat":"31.27940841","category":"500","category_name":"未知分类","address":"闸北区广延路418号(近广中路)"},{"poiid":"B2094654D56DA5F44393","title":"春满园公寓南方·格林蓝天","lon":"121.46707","lat":"31.27923","category":"47","category_name":"住宅区","address":"广中路586弄"},{"poiid":"B2094654D56DA5FC4893","title":"广中小区(南门)","lon":"121.46742","lat":"31.28027","category":"47","category_name":"住宅区","address":"广中路547-561弄"},{"poiid":"B2094655D265A2FA459B","title":"夏天广场","lon":"121.4582","lat":"31.27896","category":"201","category_name":"城市广场","address":""},{"poiid":"B2094654D56DA5FA4893","title":"旭阳苑","lon":"121.46098","lat":"31.276703","category":"47","category_name":"住宅区","address":"上海北宝兴路618弄"},{"poiid":"B2094654D56DA5F44593","title":"永巍公寓(北门)","lon":"121.4639","lat":"31.27979","category":"48","category_name":"楼宇大门","address":"广中路618"},{"poiid":"B2094757D66FA7FE4098","title":"大宁派出所","lon":"121.4566881","lat":"31.284390714","category":"609","category_name":"警察局","address":"上海市闸北区彭江路200号1楼"},{"poiid":"B2094654D56DA5F44793","title":"平广大楼(西门)","lon":"121.45909","lat":"31.27864","category":"47","category_name":"住宅区","address":"平型关路801弄14号"},{"poiid":"B2094654D56DA5FE4893","title":"万峰梦湖苑(北门)","lon":"121.46285","lat":"31.28483","category":"656","category_name":"大门","address":"广灵四路881弄1-54号"},{"poiid":"B209475DD26DA4F54298","title":"大宁国际商业广场","lon":"121.465049","lat":"31.278583","category":"500","category_name":"未知分类","address":"上海市 闸北区共和新路"},{"poiid":"B2094655D26FA0F9459E","title":"乾弘佳园(北一门)","lon":"121.46377","lat":"31.27976","category":"656","category_name":"大门","address":"广中路620弄"},{"poiid":"B2094655D26FA0F94599","title":"东广大厦(北门)","lon":"121.46736","lat":"31.27973","category":"49","category_name":"无中心点楼宇大门","address":"广中路568"},{"poiid":"B2094750D565A0F4499D","title":"杭州","lon":"121.459213","lat":"31.280603","category":"627","category_name":"一般地点标志","address":"西湖大道"},{"poiid":"B2094757D068A6F4429E","title":"乾虹佳苑","lon":"121.46552708","lat":"31.277394646","category":"47","category_name":"住宅区","address":"上海广中路620弄"},{"poiid":"B2094757D165A3FA419B","title":"上海市虹口区广粤副食品市场","lon":"121.466286203","lat":"31.2850137273","category":"500","category_name":"未知分类","address":"上海虹口区广粤路广灵四路路口"},{"poiid":"B2094757DA65A5F5459F","title":"汉庭快捷酒店（上海广粤路店）","lon":"121.465812027","lat":"31.286970316","category":"216","category_name":"经济型连锁酒店","address":"广粤路281号"},{"poiid":"B2094654D56DA5F4459D","title":"诹访棋牌馆","lon":"121.46421","lat":"31.27986","category":"175","category_name":"棋牌室","address":"广中路616"},{"poiid":"B2094757D069A4F84799","title":"三湘明珠花苑","lon":"121.464743","lat":"31.277779","category":"47","category_name":"住宅区","address":"上海市虹口区"},{"poiid":"B2094654D56DA5F4489B","title":"上大东村(西门)","lon":"121.4596","lat":"31.27733","category":"47","category_name":"住宅区","address":"平型关路801弄、669弄"},{"poiid":"B2094654D56DA5F94792","title":"建明花苑(东门)","lon":"121.46485","lat":"31.27933","category":"48","category_name":"楼宇大门","address":"株洲路388弄1-19号"},{"poiid":"B2094757D66DA0F44192","title":"Mothercare","lon":"121.468609103","lat":"31.2825306753","category":"500","category_name":"未知分类","address":"上海虹口龙之梦店"},{"poiid":"B2094757D66EA1FE4793","title":"招商银行(凉城路自助银行)","lon":"121.467008173","lat":"31.2837824815","category":"150","category_name":"银行","address":"上海凉城路289号"},{"poiid":"B2094757D569A0FE4499","title":"磊盛足道","lon":"121.4649508","lat":"31.27887389","category":"149","category_name":"洗浴推拿场所","address":"虹口区株洲路360号(近广中路)"},{"poiid":"B2094655D26FA0F4439B","title":"欣武大厦(北门)","lon":"121.45996","lat":"31.27931","category":"48","category_name":"楼宇大门","address":"广中路698"},{"poiid":"B2094757D169A2FE419D","title":"大宁路街道","lon":"121.457069","lat":"31.284772","category":"500","category_name":"未知分类","address":"上海彭江路188号"},{"poiid":"B2094654D56DA5FA4099","title":"三湘花苑(东门)","lon":"121.46514","lat":"31.27783","category":"47","category_name":"住宅区","address":"株洲路300弄1-12号、17-26号"},{"poiid":"B209475CDB6FA1F4469F","title":"上海大学秋实楼","lon":"121.457565","lat":"31.278762","category":"500","category_name":"未知分类","address":"上海市 广中路788号"},{"poiid":"B2094655D26DA6F84193","title":"海叶新苑虹口宜家(东门)","lon":"121.46491","lat":"31.28096","category":"656","category_name":"大门","address":""},{"poiid":"B2094757D66CAAF54898","title":"好德便利(店广中路店)","lon":"121.46757","lat":"31.27996","category":"117","category_name":"便民商店/便利店","address":"虹口区广中路549号(近新同心路)"},{"poiid":"B2094757D06BA4FE4292","title":"上海银行广中路支行","lon":"121.467596","lat":"31.279756","category":"500","category_name":"未知分类","address":"闸北区广中路879号(近共和新路)"},{"poiid":"B2094654D56DA5FC4992","title":"久业家苑(南门)","lon":"121.4681","lat":"31.2802","category":"47","category_name":"住宅区","address":"广中路525弄1-32号"},{"poiid":"B2094654D56DA5FA499A","title":"旭阳苑(东门)","lon":"121.46207","lat":"31.27647","category":"47","category_name":"住宅区","address":"北宝兴路618弄"},{"poiid":"B2094757D065A5FA469D","title":"大宁路派出所","lon":"121.456844","lat":"31.284933","category":"609","category_name":"警察局","address":"上海闸北区彭江路200号"},{"poiid":"B2094655D26DABF84198","title":"乾弘佳园(北二门)","lon":"121.46299","lat":"31.27966","category":"656","category_name":"大门","address":""},{"poiid":"B2094757D06BA4F84292","title":"国家税务局（闸北区分局）","lon":"121.46042633","lat":"31.278320312","category":"500","category_name":"未知分类","address":"上海市闸北区中山北路198号"},{"poiid":"B2094655D265A0FD469C","title":"教育超市广中路店","lon":"121.45663","lat":"31.28006","category":"118","category_name":"超级市场","address":"闸北区广中路805号上海大学学生公寓G2楼底楼(近平型关路)"},{"poiid":"B2094654D56DA5F9479C","title":"三湘花苑东苑(西门)","lon":"121.46582","lat":"31.27722","category":"47","category_name":"住宅区","address":""},{"poiid":"B2094757D165AAFD4592","title":"上海理工大学图书馆(南汇校区)","lon":"121.457719903","lat":"31.2786357939","category":"181","category_name":"图书馆","address":"上海拱极路3800号"},{"poiid":"B2094654D56DA5F9499C","title":"上海市园林工程有限公司","lon":"121.46492","lat":"31.27827","category":"263","category_name":"公司","address":"广中路668号"},{"poiid":"B2094654D56DA5FE499D","title":"水木年华花园(南门)","lon":"121.46295","lat":"31.28544","category":"656","category_name":"大门","address":"广灵四路866弄"},{"poiid":"B2094654D56DA5FA4793","title":"上海联华生鲜食品加工配送中心有限公司","lon":"121.46116","lat":"31.27786","category":"263","category_name":"公司","address":"北宝兴路624号"},{"poiid":"B2094757D16DA4F5499D","title":"天一生水护肤养生会所","lon":"121.46511","lat":"31.27828","category":"148","category_name":"美容美发店","address":"上海静安区吴江路188号静安新时代大厦6A座(近南京西路)  "},{"poiid":"B2094757D16BABFE4598","title":"547车站","lon":"121.460980103","lat":"31.2793786095","category":"251","category_name":"出行住宿","address":"上海市虹口区广中路"},{"poiid":"B2094654DB6AAAFE439C","title":"粤秀小区(东门)","lon":"121.46073","lat":"31.28818","category":"47","category_name":"住宅区","address":"粤秀路318弄"},{"poiid":"B2094757D168A7FA4393","title":"上海大学延长校区G3学生公寓1010寝","lon":"121.4569217","lat":"31.284462515","category":"500","category_name":"未知分类","address":"上海市闸北区广中路805号"},{"poiid":"B2094757D568A5FA4499","title":"大宁社区文化活动中心","lon":"121.457015","lat":"31.283647","category":"248","category_name":"生活娱乐","address":"中国上海市闸北区"},{"poiid":"B2094757D16EA3F94592","title":"国家电网上海市电力公司检修公司","lon":"121.4563731","lat":"31.281912662","category":"500","category_name":"未知分类","address":"上海共和新路2501号"},{"poiid":"B2094654D56DA5F4439F","title":"上海银行上财支行营业部","lon":"121.46755","lat":"31.27976","category":"150","category_name":"银行","address":"广中路566号"},{"poiid":"B2094750D26DA4FE449E","title":"伊诺咖啡 株洲路店 Y.N.C COFFEE","lon":"121.465515","lat":"31.278875","category":"260","category_name":"其他","address":"虹口区株洲路379号(近广中路)"},{"poiid":"B2094654D56DA5F4449A","title":"春满园公寓南方·格林蓝天(北门)","lon":"121.46714","lat":"31.27973","category":"48","category_name":"楼宇大门","address":"广中路586弄"},{"poiid":"B2094655D265A7FD4398","title":"中国电信天翼专营店","lon":"121.46754","lat":"31.28617","category":"138","category_name":"家电电子卖场","address":"广灵四路587-589号"},{"poiid":"B2094757D66CA0F8459A","title":"广中路581弄环城公寓","lon":"121.467574103","lat":"31.2796506151","category":"500","category_name":"未知分类","address":"上海环城公寓"},{"poiid":"B2094655D26CA0FB4799","title":"大宁路派出所(彭江路)","lon":"121.45689","lat":"31.28485","category":"248","category_name":"生活娱乐","address":"彭江路200"},{"poiid":"B2094757DB6DA1FC4198","title":"宝华城市花园","lon":"121.459467","lat":"31.277916","category":"251","category_name":"出行住宿","address":"株州路399弄"},{"poiid":"B2094757D164AAFA449C","title":"Marc's House","lon":"121.4614531","lat":"31.276429547","category":"500","category_name":"未知分类","address":"上海闸北区北宝兴路618弄3号602"},{"poiid":"B2094757D169A2FC469F","title":"上海社科院 五楼报告厅","lon":"121.4668971","lat":"31.286667761","category":"500","category_name":"未知分类","address":"上海徐汇区中山西路1610号 近徐虹中路"},{"poiid":"B2094654D56DA5FF4892","title":"上海手术器械厂","lon":"121.4615","lat":"31.28797","category":"263","category_name":"公司","address":"粤秀路351号"},{"poiid":"B2094757D169A3F9479E","title":"东方浮庭","lon":"121.46097968","lat":"31.27798058","category":"260","category_name":"其他","address":"上海陆家嘴轨交站"},{"poiid":"B2094757D16EA5FA449F","title":"108车站","lon":"121.459073","lat":"31.278556","category":"251","category_name":"出行住宿","address":"上海平型关路广中路"},{"poiid":"B2094757D164ABF8469A","title":"鸿飞模型","lon":"121.46695","lat":"31.27969","category":"260","category_name":"其他","address":"虹口区广中路633弄3号601室(近广粤路)"},{"poiid":"B2094655D26FA6FC459E","title":"水木年华花园(西门)","lon":"121.46168","lat":"31.28725","category":"656","category_name":"大门","address":""}]