[{"poiid":"B2094655D26BA1F54793","title":"G50沪渝高速徐泾收费站","lon":"121.31355","lat":"31.15939","category":"267","category_name":"收费站","address":"上海市松江区"},{"poiid":"B2094757D06FAAF9489B","title":"贝尚湾","lon":"121.316315","lat":"31.147105","category":"500","category_name":"未知分类","address":"松江区沪亭北路338弄"},{"poiid":"B2094757D569A7FD4093","title":"绿庭尚城","lon":"121.31324","lat":"31.145933","category":"47","category_name":"住宅区","address":"松江区涞寅路658弄"},{"poiid":"B2094654DA64A4FD4893","title":"颐亭花园","lon":"121.29871","lat":"31.146633","category":"47","category_name":"住宅区","address":"涞坊路1188弄"},{"poiid":"B2094757D16FA5F44293","title":"上海公馆","lon":"121.305277","lat":"31.151884","category":"47","category_name":"住宅区","address":"上海市松江区涞坊路1199弄"},{"poiid":"B2094757D664A6F44292","title":"麦当劳 北九亭店 McDonald's","lon":"121.311680054","lat":"31.155125793","category":"68","category_name":"快餐厅","address":"松江区九亭镇沪亭北路649号摩立盛会生活广场1楼(近涞寅路)"},{"poiid":"B2094757D068A5FA4393","title":"和记小菜(九亭店)","lon":"121.29919","lat":"31.14638","category":"76","category_name":"上海菜","address":"松江区涞坊路1035号"},{"poiid":"B2094654DA64A4FE489A","title":"摩卡小城","lon":"121.316","lat":"31.1504","category":"47","category_name":"住宅区","address":"松江区九亭镇九杜路505弄"},{"poiid":"B2094757D169A1FD4898","title":"上海房地产学校","lon":"121.29724076","lat":"31.162984829","category":"500","category_name":"未知分类","address":"上海高泾路588号"},{"poiid":"B2094655D36CA7FE409F","title":"沪亭北路涞坊路","lon":"121.31381","lat":"31.15164","category":"38","category_name":"公交车站","address":""},{"poiid":"B2094757D168A4F4499D","title":"上海源花城","lon":"121.30376","lat":"31.141529","category":"500","category_name":"未知分类","address":"上海市徐汇区柳州路181弄"},{"poiid":"B2094655D264A7FD429D","title":"金丰蓝庭","lon":"121.31142","lat":"31.15565","category":"47","category_name":"住宅区","address":"上海市松江区沪亭北路1080弄"},{"poiid":"B2094750D26CA1FF439C","title":"农家乐","lon":"121.31572","lat":"31.14803","category":"87","category_name":"特色／地方风味餐厅","address":"松江区沪亭北路1299号"},{"poiid":"B2094757D068A6F8439E","title":"甜蜜蜜(贝尚湾店)","lon":"121.31741883","lat":"31.146581382","category":"72","category_name":"广东菜","address":"松江区沪亭北路408号(近涞寅路)"},{"poiid":"B2094757D06AA1FE409F","title":"知雅汇","lon":"121.31909","lat":"31.154091","category":"500","category_name":"未知分类","address":"上海松江九亭涞坊路333弄"},{"poiid":"B2094757D069A3FE459B","title":"朗庭上郡","lon":"121.307342","lat":"31.151194","category":"47","category_name":"住宅区","address":"上海朗亭路涞坊路"},{"poiid":"B2094757D464AAFD469B","title":"普罗旺斯茶餐厅","lon":"121.316969","lat":"31.14645","category":"247","category_name":"餐饮美食","address":"九亭镇沪亭北路488号贝尚湾商业街2楼近莱寅路"},{"poiid":"B2094757D16EA0FD4098","title":"中大九如堂","lon":"121.30691656","lat":"31.153595031","category":"247","category_name":"餐饮美食","address":"上海九杜路1000弄"},{"poiid":"B2094757D06AA4F94692","title":"英伦风尚","lon":"121.312","lat":"31.1543","category":"500","category_name":"未知分类","address":"松江区涞坊路1033弄(近和记小菜)"},{"poiid":"B2094655D36DA7F5429B","title":"涞坊路","lon":"121.29808","lat":"31.14604","category":"38","category_name":"公交车站","address":""},{"poiid":"B2094757D065AAFF499E","title":"观庭别墅","lon":"121.289","lat":"31.1563","category":"47","category_name":"住宅区","address":"上海青浦区徐泾镇联民路55弄"},{"poiid":"B2094757D66BA5FC499E","title":"Delious Bakery","lon":"121.30642","lat":"31.149919","category":"112","category_name":"糕饼店","address":"松江区涞仿路九杜路(近中大九里德)"},{"poiid":"B2094757D16AA2F5489F","title":"西郊紫郡别墅区","lon":"121.29214336","lat":"31.1537538348","category":"47","category_name":"住宅区","address":"上海徐泾镇高泾路258弄"},{"poiid":"B2094757D068A2FE4893","title":"捷克住宅小区","lon":"121.28497788889","lat":"31.16487780953","category":"47","category_name":"住宅区","address":"上海市青浦区徐泾镇联民路88弄"},{"poiid":"B2094655D36DA0FA499B","title":"茵芳小区","lon":"121.29456","lat":"31.14424","category":"47","category_name":"住宅区","address":""},{"poiid":"B2094750D569A4F4489B","title":"新虹桥首府","lon":"121.306095","lat":"31.149653","category":"47","category_name":"住宅区","address":"松江九杜路939号(近涞坊路)"},{"poiid":"B2094757D66EA5FF419F","title":"药膳猪肚鸡","lon":"121.29639183","lat":"31.147634405","category":"247","category_name":"餐饮美食","address":"上海近郊松江区涞坊路1200号(近涞寅路)  "},{"poiid":"B2094655D36CA0FC4599","title":"九谊路","lon":"121.30353","lat":"31.14831","category":"38","category_name":"公交车站","address":""},{"poiid":"B2094654DA64A4FD4892","title":"松江区九亭中学","lon":"121.30851","lat":"31.15087","category":"55","category_name":"中学","address":"上海市松江区九亭镇涞坊路600号"},{"poiid":"B2094655D36CA0FC499A","title":"九杜路涞坊路","lon":"121.3066","lat":"31.14916","category":"38","category_name":"公交车站","address":""},{"poiid":"B2094757D66AA5FB439B","title":"景颐茶馆","lon":"121.299355054","lat":"31.149724793","category":"260","category_name":"其他","address":"松江区北九亭涞坊路601号(九亭中学对面)"},{"poiid":"B2094655D36DA7F5429E","title":"涞坊路九谊路(招呼站)","lon":"121.3009","lat":"31.1472","category":"38","category_name":"公交车站","address":""},{"poiid":"B2094751D565A2F4479E","title":"久光百货","lon":"121.298453","lat":"31.142894","category":"249","category_name":"购物服务","address":"南京西路1618号"},{"poiid":"B2094757D164A1FE4393","title":"喜粤茶餐厅","lon":"121.29587823","lat":"31.147312598","category":"72","category_name":"广东菜","address":"上海涞坊路1033弄"},{"poiid":"B2094757D16CA6F54392","title":"汇贤阁","lon":"121.30805","lat":"31.14946","category":"247","category_name":"餐饮美食","address":"松江涞坊路699弄5,6,9,10号"},{"poiid":"B2094654DA64A4FF439E","title":"上海大学房地产学院","lon":"121.29664","lat":"31.16341","category":"52","category_name":"高等院校","address":"青浦区高泾路588"},{"poiid":"B2094654DA64A4FC489E","title":"九城湖滨","lon":"121.31677","lat":"31.14697","category":"47","category_name":"住宅区","address":"九亭镇"},{"poiid":"B2094751D26EA3F4469B","title":"上海欢乐谷","lon":"121.308067","lat":"31.13886","category":"250","category_name":"公园户外","address":"佘山"},{"poiid":"B2094757D06BA7FC409D","title":"越由大酒店 九亭店","lon":"121.31691","lat":"31.14572","category":"76","category_name":"上海菜","address":"松江区沪亭北路348号贝尚坊商业广场(近地铁九号线九亭站)"},{"poiid":"B2094655D264A7FC4093","title":"西郊紫郡一期","lon":"121.30043","lat":"31.1586","category":"47","category_name":"住宅区","address":"上海市青浦区高泾路258弄"},{"poiid":"B2094654DA64A4FD419D","title":"御泓苑公馆","lon":"121.29909","lat":"31.14581","category":"47","category_name":"住宅区","address":"涞坊路1199"},{"poiid":"B2094654DA64A4FE479E","title":"九溪十八岛","lon":"121.2971","lat":"31.160858","category":"47","category_name":"住宅区","address":"高泾路399弄"},{"poiid":"B2094757D069A3FC459E","title":"汤豪仕汤馆(贝尚坊店)","lon":"121.319308","lat":"31.149971","category":"72","category_name":"广东菜","address":"松江区沪亭北路488号贝尚湾休闲广场128铺(近贝尚湾休闲广场)"},{"poiid":"B2094757D16DA7FD429F","title":"上海德法学校","lon":"121.308452","lat":"31.161429","category":"253","category_name":"校园生活","address":"上海青浦区徐泾镇高光路350号"},{"poiid":"B2094757D06BA0FC4898","title":"联怡枇杷生态园","lon":"121.29807298","lat":"31.14903566","category":"260","category_name":"其他","address":"上海外青松公路7166号"},{"poiid":"B2094655D36DA7FD419B","title":"宅东居委","lon":"121.29872","lat":"31.15971","category":"38","category_name":"公交车站","address":""},{"poiid":"B2094750D76CA2F9409B","title":"釜山火炉(沪亭北路店)","lon":"121.313","lat":"31.1532","category":"96","category_name":"韩国料理","address":"松江区沪亭北路607弄摩立盛会生活广场12号(近涞寅路)"},{"poiid":"B2094654DA64ABFB4299","title":"ABENDBROT","lon":"121.30471","lat":"31.15895","category":"112","category_name":"糕饼店","address":""},{"poiid":"B2094750D76FA6F8409E","title":"炎记药膳猪肚鸡","lon":"121.299","lat":"31.1464","category":"260","category_name":"其他","address":"松江区涞坊路1069号(近九谊路)"},{"poiid":"B2094750DB6FA5FE4193","title":"莘庄百盛","lon":"121.291847","lat":"31.152107","category":"249","category_name":"购物服务","address":null},{"poiid":"B2094757D66BABFF4492","title":"蜀得川菜","lon":"121.313704","lat":"31.151798","category":"71","category_name":"四川菜","address":"松江区沪亭北路769号(近涞坊路)"},{"poiid":"B2094757D06FABFA419E","title":"魔立盛汇生活广场","lon":"121.31591","lat":"31.14791","category":"119","category_name":"商场","address":"松江区沪亭北路(近涞寅路)"},{"poiid":"B2094757D568A0FA4198","title":"中大九里德三期","lon":"121.3122469","lat":"31.15114083","category":"47","category_name":"住宅区","address":"九杜路1000弄(近涞坊路)"},{"poiid":"B2094654DA64ABFB429C","title":"徐泾镇社区卫生服务中心宅东卫生服务点","lon":"121.30525","lat":"31.15887","category":"162","category_name":"医院","address":""},{"poiid":"B2094757D164A2FD439C","title":"五洲云锦花苑","lon":"121.31380611","lat":"31.151650945","category":"500","category_name":"未知分类","address":"上海涞坊路599号"},{"poiid":"B2094654DA64A4FE409D","title":"松沪工业B区","lon":"121.29129","lat":"31.14663","category":"45","category_name":"产业园区","address":""},{"poiid":"B2094752D76CA2F84692","title":"上海市儿童医院","lon":"121.294","lat":"31.14492","category":"162","category_name":"医院","address":null},{"poiid":"B2094655D36CA0FC4598","title":"九泾路涞访路","lon":"121.29215","lat":"31.14084","category":"38","category_name":"公交车站","address":""},{"poiid":"B2094757DA65A3FC429B","title":"四季炭烤","lon":"121.3125530052513","lat":"31.14846657877127","category":"247","category_name":"餐饮美食","address":"松江区九亭镇沪亭北路350弄30号贝尚坊216单元(近涞寅路)"},{"poiid":"B2094750D76FA5FC429D","title":"品尚豆捞(九亭店)","lon":"121.312","lat":"31.1527","category":"86","category_name":"火锅店","address":"松江区涞坊路520号(近沪亭北路)"},{"poiid":"B2094757D169A0F94693","title":"贝力健身","lon":"121.308513","lat":"31.150871","category":"220","category_name":"运动场所","address":"上海松江区"},{"poiid":"B2094655D264A0F94992","title":"速8酒店(上海七宝店)","lon":"121.31024","lat":"31.14189","category":"216","category_name":"经济型连锁酒店","address":"松江区九杜路349号"},{"poiid":"B2094757DA65A5F5449B","title":"莫泰168（上海九亭涞寅路店）","lon":"121.307532191","lat":"31.142741081","category":"216","category_name":"经济型连锁酒店","address":"上海松江区九亭镇涞寅路1027号"},{"poiid":"B2094757D568A6F8479D","title":"上大房产学院食堂","lon":"121.2966461","lat":"31.16340806","category":"68","category_name":"快餐厅","address":"青浦区高泾路588号上大房产学院内"},{"poiid":"B2094655D36DA1FA429E","title":"贝尚湾(贝沙湾)","lon":"121.31691","lat":"31.14578","category":"47","category_name":"住宅区","address":"沪亭北路338弄"},{"poiid":"B2094757D169AAF9479E","title":"G50沪渝高速沪苏收费站","lon":"121.310052","lat":"31.157941","category":"267","category_name":"收费站","address":"苏州G50沪渝高速沪苏收费站"},{"poiid":"B2094751D265AAF44699","title":"切意烤羊腿","lon":"121.31524","lat":"31.14647","category":"82","category_name":"东北菜","address":"松江区沪亭北路607弄摩立广场25-26号(近涞寅路)"},{"poiid":"B2094655D36DA7F5439F","title":"涞寅路(上海源花城)","lon":"121.30362","lat":"31.14118","category":"38","category_name":"公交车站","address":""},{"poiid":"B2094750D165A1F4449B","title":"金丰蓝庭三期","lon":"121.311553","lat":"31.153264","category":"47","category_name":"住宅区","address":"沪亭北路901弄"},{"poiid":"B2094757D66FA7F44393","title":"吉祥馄饨","lon":"121.31394046","lat":"31.1513469841","category":"68","category_name":"快餐厅","address":"松江区沪亭北路793号(近涞坊路)"},{"poiid":"B2094750D56AA0FE479E","title":"朗庭上郡苑","lon":"121.312","lat":"31.1596","category":"47","category_name":"住宅区","address":"松江区朗亭路288弄"},{"poiid":"B2094753D26AABF84698","title":"上海佘山索菲特酒店","lon":"121.291278","lat":"31.157179","category":"500","category_name":"未知分类","address":"上海市 松江区泗泾镇泗陈公路3388弄"},{"poiid":"B2094757D06BA6FD4398","title":"采埃孚（中国）投资有限公司","lon":"121.288070679","lat":"31.1493873596","category":"263","category_name":"公司","address":"上海松江区九泾路889号"},{"poiid":"B2094655D36DA2FF4799","title":"朱坊小寅河桥","lon":"121.29021","lat":"31.14754","category":"250","category_name":"公园户外","address":""},{"poiid":"B2094757D16DA3FB409A","title":"河边","lon":"121.31197559","lat":"31.154731645","category":"500","category_name":"未知分类","address":"上海沪亭北路"},{"poiid":"B2094757D168A5F9489D","title":"G15沈海高速沪松公路收费站","lon":"121.3047774","lat":"31.1329520859","category":"267","category_name":"收费站","address":"上海G15沈海高速沪松公路收费站"},{"poiid":"B2094757D16FA7F8469A","title":"松江九亭","lon":"121.31459616","lat":"31.1524715078","category":"500","category_name":"未知分类","address":"上海九亭涞坊"},{"poiid":"B2094654DA64A0FC4792","title":"上海市房地产管理进修学院","lon":"121.29664","lat":"31.1634","category":"53","category_name":"成人教育","address":"高泾路588"},{"poiid":"B2094757D168ABF5459E","title":"居礼别墅","lon":"121.294931","lat":"31.163597","category":"47","category_name":"住宅区","address":"上海高泾路555弄"},{"poiid":"B2094654D56AA6F94098","title":"西郊美林馆","lon":"121.29268","lat":"31.166145","category":"47","category_name":"住宅区","address":"上海市青浦区高泾路689弄"},{"poiid":"B2094757D469A3FE459B","title":"老北京火锅","lon":"121.31607","lat":"31.14661","category":"86","category_name":"火锅店","address":"松江区沪亭北路649号摩立盛会生活广场(近涞寅路)"},{"poiid":"B2094757DA6EAAFA479D","title":"味中味新农庄","lon":"121.312129497528","lat":"31.1523134713104","category":"247","category_name":"餐饮美食","address":"松江区沪亭北路721号"},{"poiid":"B2094655D36DA7F5439E","title":"涞寅路","lon":"121.31233","lat":"31.14489","category":"38","category_name":"公交车站","address":""},{"poiid":"B2094751DA6CA0FC4093","title":"久光百货","lon":"121.298446","lat":"31.14289","category":"249","category_name":"购物服务","address":"上海市南京西路"},{"poiid":"B2094757D06AA5F4499C","title":"上海奥林匹克花园二期","lon":"121.31157684","lat":"31.144220352","category":"46","category_name":"楼宇","address":"上海市松江区沪松公路1100号"},{"poiid":"B2094753D76DA1F9489B","title":"儿童医院","lon":"121.302932","lat":"31.140871","category":"162","category_name":"医院","address":"上海市 北京西路1400弄24号"},{"poiid":"B2094654DA64A4FF439B","title":"西郊紫郡","lon":"121.30683852572","lat":"31.164814439571","category":"47","category_name":"住宅区","address":"高泾路258弄"},{"poiid":"B209475CD76AA2FA469C","title":"洞二巴","lon":"121.295898","lat":"31.14258","category":"500","category_name":"未知分类","address":"上海市 上海市松江区九亭涞坊路1055号"},{"poiid":"B2094752D069A4FF4698","title":"上海市静安区静安寺","lon":"121.298462","lat":"31.142899","category":"500","category_name":"未知分类","address":null},{"poiid":"B2094655D36CA0FC459E","title":"九泾路沧泾路","lon":"121.2842","lat":"31.14817","category":"38","category_name":"公交车站","address":""},{"poiid":"B2094753D76CAAFE469B","title":"南京西路","lon":"121.309745","lat":"31.146142","category":"500","category_name":"未知分类","address":"上海市 南京西路"},{"poiid":"B2094655D36CA0FC499B","title":"九杜路涞寅路","lon":"121.31016","lat":"31.14351","category":"38","category_name":"公交车站","address":""},{"poiid":"B2094654DA64A4FC499C","title":"小区(涞寅路)","lon":"121.30393","lat":"31.14148","category":"47","category_name":"住宅区","address":"涞寅路1200弄2-104号"},{"poiid":"B2094654D56AA5F84392","title":"西郊园中园","lon":"121.29521","lat":"31.16485","category":"47","category_name":"住宅区","address":"上海市青浦区高泾路658弄"},{"poiid":"B2094750DB6AA0FE449A","title":"五洲云景","lon":"121.313476","lat":"31.150226","category":"47","category_name":"住宅区","address":"九亭涞坊路五洲云景"},{"poiid":"B2094757D76CA0FD459A","title":"重庆食尚麻辣烫 沪亭北路店","lon":"121.31499","lat":"31.14943","category":"68","category_name":"快餐厅","address":"松江区沪亭北路787号(近涞坊路)"},{"poiid":"B2094654DB69A7FA4898","title":"依云郡","lon":"121.31386","lat":"31.153193","category":"47","category_name":"住宅区","address":"松江区九亭镇沪亭北路"},{"poiid":"B2094757D064A5FD459F","title":"700bear","lon":"121.318049505","lat":"31.1462793226","category":"113","category_name":"冷饮店","address":"上海贝尚湾"},{"poiid":"B2094757D16FA6FE4992","title":"点心皇子","lon":"121.31331356","lat":"31.1510867286","category":"148","category_name":"美容美发店","address":"上海沪亭北路735号"},{"poiid":"B2094753D66EA0F4409A","title":"赤坂亭","lon":"121.312451","lat":"31.148487","category":"500","category_name":"未知分类","address":"上海市 沪亭北路"},{"poiid":"B2094752D069A4FF489C","title":"上海市静安区久光百货","lon":"121.298462","lat":"31.142899","category":"500","category_name":"未知分类","address":null},{"poiid":"B2094654D56AA5F8439D","title":"上海贝尔阿尔卡特大学","lon":"121.29434","lat":"31.16477","category":"52","category_name":"高等院校","address":"青浦区高泾路599"},{"poiid":"B2094757D16AAAF84599","title":"上海艺术之家","lon":"121.301395831","lat":"31.1416132751","category":"500","category_name":"未知分类","address":"上海涞寅路1200号31弄"},{"poiid":"B2094757D66BA3FE409F","title":"毛湘土菜馆 沪亭北路店","lon":"121.3157215","lat":"31.1480355","category":"77","category_name":"湖南菜","address":"松江区松江沪亭北路707号(近亭知路)"},{"poiid":"B2094655D26BA1F54799","title":"收费站","lon":"121.31005","lat":"31.15794","category":"267","category_name":"收费站","address":""},{"poiid":"B2094757D464A7F5469C","title":"汤马士比萨 松江店","lon":"121.31758","lat":"31.14451","category":"94","category_name":"西餐厅","address":"松江区九亭沪亭北路607弄12号1楼(近涞演路)"},{"poiid":"B2094654D56AA5F4479B","title":"叠翠别墅","lon":"121.31193","lat":"31.1668","category":"47","category_name":"住宅区","address":"诸光路"},{"poiid":"B2094654DA64A0FC489A","title":"上海房地产行业教育中心(高泾路)","lon":"121.29664","lat":"31.16341","category":"253","category_name":"校园生活","address":"高泾路588"},{"poiid":"B2094752DA6FA0FD469E","title":"杜巷小区","lon":"121.314254","lat":"31.158392","category":"47","category_name":"住宅区","address":"上海市 涞坊路288弄"},{"poiid":"B2094655D36CA7FE409C","title":"沪亭北路涞寅路","lon":"121.31617","lat":"31.14724","category":"38","category_name":"公交车站","address":""},{"poiid":"B2094750DB6DA5F54492","title":"棒约翰 贝尚湾店","lon":"121.316375","lat":"31.146656","category":"247","category_name":"餐饮美食","address":"松江区沪亭北路406号"},{"poiid":"B2094757D568ABF5409B","title":"联华超市(九泾路)","lon":"121.29329671","lat":"31.1401275","category":"118","category_name":"超级市场","address":"中国上海市松江区"},{"poiid":"B2094654DA64A4FD489D","title":"志成花苑","lon":"121.31683","lat":"31.153133","category":"47","category_name":"住宅区","address":"涞坊路333弄"},{"poiid":"B2094757D569A7FF419D","title":"九州通大药房(小寅药店)","lon":"121.29307509","lat":"31.14033664","category":"162","category_name":"医院","address":"中国上海市松江区九泾路"},{"poiid":"B2094750DB6CA1F9409A","title":"赵巷奥特莱斯","lon":"121.2949401727597","lat":"31.16295025923322","category":"249","category_name":"购物服务","address":null},{"poiid":"B2094654D56AA5F8439C","title":"笠笠酒家(高泾路)","lon":"121.29279","lat":"31.167","category":"70","category_name":"综合酒楼","address":"青浦区高泾路689号(近沪青平路)"},{"poiid":"B2094757D66CAAFF439C","title":"婴智贝佳早教中心","lon":"121.31330356","lat":"31.1527920145","category":"500","category_name":"未知分类","address":"上海沪亭北路金丰蓝庭"},{"poiid":"B2094757D064A3F94298","title":"味千拉面(徐泾家乐福店)","lon":"121.29933166","lat":"31.17129898","category":"68","category_name":"快餐厅","address":"青浦区沪青平公路1829号徐泾家乐福(沪青平公路华徐公路)"},{"poiid":"B2094655D36CA0FC449C","title":"九泾路涞寅路","lon":"121.29597","lat":"31.13759","category":"38","category_name":"公交车站","address":""},{"poiid":"B2094751D26DA1FB4693","title":"辰山植物园","lon":"121.313629","lat":"31.158786","category":"250","category_name":"公园户外","address":null},{"poiid":"B2094757D66CA2FF499E","title":"天湘阁酒家","lon":"121.309776131","lat":"31.1394832292","category":"247","category_name":"餐饮美食","address":"松江区九新公路33弄1号(近沪松公路)"},{"poiid":"B2094750D26FA7F4429B","title":"虹桥火车站","lon":"121.290199","lat":"31.167362","category":"251","category_name":"出行住宿","address":null},{"poiid":"B2094757D764A5FA4992","title":"迪欧咖啡 九亭店 DIO CAFE","lon":"121.31689","lat":"31.14576","category":"260","category_name":"其他","address":"松江区九亭沪亭北路350弄贝尚坊商业广场2楼(近地铁九号线九亭站)"},{"poiid":"B2094757D66EA5F4459B","title":"面道小馆","lon":"121.31336116","lat":"31.159290251","category":"247","category_name":"餐饮美食","address":"上海南泉北路35号"},{"poiid":"B2094752D26DAAFD479B","title":"奥来韩国炭烤","lon":"121.31574","lat":"31.14799","category":"96","category_name":"韩国料理","address":"松江区沪亭北路607弄摩立盛汇广场2楼17号(近涞寅路)"},{"poiid":"B2094757D568AAFB489F","title":"松沪工业A区","lon":"121.29600803","lat":"31.13782742","category":"45","category_name":"产业园区","address":"九泾路470"},{"poiid":"B2094654DA64A4FD499B","title":"上海市气象局工程技术园区","lon":"121.289","lat":"31.13891","category":"45","category_name":"产业园区","address":""},{"poiid":"B2094655D36CA6FE439F","title":"高景花园","lon":"121.28931","lat":"31.167875","category":"47","category_name":"住宅区","address":"上海市青浦区高泾路999弄"},{"poiid":"B2094654DA64A1F5419E","title":"上海现代摩比斯有限公司","lon":"121.2861","lat":"31.14562","category":"263","category_name":"公司","address":"九泾路1011"},{"poiid":"B2094655D268ABFE4998","title":"Ａ９徐泾收费站","lon":"121.31353","lat":"31.15945","category":"267","category_name":"收费站","address":""},{"poiid":"B2094757D169A4FE4193","title":"康骏会馆九亭店","lon":"121.318126831","lat":"31.1456663627","category":"500","category_name":"未知分类","address":"上海市松江区沪亭北路488号"},{"poiid":"B2094757D568A0FB489C","title":"志成花苑别墅","lon":"121.3186578","lat":"31.1539875","category":"47","category_name":"住宅区","address":"上海市松江区涞坊路333号"},{"poiid":"B2094757D66DA3F4439B","title":"交通银行九亭支行","lon":"121.31505256","lat":"31.1511459799","category":"150","category_name":"银行","address":"松江区九亭镇沪亭北路738号(近国美电器)"},{"poiid":"B2094654DA64A4FD4299","title":"博洋窗帘布艺","lon":"121.31526","lat":"31.15268","category":"123","category_name":"家具建材市场","address":""},{"poiid":"B2094757D164A4FA4193","title":"九亭诗林别墅小区","lon":"121.31613213","lat":"31.147538203","category":"47","category_name":"住宅区","address":"上海九亭派出所对面"},{"poiid":"B2094654DA64A4FF4399","title":"丽都别墅","lon":"121.304","lat":"31.1674","category":"47","category_name":"住宅区","address":"上海市青浦区高泾路428弄"},{"poiid":"B2094654DA64A6F5449E","title":"宅急送(九泾公路)","lon":"121.29066","lat":"31.14179","category":"248","category_name":"生活娱乐","address":""},{"poiid":"B2094654DA64A5FC479B","title":"大和别墅","lon":"121.309152","lat":"31.136399","category":"47","category_name":"住宅区","address":"大和别墅位于松江沪松公路1991号"},{"poiid":"B2094757D065A2F84198","title":"大华西郊别墅","lon":"121.305","lat":"31.1659","category":"252","category_name":"楼宇机构","address":"上海高泾路380弄"},{"poiid":"B2094655D26FA1FD449F","title":"泰星花园","lon":"121.29197","lat":"31.1656","category":"47","category_name":"住宅区","address":""},{"poiid":"B2094757D66DA7F94399","title":"阿毛饭店","lon":"121.28722356","lat":"31.1628852272","category":"247","category_name":"餐饮美食","address":"上海高泾路999弄"},{"poiid":"B2094655D36CA7FE409E","title":"沪亭北路涞寅路(招呼站)","lon":"121.31683","lat":"31.14583","category":"38","category_name":"公交车站","address":""},{"poiid":"B2094654DA64A4FE459D","title":"上海中南涂料厂","lon":"121.28614","lat":"31.14619","category":"263","category_name":"公司","address":"九泾路1200号"},{"poiid":"B2094654DB65A4FB479C","title":"沁风雅泾·VILLA RIVIERA","lon":"121.28524","lat":"31.16327","category":"47","category_name":"住宅区","address":"东徐联路588弄"},{"poiid":"B2094753D56AA4FD409D","title":"上海外滩","lon":"121.282615","lat":"31.157979","category":"500","category_name":"未知分类","address":"上海市 南京东路"},{"poiid":"B2094654DA64A0FC459C","title":"上海新雅印刷有限公司","lon":"121.29211","lat":"31.14053","category":"263","category_name":"公司","address":"上海市漕宝路70号光大大厦2601室"},{"poiid":"B2094654DB65A4F4449E","title":"荣欣装潢工业园区","lon":"121.28453","lat":"31.14275","category":"45","category_name":"产业园区","address":""},{"poiid":"B2094757D16AA2FB429D","title":"京世美发美容连锁店(九亭店)","lon":"121.31756683","lat":"31.147057392","category":"500","category_name":"未知分类","address":"上海市松江区涞寅路382号"},{"poiid":"B2094750D76EA3FB449A","title":"清风人家(九亭店)","lon":"121.296","lat":"31.136","category":"260","category_name":"其他","address":"松江区九亭镇莱寅路1035号(近九杜路)"},{"poiid":"B2094654DA64A4FD4593","title":"九亭幼儿园(分部)","lon":"121.31821","lat":"31.15382","category":"57","category_name":"幼儿园","address":""},{"poiid":"B2094654DA64A4FE4592","title":"上海弘佳(九泾路)","lon":"121.285","lat":"31.1473","category":"263","category_name":"公司","address":"九泾路1298"},{"poiid":"B2094655D264A1FF419C","title":"好又多(九里亭店)","lon":"121.3115","lat":"31.13619","category":"118","category_name":"超级市场","address":""},{"poiid":"B2094757D569A3FB4792","title":"志成花苑一期","lon":"121.3191519","lat":"31.153205","category":"47","category_name":"住宅区","address":"上海市松江区莱坊路333号"},{"poiid":"B2094654DA64A1F54199","title":"上海轻合金精密成型国家工程研究中心有限公司","lon":"121.28277","lat":"31.1499","category":"263","category_name":"公司","address":""},{"poiid":"B2094654DA64A4FE409E","title":"核威集团上海工业园区","lon":"121.28851","lat":"31.13772","category":"45","category_name":"产业园区","address":"涞坊路2039、2049"},{"poiid":"B2094757D168A6FA4093","title":"广州本田本亭4S店里","lon":"121.31305856","lat":"31.164060252","category":"500","category_name":"未知分类","address":"上海市青浦区高光路"},{"poiid":"B2094757D66FA3F44699","title":"银河英雄传说","lon":"121.31646283","lat":"31.14788641","category":"500","category_name":"未知分类","address":"上海睡前阅读"},{"poiid":"B2094654D56AA5F84498","title":"The Thirsty Monk","lon":"121.29285","lat":"31.16772","category":"172","category_name":"酒吧","address":"高泾路818号"},{"poiid":"B2094757D66CA5F54993","title":"新爱婴","lon":"121.316485581","lat":"31.1465194811","category":"500","category_name":"未知分类","address":"上海九亭贝尚湾"},{"poiid":"B2094654DA64A4FE4892","title":"九里亭社区活动中心","lon":"121.31136","lat":"31.14096","category":"248","category_name":"生活娱乐","address":""},{"poiid":"B2094757D66AABFE439C","title":"700啤酒屋 九亭店","lon":"121.317409","lat":"31.146306","category":"260","category_name":"其他","address":"松江区沪亭北路350弄贝尚坊32号(近涞寅路)"},{"poiid":"B2094655D36CA0FC4699","title":"九亭小学","lon":"121.3132","lat":"31.13821","category":"56","category_name":"小学","address":"松江区九亭镇沪松公路九里亭车站北"},{"poiid":"B2094655D265A5FC499B","title":"G15沪青平公路收费站","lon":"121.28407","lat":"31.1623","category":"267","category_name":"收费站","address":""},{"poiid":"B2094757D66FA1FB429B","title":"曼哈顿星岛(贝尚湾店)","lon":"121.31575256","lat":"31.14879893","category":"173","category_name":"游戏厅","address":"上海市松江区沪亭北路338号"},{"poiid":"B2094655D36CA7F5439E","title":"光联村新区","lon":"121.31372","lat":"31.16592","category":"38","category_name":"公交车站","address":""},{"poiid":"B2094750DA6FA6FF479F","title":"潮人88酒吧","lon":"121.317634","lat":"31.145902","category":"248","category_name":"生活娱乐","address":"九亭镇沪亭北路350号207单元"},{"poiid":"B2094757D16BA5FC489F","title":"700 beer","lon":"121.31757883","lat":"31.146648383","category":"500","category_name":"未知分类","address":"上海市松江区亭知路"},{"poiid":"B2094757D06BA7F44892","title":"上海光启息安骨灰堂","lon":"121.29532152","lat":"31.134386069","category":"260","category_name":"其他","address":"上海沪松公路2188号"},{"poiid":"B2094654DA64A6F5449D","title":"立丰食品有限公司","lon":"121.296","lat":"31.13722","category":"263","category_name":"公司","address":""},{"poiid":"B2094654DA64A4FF469B","title":"正伟印刷","lon":"121.31294","lat":"31.16324","category":"263","category_name":"公司","address":""},{"poiid":"B2094757D66FA2FC4699","title":"京世美容美发连锁机构(九亭店)","lon":"121.317566831","lat":"31.1470573927","category":"148","category_name":"美容美发店","address":"上海市松江区涞寅路382号(近沪亭北路)"},{"poiid":"B2094654DA64A4F4479B","title":"九久花园","lon":"121.31177","lat":"31.13688","category":"47","category_name":"住宅区","address":"九亭镇"},{"poiid":"B2094757D66EA0FB449B","title":"白云新村","lon":"121.313537598","lat":"31.1384563446","category":"47","category_name":"住宅区","address":"上海松江区"},{"poiid":"B2094654D56AABFF4493","title":"光联村图书室","lon":"121.31371","lat":"31.1656","category":"181","category_name":"图书馆","address":""},{"poiid":"B2094654DA64A4FF4699","title":"上海正伟印刷有限公司","lon":"121.31461","lat":"31.16296","category":"263","category_name":"公司","address":"诸光路343号"},{"poiid":"B2094654DA64A4FC499D","title":"上海美瑞实业有限公司","lon":"121.29514","lat":"31.13587","category":"263","category_name":"公司","address":""},{"poiid":"B2094751D469A0FB429B","title":"上海松江大学城站","lon":"121.3092253","lat":"31.1380933","category":"627","category_name":"一般地点标志","address":"松江"},{"poiid":"B2094654DA64A4FE4598","title":"上海沈大成食品有限公司","lon":"121.28223","lat":"31.14459","category":"263","category_name":"公司","address":"寅青路799号"},{"poiid":"B2094654DA64A4FE459B","title":"上海新雅食品有限公司","lon":"121.28223","lat":"31.14458","category":"263","category_name":"公司","address":"寅青路799号"},{"poiid":"B2094654DA64A4FE4599","title":"上海功德林素食工业有限公司","lon":"121.28223","lat":"31.14458","category":"263","category_name":"公司","address":"寅青路799号"},{"poiid":"B2094752D56FABF8439B","title":"虹桥火车站","lon":"121.293996","lat":"31.136754","category":"251","category_name":"出行住宿","address":null},{"poiid":"B2094757D16EA2FA449F","title":"宅东村","lon":"121.30003796","lat":"31.1704559868","category":"500","category_name":"未知分类","address":"上海沪青平公路"},{"poiid":"B2094757D569A2F4439D","title":"上海王宝和大酒店","lon":"121.28591","lat":"31.14206","category":"251","category_name":"出行住宿","address":"九江路555号"},{"poiid":"B2094654D56AABFF449B","title":"康骏推拿足道(西郊景园东北)","lon":"121.29145","lat":"31.16864","category":"149","category_name":"洗浴推拿场所","address":""},{"poiid":"B2094654DA64A1F54398","title":"上海万强科技开发有限公司","lon":"121.3016","lat":"31.13232","category":"263","category_name":"公司","address":"九泾路41"}]