[{"poiid":"B2094655D26FA3FA469F","title":"富春小笼 静安店","lon":"121.43631001986","lat":"31.221026369224","category":"68","category_name":"快餐厅","address":"静安区愚园路650号(近镇宁路)"},{"poiid":"B2094654DB6AA7FC4999","title":"唐宫(维景店)","lon":"121.43456","lat":"31.21748","category":"72","category_name":"广东菜","address":"长宁区东诸安浜路103号维景酒店公寓1-2楼(近江苏路)"},{"poiid":"B2094757D06FA3FB469A","title":"同仁医院","lon":"121.434258778","lat":"31.2205877271","category":"162","category_name":"医院","address":"上海长宁区愚园路738号(近镇宁路)"},{"poiid":"B2094753D76FAAFA449C","title":"上海滩国泰旗舰店","lon":"121.466011","lat":"31.216125","category":"249","category_name":"购物服务","address":"淮海中路868号"},{"poiid":"B209475CD564A7F8439E","title":"上海滩中信泰富店","lon":"121.45602","lat":"31.22851","category":"119","category_name":"商场","address":"\"南京西路1168号中信泰富广场，店铺号221.\r\n\""},{"poiid":"B2094757D06FA1FE479A","title":"大马可意大利餐厅(维景店)","lon":"121.4340661","lat":"31.2182812","category":"94","category_name":"西餐厅","address":"长宁区东诸安浜路103号维景酒店公寓1楼(近镇宁路)"},{"poiid":"B2094655D36DA0F5409E","title":"愚园路镇宁路","lon":"121.43593","lat":"31.22084","category":"38","category_name":"公交车站","address":""},{"poiid":"B2094750D76EAAFC4993","title":"小胖龙虾(镇宁店)","lon":"121.435","lat":"31.2239","category":"68","category_name":"快餐厅","address":"静安区镇宁路483号(近万航渡路)"},{"poiid":"B2094757D06FAAFE4098","title":"福1088","lon":"121.43641","lat":"31.2213","category":"76","category_name":"上海菜","address":"静安区镇宁路375号(愚园路口)"},{"poiid":"B2094750D26DABFE419A","title":"潮辣重庆老火锅","lon":"121.43697","lat":"31.22105","category":"86","category_name":"火锅店","address":"静安区愚园路582号(近镇宁路)"},{"poiid":"B2094654D565A0FE4698","title":"三人行骨头王火锅(长宁店)","lon":"121.4337","lat":"31.21821","category":"86","category_name":"火锅店","address":"长宁区东诸安浜路141号(江苏路镇宁路间)"},{"poiid":"B2094757D468A4FC4993","title":"FENNEL LOUNGE","lon":"121.4369483","lat":"31.2186778","category":"94","category_name":"西餐厅","address":"长宁区镇宁路(近番禺路)"},{"poiid":"B2094757D06FA5F84292","title":"九香牛蛙店(东诸安浜路店)","lon":"121.4339981","lat":"31.217899322","category":"71","category_name":"四川菜","address":"长宁区东诸安浜路127号(近镇宁路)"},{"poiid":"B2094757D06BA7FE439B","title":"小杨生煎(愚园路店)","lon":"121.433412648","lat":"31.2202016265","category":"68","category_name":"快餐厅","address":"长宁区愚园路816号(近地铁2号线江苏路站2号出口)"},{"poiid":"B2094751D36AA1FA4299","title":"洛克菲勒公馆","lon":"121.4344","lat":"31.22026","category":"76","category_name":"上海菜","address":"静安区愚园路753号(近镇宁路)"},{"poiid":"B2094757D068A4FA4599","title":"长宁区教育学院","lon":"121.432409","lat":"31.220009","category":"52","category_name":"高等院校","address":"上海愚园路864号"},{"poiid":"B2094757D56CABF4409C","title":"东北虎烧烤 镇宁路店","lon":"121.435838054","lat":"31.221491793","category":"68","category_name":"快餐厅","address":"静安区镇宁路367号(愚园路口)"},{"poiid":"B2094757D06FA1F8439E","title":"威尔士健身会所(维景店)","lon":"121.433998108","lat":"31.2180995941","category":"221","category_name":"健身中心","address":"长宁区东诸安浜路103号维景酒店内(近江苏路)"},{"poiid":"B2094757D06FA0FD419C","title":"乐购(镇宁店)","lon":"121.43677266","lat":"31.21965569","category":"118","category_name":"超级市场","address":"静安区南京西路2068号协和城B1-B2楼(镇宁路口)"},{"poiid":"B2094750D26EA4FF4898","title":"庞克咖啡","lon":"121.435745","lat":"31.222717","category":"65","category_name":"咖啡厅","address":"静安区镇宁路425号(近愚园路)"},{"poiid":"B2094757D06FA1FE409D","title":"维景酒店公寓","lon":"121.43472","lat":"31.21783","category":"215","category_name":"三星级宾馆","address":"上海长宁区东诸安浜路103号（靠近江苏路、延安西路）"},{"poiid":"B2094757D069A3FF439E","title":"大众金融大厦","lon":"121.436","lat":"31.2189","category":"46","category_name":"楼宇","address":"延安西路1033号裙楼528"},{"poiid":"B2094654D565A0FF4493","title":"发发雅萍酒家","lon":"121.43423471324","lat":"31.220125926429","category":"76","category_name":"上海菜","address":"长宁区愚园路792号(镇宁路江苏路间)"},{"poiid":"B2094654D565A0FA4793","title":"振鼎鸡(愚园路)","lon":"121.437","lat":"31.22097","category":"68","category_name":"快餐厅","address":"静安区愚园路631号(近镇宁路)"},{"poiid":"B2094654D565A0FE439C","title":"半岛品珍舫 镇宁店","lon":"121.43635956924","lat":"31.219206349993","category":"76","category_name":"上海菜","address":"静安区镇宁路227号荣轩大厦B1楼(东诸安浜路口)"},{"poiid":"B2094750DA6CABFD4898","title":"洛公馆","lon":"121.434333","lat":"31.220249","category":"247","category_name":"餐饮美食","address":"愚园路753号"},{"poiid":"B2094757D065A6FF429C","title":"小杨生煎","lon":"121.433527586","lat":"31.2201422337","category":"247","category_name":"餐饮美食","address":"上海江苏路地铁2号线1号口"},{"poiid":"B2094750D26EA5FB449C","title":"高木日本料理（长宁店）","lon":"121.434562","lat":"31.218309","category":"95","category_name":"日本料理","address":"长宁区东诸安浜路103号(近江苏路)"},{"poiid":"B2094757D16CA5FB409F","title":"The Fennel Lounge","lon":"121.436649586","lat":"31.2185482025","category":"500","category_name":"未知分类","address":"上海镇宁路217号"},{"poiid":"B2094750D76CA0F4409A","title":"愚园老洋房","lon":"121.434","lat":"31.2203","category":"47","category_name":"住宅区","address":"长宁区愚园路753号2号楼1楼(近江苏路)"},{"poiid":"B2094750D269A1F44293","title":"洛克华菲会所","lon":"121.434412","lat":"31.220259","category":"247","category_name":"餐饮美食","address":"愚园路753号近镇宁路"},{"poiid":"B2094757D065A6FA4293","title":"新唯一","lon":"121.43477815","lat":"31.220904248","category":"68","category_name":"快餐厅","address":"静安区愚园路658号(近镇宁路)"},{"poiid":"B2094757D16BA0FF429C","title":"上海市皮肤病医院","lon":"121.436256586","lat":"31.2217742656","category":"162","category_name":"医院","address":"上海市武夷路"},{"poiid":"B2094757DB6EA5F84199","title":"潮辣","lon":"121.433275","lat":"31.223303","category":"247","category_name":"餐饮美食","address":"愚圆路582号"},{"poiid":"B2094654D565A1F4429A","title":"福临港式烧味馆","lon":"121.43634","lat":"31.221","category":"72","category_name":"广东菜","address":"静安区愚园路652号(近镇宁路)"},{"poiid":"B2094750DB69A2FF469B","title":"上海青公馆","lon":"121.434739","lat":"31.220711","category":"189","category_name":"文艺团体","address":"长宁区愚园路749弄38号"},{"poiid":"B2094654D565A1FA449E","title":"同仁医院眼科","lon":"121.43484","lat":"31.22071","category":"162","category_name":"医院","address":"愚园路738"},{"poiid":"B2094750D269A2F84298","title":"圆觉会馆","lon":"121.432305","lat":"31.21983","category":"89","category_name":"中式素餐馆","address":"长宁区愚园路900号(近江苏路)"},{"poiid":"B2094757D064A2FA459C","title":"上面坊酥鸭面馆","lon":"121.433143","lat":"31.21838","category":"247","category_name":"餐饮美食","address":"上海东诸安浜路178号"},{"poiid":"B2094751D565A2F94292","title":"Damarco","lon":"121.435487","lat":"31.221215","category":"247","category_name":"餐饮美食","address":"东诸安浜路103号"},{"poiid":"B2094654D565A1FA4498","title":"上海交通大学医学院附属仁济医院长宁分院","lon":"121.43426","lat":"31.22058","category":"162","category_name":"医院","address":"愚园路786号"},{"poiid":"B2094655D26FA6F54693","title":"上海市长宁区向红小学","lon":"121.43528","lat":"31.22092","category":"56","category_name":"小学","address":"愚园路718弄1-33号"},{"poiid":"B2094655D36DA7FF4192","title":"镇宁路","lon":"121.43696","lat":"31.22106","category":"38","category_name":"公交车站","address":"上海镇宁路"},{"poiid":"B2094655D26AA5FC499A","title":"哈尔滨刘记饺子馆 愚园路店","lon":"121.434910054","lat":"31.220349793","category":"82","category_name":"东北菜","address":"静安区愚园路657号(近镇宁路)"},{"poiid":"B2094757D56DA4FC429E","title":"话剧中心","lon":"121.4340661","lat":"31.2182812","category":"500","category_name":"未知分类","address":"安福路"},{"poiid":"B2094654D565A0FF459A","title":"好德No.914","lon":"121.43428","lat":"31.22022","category":"117","category_name":"便民商店/便利店","address":"愚园路771号"},{"poiid":"B2094757D068A5F4429D","title":"欣安大厦","lon":"121.43734216","lat":"31.218569001","category":"46","category_name":"楼宇","address":"内外联公寓位于静安长宁路江苏路"},{"poiid":"B2094751D26AAAF44292","title":"星巴克","lon":"121.436895","lat":"31.219013","category":"65","category_name":"咖啡厅","address":"静安区镇宁路200号欣安大厦"},{"poiid":"B2094654D565A0FF4598","title":"锦园","lon":"121.43428","lat":"31.21972","category":"47","category_name":"住宅区","address":"虹桥路2106号世博会议大酒店1楼近虹梅路"},{"poiid":"B2094757D66DA2FA489C","title":"愚园路749弄老洋房","lon":"121.43549658","lat":"31.219194215","category":"500","category_name":"未知分类","address":"上海市长宁区愚园路镇宁路"},{"poiid":"B2094757D165A3FF4799","title":"大鹤日本料理","lon":"121.44042","lat":"31.21982","category":"95","category_name":"日本料理","address":"静安区南京西路2068号协和城G108铺(镇宁路口)"},{"poiid":"B2094654D565A0FF459B","title":"快客联华便利连锁NO.949","lon":"121.43395","lat":"31.22011","category":"117","category_name":"便民商店/便利店","address":"愚西路803"},{"poiid":"B2094655D26DA3FD499D","title":"同仁医院综合服务部","lon":"121.43403","lat":"31.2205","category":"117","category_name":"便民商店/便利店","address":"愚园路786"},{"poiid":"B2094757D66CABF5459F","title":"愚园路小洋楼","lon":"121.435181","lat":"31.220407","category":"252","category_name":"楼宇机构","address":"上海愚园路735号"},{"poiid":"B2094757D16AA2FD469C","title":"愚园路576弄","lon":"121.434587686","lat":"31.2205009407","category":"500","category_name":"未知分类","address":"上海愚园路576弄"},{"poiid":"B2094750DA6EA1FB4993","title":"同仁医院","lon":"121.432014","lat":"31.21948","category":"162","category_name":"医院","address":"长宁区愚园路786号"},{"poiid":"B2094757D169A3F44192","title":"杰森.斯坦森","lon":"121.43464178","lat":"31.220588442","category":"249","category_name":"购物服务","address":"澳门赛马场"},{"poiid":"B2094750D665AAF9499C","title":"金苑公馆","lon":"121.436","lat":"31.2212","category":"72","category_name":"广东菜","address":"静安区镇宁路360号(近愚园路)"},{"poiid":"B2094757D16FABFA4699","title":"JO公馆","lon":"121.43540058","lat":"31.220358237","category":"500","category_name":"未知分类","address":"上海市静安区镇宁路愚园路"},{"poiid":"B2094757D069A0FB4198","title":"巨星美发(愚园路店)","lon":"121.4331","lat":"31.2198","category":"148","category_name":"美容美发店","address":"上海长宁区江苏路398号舜元弘基天地1楼103室"},{"poiid":"B2094757D06FAAFD479B","title":"愚一小学向红分校","lon":"121.435227","lat":"31.220961","category":"500","category_name":"未知分类","address":"长宁区愚园路718弄1-33号(江苏路愚园路)"},{"poiid":"B2094654DB6BA6FF459E","title":"锦园(北门)","lon":"121.43386","lat":"31.22004","category":"47","category_name":"住宅区","address":"愚园路805弄15-41号"},{"poiid":"B2094654DB6BA6FF419C","title":"快客(镇宁路)","lon":"121.43596","lat":"31.22139","category":"117","category_name":"便民商店/便利店","address":"镇宁路367-1"},{"poiid":"B2094757DA68A1F8479C","title":"好地方精烧扒轩 愚园路店 Moon's Steakhouse","lon":"121.436547054","lat":"31.221232793","category":"101","category_name":"美式风味","address":"愚园路1号瑞士宏安酒店1楼近常德路"},{"poiid":"B2094752DB6FA7FF479B","title":"和平影都","lon":"121.435413","lat":"31.218999","category":"178","category_name":"电影院","address":"上海市 西藏中路290号"},{"poiid":"B2094655D26EA5F8449B","title":"艾维庭美容中心(愚园店)","lon":"121.43375","lat":"31.22006","category":"148","category_name":"美容美发店","address":"静安区愚园路807号"},{"poiid":"B2094655D26DA3FD4992","title":"大将军KTV","lon":"121.43316","lat":"31.22027","category":"170","category_name":"KTV","address":"长宁区愚园路816号(近镇宁路)"},{"poiid":"B2094753DB64A7F5499D","title":"上戏剧场","lon":"121.434005","lat":"31.220199","category":"500","category_name":"未知分类","address":"上海市 华山路630号"},{"poiid":"B2094654D565A0FF4699","title":"新利商务中心","lon":"121.43222","lat":"31.21963","category":"46","category_name":"楼宇","address":"黄浦区外滩23号，中山东一路，南京东路"},{"poiid":"B2094757D165A2F9429D","title":"浦发银行中山公园营业厅","lon":"121.436544","lat":"31.221385","category":"46","category_name":"楼宇","address":"上海长宁路中山公园对面"},{"poiid":"B2094654D565A0FF4399","title":"渔光邨(四号门)","lon":"121.43614","lat":"31.21981","category":"47","category_name":"住宅区","address":"镇宁路285弄80-98号"},{"poiid":"B2094757D16CA6FB429E","title":"西区老大房(愚园路总店)","lon":"121.43693","lat":"31.22089","category":"247","category_name":"餐饮美食","address":"长宁区愚园路635号(近镇宁路)"},{"poiid":"B2094750D66CAAF44698","title":"茴香餐厅酒吧","lon":"121.436538","lat":"31.218481","category":"94","category_name":"西餐厅","address":"静安区镇宁路217号(近永源路)"},{"poiid":"B2094757D46FABFD4898","title":"酥鸭面","lon":"121.4342797","lat":"31.2182715","category":"68","category_name":"快餐厅","address":"长宁区东诸安浜路180弄2号104室(近江苏路)"},{"poiid":"B2094654D565A0FF429C","title":"荣轩大厦","lon":"121.43646","lat":"31.21907","category":"47","category_name":"住宅区","address":"长宁镇宁路233号"},{"poiid":"B209475CD565A0F5419D","title":"NPC－环贸iamp店","lon":"121.435012","lat":"31.222007","category":"500","category_name":"未知分类","address":"上海市 上海市陕西南路环贸iampLG2"},{"poiid":"B2094654D565A1FA429E","title":"畅园","lon":"121.43178","lat":"31.22041","category":"47","category_name":"住宅区","address":"上海市普陀区长寿路998号"},{"poiid":"B2094654D565A0FF439A","title":"渔光邨(3号门)","lon":"121.43618","lat":"31.21969","category":"47","category_name":"住宅区","address":"镇宁路275弄100-120号"},{"poiid":"B2094654DB6BA6FF499A","title":"永兴商务楼","lon":"121.43759","lat":"31.21891","category":"46","category_name":"楼宇","address":"朝阳区北三环东路与京顺路交接处路口北侧"},{"poiid":"B2094757D168AAFF489C","title":"浦星公路","lon":"121.435874","lat":"31.220974","category":"500","category_name":"未知分类","address":"上海星火开发区民乐路"},{"poiid":"B2094757D06AA4F5409D","title":"长宁区工人文化宫","lon":"121.43506158","lat":"31.222485279","category":"500","category_name":"未知分类","address":"上海安西路45号"},{"poiid":"B2094654D565A1F4439D","title":"天福餐社","lon":"121.43696471794","lat":"31.221139533272","category":"76","category_name":"上海菜","address":"静安区愚园路582号(近镇宁路)"},{"poiid":"B2094757D76BA1FF489A","title":"上面坊","lon":"121.433193","lat":"31.218519","category":"68","category_name":"快餐厅","address":"长宁区东诸安浜路178号(近江苏路)"},{"poiid":"B2094750DA64A0FB4699","title":"PUNK COFFEE","lon":"121.435043","lat":"31.223016","category":"247","category_name":"餐饮美食","address":"镇宁路425号"},{"poiid":"B2094654D565A0FA459A","title":"好德NO.3083","lon":"121.43672","lat":"31.21952","category":"117","category_name":"便民商店/便利店","address":""},{"poiid":"B2094757D16BA0F44792","title":"鼎茶(愚园店)","lon":"121.433025086","lat":"31.2201148332","category":"247","category_name":"餐饮美食","address":"上海愚园路816号 地铁江苏路2号出口"},{"poiid":"B2094750DB6DA4FD459D","title":"万岛日料","lon":"121.4351493896608","lat":"31.2183275580406","category":"247","category_name":"餐饮美食","address":"乌鲁木齐路480号"},{"poiid":"B2094752D26BA0FF4193","title":"2719茶局","lon":"121.434674","lat":"31.221968","category":"248","category_name":"生活娱乐","address":"上海市 镇宁路405弄53号"},{"poiid":"B2094757D66AA0F4499D","title":"嘉木堂","lon":"121.43632189094","lat":"31.218838985548","category":"172","category_name":"酒吧","address":"长宁区东诸安浜路57号(近镇宁路)"},{"poiid":"B2094654D565A0FA4598","title":"中国工商银行上海分行镇宁路宿舍","lon":"121.43668","lat":"31.21961","category":"47","category_name":"住宅区","address":"镇宁路270-3"},{"poiid":"B2094655D265A1F54492","title":"协和丽豪酒店式公寓","lon":"121.4371566","lat":"31.21972084","category":"47","category_name":"住宅区","address":"协和丽豪酒店式公寓位于静安南京西路2068号(镇宁路愚园路口)"},{"poiid":"B2094655D26CAAFE4498","title":"渔光邨(东门)","lon":"121.43658","lat":"31.21945","category":"47","category_name":"住宅区","address":"镇宁路255弄146-192号"},{"poiid":"B2094655D26CAAF84999","title":"欣安大厦东峰","lon":"121.43767","lat":"31.21934","category":"46","category_name":"楼宇","address":"镇宁路200"},{"poiid":"B2094757D164A5FE4692","title":"康骏会所","lon":"121.436863","lat":"31.221036","category":"500","category_name":"未知分类","address":"上海镇宁路"},{"poiid":"B2094757D164A3FC459E","title":"彩虹楼","lon":"121.436345","lat":"31.221062","category":"500","category_name":"未知分类","address":"上海愚园路1182弄"},{"poiid":"B2094654DB69A4F84893","title":"永乐电器(静安乐购店)","lon":"121.43702","lat":"31.21959","category":"138","category_name":"家电电子卖场","address":"长宁区南京西路2066号"},{"poiid":"B2094757D66EA7FB4798","title":"梅龙镇集团","lon":"121.43425758","lat":"31.221838266","category":"500","category_name":"未知分类","address":"上海市长宁区镇宁路405弄180号"},{"poiid":"B2094757D66DA4F9429D","title":"镇宁时装店烧烤摊","lon":"121.43654858","lat":"31.22099125","category":"500","category_name":"未知分类","address":"上海市长宁区镇宁路361号"},{"poiid":"B2094751D26EA1FF4193","title":"玲珑坊","lon":"121.433857","lat":"31.221909","category":"500","category_name":"未知分类","address":null},{"poiid":"B2094655D26AA4F4439F","title":"欧梵造型设计南京西路店","lon":"121.43802","lat":"31.21982","category":"247","category_name":"餐饮美食","address":"静安区南京西路2066号乐购B2楼(近镇宁路)"},{"poiid":"B2094655D36CA3FE439A","title":"Lucky7","lon":"121.43753","lat":"31.2196","category":"112","category_name":"糕饼店","address":""},{"poiid":"B209475CD56AA7F84192","title":"青公馆","lon":"121.435211","lat":"31.21825","category":"247","category_name":"餐饮美食","address":"上海市 长宁区愚园路749号38弄"},{"poiid":"B2094654DB69A5FB459D","title":"重庆鸡公煲 东诸安浜路店","lon":"121.432653054","lat":"31.217894793","category":"71","category_name":"四川菜","address":"长宁区东诸安浜路171号(近江苏路)"},{"poiid":"B2094655D26DAAF8449E","title":"美丽园公寓","lon":"121.4376","lat":"31.21854","category":"47","category_name":"住宅区","address":"卫清西路139_149号等"},{"poiid":"B2094655D26CAAFE459D","title":"上海长宁区长教进修学校","lon":"121.43272","lat":"31.22038","category":"53","category_name":"成人教育","address":"愚园路864"},{"poiid":"B2094757D16DA7FD439B","title":"东浜小区","lon":"121.43265","lat":"31.218765","category":"47","category_name":"住宅区","address":"上海东诸安浜路180弄"},{"poiid":"B2094654D565A0FF459F","title":"中国石化销售有限公司华东分公司","lon":"121.43341","lat":"31.21997","category":"263","category_name":"公司","address":"愚园路819"},{"poiid":"B209475CD36CA3F4489D","title":"唐宫海鲜舫 维景店","lon":"121.4363525599","lat":"31.218218725553","category":"72","category_name":"广东菜","address":"东诸安浜路103号维景酒店1-2楼近江苏路"},{"poiid":"B2094750D665A1F4459E","title":"心琪粥店(新会路店)","lon":"121.43277","lat":"31.21828","category":"68","category_name":"快餐厅","address":"普陀区新会路(近亚新生活广场)"},{"poiid":"B2094757D165ABF44692","title":"镇宁路318弄","lon":"121.43666858","lat":"31.220285236","category":"252","category_name":"楼宇机构","address":"上海市静安区镇宁路318弄"},{"poiid":"B2094655D26CABFD439C","title":"好德No.186","lon":"121.43395","lat":"31.21844","category":"117","category_name":"便民商店/便利店","address":"东诸安浜路136"},{"poiid":"B2094654D565A1FB449B","title":"重庆鸡公煲(镇宁路)","lon":"121.43631","lat":"31.22105","category":"71","category_name":"四川菜","address":"静安区愚园路654号(近镇宁路)"},{"poiid":"B2094757D164A2F4489A","title":"公交44车站","lon":"121.43393808","lat":"31.220075832","category":"251","category_name":"出行住宿","address":"上海延安西路江苏路"},{"poiid":"B209475CD764A4F9459A","title":"回香","lon":"121.43702","lat":"31.21878","category":"94","category_name":"西餐厅","address":"镇宁路217号(近东诸安浜路)"},{"poiid":"B2094757D06AAAF8449C","title":"镇宁路465弄","lon":"121.43528","lat":"31.223562","category":"500","category_name":"未知分类","address":"上海镇宁路465弄"},{"poiid":"B2094757D568A0FC429E","title":"两岸餐厅","lon":"121.43374376","lat":"31.22267415","category":"257","category_name":"中餐厅","address":"静安区镇宁路465弄97号(北京西路常德路)"},{"poiid":"B2094655D26CABF84999","title":"金桥花园(二号门)","lon":"121.43463","lat":"31.21814","category":"47","category_name":"住宅区","address":"东诸安浜路103号"},{"poiid":"B2094757D16EA2F4439D","title":"中国银行镇宁路支行","lon":"121.436627","lat":"31.218977","category":"150","category_name":"银行","address":"静安区镇宁路231号(永源路镇宁路)"},{"poiid":"B2094654DB6BA6FF459B","title":"广东发展银行上海延安支行","lon":"121.43656","lat":"31.21923","category":"150","category_name":"银行","address":"镇宁路251"},{"poiid":"B2094654D565A0FE4692","title":"北汪小区","lon":"121.43316","lat":"31.217812","category":"47","category_name":"住宅区","address":"东诸安浜路165弄1-31号"},{"poiid":"B2094757D66DA6F9489E","title":"yi～home","lon":"121.435908","lat":"31.2222485","category":"500","category_name":"未知分类","address":null},{"poiid":"B2094752D164A0F84793","title":"上海当代艺术馆","lon":"121.435013","lat":"31.21814","category":"500","category_name":"未知分类","address":"苗江路"},{"poiid":"B2094654D565A1FA439A","title":"上海医工院医药股份有限公司","lon":"121.43295","lat":"31.22032","category":"263","category_name":"公司","address":"愚园路858"},{"poiid":"B2094753DA6FA5FD469D","title":"世贸商城","lon":"121.434997","lat":"31.218399","category":"249","category_name":"购物服务","address":"上海市 延安西路2299号"},{"poiid":"B2094655D26AA0F54698","title":"京华酒店健身中心","lon":"121.43426","lat":"31.21812","category":"247","category_name":"餐饮美食","address":"长宁区东诸安浜路103号京华酒店(近江苏路)"},{"poiid":"B2094757D16DA2FD429E","title":"京世造型","lon":"121.43704578","lat":"31.219221615","category":"148","category_name":"美容美发店","address":"上海镇宁路永源路"},{"poiid":"B2094654D565A0FF459D","title":"上海新天地置业发展有限责任公司","lon":"121.43314","lat":"31.21977","category":"263","category_name":"公司","address":"愚园路843"},{"poiid":"B2094654DB6BA6FF4893","title":"中实新村(北门)","lon":"121.43795","lat":"31.22137","category":"47","category_name":"住宅区","address":"愚园路579弄1-50号"},{"poiid":"B2094757D66EA3F84398","title":"协和城 Concord City","lon":"121.436951586","lat":"31.2185272021","category":"47","category_name":"住宅区","address":"上海市长宁区愚园路镇宁路"},{"poiid":"B2094757D164A2FE409B","title":"昆山市","lon":"121.43739295","lat":"31.220993505","category":"500","category_name":"未知分类","address":"苏州世茂东一号"},{"poiid":"B2094654DB6BA6FF459A","title":"东浜小区(南门)","lon":"121.43306","lat":"31.21836","category":"47","category_name":"住宅区","address":"东诸安浜路180弄1-23号"},{"poiid":"B2094655D26FA4FF4292","title":"协和城丽豪酒店公寓(西南门)","lon":"121.43684","lat":"31.21934","category":"48","category_name":"楼宇大门","address":"南京西路2068号"},{"poiid":"B2094654D565A1FB419C","title":"大华油酱店","lon":"121.4336","lat":"31.2228","category":"117","category_name":"便民商店/便利店","address":"镇宁路465弄112号"},{"poiid":"B2094654D565A0FE459E","title":"金桥花园","lon":"121.43457","lat":"31.217487","category":"47","category_name":"住宅区","address":"上海市长宁区东诸安浜路103号"},{"poiid":"B2094750D268A6FF4892","title":"巨鹿路","lon":"121.438018","lat":"31.22083","category":"500","category_name":"未知分类","address":null},{"poiid":"B2094757D168A6FE4298","title":"愚园路江苏路939公交车站","lon":"121.431707","lat":"31.219779","category":"38","category_name":"公交车站","address":"上海愚园路江苏路"},{"poiid":"B2094654DB6BA6FF449C","title":"金桥花园(一号门)","lon":"121.43396","lat":"31.21804","category":"47","category_name":"住宅区","address":"东诸安浜路103号"},{"poiid":"B2094753D76FA5FB4198","title":"上海戏剧学院","lon":"121.433433","lat":"31.217981","category":"500","category_name":"未知分类","address":"上海市 上海市静安区华山路"},{"poiid":"B2094757D569A3F8429E","title":"喜士多便利店(愚园路)","lon":"121.43208008","lat":"31.21957547","category":"117","category_name":"便民商店/便利店","address":"长宁区愚园路800号(近江苏路)"},{"poiid":"B2094757D16AA2F8489D","title":"44路公交站","lon":"121.43230666","lat":"31.222540347","category":"38","category_name":"公交车站","address":"上海江苏北路长宁路"},{"poiid":"B2094655D26AA0FF479F","title":"畅园公寓健身会所","lon":"121.43165","lat":"31.22024","category":"247","category_name":"餐饮美食","address":"长宁区愚园路888号(江苏路愚园路)"},{"poiid":"B2094655D26DA1FC459D","title":"上海市奋发进修学院(镇宁路)","lon":"121.43768","lat":"31.21935","category":"53","category_name":"成人教育","address":"镇宁路200号欣安大厦东峰9A/C"},{"poiid":"B2094654D565A1F4439F","title":"中国工商银行愚园路第一分理处","lon":"121.43741","lat":"31.22146","category":"150","category_name":"银行","address":"愚园路590"},{"poiid":"B2094654DB6BA6FF4493","title":"北汪小区(北门)","lon":"121.43325","lat":"31.21817","category":"47","category_name":"住宅区","address":"东诸安浜路165弄1-31号"},{"poiid":"B2094757D069A1F9439C","title":"长宁区少年宫","lon":"121.43686676","lat":"31.221036911","category":"260","category_name":"其他","address":"上海愚园路"},{"poiid":"B2094757D16EA0F54698","title":"Posh Royal Textile HQ","lon":"121.437155","lat":"31.219271","category":"500","category_name":"未知分类","address":"上海市静安区镇宁路200号，欣安大厦西峰6E"},{"poiid":"B2094654DB6BA6FF489E","title":"艾宝家具(欣安大厦西峰西南)","lon":"121.43721","lat":"31.21903","category":"123","category_name":"家具建材市场","address":""},{"poiid":"B2094654DB6BA6FF4298","title":"光明便利(镇宁路)","lon":"121.43547","lat":"31.22371","category":"117","category_name":"便民商店/便利店","address":"普陀区江宁路958号(安远路江宁路)"},{"poiid":"B2094655D264A7FB479D","title":"嘉御豪庭","lon":"121.43666","lat":"31.22319","category":"47","category_name":"住宅区","address":""},{"poiid":"B2094654D565A0FA4899","title":"上海国际丽都置业有限公司","lon":"121.43743","lat":"31.22116","category":"263","category_name":"公司","address":"愚园路611弄3-35号"},{"poiid":"B2094655D265AAF44699","title":"宅人部落桌面游戏吧","lon":"121.43768","lat":"31.21935","category":"173","category_name":"游戏厅","address":"镇宁路200号欣安大厦西峰7C近东诸安浜路"},{"poiid":"B2094655D26CABFD489C","title":"荣轩大厦(东门)","lon":"121.43661","lat":"31.21908","category":"48","category_name":"楼宇大门","address":"镇宁路233"},{"poiid":"B2094655D26CABF84793","title":"石化小区","lon":"121.43527","lat":"31.22356","category":"47","category_name":"住宅区","address":"镇宁路465弄6-16号"},{"poiid":"B2094757D16AA0F8449C","title":"上海莱礼欧邸贸易有限公司","lon":"121.436991586","lat":"31.2190752128","category":"263","category_name":"公司","address":"上海镇宁路200号欣安大厦西峰"},{"poiid":"B2094757D568A6FF4799","title":"农夫山泉(石林别墅东)","lon":"121.43397651","lat":"31.22293403","category":"255","category_name":"专卖店","address":"中国上海市长宁区"},{"poiid":"B2094655D26DA3FD4499","title":"石化小区(东门)","lon":"121.4355","lat":"31.22361","category":"47","category_name":"住宅区","address":"镇宁路465弄6-16号"},{"poiid":"B2094654D565A1FB449E","title":"时尚金剪立体研发机构","lon":"121.43544","lat":"31.22386","category":"148","category_name":"美容美发店","address":"镇宁路487识别"},{"poiid":"B2094757D06AA3F9489D","title":"上海天祥健台制药机械有限公司","lon":"121.432518186","lat":"31.221590112","category":"263","category_name":"公司","address":"上海镇宁路465弄161号"},{"poiid":"B2094757D16FAAFF479A","title":"四物堂","lon":"121.437599","lat":"31.219254","category":"500","category_name":"未知分类","address":"静安区镇宁路200号(近东诸安浜路)"},{"poiid":"B2094654D565A0FB419C","title":"佐登妮丝(镇宁路)","lon":"121.4373","lat":"31.21828","category":"148","category_name":"美容美发店","address":""},{"poiid":"B2094757D66CA1F8429A","title":"大婊哥の家","lon":"121.43664558","lat":"31.222751284","category":"500","category_name":"未知分类","address":null},{"poiid":"B2094757D169A1FF4792","title":"上海市延安中学","lon":"121.43705458","lat":"31.218542202","category":"253","category_name":"校园生活","address":"上海市长宁区延安西路"},{"poiid":"B2094655D26DA7F84499","title":"畅园(南门)","lon":"121.43219","lat":"31.21994","category":"48","category_name":"楼宇大门","address":"愚园路888号1-10号楼"},{"poiid":"B2094654D565A0FF469C","title":"唯尚咖啡 愚园路店","lon":"121.43111792859","lat":"31.219386952293","category":"260","category_name":"其他","address":"长宁区愚园路907号(江苏路口)"},{"poiid":"B2094757D66EA1FB4698","title":"汇金时尚","lon":"121.432888586","lat":"31.2184392004","category":"500","category_name":"未知分类","address":"长宁区东诸安浜路149号(近江苏路)"},{"poiid":"B2094654D565A1FB4093","title":"石林别墅(后门)","lon":"121.43308","lat":"31.22235","category":"48","category_name":"楼宇大门","address":"镇宁路405弄79号"},{"poiid":"B2094757D16BA2F44593","title":"新镇宁菜场市场","lon":"121.43609658","lat":"31.223407297","category":"500","category_name":"未知分类","address":"上海市静安区镇宁路"},{"poiid":"B2094655D264A6F5469B","title":"王子·晶品(南门)","lon":"121.43609","lat":"31.21823","category":"48","category_name":"楼宇大门","address":""},{"poiid":"B2094757D165A4F54792","title":"Maggie @ HOME","lon":"121.43455658","lat":"31.217662185","category":"500","category_name":"未知分类","address":null},{"poiid":"B2094757D66EABF94898","title":"如家","lon":"121.43413358","lat":"31.217343179","category":"500","category_name":"未知分类","address":"北京江苏路"},{"poiid":"B2094655D26DA3FF419D","title":"美丽园公寓(西门)","lon":"121.43724","lat":"31.21842","category":"48","category_name":"楼宇大门","address":"镇宁路168"},{"poiid":"B2094757D16EAAFB429F","title":"上海麦科餐饮管理有限公司","lon":"121.437943686","lat":"31.2220697714","category":"263","category_name":"公司","address":"上海愚园路546弄4号楼410室"},{"poiid":"B2094655D26DA3F94898","title":"兴星公寓(南门)","lon":"121.4345","lat":"31.22337","category":"656","category_name":"大门","address":""},{"poiid":"B2094655D26DA3F94899","title":"天星公寓(南门)","lon":"121.43449","lat":"31.22337","category":"656","category_name":"大门","address":""}]