[{"poiid":"B2094654D56FABF54198","title":"上海长海医院","lon":"121.5256","lat":"31.30936","category":"162","category_name":"医院","address":"上海杨浦区长海路168-174号(长海路)"},{"poiid":"B2094757D06FA3FD419E","title":"上海体育学院","lon":"121.52434","lat":"31.31238","category":"671","category_name":"高校中心点","address":"杨浦区长海路345号上海体育学院内(近嫩江路)"},{"poiid":"B2094757D068A7F4469B","title":"长海医院住院部","lon":"121.527867794","lat":"31.3088527016","category":"162","category_name":"医院","address":"上海杨浦区长海路174号(中原路)"},{"poiid":"B2094654D56FAAFC4499","title":"上海体育学院学生宿舍区","lon":"121.52332","lat":"31.31174","category":"47","category_name":"住宅区","address":"恒仁路200"},{"poiid":"B2094757D16BABFC429D","title":"第二军医大学校园","lon":"121.5283081","lat":"31.309152232","category":"500","category_name":"未知分类","address":"上海市杨浦区长海路174号"},{"poiid":"B2094757D068A1FD4699","title":"第二军医大学附属东方肝胆外科医院","lon":"121.52937","lat":"31.30994","category":"162","category_name":"医院","address":"杨浦区长海路225号(近中原路)"},{"poiid":"B2094750D26DA2F84699","title":"五角场","lon":"121.5277200893403","lat":"31.30725801490106","category":"500","category_name":"未知分类","address":null},{"poiid":"B2094757D06FA4FD4393","title":"上海体育学院综合馆","lon":"121.52752","lat":"31.30951","category":"221","category_name":"健身中心","address":"杨浦区长海路345号上海体育学院内(近嫩江路)"},{"poiid":"B2094757D169A7F8489B","title":"长海医院六号楼","lon":"121.523173103","lat":"31.3084360171","category":"162","category_name":"医院","address":"上海长海路168号"},{"poiid":"B2094757D068A4F94099","title":"肯德基 KFC (长海店)","lon":"121.52692775","lat":"31.309974424","category":"68","category_name":"快餐厅","address":"杨浦区长海路361号(近嫩江路)"},{"poiid":"B2094757D069A3FD469E","title":"85度C(长海店)","lon":"121.5244098","lat":"31.3096843","category":"112","category_name":"糕饼店","address":"杨浦区长海路469号(近恒仁路)"},{"poiid":"B2094654D56FAAFC449D","title":"永和大王(长海路)","lon":"121.52509","lat":"31.30982","category":"68","category_name":"快餐厅","address":"杨浦区长海路399号(近长海医院)"},{"poiid":"B2094757D068A0FB459E","title":"红宝石(长海路店)","lon":"121.52468","lat":"31.309458","category":"67","category_name":"甜品店","address":"杨浦区长海路268号(近长海医院)"},{"poiid":"B2094654D56FABF84092","title":"沪东金融大厦","lon":"121.523","lat":"31.307","category":"46","category_name":"楼宇","address":"越秀区环市东路362-366号"},{"poiid":"B2094655D26CA6FE469F","title":"上海体育学院宿舍区(北一门)","lon":"121.52105","lat":"31.31241","category":"47","category_name":"住宅区","address":"清源环路501"},{"poiid":"B2094757D06AABF44099","title":"第二军医大学篮球场","lon":"121.5268","lat":"31.30337","category":"253","category_name":"校园生活","address":"杨浦区翔殷路800号二军大校内"},{"poiid":"B2094757D66FA1FC419B","title":"第二军医大学附属长海医院中医科","lon":"121.527223997","lat":"31.3081795348","category":"162","category_name":"医院","address":"上海长海医院4楼"},{"poiid":"B2094757D06FABFE4399","title":"五角场花鸟市场","lon":"121.52073","lat":"31.31018","category":"249","category_name":"购物服务","address":"上海杨浦区国和路493号(近长海医院)  "},{"poiid":"B2094757D16CA2FD4499","title":"长海路","lon":"121.523313103","lat":"31.3106352631","category":"500","category_name":"未知分类","address":"上海市杨浦区长海路"},{"poiid":"B2094750D768A0F54793","title":"喜达石锅饭","lon":"121.525","lat":"31.3098","category":"96","category_name":"韩国料理","address":"杨浦区长海路437号(近长海医院)"},{"poiid":"B2094654D56EA4F84392","title":"蓝天大厦","lon":"121.523","lat":"31.3035","category":"46","category_name":"楼宇","address":"上海市杨浦区黄兴路2077号"},{"poiid":"B2094654D56FABF4489E","title":"同济中学(政立路)","lon":"121.52196","lat":"31.3076","category":"55","category_name":"中学","address":"政立路20号"},{"poiid":"B2094654D56EA4FC4198","title":"中环国际大厦","lon":"121.52","lat":"31.3093","category":"46","category_name":"楼宇","address":"上海市四川北路1851号"},{"poiid":"B2094757D06AABFD4893","title":"上海体育学院游泳馆","lon":"121.52718","lat":"31.30937","category":"253","category_name":"校园生活","address":"杨浦区长海路345号上海体育学院综合馆1楼(近嫩江路)"},{"poiid":"B2094757D66BA6FF4292","title":"真功夫 长海路店","lon":"121.528162","lat":"31.309826","category":"68","category_name":"快餐厅","address":"杨浦区长海路长海医院门口"},{"poiid":"B2094654D56FABF8499B","title":"平盛大厦","lon":"121.522","lat":"31.3087","category":"46","category_name":"楼宇","address":"丰台学城海鹰路1号,3号"},{"poiid":"B2094751DA6CA0FE469B","title":"长海医院急诊输液室","lon":"121.52372","lat":"31.308737","category":"162","category_name":"医院","address":"长海路168号"},{"poiid":"B2094654D56FAAFC4493","title":"上海体育学院(南门)","lon":"121.52511","lat":"31.30989","category":"656","category_name":"大门","address":"杨浦区长海路399"},{"poiid":"B2094757D164A7FD4092","title":"长海医院口腔科","lon":"121.52552157","lat":"31.309668842","category":"162","category_name":"医院","address":"上海长海医院"},{"poiid":"B2094655D36CA5F9459F","title":"地铁长海医院站","lon":"121.52765","lat":"31.30965","category":"38","category_name":"公交车站","address":""},{"poiid":"B2094757D16DA5FA429E","title":"二军大聚贤阁","lon":"121.525574103","lat":"31.3066491797","category":"247","category_name":"餐饮美食","address":"上海青山路2号"},{"poiid":"B2094654DB69A4FB4199","title":"重庆鸡公煲(长海店)","lon":"121.52284","lat":"31.30943","category":"71","category_name":"四川菜","address":"杨浦区长海路436号(黑山路)"},{"poiid":"B2094757D568AAF5409C","title":"百联购物又一城","lon":"121.522566","lat":"31.306448","category":"249","category_name":"购物服务","address":"杨浦区淞沪路8号(近邯郸路)"},{"poiid":"B2094757D165A3F4409E","title":"长海医院内镜中心","lon":"121.5255536","lat":"31.309445838","category":"162","category_name":"医院","address":"上海长海路168号"},{"poiid":"B2094757D068A1FF479D","title":"长恒花苑","lon":"121.524627103","lat":"31.3087202231","category":"47","category_name":"住宅区","address":"上海杨浦区恒仁路25弄"},{"poiid":"B2094654DB64A6F94492","title":"上岛咖啡 长海路店 UBC Coffee","lon":"121.520090054","lat":"31.309342793","category":"260","category_name":"其他","address":"杨浦区长海路560号(国和路)"},{"poiid":"B2094654D56FABFB4598","title":"政通路100弄小区","lon":"121.524","lat":"31.3102","category":"47","category_name":"住宅区","address":"政通路100弄"},{"poiid":"B2094654D56FAAFC499A","title":"长海一村","lon":"121.53006","lat":"31.311691","category":"47","category_name":"住宅区","address":"长海一村1-62号"},{"poiid":"B2094654D56FAAFC459B","title":"快客(长海路)","lon":"121.52632","lat":"31.30985","category":"117","category_name":"便民商店/便利店","address":"长海路383识别"},{"poiid":"B2094757D06AA0F8429F","title":"上海体育学院足球场","lon":"121.52598","lat":"31.31292","category":"220","category_name":"运动场所","address":"杨浦区长海路399号(近长海医院)"},{"poiid":"B2094655D269AAF54198","title":"上海新东方学校翔殷路分部","lon":"121.52375","lat":"31.30405","category":"247","category_name":"餐饮美食","address":"杨浦区翔殷路888号(国和路)"},{"poiid":"B2094654D56FABF44993","title":"好德便利No.977","lon":"121.52416","lat":"31.30943","category":"117","category_name":"便民商店/便利店","address":"恒仁路51号"},{"poiid":"B2094757D16DA4F8429F","title":"长海医院六号楼14楼","lon":"121.5278621","lat":"31.308515218","category":"162","category_name":"医院","address":"上海长海路168号"},{"poiid":"B2094654DB6BA2FB409D","title":"上海体育学院宿舍区(二号门)","lon":"121.52229","lat":"31.31236","category":"52","category_name":"高等院校","address":"杨浦区清源环路531"},{"poiid":"B2094757D068A6F54298","title":"爱心献血点(中国人民解放军上海血站)","lon":"121.52735","lat":"31.309752","category":"162","category_name":"医院","address":"上海杨浦区长海路168号3号楼2楼(近中原路)"},{"poiid":"B2094757D06BA7FB419A","title":"上海体育学院 篮球馆","lon":"121.525613","lat":"31.311424","category":"500","category_name":"未知分类","address":"上海长海路399号"},{"poiid":"B2094757D069A5FD4298","title":"上海体育学院新教学楼","lon":"121.52686309","lat":"31.309684753","category":"253","category_name":"校园生活","address":"上海长海路399号"},{"poiid":"B2094757D064A6F44692","title":"肯德基（海甸店）","lon":"121.5252191","lat":"31.310275255","category":"500","category_name":"未知分类","address":"海口美兰区海甸三西路口"},{"poiid":"B2094654D56FABF4489D","title":"长海四村(西门)","lon":"121.52411","lat":"31.30824","category":"47","category_name":"住宅区","address":"长海四村1-25号"},{"poiid":"B2094654D56FAAFC4592","title":"可的(长海路)","lon":"121.52716","lat":"31.30984","category":"117","category_name":"便民商店/便利店","address":"杨浦区长海路349号"},{"poiid":"B2094757D069A2FB4199","title":"南茶苑","lon":"121.526","lat":"31.3092","category":"500","category_name":"未知分类","address":"上海国顺路81弄"},{"poiid":"B2094654D56FABF4489F","title":"政立路6弄住宅小区(北门)","lon":"121.52387","lat":"31.30794","category":"47","category_name":"住宅区","address":"政立路6弄1-27号"},{"poiid":"B2094757D66DA7FA4599","title":"上海体育学院男生宿舍","lon":"121.526511103","lat":"31.3085192188","category":"500","category_name":"未知分类","address":"上海市长海路299号b"},{"poiid":"B2094654D56FAAFC469F","title":"温水游泳馆","lon":"121.52787","lat":"31.31009","category":"231","category_name":"游泳馆","address":""},{"poiid":"B2094655D36CA5F9459D","title":"长海路黑山路","lon":"121.52231","lat":"31.30968","category":"38","category_name":"公交车站","address":""},{"poiid":"B2094655D26FA2FA429A","title":"同济中学东部校区","lon":"121.52309","lat":"31.30882","category":"52","category_name":"高等院校","address":"政立路20号(近同济中学体育馆)"},{"poiid":"B2094757D169A6FC4198","title":"云南米线","lon":"121.5228","lat":"31.30923","category":"68","category_name":"快餐厅","address":"杨浦区黑山路217号(近长海路)"},{"poiid":"B2094750D26CA5F44593","title":"避风塘","lon":"121.5204989651532","lat":"31.30947483559236","category":"68","category_name":"快餐厅","address":"杨浦区政立路56号(近国和路)"},{"poiid":"B2094757D06AAAF84692","title":"长海三村","lon":"121.52231","lat":"31.309682","category":"252","category_name":"楼宇机构","address":"上海长海路黑山路"},{"poiid":"B2094757D16AA6FD409B","title":"上体伤骨科医院","lon":"121.52386","lat":"31.31119","category":"162","category_name":"医院","address":"杨浦区长海路345号上海体育学院内(近嫩江路)"},{"poiid":"B2094757D164ABF5489D","title":"第二军医大学食堂","lon":"121.5283251","lat":"31.30859822","category":"500","category_name":"未知分类","address":"上海市杨浦区"},{"poiid":"B2094757D569A2FD459D","title":"联华","lon":"121.52766656","lat":"31.30944417","category":"117","category_name":"便民商店/便利店","address":"长海路140号"},{"poiid":"B2094757D66DA7F84698","title":"兰州拉面 长海路","lon":"121.523166","lat":"31.309795","category":"247","category_name":"餐饮美食","address":"上海长海路507号"},{"poiid":"B2094654D56FAAFC449B","title":"上海体育学院运动康复中心","lon":"121.52333","lat":"31.31075","category":"162","category_name":"医院","address":""},{"poiid":"B2094757D16FA4F9439A","title":"城隍庙小吃","lon":"121.524261475","lat":"31.3098506927","category":"500","category_name":"未知分类","address":"上海长海路"},{"poiid":"B2094654D56FAAFC419F","title":"银叶苑","lon":"121.52207","lat":"31.309196","category":"47","category_name":"住宅区","address":"上海市杨浦区长海路442弄"},{"poiid":"B2094654D56FAAFC4393","title":"长海医院康复病区","lon":"121.52332","lat":"31.31076","category":"162","category_name":"医院","address":""},{"poiid":"B2094654DB65AAF8459A","title":"上海外国语大学夜大学五角场分部","lon":"121.52265","lat":"31.30958","category":"52","category_name":"高等院校","address":"杨浦区黑山路184号"},{"poiid":"B2094757D069ABFA439C","title":"上海市第六人民医院骨科","lon":"121.52332","lat":"31.310757","category":"162","category_name":"医院","address":"上海徐汇区宜山路600号2楼骨科门诊部"},{"poiid":"B2094757D16EA1FA4999","title":"黑山小区","lon":"121.5248421","lat":"31.306512176","category":"47","category_name":"住宅区","address":"上海政立路6弄"},{"poiid":"B2094750D26DA4FF449A","title":"宁波小厨","lon":"121.523316","lat":"31.312532","category":"75","category_name":"浙江菜","address":"杨浦区清源环路588号(上海市体育学院西门近恒仁路)"},{"poiid":"B2094750DA6AABF9469D","title":"上海虹橋機場","lon":"121.529098","lat":"31.309843","category":"500","category_name":"未知分类","address":null},{"poiid":"B2094654D56FABF4439C","title":"上海市六一小学","lon":"121.52154","lat":"31.30499","category":"56","category_name":"小学","address":"杨浦区政通路25号(近国和路)"},{"poiid":"B2094757D66BA6F8419C","title":"巴蜀餐厅","lon":"121.522541054","lat":"31.305975793","category":"71","category_name":"四川菜","address":"杨浦区政通路16号(近黑山路)"},{"poiid":"B2094757D16BA4F9469E","title":"长海医院药学部","lon":"121.5308281","lat":"31.308735223","category":"162","category_name":"医院","address":"上海市杨浦区长海路"},{"poiid":"B2094752D46AA2F84698","title":"中国农业银行五角场营业部","lon":"121.523447","lat":"31.306983","category":"150","category_name":"银行","address":"上海市杨浦区翔殷路1128号"},{"poiid":"B2094655D36CA7F9439B","title":"黑山路","lon":"121.52157","lat":"31.30966","category":"38","category_name":"公交车站","address":""},{"poiid":"B2094654DB65ABFA409D","title":"上海市杨浦区黑山路幼儿园","lon":"121.52283","lat":"31.30718","category":"57","category_name":"幼儿园","address":"杨浦区黑山路8弄13号(黑山路政立路)"},{"poiid":"B2094655D26DA4F5429F","title":"中国武术博物馆","lon":"121.52751","lat":"31.31417","category":"182","category_name":"博物馆","address":"上海市杨浦区长海路399号"},{"poiid":"B2094655D26AA7FD499A","title":"二军大附属宠物医院","lon":"121.5228","lat":"31.30595","category":"162","category_name":"医院","address":"杨浦区政通路10号(近黑山路)"},{"poiid":"B2094655D26CA6FF4493","title":"上海体院综合馆温水游泳馆游泳培训中心","lon":"121.52787","lat":"31.31009","category":"190","category_name":"培训机构","address":""},{"poiid":"B2094757D16BAAF4419B","title":"第二军医大学研究生楼","lon":"121.530468103","lat":"31.3087129229","category":"500","category_name":"未知分类","address":"上海长海路168"},{"poiid":"B2094655D26CA6F4499E","title":"快客No.5169","lon":"121.52454","lat":"31.30574","category":"117","category_name":"便民商店/便利店","address":""},{"poiid":"B2094752D26CA1F8459E","title":"缘徽大酒店","lon":"121.52581","lat":"31.314832","category":"247","category_name":"餐饮美食","address":"杨浦区国和路709号中原城市广场1座3楼(近民庆路)"},{"poiid":"B2094757D164A7FD449E","title":"民京幼稚园","lon":"121.523209103","lat":"31.3084376171","category":"500","category_name":"未知分类","address":"上海民京路558弄25号"},{"poiid":"B2094750DB69AAFE429D","title":"上海体育学院学生活动中心","lon":"121.52362026060484","lat":"31.310951328051882","category":"253","category_name":"校园生活","address":"杨浦区恒仁路200号"},{"poiid":"B2094654D56FABF44899","title":"同济中学体育馆","lon":"121.52196","lat":"31.30761","category":"224","category_name":"综合体育馆","address":"杨浦区政立路20号(近同济中学体育馆)"},{"poiid":"B2094655D26FA0FF439D","title":"同济中学体育馆(北门)","lon":"121.52168","lat":"31.30782","category":"224","category_name":"综合体育馆","address":""},{"poiid":"B2094655D26CA6F4499D","title":"长恒苑(北门)","lon":"121.52498","lat":"31.30947","category":"656","category_name":"大门","address":""},{"poiid":"B209475DD568A5F84093","title":"外滩十八号","lon":"121.521324","lat":"31.309238","category":"627","category_name":"一般地点标志","address":"上海市 上海市外滩观景大道"},{"poiid":"B2094655D26EA3F84893","title":"长海二村(中原路)","lon":"121.52898","lat":"31.31246","category":"47","category_name":"住宅区","address":""},{"poiid":"B2094757D168A0FA479A","title":"上海灘","lon":"121.523123703","lat":"31.3073283939","category":"500","category_name":"未知分类","address":"上海魔都舊稱"},{"poiid":"B2094654DB6AA2FD459F","title":"上海同捷进修学院","lon":"121.52127","lat":"31.30907","category":"52","category_name":"高等院校","address":"长海路506号"},{"poiid":"B2094757D66FA6FC499E","title":"政衷路36弄","lon":"121.5227741","lat":"31.30620617","category":"47","category_name":"住宅区","address":"上海市杨浦区政立路"},{"poiid":"B209475DDB6CA1FE4393","title":"五角场万达广场","lon":"121.521919","lat":"31.306192","category":"247","category_name":"餐饮美食","address":"上海市 上海市杨浦区邯郸路600号"},{"poiid":"B2094750DA68A5FE449D","title":"上海体育学院新图书馆","lon":"121.526687","lat":"31.314319","category":"253","category_name":"校园生活","address":"清源环路650号"},{"poiid":"B2094757D16EA2F54993","title":"同济中学羽毛球馆","lon":"121.52204","lat":"31.30751","category":"220","category_name":"运动场所","address":"上海杨浦区政立路20号(近同济中学体育馆)  "},{"poiid":"B2094757D169A6F84293","title":"五角场环岛治安派出所","lon":"121.522791623","lat":"31.3074029255","category":"609","category_name":"警察局","address":"上海市杨浦区国和路40号"},{"poiid":"B2094757D66DA3FE429E","title":"上海体育学院附属竞技体育学校","lon":"121.523432","lat":"31.313966","category":"253","category_name":"校园生活","address":"上海恒仁路300号"},{"poiid":"B2094655D36DA1F44893","title":"翔殷路国和路","lon":"121.52557","lat":"31.30327","category":"38","category_name":"公交车站","address":""},{"poiid":"B2094655D26FA1FF469B","title":"营房小区","lon":"121.52164","lat":"31.30694","category":"47","category_name":"住宅区","address":"政衷路36弄1-6号"},{"poiid":"B2094750DA6AA2F54898","title":"上海体育学院图书馆","lon":"121.523536","lat":"31.312713","category":"253","category_name":"校园生活","address":"杨浦区长海路345号上海体育学院内(近嫩江路)"},{"poiid":"B2094654D56FABF4499C","title":"长恒苑(西门)","lon":"121.52415","lat":"31.30882","category":"656","category_name":"大门","address":"恒仁路25弄"},{"poiid":"B2094654D56FAAFC4099","title":"客来登宾馆","lon":"121.52127","lat":"31.30907","category":"250","category_name":"公园户外","address":"杨浦区长海路506号"},{"poiid":"B2094654D56FABF44492","title":"七彩屋汉堡奶茶","lon":"121.5223","lat":"31.30552","category":"111","category_name":"休闲餐饮场所","address":"政通路25-9"},{"poiid":"B2094753D26BA4F8409A","title":"黄兴公园","lon":"121.525109","lat":"31.304791","category":"196","category_name":"公园","address":"上海市 地铁8号线"},{"poiid":"B2094654DB65A6FA4692","title":"上海体育学院附属竞技体育学校(东门)","lon":"121.52371","lat":"31.31379","category":"52","category_name":"高等院校","address":"杨浦区恒仁路300"},{"poiid":"B2094654D56FAAFD459D","title":"体院小区","lon":"121.52154","lat":"31.31308","category":"47","category_name":"住宅区","address":"上海市清源环路542弄"},{"poiid":"B2094654D56FAAFE439B","title":"金体苑","lon":"121.52034","lat":"31.311783","category":"47","category_name":"住宅区","address":"国和路555弄"},{"poiid":"B2094750DB6CA0F4429C","title":"好乐迪财富店","lon":"121.522361","lat":"31.308068","category":"248","category_name":"生活娱乐","address":null},{"poiid":"B2094654D56FAAFD4398","title":"皇马酒家","lon":"121.52534","lat":"31.31451","category":"76","category_name":"上海菜","address":"杨浦区嫩江路(近体育学院)"},{"poiid":"B2094654DB6BA2FB409B","title":"水榭亭阁KTV","lon":"121.5204","lat":"31.30943","category":"170","category_name":"KTV","address":"长海路580"},{"poiid":"B2094655D26CA5FA469B","title":"翔殷路627弄小区","lon":"121.527252","lat":"31.304952","category":"47","category_name":"住宅区","address":"翔殷路627弄2-4号"},{"poiid":"B2094655D26CA5FD409A","title":"政立路80弄住宅小区","lon":"121.52672840442","lat":"31.313394914427","category":"47","category_name":"住宅区","address":"政立路80弄1-18号"},{"poiid":"B2094750D56FA7FB4098","title":"第二军医大学附属长海医院21号楼","lon":"121.530128","lat":"31.309183","category":"500","category_name":"未知分类","address":"长海路168号"},{"poiid":"B2094750D769A3F9459A","title":"土的很农家小苑(政通路店)","lon":"121.522","lat":"31.3056","category":"260","category_name":"其他","address":"杨浦区政通路16号(近国和路)"},{"poiid":"B2094654D56FABF54699","title":"君叶公寓","lon":"121.51996","lat":"31.309212","category":"47","category_name":"住宅区","address":"国和路445弄"},{"poiid":"B2094757D16AA1F5469D","title":"爱酷造型","lon":"121.52159","lat":"31.3092","category":"148","category_name":"美容美发店","address":"杨浦区长海路490号(近恒仁路)"},{"poiid":"B2094757D16BA3F44592","title":"宾皇夜总会","lon":"121.521433103","lat":"31.3072581925","category":"500","category_name":"未知分类","address":"上海长海路"},{"poiid":"B2094655D26CA6FF459A","title":"上海体院综合馆(南门)","lon":"121.52822","lat":"31.30978","category":"656","category_name":"大门","address":"长海路345"},{"poiid":"B2094654D56FABF54998","title":"维英徽菜馆","lon":"121.52198","lat":"31.30979","category":"260","category_name":"其他","address":"杨浦区长海路571号(近黑山花鸟市场)"},{"poiid":"B2094753D46CA0F84593","title":"长海医院停尸房","lon":"121.521156","lat":"31.311071","category":"500","category_name":"未知分类","address":"上海市 长海路1203号"},{"poiid":"B2094655D26CA6F44893","title":"政通路7弄小区(东门)","lon":"121.52333","lat":"31.30493","category":"47","category_name":"住宅区","address":"政通路7弄"},{"poiid":"B2094654D56FAAFC479B","title":"东方肝胆外科研究所","lon":"121.5291","lat":"31.3102","category":"191","category_name":"科研机构","address":"长海路225"},{"poiid":"B2094655D26CA6FF459B","title":"上海体院综合馆(南二门)","lon":"121.5277","lat":"31.3098","category":"656","category_name":"大门","address":""},{"poiid":"B2094757D16DA3FF4293","title":"上海体育学院第二餐厅","lon":"121.523316","lat":"31.312532","category":"253","category_name":"校园生活","address":"上海市杨浦区清源环路588号"},{"poiid":"B2094757D16DA4F44898","title":"第二军医大学学员楼","lon":"121.52517032","lat":"31.30334162","category":"500","category_name":"未知分类","address":"上海翔殷路800号"},{"poiid":"B2094654D56FAAFD4592","title":"体院小区(南门)","lon":"121.52207","lat":"31.3127","category":"47","category_name":"住宅区","address":"清源环路542弄"},{"poiid":"B2094655D26CA6F4499F","title":"黑山路8弄小区(北门)","lon":"121.52322","lat":"31.30791","category":"656","category_name":"大门","address":""},{"poiid":"B2094655D26CA5FC4992","title":"政通路40-42弄小区","lon":"121.52062","lat":"31.30573","category":"47","category_name":"住宅区","address":"政通路40-42弄"},{"poiid":"B2094750DA69ABFD449D","title":"第二军医大学图书馆","lon":"121.529281","lat":"31.305929","category":"253","category_name":"校园生活","address":"翔殷路800"},{"poiid":"B209475CD46DABF4459B","title":"德庄火锅","lon":"121.52848","lat":"31.304151","category":"247","category_name":"餐饮美食","address":"上海市 杨浦区安波路497号"},{"poiid":"B2094654DB6BA2FB409A","title":"快客","lon":"121.51959","lat":"31.30949","category":"117","category_name":"便民商店/便利店","address":""},{"poiid":"B209475DD065ABFC499E","title":"梅赛德斯奔驰文化中心","lon":"121.529243","lat":"31.304687","category":"500","category_name":"未知分类","address":"上海市 上海世博园区（奔驰文化中心）"},{"poiid":"B2094750D56DA0F44699","title":"上海佘山","lon":"121.521247","lat":"31.311292","category":"607","category_name":"一般景点","address":"欢乐谷"},{"poiid":"B2094655D26DA4F4479E","title":"政通路7弄小区","lon":"121.52282","lat":"31.30473","category":"47","category_name":"住宅区","address":"政通路7弄"},{"poiid":"B2094753D268A6FD4592","title":"阿木龙虾","lon":"121.524243","lat":"31.314577","category":"247","category_name":"餐饮美食","address":"上海市 包头南路79号"},{"poiid":"B2094654D56FABF4479E","title":"政立路80弄住宅小区(北门)","lon":"121.51994","lat":"31.3078","category":"47","category_name":"住宅区","address":"政立路80弄1-18号"},{"poiid":"B2094655D26CA5FE4799","title":"黑山路8弄小区","lon":"121.52902544803","lat":"31.313727543352","category":"47","category_name":"住宅区","address":"黑山路8弄"},{"poiid":"B2094654D56FAAFC489F","title":"好德便利No.929","lon":"121.53062","lat":"31.31231","category":"117","category_name":"便民商店/便利店","address":"长海一村59号"},{"poiid":"B2094654DB6AA3FB449D","title":"体育交流中心","lon":"121.52332","lat":"31.31268","category":"252","category_name":"楼宇机构","address":"上海市杨浦区清源环路588号"},{"poiid":"B2094654D56FAAFD4498","title":"上海体育学院运动项目训练中心","lon":"121.52571","lat":"31.31319","category":"190","category_name":"培训机构","address":"清源环路650"},{"poiid":"B2094654D56FABF5469E","title":"君叶公寓(北门)","lon":"121.51984","lat":"31.30943","category":"47","category_name":"住宅区","address":"国和路445弄"},{"poiid":"B2094750DB6DA4FC409C","title":"上海体育学院室内田径馆","lon":"121.52553907934566","lat":"31.313592044214204","category":"220","category_name":"运动场所","address":"杨浦区恒仁路350号"},{"poiid":"B2094757D169A6FC449A","title":"全家便利(民星路店)","lon":"121.5298031","lat":"31.311426279","category":"249","category_name":"购物服务","address":"上海杨浦区民星路392号临  "},{"poiid":"B2094757D16FA5FA439F","title":"傲世达乒乓球俱乐部","lon":"121.5225671","lat":"31.305789161","category":"500","category_name":"未知分类","address":"杨浦区国和路346号江湾体育中心综合馆"},{"poiid":"B2094655D26FA0FE429F","title":"兰花新村住宅小区北门(上海市杨浦区供销合作社东北)","lon":"121.52761","lat":"31.30342","category":"47","category_name":"住宅区","address":"翔殷路791弄1-96号"},{"poiid":"B2094655D26CA6F5459F","title":"翔殷小区","lon":"121.52371","lat":"31.30321","category":"47","category_name":"住宅区","address":"翔殷路910"},{"poiid":"B2094655D26CA5FC4993","title":"满福楼","lon":"121.52121","lat":"31.30511","category":"257","category_name":"中餐厅","address":"杨浦区政通路29号(近国和路)"},{"poiid":"B2094654D56FAAFC4192","title":"长海三村(西门)","lon":"121.52281","lat":"31.31017","category":"656","category_name":"大门","address":""},{"poiid":"B209475CDB6AA6FE499E","title":"查理布朗咖啡店（五角场店）","lon":"121.523017","lat":"31.303647","category":"500","category_name":"未知分类","address":"上海市 国庠路54号"},{"poiid":"B2094757DB6CAAF5479F","title":"东方艺术中心","lon":"121.5231254485727","lat":"31.3053743665252","category":"248","category_name":"生活娱乐","address":"丁香路245号"},{"poiid":"B2094654D56FAAFC419C","title":"银叶苑(东门)","lon":"121.52242","lat":"31.30898","category":"656","category_name":"大门","address":"长海路442弄"},{"poiid":"B2094751D46AA7F8499B","title":"民星幼稚园","lon":"121.5276073","lat":"31.3134017","category":"253","category_name":"校园生活","address":"上海市包头路300弄6号"},{"poiid":"B2094757D66DA2FE4593","title":"小乐会","lon":"121.5251756","lat":"31.302969302","category":"500","category_name":"未知分类","address":"上海翔殷路869号"},{"poiid":"B2094757D66DA7F9469C","title":"豆捞金坊","lon":"121.520117","lat":"31.309093","category":"500","category_name":"未知分类","address":"上海五角场百联又一城七楼"},{"poiid":"B2094655D26DABFE4398","title":"黑山路8弄小区(西门)","lon":"121.52281","lat":"31.30731","category":"656","category_name":"大门","address":"黑山路8弄"},{"poiid":"B2094655D26FA0F84792","title":"银叶苑(北门)","lon":"121.52202","lat":"31.30953","category":"656","category_name":"大门","address":"长海路442弄"},{"poiid":"B2094751D264A6F54899","title":"中原城市广场孩子王","lon":"121.521407","lat":"31.313157","category":"248","category_name":"生活娱乐","address":"民庆路国和路"},{"poiid":"B2094654D56FABF54593","title":"五角场镇招商服务中心","lon":"121.51965","lat":"31.3092","category":"248","category_name":"生活娱乐","address":"国和路465"},{"poiid":"B209475CDA6FAAFA4499","title":"第二军医大学","lon":"121.521835","lat":"31.304605","category":"500","category_name":"未知分类","address":"上海市 杨浦区"},{"poiid":"B2094655D26CA7F4499D","title":"长海路500弄小区(北二门)","lon":"121.52191","lat":"31.30954","category":"656","category_name":"大门","address":""},{"poiid":"B2094654DB6BA2FB4098","title":"长海三村(南一门)","lon":"121.52175","lat":"31.30978","category":"656","category_name":"大门","address":""},{"poiid":"B2094753D765A5F9419B","title":"海军医学研究所","lon":"121.526092","lat":"31.303869","category":"253","category_name":"校园生活","address":"上海市 上海市杨浦区翔殷路818号"},{"poiid":"B2094654DB6BA2FA4992","title":"上海新东方学校","lon":"121.52385","lat":"31.30381","category":"190","category_name":"培训机构","address":""},{"poiid":"B2094757D16FA4FC459E","title":"老特拉福德体育场","lon":"121.5252365","lat":"31.302941102","category":"500","category_name":"未知分类","address":"上海曼彻斯特马特巴斯比大道"},{"poiid":"B2094654D568A3F54092","title":"梦圆酒吧","lon":"121.52837","lat":"31.30366","category":"172","category_name":"酒吧","address":"翔殷路783-1识别"},{"poiid":"B2094654D56FABF54292","title":"上海爱姆意机电设备连锁有限公司物流配送中心","lon":"121.52404","lat":"31.3034","category":"248","category_name":"生活娱乐","address":"翔殷路888号"},{"poiid":"B2094655D26CA7F4499C","title":"长海路500弄小区(北门)","lon":"121.52118","lat":"31.30931","category":"656","category_name":"大门","address":""},{"poiid":"B2094757D064A4F9489F","title":"体育科技园区","lon":"121.5228741","lat":"31.314370341","category":"252","category_name":"楼宇机构","address":"上海市杨浦区恒仁路350号"},{"poiid":"B2094655D26CA7FD429B","title":"鼎皓汽车生活馆","lon":"121.52464","lat":"31.31504","category":"159","category_name":"汽车维修","address":"杨浦区嫩江路2544-2550号(近民庆路)"},{"poiid":"B2094757D06BA3FA479F","title":"爱姆意","lon":"121.522960718","lat":"31.3039180976","category":"500","category_name":"未知分类","address":"上海翔殷路888号"},{"poiid":"B2094752D46CA0FF489E","title":"第二军医大学附属长海医院太平间","lon":"121.521465","lat":"31.304642","category":"627","category_name":"一般地点标志","address":"长海路168号"},{"poiid":"B2094655D26FA7FE4299","title":"长海三村(南二门)","lon":"121.52056","lat":"31.30979","category":"656","category_name":"大门","address":""},{"poiid":"B2094655D26CA6FF4492","title":"长海一村(南门)","lon":"121.53079","lat":"31.31026","category":"656","category_name":"大门","address":""},{"poiid":"B2094654D56FAAFC4999","title":"长海二村(东门)","lon":"121.52973","lat":"31.31249","category":"656","category_name":"大门","address":"长海二村31-68号"},{"poiid":"B2094654D56FAAFC4893","title":"长海一村(北门)","lon":"121.53032","lat":"31.31233","category":"656","category_name":"大门","address":""},{"poiid":"B2094654D56FAAFC4998","title":"长海二村(南门)","lon":"121.53002","lat":"31.31267","category":"656","category_name":"大门","address":""},{"poiid":"B2094654DB6BA2F4449D","title":"兰花村(北三门)","lon":"121.52669","lat":"31.30316","category":"656","category_name":"大门","address":""},{"poiid":"B2094655D26CA6F44999","title":"翔殷小区(东门)","lon":"121.52409","lat":"31.30327","category":"656","category_name":"大门","address":""}]