[{"poiid":"B2094757D068ABFE4599","title":"中信广场","lon":"121.49155956183","lat":"31.253803450588","category":"46","category_name":"楼宇","address":"虹口区四川北路859号(近海宁路)"},{"poiid":"B2094655D26AABFA469C","title":"上海九龙宾馆","lon":"121.49209","lat":"31.25397","category":"250","category_name":"公园户外","address":"上海虹口区溧阳路601号(近吴淞路)"},{"poiid":"B2094757DB6CA4FB4993","title":"外滩公馆","lon":"121.494","lat":"31.25196","category":"76","category_name":"上海菜","address":"虹口区东余杭路275弄3号(近梧州路)"},{"poiid":"B209475CD564A7F84392","title":"上海滩浦东香格里拉店","lon":"121.50058","lat":"31.23634","category":"119","category_name":"商场","address":"浦东富成路33号香格里拉酒店内大堂层"},{"poiid":"B2094757D16AA5FC4392","title":"1933老杨坊—空中剧场","lon":"121.492348103","lat":"31.2545270902","category":"500","category_name":"未知分类","address":"上海市虹口区沙径路10号1933老杨坊四楼"},{"poiid":"B2094757D66DA3FF499F","title":"1933","lon":"121.492579103","lat":"31.2544390883","category":"500","category_name":"未知分类","address":"上海市虹口区四平路"},{"poiid":"B2094757D068A3F5469E","title":"海员医院(东长治路分院)","lon":"121.498129972","lat":"31.250511409","category":"162","category_name":"医院","address":"上海虹口区东长治路505号"},{"poiid":"B2094757D068A1FE499B","title":"浦江名邸","lon":"121.49659","lat":"31.255047","category":"47","category_name":"住宅区","address":"广西北路246号百米香榭商业街南区260"},{"poiid":"B2094654D56DABFE499C","title":"宝矿国际大厦","lon":"121.497534","lat":"31.254199","category":"46","category_name":"楼宇","address":"上海市虹口区吴淞路218号"},{"poiid":"B2094655D26BABFF4098","title":"名江七星城","lon":"121.49435","lat":"31.251509","category":"47","category_name":"住宅区","address":"上海市虹口区东汉阳路309弄"},{"poiid":"B2094654DB6AA7FE459F","title":"豪龙阁舟山渔村(周家嘴路店)","lon":"121.49253","lat":"31.25324","category":"75","category_name":"浙江菜","address":"虹口区周家嘴路2号(溧阳路口)"},{"poiid":"B2094654DB6BA3F8449D","title":"定豪沈家门海鲜酒楼","lon":"121.49484","lat":"31.24854","category":"75","category_name":"浙江菜","address":"虹口区东长治路310号(近溧阳路)"},{"poiid":"B2094757D068A2F84593","title":"白金府邸","lon":"121.49451","lat":"31.250563","category":"252","category_name":"楼宇机构","address":"虹口区旅顺路199弄"},{"poiid":"B2094757D16AA2FB449B","title":"上海市第一人民医院12F","lon":"121.4913274","lat":"31.25310036","category":"162","category_name":"医院","address":"上海海宁路100号"},{"poiid":"B2094654DA6FA6FE429B","title":"恒升半岛国际中心","lon":"121.49564983911","lat":"31.252855823114","category":"46","category_name":"楼宇","address":"上海市虹口区吴淞路205号"},{"poiid":"B2094757D16CA7FE429E","title":"崇明私房菜","lon":"121.494195403","lat":"31.2537960749","category":"76","category_name":"上海菜","address":"虹口区周家嘴路328号(近新建路)"},{"poiid":"B2094655D26BA2F9479E","title":"唐山路新建路","lon":"121.49753","lat":"31.25193","category":"38","category_name":"公交车站","address":""},{"poiid":"B2094752D765A7FD4099","title":"顺风大酒店","lon":"121.492684","lat":"31.252119","category":"247","category_name":"餐饮美食","address":"虹口区汉阳路88号1-3楼"},{"poiid":"B2094654D56DA4F5429B","title":"京世造型·美容(东汉阳路)","lon":"121.49536","lat":"31.25139","category":"148","category_name":"美容美发店","address":""},{"poiid":"B2094757D06BA3F44599","title":"英腾国际健身中心","lon":"121.4947","lat":"31.25091","category":"148","category_name":"美容美发店","address":"虹口区东汉阳路309弄17号名江七星城会所(近宇泰公寓)"},{"poiid":"B2094757D068A2F5499E","title":"新亚大包(海宁路店)","lon":"121.49153","lat":"31.25322","category":"68","category_name":"快餐厅","address":"虹口区海宁路6-8号(近九龙路)"},{"poiid":"B2094654D56DAAFE449C","title":"中皇广场","lon":"121.49439","lat":"31.25442","category":"47","category_name":"住宅区","address":"中皇广场(中皇.外滩)位于虹口周家嘴路(近金田路,梧州路)"},{"poiid":"B2094757D66DA4FF4692","title":"唐山路商丘路烧烤摊","lon":"121.4960231","lat":"31.251600029","category":"68","category_name":"快餐厅","address":"虹口区商丘路"},{"poiid":"B2094750D26AA2F5429E","title":"蓝村路地铁站","lon":"121.495605","lat":"31.252359","category":"36","category_name":"地铁站","address":null},{"poiid":"B2094654DB64A6FB499F","title":"如家快捷酒店(上海北外滩店)","lon":"121.49597","lat":"31.25448","category":"216","category_name":"经济型连锁酒店","address":"上海市虹口区周家嘴路345号(近金田路)"},{"poiid":"B2094654D56DA4F5409C","title":"翠花上酸菜","lon":"121.49343","lat":"31.2511","category":"82","category_name":"东北菜","address":"虹口区梧州路19号(近东汉阳路)"},{"poiid":"B2094654D56DA4F4489D","title":"骨头汤大碗面","lon":"121.49342","lat":"31.25248","category":"68","category_name":"快餐厅","address":"虹口区梧州路97号(近周家嘴路)"},{"poiid":"B2094655D26FA6F54598","title":"上海市虹口区提篮桥地段医院","lon":"121.49478","lat":"31.251","category":"162","category_name":"医院","address":"虹口区东汉阳路246号"},{"poiid":"B2094655D36CA6FB4599","title":"东汉阳路梧州路","lon":"121.49453","lat":"31.25106","category":"38","category_name":"公交车站","address":""},{"poiid":"B2094654D56DA4F54199","title":"名江七星城(边门)","lon":"121.49432","lat":"31.25149","category":"47","category_name":"住宅区","address":"东汉阳路309弄1-17号"},{"poiid":"B209475DDB64ABFA4993","title":"canil狗窝","lon":"121.496696","lat":"31.252607","category":"247","category_name":"餐饮美食","address":"上海市 溧阳路611号1933老场坊1-109室(近海宁路)"},{"poiid":"B2094757D069A6FB479F","title":"提篮桥派出所","lon":"121.49167714","lat":"31.25245795","category":"609","category_name":"警察局","address":"上海九龙路475号"},{"poiid":"B2094654D56DA4F4489A","title":"梧州路馒头店","lon":"121.4934","lat":"31.25278","category":"68","category_name":"快餐厅","address":"虹口区梧州路117号"},{"poiid":"B2094750D768A3FE439D","title":"川子小小店","lon":"121.493","lat":"31.2504","category":"68","category_name":"快餐厅","address":"虹口区溧阳路347号(东汉阳路口)"},{"poiid":"B2094654D56DA4F5429E","title":"快客No.6606","lon":"121.49588","lat":"31.25155","category":"117","category_name":"便民商店/便利店","address":"东汉阳路343"},{"poiid":"B2094654D56DA4F54993","title":"上海市虹口区东余杭路幼儿园","lon":"121.49711","lat":"31.2523","category":"57","category_name":"幼儿园","address":"东汉阳路453"},{"poiid":"B2094654D56DABFD439D","title":"前进住宅小区","lon":"121.49414","lat":"31.25297","category":"47","category_name":"住宅区","address":"周家嘴路86弄1-24号"},{"poiid":"B2094752D165A2FB4299","title":"新华保险大厦","lon":"121.494843","lat":"31.250205","category":"252","category_name":"楼宇机构","address":"东大名路558号"},{"poiid":"B2094654D56DABFD439B","title":"东余杭路第一小学分校","lon":"121.49372","lat":"31.25225","category":"56","category_name":"小学","address":"梧州路110号"},{"poiid":"B2094757D46DABF8449E","title":"清馔房","lon":"121.4937405","lat":"31.2498914","category":"76","category_name":"上海菜","address":"虹口区西安路58号(近旅顺路)"},{"poiid":"B2094752D268AAFE4699","title":"1933老场房","lon":"121.495553","lat":"31.252595","category":"248","category_name":"生活娱乐","address":"上海市虹口区沙泾路"},{"poiid":"B209475DD76EA3F4489F","title":"金牌外婆家国金中心店","lon":"121.495743","lat":"31.250378","category":"257","category_name":"中餐厅","address":"浦东新区世纪大道8号上海国金中心内LG2层55号(近陆家嘴东路)"},{"poiid":"B2094757D16BA2F94499","title":"中国银行(旅顺路支行)","lon":"121.494612103","lat":"31.2510500175","category":"150","category_name":"银行","address":"虹口区东汉阳路285号(东汉阳路旅顺路)"},{"poiid":"B2094757D06BABF94893","title":"京世汉阳路店","lon":"121.494824103","lat":"31.2511650199","category":"500","category_name":"未知分类","address":"上海市虹口区东汉阳路333号"},{"poiid":"B2094757D065A5F4459C","title":"17路周家嘴路新建路站","lon":"121.494636536","lat":"31.2534046173","category":"38","category_name":"公交车站","address":"上海市虹口区周家嘴路近新建路"},{"poiid":"B2094757D06AA5FB4698","title":"红意意大利餐厅","lon":"121.4919041","lat":"31.25405408","category":"500","category_name":"未知分类","address":"1933老场坊 上海市虹口区虬江路"},{"poiid":"B2094757D164A6FD4799","title":"克丽缇娜(东汉阳店)","lon":"121.495284","lat":"31.251378","category":"148","category_name":"美容美发店","address":"上海东汉阳路315号"},{"poiid":"B2094757D168A3F9489D","title":"虹口中学（旧址）","lon":"121.4922202","lat":"31.25138609","category":"55","category_name":"中学","address":"上海武进路86号"},{"poiid":"B2094757D16BA7F4459A","title":"Josie's Base","lon":"121.494096103","lat":"31.2521170398","category":"500","category_name":"未知分类","address":"上海市虹口区新建路"},{"poiid":"B2094655D26FA6FF4298","title":"春阳住宅小区","lon":"121.49282","lat":"31.252275","category":"47","category_name":"住宅区","address":"东余杭路211弄"},{"poiid":"B2094750D56DABF4439B","title":"匠邑世界顶级汽车美容护理","lon":"121.494316","lat":"31.250921","category":"249","category_name":"购物服务","address":"虹口区东汉阳路276号"},{"poiid":"B2094750DA64A2F4489C","title":"陆家嘴金融区","lon":"121.4972","lat":"31.253206","category":"500","category_name":"未知分类","address":null},{"poiid":"B2094654D56DA4F4479D","title":"田野秀·发型美容梧州路店","lon":"121.49339","lat":"31.25311","category":"148","category_name":"美容美发店","address":"虹口区梧州路133号"},{"poiid":"B2094752D56BA7FD4998","title":"陆家嘴正大广场","lon":"121.493009","lat":"31.254678","category":"500","category_name":"未知分类","address":null},{"poiid":"B2094654D56DA4F5459B","title":"上海海员医院门急诊部","lon":"121.49723","lat":"31.25099","category":"162","category_name":"医院","address":"商邱路250"},{"poiid":"B2094655D26CA1F44099","title":"上海市虹口区伟荣食品商店","lon":"121.49573","lat":"31.25289","category":"117","category_name":"便民商店/便利店","address":"商邱路390"},{"poiid":"B209475CDA68A2FE419E","title":"五角场万达广场","lon":"121.496681","lat":"31.251993","category":"500","category_name":"未知分类","address":"上海市 翔殷路"},{"poiid":"B2094654DB6BA3F84399","title":"前进住宅小区(北门)","lon":"121.49414","lat":"31.25325","category":"47","category_name":"住宅区","address":"周家嘴路86弄1-24号"},{"poiid":"B2094654D56DABFE4599","title":"上海市电力公司市区供电公司","lon":"121.49131","lat":"31.25106","category":"263","category_name":"公司","address":"上海九龙路399号"},{"poiid":"B2094654D56DABFF4599","title":"隆江大厦","lon":"121.49274","lat":"31.24899","category":"46","category_name":"楼宇","address":"上海市虹口区虹口区南浔路260号"},{"poiid":"B2094654D56DABFE4192","title":"扬子江大厦","lon":"121.493957","lat":"31.249017","category":"47","category_name":"住宅区","address":"上海市虹口区东大名路299弄"},{"poiid":"B2094757D064A3FB419C","title":"七星城","lon":"121.494271","lat":"31.250695","category":"500","category_name":"未知分类","address":"上海东汉阳路"},{"poiid":"B2094750DA64A1FF449E","title":"好好栗子","lon":"121.492446","lat":"31.250213","category":"247","category_name":"餐饮美食","address":"北海宁路21号"},{"poiid":"B2094655D26CA1F4409E","title":"名江七星城(北门)","lon":"121.49442","lat":"31.25189","category":"656","category_name":"大门","address":"东汉阳路309弄1-17号"},{"poiid":"B2094654D56DAAFE4498","title":"河南拉面(梧州路)","lon":"121.49356","lat":"31.25434","category":"68","category_name":"快餐厅","address":"虹口区东余杭路(近梧州路)"},{"poiid":"B2094654DA6FA6FD489C","title":"大桥大楼","lon":"121.492","lat":"31.2519","category":"47","category_name":"住宅区","address":"虹口区四川北路85号"},{"poiid":"B2094654D56DA4F54198","title":"久兴宠物诊所","lon":"121.49407","lat":"31.25113","category":"668","category_name":"诊所","address":"虹口区东汉阳路275号(近梧州路)"},{"poiid":"B2094757D069A5FB499D","title":"总舵","lon":"121.494608","lat":"31.250594","category":"249","category_name":"购物服务","address":"上海某国某城某地"},{"poiid":"B2094757D16BABF9419F","title":"Unisono","lon":"121.49561309","lat":"31.252954483","category":"500","category_name":"未知分类","address":"上海沙径路25号5号楼"},{"poiid":"B2094655D26FABFA449B","title":"名江七星城(北一门)","lon":"121.4951","lat":"31.25196","category":"656","category_name":"大门","address":"东汉阳路309弄1-17号"},{"poiid":"B2094757D16BA6FF4298","title":"周家嘴路溧阳路","lon":"121.492276","lat":"31.253051","category":"500","category_name":"未知分类","address":"上海周家嘴路溧阳路"},{"poiid":"B2094654D56DABFE4293","title":"OMC消费频道大楼","lon":"121.49204","lat":"31.25104","category":"46","category_name":"楼宇","address":"溧阳路375号"},{"poiid":"B2094655D36CA6F4439C","title":"东长治路旅顺路","lon":"121.49693","lat":"31.24975","category":"38","category_name":"公交车站","address":""},{"poiid":"B2094654D56DABFC4892","title":"蔡红母婴会所虹口会所","lon":"121.49584","lat":"31.25055","category":"128","category_name":"儿童用品店","address":"虹口区西安路203号(近旅顺路)"},{"poiid":"B2094757D069ABFE469E","title":"好好栗子总店","lon":"121.49287414","lat":"31.250116348","category":"500","category_name":"未知分类","address":"上海北海宁路(吴淞路口)"},{"poiid":"B2094654D56DABFD499D","title":"上海海员医院体检中心","lon":"121.49774","lat":"31.25025","category":"162","category_name":"医院","address":"提篮桥"},{"poiid":"B2094752D264AAFA4999","title":"美特斯邦威总部","lon":"121.496576","lat":"31.250919","category":"500","category_name":"未知分类","address":"上海东大名路588号"},{"poiid":"B2094757D065A2FC4999","title":"上海联通北外滩局","lon":"121.4938131","lat":"31.24974699","category":"500","category_name":"未知分类","address":"上海市虹口区西安路78号"},{"poiid":"B2094757D068ABF5489A","title":"7-ELEVEN(汉阳路店)","lon":"121.49501068","lat":"31.249482372","category":"117","category_name":"便民商店/便利店","address":"虹口区汉阳路39号(近吴淞路)"},{"poiid":"B2094654D56DABFC449F","title":"宝原地产东汉阳店","lon":"121.4941","lat":"31.25067","category":"248","category_name":"生活娱乐","address":"东汉阳路268"},{"poiid":"B2094654DB65A3FA459C","title":"龙门大楼","lon":"121.49633","lat":"31.25398","category":"46","category_name":"楼宇","address":"周家嘴路318、328号"},{"poiid":"B2094654DB6BA3F84293","title":"宇泰公寓(北门)","lon":"121.49577","lat":"31.25099","category":"48","category_name":"楼宇大门","address":"东汉阳路338弄1-8号"},{"poiid":"B2094757D168A5F4469E","title":"中国工商银行(周家嘴路支行)","lon":"121.49291","lat":"31.25306","category":"150","category_name":"银行","address":"虹口区周家嘴路16号近溧阳路(溧阳路周家嘴路)"},{"poiid":"B2094655D26DABF8449C","title":"名江七星城(南门)","lon":"121.49432","lat":"31.2512","category":"656","category_name":"大门","address":"东汉阳路309弄1-17号"},{"poiid":"B2094757D568A7FA4198","title":"上海成达驾校报名处","lon":"121.49392036","lat":"31.25060981","category":"248","category_name":"生活娱乐","address":"虹口区东汉阳路258号(东汉阳路梧州路)"},{"poiid":"B2094655D265A7FD419A","title":"洪福里","lon":"121.49337","lat":"31.25392","category":"47","category_name":"住宅区","address":"梧州路191弄3-7号"},{"poiid":"B2094757D06BA3FB439B","title":"汉阳路桥","lon":"121.49254608","lat":"31.250293731","category":"500","category_name":"未知分类","address":"上海东汉阳路（九龙路－溧阳路）"},{"poiid":"B2094654D56DABFE4099","title":"师善里","lon":"121.49681","lat":"31.25028","category":"47","category_name":"住宅区","address":"东长治路449弄1-69号"},{"poiid":"B2094655D26FA0F54392","title":"宝华住宅小区(北门)","lon":"121.49754","lat":"31.25169","category":"47","category_name":"住宅区","address":"唐山路62"},{"poiid":"B2094757D168A2FC409A","title":"19路吴淞路天潼路站","lon":"121.496476","lat":"31.253201","category":"500","category_name":"未知分类","address":"上海市虹口区吴淞路近天潼路"},{"poiid":"B2094757D569A2F8429F","title":"赛峰电动车专卖(东汉阳路)","lon":"121.49302816","lat":"31.25066922","category":"133","category_name":"自行车专卖店","address":"东汉阳路213"},{"poiid":"B2094757DB6AA3F84693","title":"牛市 Bull Market","lon":"121.49213790894","lat":"31.254432163094","category":"247","category_name":"餐饮美食","address":"沙泾路10号1933老场坊1幢2楼近溧阳路"},{"poiid":"B2094654D56DA4F54893","title":"建唐大楼","lon":"121.49776","lat":"31.25226","category":"47","category_name":"住宅区","address":"东汉阳路490"},{"poiid":"B2094654D56DA4F5469A","title":"宝华住宅小区","lon":"121.49769","lat":"31.251369","category":"47","category_name":"住宅区","address":"唐山路62弄"},{"poiid":"B2094655D26DA6F94892","title":"好德No.844","lon":"121.49713","lat":"31.2537","category":"117","category_name":"便民商店/便利店","address":"新建路185"},{"poiid":"B2094655D26CA7FC439B","title":"杨子江大厦(东门)","lon":"121.49472","lat":"31.24905","category":"47","category_name":"住宅区","address":"东长治路299弄1-2号"},{"poiid":"B2094757D165AAFC469E","title":"小杨庄","lon":"121.4967693","lat":"31.252599291","category":"500","category_name":"未知分类","address":"上海梧州路218弄5号1X04"},{"poiid":"B2094655D26FA0FA4393","title":"建唐大楼(北门)","lon":"121.49768","lat":"31.25239","category":"47","category_name":"住宅区","address":"东汉阳路490"},{"poiid":"B2094655D36DA0FC4998","title":"新建路","lon":"121.49629","lat":"31.25437","category":"38","category_name":"公交车站","address":""},{"poiid":"B2094757D065A7FC499E","title":"太平洋车险","lon":"121.49388122","lat":"31.248296737","category":"46","category_name":"楼宇","address":"上海虹口区吴淞路400号太平洋保险大厦1楼(近海宁路)"},{"poiid":"B2094753D06BABFC4799","title":"绿地九龙宾馆彩虹厅","lon":"121.49217","lat":"31.25365","category":"214","category_name":"四星级宾馆","address":null},{"poiid":"B2094654D56DABF8439D","title":"振华公寓","lon":"121.49151","lat":"31.253017","category":"47","category_name":"住宅区","address":"海宁路5号"},{"poiid":"B2094654D56DABFE409A","title":"光明便利(东长治路)","lon":"121.49758","lat":"31.25022","category":"117","category_name":"便民商店/便利店","address":"虹口区东长治路497号(东长治路商丘路)"},{"poiid":"B2094757D065A1F94793","title":"馨虹苑","lon":"121.4950051","lat":"31.254517089","category":"252","category_name":"楼宇机构","address":"上海市浦东新区浦东大道2516号"},{"poiid":"B2094654D56DABFC4998","title":"上海双天遥控模型专卖店","lon":"121.49494","lat":"31.24964","category":"255","category_name":"专卖店","address":"西安路139-141"},{"poiid":"B2094654D56DABFD499F","title":"海顺商务楼","lon":"121.49787","lat":"31.25031","category":"46","category_name":"楼宇","address":"东长治路503"},{"poiid":"B2094655D26FA0F54498","title":"师善里(南门)","lon":"121.4971","lat":"31.25001","category":"47","category_name":"住宅区","address":"东长治路449弄1-69号"},{"poiid":"B2094757D068ABFE419F","title":"国家电网沪东供电分公司沪东供电营业厅","lon":"121.49130249","lat":"31.2509498596","category":"252","category_name":"楼宇机构","address":"上海九龙路375号"},{"poiid":"B2094757D168A1F84898","title":"田野秀时尚造型","lon":"121.49312323","lat":"31.253943478","category":"148","category_name":"美容美发店","address":"虹口区梧州路133号(近周家嘴路)"},{"poiid":"B2094757D06FA2FC4592","title":"华硕上海设计中心","lon":"121.492229","lat":"31.254533","category":"46","category_name":"楼宇","address":"上海市虹口区沙泾路10号445幢, 1933老场坊"},{"poiid":"B2094654D56DABFE429A","title":"上海市城市交通行政执法总队","lon":"121.49349","lat":"31.24889","category":"250","category_name":"公园户外","address":"溧阳路249"},{"poiid":"B2094654DB69A5F9459D","title":"永乐电器(周家嘴路店)","lon":"121.49588","lat":"31.25471","category":"138","category_name":"家电电子卖场","address":"虹口区周家嘴路345-377号"},{"poiid":"B2094655D26CA7FC439A","title":"白金府邸(东门)","lon":"121.49493","lat":"31.25049","category":"656","category_name":"大门","address":"旅顺路199弄"},{"poiid":"B2094757D56EA5FB4799","title":"1933老汤坊","lon":"121.492148637772","lat":"31.2544688502019","category":"249","category_name":"购物服务","address":"上海市虹口区溧阳路611号"},{"poiid":"B2094757D66DAAF5499A","title":"DACATI Caffe 1933店","lon":"121.492599103","lat":"31.254330086","category":"500","category_name":"未知分类","address":"上海市虹口区四平路"},{"poiid":"B2094757D16EA6FB419E","title":"上海联通北外滩局六楼","lon":"121.493513103","lat":"31.2496279878","category":"500","category_name":"未知分类","address":"上海西安局78号"},{"poiid":"B2094757D16FABFA469D","title":"上海联通北外滩局五楼","lon":"121.49363","lat":"31.249492","category":"500","category_name":"未知分类","address":"西安路78号上海联通"},{"poiid":"B2094654D56DAAFE419A","title":"希望义卖中心永乐生活电器义卖店","lon":"121.49629","lat":"31.25471","category":"138","category_name":"家电电子卖场","address":"周家嘴路373"},{"poiid":"B2094757D569A2FF4093","title":"长治电影院","lon":"121.4948419","lat":"31.24854389","category":"178","category_name":"电影院","address":"嘉兴路267号"},{"poiid":"B2094654D56DABFC469F","title":"中国联通上海分公司北外滩局","lon":"121.49345","lat":"31.24959","category":"263","category_name":"公司","address":"溧阳路255"},{"poiid":"B2094751D565A6FB499C","title":"浦东新区陆家嘴西路","lon":"121.4963887652643","lat":"31.25426689333703","category":"500","category_name":"未知分类","address":null},{"poiid":"B2094655D26CA0FB4693","title":"百福小区(北门)","lon":"121.49536","lat":"31.2487","category":"47","category_name":"住宅区","address":"东长治路340弄1-4号"},{"poiid":"B2094655D26FA7FD4499","title":"春阳住宅小区(南门)","lon":"121.49288","lat":"31.2518","category":"656","category_name":"大门","address":"东余杭路209"},{"poiid":"B2094654D56DABFF439A","title":"塘汉小区","lon":"121.49248","lat":"31.249344","category":"47","category_name":"住宅区","address":"南浔路312弄7-23号"},{"poiid":"B2094655D26FA5FA4099","title":"百福小区","lon":"121.49554","lat":"31.248446","category":"47","category_name":"住宅区","address":"东长治路340弄1-4号"},{"poiid":"B2094757D568AAFE4093","title":"上海液化石油气经营有限公司(溧阳路供应站)","lon":"121.4924254","lat":"31.25066216","category":"248","category_name":"生活娱乐","address":"溧阳路359"},{"poiid":"B2094757D069A5F54098","title":"金田路","lon":"121.496070103","lat":"31.254231084","category":"500","category_name":"未知分类","address":"上海市虹口区金田路"},{"poiid":"B2094655D26FA0FD499F","title":"存德坊(北门)","lon":"121.49595","lat":"31.25498","category":"47","category_name":"住宅区","address":"海伦路31弄2-59号"},{"poiid":"B2094654D56DABF8419B","title":"上海市电力公司沪东供电分公司","lon":"121.49176","lat":"31.25048","category":"263","category_name":"公司","address":"九龙路375"},{"poiid":"B2094654D56DABFF4398","title":"上海市虹口区九龙路幼儿园","lon":"121.49263","lat":"31.24905","category":"57","category_name":"幼儿园","address":"虹口区南浔路270号(峨眉路汉阳路)"},{"poiid":"B2094654D56DABFE449C","title":"乍浦路派出所","lon":"121.49136","lat":"31.25218","category":"609","category_name":"警察局","address":"九龙路475号"},{"poiid":"B2094757D068A2FB4092","title":"九龙路余杭路","lon":"121.491306","lat":"31.25095","category":"500","category_name":"未知分类","address":"上海九龙路余杭路"},{"poiid":"B2094654D56DABFE429E","title":"上海飞马进出口贸易有限公司","lon":"121.49321","lat":"31.24954","category":"263","category_name":"公司","address":"溧阳路257"},{"poiid":"B2094757D568A1F5469A","title":"美包在线","lon":"121.4935681","lat":"31.25432306","category":"249","category_name":"购物服务","address":"虹口区梧州路231号(近周家嘴路)"},{"poiid":"B2094757D169A3FC459A","title":"达拉然","lon":"121.4915941","lat":"31.250889514","category":"500","category_name":"未知分类","address":"上海北裂境水晶之歌森林"},{"poiid":"B2094757D065A2FC469B","title":"罗森便利（峨眉路店）","lon":"121.4919101","lat":"31.250414004","category":"249","category_name":"购物服务","address":"上海市虹口区峨眉路315号102室"},{"poiid":"B2094757D065A4FB489A","title":"东方有线网络有限公司(虹口分公司)","lon":"121.4969","lat":"31.254092","category":"500","category_name":"未知分类","address":"上海新建路100号(近周家嘴路)"},{"poiid":"B2094757D168A6FA489F","title":"小窩","lon":"121.491353203","lat":"31.2530896601","category":"500","category_name":"未知分类","address":"上海12溫暖の被窩裡"},{"poiid":"B2094654D56DABFC4492","title":"白金府邸(南门)","lon":"121.49393","lat":"31.25011","category":"656","category_name":"大门","address":""},{"poiid":"B2094757D16CA2FB489C","title":"萍萍娘家","lon":"121.49135759","lat":"31.251891975","category":"500","category_name":"未知分类","address":"上海久耕小区"},{"poiid":"B2094655D268A0F84093","title":"春阳住宅小区(北门)","lon":"121.4928","lat":"31.2532","category":"656","category_name":"大门","address":"东余杭路209"},{"poiid":"B2094757D66DABFC479B","title":"APP","lon":"121.4951151","lat":"31.249017975","category":"249","category_name":"购物服务","address":"上海市虹口区旅顺路"},{"poiid":"B2094757D068A5FB469A","title":"1933剧院魅影鬼屋","lon":"121.491821","lat":"31.254031","category":"260","category_name":"其他","address":"上海溧阳路611号1933老场坊四号楼"},{"poiid":"B2094654D56DABFD4592","title":"东方有线网络有限公司虹口分公司","lon":"121.49687","lat":"31.25408","category":"263","category_name":"公司","address":"新建路211"},{"poiid":"B2094654DB6BA3F8439E","title":"馨虹苑(北门)","lon":"121.49642","lat":"31.25409","category":"656","category_name":"大门","address":"周家嘴路338弄"},{"poiid":"B2094757D66DA7FF4899","title":"奥丹姆","lon":"121.491234103","lat":"31.2516070292","category":"500","category_name":"未知分类","address":"上海艾泽拉斯大陆卡林多"},{"poiid":"B2094654D56DABFD459F","title":"上海博海拍卖有限公司","lon":"121.49667","lat":"31.25418","category":"249","category_name":"购物服务","address":"周家嘴路366-368"},{"poiid":"B2094757D16DA6FE4899","title":"寒冰王冠","lon":"121.4912071","lat":"31.251384024","category":"500","category_name":"未知分类","address":"上海艾泽拉斯大陆北裂境"},{"poiid":"B2094753D46EA2F4459F","title":"1933老厂房","lon":"121.494702","lat":"31.255092","category":"500","category_name":"未知分类","address":"上海市 海伦路"},{"poiid":"B2094751D26EA0FB4599","title":"唐山路保定路","lon":"121.4962","lat":"31.25513","category":"500","category_name":"未知分类","address":null},{"poiid":"B2094757D66CA4F9479C","title":"影月谷","lon":"121.4911211","lat":"31.25166403","category":"500","category_name":"未知分类","address":"上海外域"},{"poiid":"B2094757D66CABFB4792","title":"黑石深渊","lon":"121.4912171","lat":"31.250897014","category":"500","category_name":"未知分类","address":"上海艾泽拉斯大陆东部王国燃烧平原灼热峡谷"},{"poiid":"B2094757D66CAAF9419A","title":"周家嘴路海伦路","lon":"121.495946","lat":"31.254991","category":"500","category_name":"未知分类","address":"上海海伦路31弄"},{"poiid":"B2094654DB6AA3FF4799","title":"定豪酒楼(长治店)","lon":"121.49484","lat":"31.24854","category":"260","category_name":"其他","address":"虹口区东长治路308号(近旅顺路)"},{"poiid":"B2094757D169AAFA429E","title":"china town","lon":"121.4913611","lat":"31.250179999","category":"500","category_name":"未知分类","address":"上海市虹口区乍浦路"},{"poiid":"B2094655D26FA0F54598","title":"中皇广场(西门)","lon":"121.49383","lat":"31.25461","category":"48","category_name":"楼宇大门","address":"梧州路218弄"},{"poiid":"B2094757D16AA2F84598","title":"上海博海拍卖行","lon":"121.496475103","lat":"31.2550331007","category":"263","category_name":"公司","address":"上海周家嘴路新建路"},{"poiid":"B2094757D16AA6FF429A","title":"汇锦商务大厦","lon":"121.4951468","lat":"31.248381261","category":"252","category_name":"楼宇机构","address":"上海吴中路259号"},{"poiid":"B2094655D26CA1FA469A","title":"馨虹苑(东门)","lon":"121.4972","lat":"31.2536","category":"656","category_name":"大门","address":""},{"poiid":"B2094757D568A6F5449B","title":"晟晖宾馆","lon":"121.49703017","lat":"31.25384874","category":"251","category_name":"出行住宿","address":"新建路195、199"},{"poiid":"B2094655D26FA5F94999","title":"塘汉小区(西一门)","lon":"121.4922","lat":"31.24952","category":"656","category_name":"大门","address":"南浔路312弄7-23号"},{"poiid":"B2094655D26FA5F9479E","title":"塘汉小区(西三门)","lon":"121.49219","lat":"31.2493","category":"656","category_name":"大门","address":"南浔路296弄1-27号"},{"poiid":"B2094655D26FA7FC449F","title":"塘汉小区(西二门)","lon":"121.49219","lat":"31.24945","category":"656","category_name":"大门","address":"南浔路304弄1-27号"}]