[{"poiid":"B2094655D26AA6FB449B","title":"星巴克(丽园路店)","lon":"121.47781","lat":"31.205943","category":"260","category_name":"其他","address":"卢湾区蒙自路169号智造局内(近丽园路)"},{"poiid":"B2094757D66FA6FA479A","title":"马当路地铁站","lon":"121.4764454","lat":"31.209112977","category":"36","category_name":"地铁站","address":"上海轨道交通 九号线 轨交马当路站 9"},{"poiid":"B2094753D76FAAFA449C","title":"上海滩国泰旗舰店","lon":"121.466011","lat":"31.216125","category":"249","category_name":"购物服务","address":"淮海中路868号"},{"poiid":"B209475CD564A7F84292","title":"上海滩新天地店","lon":"121.47463","lat":"31.22164","category":"119","category_name":"商场","address":"\"太仓路181弄新天地北里15号\r\n\""},{"poiid":"B2094757D06FA5F44099","title":"Top Chef","lon":"121.47742498","lat":"31.2059198691","category":"94","category_name":"西餐厅","address":"卢湾区蒙自路169号智造局4-105室(近丽园路)"},{"poiid":"B2094757D06AA4FD439B","title":"COSTA COFFEE(徐家汇路店)","lon":"121.477546","lat":"31.209448","category":"65","category_name":"咖啡厅","address":"卢湾区徐家汇路203号(近马当路地铁3号出口)"},{"poiid":"B2094757D06FA1FF4992","title":"鱼林王(打浦店)","lon":"121.47867","lat":"31.20636","category":"86","category_name":"火锅店","address":"卢湾区丽园路708号(近局门路)"},{"poiid":"B2094757D06FAAFC439B","title":"金锚传菜(丽园路店)","lon":"121.47857773","lat":"31.206662798","category":"76","category_name":"上海菜","address":"卢湾区丽园路718号(近蒙自路)"},{"poiid":"B2094753D26EA7F84798","title":"香港龙凤楼","lon":"121.477286","lat":"31.207407","category":"247","category_name":"餐饮美食","address":"上海市 蒙自东路75号(丽园路)"},{"poiid":"B2094757D06FA0FE4093","title":"智造局 Park Space 产业园","lon":"121.47754669","lat":"31.206863403","category":"46","category_name":"楼宇","address":"上海蒙自路169号近丽园路"},{"poiid":"B2094757D06FA0FC489C","title":"丽园公园","lon":"121.478843794","lat":"31.2073611728","category":"196","category_name":"公园","address":"上海卢湾区丽园路(近局门路)  "},{"poiid":"B2094757D06FABFF4198","title":"卢湾区妇幼保健院","lon":"121.47897","lat":"31.20653","category":"902","category_name":"楼宇机构","address":"上海卢湾区丽园路712号(近局门路)  "},{"poiid":"B2094757D169A1FA4399","title":"徐家汇路","lon":"121.47504773","lat":"31.2067918","category":"500","category_name":"未知分类","address":"上海市卢湾区"},{"poiid":"B2094757DB6AA3FE499F","title":"台北纯k party 日月光店","lon":"121.4770580388095","lat":"31.20919920601938","category":"248","category_name":"生活娱乐","address":"打浦桥"},{"poiid":"B2094757D06FA1F84392","title":"友乐达台北精致面馆(卢湾店)","lon":"121.47766","lat":"31.20624","category":"68","category_name":"快餐厅","address":"卢湾区蒙自路169号智造局4号楼101室(近丽园路)"},{"poiid":"B2094750D56EA1F4429D","title":"狐咖","lon":"121.477615","lat":"31.20746","category":"247","category_name":"餐饮美食","address":"卢湾区蒙自东路65号(近智造局产业园)"},{"poiid":"B2094655D26AA0FF4398","title":"卢湾区工人俱乐部","lon":"121.47475","lat":"31.20917","category":"173","category_name":"游戏厅","address":"卢湾区徐家汇路358号卢湾区工人俱乐部3楼(近马当路)"},{"poiid":"B2094757D068A2F94892","title":"渝香情","lon":"121.47845573","lat":"31.206635797","category":"71","category_name":"四川菜","address":"卢湾区丽园路718号(近蒙自路)"},{"poiid":"B2094654DB6BABF9449F","title":"汇龙新城","lon":"121.47519","lat":"31.208281","category":"47","category_name":"住宅区","address":"卢湾区徐家汇路515号(马当路徐家汇路)"},{"poiid":"B2094757D06FA5F5459D","title":"金仕堡健身会所(卢湾店)","lon":"121.476024","lat":"31.209723","category":"221","category_name":"健身中心","address":"卢湾区马当路616号3-4楼(近徐家汇路)"},{"poiid":"B2094654DA6EA3FE4099","title":"致远大厦","lon":"121.478","lat":"31.2078","category":"46","category_name":"楼宇","address":"上海斜土路768号"},{"poiid":"B2094757D06FA5F5499E","title":"肯德基 KFC (永业店)","lon":"121.47676864","lat":"31.208722686","category":"68","category_name":"快餐厅","address":"上海市蒙自路25--27号1层及29-31号部分商铺"},{"poiid":"B2094757D16EA1FE4698","title":"马当路","lon":"121.47786373","lat":"31.209810865","category":"500","category_name":"未知分类","address":"上海市卢湾区"},{"poiid":"B2094757D168A5FD489B","title":"丽园路蒙自路","lon":"121.4771682","lat":"31.2070718655","category":"500","category_name":"未知分类","address":"上海丽园路蒙自路"},{"poiid":"B2094757D069AAFF409D","title":"华越楼(打浦店)","lon":"121.47752593","lat":"31.206280889","category":"110","category_name":"其他亚洲菜","address":"卢湾区蒙自路29号(近肯德基)"},{"poiid":"B2094654DA68A7FA489B","title":"永业公寓","lon":"121.47814","lat":"31.208323","category":"47","category_name":"住宅区","address":"卢湾区徐家汇路135号"},{"poiid":"B2094757D06BA7FB469B","title":"ZEN PALACE MASSAGE","lon":"121.47790073","lat":"31.207373813","category":"500","category_name":"未知分类","address":"上海市卢湾区蒙自东卢湾区41号"},{"poiid":"B2094750D36BA2F5489B","title":"Scarpetta","lon":"121.476409","lat":"31.208549","category":"94","category_name":"西餐厅","address":"卢湾区蒙自路33号(近地铁9号线马当路站)"},{"poiid":"B2094757D068A2F4499E","title":"艺林盲人按摩院(卢湾店)","lon":"121.47425","lat":"31.2081","category":"149","category_name":"洗浴推拿场所","address":"卢湾区徐家汇路521号(近鲁班路)"},{"poiid":"B2094757DB64A2FA4599","title":"翠华餐厅","lon":"121.477081","lat":"31.207841","category":"500","category_name":"未知分类","address":"日月光"},{"poiid":"B2094655D26EA6F5449E","title":"锦江大厨(卢湾店)","lon":"121.47694","lat":"31.2071","category":"76","category_name":"上海菜","address":"卢湾区蒙自路118号(近丽园路)"},{"poiid":"B2094654DB69A4FD499B","title":"锦江之星(卢湾丽园店)","lon":"121.47693","lat":"31.20724","category":"216","category_name":"经济型连锁酒店","address":"上海市黄浦区斜土路456号(近徐家汇路)"},{"poiid":"B2094753D36CA2FE4298","title":"香港龙凤楼","lon":"121.478298","lat":"31.208093","category":"71","category_name":"四川菜","address":"蒙自东路75号"},{"poiid":"B2094752DA69A1F44098","title":"香港龙凤楼","lon":"121.476228","lat":"31.207401","category":"247","category_name":"餐饮美食","address":"上海市 蒙自东路"},{"poiid":"B2094757D46AA1FD489E","title":"咖世家咖啡 蒙自路店 COSTA COFFEE","lon":"121.476903","lat":"31.209101","category":"67","category_name":"甜品店","address":"卢湾区蒙自路(近徐家汇路)"},{"poiid":"B2094757D06AA1FC429D","title":"静安面包房 蒙自店 JING AN BAKERY","lon":"121.47707","lat":"31.20798","category":"67","category_name":"甜品店","address":"卢湾区蒙自路49号1楼(蒙自西路口)"},{"poiid":"B2094757D16AA2F5479B","title":"翔鹰龙虾","lon":"121.47532573","lat":"31.206978804","category":"68","category_name":"快餐厅","address":"黄浦区大兴街3号(近黄家厥路)"},{"poiid":"B2094757D06AA6FD479E","title":"bistro caffe","lon":"121.477636","lat":"31.207699","category":"94","category_name":"西餐厅","address":"卢湾区蒙自东路67号(近丽园路)"},{"poiid":"B2094757D06FA5F5479C","title":"7-ELEVEN(永业店)","lon":"121.477047804","lat":"31.2081244755","category":"117","category_name":"便民商店/便利店","address":"卢湾区蒙自路45-47号(蒙自路蒙自西路)"},{"poiid":"B2094654DB69A4F5439A","title":"可颂坊 蒙自店 Croissants de France","lon":"121.476530054","lat":"31.207481793","category":"112","category_name":"糕饼店","address":"卢湾区蒙自路116号(近丽园路)"},{"poiid":"B2094757D064A5F8429F","title":"香港丽源餐厅","lon":"121.477602938","lat":"31.206801801","category":"72","category_name":"广东菜","address":"卢湾区丽园路718号105座(近蒙自路)"},{"poiid":"B2094654DB64A6FD4292","title":"上海新锦江假日酒店","lon":"121.47693","lat":"31.2071","category":"250","category_name":"公园户外","address":"蒙自路118号"},{"poiid":"B2094757D065ABFD469D","title":"永业二期公寓","lon":"121.47694592","lat":"31.208018226","category":"252","category_name":"楼宇机构","address":"上海徐家汇路135弄"},{"poiid":"B2094750D06CA3F8449F","title":"黃浦區婦幼保健院","lon":"121.476226","lat":"31.207365","category":"162","category_name":"医院","address":"麗園路712號"},{"poiid":"B2094750D56DABF84799","title":"达美乐披萨（蒙自路店）","lon":"121.477851","lat":"31.206092","category":"247","category_name":"餐饮美食","address":"蒙自路169号智造局"},{"poiid":"B2094654DA6EA3FA4692","title":"海丽花园","lon":"121.477","lat":"31.2095","category":"47","category_name":"住宅区","address":"打浦路80弄1-3"},{"poiid":"B2094753D66AA6FB4193","title":"香港龙凤楼","lon":"121.477027","lat":"31.207515","category":"247","category_name":"餐饮美食","address":"上海市 蒙自东路75号"},{"poiid":"B2094654DA68A6F8459A","title":"光明乳业乳品专卖","lon":"121.47676","lat":"31.20756","category":"117","category_name":"便民商店/便利店","address":""},{"poiid":"B209475CD368A7F5469C","title":"粒子咖啡馆","lon":"121.47817","lat":"31.20787","category":"65","category_name":"咖啡厅","address":"蒙自东路63号(近马当路地铁站3号口)"},{"poiid":"B2094757D769A4FC409D","title":"C多多 日月光中心广场店","lon":"121.47467","lat":"31.20865","category":"67","category_name":"甜品店","address":"卢湾区徐家汇路618号日月光中心广场B2楼(近瑞金二路)"},{"poiid":"B2094757D569A7FC4393","title":"地铁咖啡","lon":"121.477638","lat":"31.207702","category":"65","category_name":"咖啡厅","address":"蒙自东路67号近徐家汇路"},{"poiid":"B2094753D064A1FE4599","title":"亚力山大会馆(卢湾会馆)","lon":"121.47739","lat":"31.20917","category":"148","category_name":"美容美发店","address":"卢湾区徐家汇路169号(近蒙自路)"},{"poiid":"B2094654DA68A6FC469F","title":"蒙西菜市场(蒙自路)","lon":"121.47687","lat":"31.20752","category":"117","category_name":"便民商店/便利店","address":""},{"poiid":"B2094655D26AA0FF4499","title":"依达台球俱乐部","lon":"121.47611","lat":"31.20644","category":"247","category_name":"餐饮美食","address":"卢湾区丽园路826号(近蒙自路)"},{"poiid":"B2094751D264A1F4409B","title":"上海第九人民醫院","lon":"121.4759313320953","lat":"31.20993031848828","category":"162","category_name":"医院","address":"製造局路"},{"poiid":"B2094750DB6CA0FB4193","title":"柴片馄饨","lon":"121.474851","lat":"31.208349","category":"247","category_name":"餐饮美食","address":null},{"poiid":"B2094654DA68A7FA489E","title":"可的(蒙自路)","lon":"121.47695","lat":"31.20721","category":"117","category_name":"便民商店/便利店","address":"卢湾区蒙自路118号(蒙自路蒙自西路)"},{"poiid":"B2094752D46BA2FF429A","title":"villa & hut Kafe","lon":"121.477959","lat":"31.207082","category":"247","category_name":"餐饮美食","address":"蒙自路207号12号楼001室近斜土路"},{"poiid":"B2094757D069A6F8499C","title":"开城新苑","lon":"121.47711","lat":"31.206291","category":"47","category_name":"住宅区","address":"上海卢湾区丽园路818弄(近蒙自路)"},{"poiid":"B2094654DB6BABF94798","title":"新特药房","lon":"121.47589","lat":"31.20868","category":"162","category_name":"医院","address":"卢湾区徐家汇路509号(近马当路)"},{"poiid":"B2094750D768A1FF4893","title":"八福花","lon":"121.478","lat":"31.2094","category":"113","category_name":"冷饮店","address":"卢湾区徐家汇路153号"},{"poiid":"B2094654DA68A6F84499","title":"快客No.6103","lon":"121.47586","lat":"31.20749","category":"117","category_name":"便民商店/便利店","address":"蒙自西路40-1"},{"poiid":"B209475DD66DABFD439F","title":"Coquille Seafood","lon":"121.477172","lat":"31.209518","category":"247","category_name":"餐饮美食","address":"上海市 蒙自路29号"},{"poiid":"B2094752D76BA5FF479A","title":"正大广场 9楼 小南国","lon":"121.47797","lat":"31.207342","category":"247","category_name":"餐饮美食","address":null},{"poiid":"B2094654DB65A0FE459E","title":"国际服务外包产业园智造局","lon":"121.47772","lat":"31.20669","category":"46","category_name":"楼宇","address":"蒙自路169号"},{"poiid":"B2094757D06AA4FA4999","title":"北蒙三小区","lon":"121.47663","lat":"31.205873","category":"47","category_name":"住宅区","address":"丽园路482弄20-51号"},{"poiid":"B2094757D064A6F5409B","title":"中国银行(鲁班路支行)","lon":"121.47576","lat":"31.20836","category":"150","category_name":"银行","address":"上海卢湾区徐家汇路513号  "},{"poiid":"B2094757D06FA2FE489D","title":"DDB China","lon":"121.47760009","lat":"31.206272125","category":"500","category_name":"未知分类","address":"上海蒙自路169号智造局2号楼4楼"},{"poiid":"B2094750DA6FA6FC419C","title":"虹寿司","lon":"121.478576","lat":"31.20684","category":"95","category_name":"日本料理","address":"卢湾区蒙自路169号-4号铺(近丽园路)"},{"poiid":"B2094752DB6DA7F84499","title":"新天地stayreal","lon":"121.477489","lat":"31.209668","category":"500","category_name":"未知分类","address":"上海市 上海市新天地"},{"poiid":"B2094757D66EA4FF439B","title":"上海地铁第二运营有限公司培训基地","lon":"121.47677533","lat":"31.209695962","category":"46","category_name":"楼宇","address":"上海马当路618号"},{"poiid":"B2094654DA68A6F8459F","title":"上海市汇龙幼儿园","lon":"121.47531","lat":"31.20776","category":"57","category_name":"幼儿园","address":"卢湾区蒙自西路7号(近鲁班路)"},{"poiid":"B2094655D36DA6FE409D","title":"马当路","lon":"121.4763","lat":"31.20994","category":"38","category_name":"公交车站","address":""},{"poiid":"B2094655D264A6F9419E","title":"兴业银行上第卢湾支行ATM取款机","lon":"121.47733","lat":"31.20762","category":"152","category_name":"ATM","address":"蒙自路57-59"},{"poiid":"B2094750D26BAAFD459D","title":"上海老相机制造博物馆","lon":"121.474777","lat":"31.207374","category":"627","category_name":"一般地点标志","address":null},{"poiid":"B209475CD165A3FE4799","title":"LOSTRIP COFFEE","lon":"121.475746","lat":"31.207408","category":"500","category_name":"未知分类","address":"上海市 蒙自东路57-61号(近蒙自路)"},{"poiid":"B2094757D16DA1FA429A","title":"subway马当店","lon":"121.47609173","lat":"31.209051848","category":"500","category_name":"未知分类","address":"上海市卢湾区蒙字路徐家汇路"},{"poiid":"B2094655D26BA1FA4998","title":"马当路徐家汇路","lon":"121.47614","lat":"31.2101","category":"38","category_name":"公交车站","address":""},{"poiid":"B2094751D26BA3FB429B","title":"上海MAO LIVE house","lon":"121.47464","lat":"31.207382","category":"500","category_name":"未知分类","address":null},{"poiid":"B2094757D568A4F4419D","title":"沐养身纤体馆","lon":"121.47761583","lat":"31.2092315","category":"148","category_name":"美容美发店","address":"徐家汇路159"},{"poiid":"B2094757D568A5FF469B","title":"天宝龙凤金银珠宝(徐家汇路)","lon":"121.47691488","lat":"31.20893799","category":"131","category_name":"珠宝首饰工艺品","address":"徐家汇路193"},{"poiid":"B2094753D66FA4F4429B","title":"PATACHON","lon":"121.476759","lat":"31.207138","category":"500","category_name":"未知分类","address":"上海市 黄浦区蒙自路207号靠近丽园路"},{"poiid":"B2094753D56FA1FC4692","title":"Le Joli Bistro 周","lon":"121.478302","lat":"31.205844","category":"500","category_name":"未知分类","address":"上海市 蒙自路207号11号楼10室"},{"poiid":"B2094654DB65A6FA409C","title":"光明便利","lon":"121.47516","lat":"31.20847","category":"117","category_name":"便民商店/便利店","address":"黄浦区云南南路9-11号(延安东路云南南路)"},{"poiid":"B2094751D564A3FB449B","title":"上海加拿大签证申请中心","lon":"121.474408","lat":"31.207479","category":"500","category_name":"未知分类","address":"上海市徐家汇路555号"},{"poiid":"B2094757DB6CA4F5409A","title":"卢湾体育场","lon":"121.47568631","lat":"31.20869201","category":"500","category_name":"未知分类","address":"建国路"},{"poiid":"B2094757D164ABFC4293","title":"中享会大酒店","lon":"121.47508923","lat":"31.208410835","category":"76","category_name":"上海菜","address":"上海斜土路 瑞金南路 交叉口"},{"poiid":"B2094654DB65A6FD429F","title":"永琪美容美发(丽园店)","lon":"121.47702","lat":"31.20626","category":"148","category_name":"美容美发店","address":"卢湾区丽园路(近蒙自路)"},{"poiid":"B2094654DA68A7FB419A","title":"打浦桥街道社区卫生服务中心","lon":"121.47885","lat":"31.20666","category":"162","category_name":"医院","address":"丽园路712"},{"poiid":"B2094757D16DABFA4693","title":"109路公交","lon":"121.47566473","lat":"31.208314833","category":"500","category_name":"未知分类","address":"上海市卢湾区建国中路"},{"poiid":"B2094753D765A3FC479E","title":"香港龍鳳樓","lon":"121.474227","lat":"31.207828","category":"247","category_name":"餐饮美食","address":"上海市 蒙自东路75号"},{"poiid":"B209475CD66FAAFD4498","title":"Mr.pancake house","lon":"121.477951","lat":"31.205694","category":"500","category_name":"未知分类","address":"上海市 卢湾区蒙自路207号"},{"poiid":"B2094655D26FA7FB499D","title":"蒙西小区","lon":"121.47475","lat":"31.206985","category":"47","category_name":"住宅区","address":"丽园路877号103室-1"},{"poiid":"B2094757D66CA0FD429B","title":"Resonance China","lon":"121.47757773","lat":"31.207309811","category":"500","category_name":"未知分类","address":"上海市卢湾区蒙自路169号制造局园区1号楼206-207室"},{"poiid":"B2094757D168A1FA4793","title":"大班","lon":"121.47584443","lat":"31.206876052","category":"500","category_name":"未知分类","address":"上海鲁班路"},{"poiid":"B2094751D06CAAF8419C","title":"ifc国金","lon":"121.47593128","lat":"31.20993033999999","category":"500","category_name":"未知分类","address":null},{"poiid":"B2094757D16DA1FE489E","title":"丽园公园篮球场","lon":"121.4775","lat":"31.20656","category":"220","category_name":"运动场所","address":"卢湾区丽园路(近局门路)"},{"poiid":"B2094654DA68A6FC449F","title":"兴宾网吧嘉草店","lon":"121.47635","lat":"31.20647","category":"176","category_name":"网吧","address":"丽园路820"},{"poiid":"B2094757D66CA2FA419A","title":"老盛昌","lon":"121.47844173","lat":"31.207310811","category":"500","category_name":"未知分类","address":"上海丽园路501附近"},{"poiid":"B2094757D568A6FF419B","title":"名士馆","lon":"121.47784261","lat":"31.20931858","category":"141","category_name":"服装鞋帽皮具店","address":"卢湾区徐家汇路149号(近马当路)查看地图"},{"poiid":"B2094654DA68A6F8469A","title":"琉璃时光SPA概念美疗沙龙","lon":"121.47462","lat":"31.20839","category":"148","category_name":"美容美发店","address":"徐家汇路517"},{"poiid":"B2094751D36FA4F4479C","title":"达美乐比萨(蒙自路店)","lon":"121.47781","lat":"31.20594","category":"94","category_name":"西餐厅","address":"卢湾区蒙自路169号(近丽园路)"},{"poiid":"B2094757D065A1FF4192","title":"三千里正宗传统韩式烧肉","lon":"121.47475573","lat":"31.206816801","category":"247","category_name":"餐饮美食","address":"上海市斜徐路587号靠近丽园路"},{"poiid":"B209475CD365A4F94193","title":"Dazzling Cafe","lon":"121.474758","lat":"31.209177","category":"111","category_name":"休闲餐饮场所","address":"徐家汇路618号日月光百货一楼中庭"},{"poiid":"B2094757D66EA4FA439A","title":"江桥万达广场soho5号楼","lon":"121.47719773","lat":"31.206713799","category":"500","category_name":"未知分类","address":"上海市嘉定区鹤友路366号"},{"poiid":"B2094655D26AA0F4489C","title":"MASTERCOOL舞蹈工作室","lon":"121.47475","lat":"31.20917","category":"247","category_name":"餐饮美食","address":"徐汇区华山路2088号汇银广场南楼13楼01室(近虹桥路)"},{"poiid":"B2094757D16CAAFE4099","title":"全家便利店","lon":"121.4774732","lat":"31.2068811","category":"500","category_name":"未知分类","address":"卢湾区丽园路506号(近局门路)"},{"poiid":"B2094655D26FAAFC429A","title":"打浦路252弄小区","lon":"121.47755069598","lat":"31.206549218979","category":"47","category_name":"住宅区","address":"打浦路252弄2-44号"},{"poiid":"B2094757D06AA4FC499E","title":"香港丽源茶餐厅","lon":"121.477728738","lat":"31.2063417912","category":"500","category_name":"未知分类","address":"上海市卢湾区丽园路718号"},{"poiid":"B2094757D16CA3FF4098","title":"中国农业银行(丽园路储蓄所)","lon":"121.47739","lat":"31.20667","category":"150","category_name":"银行","address":"卢湾区丽园路857号(丽园路蒙自路)"},{"poiid":"B2094654DA68A6FC4593","title":"顺鑫足浴屋","lon":"121.47665","lat":"31.20686","category":"149","category_name":"洗浴推拿场所","address":"丽园路861-1"},{"poiid":"B2094752DB6EA0FF4198","title":"上海市黄浦区疾病预防控制中心","lon":"121.477985","lat":"31.209383","category":"500","category_name":"未知分类","address":"上海市 上海市斜土路309号"},{"poiid":"B2094757D568A5F4449D","title":"中华烟行(徐家汇路店)","lon":"121.4770934","lat":"31.20905382","category":"136","category_name":"烟酒专卖店","address":"卢湾区徐家汇路185号"},{"poiid":"B2094750D26CA0F44998","title":"丽园路局门路柴排馄饨","lon":"121.474685","lat":"31.209176","category":"500","category_name":"未知分类","address":null},{"poiid":"B2094757D568A6FF439C","title":"红酒汇","lon":"121.4751889","lat":"31.20827806","category":"255","category_name":"专卖店","address":"卢湾区徐家汇路515弄汇龙新城1号会所(鲁班路口)"},{"poiid":"B2094757D065AAFD419A","title":"招行丽园路支行","lon":"121.476956","lat":"31.206597","category":"500","category_name":"未知分类","address":"上海丽园路810号"},{"poiid":"B2094757D168A1FC409C","title":"禪境居","lon":"121.478555438","lat":"31.2066648981","category":"500","category_name":"未知分类","address":"上海市盧灣區蒙自東路41號"},{"poiid":"B2094757D16BA7FC4492","title":"正道红酒俱乐部","lon":"121.47547348","lat":"31.206405792","category":"500","category_name":"未知分类","address":"卢湾区斜土路883号(近卢湾中学)"},{"poiid":"B2094757D06AABF9459C","title":"AKQA上海","lon":"121.477394104","lat":"31.2065162659","category":"500","category_name":"未知分类","address":"上海卢湾区蒙自路169号（智造局）2号楼"},{"poiid":"B2094654DA68A6FC449B","title":"顺风公寓","lon":"121.47559","lat":"31.206108","category":"47","category_name":"住宅区","address":"顺风公寓位于卢湾丽园路866弄1号2号"},{"poiid":"B2094750D268AAF9479F","title":"星光器械城","lon":"121.479209","lat":"31.207168","category":"162","category_name":"医院","address":null},{"poiid":"B2094757D16BA2F4409A","title":"喜客来菜饭","lon":"121.47774273","lat":"31.210021869","category":"247","category_name":"餐饮美食","address":"上海市卢湾区丽园路501号靠近局门路"},{"poiid":"B2094655D26BABF8429B","title":"上航假期徐家汇路营业部","lon":"121.47768","lat":"31.20925","category":"248","category_name":"生活娱乐","address":"徐家汇路157"},{"poiid":"B2094654DA68A6F84398","title":"光明乳业蒙西配送站(蒙自西路)","lon":"121.4746","lat":"31.20726","category":"117","category_name":"便民商店/便利店","address":""},{"poiid":"B2094655D268A4FB4892","title":"蒙西小区(南门)","lon":"121.47505","lat":"31.2066","category":"47","category_name":"住宅区","address":""},{"poiid":"B2094757D16FA2F4419A","title":"DDB - Ken Kaess","lon":"121.47839673","lat":"31.207307811","category":"500","category_name":"未知分类","address":"上海市卢湾区蒙自路169号2楼4楼"},{"poiid":"B2094753D26CA5FC489C","title":"卢湾区打浦桥派出所","lon":"121.474975","lat":"31.207739","category":"609","category_name":"警察局","address":"上海市 斜土路315号"},{"poiid":"B2094654DA68A6F8419B","title":"嘿呀摇茶(蒙自路)","lon":"121.47776","lat":"31.20602","category":"113","category_name":"冷饮店","address":""},{"poiid":"B2094757D664A4FE489F","title":"YOYO","lon":"121.47603","lat":"31.21052","category":"67","category_name":"甜品店","address":"黄浦区南京西路19-169号华盛街A126号(近西藏中路)"},{"poiid":"B2094751D565ABFE4992","title":"MAOLiveHouse","lon":"121.474656","lat":"31.20751","category":"500","category_name":"未知分类","address":null},{"poiid":"B209475CD464A5F94992","title":"星巴克（永业公寓店）","lon":"121.477645","lat":"31.206165","category":"500","category_name":"未知分类","address":"上海市 徐家汇路193-199号"},{"poiid":"B2094757D069A6F94998","title":"RAPP China","lon":"121.47773742","lat":"31.206586837","category":"500","category_name":"未知分类","address":"上海卢湾区蒙自路169号 4层"},{"poiid":"B2094757D064A5FB429C","title":"发力无边","lon":"121.4749854","lat":"31.206395303","category":"148","category_name":"美容美发店","address":"卢湾区丽园路1017号(近鲁班路)"},{"poiid":"B2094757D16EA4F44498","title":"丽园路秘密研发基地","lon":"121.478685738","lat":"31.2072578107","category":"500","category_name":"未知分类","address":null},{"poiid":"B2094757D66CA6F5429E","title":"康友四季","lon":"121.47609191","lat":"31.210806269","category":"500","category_name":"未知分类","address":"上海马当路586号3楼"},{"poiid":"B2094752D36DA6F5459B","title":"黄浦区教师进修学院","lon":"121.478694","lat":"31.209314","category":"253","category_name":"校园生活","address":"丽园路478号"},{"poiid":"B2094752D769A7FC479F","title":"月子湾母婴会所（月子中心）","lon":"121.478911","lat":"31.207038","category":"252","category_name":"楼宇机构","address":"上海市卢湾区丽园路708号"},{"poiid":"B2094751D26DA0FE4392","title":"宝燕餐厅","lon":"121.474319","lat":"31.208641","category":"500","category_name":"未知分类","address":null},{"poiid":"B2094655D268A4FA499F","title":"丽园路710弄小区(北门)","lon":"121.47896","lat":"31.2069","category":"47","category_name":"住宅区","address":"丽园路710弄"},{"poiid":"B2094654DA68A7FB4198","title":"打浦桥街道残疾人社区康复站","lon":"121.47885","lat":"31.20666","category":"162","category_name":"医院","address":"丽园路712"},{"poiid":"B2094655D268A4FB489A","title":"开城新苑(北门)","lon":"121.47661","lat":"31.20659","category":"48","category_name":"楼宇大门","address":""},{"poiid":"B2094757D16DA2F4459B","title":"帕瑞仕美发","lon":"121.47677612","lat":"31.206703186","category":"260","category_name":"其他","address":"卢湾区丽园路816号"},{"poiid":"B209475CD364ABFC4392","title":"sitka coffee","lon":"121.477706","lat":"31.20564","category":"111","category_name":"休闲餐饮场所","address":"蒙自路207号101-1商铺(近丽园路)"},{"poiid":"B2094655D268A4FF419C","title":"丽园路710弄小区","lon":"121.47909","lat":"31.20671","category":"47","category_name":"住宅区","address":"丽园路710弄"},{"poiid":"B2094757D16CA3F44199","title":"陕西人家","lon":"121.477775","lat":"31.205987","category":"247","category_name":"餐饮美食","address":"上海卢湾区蒙自路169号智造局104号"},{"poiid":"B2094752DB6CA3FC469F","title":"乔隐养生会馆","lon":"121.474778","lat":"31.207324","category":"148","category_name":"美容美发店","address":"上海市 蒙自西路66号"},{"poiid":"B2094757D16DABFE4892","title":"埃特公关","lon":"121.47772979","lat":"31.206699371","category":"263","category_name":"公司","address":"上海蒙自路169号 智造局2号楼101室"},{"poiid":"B2094757D66CABFD429D","title":"嘉昊艺术进修学校","lon":"121.47848573","lat":"31.209790864","category":"53","category_name":"成人教育","address":"上海市卢湾区徐家汇路125号"},{"poiid":"B2094757D06FABFD499F","title":"FuturoStore 苹果及配件专卖店","lon":"121.47632353","lat":"31.210196873","category":"138","category_name":"家电电子卖场","address":"上海徐家汇路189号"},{"poiid":"B2094654DA68A6F8409E","title":"良友金伴蒙自店","lon":"121.47765","lat":"31.20572","category":"117","category_name":"便民商店/便利店","address":"蒙自路210"},{"poiid":"B2094751D26CA6FA439A","title":"地铁7号线后滩站","lon":"121.474853","lat":"31.209953","category":"250","category_name":"公园户外","address":null},{"poiid":"B2094655D26CA4F44193","title":"淡水湾花园(东2门)","lon":"121.47606","lat":"31.20981","category":"48","category_name":"楼宇大门","address":"马当路608"},{"poiid":"B2094757DA6AAAF84393","title":"江宁路","lon":"121.47911","lat":"31.209314","category":"500","category_name":"未知分类","address":"上海江宁路"},{"poiid":"B2094757D065A4F84398","title":"汉庭•全季酒店新天地店","lon":"121.47760766","lat":"31.20552149","category":"217","category_name":"旅馆招待所","address":"上海市徐汇区重庆南路283号"},{"poiid":"B2094655D265A6FE4392","title":"网海公众电脑屋","lon":"121.47585","lat":"31.21066","category":"176","category_name":"网吧","address":"马当路588号"},{"poiid":"B2094757D164A3F5409D","title":"DDB Townhall","lon":"121.47832317","lat":"31.206723499","category":"500","category_name":"未知分类","address":"上海市卢湾区蒙自路169号2号楼4楼"},{"poiid":"B2094654DA68A6F84693","title":"卢湾区嘉昊文化艺术进修学校","lon":"121.47885","lat":"31.20958","category":"53","category_name":"成人教育","address":"徐家汇路125-127"},{"poiid":"B2094757D16BAAFE469F","title":"桌球","lon":"121.47588085","lat":"31.206551795","category":"248","category_name":"生活娱乐","address":"上海丽园路826号"},{"poiid":"B2094752D469A7F4489E","title":"戴柏美发学校","lon":"121.47471435847478","lat":"31.206664747539108","category":"253","category_name":"校园生活","address":"卢湾区丽园路718号"},{"poiid":"B2094757D165A1FE4292","title":"马南油豆腐细粉汤","lon":"121.47633493","lat":"31.210188773","category":"500","category_name":"未知分类","address":"上海马当路359号"},{"poiid":"B2094757D165A4F44599","title":"淮海中路街道社会治安综合治理工作中心","lon":"121.476327638","lat":"31.2101647726","category":"500","category_name":"未知分类","address":"上海马当路440号"},{"poiid":"B2094757DB6CA2F8439D","title":"月子湾","lon":"121.4745343739999","lat":"31.20895959799999","category":"248","category_name":"生活娱乐","address":"丽园路708号"},{"poiid":"B2094655D26BABFF489E","title":"柯达影像网络","lon":"121.47562","lat":"31.20668","category":"248","category_name":"生活娱乐","address":"丽园路879-2"},{"poiid":"B2094654DA68A6F8459C","title":"汇龙新城(南门)","lon":"121.47511","lat":"31.20762","category":"656","category_name":"大门","address":"蒙自西路9"},{"poiid":"B2094757D06AA7F44493","title":"世博园九号门","lon":"121.47700389","lat":"31.209874153","category":"260","category_name":"其他","address":"上海世博园九号门马当路出入口"},{"poiid":"B2094655D268A4FF419E","title":"汇龙新城(北门)","lon":"121.47505","lat":"31.20858","category":"656","category_name":"大门","address":""},{"poiid":"B2094757D169A5FA439D","title":"良食经典葡式茶餐厅","lon":"121.47904363","lat":"31.207063306","category":"500","category_name":"未知分类","address":"上海丽园路901弄A1座"},{"poiid":"B2094757D568A5FB499B","title":"嘉昊琴行","lon":"121.478763","lat":"31.20956624","category":"255","category_name":"专卖店","address":"徐家汇路127"},{"poiid":"B2094757D165A2FB4299","title":"意尚红酒","lon":"121.47786","lat":"31.206","category":"500","category_name":"未知分类","address":"上海卢湾区蒙自路169号3号楼301-302(近丽园路)  "},{"poiid":"B2094757D16EABFF469D","title":"上海龙嘉税务师事务所","lon":"121.477731","lat":"31.206004","category":"500","category_name":"未知分类","address":"上海蒙自路169号智造局1号楼302室"},{"poiid":"B2094757D66EA3FB469F","title":"杨州扦脚","lon":"121.474439","lat":"31.207233","category":"148","category_name":"美容美发店","address":"上海蒙自西路"},{"poiid":"B2094757D165A7F94498","title":"Geek","lon":"121.474963538","lat":"31.2064363932","category":"500","category_name":"未知分类","address":null},{"poiid":"B2094655D26CA4F8469D","title":"淡水湾花园(东1门)","lon":"121.47585","lat":"31.21065","category":"48","category_name":"楼宇大门","address":"马当路588弄1-9号"},{"poiid":"B2094655D36CA2FC4292","title":"上海银行自忠支行","lon":"121.47911","lat":"31.20962","category":"150","category_name":"银行","address":"徐家汇路123"},{"poiid":"B209475CDA68A2FB4098","title":"盘子女人坊（上海旗舰店）","lon":"121.478083","lat":"31.205727","category":"263","category_name":"公司","address":"蒙自路207号宏慧盟智園9號樓"},{"poiid":"B2094757D66EA0F5499E","title":"招商银行24小时自助服务(24hour banking)","lon":"121.479038738","lat":"31.2069820048","category":"152","category_name":"ATM","address":"上海卢湾区丽园路810号(近蒙自路)"},{"poiid":"B2094655D268A4F8479F","title":"东都公寓(北门)","lon":"121.47503","lat":"31.20626","category":"48","category_name":"楼宇大门","address":""},{"poiid":"B2094655D268A4F8419E","title":"顺风公寓(北门)","lon":"121.47576","lat":"31.20644","category":"656","category_name":"大门","address":"丽园路866弄1-5号"},{"poiid":"B2094757D66DABFE439E","title":"home sweet home","lon":"121.47771","lat":"31.20614","category":"260","category_name":"其他","address":"卢湾区蒙自路169-4号(近丽园路)"},{"poiid":"B2094655D268A4FB489B","title":"北蒙三小区(北门)","lon":"121.47583","lat":"31.20639","category":"656","category_name":"大门","address":""},{"poiid":"B2094655D268A4F8419D","title":"顺风公寓(北二门)","lon":"121.47517","lat":"31.20632","category":"656","category_name":"大门","address":"丽园路866弄1-5号"}]