[{"poiid":"B2094654DB69A0FA4998","title":"鹿港小镇(新天地店)","lon":"121.47697","lat":"31.22197","category":"91","category_name":"台湾菜","address":"卢湾区太仓路68号(近嵩山路)"},{"poiid":"B2094654DB6BA4FA4899","title":"好乐迪量贩KTV","lon":"121.47646","lat":"31.22161","category":"170","category_name":"KTV","address":"顺昌路2"},{"poiid":"B2094655D26AA0F84799","title":"上海中医药大学附属曙光医院","lon":"121.47867","lat":"31.22293","category":"162","category_name":"医院","address":"卢湾区普安路185号(近淮海公园)"},{"poiid":"B2094753D76FAAFA449C","title":"上海滩国泰旗舰店","lon":"121.466011","lat":"31.216125","category":"249","category_name":"购物服务","address":"淮海中路868号"},{"poiid":"B209475CD564A7F84292","title":"上海滩新天地店","lon":"121.47463","lat":"31.22164","category":"119","category_name":"商场","address":"\"太仓路181弄新天地北里15号\r\n\""},{"poiid":"B209475CD564A7F8439E","title":"上海滩中信泰富店","lon":"121.45602","lat":"31.22851","category":"119","category_name":"商场","address":"\"南京西路1168号中信泰富广场，店铺号221.\r\n\""},{"poiid":"B209475CD564A7F84392","title":"上海滩浦东香格里拉店","lon":"121.50058","lat":"31.23634","category":"119","category_name":"商场","address":"浦东富成路33号香格里拉酒店内大堂层"},{"poiid":"B2094654DB6BA4FB4499","title":"兰亭餐厅","lon":"121.47562077847","lat":"31.222343552913","category":"76","category_name":"上海菜","address":"卢湾区嵩山路107号(近太仓路)"},{"poiid":"B2094757D06FA3F84399","title":"枣子树(淮海店)","lon":"121.47648","lat":"31.22225","category":"89","category_name":"中式素餐馆","address":"卢湾区嵩山路77号上海皇宫内(近淮海中路)"},{"poiid":"B2094750D26EABF8459A","title":"上海虹桥机场","lon":"121.48","lat":"31.22","category":"21","category_name":"飞机场","address":"上海长宁区虹桥路2550号"},{"poiid":"B2094757D06FAAF4469C","title":"上海安达仕酒店","lon":"121.475939667","lat":"31.2220295725","category":"217","category_name":"旅馆招待所","address":"卢湾区嵩山路88号(近香港广场)"},{"poiid":"B2094654DA6EABF5459F","title":"企业天地","lon":"121.47592","lat":"31.22109","category":"46","category_name":"楼宇","address":"上海市平凉路1398号"},{"poiid":"B2094757D064A1FD449A","title":"地铁8号线大世界站","lon":"121.478748638","lat":"31.2230810477","category":"36","category_name":"地铁站","address":"上海大世界站"},{"poiid":"B2094757D06FA5FF499D","title":"新天地太平桥人工湖","lon":"121.479294","lat":"31.222233","category":"196","category_name":"公园","address":"上海济南路"},{"poiid":"B2094757D16AA5F94593","title":"好乐迪","lon":"121.47968292","lat":"31.220613479","category":"500","category_name":"未知分类","address":"上海卢湾区顺昌路2号"},{"poiid":"B2094757D06FA2FE429B","title":"企业天地1号楼","lon":"121.476076722","lat":"31.2208862618","category":"46","category_name":"楼宇","address":"上海市卢湾区湖滨路222号"},{"poiid":"B2094757D06FA2F44599","title":"蝶园(太仓路店)","lon":"121.47718","lat":"31.22167","category":"76","category_name":"上海菜","address":"卢湾区太仓路70号(近嵩山路)"},{"poiid":"B2094757D66CA4FB499C","title":"好樂迪","lon":"121.477838738","lat":"31.2232501514","category":"500","category_name":"未知分类","address":"上海市黄浦区黄陂南路"},{"poiid":"B2094757D06FA2FA4292","title":"普华永道中心","lon":"121.47667706","lat":"31.2208910235","category":"46","category_name":"楼宇","address":"上海卢湾区湖滨路202号"},{"poiid":"B2094753D768A7FE489D","title":"甜品工房","lon":"121.477027","lat":"31.22192","category":"247","category_name":"餐饮美食","address":"上海市 济南路9号103商铺(近太仓路)"},{"poiid":"B2094654DB6BA4FB4493","title":"天家 太仓路店","lon":"121.47643526081","lat":"31.221847695273","category":"95","category_name":"日本料理","address":"卢湾区太仓路68号(近嵩山路)"},{"poiid":"B2094757D06FA1F84593","title":"Enoterra红酒吧(太仓路店)","lon":"121.477109909","lat":"31.2219337278","category":"260","category_name":"其他","address":"卢湾区太仓路58号(近济南路)"},{"poiid":"B2094757D06FA1F8489D","title":"淮海公园","lon":"121.47755186","lat":"31.222709558","category":"196","category_name":"公园","address":"卢湾区淮海中路177号(近普安路)"},{"poiid":"B2094655D26EA5FE469C","title":"y+瑜伽馆(新天地店)","lon":"121.47625","lat":"31.22076","category":"148","category_name":"美容美发店","address":"黄浦区湖滨路202号企业天地2号2楼(新天地会所)"},{"poiid":"B2094654DA6EAAFC429C","title":"曙光大厦","lon":"121.47886","lat":"31.22255","category":"46","category_name":"楼宇","address":"静安区西康路946号"},{"poiid":"B2094751D469A0FC4093","title":"浦东机场T2","lon":"121.475928","lat":"31.221897","category":"500","category_name":"未知分类","address":null},{"poiid":"B2094757D66BA3F94698","title":"伊莎贝尔 Trattoria Isabelle","lon":"121.479601054","lat":"31.221654793","category":"98","category_name":"意式菜品餐厅","address":"卢湾区吉安路11号(湖滨路崇德路间)"},{"poiid":"B2094753D46AA1FD459D","title":"环球港","lon":"121.480438","lat":"31.22241","category":"500","category_name":"未知分类","address":"上海市 中山北路"},{"poiid":"B2094654DA6EAAFC469E","title":"上海时光整形外科医院","lon":"121.47886","lat":"31.22255","category":"162","category_name":"医院","address":"卢湾区普安路189号曙光大厦2楼(近淮海公园)"},{"poiid":"B2094757D06FA4F44093","title":"富民面馆","lon":"121.47687790213","lat":"31.221657822044","category":"68","category_name":"快餐厅","address":"卢湾区太仓路78号(顺昌路口)"},{"poiid":"B2094757D568A4FA4692","title":"Green Massage新天地店","lon":"121.4773631","lat":"31.22202611","category":"149","category_name":"洗浴推拿场所","address":"太仓路58号"},{"poiid":"B2094757D06BA7F54899","title":"瑞尔齿科(新天地店)","lon":"121.47636","lat":"31.2209","category":"162","category_name":"医院","address":"上海卢湾区湖滨路202号企业天地商业中心2号2楼(近济南路)  "},{"poiid":"B2094654DA6EABFB499B","title":"上海市比乐中学","lon":"121.47971","lat":"31.22154","category":"55","category_name":"中学","address":"卢湾区崇德路43号(近顺昌路)"},{"poiid":"B2094753D76CA2F44598","title":"上海朗庭酒店","lon":"121.479156","lat":"31.22248","category":"500","category_name":"未知分类","address":"上海市 卢湾区马当路"},{"poiid":"B2094654DB65A7F5499E","title":"Y+瑜伽生活馆(新天地店)","lon":"121.4761","lat":"31.22175","category":"220","category_name":"运动场所","address":"卢湾区湖滨路202号企业天地2号楼2楼单元17-20室(近济南路)"},{"poiid":"B2094654DA6EABF5449A","title":"太平桥公园","lon":"121.47679","lat":"31.2197","category":"196","category_name":"公园","address":"淮海中路"},{"poiid":"B2094750D76DAAF94599","title":"Éclair","lon":"121.476","lat":"31.2228","category":"67","category_name":"甜品店","address":"卢湾区嵩山路88号上海安达仕酒店1楼"},{"poiid":"B2094757D66DA0FC409C","title":"舒适堡","lon":"121.476330738","lat":"31.2202470874","category":"500","category_name":"未知分类","address":"卢湾区淮海中路1号(近西藏南路)"},{"poiid":"B2094751D36BA5FF469F","title":"上海南站","lon":"121.48","lat":"31.22","category":"195","category_name":"游乐场","address":"上海徐家汇"},{"poiid":"B2094753DA6AA5F9419C","title":"COVA@K11","lon":"121.478927","lat":"31.223541","category":"500","category_name":"未知分类","address":"上海市 淮海中路300号2楼"},{"poiid":"B2094757D065A7FD4198","title":"韩膳宫无限度店","lon":"121.478038738","lat":"31.2240281679","category":"500","category_name":"未知分类","address":"上海市黄浦区延安东路"},{"poiid":"B2094757D06FAAFB479F","title":"振江川菜馆","lon":"121.4756","lat":"31.2225","category":"71","category_name":"四川菜","address":"卢湾区嵩山路81号2楼(近淮海中路)"},{"poiid":"B2094654DA6DABFA469B","title":"复兴广场","lon":"121.477","lat":"31.2237","category":"248","category_name":"生活娱乐","address":"卢湾区重庆南路208号(近南昌路)"},{"poiid":"B2094757D064ABF5459C","title":"Whittard of Chelsea","lon":"121.47663773","lat":"31.223583158","category":"260","category_name":"其他","address":"卢湾区淮海中路222号力宝广场B1楼101店铺(近嵩山路)"},{"poiid":"B2094753DA6AA3F44599","title":"甜品工房","lon":"121.477249","lat":"31.221738","category":"247","category_name":"餐饮美食","address":"上海市 新天地济南路近太仓路"},{"poiid":"B2094757D16FA1FB469F","title":"太平湖绿地","lon":"121.47711773","lat":"31.219893079","category":"500","category_name":"未知分类","address":"上海ShanghaiLuwanHubin Rd"},{"poiid":"B2094654DB69AAF54893","title":"福客桂林米粉","lon":"121.47751","lat":"31.22371","category":"68","category_name":"快餐厅","address":"卢湾区淮海中路177号淮海公园门口(近普安路)"},{"poiid":"B2094753D768A1F4419C","title":"上海外滩","lon":"121.480438","lat":"31.222406","category":"500","category_name":"未知分类","address":"上海市 外滩"},{"poiid":"B2094753DA68A3FC469F","title":"甜品工坊","lon":"121.477355","lat":"31.221826","category":"500","category_name":"未知分类","address":"上海市 太仓路"},{"poiid":"B2094757D06BA6FD4992","title":"上海中医药大学附属曙光医院名中医诊疗中心","lon":"121.478672","lat":"31.222935","category":"162","category_name":"医院","address":"上海市卢湾区普安路185号(近淮海公园)"},{"poiid":"B2094655D26BA3FE4392","title":"立欧桌球概念馆","lon":"121.47886","lat":"31.22255","category":"171","category_name":"台球厅","address":"卢湾区普安路189号曙光大厦10楼(近淮海公园)"},{"poiid":"B2094757DB69A7FA4993","title":"李向阳葱油饼","lon":"121.47865","lat":"31.22204","category":"68","category_name":"快餐厅","address":"卢湾区普安路185号(近上海中医大学附属曙光医院)"},{"poiid":"B209475DD76EA1F84799","title":"Blue Car Coffee","lon":"121.480636","lat":"31.222131","category":"247","category_name":"餐饮美食","address":"上海市 淮海中路193-8号"},{"poiid":"B2094757DB6EA6FE479A","title":"上海Casa Serena巴越风酒店","lon":"121.4771524","lat":"31.2219883","category":"213","category_name":"五星级宾馆","address":"上海市卢湾区太仓路68号(近顺昌路)"},{"poiid":"B2094654DB6AA7FB4199","title":"新元素(Y+瑜伽中心店)","lon":"121.47664","lat":"31.22081","category":"247","category_name":"餐饮美食","address":"卢湾区湖滨路202号企业天地商业中心2号楼2楼17号店铺(近黄陂南路)"},{"poiid":"B2094757D064A1F4499D","title":"淮海中路派出所","lon":"121.47819177","lat":"31.223276034","category":"609","category_name":"警察局","address":"上海黄浦区普安路177号"},{"poiid":"B2094757D16CA5F8479E","title":"势崛私属造型(无限度店)","lon":"121.479872905","lat":"31.2223626324","category":"148","category_name":"美容美发店","address":"卢湾区淮海中路138号无限度广场5楼516室(时代广场对面)"},{"poiid":"B2094654DA6EAAFE4192","title":"崇尚麻辣烫","lon":"121.47941","lat":"31.22203","category":"68","category_name":"快餐厅","address":"卢湾区崇德路46号(近柳林路)"},{"poiid":"B2094654DA6EAAFB479B","title":"顺太饮食店","lon":"121.47675","lat":"31.2219","category":"76","category_name":"上海菜","address":"卢湾区顺昌路(近太仓路)"},{"poiid":"B2094655D264A7F54392","title":"相思苑餐厅","lon":"121.480455054","lat":"31.222468793","category":"76","category_name":"上海菜","address":"卢湾区崇德路24号(近太仓路)"},{"poiid":"B2094757D16EA5FB4192","title":"821p1桌球俱乐部旗舰馆","lon":"121.47633728","lat":"31.221589116","category":"500","category_name":"未知分类","address":"上海淮海路一号柳林路口柳林大厦"},{"poiid":"B2094757D06BA3FE459C","title":"时光整形医院","lon":"121.47886","lat":"31.22229","category":"162","category_name":"医院","address":"上海卢湾区普安路189号曙光大厦6楼(近淮海公园)  "},{"poiid":"B2094654DA6EAAFE499E","title":"淮海晶华","lon":"121.47902","lat":"31.22359","category":"47","category_name":"住宅区","address":"桃源路111弄1-8号"},{"poiid":"B2094753D768A3FA4592","title":"浦东新区","lon":"121.480422","lat":"31.222393","category":"500","category_name":"未知分类","address":"上海市 陆家嘴"},{"poiid":"B2094757D069A3F84399","title":"八千西安牛肉香酥饼","lon":"121.47584","lat":"31.22234","category":"68","category_name":"快餐厅","address":"卢湾区嵩山路71弄1号上海皇宫附近(近淮海中路)"},{"poiid":"B2094655D26AA5FF4592","title":"旺比双皮灌汤包 嵩山路店","lon":"121.475918054","lat":"31.222884793","category":"68","category_name":"快餐厅","address":"卢湾区嵩山路77号(近淮海中路)"},{"poiid":"B2094757D06BA6FC4992","title":"胡记锅贴(原嵩山路)","lon":"121.47905673","lat":"31.222453134","category":"247","category_name":"餐饮美食","address":"上海市普安路207号"},{"poiid":"B2094750DA6CA2FE4893","title":"新元素，永银大厦","lon":"121.47882","lat":"31.221979","category":"500","category_name":"未知分类","address":null},{"poiid":"B2094753D564A7FD419E","title":"花籠味","lon":"121.477539","lat":"31.22186","category":"247","category_name":"餐饮美食","address":"上海市 上海市济南路9号2楼"},{"poiid":"B2094757D16AA2FF449B","title":"曙光医院骨伤科","lon":"121.478867","lat":"31.222555","category":"162","category_name":"医院","address":"上海普安路185号"},{"poiid":"B2094752DB6FAAFA479A","title":"CinCin","lon":"121.47770226","lat":"31.22154102","category":"247","category_name":"餐饮美食","address":"上海市黄浦区济南路9号106单元"},{"poiid":"B2094654DA6EAAFE4399","title":"曙光医院(2号门)","lon":"121.48008","lat":"31.2224","category":"162","category_name":"医院","address":"崇德路2号"},{"poiid":"B2094654DA6EABF5449D","title":"法国标志旗舰展厅","lon":"121.47608","lat":"31.22084","category":"183","category_name":"展览馆","address":""},{"poiid":"B2094654DA6EABF5499A","title":"Jamaicablue Coffee Shop","lon":"121.47592","lat":"31.22109","category":"65","category_name":"咖啡厅","address":"湖滨路222号企业天地1层3号"},{"poiid":"B2094752D669ABF5459F","title":"上海中山公园","lon":"121.479294","lat":"31.222233","category":"247","category_name":"餐饮美食","address":null},{"poiid":"B2094655D26EA0FC409B","title":"玛萨拉印度餐厅 Masala Indian Restaurant","lon":"121.4780145071","lat":"31.221890941635","category":"102","category_name":"印度风味","address":"济南路8号盛捷高级服务公寓西苑1楼近太仓路崇德路间"},{"poiid":"B2094757D06FA7F9499E","title":"优衣库(淮海店)","lon":"121.477207738","lat":"31.2208073993","category":"141","category_name":"服装鞋帽皮具店","address":"淮海中路300号香港新世界大厦购物广场1层、G层"},{"poiid":"B2094654DB6BA4FB4392","title":"沸腾鱼乡 嵩山路","lon":"121.475918054","lat":"31.222884793","category":"71","category_name":"四川菜","address":"嵩山路77号上海皇宫内近淮海中路"},{"poiid":"B2094753DB6AA5FA439D","title":"上海影城","lon":"121.48043","lat":"31.222402","category":"178","category_name":"电影院","address":"上海市 上海市长宁区新华路"},{"poiid":"B2094757D66DA5FB4099","title":"美国礼来","lon":"121.475975438","lat":"31.2208551003","category":"46","category_name":"楼宇","address":"上海企业天地1号楼21F"},{"poiid":"B2094654DA6EAAFB429E","title":"上海皇宫商务楼","lon":"121.47622","lat":"31.22306","category":"46","category_name":"楼宇","address":"嵩山路77-83号"},{"poiid":"B2094654DA6EAAFE4398","title":"曙光医院发热门诊","lon":"121.4802","lat":"31.22248","category":"162","category_name":"医院","address":"淮海中路"},{"poiid":"B2094757D06AA5FC4393","title":"专剪坊-光头理发店","lon":"121.48009491","lat":"31.2201137543","category":"148","category_name":"美容美发店","address":"上海嵩山路115号"},{"poiid":"B2094757D165A1FE479B","title":"索尼(中国)有限公司","lon":"121.475997038","lat":"31.2210862052","category":"249","category_name":"购物服务","address":"上海湖滨路222号企业天地7楼-8楼"},{"poiid":"B2094654DA6EAAFE4792","title":"十方大厦名都商务楼","lon":"121.47843","lat":"31.22323","category":"46","category_name":"楼宇","address":"普安路177号"},{"poiid":"B2094654DB6BA4FB4799","title":"万宜坊","lon":"121.477","lat":"31.2203","category":"47","category_name":"住宅区","address":"重庆南路205弄1-116号"},{"poiid":"B2094751DA68A5F9419C","title":"京都春隆","lon":"121.477534","lat":"31.221386","category":"247","category_name":"餐饮美食","address":"卢湾区济南路9号2楼(近崇德路)"},{"poiid":"B209475DD565A0FF4298","title":"Pantry's Best","lon":"121.47924","lat":"31.223438","category":"247","category_name":"餐饮美食","address":"上海市 黄陂南路K11购物商场地库2楼"},{"poiid":"B2094654DB65A4FE439B","title":"曙光医院名医诊疗中心","lon":"121.47886","lat":"31.22255","category":"162","category_name":"医院","address":"普安路185-189号曙光大厦1层"},{"poiid":"B2094655D26EA2F94192","title":"茶语轩","lon":"121.47592","lat":"31.22109","category":"66","category_name":"茶艺馆","address":"卢湾区湖滨路222号"},{"poiid":"B2094757D064A2FA429E","title":"淮海晶华苑","lon":"121.47890031","lat":"31.22360309","category":"500","category_name":"未知分类","address":"上海市卢湾区桃园路111号"},{"poiid":"B2094654DA6EABFB4993","title":"丁祥里","lon":"121.48024","lat":"31.22097","category":"47","category_name":"住宅区","address":"浏河口路57弄1-33号"},{"poiid":"B2094753D569A6FB409C","title":"K11","lon":"121.479316","lat":"31.223346","category":"500","category_name":"未知分类","address":"上海市 淮海中路300号"},{"poiid":"B2094654DA6EAAFB439F","title":"上海杰美商务中心","lon":"121.47601","lat":"31.22278","category":"46","category_name":"楼宇","address":"嵩山路77-83号"},{"poiid":"B2094654DB6BA4FA499B","title":"好再来河南牛肉拉面","lon":"121.48007","lat":"31.22043","category":"257","category_name":"中餐厅","address":"卢湾区吉安路35号(人工湖对面)"},{"poiid":"B2094654DA6EAAFE4392","title":"百帮骏元餐饮服务社","lon":"121.47888","lat":"31.22177","category":"257","category_name":"中餐厅","address":"卢湾区崇德路78号(普安路口)"},{"poiid":"B2094654DA6EAAFC419D","title":"经纬公寓","lon":"121.47652","lat":"31.22146","category":"47","category_name":"住宅区","address":"上海顺昌路10号"},{"poiid":"B2094753D564A3FE4398","title":"上海财经大学","lon":"121.480422","lat":"31.222396","category":"500","category_name":"未知分类","address":"上海市 国定路777号"},{"poiid":"B2094654DA6EAAFD499A","title":"光明便利No.191","lon":"121.47908","lat":"31.21953","category":"117","category_name":"便民商店/便利店","address":"自忠路133-135"},{"poiid":"B2094654DA6EAAFE449B","title":"良友金伴便利No.386","lon":"121.47887","lat":"31.22161","category":"117","category_name":"便民商店/便利店","address":"崇德路83-85"},{"poiid":"B2094654DB65A1FC449F","title":"石氏伤科","lon":"121.47871","lat":"31.22264","category":"162","category_name":"医院","address":"四川中路109号"},{"poiid":"B2094654DA6EAAFB449B","title":"克丽缇娜No.158","lon":"121.47633","lat":"31.22289","category":"148","category_name":"美容美发店","address":"嵩山路79"},{"poiid":"B2094757D16FA3FE4899","title":"曙光医院四楼针灸科","lon":"121.477787238","lat":"31.2217250189","category":"162","category_name":"医院","address":"上海普安路"},{"poiid":"B2094654DA6EAAFE469B","title":"上海中医药大学附属曙光医院中医疑难杂症会诊部","lon":"121.47873","lat":"31.2225","category":"162","category_name":"医院","address":"普安路185-189号曙光大厦"},{"poiid":"B2094654DB6BA4FA4998","title":"锦绣坊(崇德路)","lon":"121.47947","lat":"31.22208","category":"47","category_name":"住宅区","address":"崇德路40弄1-23号"},{"poiid":"B2094654DA6EABF5459D","title":"雷杰思会议中心","lon":"121.47592","lat":"31.22109","category":"185","category_name":"会展中心","address":"湖滨路222号企业天地15层"},{"poiid":"B2094654DB6BA4FB439D","title":"上海皇宫","lon":"121.47681","lat":"31.22309","category":"173","category_name":"游戏厅","address":"嵩山路77号"},{"poiid":"B2094753D769A0FA499F","title":"宝山万达","lon":"121.480422","lat":"31.222398","category":"500","category_name":"未知分类","address":"上海市 128纪念路"},{"poiid":"B2094757D16BA5FB479A","title":"peach john 蜜桃派","lon":"121.47901863","lat":"31.220890426","category":"247","category_name":"餐饮美食","address":"上海新天地"},{"poiid":"B2094757D16DA1F8489B","title":"B'S屋企","lon":"121.47775773","lat":"31.223108148","category":"247","category_name":"餐饮美食","address":"上海航華一村二街坊"},{"poiid":"B2094757D16AA7FC459E","title":"曙光大酒店(曙光医院食堂)","lon":"121.478548738","lat":"31.2232211507","category":"500","category_name":"未知分类","address":"卢湾区普安路189号曙光医院住院部"},{"poiid":"B2094757D66DABFD429A","title":"温野菜","lon":"121.479470546","lat":"31.2204507663","category":"247","category_name":"餐饮美食","address":"上海淮海中路283号香港广场负一楼"},{"poiid":"B2094757D168A4F54899","title":"老宅里农家菜","lon":"121.479805","lat":"31.219811","category":"247","category_name":"餐饮美食","address":"上海西门路"},{"poiid":"B2094757D065A2FC439B","title":"莹七","lon":"121.47806575","lat":"31.221460243","category":"247","category_name":"餐饮美食","address":"上海富民路"},{"poiid":"B2094654DB65A0FC459B","title":"金鑫之星","lon":"121.47652","lat":"31.22324","category":"170","category_name":"KTV","address":""},{"poiid":"B2094654DB64A4FC4993","title":"上海盛捷高级服务公寓东苑","lon":"121.47836","lat":"31.22183","category":"47","category_name":"住宅区","address":"济南路8"},{"poiid":"B2094654DA6EAAFE439B","title":"华宝坊","lon":"121.47976","lat":"31.2226","category":"47","category_name":"住宅区","address":"崇德路2弄1-15号"},{"poiid":"B209475CD46AA1F54699","title":"CIN CIN","lon":"121.47721","lat":"31.221384","category":"500","category_name":"未知分类","address":"上海市 济南路崇德路"},{"poiid":"B2094654DA6EAAFB449E","title":"梦邨","lon":"121.47605","lat":"31.22232","category":"47","category_name":"住宅区","address":"嵩山路101弄1-9号"},{"poiid":"B2094655D264A2F9469B","title":"卡拉·济南路八号","lon":"121.47771","lat":"31.22172","category":"47","category_name":"住宅区","address":""},{"poiid":"B2094654DB65A2F8419E","title":"上海盛捷高级服务公寓西苑","lon":"121.4777","lat":"31.22173","category":"47","category_name":"住宅区","address":""},{"poiid":"B2094753D664A3FC449D","title":"上海博物馆","lon":"121.479515","lat":"31.223613","category":"500","category_name":"未知分类","address":"上海市 上海市黄浦区"},{"poiid":"B2094757D065ABF9479A","title":"柳林电信局","lon":"121.48031616","lat":"31.223016738","category":"500","category_name":"未知分类","address":"上海市卢湾区柳林路158号"},{"poiid":"B2094757D66DA0FF4592","title":"Y Plus yoga","lon":"121.476742738","lat":"31.2211441065","category":"500","category_name":"未知分类","address":"上海2F，222Hubin road"},{"poiid":"B2094757D169A0FF419F","title":"罗森(嵩山路店)","lon":"121.47605","lat":"31.22179","category":"117","category_name":"便民商店/便利店","address":"上海卢湾区嵩山路81号  "},{"poiid":"B2094655D268ABFD439F","title":"华宝坊(南门)","lon":"121.48002","lat":"31.22237","category":"47","category_name":"住宅区","address":"崇德路2弄1-15号"},{"poiid":"B2094757D569A0FF439F","title":"上海Lapis Casa酒店","lon":"121.47698188","lat":"31.22195719","category":"214","category_name":"四星级宾馆","address":"太仓路68号"},{"poiid":"B2094753D56DA3FC489F","title":"上海音乐学院","lon":"121.480415","lat":"31.222398","category":"500","category_name":"未知分类","address":"上海市 汾阳路20号"},{"poiid":"B2094654DA6EAAFB469F","title":"双娇发型时尚先锋","lon":"121.47647","lat":"31.22192","category":"148","category_name":"美容美发店","address":"卢湾区顺昌路(近嵩山路)"},{"poiid":"B2094654DA6EAAFB459B","title":"专剪坊红王","lon":"121.47618","lat":"31.22197","category":"148","category_name":"美容美发店","address":"卢湾区嵩山路115号(太仓路口)"},{"poiid":"B2094655D26AABF5409D","title":"美丽田园新天地店","lon":"121.47592","lat":"31.22109","category":"148","category_name":"美容美发店","address":"卢湾区湖滨路222号企业天地1号楼2楼79号商铺近济南路;;"},{"poiid":"B2094654DA6EAAFC469A","title":"上海市食品药品监督所","lon":"121.47886","lat":"31.22255","category":"250","category_name":"公园户外","address":"普安路187-189号曙光大厦10层"},{"poiid":"B209475DD064A5FF4899","title":"Le Rhone","lon":"121.479583","lat":"31.222099","category":"500","category_name":"未知分类","address":"上海市 上海市"},{"poiid":"B209475CD16EAAFB429D","title":"上海师范大学奉贤校区","lon":"121.480438","lat":"31.222406","category":"500","category_name":"未知分类","address":"上海市 奉炮路"},{"poiid":"B2094655D26EA4FF499F","title":"青专业按摩(太仓路店)","lon":"121.47746","lat":"31.22205","category":"149","category_name":"洗浴推拿场所","address":"卢湾区太仓路58号"},{"poiid":"B2094757DB64A3FA4493","title":"Y 瑜伽生活馆（企业天地店）","lon":"121.477","lat":"31.221","category":"220","category_name":"运动场所","address":"上海卢湾区湖滨路220号 企业天地二层"},{"poiid":"B2094654DA6EAAFB479E","title":"九久假日酒店","lon":"121.47682","lat":"31.22207","category":"250","category_name":"公园户外","address":"卢湾区太仓路70号2楼(近嵩山路)"},{"poiid":"B2094751D26CA1F5449C","title":"長乐路","lon":"121.477401","lat":"31.219442","category":"500","category_name":"未知分类","address":"陕西南路"},{"poiid":"B2094750D268A5F94099","title":"青籁养身GreenMassage","lon":"121.47864558274","lat":"31.22283894909","category":"149","category_name":"洗浴推拿场所","address":"普安路189号曙光大厦24层C,D"},{"poiid":"B209475CD46FA6F54192","title":"yplus yoga center","lon":"121.476119","lat":"31.220449","category":"500","category_name":"未知分类","address":"上海市 卢湾区湖滨路202号企业天地"},{"poiid":"B2094655D26AA0FF4198","title":"兴穆手工","lon":"121.47658","lat":"31.22092","category":"141","category_name":"服装鞋帽皮具店","address":"田子坊泰康路258号"},{"poiid":"B209475CD26BA4F5489B","title":"上海人民公园","lon":"121.48043","lat":"31.222412","category":"500","category_name":"未知分类","address":"上海市 人民大道10000号"},{"poiid":"B2094752DB68ABFE469A","title":"翠湖天地御苑会所","lon":"121.47612689017978","lat":"31.22133955836619","category":"248","category_name":"生活娱乐","address":"黄浦区顺昌路168弄新天地内"},{"poiid":"B2094753D569A2F94992","title":"比萨马上诺","lon":"121.479316","lat":"31.223468","category":"500","category_name":"未知分类","address":"上海市 淮海中路300号K11购物艺术中心403号铺(近黄陂南路)"},{"poiid":"B2094753D76AAAFA499F","title":"佘山","lon":"121.480438","lat":"31.222412","category":"500","category_name":"未知分类","address":"上海市 佘山"},{"poiid":"B2094757D16FA0F84693","title":"恐龙谷温泉","lon":"121.476155238","lat":"31.2210809051","category":"500","category_name":"未知分类","address":"常州中华恐龙园旁"},{"poiid":"B209475CD66AAAF5459B","title":"上海","lon":"121.480438","lat":"31.222414","category":"500","category_name":"未知分类","address":"上海市 浦东新区"},{"poiid":"B209475CD265A3FF449F","title":"松江大学城","lon":"121.480415","lat":"31.222398","category":"500","category_name":"未知分类","address":"上海市 松江大学城"},{"poiid":"B2094654DA6EAAFB4793","title":"青·专业按摩新天地店","lon":"121.47736","lat":"31.22202","category":"149","category_name":"洗浴推拿场所","address":"太仓路58"},{"poiid":"B209475CD26DA5FB4998","title":"上海奉贤","lon":"121.48043","lat":"31.222408","category":"500","category_name":"未知分类","address":"上海市 上海市奉贤区金钱公路3469晨光文具"},{"poiid":"B2094757D465A0FB479C","title":"伊诺田龙 太仓路店 Enoteca","lon":"121.476218054","lat":"31.221897793","category":"172","category_name":"酒吧","address":"太仓路58号近济南路"},{"poiid":"B2094757D16AABFA4998","title":"诺基亚客户服务中心","lon":"121.478265638","lat":"31.2236286094","category":"138","category_name":"家电电子卖场","address":"卢湾区淮海中路99号大上海时代广场B1楼"},{"poiid":"B2094751D264A1F44599","title":"老西门古玩茶城","lon":"121.479472","lat":"31.221344","category":"248","category_name":"生活娱乐","address":"复兴东路1121号（近西藏南路）"},{"poiid":"B209475CD76CA5FB439C","title":"上海大舞台","lon":"121.480438","lat":"31.222412","category":"500","category_name":"未知分类","address":"上海市 上海"},{"poiid":"B2094757D16EA7F54892","title":"烏鎮路橋","lon":"121.477404738","lat":"31.2224571345","category":"500","category_name":"未知分类","address":"上海烏鎮路新閘路"},{"poiid":"B209475CD769ABFD479D","title":"上海博物馆","lon":"121.479316","lat":"31.223701","category":"500","category_name":"未知分类","address":"上海市 人民广场"},{"poiid":"B2094753D56EA3FE429F","title":"上海陆家嘴","lon":"121.48043","lat":"31.22241","category":"500","category_name":"未知分类","address":"上海市 汇豪天下"},{"poiid":"B2094757D16BABF54598","title":"俏江南South Beauty","lon":"121.47861426","lat":"31.22416666","category":"500","category_name":"未知分类","address":"上海淮海路時代廣場5F"},{"poiid":"B2094757D66EA1F94292","title":"龙门路邮政局","lon":"121.479449738","lat":"31.2233921544","category":"500","category_name":"未知分类","address":"上海柳林路156号"},{"poiid":"B2094753D76CA2F44592","title":"上海市新天地郎廷酒店","lon":"121.479148","lat":"31.222476","category":"500","category_name":"未知分类","address":"上海市 卢湾区马当路"},{"poiid":"B2094757DA69A3F44698","title":"歌诗达邮轮","lon":"121.47661783258","lat":"31.220618610093","category":"219","category_name":"其他","address":"湖滨路222号企业天地1号楼"},{"poiid":"B209475CD768A1F54798","title":"k11艺术中心","lon":"121.479301","lat":"31.223468","category":"500","category_name":"未知分类","address":"上海市 上海"},{"poiid":"B2094757D16CA0F84298","title":"南申专线","lon":"121.479157038","lat":"31.2225960374","category":"500","category_name":"未知分类","address":"上海淮海中路柳林路至南桥汽车站"},{"poiid":"B209475CD769A0F8429D","title":"K11 阿吾罗日本料理","lon":"121.479309","lat":"31.223472","category":"500","category_name":"未知分类","address":"上海市 淮海路300号K11艺术购物中心407号铺"},{"poiid":"B2094757D16CAAF8489A","title":"巴卡拉酒店公寓","lon":"121.47815173","lat":"31.222003124","category":"217","category_name":"旅馆招待所","address":"上海卢湾区济南路8号"},{"poiid":"B2094752DA6CABFC4593","title":"青籁养身GreenMassage","lon":"121.47840140377","lat":"31.219403615179","category":"248","category_name":"生活娱乐","address":"太仓路58号"},{"poiid":"B2094753D665A7F94698","title":"上海杉达学院","lon":"121.48043","lat":"31.222406","category":"253","category_name":"校园生活","address":"上海市 金海路2727号"},{"poiid":"B2094757D16BA7F5429A","title":"崇德六八","lon":"121.47769573","lat":"31.221222108","category":"500","category_name":"未知分类","address":"上海市卢湾区崇德路68号"},{"poiid":"B209475CD76BA5F5489A","title":"徐汇区","lon":"121.480438","lat":"31.222415","category":"500","category_name":"未知分类","address":"上海市 梅陇路130号"},{"poiid":"B2094654DA6EAAFB479D","title":"oasis","lon":"121.47732","lat":"31.22205","category":"263","category_name":"公司","address":""},{"poiid":"B2094654DB6BA4FA489F","title":"中国建设银行上海市分行(普安路)","lon":"121.47885","lat":"31.22255","category":"150","category_name":"银行","address":"普安路187-189号曙光大厦17层"},{"poiid":"B2094654DA6EABF5479B","title":"华特迪士尼(上海)有限公司","lon":"121.47592","lat":"31.22109","category":"263","category_name":"公司","address":"湖滨路222号企业天地5层508-521、6层601-604、612-621"},{"poiid":"B2094757D164A1F84392","title":"Yamazaki 山崎麵包","lon":"121.47837066","lat":"31.22091484","category":"500","category_name":"未知分类","address":"上海淮太B2"},{"poiid":"B2094654DA6EAAFE4899","title":"上海朱家角经济城","lon":"121.47843","lat":"31.22324","category":"263","category_name":"公司","address":"普安路177号十方大厦名都商务楼4层417"},{"poiid":"B2094757D16AA2F8439C","title":"普安路十方大厦","lon":"121.478249","lat":"31.223149","category":"500","category_name":"未知分类","address":"上海普安路177号"},{"poiid":"B2094654DA6EAAFD4893","title":"日月眼镜(自忠路)","lon":"121.47901","lat":"31.21951","category":"132","category_name":"眼镜店","address":"自忠路137"},{"poiid":"B2094757D068A3FF459A","title":"动感101","lon":"121.47782135","lat":"31.222139358","category":"500","category_name":"未知分类","address":"上海FM101.7"},{"poiid":"B2094757D66DA4F94599","title":"巴越风酒店","lon":"121.477059","lat":"31.221957","category":"217","category_name":"旅馆招待所","address":"上海太仓路68号"},{"poiid":"B2094757D164ABFA4293","title":"中国婚博会","lon":"121.47647838","lat":"31.221510664","category":"263","category_name":"公司","address":"上海光大会展中心"},{"poiid":"B2094654DA6EAAFC4099","title":"安利(中国)日用品有限公司上海分公司","lon":"121.47592","lat":"31.22109","category":"263","category_name":"公司","address":"湖滨路222号企业天地18层"},{"poiid":"B2094757D16FA6F8459A","title":"104路龙华终点站","lon":"121.477632938","lat":"31.2229864457","category":"500","category_name":"未知分类","address":"上海龙华西路251号"},{"poiid":"B2094757D16EA3FB4793","title":"人保财险卢湾支公司","lon":"121.47841823","lat":"31.223182399","category":"500","category_name":"未知分类","address":"上海普安路177号5～6楼"},{"poiid":"B2094757D568A5FA419E","title":"DD147台球用品","lon":"121.4776744","lat":"31.22129694","category":"255","category_name":"专卖店","address":"卢湾区崇德路147号(顺昌路太仓路间)"},{"poiid":"B2094757D66CA7FA449E","title":"上海健康科学研究所","lon":"121.47749","lat":"31.219488","category":"500","category_name":"未知分类","address":"上海重庆南路225号"},{"poiid":"B2094757D06BA3F9439B","title":"国京路60弄","lon":"121.47906293","lat":"31.221462813","category":"500","category_name":"未知分类","address":"上海国京路60弄"},{"poiid":"B2094655D265ABF5429D","title":"兰博基尼汽车展厅","lon":"121.47608","lat":"31.22083","category":"158","category_name":"汽车销售","address":"湖滨路210"},{"poiid":"B2094757D165A1F8489E","title":"Copeo","lon":"121.476341738","lat":"31.2202900883","category":"260","category_name":"其他","address":"卢湾区黄陂南路373号LaFinca庄源1楼"},{"poiid":"B2094757D068A7FE4792","title":"保乐力加","lon":"121.47633361","lat":"31.220775604","category":"263","category_name":"公司","address":"上海湖滨路222号企业天地一号楼20层2001单元"},{"poiid":"B2094654DA6EABF5469F","title":"索尼(中国)有限公司上海分公司","lon":"121.47592","lat":"31.22109","category":"263","category_name":"公司","address":"湖滨路222号企业天地8层"},{"poiid":"B2094757D66CAAFC489B","title":"日本制品安全协会 中国联络所","lon":"121.480084838","lat":"31.2222635303","category":"252","category_name":"楼宇机构","address":"上海新华路200号"},{"poiid":"B2094654DA6EABF54593","title":"美国GT国际律师事务所上海代表处","lon":"121.47592","lat":"31.22109","category":"252","category_name":"楼宇机构","address":"湖滨路222号企业天地15层"},{"poiid":"B2094654DA6EABF5479D","title":"中国必和必拓","lon":"121.47592","lat":"31.22109","category":"263","category_name":"公司","address":"湖滨路222号企业天地12层"},{"poiid":"B2094757D568A4FE419D","title":"桑迪","lon":"121.4783631","lat":"31.22184111","category":"260","category_name":"其他","address":"卢湾区济南路8号东楼1楼(太仓路崇德路间)"},{"poiid":"B2094654DA6EAAFE479D","title":"中国工商银行上海市普安路支行24小时自助银行","lon":"121.47823","lat":"31.22317","category":"152","category_name":"ATM","address":"普安路177"},{"poiid":"B2094654DA6EAAFB469D","title":"上海永民置业管理有限公司","lon":"121.4766","lat":"31.22192","category":"263","category_name":"公司","address":"太仓路88号"},{"poiid":"B2094654DA6EAAFB4692","title":"机器修鞋配钥匙(太仓路)","lon":"121.47664","lat":"31.22191","category":"248","category_name":"生活娱乐","address":""},{"poiid":"B2094654DA6EAAFC419E","title":"奥地利吉布达·伟士国际货运公司上海代表处","lon":"121.47592","lat":"31.22109","category":"248","category_name":"生活娱乐","address":"湖滨路222号企业天地17层1719"},{"poiid":"B2094757DB64A3FA429D","title":"劳斯莱斯汽车（上海）（企业天地店）","lon":"121.477","lat":"31.221","category":"260","category_name":"其他","address":"卢湾区湖滨路222号企业天地2号楼1楼(近顺昌路)"},{"poiid":"B2094757DB64A3FA419F","title":"上海兰博基尼中心展厅（企业天地店）","lon":"121.477","lat":"31.221","category":"260","category_name":"其他","address":"上海卢湾区湖滨路220号 企业天地一层"},{"poiid":"B2094654DA6EABF5449E","title":"BMW Lifestyle","lon":"121.47673","lat":"31.22061","category":"137","category_name":"宝马生活方式","address":"淮海中路"},{"poiid":"B2094753D064AAFB469E","title":"太平洋咖啡(湖滨路店)","lon":"121.47611","lat":"31.22169","category":"260","category_name":"其他","address":"卢湾区湖滨路202号企业天地2号楼1楼(近黄陂南路)"},{"poiid":"B2094655D265A5F44198","title":"时代豪庭(南门)","lon":"121.47805","lat":"31.22403","category":"656","category_name":"大门","address":"桃源路188临"},{"poiid":"B2094654DB6BA4FA499C","title":"淮海晶华(西门)","lon":"121.47836","lat":"31.22331","category":"656","category_name":"大门","address":""}]