[{"poiid":"B2094655D26AABFD499F","title":"好乐迪量贩式KTV（淮海中路店）","lon":"121.47092","lat":"31.22199","category":"170","category_name":"KTV","address":"卢湾区淮海中路438号4楼近重庆南路;;"},{"poiid":"B2094757D465A4FB409B","title":"顶特勒粥面馆","lon":"121.469218054","lat":"31.221221793","category":"68","category_name":"快餐厅","address":"卢湾区淮海中路494弄22号(近雁荡路)"},{"poiid":"B2094654DA6DABFA499E","title":"味香斋","lon":"121.46993580196","lat":"31.221233069029","category":"68","category_name":"快餐厅","address":"卢湾区雁荡路14号(近淮海中路)"},{"poiid":"B2094753D76FAAFA449C","title":"上海滩国泰旗舰店","lon":"121.466011","lat":"31.216125","category":"249","category_name":"购物服务","address":"淮海中路868号"},{"poiid":"B209475CD564A7F84292","title":"上海滩新天地店","lon":"121.47463","lat":"31.22164","category":"119","category_name":"商场","address":"\"太仓路181弄新天地北里15号\r\n\""},{"poiid":"B209475CD564A7F8439E","title":"上海滩中信泰富店","lon":"121.45602","lat":"31.22851","category":"119","category_name":"商场","address":"\"南京西路1168号中信泰富广场，店铺号221.\r\n\""},{"poiid":"B2094757D06FA2F54392","title":"淮海中路雁荡路","lon":"121.469795542","lat":"31.2212911035","category":"260","category_name":"其他","address":"上海淮海中路雁荡路"},{"poiid":"B2094757D06FA3FC489D","title":"屋企汤馆 淮海店","lon":"121.4708246443","lat":"31.221864028321","category":"72","category_name":"广东菜","address":"卢湾区淮海中路438号2楼(近重庆南路)"},{"poiid":"B2094757D064A5FD489B","title":"典谟新知咖啡馆","lon":"121.470884738","lat":"31.2210811051","category":"260","category_name":"其他","address":"卢湾区兴安路139号(近淮海路雁荡路)"},{"poiid":"B2094751D56FABFF499A","title":"Home Thai（上海K11店）","lon":"121.471195","lat":"31.220142","category":"247","category_name":"餐饮美食","address":"上海市 淮海中路300号上海K11购物艺术中心401"},{"poiid":"B2094753D76CA2F4449C","title":"查厘士","lon":"121.471084","lat":"31.221948","category":"247","category_name":"餐饮美食","address":"上海市 淮海路438号"},{"poiid":"B2094757D064A5FA479F","title":"悦满糖","lon":"121.469785238","lat":"31.2202659878","category":"500","category_name":"未知分类","address":"上海卢湾区雁荡路25号"},{"poiid":"B2094757D06FA5FC429C","title":"韩蒸天下养生馆","lon":"121.46975773","lat":"31.220693096","category":"149","category_name":"洗浴推拿场所","address":"卢湾区雁荡路29号5楼(近淮海中路)"},{"poiid":"B2094750D56EA5F5419C","title":"say cheese 甜品.家","lon":"121.471335","lat":"31.220279","category":"247","category_name":"餐饮美食","address":"卢湾区重庆南路30弄1号(近淮海中路)"},{"poiid":"B2094757D06FA2FE4792","title":"鲜得来排骨年糕(雁荡店)","lon":"121.47033","lat":"31.22059","category":"68","category_name":"快餐厅","address":"卢湾区雁荡路9号(近兴安路)"},{"poiid":"B2094757D06FA3F84099","title":"新贝乐比萨屋 雁荡路店","lon":"121.470030054","lat":"31.220020793","category":"94","category_name":"西餐厅","address":"卢湾区雁荡路33号(近南昌路)"},{"poiid":"B2094751D56FABFF499C","title":"Element Fresh 新元素（上海K11店）","lon":"121.471024","lat":"31.219848","category":"247","category_name":"餐饮美食","address":"上海市 淮海中路300号上海K11购物艺术中心402"},{"poiid":"B2094751D56FABFF4698","title":"Gatten Sushi 合点寿司（上海K11店）","lon":"121.470852","lat":"31.220142","category":"247","category_name":"餐饮美食","address":"上海市 淮海中路300号上海K11购物艺术中心302"},{"poiid":"B2094757D06BA7FB489F","title":"新贝乐意式餐厅(雁荡路店)","lon":"121.46901273","lat":"31.2208641","category":"500","category_name":"未知分类","address":"上海市卢湾区雁荡路33号"},{"poiid":"B2094751D56FABFF469F","title":"g  极食（上海K11店）","lon":"121.471882","lat":"31.220876","category":"247","category_name":"餐饮美食","address":"上海市 淮海中路300号上海K11购物艺术中心303"},{"poiid":"B2094757D168A5FB469D","title":"Initial新天地","lon":"121.47131183","lat":"31.221172036","category":"500","category_name":"未知分类","address":"上海新天地UME 1楼"},{"poiid":"B2094654DB69A5FD409B","title":"好乐迪(淮海中路店)","lon":"121.47101","lat":"31.222","category":"170","category_name":"KTV","address":"卢湾区淮海中路438号4-5楼(近重庆南路)"},{"poiid":"B2094757D06FA2FC489D","title":"禾绿回转寿司(淮海店)","lon":"121.471866738","lat":"31.2220071249","category":"95","category_name":"日本料理","address":"卢湾区淮海中路352号(近马当路)"},{"poiid":"B2094757D068A2F5449F","title":"世纪巴士大厦","lon":"121.47163462","lat":"31.222440357","category":"46","category_name":"楼宇","address":"上海淮海中路398号"},{"poiid":"B2094757D06FAAFD479C","title":"兴和港式茶餐厅","lon":"121.47004699","lat":"31.220336914","category":"72","category_name":"广东菜","address":"卢湾区雁荡路37号(近复兴公园)"},{"poiid":"B2094750D768A7FE4099","title":"Season三层堂和牛料理","lon":"121.469","lat":"31.221","category":"95","category_name":"日本料理","address":"卢湾区淮海中路542弄2号(近成都南路)"},{"poiid":"B2094750D26DA7F84799","title":"清风人家","lon":"121.47091","lat":"31.22203","category":"260","category_name":"其他","address":"卢湾区淮海中路438号B1楼(近重庆南路)"},{"poiid":"B2094757DB6CA5F84593","title":"Element Fresh","lon":"121.470734","lat":"31.223412","category":"247","category_name":"餐饮美食","address":"Xin tian Di"},{"poiid":"B2094757D06FA6FC449B","title":"京世造型(雁荡店)","lon":"121.469967","lat":"31.221091","category":"148","category_name":"美容美发店","address":"上海卢湾区雁荡路5号2楼(淮海中路口)"},{"poiid":"B2094757D66FA1F5449C","title":"好乐的(淮海店)","lon":"121.47069161","lat":"31.221906582","category":"249","category_name":"购物服务","address":"上海淮海中路1543号"},{"poiid":"B2094654DA6EA1F9499F","title":"民防大厦","lon":"121.471","lat":"31.2202","category":"46","category_name":"楼宇","address":"龙蟠南路33号(龙蟠南路与秦虹路交汇处,秦淮区政府对面)"},{"poiid":"B2094757D06BA5F44892","title":"鲜得来","lon":"121.46988673","lat":"31.220740097","category":"247","category_name":"餐饮美食","address":"上海市卢湾区雁荡路13号"},{"poiid":"B2094750DB6AA5F84798","title":"一町奶茶(淮海路店)","lon":"121.470686","lat":"31.221858","category":"113","category_name":"冷饮店","address":"卢湾区老重庆中路54号(近长乐路)"},{"poiid":"B2094757D068A3FD459F","title":"沧浪亭(重庆路店)","lon":"121.47132","lat":"31.2213","category":"87","category_name":"特色／地方风味餐厅","address":"卢湾区老重庆中路好乐迪对面(淮海中路口)"},{"poiid":"B2094757D069A4FF4699","title":"lv旗舰店","lon":"121.47127873","lat":"31.220801099","category":"500","category_name":"未知分类","address":"上海淮海路嵩山路"},{"poiid":"B2094757D464ABF4459A","title":"金城酒家","lon":"121.47037211893","lat":"31.220679186676","category":"76","category_name":"上海菜","address":"卢湾区兴安路149号(近雁荡路)"},{"poiid":"B2094757D66AA0F5429B","title":"罗贝拉冰淇淋 La Perla","lon":"121.470134054","lat":"31.220102793","category":"67","category_name":"甜品店","address":"卢湾区雁荡路21号(近兴安路)"},{"poiid":"B2094757D068A5FA4192","title":"北万新(淮海店)","lon":"121.47041414","lat":"31.221747502","category":"68","category_name":"快餐厅","address":"卢湾区淮海中路462号(近重庆南路)"},{"poiid":"B2094757D16CAAF94992","title":"南昌路","lon":"121.47206173","lat":"31.221032104","category":"500","category_name":"未知分类","address":"上海卢湾区南昌路"},{"poiid":"B2094654DA6DABFB479A","title":"兴安餐厅","lon":"121.470078054","lat":"31.220802793","category":"68","category_name":"快餐厅","address":"卢湾区兴安路145号(近雁荡路)"},{"poiid":"B2094757D06FA7F54399","title":"香黛广场","lon":"121.47153","lat":"31.2218","category":"249","category_name":"购物服务","address":"卢湾区淮海中路417号(近重庆南路)"},{"poiid":"B2094757D06EAAFE479E","title":"刘娟美甲(淮海中路一店)","lon":"121.47222","lat":"31.22163","category":"122","category_name":"个人用品/化妆品店","address":"卢湾区淮海中路417号香黛广场73号(近重庆南路)"},{"poiid":"B209475CD26BA5F5499D","title":"查理士","lon":"121.471008","lat":"31.221706","category":"247","category_name":"餐饮美食","address":"上海市 淮海中路447号"},{"poiid":"B2094757D068A4F9429C","title":"徐其修凉茶","lon":"121.47148973","lat":"31.222897143","category":"113","category_name":"冷饮店","address":"卢湾区兴安路98弄10号(近雁荡路)"},{"poiid":"B2094757D06AAAFE4499","title":"佳鸣海鲜火锅楼","lon":"121.470263","lat":"31.220876","category":"86","category_name":"火锅店","address":"卢湾区兴安路167号(近雁荡路)"},{"poiid":"B2094757D068A0FA419F","title":"招商银行(淮中支行)","lon":"121.47235","lat":"31.2223","category":"46","category_name":"楼宇","address":"卢湾区淮海中路398号(淡水路淮海中路)"},{"poiid":"B2094654DB64AAFB4299","title":"大旺旺特色馄饨 淮海中路店","lon":"121.473097054","lat":"31.222434793","category":"68","category_name":"快餐厅","address":"卢湾区淮海中路358弄20号(招商银行对面)"},{"poiid":"B2094757D06FA4FA469A","title":"大花桌游(淮海中路店)","lon":"121.46994","lat":"31.22109","category":"175","category_name":"棋牌室","address":"上海卢湾区淮海中路461号9楼68室"},{"poiid":"B2094751D56FABF84092","title":"Azul Urban（上海K11店）","lon":"121.470509","lat":"31.220142","category":"247","category_name":"餐饮美食","address":"上海市 淮海中路300号上海K11购物艺术中心404"},{"poiid":"B2094655D36CA0F5409C","title":"淮海中路重庆南路","lon":"121.46961","lat":"31.22117","category":"38","category_name":"公交车站","address":""},{"poiid":"B2094757D064A7FB449B","title":"新藤亭日本料理","lon":"121.46989649709","lat":"31.219543331825","category":"95","category_name":"日本料理","address":"卢湾区雁荡路29号502室(近南昌路)"},{"poiid":"B2094757DB6CAAFA4793","title":"新天地海逸海鲜酒家","lon":"121.47024327","lat":"31.22037947","category":"247","category_name":"餐饮美食","address":"上海新天地"},{"poiid":"B2094752D364AAF94692","title":"pizzamarzano","lon":"121.472301","lat":"31.221677","category":"247","category_name":"餐饮美食","address":"黄陂南路380号"},{"poiid":"B2094757D06FA4FA489C","title":"莉莲蛋挞 淮海店 Lillian Cake Shop","lon":"121.46995","lat":"31.22103","category":"67","category_name":"甜品店","address":"徐汇区淮海中路939号巴黎春天淮海店1楼(近地铁一号线)"},{"poiid":"B2094757DA6EAAF5429D","title":"悦满糖甜品","lon":"121.470060000002","lat":"31.2205209999998","category":"67","category_name":"甜品店","address":"卢湾区雁荡路25号(近淮海中路)"},{"poiid":"B2094757D664A6FA479D","title":"哈尔滨食品厂 淮海中路二店","lon":"121.470211054","lat":"31.221606793","category":"112","category_name":"糕饼店","address":"卢湾区淮海中路464号(近重庆南路)"},{"poiid":"B2094752D66AA5F54793","title":"Small Spice","lon":"121.470896","lat":"31.223251","category":"247","category_name":"餐饮美食","address":"淡水路250号"},{"poiid":"B2094757D069A2F4469B","title":"沁藏","lon":"121.46952273","lat":"31.221132106","category":"95","category_name":"日本料理","address":"卢湾区兴安路96弄29号(近雁荡路)"},{"poiid":"B2094757D068A1FC4798","title":"南北高架淮海中路下闸道","lon":"121.47219519","lat":"31.221539584","category":"500","category_name":"未知分类","address":"上海南北高架淮海中路下闸道"},{"poiid":"B2094654DA6DABFA4892","title":"上海妇女用品商店(雁荡路)","lon":"121.47069","lat":"31.22147","category":"141","category_name":"服装鞋帽皮具店","address":"淮海中路479"},{"poiid":"B2094654DA6EABFC459B","title":"延中公园","lon":"121.47138","lat":"31.22321","category":"196","category_name":"公园","address":"延安路黄陂路口"},{"poiid":"B2094753D66BAAFB469A","title":"DEMO CAFE 典谟新知","lon":"121.470954","lat":"31.221174","category":"249","category_name":"购物服务","address":"上海市 兴安路139号"},{"poiid":"B2094752D66AA1FF449D","title":"鼎泰豐","lon":"121.470369","lat":"31.220969","category":"247","category_name":"餐饮美食","address":"上海市兴业路123弄新天地广场南里6号二楼"},{"poiid":"B2094654DB64A6FD439B","title":"上海第一百货淮海店","lon":"121.46926","lat":"31.22076","category":"119","category_name":"商场","address":"淮海中路523号"},{"poiid":"B2094654DB65A1F9419C","title":"避风塘(淮海中路店)","lon":"121.46958","lat":"31.22105","category":"113","category_name":"冷饮店","address":"卢湾区淮海中路503号华亭伊势丹楼下(近雁荡路)"},{"poiid":"B209475CD468A1FC4198","title":"查厘士","lon":"121.471008","lat":"31.221914","category":"247","category_name":"餐饮美食","address":"上海市 淮海中路438号4楼"},{"poiid":"B2094751D56FABFF479F","title":"Awfully Chocolate 奥芙莉（上海K11店）","lon":"121.470852","lat":"31.220142","category":"247","category_name":"餐饮美食","address":"上海市 淮海中路300号上海K11购物艺术中心306"},{"poiid":"B2094757D068A7F5499B","title":"Olive tree","lon":"121.47179022","lat":"31.220214311","category":"94","category_name":"西餐厅","address":"卢湾区重庆南路30弄1号(近淮海中路)"},{"poiid":"B2094757D06AABF54898","title":"一品香汤包馆","lon":"121.471470662","lat":"31.2202715859","category":"68","category_name":"快餐厅","address":"卢湾区重庆南路14号(近淮海中路)"},{"poiid":"B2094753D46AA7FC4799","title":"K11","lon":"121.469276","lat":"31.220518","category":"500","category_name":"未知分类","address":"上海市 淮海中路"},{"poiid":"B209475CD76BA6F9499C","title":"查厘士","lon":"121.471282","lat":"31.221998","category":"247","category_name":"餐饮美食","address":"上海市 淮海中路438号4楼"},{"poiid":"B2094654DA6DABFB4793","title":"上海妇女用品商店B馆","lon":"121.46936","lat":"31.22093","category":"119","category_name":"商场","address":"淮海中路523"},{"poiid":"B2094655D26EABFE4499","title":"兴隆饮食店","lon":"121.47061","lat":"31.22113","category":"76","category_name":"上海菜","address":"卢湾区兴安路98弄1-12号(近雁荡路)"},{"poiid":"B2094757D465A7FE449A","title":"美味小厨 兴安路店","lon":"121.471790054","lat":"31.221369793","category":"68","category_name":"快餐厅","address":"卢湾区兴安路198弄6号(近雁荡路)"},{"poiid":"B2094654DA6DABFA489B","title":"金雁坊","lon":"121.47013","lat":"31.22046","category":"46","category_name":"楼宇","address":"雁荡路29号"},{"poiid":"B2094655D26EA5F54498","title":"汤记桂林米粉 淮海中路店","lon":"121.46983958801","lat":"31.221370800026","category":"68","category_name":"快餐厅","address":"卢湾区淮海中路454号(近重庆南路)"},{"poiid":"B209475CD16FA2F5419D","title":"查厘士","lon":"121.471008","lat":"31.222307","category":"247","category_name":"餐饮美食","address":"上海市 上海市淮海中路438号4楼"},{"poiid":"B2094655D268A6FF459F","title":"上海821桌球俱乐部","lon":"121.47091","lat":"31.222","category":"171","category_name":"台球厅","address":"淮海中路438号3层"},{"poiid":"B209475CD46DA3FA429B","title":"查理士","lon":"121.471023","lat":"31.221937","category":"247","category_name":"餐饮美食","address":"上海市 淮海路"},{"poiid":"B2094757D064A1FC409E","title":"瑞典驻上海领事馆","lon":"121.47202169","lat":"31.221795895","category":"252","category_name":"楼宇机构","address":"上海淮海中路381号中环广场1521-1541"},{"poiid":"B2094655D26BA5FA409B","title":"鲜得来雁荡分店","lon":"121.47011","lat":"31.22072","category":"257","category_name":"中餐厅","address":"雁荡路13"},{"poiid":"B2094655D265A6FD4599","title":"四明里休闲广场","lon":"121.47208","lat":"31.22178","category":"202","category_name":"公园广场","address":"淮海中路"},{"poiid":"B2094750DA69A7F8489E","title":"上海瑞金医院卢湾分院","lon":"121.470893","lat":"31.220504","category":"500","category_name":"未知分类","address":"重庆南路355号"},{"poiid":"B2094654DA6DABFA499F","title":"雁荡","lon":"121.46987","lat":"31.22076","category":"257","category_name":"中餐厅","address":"雁荡路34"},{"poiid":"B209475CD26EABF4419C","title":"查厘士","lon":"121.471008","lat":"31.221904","category":"247","category_name":"餐饮美食","address":"上海市 淮海中路438号4楼"},{"poiid":"B2094757D06BA5FC459D","title":"Coco都可茶饮(福州路店)","lon":"121.471769458","lat":"31.2230463287","category":"113","category_name":"冷饮店","address":"上海福州路671号"},{"poiid":"B2094654DA6DABFA499C","title":"中原美发厅","lon":"121.46986","lat":"31.22069","category":"148","category_name":"美容美发店","address":"卢湾区雁荡路28号(近淮海路)"},{"poiid":"B2094757D16AA2F94992","title":"爱马仕之家","lon":"121.470902","lat":"31.221943","category":"141","category_name":"服装鞋帽皮具店","address":"上海准海中路228号"},{"poiid":"B2094655D36CA6F5459B","title":"淡水路金陵中路","lon":"121.472","lat":"31.22321","category":"38","category_name":"公交车站","address":""},{"poiid":"B2094757D06BABFD419D","title":"Folli Follie(淮海中路店)","lon":"121.46904","lat":"31.22089","category":"131","category_name":"珠宝首饰工艺品","address":"上海卢湾区淮海中路536号"},{"poiid":"B2094752D569A2F4429B","title":"新天地","lon":"121.471486","lat":"31.220556","category":"247","category_name":"餐饮美食","address":"卢湾区自忠路"},{"poiid":"B2094654DB6BA7F5419A","title":"珍妮花婚纱摄影(淮海中路)","lon":"121.47019","lat":"31.22158","category":"248","category_name":"生活娱乐","address":"卢湾区淮海中路472-476号(近重庆南路)查看地图"},{"poiid":"B2094654DB6BA7F54198","title":"和合坊","lon":"121.46884","lat":"31.221542","category":"47","category_name":"住宅区","address":"淮海中路526弄1-84号"},{"poiid":"B2094757D16BA7F94498","title":"重庆中路长乐路","lon":"121.47071973","lat":"31.223064147","category":"500","category_name":"未知分类","address":"上海市"},{"poiid":"B2094751D565A4F94698","title":"游人馆","lon":"121.47145","lat":"31.221653","category":"248","category_name":"生活娱乐","address":"淮海中路461号"},{"poiid":"B2094757D465AAFA4993","title":"糖潮食坊 雁荡店","lon":"121.4690506973","lat":"31.221123535981","category":"247","category_name":"餐饮美食","address":"卢湾区淮海中路500号（华亭伊势丹附近）"},{"poiid":"B2094752D664A5FB439B","title":"kafelaku coffee","lon":"121.469845","lat":"31.222775","category":"247","category_name":"餐饮美食","address":"上海新天地"},{"poiid":"B2094757D069A5FD479D","title":"全国土特产食品商场(淮海中路店)","lon":"121.47008","lat":"31.22117","category":"249","category_name":"购物服务","address":"卢湾区淮海中路483-495号(近雁荡路)"},{"poiid":"B2094757D66CA4F9429A","title":"933路重庆南路淮海中路站","lon":"121.471551662","lat":"31.2203725856","category":"38","category_name":"公交车站","address":"上海重庆南路(近淮海中路)"},{"poiid":"B2094757D569A2FA429A","title":"Pulmse Club","lon":"121.470912","lat":"31.22192518","category":"170","category_name":"KTV","address":"中国上海市黄浦区淮海中路442"},{"poiid":"B2094654D564A5F8499F","title":"快客No.5107","lon":"121.47052","lat":"31.22192","category":"117","category_name":"便民商店/便利店","address":""},{"poiid":"B2094757D06EAAFA459C","title":"飞跃回力双星 CM国货专售(长乐路店)","lon":"121.469291","lat":"31.222208","category":"140","category_name":"体育用品店","address":"上海卢湾区长乐路47弄2号 近成都南路(近淮海中路)"},{"poiid":"B2094655D268A6FF459C","title":"长乐路43弄小区(北门)","lon":"121.46979","lat":"31.22225","category":"47","category_name":"住宅区","address":"长乐路43弄1-13号"},{"poiid":"B2094655D268A7F8429D","title":"灵灵美甲","lon":"121.47201","lat":"31.22189","category":"148","category_name":"美容美发店","address":"淮海中路417号香黛广场62"},{"poiid":"B2094757D065A1F9469F","title":"时尚小馆","lon":"121.46994285","lat":"31.22085644","category":"247","category_name":"餐饮美食","address":"上海雁荡路17号"},{"poiid":"B2094654DA6DABFB479E","title":"培文小区(南门)","lon":"121.47107","lat":"31.22113","category":"47","category_name":"住宅区","address":"兴安路96弄1-32号"},{"poiid":"B2094757D16FABFF4099","title":"上海钟表商店","lon":"121.47021","lat":"31.22123","category":"249","category_name":"购物服务","address":"卢湾区淮海中路478-492号(近重庆南路)"},{"poiid":"B2094655D265A1FE449B","title":"DKD","lon":"121.47092","lat":"31.222","category":"247","category_name":"餐饮美食","address":"淮海中路438号"},{"poiid":"B2094757D569A0F8439A","title":"Cloud Bridge","lon":"121.47087","lat":"31.220987","category":"94","category_name":"西餐厅","address":"兴安路139"},{"poiid":"B2094655D268A4F44999","title":"重庆南路26弄小区","lon":"121.4712","lat":"31.22028","category":"47","category_name":"住宅区","address":"重庆南路26弄1-29号"},{"poiid":"B2094655D268A3FF4792","title":"雁荡路51弄小区","lon":"121.47021","lat":"31.21992","category":"47","category_name":"住宅区","address":"雁荡路51弄2"},{"poiid":"B2094655D26FAAF9439B","title":"兴安路163弄小区(北门)","lon":"121.47036","lat":"31.22086","category":"47","category_name":"住宅区","address":"兴安路163弄1-22号"},{"poiid":"B2094655D268A6FF459D","title":"长乐路43弄小区","lon":"121.46984","lat":"31.22203","category":"47","category_name":"住宅区","address":"长乐路43弄1-13号"},{"poiid":"B2094751D56FABFF4498","title":"Burberry 巴宝莉（上海K11店）","lon":"121.470852","lat":"31.220289","category":"249","category_name":"购物服务","address":"上海市 淮海中路300号上海K11购物艺术中心204"},{"poiid":"B2094655D268ABFC469F","title":"重庆南路39弄小区","lon":"121.4723","lat":"31.22111","category":"47","category_name":"住宅区","address":"重庆南路39弄"},{"poiid":"B2094655D268A3FF479D","title":"雁荡路51弄小区(西门)","lon":"121.46999","lat":"31.21992","category":"47","category_name":"住宅区","address":"雁荡路51弄2"},{"poiid":"B2094655D26FAAF94398","title":"兴安路163弄小区","lon":"121.47032","lat":"31.2207","category":"47","category_name":"住宅区","address":"兴安路163弄1-22号"},{"poiid":"B2094655D268ABFC469E","title":"重庆南路39弄小区(西门)","lon":"121.47209","lat":"31.22112","category":"47","category_name":"住宅区","address":"重庆南路39弄"},{"poiid":"B2094655D268A4F4499B","title":"重庆南路26弄小区(东门)","lon":"121.47142","lat":"31.22028","category":"47","category_name":"住宅区","address":"重庆南路26弄1-29号"},{"poiid":"B2094655D26FA4F4499F","title":"渔阳里(北门)","lon":"121.47053","lat":"31.22188","category":"47","category_name":"住宅区","address":"老重庆中路64弄1-36号"},{"poiid":"B2094655D26FAAF9439A","title":"淮三小区","lon":"121.4708","lat":"31.22074","category":"47","category_name":"住宅区","address":"兴安路141弄1-32号"},{"poiid":"B2094654DB6BA4FA4493","title":"三德坊小区(东门)","lon":"121.47222","lat":"31.22075","category":"47","category_name":"住宅区","address":""},{"poiid":"B2094757D06BA3FA4199","title":"57美睫(香黛广场店)","lon":"121.47225","lat":"31.22156","category":"148","category_name":"美容美发店","address":"卢湾区淮海中路417号香黛广场95号(近重庆南路)"},{"poiid":"B2094654DB64A5FB409B","title":"培文小区","lon":"121.47079","lat":"31.22123","category":"47","category_name":"住宅区","address":"兴安路96弄1-32号"},{"poiid":"B2094655D265A0FD499D","title":"第一食品商店淮海店","lon":"121.46979","lat":"31.22115","category":"117","category_name":"便民商店/便利店","address":"淮海中路491号"},{"poiid":"B2094757D16CA3F94299","title":"艾维庭美容身心会馆(淮海一店)","lon":"121.46891784","lat":"31.221084594","category":"148","category_name":"美容美发店","address":"上海卢湾区淮海中路523号4楼(近雁荡路)"},{"poiid":"B2094751D26DA6FC469B","title":"渣打银行大厦","lon":"121.4712","lat":"31.22137","category":"252","category_name":"楼宇机构","address":null},{"poiid":"B2094757D169A5FC409F","title":"New Bere","lon":"121.470046","lat":"31.22041","category":"500","category_name":"未知分类","address":"上海市雁荡路33号"},{"poiid":"B2094654D564A5F94098","title":"中国工商银行淮海中路第一支行","lon":"121.46958","lat":"31.22135","category":"150","category_name":"银行","address":"卢湾区淮海中路500号(近雁荡路)"},{"poiid":"B2094654DA6DABFB4692","title":"香榭丽舍(兴安路)","lon":"121.47091","lat":"31.22099","category":"141","category_name":"服装鞋帽皮具店","address":"兴安路135"},{"poiid":"B2094750D26FA2FC479D","title":"The Geisha","lon":"121.471539","lat":"31.219995","category":"248","category_name":"生活娱乐","address":"上海市 卢湾区陕西南路390号(近复兴路)"},{"poiid":"B2094757D06BA7F9489F","title":"康绥公寓","lon":"121.46963","lat":"31.221651","category":"500","category_name":"未知分类","address":"上海淮海中路494弄"},{"poiid":"B2094757D16FA7FD489D","title":"MT Club(淮海路二店)","lon":"121.47119","lat":"31.22172","category":"260","category_name":"其他","address":"卢湾区淮海中路438号(近重庆南路)"},{"poiid":"B2094750DB6BA1F5419C","title":"I DO","lon":"121.469154","lat":"31.221378","category":"263","category_name":"公司","address":"淮海中路518号"},{"poiid":"B2094757D169A3F5439A","title":"上海名表维修服务中心","lon":"121.469733","lat":"31.220448","category":"500","category_name":"未知分类","address":"卢湾区雁荡路22号(近淮海路)"},{"poiid":"B2094757D568A4FF4893","title":"美树の服饰店","lon":"121.4714684","lat":"31.21996853","category":"141","category_name":"服装鞋帽皮具店","address":"卢湾区重庆南路30弄17号(近南昌路)"},{"poiid":"B2094757D06FA2F5409B","title":"CaSA！Homme.男人装","lon":"121.47119086","lat":"31.220006747","category":"141","category_name":"服装鞋帽皮具店","address":"上海长乐路190号都市风情街d12商铺"},{"poiid":"B2094655D26EAAFE489F","title":"上海美格菲健身中心(卢湾店)","lon":"121.47175","lat":"31.22249","category":"221","category_name":"健身中心","address":"徐汇区淮海中路300号香港新世界大厦B3"},{"poiid":"B2094752D46AA3FC4998","title":"衡山路","lon":"121.469477","lat":"31.223252","category":"248","category_name":"生活娱乐","address":null},{"poiid":"B2094753D568ABFB469F","title":"Dazzling Cafe II sunshine","lon":"121.469383","lat":"31.222694","category":"500","category_name":"未知分类","address":"上海市 上海市龙华中路602号正大乐城7-105铺"},{"poiid":"B2094757D568A6F8449C","title":"乔丹(淮海中路)","lon":"121.47243354","lat":"31.22251248","category":"140","category_name":"体育用品店","address":"淮海中路366"},{"poiid":"B2094757D569A7F5429A","title":"Cigav Land","lon":"121.47145589","lat":"31.21996067","category":"172","category_name":"酒吧","address":"重庆南路30弄17-1"},{"poiid":"B2094655D26AA0F4449B","title":"821桌球馆","lon":"121.47092","lat":"31.22199","category":"171","category_name":"台球厅","address":"卢湾区淮海中路1号柳林大厦8楼(近西藏南路)"},{"poiid":"B2094654DB6BA4FA4492","title":"星展银行(中国)上海卢湾支行","lon":"121.47171","lat":"31.22249","category":"150","category_name":"银行","address":"淮海中路398号世纪巴士大厦1-2B、16EFGH"},{"poiid":"B2094757D06BA2FD449B","title":"DKD.TT Club","lon":"121.470744255","lat":"31.2220596766","category":"260","category_name":"其他","address":"卢湾区淮海中路438号B1楼"},{"poiid":"B2094757D068A0FE429E","title":"模玩堂","lon":"121.471319612","lat":"31.2201214363","category":"500","category_name":"未知分类","address":"上海市卢湾区长乐路190号A06商铺"},{"poiid":"B2094757D164AAFC4599","title":"思妍丽女子美容护肤中心(淮海店)","lon":"121.46918","lat":"31.22081","category":"148","category_name":"美容美发店","address":"上海卢湾区淮海中路523号4楼(近重庆南路)  "},{"poiid":"B2094757D66EA7FD499E","title":"长乐路127号","lon":"121.46908873","lat":"31.220635095","category":"500","category_name":"未知分类","address":"上海市卢湾区长乐路成都南路"},{"poiid":"B2094655D26FA3F84892","title":"中国建设银行上海淮海中路支行","lon":"121.47083","lat":"31.22187","category":"150","category_name":"银行","address":""},{"poiid":"B2094655D265AAF4419B","title":"爱度","lon":"121.46913","lat":"31.22114","category":"131","category_name":"珠宝首饰工艺品","address":"淮海中路518"},{"poiid":"B2094757D16EA0FA419C","title":"Monty's","lon":"121.46968573","lat":"31.22132811","category":"500","category_name":"未知分类","address":"上海市卢湾区雁荡路"},{"poiid":"B2094757D16BA0FD4593","title":"芳芳美甲","lon":"121.47154273","lat":"31.221262109","category":"148","category_name":"美容美发店","address":"卢湾区重庆南路39弄1号(近黄陂南路站1号出口)"},{"poiid":"B2094757D168AAF84992","title":"LesMo","lon":"121.46885","lat":"31.22178","category":"500","category_name":"未知分类","address":"卢湾区马当路598号(近徐家汇路)"},{"poiid":"B2094757D064A1F4499C","title":"太仓坊","lon":"121.47144662","lat":"31.220259967","category":"500","category_name":"未知分类","address":"上海市卢湾区重庆南路30弄"},{"poiid":"B2094752D268A1FE4098","title":"天空之城概念书店","lon":"121.470192","lat":"31.220312","category":"248","category_name":"生活娱乐","address":"新天地时尚"},{"poiid":"B2094757D16EA7F4499B","title":"威海路888弄1-6号小区","lon":"121.47020267","lat":"31.223456625","category":"500","category_name":"未知分类","address":"上海静安区威海路888弄"},{"poiid":"B2094757D66DA1F9479E","title":"Shiroya nail salon","lon":"121.469466738","lat":"31.2214271125","category":"500","category_name":"未知分类","address":"上海淮海中路"},{"poiid":"B2094757D168AAFE4792","title":"821撞球俱樂部","lon":"121.47088773","lat":"31.221874122","category":"500","category_name":"未知分类","address":"上海市淮海中路438号3楼"},{"poiid":"B2094757D16DA2FD469B","title":"苏菲雅","lon":"121.4708826","lat":"31.22186306","category":"500","category_name":"未知分类","address":"上海淮海路"},{"poiid":"B2094757D064A1F54798","title":"祥茂新村","lon":"121.4724727","lat":"31.2216478","category":"252","category_name":"楼宇机构","address":"淡水路89弄1-14号"},{"poiid":"B2094757D66DA4F94693","title":"好时光金拇指幼儿园","lon":"121.47135473","lat":"31.221010103","category":"500","category_name":"未知分类","address":"上海市闵行区莲花南路大润发后"},{"poiid":"B2094757D66DA2FB459E","title":"卢湾区投资促进服务中心","lon":"121.47117649","lat":"31.221922259","category":"500","category_name":"未知分类","address":"上海巨鹿路137号5G室"},{"poiid":"B2094757D568A4FA479B","title":"Susie香黛广场店","lon":"121.472015","lat":"31.221895","category":"249","category_name":"购物服务","address":"卢湾区淮海中路417号香黛广场86号(近重庆南路)"},{"poiid":"B2094654D564A5F9409C","title":"通灵(淮海中路)","lon":"121.46896","lat":"31.22107","category":"131","category_name":"珠宝首饰工艺品","address":"淮海中路534-536"},{"poiid":"B2094757D169A1FE429C","title":"21路车站北路","lon":"121.47133003","lat":"31.221362311","category":"500","category_name":"未知分类","address":"上海车站北路"},{"poiid":"B2094757D16EA6F94598","title":"Nine's Home","lon":"121.470583","lat":"31.2219822","category":"500","category_name":"未知分类","address":null},{"poiid":"B2094757D064A0FC409E","title":"淮海中路停车库","lon":"121.46956773","lat":"31.221226108","category":"500","category_name":"未知分类","address":"上海老重庆中路"},{"poiid":"B2094757D66CA1F94093","title":"阔奈喵喵家","lon":"121.470171738","lat":"31.2213501109","category":"500","category_name":"未知分类","address":"上海漕宝路新镇路"},{"poiid":"B2094757D66DA5FD4699","title":"苏州工业园星海街58号","lon":"121.46922373","lat":"31.222074126","category":"500","category_name":"未知分类","address":"上海苏州工业园星海街58号"},{"poiid":"B2094757D068A0FD4099","title":"皮带之屋","lon":"121.472232","lat":"31.22224","category":"500","category_name":"未知分类","address":"上海淮海中路417号香黛广场10号铺 地铁1号线黄陂南路站"},{"poiid":"B2094757D66DA1FD4493","title":"每个人有每个人的活法","lon":"121.469212738","lat":"31.2209631026","category":"500","category_name":"未知分类","address":"上海每个人有每个人的故事"},{"poiid":"B2094753D66EA3FC489D","title":"KEVIN studio","lon":"121.47154927","lat":"31.22107769","category":"248","category_name":"生活娱乐","address":"上海市黄埔区重庆南路18号"},{"poiid":"B2094654DA6DABFB4592","title":"卢湾区教育人才交流服务中心","lon":"121.47142","lat":"31.22042","category":"252","category_name":"楼宇机构","address":"重庆南路18甲"},{"poiid":"B2094757DA6EAAF4459C","title":"CM飞跃回力鞋业（长乐路店）","lon":"121.469832899998","lat":"31.2223782","category":"249","category_name":"购物服务","address":"卢湾区长乐路47弄2号"},{"poiid":"B2094655D26BA3FA4499","title":"绳艺翠阁","lon":"121.47201","lat":"31.22189","category":"131","category_name":"珠宝首饰工艺品","address":"卢湾区淮海中路417号香黛广场83号铺(近重庆南路)"},{"poiid":"B2094757D568ABFB4593","title":"SEIKO淮海路店","lon":"121.4719378","lat":"31.22218722","category":"249","category_name":"购物服务","address":"卢湾区淮海中路396号(近重庆南路)"},{"poiid":"B2094752D36EA2F4439A","title":"vera wang","lon":"121.47124","lat":"31.221363","category":"627","category_name":"一般地点标志","address":null},{"poiid":"B2094757D568A6F44198","title":"TiPSY","lon":"121.47084","lat":"31.221878","category":"260","category_name":"其他","address":"卢湾区淮海中路438号(近重庆南路)"},{"poiid":"B2094757D568A7F9429A","title":"奇妮","lon":"121.4704542","lat":"31.22152389","category":"249","category_name":"购物服务","address":"淮海中路448号上海妇女用品商店"},{"poiid":"B2094757D568A0F5469A","title":"coconut","lon":"121.472015","lat":"31.221895","category":"249","category_name":"购物服务","address":"淮海中路417号香黛广场81号铺"},{"poiid":"B2094757D168A5FE469E","title":"Camellia服装店","lon":"121.469342588","lat":"31.2213604111","category":"249","category_name":"购物服务","address":"卢湾区长乐路53号(近成都南路)"},{"poiid":"B2094757D065A3F9479D","title":"麦格舍","lon":"121.47124813","lat":"31.220537093","category":"249","category_name":"购物服务","address":"静安区陕西南路148号(近长乐路)"},{"poiid":"B2094757D568A6F4429A","title":"Bora Vora香黛店","lon":"121.472015","lat":"31.221895","category":"249","category_name":"购物服务","address":"淮海中路417号香黛广场78号铺"},{"poiid":"B2094757D568A0F8429B","title":"shop30","lon":"121.472015","lat":"31.221895","category":"249","category_name":"购物服务","address":"卢湾区淮海中路417号香黛广场30号(近重庆南路)"},{"poiid":"B2094757D568ABFE4593","title":"科氏","lon":"121.4704542","lat":"31.22152389","category":"249","category_name":"购物服务","address":"卢湾区淮海中路448号(近重庆南路)"},{"poiid":"B2094757D569A3FE409D","title":"茜施尔香黛广场店","lon":"121.472015","lat":"31.221895","category":"249","category_name":"购物服务","address":"卢湾区淮海中路417号香黛广场13号铺(近重庆南路)"},{"poiid":"B2094757D568AAFA459B","title":"SUSU女包","lon":"121.4714119","lat":"31.22047389","category":"249","category_name":"购物服务","address":"重庆南路18号"},{"poiid":"B2094654DA6DABFA499D","title":"上海钟表商店新宇钟表","lon":"121.46981","lat":"31.22044","category":"135","category_name":"钟表店","address":"雁荡路32-34"},{"poiid":"B2094752D36FAAFF469D","title":"新天地郎庭酒店","lon":"121.470168","lat":"31.222593","category":"251","category_name":"出行住宿","address":"上海新天地马当路99号"},{"poiid":"B2094654DA6EA4F5499F","title":"徕卡显微系统(上海)贸易有限公司","lon":"121.47171","lat":"31.22249","category":"263","category_name":"公司","address":"淮海中路398号世纪巴士大厦18CD"},{"poiid":"B2094757D165A1FB4998","title":"新华财经","lon":"121.471721","lat":"31.222526","category":"263","category_name":"公司","address":"上海淮海中路398号世纪巴士大厦10楼"},{"poiid":"B2094654DA6DABFA4898","title":"中原地产淮海店(雁荡路)","lon":"121.47007","lat":"31.22054","category":"248","category_name":"生活娱乐","address":"雁荡路25"},{"poiid":"B2094655D265A7F8419F","title":"风向标","lon":"121.47202","lat":"31.2219","category":"248","category_name":"生活娱乐","address":"淮海中路417号香黛广场34-36铺"},{"poiid":"B2094757D16EA2F4449F","title":"普安路","lon":"121.47150153","lat":"31.222566136","category":"260","category_name":"其他","address":"上海延安东路普安路"},{"poiid":"B2094757D069A2FC419E","title":"CoCo都可茶饮(雁荡店)","lon":"121.470077","lat":"31.220557","category":"260","category_name":"其他","address":"淮海中路688号华狮广场门口近思南路"},{"poiid":"B2094654DA6EA4F5499C","title":"瑞泰人寿保险有限公司上海分公司","lon":"121.47171","lat":"31.22249","category":"219","category_name":"其他","address":"淮海中路398号世纪巴士大厦19ABC1、20C2"},{"poiid":"B2094757D06AA6FF429F","title":"银驾","lon":"121.47136915","lat":"31.221033071","category":"260","category_name":"其他","address":"上海与我同行"},{"poiid":"B2094655D268A3F94798","title":"重庆南路30弄小区(东门)","lon":"121.47143","lat":"31.2202","category":"656","category_name":"大门","address":"重庆南路30弄1-74号"},{"poiid":"B2094655D26BA7FD459F","title":"尚贤坊(西三门)","lon":"121.47222","lat":"31.2229","category":"656","category_name":"大门","address":""},{"poiid":"B2094655D26FAAF94293","title":"淮三小区(北门)","lon":"121.47082","lat":"31.22094","category":"656","category_name":"大门","address":"兴安路141弄1-32号"},{"poiid":"B2094655D268A6FF4599","title":"淮三小区(东门)","lon":"121.47135","lat":"31.22062","category":"656","category_name":"大门","address":""},{"poiid":"B2094655D265ABFA4199","title":"尚贤坊(西二门)","lon":"121.47226","lat":"31.22282","category":"656","category_name":"大门","address":""},{"poiid":"B2094655D268ABFD4293","title":"尚贤坊(西门)","lon":"121.47228","lat":"31.2228","category":"656","category_name":"大门","address":""}]