[{"poiid":"B2094757D06FA0F8409D","title":"江浦公园","lon":"121.524354472","lat":"31.2657463287","category":"196","category_name":"公园","address":"杨浦区长阳路1111号(江浦路口)"},{"poiid":"B2094655D265A6FE4898","title":"北美广场","lon":"121.519","lat":"31.2658","category":"46","category_name":"楼宇","address":"上海市杨浦区昆明路508号"},{"poiid":"B2094757D06FA4F9449D","title":"海上皇宫大酒店","lon":"121.52394321","lat":"31.264527791","category":"72","category_name":"广东菜","address":"杨浦区长阳路1080号(近江浦路)"},{"poiid":"B2094757D068A6FA499A","title":"江浦路","lon":"121.521928","lat":"31.2667454","category":"260","category_name":"其他","address":"上海杨浦区江浦路"},{"poiid":"B2094757D06FA6F4499C","title":"现代星洲城","lon":"121.518951","lat":"31.269247","category":"47","category_name":"住宅区","address":"上海市杨浦区江浦路1199号"},{"poiid":"B2094757D06FA5F84593","title":"吴记老锅底麻辣火锅(江浦路店)","lon":"121.52023","lat":"31.27258","category":"86","category_name":"火锅店","address":"上海杨浦区江浦路1380号(近控江路)  "},{"poiid":"B2094751DA64A6F9439A","title":"鲜芋仙","lon":"121.519587","lat":"31.271143","category":"247","category_name":"餐饮美食","address":"杨浦区控江路1720号"},{"poiid":"B2094655D26CA6FB439C","title":"尚凯商务大厦","lon":"121.52232","lat":"31.26661","category":"46","category_name":"楼宇","address":"浦东新区金湘路345号"},{"poiid":"B2094757D068A5FE4793","title":"周家嘴路江浦路站(公交145,716,870,962)","lon":"121.520926","lat":"31.271083","category":"38","category_name":"公交车站","address":"上海周家嘴路江浦路"},{"poiid":"B2094757D06AA6FD4399","title":"合生高尔夫公寓","lon":"121.51923","lat":"31.266729","category":"500","category_name":"未知分类","address":"杨浦区江浦路1095号(靠近周家嘴路)"},{"poiid":"B2094757D068A0FC439B","title":"现代星洲城三期","lon":"121.52221","lat":"31.267971","category":"47","category_name":"住宅区","address":"上海市杨浦区江浦路1100弄"},{"poiid":"B2094655D26CA6F94398","title":"金鹏花园","lon":"121.52672","lat":"31.267475","category":"47","category_name":"住宅区","address":"上海兰州路1100弄"},{"poiid":"B2094654D56EABF5499A","title":"阳明新城","lon":"121.5214","lat":"31.269705","category":"47","category_name":"住宅区","address":"阳明新城位于杨浦江浦路1188号"},{"poiid":"B2094757D068A7F54798","title":"金上海家园","lon":"121.521124","lat":"31.266825","category":"196","category_name":"公园","address":"上海市杨浦区江浦路1057号"},{"poiid":"B2094655D36CA5F8479A","title":"长阳路","lon":"121.52315","lat":"31.26529","category":"38","category_name":"公交车站","address":""},{"poiid":"B2094757D068A6FA479E","title":"嘉禄新苑","lon":"121.525067","lat":"31.269818","category":"47","category_name":"住宅区","address":"嘉禄新苑位于杨浦区霍山路802号(许昌路路口)"},{"poiid":"B2094654D56EABF54799","title":"阳明苑","lon":"121.52218","lat":"31.269125","category":"47","category_name":"住宅区","address":"上海市杨浦区江浦路1178弄"},{"poiid":"B2094757D069A6FE439F","title":"控江中学附属民办学校","lon":"121.521292","lat":"31.264753","category":"500","category_name":"未知分类","address":"上海怀德路1000号"},{"poiid":"B2094654D56EABF5449B","title":"信通浦皓园","lon":"121.52245","lat":"31.270864","category":"47","category_name":"住宅区","address":"上海市杨浦区周家嘴路2408号"},{"poiid":"B2094757D16EA0F9499E","title":"新华医院医技楼","lon":"121.52621362","lat":"31.270535874","category":"162","category_name":"医院","address":"上海杨浦区控江路1665号"},{"poiid":"B2094655D26FA0FC479C","title":"阳明新城(三号门)","lon":"121.52201","lat":"31.26985","category":"47","category_name":"住宅区","address":"江浦路1188号"},{"poiid":"B2094757D164A5FF459C","title":"蒋家浜小街","lon":"121.5247951","lat":"31.269289398","category":"47","category_name":"住宅区","address":"上海杨浦区蒋家浜小街"},{"poiid":"B2094757D16FA5FE439D","title":"新华医院呼吸监护室","lon":"121.519554103","lat":"31.2708834319","category":"500","category_name":"未知分类","address":null},{"poiid":"B2094654D56EABF5479E","title":"上海市杨浦区明园村幼儿园","lon":"121.52227","lat":"31.26945","category":"57","category_name":"幼儿园","address":"杨浦区江浦路1140弄33号"},{"poiid":"B2094757D16EA0F9479F","title":"东北饺子王","lon":"121.52065","lat":"31.27024","category":"82","category_name":"东北菜","address":"杨浦区江浦路1353号(近控江路)"},{"poiid":"B2094757D469A0FA469A","title":"恬妈尚菜","lon":"121.52200699","lat":"31.27110003","category":"91","category_name":"台湾菜","address":"杨浦区周家嘴路2420号(近江浦路)"},{"poiid":"B2094757D16FA7FC439F","title":"陽朙新城","lon":"121.521419103","lat":"31.2691423955","category":"47","category_name":"住宅区","address":"上海市杨浦区江浦路1188号"},{"poiid":"B2094654D56EABF54893","title":"阳明商务中心","lon":"121.52094","lat":"31.26922","category":"46","category_name":"楼宇","address":"江浦路1188号"},{"poiid":"B2094757D168A2F9479E","title":"尕瓷滴窝窝","lon":"121.523114503","lat":"31.2694698024","category":"247","category_name":"餐饮美食","address":null},{"poiid":"B209475CD268A2F5469C","title":"上海市交通大学附属新华医院","lon":"121.522819","lat":"31.269811","category":"162","category_name":"医院","address":"上海市 江浦路"},{"poiid":"B2094757D06BA3FC4798","title":"中化道达尔加油站","lon":"121.52500581","lat":"31.272786425","category":"500","category_name":"未知分类","address":"上海周家嘴路凤城路"},{"poiid":"B2094757D06AAAFF4893","title":"杨浦区教师进修学院附属中学","lon":"121.52025","lat":"31.27081","category":"253","category_name":"校园生活","address":"杨浦区江浦路1322号(近周家嘴路)"},{"poiid":"B2094655D26CA6F4409D","title":"上海国际设计交流中心","lon":"121.52453","lat":"31.26455","category":"263","category_name":"公司","address":"杨浦区长阳路1080号(近江浦路)"},{"poiid":"B2094654D56EABF54792","title":"阳明商务多功能会议室","lon":"121.52095","lat":"31.26922","category":"185","category_name":"会展中心","address":"江浦路1188号阳明商务中心1029"},{"poiid":"B2094654D56EABF5479B","title":"曼姝菲尔女子香芬养生馆茭白园路店","lon":"121.52111","lat":"31.26899","category":"148","category_name":"美容美发店","address":""},{"poiid":"B2094757D065A7FD4393","title":"杨浦大桥黄兴路闸口","lon":"121.524628655","lat":"31.2685308252","category":"260","category_name":"其他","address":"上海杨浦大桥黄兴路闸口"},{"poiid":"B2094757D06FA5F4489A","title":"六艺茶馆(江浦路店)","lon":"121.52067","lat":"31.26832","category":"260","category_name":"其他","address":"杨浦区江浦路1159号(近周家嘴路)"},{"poiid":"B2094655D26BA2F9439A","title":"提蓝桥","lon":"121.52231","lat":"31.2661","category":"260","category_name":"其他","address":"杨浦区江浦路"},{"poiid":"B2094654D56EAAFC4792","title":"星舟广场","lon":"121.52077","lat":"31.27012","category":"201","category_name":"城市广场","address":""},{"poiid":"B2094655D265A3F8449E","title":"佐登妮丝美容SPA生活馆江浦路店","lon":"121.52054","lat":"31.26803","category":"148","category_name":"美容美发店","address":"杨浦区江浦路1147号(近周家嘴路)"},{"poiid":"B2094757D068A3F5449D","title":"长阳路江浦路","lon":"121.52294158","lat":"31.265565872","category":"500","category_name":"未知分类","address":"上海长阳路江浦路"},{"poiid":"B2094654DB6BA2FC4793","title":"自然美","lon":"121.52037","lat":"31.26848","category":"148","category_name":"美容美发店","address":"杨浦区本溪路19号(近凤城路)"},{"poiid":"B2094757D064A4FC409D","title":"浦皓园","lon":"121.520628","lat":"31.269756","category":"500","category_name":"未知分类","address":"上海江浦路1200号"},{"poiid":"B2094655D265A6F8449A","title":"格调星洲","lon":"121.51939","lat":"31.26927","category":"47","category_name":"住宅区","address":"格调星洲位于杨浦江浦路1199号"},{"poiid":"B2094757D065A0F8439C","title":"中国建设银行(星洲城支行)","lon":"121.52082","lat":"31.2683","category":"150","category_name":"银行","address":"杨浦区江浦路1177号(江浦路茭白园路)"},{"poiid":"B2094752D664AAFC489D","title":"巴黎春天","lon":"121.523984","lat":"31.268512","category":"249","category_name":"购物服务","address":"五角场巴黎春天"},{"poiid":"B2094757D068A7FF499C","title":"娘家","lon":"121.52110043","lat":"31.269428401","category":"500","category_name":"未知分类","address":"上海许昌路双辽支路"},{"poiid":"B2094757D465A1FB499E","title":"马记川味麻辣烫 江浦路店","lon":"121.520042054","lat":"31.270678793","category":"87","category_name":"特色／地方风味餐厅","address":"杨浦区江浦路(近中山北二路)"},{"poiid":"B2094757D469A7FC4093","title":"静安面包房 长阳店 JING AN BAKERY","lon":"121.525222054","lat":"31.265359793","category":"112","category_name":"糕饼店","address":"杨浦区长阳路1161号(近江浦路)"},{"poiid":"B2094655D265A2FB499E","title":"上海体育学院附属中学","lon":"121.52173","lat":"31.27177","category":"55","category_name":"中学","address":"周家嘴路2521"},{"poiid":"B2094757D06BAAFC419A","title":"和нONεУの小天地","lon":"121.5241091","lat":"31.268301377","category":"500","category_name":"未知分类","address":"上海昆明路齐齐哈尔路 蒋家浜小街××号"},{"poiid":"B2094654D56EABF94593","title":"快客No.1432","lon":"121.51973","lat":"31.27091","category":"117","category_name":"便民商店/便利店","address":"江浦路1283甲"},{"poiid":"B2094655D26CA6F9449A","title":"阳明苑(北门)","lon":"121.52207","lat":"31.26948","category":"656","category_name":"大门","address":""},{"poiid":"B2094757D16BAAF94193","title":"排挡","lon":"121.523957","lat":"31.267575","category":"500","category_name":"未知分类","address":"上海齐齐哈尔路昆明路口"},{"poiid":"B2094757D16FABFC459B","title":"江浦街道经济园区","lon":"121.51863691","lat":"31.270131691","category":"46","category_name":"楼宇","address":"上海周家嘴路2299号"},{"poiid":"B2094750D76FA1FE419D","title":"潮汕砂煲粥","lon":"121.526","lat":"31.2661","category":"68","category_name":"快餐厅","address":"杨浦区长阳路1183号(长阳欧尚超市对面)"},{"poiid":"B2094757D06BA2F54592","title":"加油宝贝婴幼儿游泳馆(江浦店)","lon":"121.52196928","lat":"31.266816718","category":"128","category_name":"儿童用品店","address":"杨浦区江浦路1074号现代新洲城3期(近江浦公园)"},{"poiid":"B2094757D06BA7FE419F","title":"悸动台湾正宗烧仙草(江浦路店)","lon":"121.51943206","lat":"31.272819519","category":"113","category_name":"冷饮店","address":"杨浦区江浦路1380号(近控江路)"},{"poiid":"B2094757D06AA3FE4399","title":"黄兴路眉州支路","lon":"121.524843603","lat":"31.2683597792","category":"500","category_name":"未知分类","address":"上海黄兴路眉州支路"},{"poiid":"B2094753D264A3FE449D","title":"争鲜回转寿司(壹丰广场店)","lon":"121.520089","lat":"31.271877","category":"247","category_name":"餐饮美食","address":"上海市 虹口区四川北路1363号B1"},{"poiid":"B2094757D16AA1F84793","title":"小峰酒家(长阳路店)","lon":"121.52321","lat":"31.26409","category":"76","category_name":"上海菜","address":"杨浦区长阳路999号(近江浦路)"},{"poiid":"B2094654DB69A5F5449C","title":"格林豪泰酒店(大连路站店)","lon":"121.52268","lat":"31.26442","category":"216","category_name":"经济型连锁酒店","address":"杨浦区长阳路999号"},{"poiid":"B2094655D269AAFB4892","title":"时尚芭莎","lon":"121.52436","lat":"31.26574","category":"247","category_name":"餐饮美食","address":"杨浦区长阳路1111号江浦公园内(近江浦路)"},{"poiid":"B2094655D26CA6FB4698","title":"唐山路1380弄","lon":"121.523","lat":"31.2721","category":"47","category_name":"住宅区","address":"唐山路1380弄"},{"poiid":"B2094757D66EAAFE469B","title":"东方证券长阳路营业部","lon":"121.5200073","lat":"31.270216618","category":"500","category_name":"未知分类","address":"上海长阳路1080号2号楼2、4楼"},{"poiid":"B2094757D66AA7F8439E","title":"筱萍饭店","lon":"121.51975647614","lat":"31.27252126898","category":"68","category_name":"快餐厅","address":"杨浦区江浦路1330号(近周家嘴路)"},{"poiid":"B2094751D364ABF8479D","title":"大悦城","lon":"121.519608","lat":"31.273337","category":"500","category_name":"未知分类","address":"西藏北路161号"},{"poiid":"B2094757D464AAFB4592","title":"乔家栅 江浦店","lon":"121.520070054","lat":"31.272001793","category":"247","category_name":"餐饮美食","address":"杨浦区江浦路1300号(近周家嘴路)"},{"poiid":"B2094655D36DA7FA409A","title":"周家嘴路许昌路","lon":"121.51726","lat":"31.26819","category":"38","category_name":"公交车站","address":""},{"poiid":"B2094654D56EABFF479E","title":"思香林面菜馆 杨浦店","lon":"121.52000535327","lat":"31.271909704411","category":"68","category_name":"快餐厅","address":"杨浦区江浦路1380号-2(近控江路)"},{"poiid":"B2094757D169A0FD4492","title":"肆零贰","lon":"121.520681103","lat":"31.2708734317","category":"500","category_name":"未知分类","address":"上海市杨浦区江浦路周家嘴路"},{"poiid":"B2094655D26FA2F84293","title":"77街坊第一","lon":"121.52252","lat":"31.2658","category":"47","category_name":"住宅区","address":"杨浦区长阳路1021-1039号江浦路989弄1-5号"},{"poiid":"B2094655D26CA6F9439C","title":"江浦公园公共篮球场","lon":"121.52478","lat":"31.26627","category":"229","category_name":"篮球场馆","address":""},{"poiid":"B2094654D56EABFB489D","title":"国大药房周家嘴路店","lon":"121.5182","lat":"31.26946","category":"162","category_name":"医院","address":"江浦路"},{"poiid":"B2094655D26DA4F5449A","title":"阳明苑(西门)","lon":"121.52098","lat":"31.26866","category":"656","category_name":"大门","address":"江浦路1178弄"},{"poiid":"B2094655D26EA3F9469A","title":"江浦路989弄小区(北门)","lon":"121.52249","lat":"31.26573","category":"47","category_name":"住宅区","address":"江浦路989弄"},{"poiid":"B2094654D56EABF4439D","title":"明园大楼","lon":"121.527","lat":"31.2685","category":"46","category_name":"楼宇","address":"上海长阳路860号"},{"poiid":"B2094757D568A6FF4893","title":"宜嘉商务中心","lon":"121.526595","lat":"31.26705528","category":"46","category_name":"楼宇","address":"闸北区江场西路395号"},{"poiid":"B2094757D66CA4F44392","title":"上海卷烟厂中华专线辅助工房","lon":"121.519415571","lat":"31.2653694026","category":"46","category_name":"楼宇","address":"上海杨浦区昆明路887号(近许昌路)"},{"poiid":"B2094655D26DA4FF459E","title":"宜嘉生活广场","lon":"121.52613","lat":"31.26615","category":"119","category_name":"商场","address":"长阳路1181"},{"poiid":"B2094654DB6BA2FC489B","title":"现代星洲城三期(北门)","lon":"121.52101","lat":"31.26852","category":"656","category_name":"大门","address":""},{"poiid":"B2094655D26EA3F9469B","title":"昆明路1268弄小区(东门)","lon":"121.52587","lat":"31.26777","category":"47","category_name":"住宅区","address":"昆明路1268弄"},{"poiid":"B2094655D26EA0FD439C","title":"江浦路989弄小区","lon":"121.5223","lat":"31.26557","category":"47","category_name":"住宅区","address":"江浦路989弄"},{"poiid":"B2094655D26BA7FB479B","title":"商务印刷创意园","lon":"121.52586","lat":"31.26671","category":"45","category_name":"产业园区","address":""},{"poiid":"B2094757D069A5F8499D","title":"870周家嘴路许昌路站","lon":"121.5176705","lat":"31.268198045","category":"38","category_name":"公交车站","address":"上海周家嘴路2198号"},{"poiid":"B2094655D26CA6FB439D","title":"江浦公园齐齐哈尔路出口","lon":"121.5251","lat":"31.26591","category":"196","category_name":"公园","address":""},{"poiid":"B2094654D56EABFF449D","title":"高朋汽车专业美容","lon":"121.51982","lat":"31.27062","category":"159","category_name":"汽车维修","address":"江浦路1277-1279"},{"poiid":"B2094757D069A4FD4999","title":"70路江浦路长阳路站","lon":"121.52312426","lat":"31.265218485","category":"38","category_name":"公交车站","address":"上海市杨浦区江浦路近长阳路北侧"},{"poiid":"B2094757D06AA6FD459D","title":"中国工商银行(长阳支行)","lon":"121.52463","lat":"31.26547","category":"150","category_name":"银行","address":"杨浦区长阳路1140号江浦公园对面(长阳路齐齐哈尔路)"},{"poiid":"B2094655D26CA6F84799","title":"方子桥居委红十字服务站","lon":"121.52632","lat":"31.26944","category":"250","category_name":"公园户外","address":"眉州路西方子桥162"},{"poiid":"B2094655D26FA7FC409F","title":"现代星洲城一期(南门)","lon":"121.52024","lat":"31.26734","category":"48","category_name":"楼宇大门","address":""},{"poiid":"B2094757D169A6FC4499","title":"世锦养生馆","lon":"121.519221103","lat":"31.2703834214","category":"148","category_name":"美容美发店","address":"杨浦区通北路895号(近周家嘴路)"},{"poiid":"B2094757D16EA6FE4399","title":"上海市杨浦区医疗保险事务中心","lon":"121.526113","lat":"31.267957","category":"500","category_name":"未知分类","address":"上海兰州路1118号"},{"poiid":"B2094654DB6BA2FC499B","title":"梅邨(北门)","lon":"121.52287","lat":"31.26538","category":"47","category_name":"住宅区","address":"江浦路969弄"},{"poiid":"B2094655D265A1FC479D","title":"蜀千鸡公煲(杨浦店)","lon":"121.52522","lat":"31.26624","category":"86","category_name":"火锅店","address":"齐齐哈尔路880号(近长阳路)"},{"poiid":"B2094750DA6BA3FC409E","title":"翠华茶餐厅","lon":"121.51712","lat":"31.269126","category":"247","category_name":"餐饮美食","address":null},{"poiid":"B2094757D16AA6FD479E","title":"❤❤Sara`s house❤❤","lon":"121.5197211","lat":"31.267037351","category":"500","category_name":"未知分类","address":"上海·˙`˙·．.．·˙·★H o N e Y .︾;佳︱。"},{"poiid":"B2094757D065A1FE4598","title":"泰鸿苑","lon":"121.51766","lat":"31.267614","category":"252","category_name":"楼宇机构","address":"上海市杨浦区周家嘴路2186号(近双辽路口)"},{"poiid":"B2094655D26CA6F94399","title":"金鹏花园多层住宅","lon":"121.52616","lat":"31.26732","category":"47","category_name":"住宅区","address":"兰州路1151弄"},{"poiid":"B2094750D56DA0FF4993","title":"上海香格里拉大酒店","lon":"121.523162","lat":"31.273412","category":"247","category_name":"餐饮美食","address":"富城路33号"},{"poiid":"B2094654D56EAAFC479E","title":"上海双钱橡胶有限公司销售经营部","lon":"121.52178","lat":"31.26598","category":"255","category_name":"专卖店","address":"昆明路1100号3层"},{"poiid":"B2094655D265A6FC479B","title":"box商务楼","lon":"121.52223","lat":"31.26469","category":"46","category_name":"楼宇","address":"长阳路999号"},{"poiid":"B2094654D56EAAFC469A","title":"杨浦区城市规划展示馆","lon":"121.52434","lat":"31.26516","category":"183","category_name":"展览馆","address":"杨浦区长阳路1111号(近江浦路)"},{"poiid":"B2094753D56DAAF84692","title":"浦东八佰伴","lon":"121.517997","lat":"31.267593","category":"500","category_name":"未知分类","address":"上海市 张杨路"},{"poiid":"B2094655D26CA6F84193","title":"现代星洲城二期(东门)","lon":"121.52006","lat":"31.26904","category":"656","category_name":"大门","address":"江浦路1199弄"},{"poiid":"B2094655D26CA7F5489E","title":"快客No.5008","lon":"121.52663","lat":"31.26724","category":"117","category_name":"便民商店/便利店","address":"兰州路1110"},{"poiid":"B2094757D16DA3F5449E","title":"申之春 江浦店","lon":"121.52009015","lat":"31.270276069","category":"260","category_name":"其他","address":"上海江浦路周家嘴路"},{"poiid":"B2094654D56EABFF4693","title":"良友金伴(江浦路)","lon":"121.51958","lat":"31.27244","category":"117","category_name":"便民商店/便利店","address":"江浦路1380-5临"},{"poiid":"B2094655D26FA0FC469C","title":"现代星洲城三期(南门)","lon":"121.52199","lat":"31.26696","category":"656","category_name":"大门","address":""},{"poiid":"B2094655D26FA0F4489B","title":"金上海家园(东门)","lon":"121.52111","lat":"31.26683","category":"656","category_name":"大门","address":"江浦路1057弄"},{"poiid":"B2094757D169A0F84092","title":"小卡灵顿#小P#训练基地","lon":"121.5190041","lat":"31.270696428","category":"500","category_name":"未知分类","address":"上海杨浦区双辽路155弄16号"},{"poiid":"B2094757D16FABFE429B","title":"教科院附中羽毛球馆","lon":"121.52156","lat":"31.26448","category":"220","category_name":"运动场所","address":"杨浦区怀德路1000号(近长阳路)"},{"poiid":"B2094757D069ABF8459D","title":"江浦公园篮球场","lon":"121.52479365","lat":"31.266286509","category":"220","category_name":"运动场所","address":"齐齐哈儿路920号上海印刷厂对面"},{"poiid":"B2094757D16BA0FC479E","title":"欧玛丽","lon":"121.522667398","lat":"31.2719891805","category":"249","category_name":"购物服务","address":"上海桃江路42"},{"poiid":"B2094757D068A6FB499C","title":"电控研究所","lon":"121.5205451","lat":"31.272105457","category":"253","category_name":"校园生活","address":"上海市杨浦区江浦路1380号"},{"poiid":"B2094655D26CA6F9439E","title":"金鹏花园多层住宅(东门)","lon":"121.52637","lat":"31.26715","category":"47","category_name":"住宅区","address":"兰州路1151弄"},{"poiid":"B2094757D66CA4F54993","title":"东方有线网络有限公司(杨浦分公司)","lon":"121.524705403","lat":"31.2645614998","category":"46","category_name":"楼宇","address":"上海杨浦区长阳路1080号(汇星广场)"},{"poiid":"B2094757D568ABFD489E","title":"双辽水站","lon":"121.518676","lat":"31.270191","category":"255","category_name":"专卖店","address":"中国上海市杨浦区双辽路"},{"poiid":"B2094757D164A7FC4293","title":"香港修身堂纤体美容会所","lon":"121.526666","lat":"31.267181","category":"148","category_name":"美容美发店","address":"上海杨浦区兰州路1104号"},{"poiid":"B2094654DB6BA2FC4999","title":"上岛咖啡(长阳店)","lon":"121.52452","lat":"31.26456","category":"260","category_name":"其他","address":"杨浦区长阳路1080号2号楼(近江浦路)"},{"poiid":"B2094655D36CA5F8469D","title":"长阳路怀德路","lon":"121.5224","lat":"31.26401","category":"38","category_name":"公交车站","address":""},{"poiid":"B2094654D56EABFA439E","title":"双辽菜市场","lon":"121.51732","lat":"31.27027","category":"117","category_name":"便民商店/便利店","address":""},{"poiid":"B2094757D169A6F84392","title":"老俞头面馆","lon":"121.5219151","lat":"31.264161291","category":"247","category_name":"餐饮美食","address":"上海市杨浦区霍山路近许昌路"},{"poiid":"B209475DD56AAAF8499E","title":"上海奥迪国际赛车场","lon":"121.517929","lat":"31.26703","category":"248","category_name":"生活娱乐","address":"上海市 嘉定"},{"poiid":"B2094654D56EABF5439F","title":"信通浦皓园(北门)","lon":"121.5223","lat":"31.27116","category":"656","category_name":"大门","address":""},{"poiid":"B2094654D56EABF9449B","title":"上海医药高等专科学校临床三部","lon":"121.51905","lat":"31.27277","category":"52","category_name":"高等院校","address":"江浦路1379"},{"poiid":"B2094654DB65A2F84092","title":"上海医药高等专科学校继续教育学院","lon":"121.51905","lat":"31.27277","category":"52","category_name":"高等院校","address":"江浦路1379"},{"poiid":"B2094757D069ABFE419B","title":"江浦路街道办事处","lon":"121.5179441","lat":"31.270090415","category":"500","category_name":"未知分类","address":"上海市杨浦区周家嘴路2299号"},{"poiid":"B2094654D56EAAFD449B","title":"信通浦皓园(东门)","lon":"121.52284","lat":"31.27126","category":"656","category_name":"大门","address":"兰州路1333弄"},{"poiid":"B2094757D168AAF9439C","title":"顶好蛙干锅","lon":"121.522278","lat":"31.264044","category":"247","category_name":"餐饮美食","address":"上海杨浦区双阳路店，近长阳路"},{"poiid":"B2094655D26CA6FB4399","title":"成昂里","lon":"121.52363","lat":"31.26416","category":"47","category_name":"住宅区","address":"长阳路1042弄"},{"poiid":"B2094655D26FA0FE449A","title":"长阳楼(东门)","lon":"121.52157","lat":"31.26403","category":"47","category_name":"住宅区","address":"长阳路941弄1-3号"},{"poiid":"B2094655D26CA6FB439E","title":"华安坊(北门)","lon":"121.52251","lat":"31.26389","category":"47","category_name":"住宅区","address":"长阳路972"},{"poiid":"B2094757D66EABF9449B","title":"迪亚天天","lon":"121.525105713","lat":"31.2662847558","category":"249","category_name":"购物服务","address":"上海兰州路1112号"},{"poiid":"B2094757D16DA2F9439C","title":"长阳路999号商务楼","lon":"121.522457103","lat":"31.2648823065","category":"500","category_name":"未知分类","address":"上海市杨浦区长阳路999号商务楼"},{"poiid":"B2094757D06BA5FA4492","title":"教科院附中","lon":"121.52129364","lat":"31.264753341","category":"253","category_name":"校园生活","address":"上海杨浦区怀德路1000号"},{"poiid":"B2094757D16DA1F84199","title":"卡洛DIY烘培教室","lon":"121.525969103","lat":"31.2666153427","category":"500","category_name":"未知分类","address":"上海新闸路777弄3号1B"},{"poiid":"B2094655D26EA1FC4898","title":"江浦路1275弄小区(东门)","lon":"121.51974","lat":"31.2708","category":"656","category_name":"大门","address":"江浦路1275弄"},{"poiid":"B2094757D569A7F4409D","title":"诚品书店长阳路店","lon":"121.5223611","lat":"31.26409111","category":"125","category_name":"书店","address":"长阳路983号"},{"poiid":"B2094750DA6EA2FE4293","title":"上海虹桥火车站","lon":"121.518051","lat":"31.270372","category":"251","category_name":"出行住宿","address":"闵行区"},{"poiid":"B2094655D26FA0FD4392","title":"现代星洲城二期(北门)","lon":"121.51885","lat":"31.26917","category":"656","category_name":"大门","address":"江浦路1199弄40-44号"},{"poiid":"B2094655D26EA1FD459D","title":"江浦公园(南门)","lon":"121.52468","lat":"31.26525","category":"680","category_name":"楼宇机构","address":"长阳路1111"},{"poiid":"B2094654D56EAAFC479F","title":"金上海家园(南门)","lon":"121.52119","lat":"31.26606","category":"656","category_name":"大门","address":"昆明路1147"},{"poiid":"B2094757D06AA1FE4292","title":"小特拉福德","lon":"121.518017103","lat":"31.266580342","category":"500","category_name":"未知分类","address":"上海市杨浦区许昌路1128弄"},{"poiid":"B2094757D16BA3FB489B","title":"伍缘便利(齐齐哈尔路)","lon":"121.52547338","lat":"31.265882244","category":"249","category_name":"购物服务","address":"上海齐齐哈尔路868号"},{"poiid":"B2094655D26BA0F9409F","title":"333车管家周家嘴店","lon":"121.51737","lat":"31.26791","category":"159","category_name":"汽车维修","address":"周家嘴路2168、2172、2180"},{"poiid":"B2094757D66CA0F8439E","title":"陆旺台球","lon":"121.5249531","lat":"31.264875306","category":"171","category_name":"台球厅","address":"上海市杨浦区长阳路江浦路口"},{"poiid":"B2094757D06BA7FC409A","title":"金桥高点桌球","lon":"121.52508976","lat":"31.265240347","category":"248","category_name":"生活娱乐","address":"上海金桥国际商业广场"},{"poiid":"B2094757D66DA2FD4093","title":"东方有线营业厅","lon":"121.524156103","lat":"31.2645202989","category":"150","category_name":"银行","address":"上海江浦路826号"},{"poiid":"B2094654D56EAAFC4592","title":"时尚芭莎别墅摄影","lon":"121.52468","lat":"31.26542","category":"248","category_name":"生活娱乐","address":""},{"poiid":"B2094757D16BA5FF4898","title":"江浦堂","lon":"121.5268381","lat":"31.267019351","category":"500","category_name":"未知分类","address":"上海市杨浦区齐齐哈尔路"},{"poiid":"B2094757D16BA4F54399","title":"杨浦区安图医院传染病分院","lon":"121.517932103","lat":"31.2715374456","category":"500","category_name":"未知分类","address":"上海杨浦区松花江路3号"},{"poiid":"B2094654D56EABF4409E","title":"江浦路1275弄小区(西门)","lon":"121.51867","lat":"31.27052","category":"656","category_name":"大门","address":"江浦路1275弄10-15号"},{"poiid":"B2094655D26CA6F9409D","title":"江升公寓(东门)","lon":"121.52182","lat":"31.2732","category":"48","category_name":"楼宇大门","address":"长浜路330弄"},{"poiid":"B2094655D26DA4F5439B","title":"金鹏花园(北门)","lon":"121.526","lat":"31.26808","category":"656","category_name":"大门","address":""},{"poiid":"B2094757D66CA3FE4193","title":"双英婚庆","lon":"121.524105103","lat":"31.2644597977","category":"263","category_name":"公司","address":"杨浦区长阳路1163号-1167号(齐齐哈尔路口)查看地图"},{"poiid":"B2094750DB6BA6FC4492","title":"苏州阳澄湖澜庭度假酒店","lon":"121.517425","lat":"31.267642","category":"251","category_name":"出行住宿","address":"江苏省苏州市吴中区莲花路"},{"poiid":"B2094654D56EAAFC4293","title":"金鹏花园(西门)","lon":"121.52556","lat":"31.26579","category":"656","category_name":"大门","address":"江浦路"},{"poiid":"B2094655D26FA0FC4799","title":"金鹏花园(东门)","lon":"121.52664","lat":"31.26662","category":"656","category_name":"大门","address":"兰州路1101弄"},{"poiid":"B2094655D26FA7FE479F","title":"泰鸿苑(北门)","lon":"121.51741","lat":"31.26799","category":"656","category_name":"大门","address":"周家嘴路2188弄"},{"poiid":"B2094655D26CA6F8479C","title":"金鹏花园(南门)","lon":"121.52678","lat":"31.26702","category":"656","category_name":"大门","address":"兰州路1100弄"},{"poiid":"B2094654D56EAAFD4393","title":"康阳小区(北门)","lon":"121.52487","lat":"31.26486","category":"656","category_name":"大门","address":"长阳路1120弄"}]