[{"poiid":"B2094654DA6AA4FE4793","title":"玉兰香苑","lon":"121.63323","lat":"31.200127","category":"47","category_name":"住宅区","address":"上海市浦东新区益江路126弄、益江路286弄"},{"poiid":"B2094757D06EAAF84399","title":"广兰路地铁站","lon":"121.61999759","lat":"31.210776628","category":"36","category_name":"地铁站","address":"上海轨道交通二号线广兰路站"},{"poiid":"B2094757D068A7F8409D","title":"展讯豪生酒店","lon":"121.62515517","lat":"31.206159597","category":"217","category_name":"旅馆招待所","address":"上海市浦东新区祖冲之路2288弄（近申江路）"},{"poiid":"B2094757D06FA0FF409F","title":"阳光花城","lon":"121.62379","lat":"31.207195","category":"500","category_name":"未知分类","address":"上海市浦东新区紫薇路667弄"},{"poiid":"B2094757D06FABFD439A","title":"张江集电港二期","lon":"121.635397","lat":"31.216483","category":"47","category_name":"住宅区","address":"浦东新区张东路1387号"},{"poiid":"B2094750DA6DA0FB429E","title":"张江家乐福","lon":"121.638771","lat":"31.203567","category":"249","category_name":"购物服务","address":"浦东新区张江高科中路2860号(近张东路)"},{"poiid":"B2094655D36DA0F54292","title":"玉兰香苑二期A块","lon":"121.63422596141","lat":"31.202460117491","category":"38","category_name":"公交车站","address":"益江路511弄"},{"poiid":"B2094757D46BA5FE4492","title":"妈妈糖休闲咖啡馆 张东路店","lon":"121.6361072","lat":"31.2006146","category":"65","category_name":"咖啡厅","address":"浦东新区张东路1387号集电子社区中心2楼"},{"poiid":"B2094655D36DA0F54293","title":"玉兰香苑二期C块","lon":"121.63363854614","lat":"31.203943272246","category":"38","category_name":"公交车站","address":"益江路396弄"},{"poiid":"B2094655D36DA6FD439B","title":"广兰路","lon":"121.61996","lat":"31.21077","category":"38","category_name":"公交车站","address":""},{"poiid":"B2094757D06FAAFB449D","title":"玉兰香苑一期","lon":"121.633535","lat":"31.200113","category":"47","category_name":"住宅区","address":"上海浦东新区益江路126弄"},{"poiid":"B2094757D164AAF54999","title":"肯德基","lon":"121.63701427","lat":"31.203571737","category":"68","category_name":"快餐厅","address":"浦东新区高科中路2860号家乐福(近外环线)"},{"poiid":"B2094757D06AA4FA4692","title":"展讯中心","lon":"121.634","lat":"31.2169","category":"500","category_name":"未知分类","address":"上海浦东新区张江高科祖冲之路2288弄1号楼"},{"poiid":"B2094757D069A5FE489C","title":"威尔士健身会所(张江店)","lon":"121.62643","lat":"31.20966","category":"221","category_name":"健身中心","address":"浦东新区祖冲之路2288号(近申江路)"},{"poiid":"B2094757D069A1FB439B","title":"容源大酒店","lon":"121.620157963","lat":"31.2053299054","category":"72","category_name":"广东菜","address":"浦东新区广兰路1080号(紫薇路口)"},{"poiid":"B2094757D16BABF8499A","title":"张衡公园","lon":"121.63056797","lat":"31.195238242","category":"196","category_name":"公园","address":"浦东新区张衡路2380号(近益江路)"},{"poiid":"B2094757D064A5F8489C","title":"阿玛达量贩式歌城","lon":"121.63179397","lat":"31.199798349","category":"170","category_name":"KTV","address":"浦东新区盛夏路1053号(近休闲广场)"},{"poiid":"B2094757D06BA5FD4499","title":"永和大王(张江家乐福店)","lon":"121.63938","lat":"31.20406","category":"68","category_name":"快餐厅","address":"浦东新区高科中路2860号家乐福2楼"},{"poiid":"B2094757D069A3FC499C","title":"玉兰香苑2期","lon":"121.628673","lat":"31.199725","category":"47","category_name":"住宅区","address":"上海浦东张江益江路511弄"},{"poiid":"B2094654DA6AA5F94892","title":"兰沁苑","lon":"121.62245","lat":"31.205448","category":"47","category_name":"住宅区","address":"紫薇路750弄"},{"poiid":"B2094655D36DA7FD429B","title":"张东路高科中路","lon":"121.63504","lat":"31.20261","category":"38","category_name":"公交车站","address":""},{"poiid":"B2094757D165A3F5459B","title":"辣翻天川菜馆","lon":"121.62999725","lat":"31.20569992","category":"71","category_name":"四川菜","address":"浦东新区盛夏路119号旁(近金秋路)"},{"poiid":"B2094757D06BA7F4409C","title":"益江路盛夏路","lon":"121.631069975","lat":"31.1993963396","category":"500","category_name":"未知分类","address":"上海益江路盛夏路615终点站"},{"poiid":"B2094655D265A5F4459D","title":"格林豪泰酒店上海张江店","lon":"121.62062","lat":"31.20499","category":"216","category_name":"经济型连锁酒店","address":"浦东新区广兰路1090号"},{"poiid":"B2094757D064A5FE449E","title":"春港丽园","lon":"121.62296","lat":"31.201822","category":"260","category_name":"其他","address":"上海浦东新区益丰路55弄"},{"poiid":"B2094757D465ABF84192","title":"重庆龙门鱼府","lon":"121.629337054","lat":"31.202154793","category":"86","category_name":"火锅店","address":"浦东新区盛夏路1105号(近高科中路)"},{"poiid":"B2094757D76EA7FA429D","title":"苏州羊肉面馆 盛夏路店","lon":"121.6293","lat":"31.20596","category":"68","category_name":"快餐厅","address":"浦东新区盛夏路(近益江路)"},{"poiid":"B2094757D069ABFC4092","title":"张江中学足球场","lon":"121.6172","lat":"31.20647","category":"253","category_name":"校园生活","address":"浦东新区江东路54号张江体育中心"},{"poiid":"B2094757D06BA2FE469F","title":"釜膳阁韩式无限量自助烤肉","lon":"121.63325","lat":"31.19981","category":"268","category_name":"自助","address":"浦东新区益江路135弄61号(近玉兰香苑)"},{"poiid":"B2094750D568ABF84299","title":"上海天之骄子","lon":"121.62937","lat":"31.211645","category":"47","category_name":"住宅区","address":"浦东祖冲之路2305号(盛夏路口)"},{"poiid":"B2094757D469A7F9499D","title":"重庆鸡公煲 盛夏路店","lon":"121.630114054","lat":"31.198315793","category":"71","category_name":"四川菜","address":"浦东新区盛夏路(盛夏路益江路)"},{"poiid":"B2094654DA6AA4FC4992","title":"东方戏曲艺术学院","lon":"121.63253","lat":"31.20212","category":"52","category_name":"高等院校","address":"高科路"},{"poiid":"B2094751D464A2FE469F","title":"上海中医药大学附属曙光医院","lon":"121.632778","lat":"31.202644","category":"162","category_name":"医院","address":"上海市浦东新区张衡路"},{"poiid":"B2094757DA65A1FD4393","title":"正大广场","lon":"121.631757","lat":"31.200753","category":"249","category_name":"购物服务","address":"陆家嘴"},{"poiid":"B2094757D16EA1FB4692","title":"广兰公园","lon":"121.620380975","lat":"31.2052764771","category":"196","category_name":"公园","address":"浦东新区广兰路965号(近紫薇路)"},{"poiid":"B2094655D36CA1FC469B","title":"盛夏路益江路","lon":"121.63148","lat":"31.19999","category":"38","category_name":"公交车站","address":""},{"poiid":"B2094757D06AA1F5439E","title":"东风日产冠松专营店","lon":"121.62199556","lat":"31.198545819","category":"500","category_name":"未知分类","address":"上海浦东新区张江路1160号"},{"poiid":"B2094757D16BA6F94199","title":"钱万隆大酒店","lon":"121.624439975","lat":"31.207584531","category":"247","category_name":"餐饮美食","address":"上海广兰路778号"},{"poiid":"B2094757D66BABF9459D","title":"蜀膳传火锅传奇 盛夏路店","lon":"121.632376","lat":"31.199197","category":"86","category_name":"火锅店","address":"浦东新区益江路135弄7号玉兰香苑休闲广场附近(近张东路)"},{"poiid":"B2094757D064A2F94098","title":"蜀洲渔府","lon":"121.629984054","lat":"31.199281793","category":"71","category_name":"四川菜","address":"浦东新区盛夏路146号(盛夏路益江路)"},{"poiid":"B2094757D069A6FB4193","title":"玉兰香苑三期","lon":"121.63968528917","lat":"31.20365227148","category":"500","category_name":"未知分类","address":"上海浦东新区益江路玉兰香苑三期"},{"poiid":"B2094750D768A4FA439C","title":"老北桥过桥米线(高科中路店)","lon":"121.638","lat":"31.2038","category":"68","category_name":"快餐厅","address":"浦东新区高科中路2860号家乐福1楼"},{"poiid":"B2094752D76EABFE409E","title":"光头烧烤","lon":"121.625321","lat":"31.204643","category":"247","category_name":"餐饮美食","address":null},{"poiid":"B2094757D16BA4FE4393","title":"苏州精制面食","lon":"121.63354347","lat":"31.200915275","category":"68","category_name":"快餐厅","address":"浦东新区盛夏路1065号(近玉兰香苑休闲广场)"},{"poiid":"B2094654DA6AA5FD449B","title":"贝越流明新苑","lon":"121.62178","lat":"31.202263","category":"47","category_name":"住宅区","address":"上海市浦东新区紫薇路228号"},{"poiid":"B2094757D06BA5FB4693","title":"苏武牧羊(张江店)","lon":"121.62132","lat":"31.20456","category":"86","category_name":"火锅店","address":"浦东新区广兰路1128号(近紫薇路)"},{"poiid":"B2094655D36DA7FB449E","title":"祖冲之路申江路","lon":"121.6266","lat":"31.21147","category":"38","category_name":"公交车站","address":""},{"poiid":"B2094757D568A6F8409E","title":"傣妹(张江店)","lon":"121.638185","lat":"31.205402","category":"86","category_name":"火锅店","address":"浦东新区张江高科技园区高科中路2860号家乐福1楼(近玉兰香苑)"},{"poiid":"B2094757D169ABFD479B","title":"雪乡人家(益江路店)","lon":"121.6328","lat":"31.19966","category":"82","category_name":"东北菜","address":"浦东新区益江路125号(近盛夏路)"},{"poiid":"B2094757D66DA2F4439F","title":"灵悟瑜伽","lon":"121.632391775","lat":"31.2059231922","category":"220","category_name":"运动场所","address":"上海玉兰广场内"},{"poiid":"B2094753D36EA4F4439A","title":"光头烧烤（盛夏店）","lon":"121.631909","lat":"31.199677","category":"247","category_name":"餐饮美食","address":"上海市浦东新区盛夏路926号"},{"poiid":"B2094757D064AAF5499F","title":"瑞慈健康管理中心(张东路店)","lon":"121.6329","lat":"31.21723","category":"162","category_name":"医院","address":"上海浦东新区张东路1388号15幢(近丹桂路)"},{"poiid":"B2094752D16FA4FD449C","title":"北京大学上海微电子研究院","lon":"121.631226","lat":"31.205564","category":"252","category_name":"楼宇机构","address":"盛夏路608号"},{"poiid":"B2094655D36DA7FD429A","title":"张东路","lon":"121.63561","lat":"31.20149","category":"38","category_name":"公交车站","address":""},{"poiid":"B2094757D069A4FB429B","title":"香香川菜","lon":"121.616353","lat":"31.203218","category":"71","category_name":"四川菜","address":"浦东新区张江镇紫薇路217号(近张江路)"},{"poiid":"B2094757D569A0FE409C","title":"张江功能区域管理委员会办公大楼","lon":"121.63428","lat":"31.20779","category":"46","category_name":"楼宇","address":"高科中路3039号"},{"poiid":"B2094655D36DA0FA489E","title":"益江路","lon":"121.62522","lat":"31.20239","category":"38","category_name":"公交车站","address":""},{"poiid":"B2094757D06BA7FD4593","title":"911桌球俱乐部","lon":"121.63183258","lat":"31.199552293","category":"171","category_name":"台球厅","address":"上海张江"},{"poiid":"B2094654DA6BA2F4459F","title":"益丰新村","lon":"121.6306","lat":"31.198364","category":"47","category_name":"住宅区","address":"华益路80号"},{"poiid":"B2094753D76CABF5489E","title":"樟盛苑","lon":"121.633468","lat":"31.205936","category":"500","category_name":"未知分类","address":"上海市 浦东新区盛夏路738弄"},{"poiid":"B2094654DA6AA6F4429A","title":"广兰名苑","lon":"121.62022","lat":"31.20352","category":"47","category_name":"住宅区","address":"上海市浦东新区广兰路1166弄"},{"poiid":"B2094655D36CA2F5479E","title":"申江路高科中路","lon":"121.62507","lat":"31.20214","category":"38","category_name":"公交车站","address":""},{"poiid":"B2094655D36DA7FB4292","title":"紫薇路申江路","lon":"121.62439","lat":"31.20672","category":"38","category_name":"公交车站","address":""},{"poiid":"B2094757D76DA2F5409D","title":"哈贝斯酒吧","lon":"121.6332556","lat":"31.1998108","category":"260","category_name":"其他","address":"浦东新区益江路135弄23号玉兰香苑休闲广场内(高科中路盛夏路)"},{"poiid":"B2094655D36DA7FD449D","title":"张江路高科中路","lon":"121.62176","lat":"31.1991","category":"38","category_name":"公交车站","address":""},{"poiid":"B2094757D16BA2F5409D","title":"猫小乖之家","lon":"121.631393317","lat":"31.2016281656","category":"500","category_name":"未知分类","address":null},{"poiid":"B209475CD26AAAFB459E","title":"星巴克（展想广场店）","lon":"121.631019","lat":"31.208768","category":"500","category_name":"未知分类","address":"上海市 上海市浦东新区张江高科祖冲之路2288号展想广场"},{"poiid":"B2094654DA6AA6FB479F","title":"富豪公园","lon":"121.62583","lat":"31.20151","category":"196","category_name":"公园","address":"申江路"},{"poiid":"B2094757D66DA0F94093","title":"盖臣商务楼","lon":"121.628","lat":"31.2019","category":"252","category_name":"楼宇机构","address":"上海浦东张江蔡伦路103号"},{"poiid":"B2094752D468A1FF439A","title":"玉兰香苑四期","lon":"121.632918","lat":"31.204433","category":"251","category_name":"出行住宿","address":"张东路2281弄"},{"poiid":"B2094757D66CA6F84398","title":"溢香坊","lon":"121.63205","lat":"31.19876","category":"71","category_name":"四川菜","address":"浦东新区益江路135弄88号(近盛夏路)"},{"poiid":"B2094757D568ABFA429A","title":"盛夏超市","lon":"121.6310111","lat":"31.20016","category":"118","category_name":"超级市场","address":"浦东新区盛夏路126号(盛夏路益江路)"},{"poiid":"B2094757D065A1FF499F","title":"独秀馒头(益江路店)","lon":"121.63192","lat":"31.19883","category":"68","category_name":"快餐厅","address":"浦东新区益江路(盛夏路益江路)"},{"poiid":"B2094654DA6AA6F9429F","title":"浦东新区张江社区卫生服务中心","lon":"121.62635","lat":"31.19739","category":"162","category_name":"医院","address":"浦东新区益江路458号"},{"poiid":"B2094757D06AA3FB479E","title":"感恩堂","lon":"121.62321","lat":"31.21502","category":"500","category_name":"未知分类","address":"浦东新区丹桂路700号(丹桂路青桐路)"},{"poiid":"B2094752D569A6F4449E","title":"上海国际赛车场","lon":"121.630923","lat":"31.200627","category":"500","category_name":"未知分类","address":null},{"poiid":"B2094752D569A6FF469D","title":"东方明珠旋转餐厅","lon":"121.630936","lat":"31.199753","category":"500","category_name":"未知分类","address":"上海市陆家嘴"},{"poiid":"B2094757D66EA6F8489F","title":"张江管委会","lon":"121.635683475","lat":"31.2046860632","category":"500","category_name":"未知分类","address":"上海高科中路3039号"},{"poiid":"B2094750D26AA4F9499F","title":"日月光集团员工生活区","lon":"121.635108","lat":"31.205417","category":"627","category_name":"一般地点标志","address":"高科中路2947号"},{"poiid":"B2094752D165A5F84098","title":"金逸影城","lon":"121.636718","lat":"31.201854","category":"178","category_name":"电影院","address":"张江高科"},{"poiid":"B2094757D16CA7F5479B","title":"竹园中学羽毛球馆","lon":"121.631812475","lat":"31.1981373101","category":"253","category_name":"校园生活","address":"浦东新区益江路350号玉兰香苑二期C块"},{"poiid":"B2094757D06AA0FB449B","title":"联华超市(益江店)","lon":"121.63156","lat":"31.19907","category":"118","category_name":"超级市场","address":"浦东新区益江路246号(近盛夏路)"},{"poiid":"B2094757D16FA5FA439B","title":"中环高科中路出口","lon":"121.63176427","lat":"31.199287537","category":"500","category_name":"未知分类","address":"上海中环"},{"poiid":"B2094757D168ABF5459D","title":"古桐三村","lon":"121.625","lat":"31.2062","category":"252","category_name":"楼宇机构","address":"上海市浦东新区张江高斯路1296弄60号401室。"},{"poiid":"B2094757D66DAAFF469C","title":"南门幼儿园","lon":"121.629309975","lat":"31.198088309","category":"57","category_name":"幼儿园","address":"浦东新区益江路(近盛夏路)"},{"poiid":"B2094757D16BA5FA4899","title":"红廊","lon":"121.62895","lat":"31.21183","category":"268","category_name":"自助","address":"浦东新区祖冲之路2288弄上海展讯豪生酒店1楼(近申江路)"},{"poiid":"B2094757D06AA7FA429C","title":"张江益丰小区","lon":"121.63217163","lat":"31.199531555","category":"500","category_name":"未知分类","address":"上海浦东新区益江路"},{"poiid":"B2094757D16FA3FC439B","title":"世和商务中心","lon":"121.62624997","lat":"31.213459668","category":"500","category_name":"未知分类","address":"上海市浦东新区祖冲之路2277弄"},{"poiid":"B2094750D165A0FD469D","title":"香香菜煎饼坊","lon":"121.633094","lat":"31.199054","category":"68","category_name":"快餐厅","address":"浦东新区益江路135弄24号(近好邻居大药房)"},{"poiid":"B2094655D36DA0FA489D","title":"益江小区","lon":"121.62853","lat":"31.19857","category":"47","category_name":"住宅区","address":""},{"poiid":"B2094757D66CA6FA489F","title":"Howard Johnson","lon":"121.62408597","lat":"31.207421527","category":"500","category_name":"未知分类","address":"上海市浦东新区祖冲之路"},{"poiid":"B2094654DA6BA2F4459C","title":"兄弟水果大卖场","lon":"121.63175","lat":"31.19893","category":"117","category_name":"便民商店/便利店","address":""},{"poiid":"B2094757D165A7FB499E","title":"移動營業廳","lon":"121.623680405","lat":"31.2042122622","category":"150","category_name":"银行","address":"上海廣蘭路、紫薇路口"},{"poiid":"B209475CDB6BABF9469C","title":"世纪公园","lon":"121.633193","lat":"31.199264","category":"500","category_name":"未知分类","address":"上海市 世纪公园"},{"poiid":"B2094757D16EA0F8429C","title":"大众4S","lon":"121.62269197","lat":"31.197910304","category":"500","category_name":"未知分类","address":"上海市浦东新区张江路"},{"poiid":"B2094757D16AABFA419A","title":"will's 张江店","lon":"121.626645","lat":"31.210287","category":"500","category_name":"未知分类","address":"上海张江高科技园区祖冲之路2288号(展讯豪生酒店)"},{"poiid":"B2094757D164AAF5419D","title":"Tea Story","lon":"121.629840975","lat":"31.1989683296","category":"500","category_name":"未知分类","address":"上海益江路366号"},{"poiid":"B2094757D469A5F8489C","title":"湘阁里辣 高斯路店","lon":"121.6176727","lat":"31.2006433","category":"77","category_name":"湖南菜","address":"浦东新区高斯路1272-1274号(近张江路)"},{"poiid":"B2094757D16DA1FA459C","title":"永琪美容美发(益江店)","lon":"121.63273","lat":"31.19922","category":"148","category_name":"美容美发店","address":"上海浦东新区益江路123号(近盛夏路)  "},{"poiid":"B2094757D16CA2F44899","title":"佛山咏春拳研习班(张江分部)","lon":"121.63351","lat":"31.19982","category":"220","category_name":"运动场所","address":"浦东新区建中路126弄2栋1号对面"},{"poiid":"B2094655D264A5F9469D","title":"移动申江路基站组办公楼","lon":"121.62125","lat":"31.20387","category":"46","category_name":"楼宇","address":"广兰路1140号"},{"poiid":"B2094757D165A4F8409D","title":"桂林攻略","lon":"121.631949475","lat":"31.1997088469","category":"260","category_name":"其他","address":"浦东新区益江路135弄玉兰香苑休闲广场22号B室"},{"poiid":"B2094757DA6FA2F5469E","title":"张江国家数字出版基地","lon":"121.62893056869507","lat":"31.21069099597688","category":"252","category_name":"楼宇机构","address":"上海 上海市 盛夏路570号"},{"poiid":"B2094654DA6AA5FD4493","title":"中国移动通信张江营业厅","lon":"121.62125","lat":"31.20387","category":"151","category_name":"电讯营业厅","address":"浦东新区广兰路1140号"},{"poiid":"B2094757D065ABFC4899","title":"张江有轨电车1路广兰路祖冲之路站","lon":"121.618309631","lat":"31.2099641454","category":"36","category_name":"地铁站","address":"上海浦东新区广兰路祖冲之路交会口"},{"poiid":"B2094654DA6AA6F9429C","title":"益江菜市场","lon":"121.62749","lat":"31.19805","category":"117","category_name":"便民商店/便利店","address":""},{"poiid":"B2094654DA6AA6FC4999","title":"团结工贸公司工业气供应体站","lon":"121.62681","lat":"31.19809","category":"45","category_name":"产业园区","address":"申江路"},{"poiid":"B2094757D16EA3FA4199","title":"震轩美容美发(益江路店)","lon":"121.63238","lat":"31.19895","category":"148","category_name":"美容美发店","address":"浦东新区益江路131号(近盛夏路)"},{"poiid":"B2094757D66FA0FF4198","title":"益江路335号","lon":"121.62990897","lat":"31.198851326","category":"500","category_name":"未知分类","address":"上海益江路335"},{"poiid":"B2094654DA6AA5FD469E","title":"上海市张江中学(江东路)","lon":"121.61783","lat":"31.20693","category":"55","category_name":"中学","address":"浦东张江江东路54号"},{"poiid":"B2094750D26FA1FB469E","title":"上海船舶研究设计院","lon":"121.632415","lat":"31.211235","category":"252","category_name":"楼宇机构","address":"祖冲之路2633号"},{"poiid":"B2094757D06BA1F9419D","title":"川杨新苑","lon":"121.634","lat":"31.1944","category":"47","category_name":"住宅区","address":"上海市浦东新区中科路2195弄,2166弄,2566弄,2500弄,顺和路60弄,126弄,236弄"},{"poiid":"B2094654DA6AA5FD419F","title":"好德(广兰路)","lon":"121.62094","lat":"31.20327","category":"117","category_name":"便民商店/便利店","address":""},{"poiid":"B2094655D36DA7FD4299","title":"张东路祖冲之路","lon":"121.63276","lat":"31.21281","category":"38","category_name":"公交车站","address":""},{"poiid":"B2094757D465A0FB4593","title":"东北家乡菜浦东店","lon":"121.628631054","lat":"31.211942793","category":"82","category_name":"东北菜","address":"浦东新区益江路135弄2号(近盛夏路)"},{"poiid":"B2094757D16EA5F4459B","title":"申江路祖冲之路","lon":"121.626783","lat":"31.211311","category":"500","category_name":"未知分类","address":"上海申江路祖冲之路"},{"poiid":"B2094757D66CA0FB419C","title":"鸡汤刀削面","lon":"121.632299475","lat":"31.197247856","category":"247","category_name":"餐饮美食","address":"上海张江镇玉兰香苑三期"},{"poiid":"B2094655D265A1FD449F","title":"喜士多便利(广兰店)","lon":"121.62085","lat":"31.20469","category":"117","category_name":"便民商店/便利店","address":"张江镇广兰路1114号"},{"poiid":"B2094753D468AAFB4992","title":"贝贝树幼儿园","lon":"121.621078","lat":"31.206233","category":"57","category_name":"幼儿园","address":"上海市 紫微路600号"},{"poiid":"B2094757D06FA5F8409D","title":"三金殿","lon":"121.6361072","lat":"31.2006146","category":"500","category_name":"未知分类","address":null},{"poiid":"B2094654DA6AA5FD449C","title":"世纪华联广兰店","lon":"121.62123","lat":"31.20401","category":"118","category_name":"超级市场","address":"广兰路1136"},{"poiid":"B2094757D069AAF5459A","title":"外汇交易中心","lon":"121.63539886","lat":"31.216482162","category":"500","category_name":"未知分类","address":"上海张东路1387号"},{"poiid":"B2094757D164A0FB449D","title":"张江卫生院","lon":"121.623188255","lat":"31.1984433573","category":"162","category_name":"医院","address":"上海玉兰香苑"},{"poiid":"B2094757D66DA1FB489D","title":"上海华虹NEC电子有限公司一厂动力部运行科监控室","lon":"121.62364467","lat":"31.200593467","category":"500","category_name":"未知分类","address":"上海动力栋2F"},{"poiid":"B2094757D465A2F4429F","title":"龙江菜饺子馆","lon":"121.617213054","lat":"31.203894793","category":"68","category_name":"快餐厅","address":"浦东新区张江路678号(近紫薇路)"},{"poiid":"B2094757D16CA0F5479C","title":"有轨电车高斯路张江路站","lon":"121.62278836","lat":"31.198911658","category":"500","category_name":"未知分类","address":"上海高斯路"},{"poiid":"B2094655D36CA6FE419D","title":"高科中路芳春路","lon":"121.64049","lat":"31.20532","category":"38","category_name":"公交车站","address":""},{"poiid":"B209475CD26FA6FA439F","title":"浦东国际机场二号航站楼","lon":"121.637092","lat":"31.199182","category":"500","category_name":"未知分类","address":"上海市 上海海市浦东国际机场"},{"poiid":"B2094757D16CA4FA4793","title":"coco一番屋","lon":"121.621215975","lat":"31.2096865802","category":"247","category_name":"餐饮美食","address":"上海久光地下一层"},{"poiid":"B2094757D064AAFD4798","title":"S20龙东大道","lon":"121.62255138","lat":"31.199986528","category":"260","category_name":"其他","address":"上海外环近龙东大道"},{"poiid":"B2094757D169A1FC4898","title":"宝岛眼镜(盛夏店)","lon":"121.63153","lat":"31.19693","category":"132","category_name":"眼镜店","address":"浦东新区张江镇盛夏路1045号"},{"poiid":"B2094654DB65A4FA489C","title":"永琪美容美发","lon":"121.61799","lat":"31.20293","category":"148","category_name":"美容美发店","address":"浦东新区张江路765号(张江路紫薇路)"},{"poiid":"B2094757D064A1FB4792","title":"金湘阁(张江店)","lon":"121.61701","lat":"31.20273","category":"77","category_name":"湖南菜","address":"浦东新区张江紫薇路226-228号(张江路紫薇路)"},{"poiid":"B2094757D66DA3FC4399","title":"盛夏路560号","lon":"121.620759975","lat":"31.2099939874","category":"500","category_name":"未知分类","address":"上海盛夏路560号"},{"poiid":"B2094654DA6AA5FA409F","title":"申源苑","lon":"121.61837","lat":"31.202934","category":"47","category_name":"住宅区","address":"上海市浦东新区张江路775弄"},{"poiid":"B2094654DA6AA4FE479F","title":"益丰工业小区","lon":"121.63539","lat":"31.196743","category":"47","category_name":"住宅区","address":"益华路1号"},{"poiid":"B2094757D168A0FF419F","title":"重庆鸡公煲(紫薇路店)","lon":"121.61713","lat":"31.20298","category":"71","category_name":"四川菜","address":"浦东新区张江镇紫薇路(近张江路)"},{"poiid":"B2094655D265A4FB449D","title":"张江创新中心","lon":"121.62286","lat":"31.19723","category":"47","category_name":"住宅区","address":"蔡伦路333号"},{"poiid":"B2094654DB69A6FC409B","title":"张江镇中心小学","lon":"121.62035","lat":"31.21073","category":"56","category_name":"小学","address":"浦东新区张江新东街114弄4号"},{"poiid":"B2094757D568ABFD4693","title":"鸥美药妆(张江店)","lon":"121.639826","lat":"31.204255","category":"255","category_name":"专卖店","address":"浦东新区高科中路2860号家乐福2楼211店铺"},{"poiid":"B2094757D16DA0FB459F","title":"张记台味","lon":"121.62629389","lat":"31.2164938005","category":"500","category_name":"未知分类","address":"浦东新区张江科技园区青桐路199弄18号"},{"poiid":"B2094654DB69AAF5439F","title":"交江大楼","lon":"121.619659","lat":"31.211054","category":"46","category_name":"楼宇","address":"上海市浦东新区川北公路3042号"},{"poiid":"B2094757D164A3FB4392","title":"迦拿咖啡","lon":"121.63431","lat":"31.21658","category":"94","category_name":"西餐厅","address":"浦东新区张东路1387号张江集电港二期21幢101室"},{"poiid":"B2094654DA6AA5FA419F","title":"德宏商务楼","lon":"121.61759","lat":"31.20351","category":"46","category_name":"楼宇","address":"张江路725"},{"poiid":"B2094654DA6AA5FD4092","title":"张江镇体育中心(张江镇)","lon":"121.61784","lat":"31.20693","category":"224","category_name":"综合体育馆","address":""},{"poiid":"B2094757DA6EA4FE4199","title":"天骄网络网吧","lon":"121.620755195616","lat":"31.2063414597723","category":"248","category_name":"生活娱乐","address":"浦东新区广兰路236号二楼"},{"poiid":"B2094757D66CABFB459E","title":"雲婷’s ヾ(＠⌒ー⌒＠)ノ","lon":"121.63798697","lat":"31.198968329","category":"500","category_name":"未知分类","address":"上海市浦東新區張東路2281弄"},{"poiid":"B2094757D16AA2F4499B","title":"蟹虾鱼府","lon":"121.621062975","lat":"31.1960672618","category":"247","category_name":"餐饮美食","address":"浦东新区孙桥路112号(近华夏路)"},{"poiid":"B2094655D36CA5FB4499","title":"蔡伦路张江路","lon":"121.62097","lat":"31.19647","category":"38","category_name":"公交车站","address":""},{"poiid":"B2094757D16DA2FE4299","title":"瘦子家","lon":"121.63793297","lat":"31.198756324","category":"500","category_name":"未知分类","address":"上海市浦东新区张东路2281弄"},{"poiid":"B2094654DA6BA2F4409B","title":"科技领袖之都(金秋路)","lon":"121.6354","lat":"31.21648","category":"47","category_name":"住宅区","address":"上海市浦东新区张东路"},{"poiid":"B209475CD26DA0FB499B","title":"上海浦东新区","lon":"121.620178","lat":"31.21083","category":"500","category_name":"未知分类","address":"上海市 外滩十八号"},{"poiid":"B2094654DA6AA5FA409C","title":"上海华浦门诊部","lon":"121.61804","lat":"31.2029","category":"162","category_name":"医院","address":"浦东新区张江路769-771号"},{"poiid":"B2094757D165A0F5479B","title":"苏州羊肉面","lon":"121.61731","lat":"31.2032","category":"247","category_name":"餐饮美食","address":"上海浦东新区张江路(紫薇路口)  "},{"poiid":"B2094757D164A3F8429B","title":"中国银行(紫薇路支行)","lon":"121.618276875","lat":"31.2013620855","category":"150","category_name":"银行","address":"浦东新区张江路741号(张江路紫薇路)"},{"poiid":"B2094757D065A6FF409D","title":"古桐二村","lon":"121.61865","lat":"31.200352","category":"252","category_name":"楼宇机构","address":"上海市浦东新区高斯路1296弄"},{"poiid":"B2094757D468A0FB4493","title":"秦王村","lon":"121.617343054","lat":"31.204036793","category":"84","category_name":"西北菜","address":"浦东新区紫薇路231号(张江路口)"},{"poiid":"B2094757D06BA5FA4393","title":"张江中学羽毛球馆","lon":"121.61750507","lat":"31.206879063","category":"253","category_name":"校园生活","address":"浦东新区张江镇江东路54号(张江路祖冲之路)"},{"poiid":"B2094655D36DA7FD459A","title":"张江路华益路","lon":"121.62784","lat":"31.19177","category":"38","category_name":"公交车站","address":""},{"poiid":"B2094757D16DAAFC409D","title":"Happy LuLu速递奶茶","lon":"121.61775","lat":"31.20278","category":"247","category_name":"餐饮美食","address":"上海浦东新区张江路川北路口  "},{"poiid":"B2094655D36CA3FD4699","title":"适家快捷酒店","lon":"121.62109","lat":"31.19635","category":"250","category_name":"公园户外","address":"浦东新区张江蔡伦路103号(蔡伦路蔡伦支路)"},{"poiid":"B2094654DA6AA6FC4992","title":"上海大众汽车浦东销售服务有限公司","lon":"121.62263","lat":"31.19783","category":"158","category_name":"汽车销售","address":"张江路1196号"},{"poiid":"B2094757D568A5F54192","title":"张江社区文化活动中心","lon":"121.6181112","lat":"31.20711806","category":"188","category_name":"文化宫","address":"中国上海市浦东新区江东路"},{"poiid":"B2094750DB68ABFE409D","title":"盛夏路","lon":"121.636428","lat":"31.196567","category":"500","category_name":"未知分类","address":null},{"poiid":"B2094654DA6BA2FB459E","title":"好友来酒家","lon":"121.64269","lat":"31.20654","category":"76","category_name":"上海菜","address":"浦东新区高科中路3223号(近于新前路)"},{"poiid":"B2094751D56AA3F5459D","title":"碧云国际社区一期","lon":"121.618073","lat":"31.208497","category":"47","category_name":"住宅区","address":null},{"poiid":"B2094655D36DA7FD4298","title":"张东路金秋路","lon":"121.63276","lat":"31.21656","category":"38","category_name":"公交车站","address":""},{"poiid":"B2094654DA6AA4FF419B","title":"上海微电子装备有限公司(张东路)","lon":"121.63317","lat":"31.2154","category":"263","category_name":"公司","address":"张东路1525号"},{"poiid":"B2094654DA6AA4FF419A","title":"环旭电子(上海)有限公司","lon":"121.63076","lat":"31.21567","category":"263","category_name":"公司","address":"金秋路200"},{"poiid":"B2094757D568A6F44899","title":"江东路社区卫生服务站","lon":"121.61722873","lat":"31.20717475","category":"162","category_name":"医院","address":"中国上海市浦东新区江东路"},{"poiid":"B2094655D36DA2F9479F","title":"广兰路吕家浜桥","lon":"121.6184","lat":"31.20897","category":"250","category_name":"公园户外","address":""},{"poiid":"B2094654DA6AA5FE429A","title":"浦东新区张江镇中心小学","lon":"121.61893","lat":"31.21059","category":"56","category_name":"小学","address":"张江镇田园路168"},{"poiid":"B2094757D06BABFD449C","title":"house of flour","lon":"121.619962","lat":"31.210774","category":"500","category_name":"未知分类","address":"上海张江地铁站"},{"poiid":"B2094757DA6BA4F94593","title":"张江创业源商业中心","lon":"121.617875","lat":"31.20814","category":"252","category_name":"楼宇机构","address":"胶南市珠海东路288号"},{"poiid":"B2094752D46AA2F8489F","title":"中国农业银行张江路分理处","lon":"121.619705","lat":"31.211401","category":"150","category_name":"银行","address":"上海市浦东新区川北公路3030号"},{"poiid":"B2094757D16AA2FE4693","title":"高科中路","lon":"121.624469825","lat":"31.1942068183","category":"500","category_name":"未知分类","address":"上海高科中路"},{"poiid":"B2094654DA6AA5FA419E","title":"上海农村商业银行张江支行","lon":"121.61756","lat":"31.20338","category":"150","category_name":"银行","address":"张江路727"},{"poiid":"B2094757D168A5F44692","title":"新川专线","lon":"121.620484975","lat":"31.2008293731","category":"260","category_name":"其他","address":"上海火车站～川沙镇"},{"poiid":"B209475CD26EA3FB459B","title":"田子坊","lon":"121.617434","lat":"31.203025","category":"500","category_name":"未知分类","address":"泰康路210弄"},{"poiid":"B2094757D16DA5F44598","title":"224路华东师大站","lon":"121.61784","lat":"31.206931","category":"500","category_name":"未知分类","address":"上海市华东师范大学"},{"poiid":"B2094752D065AAF9419C","title":"梵高别墅","lon":"121.620049","lat":"31.211247","category":"47","category_name":"住宅区","address":"青铜路599"},{"poiid":"B2094753D768A2FF419F","title":"徽膳坊","lon":"121.616905","lat":"31.203369","category":"500","category_name":"未知分类","address":"上海市 紫微路220-224号"},{"poiid":"B2094655D36DA2F9479D","title":"金秋路桥","lon":"121.62721","lat":"31.21608","category":"250","category_name":"公园户外","address":""},{"poiid":"B2094757D16FAAF4489B","title":"浦东新区张江镇社区事务受理服务中心","lon":"121.627174","lat":"31.192543","category":"500","category_name":"未知分类","address":"上海张江路1458号"},{"poiid":"B2094757D064A0F5439B","title":"独苗home","lon":"121.63736517","lat":"31.195676652","category":"500","category_name":"未知分类","address":null},{"poiid":"B2094757D16BA0F84898","title":"博阳生物(上海)有限公司","lon":"121.620615975","lat":"31.1972272889","category":"263","category_name":"公司","address":"上海张江蔡伦路88号"},{"poiid":"B2094757D16CABFA459A","title":"浦三路12弄26号","lon":"121.63740197","lat":"31.19560475","category":"500","category_name":"未知分类","address":"上海临沂二村"},{"poiid":"B2094757D66EA1FF469F","title":"上海浦发工程建设管理有限公司","lon":"121.620065358","lat":"31.2111706315","category":"263","category_name":"公司","address":"上海市祖冲之路1500号"},{"poiid":"B2094757D169A6F44199","title":"凌华科技(中国)有限公司","lon":"121.637857","lat":"31.214002","category":"263","category_name":"公司","address":"上海芳春路300号"},{"poiid":"B2094654DA6BA2FB4499","title":"上海东华机电成套设备工程有限公司电缆排管分公司","lon":"121.63937","lat":"31.21189","category":"263","category_name":"公司","address":"唐镇吕三新前路26号"},{"poiid":"B2094654DA6AA4FC479F","title":"浦东新区水上派出所","lon":"121.6364","lat":"31.19428","category":"609","category_name":"警察局","address":"华益路326号"},{"poiid":"B2094757D06AA6FE4192","title":"机场四线","lon":"121.64132897","lat":"31.199811899","category":"260","category_name":"其他","address":"上海浦东国际机场—五角场"},{"poiid":"B2094654DA6AA6FD489C","title":"上海转基因研究中心","lon":"121.62107","lat":"31.1967","category":"191","category_name":"科研机构","address":"蔡伦路88"},{"poiid":"B2094757D16AA7F9429F","title":"儒宴酒店","lon":"121.62089538","lat":"31.19808197","category":"260","category_name":"其他","address":"上海高斯路1268号"},{"poiid":"B2094654DA6BA2F44892","title":"上海微电子装备工程技术研究中心","lon":"121.63317","lat":"31.2154","category":"191","category_name":"科研机构","address":""},{"poiid":"B2094654DA6AA4FD449A","title":"上海微电子装备有限公司","lon":"121.6352","lat":"31.21572","category":"263","category_name":"公司","address":"浦东新区张东路1525号"},{"poiid":"B2094757D16DABF8469A","title":"农工商(张江路店)","lon":"121.61684","lat":"31.20432","category":"260","category_name":"其他","address":"浦东新区张江路689号(近紫薇路)"},{"poiid":"B2094654DA6AA6FD499F","title":"上海申裕导线有限公司","lon":"121.61887","lat":"31.19765","category":"263","category_name":"公司","address":"法拉第路63弄50"},{"poiid":"B2094654DA6AA6FD439C","title":"上海旭福半导体电子有限公司张江办事处","lon":"121.62027","lat":"31.19568","category":"263","category_name":"公司","address":"蔡伦路150"},{"poiid":"B2094654DA6AA6FD4498","title":"上海张江建筑安装工程有限公司混凝土制品厂","lon":"121.62269","lat":"31.1939","category":"263","category_name":"公司","address":"张江路1346弄75"}]