[{"poiid":"B2094654DA69ABFA479F","title":"世茂滨江花园(潍坊西路)","lon":"121.51457","lat":"31.22077","category":"47","category_name":"住宅区","address":"潍坊西路2弄1-18号"},{"poiid":"B2094655D26BA2F54393","title":"浦东南路潍坊路","lon":"121.5181","lat":"31.22198","category":"38","category_name":"公交车站","address":""},{"poiid":"B2094655D265A0F54793","title":"小南国世茂滨江店","lon":"121.51357","lat":"31.22296","category":"247","category_name":"餐饮美食","address":"浦东新区潍坊西路1弄18号世茂滨江内(近浦城路)"},{"poiid":"B209475CD564A7F84392","title":"上海滩浦东香格里拉店","lon":"121.50058","lat":"31.23634","category":"119","category_name":"商场","address":"浦东富成路33号香格里拉酒店内大堂层"},{"poiid":"B2094757D66CA6F4479E","title":"维也纳国际酒店(陆家嘴店)","lon":"121.517019738","lat":"31.2233981545","category":"500","category_name":"未知分类","address":"浦东新区潍坊西路73号(近浦东南路)"},{"poiid":"B2094757D064A7FB419C","title":"世贸滨江","lon":"121.51353927","lat":"31.222660133","category":"47","category_name":"住宅区","address":"上海世贸滨江"},{"poiid":"B2094757D168AAFD4598","title":"辛香汇","lon":"121.51956373","lat":"31.223014146","category":"500","category_name":"未知分类","address":"上海市浦东新区世纪大道"},{"poiid":"B2094757D069A3F5499E","title":"学俊宋记香辣蟹(潍坊西路店)","lon":"121.51451497","lat":"31.223547926","category":"71","category_name":"四川菜","address":"浦东新区潍坊西路73号(近浦城路)"},{"poiid":"B2094757D66BA0FE4099","title":"九卓堂","lon":"121.517141","lat":"31.2230009","category":"76","category_name":"上海菜","address":"浦东新区潍坊西路73号(潍坊路潍坊西路)"},{"poiid":"B2094757D469A7F4409F","title":"JSTONE","lon":"121.516112","lat":"31.222485","category":"94","category_name":"西餐厅","address":"浦东新区潍坊西路88号(近浦城路)"},{"poiid":"B2094757D16AABFD4799","title":"梅园村(浦东南路店)","lon":"121.518600838","lat":"31.2243286743","category":"500","category_name":"未知分类","address":"上海浦东南路中融国际商城"},{"poiid":"B2094654DB6AA6F8429F","title":"上海久阳滨江酒店","lon":"121.51708","lat":"31.22245","category":"214","category_name":"四星级宾馆","address":"浦东新区浦东南路1436号(近潍坊西路)"},{"poiid":"B2094757D16FA7FE479A","title":"好乐迪","lon":"121.51964573","lat":"31.223012146","category":"500","category_name":"未知分类","address":"上海ShanghaiPudong XinquPucheng Rd"},{"poiid":"B2094757D16DA3FA4193","title":"Nancy's Bakery","lon":"121.516442878","lat":"31.2227383333","category":"67","category_name":"甜品店","address":"浦东新区潍坊西路86号(近浦东南路)"},{"poiid":"B2094655D26DA1FB4398","title":"上海鸿酒店","lon":"121.51611","lat":"31.22248","category":"250","category_name":"公园户外","address":"浦东新区潍坊西路88号(近浦城路)"},{"poiid":"B2094654DB64A3FE4199","title":"上海市商贸旅游学校","lon":"121.5173","lat":"31.22112","category":"54","category_name":"职业技术学校","address":"浦东新区浦东南路1548号(潍坊路潍坊西路)"},{"poiid":"B2094654DA69ABFE4298","title":"东川造型(浦东南路)","lon":"121.51818","lat":"31.22285","category":"148","category_name":"美容美发店","address":"浦东新区浦东南路1463号(近潍坊路)"},{"poiid":"B2094757D06AABFF459A","title":"The Max Pub(潍坊西路店)","lon":"121.51683","lat":"31.22249","category":"500","category_name":"未知分类","address":"浦东新区潍坊西路116号(近浦东南路)"},{"poiid":"B2094655D269ABF5459E","title":"上品小笼 潍坊路店","lon":"121.519568054","lat":"31.223962793","category":"68","category_name":"快餐厅","address":"浦东新区潍坊路85-1号(近南泉北路)"},{"poiid":"B2094655D269ABFC449B","title":"ACE台球吧","lon":"121.51703","lat":"31.22309","category":"247","category_name":"餐饮美食","address":"浦东新区潍坊西路73号4号楼(近浦东南路)"},{"poiid":"B2094654DA69ABFE429B","title":"永和豆浆(浦东南路)","lon":"121.51814","lat":"31.22297","category":"68","category_name":"快餐厅","address":"浦东新区浦东南路1457号(近潍坊路)"},{"poiid":"B2094757D068A7FE409F","title":"上海新东方学校(八佰伴分部)","lon":"121.51714","lat":"31.22429","category":"253","category_name":"校园生活","address":"浦东新区浦东南路1341弄12号(近临园路)"},{"poiid":"B2094655D264ABFB429C","title":"康骏推拿足道","lon":"121.51566","lat":"31.22232","category":"149","category_name":"洗浴推拿场所","address":"潍坊西路76号2层"},{"poiid":"B2094654DB64A3FD489A","title":"花之林人文茶馆 潍坊路店","lon":"121.51820875448","lat":"31.223558710918","category":"260","category_name":"其他","address":"浦东新区潍坊路2号(浦东南路口)"},{"poiid":"B2094655D26AA7FB4898","title":"世贸滨江花园热带风情会所","lon":"121.51357","lat":"31.22296","category":"247","category_name":"餐饮美食","address":"浦东新区潍坊西路1弄世茂滨江花园16号(近浦城路)"},{"poiid":"B2094753D56BABF94292","title":"The Camel Sports Bar","lon":"121.517089","lat":"31.222845","category":"500","category_name":"未知分类","address":"上海市 潍坊西路116弄"},{"poiid":"B2094654DB64A3FE419B","title":"陈家宅小区","lon":"121.51604","lat":"31.221743","category":"47","category_name":"住宅区","address":"浦城路720弄"},{"poiid":"B2094654DA69ABF94792","title":"宜芝多潍坊店","lon":"121.51553","lat":"31.22221","category":"112","category_name":"糕饼店","address":"浦东新区潍坊西路72号(世茂滨江对面)"},{"poiid":"B2094655D26BA2FE409B","title":"潍坊路","lon":"121.5179","lat":"31.22268","category":"38","category_name":"公交车站","address":""},{"poiid":"B2094757D16AA4F5429A","title":"迪街贩量KTV","lon":"121.517092038","lat":"31.2227976417","category":"170","category_name":"KTV","address":"上海沪南路北中路"},{"poiid":"B2094757D06AA5F9429E","title":"世茂滨江花园会所2号","lon":"121.515548706","lat":"31.2225265503","category":"500","category_name":"未知分类","address":"上海潍坊西路"},{"poiid":"B2094757D66DAAF8459F","title":"jamaicablue","lon":"121.51694973","lat":"31.222866143","category":"500","category_name":"未知分类","address":"上海潍坊西路浦城路"},{"poiid":"B2094654DA69ABFA419B","title":"安泰公寓(北门)","lon":"121.51659","lat":"31.22246","category":"47","category_name":"住宅区","address":"潍坊西路100弄"},{"poiid":"B2094655D26BA2FD499F","title":"潍坊西路浦城路","lon":"121.51557","lat":"31.22248","category":"38","category_name":"公交车站","address":""},{"poiid":"B2094654DA69ABFA419A","title":"安泰公寓","lon":"121.51649","lat":"31.222382","category":"47","category_name":"住宅区","address":"潍坊西路100弄"},{"poiid":"B2094655D26DA1FB419C","title":"申花酒店(陆家嘴店)","lon":"121.51693","lat":"31.222","category":"216","category_name":"经济型连锁酒店","address":"浦东南路1466弄30号"},{"poiid":"B2094655D26EA2F5489D","title":"上海久阳滨江酒店(东门)","lon":"121.51768","lat":"31.22236","category":"214","category_name":"四星级宾馆","address":"上海市浦东新区浦东南路1436号（近潍坊路）"},{"poiid":"B2094757D06BA2FB4298","title":"亨利花园","lon":"121.51859873","lat":"31.225309195","category":"47","category_name":"住宅区","address":"上海市浦东新区南泉北路1035号紫金瀚宫3号楼"},{"poiid":"B2094655D268A6F94092","title":"台球吧","lon":"121.51676","lat":"31.22365","category":"171","category_name":"台球厅","address":"潍坊西路73号"},{"poiid":"B2094757D068A5F9459E","title":"东南新村","lon":"121.51726646","lat":"31.225442348","category":"47","category_name":"住宅区","address":"上海张杨路浦东南路"},{"poiid":"B2094654DA69ABFD479D","title":"潍坊三村","lon":"121.51924","lat":"31.22311","category":"47","category_name":"住宅区","address":"潍坊三村351"},{"poiid":"B2094654DB64A3FD489E","title":"快客","lon":"121.51815","lat":"31.22293","category":"117","category_name":"便民商店/便利店","address":""},{"poiid":"B2094655D26EA4FB449D","title":"东上海大酒店 潍坊店","lon":"121.51827049104","lat":"31.223143922241","category":"247","category_name":"餐饮美食","address":"浦东南路1455号近潍坊路"},{"poiid":"B2094757D16EABF8459A","title":"娇丽芙(浦南店)","lon":"121.51735749","lat":"31.222982115","category":"500","category_name":"未知分类","address":"上海潍坊西路132号"},{"poiid":"B2094757D065A2FB439C","title":"民生银行(滨江支行)","lon":"121.517598","lat":"31.222831","category":"150","category_name":"银行","address":"浦东新区浦东南路1426号(潍坊路潍坊西路)"},{"poiid":"B2094750D76EAAF44299","title":"面道香大肠面","lon":"121.518","lat":"31.2224","category":"68","category_name":"快餐厅","address":"浦东新区浦东南路1477号(近八佰伴)"},{"poiid":"B2094757D168A5FE479B","title":"文广国际标准舞培训中心(浦东校区)","lon":"121.5173","lat":"31.22266","category":"500","category_name":"未知分类","address":"上海浦东新区潍坊路198号2楼(世纪大道潍坊路)  "},{"poiid":"B2094654DA69ABF94793","title":"全家(浦城路)","lon":"121.51548","lat":"31.22208","category":"117","category_name":"便民商店/便利店","address":"潍坊西路56"},{"poiid":"B2094654DA69ABFA4192","title":"蔚蓝海岸天科苑","lon":"121.51779","lat":"31.22054","category":"47","category_name":"住宅区","address":"上海市浦东新区浦东南路1550号"},{"poiid":"B2094655D268A6F9419B","title":"孙家宅小区(东门)","lon":"121.51628","lat":"31.22179","category":"47","category_name":"住宅区","address":"浦东南路1466弄69号-76号"},{"poiid":"B2094654DA69ABF9469B","title":"上海乔家栅小吃世界(浦东南路)","lon":"121.51702","lat":"31.225","category":"68","category_name":"快餐厅","address":"浦东新区浦东南路东南新村19号(近张杨路)"},{"poiid":"B2094757D16AA7F5469A","title":"上海市商貿旅遊學校","lon":"121.517702738","lat":"31.2226046376","category":"500","category_name":"未知分类","address":"上海浦东南路1548号"},{"poiid":"B2094655D26BA4FA469D","title":"天湖棋牌室","lon":"121.51668","lat":"31.22271","category":"175","category_name":"棋牌室","address":""},{"poiid":"B2094654DA69ABFD479F","title":"中星商务楼","lon":"121.5186","lat":"31.22281","category":"46","category_name":"楼宇","address":"潍坊路16弄2号"},{"poiid":"B2094655D26EA7FC4999","title":"永琪美容美发","lon":"121.51851","lat":"31.22353","category":"148","category_name":"美容美发店","address":"浦东新区潍坊路21号(近浦东南路)"},{"poiid":"B2094751D564A0F54399","title":"老李羊蝎子涮锅","lon":"121.518649","lat":"31.221494","category":"247","category_name":"餐饮美食","address":"南泉路浦电路"},{"poiid":"B2094757D065A1F5429C","title":"7天连锁酒店(陆家嘴店)","lon":"121.51816","lat":"31.22279","category":"217","category_name":"旅馆招待所","address":"浦东新区潍坊路5号(浦东南路与潍坊路交叉口)"},{"poiid":"B2094654DB65A1FB469F","title":"大楼物业管理","lon":"121.51859","lat":"31.2228","category":"46","category_name":"楼宇","address":"潍坊路16弄2号103"},{"poiid":"B2094655D268A6F94093","title":"悦厨精制汤馆","lon":"121.51683","lat":"31.22365","category":"260","category_name":"其他","address":"浦东新区潍坊西路73号4号楼1楼(近浦东南路)"},{"poiid":"B2094757D66FA2FB409D","title":"老陈特色烧烤","lon":"121.518244238","lat":"31.2223145314","category":"247","category_name":"餐饮美食","address":"上海浦东南路166号"},{"poiid":"B2094757D065A7F5479D","title":"康友四季保健会所(浦城店)","lon":"121.51475","lat":"31.22363","category":"149","category_name":"洗浴推拿场所","address":"浦东新区浦城路708号(近潍坊路)"},{"poiid":"B2094757D465A0F4439C","title":"蓝色牙买加 潍坊西路店 Jamaica Blue","lon":"121.51525","lat":"31.22226","category":"260","category_name":"其他","address":"浦东新区潍坊西路60号(近浦城路)"},{"poiid":"B2094654DA69ABFE4292","title":"好德便利No.087","lon":"121.51838","lat":"31.22215","category":"117","category_name":"便民商店/便利店","address":"浦东南路1481"},{"poiid":"B2094751DA64A3FA499E","title":"老李羊蝎子","lon":"121.518067","lat":"31.221583","category":"247","category_name":"餐饮美食","address":"南泉北路"},{"poiid":"B2094654DA69ABF9479D","title":"恒翔网络","lon":"121.51579","lat":"31.22233","category":"176","category_name":"网吧","address":""},{"poiid":"B2094757D068A7F5469C","title":"上海汇众汽车制造有限公司","lon":"121.519038","lat":"31.22132","category":"263","category_name":"公司","address":"上海浦东南路1493号"},{"poiid":"B209475CD66AA1FF4893","title":"城隍庙","lon":"121.516731","lat":"31.224786","category":"500","category_name":"未知分类","address":"上海市 城隍庙"},{"poiid":"B2094757D16FA6FE459F","title":"大渔","lon":"121.51748906","lat":"31.221140586","category":"247","category_name":"餐饮美食","address":"上海八佰伴"},{"poiid":"B2094757D06BA4FE499E","title":"金稻田专业形象设计","lon":"121.51795","lat":"31.22258","category":"148","category_name":"美容美发店","address":"上海浦东新区维纺路91号(近浦东南路)  "},{"poiid":"B2094757D164A4FD4393","title":"赣王府","lon":"121.518533","lat":"31.222372","category":"247","category_name":"餐饮美食","address":"上海浦东新区潍坊路2号(浦东南路口)"},{"poiid":"B2094757D168A6F54899","title":"YAMAZAKI","lon":"121.51710163","lat":"31.22414117","category":"500","category_name":"未知分类","address":"上海浦東第一八百伴"},{"poiid":"B2094654DA69A4F44793","title":"金稻田造型设计","lon":"121.51975","lat":"31.22391","category":"148","category_name":"美容美发店","address":"浦东新区潍坊路91号(近浦东南路)"},{"poiid":"B2094757D66EABFA419C","title":"足矣养生","lon":"121.517611","lat":"31.222319","category":"148","category_name":"美容美发店","address":"上海张扬北路655号"},{"poiid":"B2094757D164AAF9479A","title":"盛典之约","lon":"121.51548","lat":"31.22199","category":"500","category_name":"未知分类","address":"浦东新区潍纺西路125号(近八佰伴)"},{"poiid":"B2094654DA69ABFD4798","title":"上海华为技术有限公司员工宿舍","lon":"121.51859","lat":"31.22281","category":"47","category_name":"住宅区","address":"潍坊路16弄2号中星商务楼401-404、601-605、701-706、1401-1408、1501-1508、1601-1008"},{"poiid":"B2094757D66EA2F44098","title":"中星酒店服务式公寓","lon":"121.51888373","lat":"31.222994145","category":"217","category_name":"旅馆招待所","address":"浦东新区潍坊路16弄2号(近浦东南路)"},{"poiid":"B2094655D265AAFD429C","title":"新华东国际大厦(东二门)","lon":"121.51818","lat":"31.2213","category":"46","category_name":"楼宇","address":"浦东南路1540号"},{"poiid":"B2094757D164A0FF449E","title":"浦东新区税务局","lon":"121.51987873","lat":"31.223276151","category":"500","category_name":"未知分类","address":"上海浦东新区向城路"},{"poiid":"B2094757D064ABF84592","title":"湖南特色牛肉米粉(南泉北路店)","lon":"121.51876","lat":"31.22521","category":"68","category_name":"快餐厅","address":"浦东新区南泉北路1035号大门南侧(近潍坊路)"},{"poiid":"B2094655D265A0FE4499","title":"光大证券有限公司","lon":"121.51765","lat":"31.22269","category":"219","category_name":"其他","address":"浦东南路1428"},{"poiid":"B2094654DA69A4F4499A","title":"好德便利No.945","lon":"121.51889","lat":"31.22367","category":"117","category_name":"便民商店/便利店","address":"潍坊路43"},{"poiid":"B2094757D165A0F94198","title":"浦东南路潍坊路中星服务式公寓","lon":"121.518643838","lat":"31.2242961736","category":"500","category_name":"未知分类","address":"上海市浦东新区潍坊路16弄2号（近浦东南路）"},{"poiid":"B2094757D16CABF54998","title":"深圳发展银行-小红楼","lon":"121.51838008","lat":"31.224671981","category":"500","category_name":"未知分类","address":"上海浦东南路1351号"},{"poiid":"B2094752DA6BA3FF469E","title":"南京路","lon":"121.514639","lat":"31.221681","category":"500","category_name":"未知分类","address":"上海市 上海市南京路步行街"},{"poiid":"B2094654DA69ABFE439A","title":"悦心美发足浴休闲中心一分店","lon":"121.51844","lat":"31.22198","category":"148","category_name":"美容美发店","address":""},{"poiid":"B2094757D169ABF54592","title":"乐馥居","lon":"121.51524233","lat":"31.222540186","category":"500","category_name":"未知分类","address":"上海市浦东新区潍坊西路82号"},{"poiid":"B2094757D164A7FE419B","title":"花之林","lon":"121.518228","lat":"31.223163","category":"500","category_name":"未知分类","address":"上海惠南镇北门大街(肯德基旁边)"},{"poiid":"B2094654DA69ABF94698","title":"东南新村(东门)","lon":"121.51684","lat":"31.22511","category":"47","category_name":"住宅区","address":""},{"poiid":"B2094655D26FABF84299","title":"潍坊三村(边门)","lon":"121.51901","lat":"31.22341","category":"47","category_name":"住宅区","address":"浦东南路1475弄"},{"poiid":"B2094655D26DA7FB449E","title":"深圳发展银行分行营业部","lon":"121.51768","lat":"31.22465","category":"150","category_name":"银行","address":"浦东南路1351"},{"poiid":"B2094655D26AA7F9439D","title":"东格致中学","lon":"121.5181","lat":"31.22092","category":"55","category_name":"中学","address":"浦东新区浦东南路1548号(近浦电路)"},{"poiid":"B2094750DB6CA0FB449A","title":"上海歌城","lon":"121.517417","lat":"31.225231","category":"170","category_name":"KTV","address":null},{"poiid":"B2094752DB64A4FB449D","title":"上海市陆家嘴","lon":"121.517515","lat":"31.224637","category":"500","category_name":"未知分类","address":"上海市 滨江"},{"poiid":"B2094655D26AA1FA469C","title":"昂立进修学院浦东总校","lon":"121.51771","lat":"31.22588","category":"247","category_name":"餐饮美食","address":"浦东新区南泉北路1021号昂立教育基地"},{"poiid":"B2094654DA69ABFA4893","title":"浦城小区","lon":"121.51483","lat":"31.22507","category":"47","category_name":"住宅区","address":"浦城路580弄1-25号"},{"poiid":"B2094655D26FABFC419C","title":"上海市商贸旅游学校(东门)","lon":"121.51832","lat":"31.22086","category":"678","category_name":"学校大门","address":"浦东南路1548号"},{"poiid":"B2094654DB64A3FD479D","title":"明珠大楼","lon":"121.51791","lat":"31.22529","category":"46","category_name":"楼宇","address":"崂山西路1021"},{"poiid":"B2094654DB64A3FD4792","title":"开发浦东朱家滩大楼(西一门)","lon":"121.51734","lat":"31.2255","category":"46","category_name":"楼宇","address":"浦东南路1299、1349、1399、1449号"},{"poiid":"B2094655D26DA7FB4698","title":"开发浦东朱家滩大楼","lon":"121.51792","lat":"31.2253","category":"47","category_name":"住宅区","address":"浦东南路1299、1349、1399、1449号"},{"poiid":"B2094757D168A1F54593","title":"深圳发展银行…汽车消费金融中心","lon":"121.517675","lat":"31.224548","category":"500","category_name":"未知分类","address":"上海浦东南路1351"},{"poiid":"B2094654DA69A4F4489C","title":"快客(潍坊路)","lon":"121.51937","lat":"31.22374","category":"117","category_name":"便民商店/便利店","address":"潍坊路"},{"poiid":"B2094654DA69ABFA479E","title":"滨江兰庭(边门)","lon":"121.51586","lat":"31.22081","category":"47","category_name":"住宅区","address":""},{"poiid":"B2094654DA69ABFA4898","title":"汇丰大药房浦城店","lon":"121.51438","lat":"31.22437","category":"162","category_name":"医院","address":"浦城路598"},{"poiid":"B2094751D56EAAFA4192","title":"新世紀影城","lon":"121.519852","lat":"31.223297","category":"178","category_name":"电影院","address":null},{"poiid":"B2094751D464A7FE439C","title":"百脑汇海底捞","lon":"121.519166","lat":"31.225052","category":"247","category_name":"餐饮美食","address":null},{"poiid":"B2094757D16EA0FE419C","title":"张霞美甲(时代广场店)","lon":"121.51661","lat":"31.22515","category":"122","category_name":"个人用品/化妆品店","address":"上海浦东新区浦东南路东南新村42号102室(时代广场对面)  "},{"poiid":"B2094757D16FA7FA479A","title":"复旦大学望道书阁","lon":"121.51455723","lat":"31.222838842","category":"253","category_name":"校园生活","address":"上海松花江路2500弄29号楼105室"},{"poiid":"B2094757D568A0F84798","title":"世茂滨江花园六期","lon":"121.5145789","lat":"31.220775","category":"47","category_name":"住宅区","address":"上海市浦东新区潍坊西路2弄"},{"poiid":"B2094757D66FA2F5499C","title":"江苏银行(上海分行)","lon":"121.51497073","lat":"31.22134611","category":"150","category_name":"银行","address":"上海市浦东新区富城路99号震旦大厦"},{"poiid":"B2094757D569A3F54693","title":"喜事多便利店(开发浦东朱家滩大楼西)","lon":"121.51749268","lat":"31.22531982","category":"117","category_name":"便民商店/便利店","address":"中国上海市浦东新区"},{"poiid":"B2094654DA69ABFA479B","title":"滨江兰庭","lon":"121.51628","lat":"31.220039","category":"47","category_name":"住宅区","address":"浦城路786弄"},{"poiid":"B2094757D66EABF5419B","title":"东方马丁教育","lon":"121.517507738","lat":"31.2209981034","category":"500","category_name":"未知分类","address":"浦东新区南泉北路1025号(近张杨路)"},{"poiid":"B2094757D66DAAF4469C","title":"Sophia's house","lon":"121.515500938","lat":"31.2248360851","category":"500","category_name":"未知分类","address":null},{"poiid":"B2094757D169A0F5459D","title":"Bee House","lon":"121.51860083","lat":"31.224328674","category":"500","category_name":"未知分类","address":null},{"poiid":"B2094654DA69ABFA4798","title":"滨江兰庭(西门)","lon":"121.51599","lat":"31.22031","category":"47","category_name":"住宅区","address":"浦城路786弄"},{"poiid":"B2094654DA69A4F4489B","title":"朱家滩小区(南门)","lon":"121.51966","lat":"31.22382","category":"47","category_name":"住宅区","address":"潍坊路89弄1-32号"},{"poiid":"B2094757D16DA4FC409D","title":"QQ番(浦电路)","lon":"121.518426501","lat":"31.2212556255","category":"500","category_name":"未知分类","address":"上海浦电路357号世纪联华B1"},{"poiid":"B2094655D26DA7FB4793","title":"东南新村边门(浦东南路)","lon":"121.5166","lat":"31.22611","category":"47","category_name":"住宅区","address":""},{"poiid":"B2094655D26EA3FA4992","title":"华飞公寓(南门)","lon":"121.51917","lat":"31.22369","category":"48","category_name":"楼宇大门","address":"潍坊路59弄1-6号"},{"poiid":"B2094750D365A5FE479A","title":"Muse2","lon":"121.51567","lat":"31.220729","category":"248","category_name":"生活娱乐","address":"香港广场"},{"poiid":"B2094757D16FA5F84898","title":"联华超市(浦城店)","lon":"121.51444273","lat":"31.225149191","category":"118","category_name":"超级市场","address":"上海市浦东新区浦城路550号"},{"poiid":"B2094757D568ABFF499C","title":"世茂滨江花园南区(东门)","lon":"121.515533","lat":"31.220775","category":"48","category_name":"楼宇大门","address":"中国上海市浦东新区浦城路"},{"poiid":"B2094654DA69A4F44699","title":"上海好耶进修学院","lon":"121.51899","lat":"31.225","category":"53","category_name":"成人教育","address":"南泉北路1035号亨利国际商务中心"},{"poiid":"B2094757D66FA7FA449B","title":"久阳滨江酒店公寓","lon":"121.519644738","lat":"31.2223221316","category":"500","category_name":"未知分类","address":"上海浦东南路1438号"},{"poiid":"B2094753D46CA5FF469E","title":"上海火车站","lon":"121.513465","lat":"31.222169","category":"500","category_name":"未知分类","address":"上海市 上海火车站"},{"poiid":"B2094655D269AAFA439A","title":"灵感酒吧","lon":"121.51821","lat":"31.22044","category":"260","category_name":"其他","address":"浦东新区浦东南路1558号(近潍坊路)"},{"poiid":"B2094757D66EA2FC409F","title":"昂立中学生教育(八佰伴分校)","lon":"121.51824","lat":"31.22535","category":"500","category_name":"未知分类","address":"浦东新区南泉北路1021号(近八佰伴)"},{"poiid":"B2094757D16DA2F9419E","title":"杨家渡菜市场","lon":"121.515269738","lat":"31.2254531983","category":"249","category_name":"购物服务","address":"上海张杨路浦东南路，东南新村"},{"poiid":"B2094654DA69ABFD429D","title":"昂立教育","lon":"121.5177","lat":"31.22588","category":"190","category_name":"培训机构","address":"南泉北路1021号"},{"poiid":"B2094757D06BA4FC409E","title":"丽妍雅集(商城路店)","lon":"121.51474012","lat":"31.22553043","category":"149","category_name":"洗浴推拿场所","address":"上海商城路1885号"},{"poiid":"B2094757D66CA1F94699","title":"Artist 舞蹈会所","lon":"121.51834473","lat":"31.225382196","category":"500","category_name":"未知分类","address":"上海市浦东新区南泉北路"},{"poiid":"B2094655D264AAFD469E","title":"鹏飞SPA养生馆","lon":"121.51821","lat":"31.22038","category":"149","category_name":"洗浴推拿场所","address":"浦东南路1552"},{"poiid":"B2094757D16BA0FF489F","title":"商城路汇豪天下","lon":"121.516716","lat":"31.226121902","category":"500","category_name":"未知分类","address":"上海108号"},{"poiid":"B2094757D064A1FB419C","title":"易达教育培训中心","lon":"121.51812573","lat":"31.220083083","category":"253","category_name":"校园生活","address":"上海市浦东新区浦东南路1525号6楼(近浦电路)"},{"poiid":"B2094757D065ABFC489B","title":"淀山湖红顶度假村","lon":"121.51872873","lat":"31.220532093","category":"500","category_name":"未知分类","address":"上海淀山湖红顶度假村"},{"poiid":"B2094757D16CA1FB4599","title":"潔","lon":"121.52000073","lat":"31.222841142","category":"249","category_name":"购物服务","address":null},{"poiid":"B2094757D568AAFB489C","title":"华融大酒店钢琴咖啡厅","lon":"121.5173489","lat":"31.22580222","category":"260","category_name":"其他","address":"浦东新区浦东南路1279号华融大酒店1楼"},{"poiid":"B2094757D16EA2FA479C","title":"中华老字号商城","lon":"121.51746","lat":"31.22601","category":"500","category_name":"未知分类","address":"浦东新区浦东南路1271号华融大厦1-4楼(张杨路口)"},{"poiid":"B2094655D26EA1FE409C","title":"湘泉(浦东南路店)","lon":"121.5188","lat":"31.22079","category":"248","category_name":"生活娱乐","address":"浦东新区浦东南路1525号"},{"poiid":"B209475CD66BA0FD4299","title":"上海紫苹果装饰","lon":"121.518477","lat":"31.220711","category":"642","category_name":"家居装饰类公司","address":"浦东新区浦东南路1558号"},{"poiid":"B2094654DA69ABFA499B","title":"世茂滨江花园(东门)","lon":"121.51409","lat":"31.22429","category":"656","category_name":"大门","address":"潍坊新村"},{"poiid":"B2094654DA69ABFD4793","title":"潍坊三村(北门)","lon":"121.51957","lat":"31.22357","category":"656","category_name":"大门","address":"潍坊三村351"},{"poiid":"B2094750D768A5F84492","title":"骆驼酒吧","lon":"121.514","lat":"31.2216","category":"260","category_name":"其他","address":"浦东新区潍坊西路(近浦城路)"},{"poiid":"B2094654DA69ABFA479C","title":"世茂滨江花园(北门)","lon":"121.51438","lat":"31.22136","category":"656","category_name":"大门","address":"潍坊西路2弄1-18号"},{"poiid":"B2094654DA69ABFA4193","title":"蔚蓝海岸天科苑(东门)","lon":"121.51824","lat":"31.2207","category":"656","category_name":"大门","address":"浦东南路1550弄1-5号"},{"poiid":"B2094655D268A4F44399","title":"世茂滨江花园(南二门)","lon":"121.51377","lat":"31.22172","category":"656","category_name":"大门","address":""},{"poiid":"B2094654DA69ABFD429C","title":"海通证券崂山西路营业部","lon":"121.51769","lat":"31.226","category":"219","category_name":"其他","address":"崂山西路1021"},{"poiid":"B2094655D264AAFD469F","title":"蔚蓝海岸天科苑(南门)","lon":"121.51781","lat":"31.22027","category":"656","category_name":"大门","address":""}]