[{"poiid":"B2094654DA6FA7FE419B","title":"上海宝莱纳餐厅滨江店","lon":"121.49861","lat":"31.23409","category":"94","category_name":"西餐厅","address":"浦东新区滨江大道2967号滨江风光亭"},{"poiid":"B2094757D469A7F8449D","title":"哈根达斯 滨江店 Haagen-Dazs","lon":"121.497862054","lat":"31.235934793","category":"67","category_name":"甜品店","address":"浦东新区滨江大道1号富都段码头北侧端(近正大广场后门)"},{"poiid":"B2094655D26EABFA499D","title":"港丽餐厅 正大店 Charme Restaurant","lon":"121.499669054","lat":"31.237629793","category":"247","category_name":"餐饮美食","address":"浦东新区陆家嘴西路168号正大广场7楼08A号铺(近东方明珠)"},{"poiid":"B209475CD564A7F84292","title":"上海滩新天地店","lon":"121.47463","lat":"31.22164","category":"119","category_name":"商场","address":"\"太仓路181弄新天地北里15号\r\n\""},{"poiid":"B209475CD564A7F84392","title":"上海滩浦东香格里拉店","lon":"121.50058","lat":"31.23634","category":"119","category_name":"商场","address":"浦东富成路33号香格里拉酒店内大堂层"},{"poiid":"B2094757D469A1F54993","title":"星巴克 滨江店 Starbucks Cafe","lon":"121.49833629105","lat":"31.235145384788","category":"260","category_name":"其他","address":"浦东新区滨江大道富都段滨江公园内(富城路名商路)"},{"poiid":"B2094757D06FA1FD489D","title":"天水恋意大利餐厅","lon":"121.49832","lat":"31.23456","category":"94","category_name":"西餐厅","address":"浦东新区滨江大道富都段滨江花园内(近富城路)"},{"poiid":"B2094654DB6BABFC409C","title":"许留山 滨江大道店 Hui Lau Shan","lon":"121.49780880378","lat":"31.235935163743","category":"67","category_name":"甜品店","address":"浦东新区滨江大道1号富都段滨江花园内(浦东南路口)"},{"poiid":"B2094757D06FA7F54892","title":"外滩轮渡","lon":"121.49613189","lat":"31.232406616","category":"260","category_name":"其他","address":"上海外滩"},{"poiid":"B2094757D06EABF5429A","title":"望湘园(正大店)","lon":"121.49781942","lat":"31.236038792","category":"77","category_name":"湖南菜","address":"上海浦东新区陆家嘴西路168号正大广场4楼29室(近富城路)"},{"poiid":"B2094757D66EA0FC479F","title":"喜多屋","lon":"121.497273738","lat":"31.2359364217","category":"500","category_name":"未知分类","address":"上海正大广场七楼"},{"poiid":"B2094751D36CA2FE479E","title":"炉边情谈(正大广场店)","lon":"121.49818","lat":"31.23602","category":"96","category_name":"韩国料理","address":"浦东新区陆家嘴西路168号正大广场6楼46B号铺(近东方明珠)"},{"poiid":"B2094655D26DAAFE449F","title":"滨江公园","lon":"121.49685","lat":"31.23567","category":"196","category_name":"公园","address":"浦东新区滨江大道2967号(近丰和路)"},{"poiid":"B2094757D06FA1F5479D","title":"震旦国际大楼","lon":"121.499293","lat":"31.234784","category":"46","category_name":"楼宇","address":"上海浦东新区富城路99号"},{"poiid":"B2094757D06FA2F9439E","title":"香格里拉怡咖啡","lon":"121.4992","lat":"31.2349","category":"268","category_name":"自助","address":"浦东新区富城路33号香格里拉大酒店紫金楼2楼(近名商路)"},{"poiid":"B2094757D568A6FE449D","title":"松鹤楼(外滩店)","lon":"121.49712782","lat":"31.22868273","category":"76","category_name":"上海菜","address":"黄浦区中山东二路505号(近外马路)"},{"poiid":"B2094757D06FA4FF4298","title":"Zeal","lon":"121.494104619","lat":"31.230399184","category":"260","category_name":"其他","address":"黄浦区中山东二路22号6楼(近金陵东路)"},{"poiid":"B2094654DB64ABF9439A","title":"震旦艺术博物馆","lon":"121.49929","lat":"31.23478","category":"182","category_name":"博物馆","address":"富城路99号震旦国际大楼1层"},{"poiid":"B2094757D06FA1F8419B","title":"一点红","lon":"121.49738","lat":"31.23469","category":"94","category_name":"西餐厅","address":"浦东新区陆家嘴西路168号正大广场1楼(近东方明珠)"},{"poiid":"B2094655D26EA6F54193","title":"大家乐(正大店)","lon":"121.49833","lat":"31.23601","category":"68","category_name":"快餐厅","address":"浦东新区陆家嘴西路168号正大广场8楼(近东方明珠)"},{"poiid":"B2094757D06BA0FE469D","title":"浦东香格里酒店 盛世堂I","lon":"121.498685","lat":"31.235798","category":"217","category_name":"旅馆招待所","address":"上海浦东新区富城路33号 浦东香格里拉酒店紫金楼3F"},{"poiid":"B2094750D26EA2FB419E","title":"El Willy","lon":"121.493644","lat":"31.231233","category":"94","category_name":"西餐厅","address":"黄浦区中山东二路22号5楼(近新永安路)"},{"poiid":"B2094757D06FA7F54992","title":"爱晚亭酒店(正大广场店)","lon":"121.49781868","lat":"31.236147816","category":"72","category_name":"广东菜","address":"浦东新区陆家嘴西路168号正大广场8楼02C-D号铺(近东方明珠)"},{"poiid":"B2094654DB6BABFC409E","title":"Haagen-Dazs","lon":"121.49623","lat":"31.23572","category":"113","category_name":"冷饮店","address":"滨江公园西南"},{"poiid":"B2094750DA64A1F5409F","title":"王品台塑牛排(正大广场店)","lon":"121.496726","lat":"31.234537","category":"248","category_name":"生活娱乐","address":"浦东新区陆家嘴西路168号正大广场8楼(近东方明珠)"},{"poiid":"B2094757D06FA6FC4993","title":"晶浦会","lon":"121.49999","lat":"31.23362","category":"72","category_name":"广东菜","address":"上海浦东新区花园石桥路33号花旗集团大厦4楼(近富城路)  "},{"poiid":"B2094654DA6FA7FE409D","title":"STARBUCKS COFFEE(富城路)","lon":"121.49745","lat":"31.23502","category":"65","category_name":"咖啡厅","address":""},{"poiid":"B2094757D16FA0FC429D","title":"廊亦坊","lon":"121.498013738","lat":"31.2354924122","category":"500","category_name":"未知分类","address":"上海正大廣場5樓"},{"poiid":"B2094757D468A4FE489A","title":"Horizen","lon":"121.492901","lat":"31.231715","category":"247","category_name":"餐饮美食","address":"金陵东路1号近中山东二路"},{"poiid":"B2094757D069A6FE449C","title":"十六铺码头边","lon":"121.49703768","lat":"31.228610509","category":"500","category_name":"未知分类","address":"上海市,上海中山东二路"},{"poiid":"B2094752DB64A5FB4692","title":"米子mizzi","lon":"121.495748","lat":"31.235876","category":"500","category_name":"未知分类","address":"上海市 浦东新区富城路182号"},{"poiid":"B2094757D068A5F9429C","title":"福佑商厦","lon":"121.498","lat":"31.2336","category":"119","category_name":"商场","address":"黄浦区福佑路225号(近旧校场路)"},{"poiid":"B2094750D26EA7F44892","title":"YAWARAGI ON THE BUND","lon":"121.494522","lat":"31.232086","category":"95","category_name":"日本料理","address":"黄浦区中山东二路22号3楼(近新永安路)"},{"poiid":"B2094757D468ABF54699","title":"星巴克 花旗大厦店 Starbucks Cafe","lon":"121.500050054","lat":"31.234238793","category":"65","category_name":"咖啡厅","address":"浦东新区花园石桥路33号花旗集团大厦1楼(近富城路)"},{"poiid":"B2094655D26CA4F44392","title":"滨江大道(八号门)","lon":"121.49874","lat":"31.23482","category":"116","category_name":"特色商业街","address":""},{"poiid":"B2094757D068A6FF489B","title":"金陵东路渡口","lon":"121.493181968","lat":"31.2321444779","category":"35","category_name":"长途汽车站","address":"上海中山东二路121号(金陵东路口)"},{"poiid":"B2094750D26FABF44592","title":"Bocca","lon":"121.4960508","lat":"31.2293856","category":"98","category_name":"意式菜品餐厅","address":"黄浦区中山东二路22号5楼(近新永安路)"},{"poiid":"B2094757D06AA7F4479A","title":"香格里拉大堂酒廊","lon":"121.49914","lat":"31.23535","category":"260","category_name":"其他","address":"浦东新区富城路33号香格里拉大酒店浦江楼1楼(近名商路)"},{"poiid":"B2094655D36DA6FF4493","title":"金陵东路","lon":"121.49318","lat":"31.23215","category":"38","category_name":"公交车站","address":"上海黄浦区金陵东路"},{"poiid":"B209475CD76BA0F9469E","title":"大蔬无界 外滩22号馆","lon":"121.493989","lat":"31.230711","category":"111","category_name":"休闲餐饮场所","address":"上海市黄浦区中山东二路外滩22号4楼"},{"poiid":"B2094750D56EA1FD459D","title":"上海浦东香格里拉大酒店桂花楼中餐厅","lon":"121.498611","lat":"31.235609","category":"247","category_name":"餐饮美食","address":"富城路33号"},{"poiid":"B2094757D069A5F4449D","title":"Lavazza正大广场店","lon":"121.50245","lat":"31.23789","category":"260","category_name":"其他","address":"浦东新区陆家嘴西路168号正大广场3楼西区-25铺(近东方明珠)"},{"poiid":"B2094757D06FA7FD4592","title":"网鱼网咖(张杨店)","lon":"121.49722426","lat":"31.229141715","category":"173","category_name":"游戏厅","address":"浦东新区张杨路640号3楼A座(近第一八佰伴)"},{"poiid":"B2094750D46BABF94593","title":"小南国","lon":"121.496276","lat":"31.234474","category":"247","category_name":"餐饮美食","address":null},{"poiid":"B2094654DA6EA4FC439C","title":"福源商厦","lon":"121.496","lat":"31.2327","category":"46","category_name":"楼宇","address":"黄浦区福佑路338号(近丽水路)"},{"poiid":"B2094654DB65A3F9419A","title":"争鲜回转寿司 正大广场店","lon":"121.499669054","lat":"31.237629793","category":"95","category_name":"日本料理","address":"浦东新区陆家嘴西路168号正大广场B2楼(近东方明珠)"},{"poiid":"B2094757D069A2F8419D","title":"黄浦江游览","lon":"121.49412","lat":"31.23077","category":"260","category_name":"其他","address":"黄浦区中山东二路531号(近新开河)查看地图"},{"poiid":"B2094654DA6EA5FA419E","title":"新外滩商厦","lon":"121.49335","lat":"31.23127","category":"46","category_name":"楼宇","address":"黄浦区中山东二路15号(龙潭路中山东二路)"},{"poiid":"B2094757D068ABFD4392","title":"桂花楼","lon":"121.49925","lat":"31.23503","category":"76","category_name":"上海菜","address":"浦东新区富城路33号香格里拉大酒店浦江楼1楼(近名商路)"},{"poiid":"B2094654DB69A0F9439F","title":"福临门鱼翅海鲜酒家","lon":"121.49900980442","lat":"31.23552245249","category":"72","category_name":"广东菜","address":"浦东新区富城路33号香格里拉大酒店浦江楼2楼(近名商路)"},{"poiid":"B2094757D164A4F84498","title":"reddot","lon":"121.49676973","lat":"31.234767396","category":"500","category_name":"未知分类","address":"上海市滨江大道"},{"poiid":"B209475CD46EA0FF419B","title":"ASHLEY","lon":"121.497871","lat":"31.236114","category":"500","category_name":"未知分类","address":"上海市 上海市浦东新区陆家嘴西路168号正大广场8楼"},{"poiid":"B2094757D06AA0FD429D","title":"滩万 Nadaman","lon":"121.49900980442","lat":"31.23552245249","category":"95","category_name":"日本料理","address":"浦东新区富城路33号香格里拉大酒店紫金楼2楼(近名商路)"},{"poiid":"B2094757D069A6F5439A","title":"小竹园海鲜酒楼(外滩店)","lon":"121.493705026","lat":"31.2347289549","category":"247","category_name":"餐饮美食","address":"上海四川中路218号"},{"poiid":"B2094757D569A2FE4693","title":"新外滩15号","lon":"121.4933389","lat":"31.23143889","category":"47","category_name":"住宅区","address":"黄浦区中山东二路15号"},{"poiid":"B2094757D16BABFE4298","title":"浦东海关","lon":"121.49817973","lat":"31.236039423","category":"500","category_name":"未知分类","address":"上海陆家嘴西路153号"},{"poiid":"B2094750DA64A4FA449C","title":"外滩22号之一克拉的梦想","lon":"121.499397","lat":"31.234285","category":"248","category_name":"生活娱乐","address":"中山东二路22号"},{"poiid":"B2094757D068A6FF499C","title":"Reddot Bar","lon":"121.49853515","lat":"31.233560562","category":"172","category_name":"酒吧","address":"上海浦东滨江大道"},{"poiid":"B2094655D26EA4FC469A","title":"ZARA(正大店)","lon":"121.49833","lat":"31.23601","category":"141","category_name":"服装鞋帽皮具店","address":"浦东新区陆家嘴西路168号正大广场1楼"},{"poiid":"B2094753D26FAAF8419C","title":"TGI Friday","lon":"121.49813","lat":"31.236011","category":"500","category_name":"未知分类","address":"上海市 上海市浦东新区富城路"},{"poiid":"B2094750D56FA5F44398","title":"城隍庙小吃街","lon":"121.49562","lat":"31.23211","category":"68","category_name":"快餐厅","address":"黄浦区中山东二路501号新十六铺商业区B2楼美食美客内(近东门路)"},{"poiid":"B2094757D069A5F5439D","title":"外滩天文台","lon":"121.49302","lat":"31.23242","category":"46","category_name":"楼宇","address":"黄浦区中山东二路1号甲(近延安东路外滩)"},{"poiid":"B2094753DA6BA0F8469F","title":"MIZZI CAFE","lon":"121.500015","lat":"31.234008","category":"500","category_name":"未知分类","address":"上海市 富城路182号"},{"poiid":"B2094757D06BA2FA4499","title":"新开河","lon":"121.495265841","lat":"31.2296010434","category":"38","category_name":"公交车站","address":"上海外滩"},{"poiid":"B209475DD265A5FF439B","title":"Ruth's Chris Steak House","lon":"121.495727","lat":"31.232585","category":"500","category_name":"未知分类","address":"上海市 外滩5号"},{"poiid":"B2094757D66AAAFB439C","title":"江畔Quay","lon":"121.496346","lat":"31.229182","category":"94","category_name":"西餐厅","address":"黄浦区中山东二路585号外滩英迪格酒店6楼"},{"poiid":"B2094655D26CA3F4419B","title":"瑞尔齿科(正大广场诊所)","lon":"121.49833","lat":"31.23601","category":"162","category_name":"医院","address":"浦东新区陆家嘴西路168号正大广场B1楼F16号铺(近东方明珠)"},{"poiid":"B209475CD069A3FA429A","title":"米子 陆家嘴店","lon":"121.49876","lat":"31.23493","category":"65","category_name":"咖啡厅","address":"富城路182号近花园石桥路"},{"poiid":"B2094753DA68AAFC449B","title":"上海市东方明珠塔","lon":"121.493782","lat":"31.234169","category":"500","category_name":"未知分类","address":"上海市 上海市东方明珠塔"},{"poiid":"B209475DD06DA6F4459B","title":"Decanto","lon":"121.495376","lat":"31.232873","category":"500","category_name":"未知分类","address":"上海市 中山东一路外滩6号4楼"},{"poiid":"B2094757D06BA1F5409E","title":"Red dot","lon":"121.50023266","lat":"31.23302297","category":"500","category_name":"未知分类","address":"上海滨江大道"},{"poiid":"B2094757DB68A5F5479A","title":"翡翠36餐厅 Jade on 36","lon":"121.49900980442","lat":"31.23552245249","category":"94","category_name":"西餐厅","address":"浦东新区富城路33号香格里拉大酒店紫金楼36楼(近名商路)"},{"poiid":"B2094654DA6EA5FA419C","title":"中国工商银行上海市第一支行","lon":"121.49329","lat":"31.23151","category":"150","category_name":"银行","address":"黄浦区中山东二路15号外滩金陵东路口(金陵东路中山东二路)"},{"poiid":"B2094753D56EA3F4439B","title":"和平饭店","lon":"121.49768","lat":"31.232227","category":"247","category_name":"餐饮美食","address":"上海市 南京东路20号"},{"poiid":"B2094757D46CA7FA439F","title":"香格里拉西点坊","lon":"121.499010054","lat":"31.235522793","category":"112","category_name":"糕饼店","address":"浦东新区富城路33号香格里拉大酒店紫金楼1楼(近名商路)"},{"poiid":"B2094655D26FA3F9499C","title":"花旗银行(中国)上海分行","lon":"121.50032","lat":"31.23387","category":"150","category_name":"银行","address":"上海浦东新区花园石桥路33号花旗集团大厦1楼29到35楼"},{"poiid":"B2094757D064ABF94193","title":"THE RITZ CARLTON HOTEL PUDONG","lon":"121.49812147","lat":"31.23062966","category":"500","category_name":"未知分类","address":"上海浦东陆家嘴世纪大道8号上海国金中心"},{"poiid":"B2094757D164A0F5499B","title":"延安隧道","lon":"121.4965744","lat":"31.23248291","category":"500","category_name":"未知分类","address":"上海延安隧道"},{"poiid":"B2094757D569A2FA439F","title":"上海市黄浦江水上旅游客运港","lon":"121.4936463","lat":"31.23190027","category":"35","category_name":"长途汽车站","address":"中山东二路153号"},{"poiid":"B2094757D46BA1FD489C","title":"十二果芬 中山东二路店 Brix12","lon":"121.495787","lat":"31.2293892","category":"67","category_name":"甜品店","address":"中山东二路22号5楼近新开河路"},{"poiid":"B2094753D569A2F4469A","title":"上海外滩","lon":"121.496902","lat":"31.232303","category":"500","category_name":"未知分类","address":"上海市 上海外滩"},{"poiid":"B2094750DB69ABF54692","title":"华懋阁 cathay room","lon":"121.498527","lat":"31.234003","category":"247","category_name":"餐饮美食","address":"外滩 和平饭店"},{"poiid":"B2094655D26FA5F94292","title":"滨江花园","lon":"121.49656","lat":"31.23616","category":"47","category_name":"住宅区","address":"浦东新区滨江大道1号富都段(浦东南路口)"},{"poiid":"B2094752DB6AAAFF4993","title":"黄浦江上","lon":"121.49699","lat":"31.232151","category":"500","category_name":"未知分类","address":"上海市 黄浦江上"},{"poiid":"B2094751DA6AA5FE4092","title":"丽斯卡尔顿酒店","lon":"121.498352","lat":"31.235972","category":"247","category_name":"餐饮美食","address":"陆家嘴"},{"poiid":"B2094757D66EA4FA459B","title":"第一医药连锁经营有限公司","lon":"121.495437338","lat":"31.231870335","category":"46","category_name":"楼宇","address":"上海香港路130号"},{"poiid":"B209475DD16DA7FC479A","title":"Deli Leisure","lon":"121.50035","lat":"31.233242","category":"500","category_name":"未知分类","address":"上海市 富城路184号"},{"poiid":"B2094753D268A1FF499D","title":"Chez Ivan法庐法式餐厅","lon":"121.49395821594","lat":"31.23074345761","category":"97","category_name":"法式菜品餐厅","address":"中山东二路22号3F"},{"poiid":"B209475CD66BA1F8439F","title":"茶香书香-浦东滨江店","lon":"121.498243","lat":"31.235637","category":"111","category_name":"休闲餐饮场所","address":"浦东新区富城路28号"},{"poiid":"B2094757D064A6FB429E","title":"拜耳中国","lon":"121.500485","lat":"31.233757","category":"46","category_name":"楼宇","address":"上海花园石桥路33号花旗大厦18F"},{"poiid":"B2094752DA69A0FF489F","title":"东方明珠","lon":"121.495307","lat":"31.23251","category":"500","category_name":"未知分类","address":"上海市 陆家嘴"},{"poiid":"B2094750D464A2FF499B","title":"浦东新区","lon":"121.495552","lat":"31.233413","category":"500","category_name":"未知分类","address":"新金桥路"},{"poiid":"B2094757D06FA5FB4798","title":"MOMI&amp;TOY'S","lon":"121.495214526","lat":"31.2354783783","category":"67","category_name":"甜品店","address":"上海浦东新区世纪大道8号国金中心LG2"},{"poiid":"B2094757D065A5FD429E","title":"中山东二路新开河路站(公交33,55,65,868,910,926,928)","lon":"121.495716131","lat":"31.2294570049","category":"38","category_name":"公交车站","address":"上海市黄浦区中山东二路新开河路"},{"poiid":"B2094753D469A6FA429A","title":"外滩二十二号Bund22","lon":"121.493908","lat":"31.230748","category":"119","category_name":"商场","address":"中山东二路22号"},{"poiid":"B2094757D468A5FC4699","title":"果之满满（震旦店）","lon":"121.499636","lat":"31.234484","category":"67","category_name":"甜品店","address":"浦东新区富城路99号震旦国际大厦B1楼05单元(近银城中路)"},{"poiid":"B2094757DB69A1FB439D","title":"Jack London","lon":"121.49293","lat":"31.23177","category":"94","category_name":"西餐厅","address":"黄浦区中山东二路12号24楼(近金陵东路)"},{"poiid":"B2094757D16FA4FD4398","title":"宝莱娜","lon":"121.49811973","lat":"31.235697416","category":"249","category_name":"购物服务","address":"上海市浦东新区明珠塔路"},{"poiid":"B2094751DA68A4FF489B","title":"南滨江","lon":"121.494553","lat":"31.231857","category":"250","category_name":"公园户外","address":"陆家嘴"},{"poiid":"B2094750DB6BA7F4449A","title":"花马天堂云南餐厅","lon":"121.495269","lat":"31.230751","category":"247","category_name":"餐饮美食","address":"延安西路17甲"},{"poiid":"B2094757DB6FA3F84099","title":"淮海路一号酒吧","lon":"121.4966975953756","lat":"31.22976648979435","category":"248","category_name":"生活娱乐","address":"淮海路柳荫路"},{"poiid":"B2094752D46AA2F8489E","title":"中国农业银行城隍庙分理处","lon":"121.497328","lat":"31.234227","category":"150","category_name":"银行","address":"上海市黄浦区丽水路61-81号"},{"poiid":"B2094757D06AA1F4479B","title":"烟波亭 震旦店","lon":"121.49904","lat":"31.23478","category":"68","category_name":"快餐厅","address":"浦东新区富城路99号震旦国际大楼B1楼(近名商路)"},{"poiid":"B2094751DB65A2FF429E","title":"檬泰泰国餐厅","lon":"121.4998","lat":"31.23369","category":"99","category_name":"泰国／越南菜品餐厅","address":"浦东新区花园石桥路33号花旗集团大厦2楼(近陆家嘴环路)"},{"poiid":"B2094750D365A6F9459D","title":"黃浦江上","lon":"121.495994","lat":"31.234579","category":"627","category_name":"一般地点标志","address":null},{"poiid":"B2094655D26EA7F8459A","title":"翡翠36 ( Jade oJade on 36)","lon":"121.49876","lat":"31.23566","category":"131","category_name":"珠宝首饰工艺品","address":"富城路33号香格里拉酒店36层"},{"poiid":"B2094753D56AA6FB4093","title":"茶香书香滨江店","lon":"121.498016","lat":"31.235717","category":"500","category_name":"未知分类","address":"上海市 富城路28号"},{"poiid":"B2094757D66BA0FD4898","title":"cafe DongXi","lon":"121.492901","lat":"31.231715","category":"94","category_name":"西餐厅","address":"黄浦区金陵东路1号东方商旅酒店2楼(近中山东二路)"},{"poiid":"B2094757D464A7FF489D","title":"加纳小屋","lon":"121.500050054","lat":"31.234238793","category":"95","category_name":"日本料理","address":"浦东新区石桥路33号花旗集团大厦1楼大厅内(花园石桥路陆家嘴环路)"},{"poiid":"B2094654DB65A7F94092","title":"城市超市(滨江店)","lon":"121.50001","lat":"31.2339","category":"118","category_name":"超级市场","address":"浦东新区陆家嘴花园石桥路33号(近富城路)"},{"poiid":"B2094757D169AAF54599","title":"haagen dazs","lon":"121.49856567","lat":"31.231763839","category":"500","category_name":"未知分类","address":"上海滨江大道"},{"poiid":"B2094757D068A4FD409A","title":"平安银行上海分行","lon":"121.49371028","lat":"31.231478343","category":"150","category_name":"银行","address":"上海黄浦区中山东二路15号9楼"},{"poiid":"B2094752DB64A5FB4298","title":"米子mizzi","lon":"121.494782","lat":"31.233526","category":"500","category_name":"未知分类","address":"上海市 浦东新区富城路182号"},{"poiid":"B2094757D064A0FF429E","title":"NuSoup震旦店","lon":"121.499714","lat":"31.234802677","category":"68","category_name":"快餐厅","address":"浦东新区富城路99号震旦国际大厦B1楼(近正大广场)"},{"poiid":"B2094757D06FAAFB409B","title":"洲际酒店集团IHG大中华区总部","lon":"121.500273","lat":"31.233868","category":"46","category_name":"楼宇","address":"上海浦东新区花园石桥路33号花旗集团大厦22楼"},{"poiid":"B2094757D56CABFE469E","title":"浦江游览一号中餐厅","lon":"121.492887054","lat":"31.232112793","category":"72","category_name":"广东菜","address":"黄浦区中山东二路219号(近金陵东路)"},{"poiid":"B2094655D36DA7F84499","title":"中山东二路新开河路","lon":"121.49485","lat":"31.23016","category":"38","category_name":"公交车站","address":""},{"poiid":"B2094753DA68A3F94493","title":"GOODFELLAS","lon":"121.495651","lat":"31.230916","category":"500","category_name":"未知分类","address":"上海市 延安东路7号"},{"poiid":"B209475CD36AA3FB429D","title":"BOCCA意大利餐厅","lon":"121.49342","lat":"31.23091","category":"98","category_name":"意式菜品餐厅","address":"中山东二路22号5楼(近新永安路)"},{"poiid":"B2094654DA6EA5FF489E","title":"可的(中山东二路)","lon":"121.49359","lat":"31.23194","category":"117","category_name":"便民商店/便利店","address":"中山东二路外滩133识别"},{"poiid":"B209475CD369A6FA4092","title":"天家二十二","lon":"121.49403427","lat":"31.23068657","category":"95","category_name":"日本料理","address":"中山东二路22号309室(近新永安路)"},{"poiid":"B2094753D765AAF44193","title":"悠乐餐厅","lon":"121.500236","lat":"31.233409","category":"500","category_name":"未知分类","address":"上海市 富城路148号"},{"poiid":"B2094751D56BA0FD459D","title":"上海宝莱纳滨江路店","lon":"121.494414","lat":"31.231492","category":"500","category_name":"未知分类","address":null},{"poiid":"B2094655D26EA1FE4093","title":"欢乐广场","lon":"121.49693","lat":"31.23544","category":"202","category_name":"公园广场","address":"四川北路1552号"},{"poiid":"B2094655D36CA7FD4399","title":"花园石桥路富城路","lon":"121.5005","lat":"31.23337","category":"38","category_name":"公交车站","address":""},{"poiid":"B2094757D064A2FB459B","title":"55路公交车终点站","lon":"121.494495884","lat":"31.2298011176","category":"38","category_name":"公交车站","address":"上海新开河枢纽站"},{"poiid":"B2094752DA6BA4F8479C","title":"麝香猫","lon":"121.496565","lat":"31.235237","category":"249","category_name":"购物服务","address":"上海市 滨江大道"},{"poiid":"B209475CD26DA4F4479C","title":"黄浦江上","lon":"121.498931","lat":"31.233236","category":"500","category_name":"未知分类","address":"上海市 外滩"},{"poiid":"B2094753D56BA5FB489D","title":"La Pedrera 巴特洛西班牙餐厅","lon":"121.494056","lat":"31.231235","category":"500","category_name":"未知分类","address":"上海市 四川中路33号"},{"poiid":"B2094757D064A5F54899","title":"中信银行股份有限公司上海分行","lon":"121.49958033","lat":"31.234320187","category":"500","category_name":"未知分类","address":"上海富城路99号震旦国际大楼"},{"poiid":"B209475CD768A0FE489D","title":"万岛日本料理铁板烧","lon":"121.494544","lat":"31.231506","category":"500","category_name":"未知分类","address":"上海市 黄浦区四川中路33号1楼"},{"poiid":"B209475CD76CA3FE4093","title":"ashley","lon":"121.494148","lat":"31.23229","category":"500","category_name":"未知分类","address":"上海市 正大广场8楼"},{"poiid":"B2094655D26EA6FB419D","title":"雷诺瓦拼图文化坊","lon":"121.49833","lat":"31.23601","category":"248","category_name":"生活娱乐","address":"浦东新区陆家嘴西路168号正大广场5楼5F-62室"},{"poiid":"B2094655D265A0F4489F","title":"浦江游览153号登船点","lon":"121.4934","lat":"31.23208","category":"250","category_name":"公园户外","address":"中山东二路153号"},{"poiid":"B2094655D268A6FF4892","title":"寿司","lon":"121.5003","lat":"31.23388","category":"95","category_name":"日本料理","address":"花园石桥路33号花旗大厦2楼近陆家嘴环路"},{"poiid":"B2094750D76FA2FE429E","title":"L'horizen","lon":"121.493","lat":"31.2319","category":"269","category_name":"烧烤","address":"中山东二路12号23楼(近金陵东路)"},{"poiid":"B2094757D569A1FC409B","title":"上海旅游咨询服务中心(外滩隧道)","lon":"121.4945635","lat":"31.23109104","category":"604","category_name":"旅游咨询","address":"中山东二路(外滩)241"},{"poiid":"B2094757D16FA7FC4999","title":"774路陆家嘴终点站","lon":"121.497934738","lat":"31.2355254129","category":"38","category_name":"公交车站","address":"上海市浦东新区陆家嘴西路富城路西侧"},{"poiid":"B2094654DA6EA5FF489C","title":"快客(中山东二路)","lon":"121.49305","lat":"31.2324","category":"117","category_name":"便民商店/便利店","address":"中山东二路外滩123识别"},{"poiid":"B2094655D36CA2F9459D","title":"人民路新开河路","lon":"121.49446","lat":"31.22923","category":"38","category_name":"公交车站","address":""},{"poiid":"B2094757D065A3FA4692","title":"M78星云","lon":"121.49431658","lat":"31.231392224","category":"500","category_name":"未知分类","address":"上海银河系太阳市LwOeViE路521弄1314号"},{"poiid":"B209475CD46BA0F8499E","title":"CIRQUE LA SOIR","lon":"121.493484","lat":"31.230638","category":"500","category_name":"未知分类","address":"上海市 中山东二路外滩22号4楼(近永安路)"},{"poiid":"B209475CD36EA7F84993","title":"麝香猫西餐厅酒吧","lon":"121.49649381638","lat":"31.236086823676","category":"97","category_name":"法式菜品餐厅","address":"陆家嘴西路2967号(滨江大道富都段)滨江公园内近富城路"},{"poiid":"B2094752D46FA6FC4492","title":"炉边情谈","lon":"121.499578","lat":"31.231521","category":"500","category_name":"未知分类","address":"正大广场"},{"poiid":"B2094753D26AA1FD499E","title":"TGI-Fridays","lon":"121.497768","lat":"31.236163","category":"500","category_name":"未知分类","address":"上海市 富城路60号"},{"poiid":"B2094753DB65AAFA419B","title":"外滩十八号","lon":"121.49298","lat":"31.232683","category":"500","category_name":"未知分类","address":"上海市 上海黄浦区"},{"poiid":"B2094753DA6BA1F5409C","title":"paulaner bar","lon":"121.49414","lat":"31.234153","category":"500","category_name":"未知分类","address":"上海市 上海市浦东新区滨江大道"},{"poiid":"B2094757D064A2FC459E","title":"955路跨龙路站","lon":"121.497691738","lat":"31.2345663925","category":"500","category_name":"未知分类","address":"上海955路、南新线、985路跨龙路站"},{"poiid":"B209475CD76FA0F8489F","title":"mizzi","lon":"121.500045","lat":"31.233633","category":"500","category_name":"未知分类","address":"上海市 滨江富城路182号"},{"poiid":"B2094654DB64A6F8479A","title":"浦东夜上海","lon":"121.50029","lat":"31.23388","category":"257","category_name":"中餐厅","address":"花园石桥路33号花旗集团大厦3层"},{"poiid":"B2094757DB68A3FF4898","title":"浦发","lon":"121.493238","lat":"31.231629","category":"500","category_name":"未知分类","address":"外滩"},{"poiid":"B2094757D469A1F5479F","title":"MJ.98酒吧","lon":"121.4964225","lat":"31.2288226","category":"260","category_name":"其他","address":"黄浦区中山东二路501号新十六铺商业区B112室"},{"poiid":"B2094753DA68ABF44792","title":"上海市东方明珠塔","lon":"121.49707","lat":"31.23509","category":"500","category_name":"未知分类","address":"上海市 上海市东方明珠塔"},{"poiid":"B209475CDA65ABFF429C","title":"Friday星期五餐厅","lon":"121.500343","lat":"31.23402","category":"500","category_name":"未知分类","address":"上海市 富城路16号"},{"poiid":"B2094654DA6EA5FF4792","title":"上海海洋水族馆外滩售票处","lon":"121.49414","lat":"31.23143","category":"33","category_name":"公园景点售票处","address":"中山东二路207号"},{"poiid":"B2094757D16BA7FD4298","title":"富桥足浴上南店","lon":"121.49366773","lat":"31.231273322","category":"500","category_name":"未知分类","address":"上海浦东上南路杨思路口维也纳酒店3楼"},{"poiid":"B2094757DA69A1FC469F","title":"震旦集团AURORA","lon":"121.49929","lat":"31.23478","category":"645","category_name":"机构及其他类公司","address":"富城路99号震旦国际大楼"},{"poiid":"B2094757D068A7FD4592","title":"新十六铺A区","lon":"121.4964221","lat":"31.2288222","category":"500","category_name":"未知分类","address":"上海黄浦区中山东二路501号"},{"poiid":"B2094655D26DA2F4479A","title":"江苏银行上海分行","lon":"121.49977","lat":"31.23444","category":"150","category_name":"银行","address":"富城路99震旦国际大厦7层"},{"poiid":"B2094654DB65A1F44298","title":"平安银行","lon":"121.49356","lat":"31.23123","category":"150","category_name":"银行","address":"福州路355号上海文化商厦5层"},{"poiid":"B2094655D26EA6FD499F","title":"东外滩国际会所","lon":"121.49929","lat":"31.23478","category":"221","category_name":"健身中心","address":"富城路99号震旦国际大厦裙楼5-6楼近陆家嘴西路"},{"poiid":"B2094757D06BA5FD489E","title":"福岛第一核电站四号机组","lon":"121.498768","lat":"31.235663","category":"500","category_name":"未知分类","address":"上海日本"},{"poiid":"B2094655D26EABFE4292","title":"松叶家(正大广场店)","lon":"121.49833","lat":"31.23601","category":"247","category_name":"餐饮美食","address":"浦东新区陆家嘴西路168号"},{"poiid":"B209475CDB6CA1FD429C","title":"Ashley","lon":"121.50016","lat":"31.233819","category":"500","category_name":"未知分类","address":"上海市 正大廣場8F"},{"poiid":"B2094757D164A0F8419A","title":"璞丽酒店","lon":"121.493829238","lat":"31.2297287894","category":"500","category_name":"未知分类","address":"上海静安区常德路1号"},{"poiid":"B2094757D068A5F4479F","title":"三叶草(正大店)","lon":"121.4986","lat":"31.23574","category":"140","category_name":"体育用品店","address":"浦东新区陆家嘴西路168号正大广场GF楼25B号铺(近东方明珠)"},{"poiid":"B2094757D064A6F5439D","title":"870路陆家嘴终点站","lon":"121.4974387","lat":"31.235764508","category":"500","category_name":"未知分类","address":"上海市浦东新区陆家嘴西路富城路西侧"},{"poiid":"B2094757D06AA5FF469D","title":"上海市锦天城律师事务所","lon":"121.50011693","lat":"31.234439139","category":"623","category_name":"律师事务所","address":"上海市浦东新区花园石桥路33号花旗集团大厦14楼"},{"poiid":"B2094753D668A6FD449F","title":"黃浦江中央","lon":"121.494515","lat":"31.235171","category":"500","category_name":"未知分类","address":"上海市 浦東"},{"poiid":"B2094757D66EA6F4499D","title":"11路人民路新开河路站","lon":"121.494813","lat":"31.229825","category":"500","category_name":"未知分类","address":"上海人民路新开河路"},{"poiid":"B2094655D26DA2F4479B","title":"中国人民银行上海总部","lon":"121.49967","lat":"31.23463","category":"150","category_name":"银行","address":"富城路99震旦国际大厦29-32层"},{"poiid":"B2094757D16DA4FD459A","title":"昆山阳澄湖蟹圆舫","lon":"121.496772766","lat":"31.2355397713","category":"500","category_name":"未知分类","address":"上海蟹圆舫巴城临湖交易市场56号码头"},{"poiid":"B2094757D66DA4FA4699","title":"NUCAFE","lon":"121.49944273","lat":"31.234096382","category":"260","category_name":"其他","address":"浦东新区富城路99号B1楼(近名商路)"},{"poiid":"B2094654DA6FA7FE4198","title":"震旦办公家具设备展示厅","lon":"121.49968","lat":"31.23462","category":"123","category_name":"家具建材市场","address":"富城路99号震旦大厦10层"},{"poiid":"B2094757D16FA6FC409C","title":"外滩支行个人信贷业务","lon":"121.49345963","lat":"31.23073371","category":"500","category_name":"未知分类","address":"上海黄浦区中山东二路11号光明大厦六楼小房间"},{"poiid":"B2094752D36FA3F4429F","title":"香格里拉大酒店","lon":"121.498592","lat":"31.234425","category":"500","category_name":"未知分类","address":null},{"poiid":"B2094753DB6EA6F84992","title":"上海东方商旅酒店","lon":"121.492901","lat":"31.231715","category":"217","category_name":"旅馆招待所","address":"上海黄浦区金陵东路1号"},{"poiid":"B2094757D065A7F54793","title":"Vera Wang","lon":"121.498777723","lat":"31.2356963529","category":"122","category_name":"个人用品/化妆品店","address":"上海浦东新区富城路33号香格里拉大酒店2座"},{"poiid":"B2094654DA6FA7FF4292","title":"拜耳(中国)有限公司","lon":"121.5003","lat":"31.23388","category":"263","category_name":"公司","address":"花园石桥路33号花旗集团大厦18层"},{"poiid":"B2094757D16DA2F44393","title":"浦东新区康桥工业区","lon":"121.498779","lat":"31.235679","category":"500","category_name":"未知分类","address":"上海浦东"},{"poiid":"B2094654DB6BABFC419A","title":"兴业银行上海陆家嘴支行","lon":"121.49969","lat":"31.23463","category":"150","category_name":"银行","address":"富城路99号震旦国际大厦附楼1层"},{"poiid":"B2094757D165A4FF4398","title":"诺坎普体育场","lon":"121.493825838","lat":"31.2297272894","category":"500","category_name":"未知分类","address":"Avda. Aristides Maillol s/n Barcelona, Spain  "},{"poiid":"B2094757D06BA4F54098","title":"Jade bar","lon":"121.49903","lat":"31.23539","category":"260","category_name":"其他","address":"浦东新区富城路33号香格里拉酒店36楼(近滨江大道)"},{"poiid":"B2094757D16CA2FB419A","title":"喵喵之家","lon":"121.494001638","lat":"31.2296263872","category":"500","category_name":"未知分类","address":null},{"poiid":"B2094757D06AA4FC479B","title":"茂名汇","lon":"121.49724273","lat":"31.23589542","category":"500","category_name":"未知分类","address":"上海市静安区延安中路718号"},{"poiid":"B2094654DA6FA7FF4293","title":"拜耳医药保健有限公司上海办事处","lon":"121.50029","lat":"31.23388","category":"263","category_name":"公司","address":"花园石桥路33号花旗集团大厦18层"},{"poiid":"B2094654DA6FA7FF459C","title":"花旗环球金融亚洲有限公司上海代表处","lon":"121.5003","lat":"31.23388","category":"263","category_name":"公司","address":"花园石桥路33号花旗集团大厦34层"},{"poiid":"B2094752D068A6F94499","title":"上海市上海戏剧学院","lon":"121.493885","lat":"31.234165","category":"253","category_name":"校园生活","address":null},{"poiid":"B2094654DB6BABFC4098","title":"滨江公园(六号门)","lon":"121.49636","lat":"31.2363","category":"680","category_name":"楼宇机构","address":"滨江大道2967"},{"poiid":"B2094654DA6FA7FE429F","title":"Aurora City","lon":"121.49967","lat":"31.23463","category":"263","category_name":"公司","address":"富城路99号震旦大厦10层"},{"poiid":"B2094654DA6FA7FE439E","title":"上海联油国际贸易有限公司","lon":"121.49967","lat":"31.23463","category":"263","category_name":"公司","address":"富城路99号震旦大厦16层02"},{"poiid":"B2094654DA6FA7FF439C","title":"洲际酒店集团","lon":"121.50028","lat":"31.23388","category":"263","category_name":"公司","address":"花园石桥路33号花旗集团大厦22层"},{"poiid":"B2094654DA6FA7FF459F","title":"金元比联基金管理有限公司","lon":"121.50029","lat":"31.23388","category":"263","category_name":"公司","address":"花园石桥路33号花旗集团大厦3608"},{"poiid":"B2094752DA68A6F44298","title":"乐天皇朝","lon":"121.496083","lat":"31.236257","category":"500","category_name":"未知分类","address":"上海市 国金中心3F"},{"poiid":"B2094654DA6FA7FF4198","title":"中国东方航空公司上海售票处","lon":"121.50029","lat":"31.23388","category":"28","category_name":"飞机票代售点","address":"浦东新区花园石桥路33号花旗大厦2楼(近富城路)"},{"poiid":"B2094757D569A2FA4992","title":"温馨酒廊","lon":"121.4987639","lat":"31.23566194","category":"260","category_name":"其他","address":"浦东新区富城路33号香格里拉酒店1楼(富城路名商路)"},{"poiid":"B2094654DA6FA7FE4393","title":"上投摩根基金管理有限公司","lon":"121.49967","lat":"31.23463","category":"219","category_name":"其他","address":"富城路99号震旦大厦20层"},{"poiid":"B2094752D06CA7FC469C","title":"上海国际会展中心","lon":"121.493736","lat":"31.234659","category":"500","category_name":"未知分类","address":null},{"poiid":"B2094757D569A3FC4393","title":"B.A.T.S(蝙蝠娱乐中心)","lon":"121.4987639","lat":"31.23566194","category":"248","category_name":"生活娱乐","address":"富城路33号浦东香格里拉酒店1座B1层"},{"poiid":"B2094654DB6BABFC419B","title":"国海富兰克林基金管理有限公司","lon":"121.49968","lat":"31.23463","category":"219","category_name":"其他","address":"富城路99号震旦大厦17层01、18层01-02、04"},{"poiid":"B2094757D068A4FE479C","title":"杨家渡渡口","lon":"121.4963684","lat":"31.236305236","category":"260","category_name":"其他","address":"上海浦东新区滨江大道"},{"poiid":"B2094655D26DA2F44693","title":"震旦大厦(北门)","lon":"121.49907","lat":"31.23493","category":"656","category_name":"大门","address":""}]