[{"poiid":"B2094655D26FA5FF469B","title":"上海交通大学徐汇校区","lon":"121.43258","lat":"31.19881","category":"52","category_name":"高等院校","address":"徐汇区华山路1954号上海交通大学内(近广元西路)"},{"poiid":"B2094654DA6DA3FE419E","title":"上海交通大学徐汇校区(南门)","lon":"121.43528","lat":"31.19744","category":"52","category_name":"高等院校","address":"广元西路55"},{"poiid":"B2094757D06FA1FF4598","title":"大茴香(徐汇店)","lon":"121.43374","lat":"31.19529","category":"99","category_name":"泰国／越南菜品餐厅","address":"徐汇区广元西路189号(近乐山路)"},{"poiid":"B2094757D06AA5F5469C","title":"交通大学大草坪","lon":"121.43466381","lat":"31.199059858","category":"500","category_name":"未知分类","address":"上海交大华山路校区"},{"poiid":"B2094757D06FA1F9429D","title":"山间堂民间瓦缸煨汤(广元店)","lon":"121.43387","lat":"31.1955","category":"260","category_name":"其他","address":"徐汇区广元西路197号(近宜山北路)"},{"poiid":"B2094757D06FA7FD469D","title":"六福面道生煎馆","lon":"121.43542","lat":"31.19663","category":"68","category_name":"快餐厅","address":"徐汇区广元西路88号(近乐山路)"},{"poiid":"B2094757DA65A2F8449B","title":"好乐迪","lon":"121.434462","lat":"31.195326","category":"500","category_name":"未知分类","address":"徐汇区美罗城"},{"poiid":"B2094757D06FA1FF479B","title":"交大慧谷培训中心","lon":"121.43256","lat":"31.19596","category":"46","category_name":"楼宇","address":"徐汇区乐山路33号2号楼4楼(广元西路口)"},{"poiid":"B2094752D36FA6FF439D","title":"顺风大酒店","lon":"121.433712","lat":"31.196662","category":"247","category_name":"餐饮美食","address":"上海徐汇区华山路2038号汇银广场5楼"},{"poiid":"B2094757D06FA1F5469E","title":"85度C(广元店)","lon":"121.434534928","lat":"31.196470258","category":"112","category_name":"糕饼店","address":"徐汇区广元西路98号名仕1楼第98-8室(近乐山路)"},{"poiid":"B2094757D06FA4F54298","title":"上海新东方学校(广元西路校区)","lon":"121.43421","lat":"31.19632","category":"253","category_name":"校园生活","address":"上海徐汇区广元西路187号(近乐山路)  "},{"poiid":"B2094654DB65A2FC409B","title":"老盛昌苏州汤包馆(乐山路店)","lon":"121.43329","lat":"31.19621","category":"68","category_name":"快餐厅","address":"上海徐汇区乐山路7号(广元西路口)"},{"poiid":"B2094757D66EA4FE439A","title":"上海影城6号放映厅","lon":"121.432505786","lat":"31.1995091303","category":"178","category_name":"电影院","address":"长宁区新华路160号上海影城内(近番愚路)"},{"poiid":"B2094752D66FAAFC4499","title":"LAMU慕新香榭铁板烧","lon":"121.434276","lat":"31.195713","category":"247","category_name":"餐饮美食","address":"美罗城8楼"},{"poiid":"B2094757D06FA1F5419C","title":"食其家 广元西路店","lon":"121.430985054","lat":"31.194099793","category":"95","category_name":"日本料理","address":"徐汇区广元西路88号(近乐山路)"},{"poiid":"B2094757D069A4FF4899","title":"上海交通大学徐汇校区食堂","lon":"121.43173766","lat":"31.199022779","category":"253","category_name":"校园生活","address":"上海徐汇区华山路1954号交大徐汇校区内(近广元西路)"},{"poiid":"B2094757D16EA1FC4993","title":"上海交大徐汇校区大操场","lon":"121.43473535","lat":"31.198292789","category":"500","category_name":"未知分类","address":"上海交通大学徐汇校区"},{"poiid":"B2094750DB6CABF4429B","title":"港汇广场 永乐电影院","lon":"121.4322351732257","lat":"31.19701766388474","category":"248","category_name":"生活娱乐","address":null},{"poiid":"B2094757D06FAAF9459E","title":"永和大王(广元西路店)","lon":"121.43521","lat":"31.19677","category":"68","category_name":"快餐厅","address":"上海徐汇区广元西路98号(近恭城路)  "},{"poiid":"B2094757D068A0FC4498","title":"荷悦堂健康养身馆","lon":"121.4356","lat":"31.19695","category":"149","category_name":"洗浴推拿场所","address":"徐汇区广元西路88号(近恭城路)"},{"poiid":"B2094751DA6DA1FF409E","title":"金錢豹","lon":"121.4329604","lat":"31.1951578","category":"247","category_name":"餐饮美食","address":"匯金百貨"},{"poiid":"B2094654DA6DA3F84193","title":"达通广场","lon":"121.43109","lat":"31.20002","category":"46","category_name":"楼宇","address":"上海市静安区南京西路555号"},{"poiid":"B2094757D56CA1FE439B","title":"肯德基 港汇区","lon":"121.437404054","lat":"31.193959793","category":"247","category_name":"餐饮美食","address":"港汇广场地下1F"},{"poiid":"B2094655D268A3FC409D","title":"锦江之星旅馆徐家汇交大店","lon":"121.43218","lat":"31.19465","category":"216","category_name":"经济型连锁酒店","address":"上海市徐汇区广元西路319号（近华山路）"},{"poiid":"B2094757DB6CA7FB409E","title":"9号线徐家汇站","lon":"121.4348694","lat":"31.198131","category":"500","category_name":"未知分类","address":"9号线徐家汇站"},{"poiid":"B2094757D068A0FF469F","title":"避风塘茶楼(广元店)","lon":"121.43326","lat":"31.19452","category":"260","category_name":"其他","address":"徐汇区广元西路266号(近宜山北路)"},{"poiid":"B2094752D26AABF44192","title":"华山医院","lon":"121.4328515344499","lat":"31.196269174135473","category":"162","category_name":"医院","address":"乌鲁木齐路12号"},{"poiid":"B2094654DB65A1FD4698","title":"交通大学(华山路)","lon":"121.43258","lat":"31.19881","category":"52","category_name":"高等院校","address":"华山路1954"},{"poiid":"B2094751D264ABF8469E","title":"港汇 望湘园","lon":"121.4327200261103","lat":"31.19713961276932","category":"247","category_name":"餐饮美食","address":null},{"poiid":"B2094752D364A5FF4592","title":"顺风大酒店(汇银广场店)","lon":"121.43224","lat":"31.19806","category":"75","category_name":"浙江菜","address":"徐汇区华山路2038号汇银广场5楼(近广元西路)"},{"poiid":"B2094757D069A2FD439E","title":"交通大学食堂","lon":"121.43654","lat":"31.19878","category":"68","category_name":"快餐厅","address":"徐汇区华山路1954号上海交通大学食堂1楼(近广元西路)"},{"poiid":"B2094654DA6DA3FE4498","title":"上海交通大学海外教育学院(广元西路)","lon":"121.43495","lat":"31.19798","category":"52","category_name":"高等院校","address":"广元西路55号浩然高科技大厦17层02-06"},{"poiid":"B2094752D76DA6FA4293","title":"意面屋","lon":"121.431922","lat":"31.199243","category":"247","category_name":"餐饮美食","address":"上海徐家汇华山路2088号百联徐汇3l楼"},{"poiid":"B2094757D06FABF8479E","title":"博望坡餐厅 虹桥路店","lon":"121.434364054","lat":"31.193106793","category":"260","category_name":"其他","address":"徐汇区虹桥路199号弘基休闲广场内(近恭城路)"},{"poiid":"B2094757D16CA1FB489D","title":"交通大学徐汇校区篮球场","lon":"121.430502176","lat":"31.1989013869","category":"220","category_name":"运动场所","address":"徐汇区华山路1954号上海交通大学内(近广元西路)"},{"poiid":"B2094655D26BA4F8479A","title":"上海交通大学礼堂","lon":"121.43174","lat":"31.19847","category":"52","category_name":"高等院校","address":""},{"poiid":"B2094757DB6FA7FD409A","title":"港汇","lon":"121.43431061","lat":"31.20004205999999","category":"500","category_name":"未知分类","address":"港汇"},{"poiid":"B2094751D465A6F4409C","title":"国际和平妇婴保健院","lon":"121.4346805","lat":"31.1963331","category":"500","category_name":"未知分类","address":null},{"poiid":"B2094654DB65A3F9439E","title":"乐山四五村","lon":"121.43275","lat":"31.197001","category":"47","category_name":"住宅区","address":"乐山路12弄1-32号"},{"poiid":"B2094757DA65A2F4489E","title":"秀多多日式炭烤","lon":"121.432043","lat":"31.196839","category":"247","category_name":"餐饮美食","address":"港汇广场万裕食街"},{"poiid":"B2094757D16EA7F8449D","title":"乐山大楼","lon":"121.43278","lat":"31.196115","category":"47","category_name":"住宅区","address":"上海乐山路25弄"},{"poiid":"B2094752D46DA7FA4592","title":"LAMU慕新香谢","lon":"121.435017","lat":"31.195483","category":"247","category_name":"餐饮美食","address":"肇嘉浜路1111号美罗城8楼"},{"poiid":"B2094751D465A3FE479E","title":"比萨马上诺","lon":"121.432822","lat":"31.196621","category":"247","category_name":"餐饮美食","address":null},{"poiid":"B2094655D26EA1FA4899","title":"乐山二村","lon":"121.431","lat":"31.197004","category":"47","category_name":"住宅区","address":"乐山支路4弄1-13号,8弄1-32号"},{"poiid":"B2094757D16EA4F8419B","title":"上海交通大学教三楼(Med-X研究院)","lon":"121.43392065","lat":"31.19809683","category":"253","category_name":"校园生活","address":"上海徐汇区华山路1954号"},{"poiid":"B2094751D36BA5FA459C","title":"国际妇幼保健医院","lon":"121.4339","lat":"31.19779","category":"162","category_name":"医院","address":null},{"poiid":"B2094654DA6DA3FD449C","title":"交大慧谷科技商城","lon":"121.43568","lat":"31.1979","category":"46","category_name":"楼宇","address":"广元西路45"},{"poiid":"B2094752DB6AAAF54998","title":"永华影城","lon":"121.434199","lat":"31.200102","category":"178","category_name":"电影院","address":"上海市 港汇广场6F"},{"poiid":"B2094655D36CA7F4489F","title":"广元西路华山路","lon":"121.43566","lat":"31.19751","category":"38","category_name":"公交车站","address":""},{"poiid":"B2094655D26FA5FE4398","title":"汇宁花园","lon":"121.43185","lat":"31.200317","category":"47","category_name":"住宅区","address":"上海市徐汇区淮海西路183弄"},{"poiid":"B2094757D068A7F9409C","title":"7-ELEVEN(广元店)","lon":"121.4338218","lat":"31.1958451","category":"117","category_name":"便民商店/便利店","address":"徐汇区广元西路98-5号(近恭城路)"},{"poiid":"B2094757D06BA7FE419A","title":"交通大学国际教育学院","lon":"121.43132721","lat":"31.196965165","category":"253","category_name":"校园生活","address":"上海华山路1954号教一楼"},{"poiid":"B2094752DA69A4FC429E","title":"70后饭吧","lon":"121.434402","lat":"31.199227","category":"247","category_name":"餐饮美食","address":"上海市 徐家汇汇金"},{"poiid":"B2094655D264A6FB429D","title":"上海交通大学体育馆","lon":"121.43368","lat":"31.19906","category":"224","category_name":"综合体育馆","address":""},{"poiid":"B2094750DB65A7F4449D","title":"港汇中心一座","lon":"121.433769","lat":"31.198616","category":"500","category_name":"未知分类","address":"徐家汇"},{"poiid":"B2094752D76EABFC449E","title":"镰食Pasta","lon":"121.433976","lat":"31.194939","category":"247","category_name":"餐饮美食","address":"美罗城地下1楼"},{"poiid":"B2094752D568A6F8469F","title":"顺风美心大酒店","lon":"121.43151","lat":"31.199393","category":"247","category_name":"餐饮美食","address":"华山路1998号新路达商厦5楼(近广元西路)"},{"poiid":"B2094757D169A4FD499A","title":"上海交通大学文治堂","lon":"121.43102636","lat":"31.1985849335","category":"500","category_name":"未知分类","address":"上海徐汇区华山路1954号"},{"poiid":"B2094757D06AA5F44499","title":"上海交通大学新建楼","lon":"121.43357908","lat":"31.198522744","category":"253","category_name":"校园生活","address":"上海华山路1954号"},{"poiid":"B2094750DB6CA0F94199","title":"鹿港小镇","lon":"121.4321874","lat":"31.196817","category":"247","category_name":"餐饮美食","address":null},{"poiid":"B2094752D164A1F5419B","title":"釜山料理","lon":"121.434389","lat":"31.196088","category":"247","category_name":"餐饮美食","address":"港汇恒隆"},{"poiid":"B2094757DB6FA4FF419C","title":"京都造型","lon":"121.433332","lat":"31.195622","category":"148","category_name":"美容美发店","address":"徐汇区漕溪北路28号实业公寓5楼D座(港汇广场对面)"},{"poiid":"B2094654DA6DA3FE479A","title":"董恒甫职业技术学校广元校区","lon":"121.4338","lat":"31.19663","category":"54","category_name":"职业技术学校","address":"广元西路187"},{"poiid":"B2094753D26FABFB4599","title":"小辉哥火锅","lon":"121.43243","lat":"31.196703","category":"247","category_name":"餐饮美食","address":"上海市 徐汇区虹桥路1号港汇广场5楼"},{"poiid":"B2094654DA6DA3FE4492","title":"上海交大E-learning Lab","lon":"121.43494","lat":"31.19798","category":"52","category_name":"高等院校","address":"徐汇区广元西路55号浩然高科大厦旁(近华山路)"},{"poiid":"B2094752D66AA5FD4092","title":"尚嘉中心","lon":"121.433441","lat":"31.197378","category":"500","category_name":"未知分类","address":"仙霞路99号"},{"poiid":"B2094757D56CA5FA459F","title":"意曼多咖啡 港汇店 Espressamente illy","lon":"121.43291063384","lat":"31.195960461228","category":"247","category_name":"餐饮美食","address":"虹桥路1号港汇广场1楼美食街156商铺近华山路"},{"poiid":"B2094654DA6DA3FE489F","title":"上海交通大学国家大学科技园发(乐山路)","lon":"121.43236","lat":"31.19622","category":"45","category_name":"产业园区","address":"乐山路33"},{"poiid":"B2094654DA6DA3FE489E","title":"慧谷创业","lon":"121.43236","lat":"31.19622","category":"45","category_name":"产业园区","address":"乐山路33"},{"poiid":"B2094757DB6FAAF8459A","title":"天天渔港","lon":"121.43288654","lat":"31.19469594","category":"247","category_name":"餐饮美食","address":"徐汇区天钥桥路123号"},{"poiid":"B2094751D56AA1FD4398","title":"永華電影院","lon":"121.434245","lat":"31.199738","category":"178","category_name":"电影院","address":"華山路"},{"poiid":"B2094757D06AA5F8469C","title":"信息管理学校(中职一部)","lon":"121.43412258","lat":"31.196374769","category":"253","category_name":"校园生活","address":"上海广元西路 187号"},{"poiid":"B2094655D265A5FF4492","title":"交通大学研究生食堂","lon":"121.43259","lat":"31.19881","category":"247","category_name":"餐饮美食","address":"华山路1954号交通大学食堂1层"},{"poiid":"B2094655D36CA7F4499A","title":"广元西路恭城路","lon":"121.43384","lat":"31.19591","category":"38","category_name":"公交车站","address":""},{"poiid":"B2094655D264A2FD439F","title":"交友茶会","lon":"121.43122","lat":"31.19913","category":"66","category_name":"茶艺馆","address":""},{"poiid":"B2094752DB6FA1FB409F","title":"La pasta义面屋","lon":"121.4317728428197","lat":"31.19898674963811","category":"247","category_name":"餐饮美食","address":"上海市 百联徐汇广场3楼"},{"poiid":"B2094654DB65A1FD4692","title":"快客(乐山路)","lon":"121.43292","lat":"31.19621","category":"117","category_name":"便民商店/便利店","address":"乐山路17"},{"poiid":"B2094753D26DABFC499A","title":"徐家汇","lon":"121.432184","lat":"31.196867","category":"500","category_name":"未知分类","address":"上海市 上海市徐汇区"},{"poiid":"B2094654DA6DA3FD419C","title":"雅欣发型设计","lon":"121.4343","lat":"31.19623","category":"148","category_name":"美容美发店","address":"广元西路88-5识别"},{"poiid":"B2094654DA6DA3FE459C","title":"上海交通大学国际交流处","lon":"121.43494","lat":"31.19798","category":"52","category_name":"高等院校","address":"广元西路55号浩然高科技大厦2层01-03、11-15"},{"poiid":"B2094654DA6DA3FE459F","title":"上海交通大学招生办公室","lon":"121.43495","lat":"31.19798","category":"52","category_name":"高等院校","address":"广元西路55号浩然高科技大厦2层05-09"},{"poiid":"B2094654DB65A1FD469C","title":"乐山绿地","lon":"121.43182","lat":"31.19587","category":"196","category_name":"公园","address":""},{"poiid":"B2094757D065A0F8469E","title":"鼎族怡华保健(广元西路店)","lon":"121.43386","lat":"31.19557","category":"149","category_name":"洗浴推拿场所","address":"徐汇区广元西路191-193号(近宜山北路)"},{"poiid":"B2094655D264A7FD4792","title":"包兆龙图书馆","lon":"121.43319","lat":"31.19981","category":"181","category_name":"图书馆","address":""},{"poiid":"B2094757D56CA2FF4498","title":"禾绿回转寿司 徐家汇店","lon":"121.43367891089","lat":"31.195483076944","category":"247","category_name":"餐饮美食","address":"地铁商城3002铺近东方商厦出口"},{"poiid":"B2094751DA68AAF54799","title":"上海市新天地时尚B1","lon":"121.432622","lat":"31.195896","category":"500","category_name":"未知分类","address":null},{"poiid":"B2094757D065A0FF4398","title":"958广元西路终点站","lon":"121.433607","lat":"31.195253","category":"38","category_name":"公交车站","address":"上海广元西路华山路"},{"poiid":"B2094654DA6DA3FE4893","title":"紫元大厦","lon":"121.43164","lat":"31.195112","category":"47","category_name":"住宅区","address":"上海虹诚大厦位于虹口临平北路88号"},{"poiid":"B2094757D065A1F9439C","title":"名仕苑","lon":"121.43488","lat":"31.196306","category":"500","category_name":"未知分类","address":"名仕苑位于徐汇广元西路88号"},{"poiid":"B2094655D26CA1FE449C","title":"乐山四五村(南门)","lon":"121.43209","lat":"31.19644","category":"47","category_name":"住宅区","address":"乐山路12弄1-32号"},{"poiid":"B2094757D06BA1FB419E","title":"辰新医院","lon":"121.43303308","lat":"31.195516327","category":"162","category_name":"医院","address":"上海徐汇区钦江路102号(虹漕路口)"},{"poiid":"B2094655D265A5FF479F","title":"上海市信息管理学校中职一部(南门)","lon":"121.43399","lat":"31.19644","category":"678","category_name":"学校大门","address":"广元西路187"},{"poiid":"B2094655D269AAF54392","title":"英豪教育技术培训学校广元西路分校","lon":"121.43568","lat":"31.1979","category":"247","category_name":"餐饮美食","address":"徐汇区广元西路45号409室"},{"poiid":"B2094654DA6DA3FE4393","title":"上海交通大学网格计算中心","lon":"121.43495","lat":"31.19798","category":"52","category_name":"高等院校","address":"徐汇区广元西路55号浩然高科技大厦11层06-18"},{"poiid":"B2094654DA6DA3FE4192","title":"科学史与科学哲学系","lon":"121.43495","lat":"31.19798","category":"52","category_name":"高等院校","address":"广元西路55号浩然高科技大厦23层01"},{"poiid":"B2094654DA6DA3FE4593","title":"上海交通大学毕业研究生分配办公室","lon":"121.43495","lat":"31.19798","category":"52","category_name":"高等院校","address":"广元西路55号浩然高科技大厦1层03"},{"poiid":"B2094654DA6DA3FE4592","title":"上海交通大学毕业生就业办公室","lon":"121.43495","lat":"31.19799","category":"52","category_name":"高等院校","address":"广元西路55号浩然高科技大厦1层05"},{"poiid":"B2094654DA6DA3FE4398","title":"建筑工程与力学学院","lon":"121.43495","lat":"31.19799","category":"52","category_name":"高等院校","address":"徐汇区广元西路55号浩然高科技大厦13层02-06"},{"poiid":"B2094654DA6DA3FE4892","title":"乐山二村(南门)","lon":"121.43087","lat":"31.19624","category":"47","category_name":"住宅区","address":"乐山支路4弄1-13号、8弄1-32号"},{"poiid":"B2094750D665A0FB4193","title":"水饺馄饨","lon":"121.431","lat":"31.198","category":"68","category_name":"快餐厅","address":"长宁区安顺路2号(近淮海西路)"},{"poiid":"B2094752D46FA5FC479C","title":"上海图书馆","lon":"121.433935","lat":"31.197131","category":"500","category_name":"未知分类","address":null},{"poiid":"B2094757D56CA2F5429D","title":"88会所","lon":"121.43821926728","lat":"31.193234813109","category":"247","category_name":"餐饮美食","address":"漕溪北路88号裙房近虹桥路"},{"poiid":"B2094654DB6BA5FF4398","title":"上海乾辰商务中心","lon":"121.4328","lat":"31.19522","category":"46","category_name":"楼宇","address":"广元西路309"},{"poiid":"B2094757D06BA3F5459A","title":"上海交通大学包兆龙图书馆","lon":"121.433188824","lat":"31.199804103","category":"253","category_name":"校园生活","address":"上海华山路1954号"},{"poiid":"B2094757D065A3FB4092","title":"大西洋娱乐城7M楼麻将","lon":"121.43331858","lat":"31.196242766","category":"500","category_name":"未知分类","address":"上海市徐汇区广元西路华山路"},{"poiid":"B2094751DA68A2FA499F","title":"港匯","lon":"121.432631","lat":"31.196325","category":"500","category_name":"未知分类","address":null},{"poiid":"B2094655D26CA1FE4798","title":"乐山路六七村(北门)","lon":"121.43109","lat":"31.19601","category":"47","category_name":"住宅区","address":""},{"poiid":"B2094654DA6DA3FD419E","title":"百龄药业广元路店","lon":"121.43407","lat":"31.19577","category":"162","category_name":"医院","address":"广元西路108-2识别"},{"poiid":"B2094654DB6BA5FF439E","title":"丰业广元公寓","lon":"121.43253","lat":"31.19579","category":"47","category_name":"住宅区","address":"广元西路303-305"},{"poiid":"B2094757D66CA6F8489B","title":"手机公园(徐汇店)","lon":"121.43582558","lat":"31.197105783","category":"196","category_name":"公园","address":"上海广元西路43号21室"},{"poiid":"B2094654DA6DA3FD479C","title":"上海凯科设计咨询管理有限公司","lon":"121.43568","lat":"31.19785","category":"52","category_name":"高等院校","address":"广元西路45号交大慧谷科技商城618B"},{"poiid":"B2094655D264A7FD479D","title":"哲生馆","lon":"121.43298","lat":"31.20024","category":"186","category_name":"科技馆","address":""},{"poiid":"B2094757D16EA5FD4698","title":"新鲜馆(广元西路店)","lon":"121.43431","lat":"31.19552","category":"247","category_name":"餐饮美食","address":"徐汇区广元西路108号(近乐山路)"},{"poiid":"B2094654DA6DA3FE4798","title":"上海市青少年艺术进修学校(广元西路)","lon":"121.4338","lat":"31.19663","category":"53","category_name":"成人教育","address":"广元西路187"},{"poiid":"B2094757D065A6F8449A","title":"上海交大中心小白楼","lon":"121.43480658","lat":"31.198657813","category":"500","category_name":"未知分类","address":"上海广元西路"},{"poiid":"B2094655D26AA0FF4592","title":"博绅娱乐城桌球房","lon":"121.43222","lat":"31.19498","category":"247","category_name":"餐饮美食","address":"徐汇区广元西路315号2楼(近太平洋百货)"},{"poiid":"B2094654DA6DA3FE4599","title":"上海交大浩然培训中心","lon":"121.43495","lat":"31.19798","category":"190","category_name":"培训机构","address":"广元西路55号浩然高科技大厦3层"},{"poiid":"B2094654DA6DA3FD449F","title":"南洋广元公寓","lon":"121.43594","lat":"31.19708","category":"47","category_name":"住宅区","address":"广元西路60"},{"poiid":"B2094751DA65ABFF469E","title":"上海 徐家汇","lon":"121.43128","lat":"31.195178","category":"500","category_name":"未知分类","address":"上海,上海市,宛平南路650号"},{"poiid":"B2094750D66BAAFE479A","title":"上海交大","lon":"121.433883","lat":"31.199436","category":"500","category_name":"未知分类","address":null},{"poiid":"B2094757D16DA0F5499E","title":"番禺路865号","lon":"121.43035758","lat":"31.198834817","category":"500","category_name":"未知分类","address":"上海番禺路865号"},{"poiid":"B2094655D268A5F54592","title":"南洋广元公寓(北门)","lon":"121.43582","lat":"31.19729","category":"47","category_name":"住宅区","address":"广元西路60"},{"poiid":"B2094752D46AA2F5459C","title":"凯燕加油站","lon":"121.430159","lat":"31.198489","category":"153","category_name":"加油站","address":"徐汇区凯旋路2048号"},{"poiid":"B2094757D165A0FA489B","title":"上海联通广元西路营业厅","lon":"121.43320058","lat":"31.196194765","category":"500","category_name":"未知分类","address":"上海市徐汇区广元西路45号"},{"poiid":"B2094750DB6CA1FE4493","title":"徐家汇港汇","lon":"121.429962","lat":"31.198406","category":"500","category_name":"未知分类","address":null},{"poiid":"B2094757D66CA3FE439F","title":"26路广元西路终点站","lon":"121.432653586","lat":"31.1962447665","category":"500","category_name":"未知分类","address":"上海广元西路虹桥路"},{"poiid":"B2094752D46CA2F4439D","title":"交通大学凯原法学院","lon":"121.434382","lat":"31.195384","category":"253","category_name":"校园生活","address":"华山路1954号"},{"poiid":"B2094750D26EAAFD499D","title":"贡朵儿 Le Comptoir Wine Bar","lon":"121.43306493759","lat":"31.195310726495","category":"172","category_name":"酒吧","address":"徐汇区广元西路301号101-102室(近宜山北路)"},{"poiid":"B2094757D169A3FB4299","title":"COCO奶茶 都可茶饮 (广元西路店)","lon":"121.434044586","lat":"31.1964647708","category":"500","category_name":"未知分类","address":"上海广元西路"},{"poiid":"B2094757D169AAFB479D","title":"上海交通大学校车站(徐汇)","lon":"121.433765586","lat":"31.1998568371","category":"500","category_name":"未知分类","address":"上海闵行校区—徐汇校区"},{"poiid":"B2094752D06FA3FC4199","title":"美罗城","lon":"121.430793","lat":"31.196436","category":"500","category_name":"未知分类","address":null},{"poiid":"B2094654DA6DA3FE419B","title":"上海交通大学思源进修学院","lon":"121.43569","lat":"31.1978","category":"53","category_name":"成人教育","address":"广元西路45-7识别"},{"poiid":"B2094752D069A2FF479D","title":"70后饭吧","lon":"121.434284","lat":"31.199203","category":"247","category_name":"餐饮美食","address":null},{"poiid":"B2094757D065A5FE419E","title":"婭娜の小屋","lon":"121.43247428","lat":"31.196239716","category":"500","category_name":"未知分类","address":"上海秀山路乐山新村"},{"poiid":"B2094757D06AABF9469E","title":"上海市数字娱乐技术开放实训中心","lon":"121.43392958","lat":"31.19646977","category":"500","category_name":"未知分类","address":"上海广元西路187号"},{"poiid":"B2094654DA6DA3FD449D","title":"交大慧谷电脑城","lon":"121.43575","lat":"31.19785","category":"138","category_name":"家电电子卖场","address":"徐汇区广元西路45号(近交通大学)"},{"poiid":"B2094757D66DA2FF429C","title":"广元西路丰业广元公寓","lon":"121.43309391","lat":"31.195377549","category":"500","category_name":"未知分类","address":"上海广元西路303-305号"},{"poiid":"B209475CD26EABFE4399","title":"徐家汇","lon":"121.431282","lat":"31.199382","category":"500","category_name":"未知分类","address":"上海市 乐山新村8弄8号"},{"poiid":"B2094753D268AAFD419E","title":"上师大","lon":"121.434975","lat":"31.196014","category":"500","category_name":"未知分类","address":"上海市 桂林路100号"},{"poiid":"B2094757DB69A6FF4693","title":"美罗城","lon":"121.4346226316227","lat":"31.19513769934951","category":"248","category_name":"生活娱乐","address":"大众书局"},{"poiid":"B2094757D164AAFA409E","title":"交大徐汇校区平房实验室","lon":"121.43451158","lat":"31.196559772","category":"500","category_name":"未知分类","address":"上海市徐汇区广元西路"},{"poiid":"B2094654DA6DA3FD479B","title":"上海交大昂立教育有限公司","lon":"121.43575","lat":"31.19785","category":"263","category_name":"公司","address":"广元西路45号交大慧谷科技商城611"},{"poiid":"B2094752D56FABFF4893","title":"上海交响乐团","lon":"121.433389","lat":"31.198881","category":"248","category_name":"生活娱乐","address":"湖南路105号"},{"poiid":"B2094757D66EA4FB4893","title":"百姓网桃花岛","lon":"121.434973","lat":"31.197495","category":"500","category_name":"未知分类","address":"上海广元西路55号浩然18楼"},{"poiid":"B2094757D16EA2FE429A","title":"哈皮宠物","lon":"121.431093451","lat":"31.1972837618","category":"249","category_name":"购物服务","address":"上海金沙江路泰辰苑二期旁边"},{"poiid":"B2094751D46DA1FD449B","title":"天天周末","lon":"121.431679","lat":"31.195151","category":"249","category_name":"购物服务","address":"上海市徐汇区斜土路2200弄8号"},{"poiid":"B2094757D06BA6F94692","title":"全家便利店(清峪店)","lon":"121.430934939","lat":"31.1965131052","category":"500","category_name":"未知分类","address":"上海普陀区清峪路600号"},{"poiid":"B2094750D36FA3F4479F","title":"执信西斋","lon":"121.431137","lat":"31.199972","category":"252","category_name":"楼宇机构","address":"淮海西路211号"},{"poiid":"B2094757D66CABFD489B","title":"总办公厅","lon":"121.43428158","lat":"31.199318826","category":"249","category_name":"购物服务","address":"上海交通大学徐汇校区"},{"poiid":"B2094757D16EA1F44199","title":"牛丼","lon":"121.435685","lat":"31.197915","category":"500","category_name":"未知分类","address":"上海广元路"},{"poiid":"B2094655D268A3F9479D","title":"浩然高科技大厦(南门)","lon":"121.4353","lat":"31.19745","category":"48","category_name":"楼宇大门","address":"广元西路55"},{"poiid":"B2094757D064A0FA439F","title":"交大思源教育","lon":"121.435691","lat":"31.197805","category":"260","category_name":"其他","address":"上海广元西路145号"},{"poiid":"B2094654DA6DA3FE459D","title":"上海交通大学浩然物业管理中心","lon":"121.43495","lat":"31.19798","category":"263","category_name":"公司","address":"广元西路55号浩然高科技大厦1层07-13"},{"poiid":"B2094654DA6DA3FE449B","title":"上海交大昂立教育有限责任公司","lon":"121.43495","lat":"31.19798","category":"263","category_name":"公司","address":"广元西路55号浩然高科技大厦10层"},{"poiid":"B2094752DA6CAAFA4299","title":"70s restaurant","lon":"121.434411","lat":"31.1949","category":"500","category_name":"未知分类","address":null},{"poiid":"B2094757D16AA7FA479C","title":"公文式广元教育中心","lon":"121.435980586","lat":"31.1977407957","category":"500","category_name":"未知分类","address":"上海市徐汇区广元西路45号318"},{"poiid":"B2094654DB64A4F4459A","title":"上海英豪教育","lon":"121.43574","lat":"31.19785","category":"190","category_name":"培训机构","address":"广元西路43号交大慧谷407教学楼"},{"poiid":"B2094654DA6DA3FE4298","title":"上海慧科南洋信息技术有限公司","lon":"121.43494","lat":"31.19799","category":"263","category_name":"公司","address":"广元西路55号浩然高科技大厦19层06"},{"poiid":"B2094654DA6DA3FD4492","title":"交大昂立教育","lon":"121.43574","lat":"31.19785","category":"252","category_name":"楼宇机构","address":"广元西路45号交大慧谷科技商城1层东厅"},{"poiid":"B2094757D165A1FE489B","title":"Wooli生活屋","lon":"121.43592008","lat":"31.197292387","category":"500","category_name":"未知分类","address":"徐汇区广元西路43号"},{"poiid":"B2094757D16AA3F8419A","title":"漫漫苦逼求学路","lon":"121.434041","lat":"31.199964","category":"500","category_name":"未知分类","address":"嘉兴学校"},{"poiid":"B2094757D064A7F94293","title":"乐山菜场","lon":"121.431208586","lat":"31.1952777476","category":"249","category_name":"购物服务","address":"上海市徐汇区乐山支路"},{"poiid":"B2094757D16CA1F44698","title":"复习的伤神之地","lon":"121.434342","lat":"31.199753","category":"148","category_name":"美容美发店","address":"上海复习复习复习！"},{"poiid":"B2094757D16FAAF5439E","title":"新世界电影城VIP厅","lon":"121.43392228","lat":"31.195366149","category":"248","category_name":"生活娱乐","address":"上海新世界电影城"},{"poiid":"B2094655D26EA0F94292","title":"丽波桑拿健身会所","lon":"121.43215","lat":"31.19464","category":"149","category_name":"洗浴推拿场所","address":"徐汇区广元西路319号"},{"poiid":"B2094654DA6DA3FE419C","title":"上海交通大学空间结构研究中心","lon":"121.43495","lat":"31.19798","category":"191","category_name":"科研机构","address":"广元西路55号浩然高科技大厦23层09"},{"poiid":"B2094752D16FA3FD449D","title":"美罗大厦409","lon":"121.433381","lat":"31.195986","category":"252","category_name":"楼宇机构","address":null},{"poiid":"B2094654DA6DA3FD469C","title":"上海交大慧谷科技街有限公司","lon":"121.43574","lat":"31.1979","category":"263","category_name":"公司","address":"广元西路45号交大慧谷科技商城506"},{"poiid":"B2094654DA6DA3FD479A","title":"上海泰祺教育服务有限公司","lon":"121.43575","lat":"31.19785","category":"263","category_name":"公司","address":"广元西路45号交大慧谷科技商城518"},{"poiid":"B2094655D264A2F94299","title":"上海交通大学Bio·X中心","lon":"121.43541","lat":"31.19809","category":"191","category_name":"科研机构","address":""},{"poiid":"B2094752D06AA0F94198","title":"cocoyoyo婴童生活","lon":"121.434382","lat":"31.196083","category":"249","category_name":"购物服务","address":"港汇广场2楼"},{"poiid":"B2094757DA6FA2FD4199","title":"上海辉新康图文广告有限公司","lon":"121.435977","lat":"31.1975609999997","category":"263","category_name":"公司","address":"徐汇区广元西路43号22室"},{"poiid":"B2094654DB6BA5FE499F","title":"名仕苑(西门)","lon":"121.4341","lat":"31.1961","category":"656","category_name":"大门","address":"广元西路98-1识别、88、108号"},{"poiid":"B2094655D268A4FC4492","title":"丰业广元公寓(南门)","lon":"121.43341","lat":"31.19552","category":"656","category_name":"大门","address":"广元西路303-305"},{"poiid":"B2094655D268A4FC449C","title":"乐山绿地(北门)","lon":"121.43195","lat":"31.19606","category":"656","category_name":"大门","address":""},{"poiid":"B2094654DA6DA3FD4299","title":"名仕苑(东门)","lon":"121.43543","lat":"31.19676","category":"656","category_name":"大门","address":"广元西路88号"},{"poiid":"B2094655D26FABF8479B","title":"乐山绿地(西门)","lon":"121.43141","lat":"31.19572","category":"656","category_name":"大门","address":""},{"poiid":"B2094654DA6DA3FD4199","title":"虹交小区(北门)","lon":"121.4337","lat":"31.19541","category":"656","category_name":"大门","address":"广元西路228弄1-3号"},{"poiid":"B2094655D268A4FC459B","title":"丰业广元公寓(西门)","lon":"121.43262","lat":"31.19506","category":"656","category_name":"大门","address":""}]