[{"poiid":"B2094655D26AA0FC4793","title":"星光摄影器材城鲁班路店","lon":"121.47448","lat":"31.20316","category":"126","category_name":"摄影器材店","address":"卢湾区鲁班路300号(近斜土路)"},{"poiid":"B2094757D66CA7F9419C","title":"日月光中心(Happy young)","lon":"121.476897738","lat":"31.2022637043","category":"500","category_name":"未知分类","address":"上海徐家汇路618号3楼"},{"poiid":"B2094757DB6CA5F4419B","title":"mr.x迷之城堡","lon":"121.477599","lat":"31.203324","category":"248","category_name":"生活娱乐","address":"局门路550号1号楼"},{"poiid":"B2094753D76FAAFA449C","title":"上海滩国泰旗舰店","lon":"121.466011","lat":"31.216125","category":"249","category_name":"购物服务","address":"淮海中路868号"},{"poiid":"B209475CD564A7F84292","title":"上海滩新天地店","lon":"121.47463","lat":"31.22164","category":"119","category_name":"商场","address":"\"太仓路181弄新天地北里15号\r\n\""},{"poiid":"B2094757D06FA4FA4493","title":"南北高架路","lon":"121.47530585","lat":"31.202839131","category":"500","category_name":"未知分类","address":"上海鲁班路斜土路"},{"poiid":"B2094757D06FA2F5499D","title":"世纪联华(鲁班店)","lon":"121.47412","lat":"31.20269","category":"118","category_name":"超级市场","address":"卢湾区斜土路645号(近打浦路)"},{"poiid":"B2094757D068A2FF4992","title":"海悦花园","lon":"121.47459","lat":"31.201345","category":"47","category_name":"住宅区","address":"上海鲁班路388弄-16号"},{"poiid":"B2094757D16CA2FC469F","title":"鲁班路斜土路","lon":"121.47704883","lat":"31.203923439","category":"500","category_name":"未知分类","address":"上海鲁班路斜土路"},{"poiid":"B2094757D16CABF5489C","title":"斯格威铂尔曼","lon":"121.47579365","lat":"31.201505989","category":"500","category_name":"未知分类","address":"上海打浦路15号"},{"poiid":"B2094654DA68A7F54092","title":"上海市震旦外国语中学","lon":"121.47664","lat":"31.20242","category":"55","category_name":"中学","address":"卢湾区鲁班路369号(近斜土路)"},{"poiid":"B2094757D06AA1FC449B","title":"裕兴大厦","lon":"121.476","lat":"31.2032","category":"46","category_name":"楼宇","address":"上海市卢湾区瑞金南路345弄"},{"poiid":"B2094655D26BA4F54799","title":"上海长乐-霍尔姆斯职业学校","lon":"121.47664","lat":"31.20242","category":"54","category_name":"职业技术学校","address":"卢湾区鲁班路411号(近斜土路)"},{"poiid":"B2094757D16BA3FD4999","title":"上海浦東國際機場","lon":"121.474915738","lat":"31.2013196842","category":"500","category_name":"未知分类","address":"上海"},{"poiid":"B2094750DB6BA0F44893","title":"Bon Matín  早安，巴黎","lon":"121.475509","lat":"31.199361","category":"247","category_name":"餐饮美食","address":"卢湾区徐家汇路618号日月光中心广场1楼(近打浦路)"},{"poiid":"B2094654DA68A7F5409F","title":"聚香阁酒家","lon":"121.47605723244","lat":"31.200659606789","category":"76","category_name":"上海菜","address":"卢湾区鲁班路499号(近斜土路)"},{"poiid":"B2094654DB6BABF94399","title":"沧浪亭(斜土路)","lon":"121.4757","lat":"31.20295","category":"87","category_name":"特色／地方风味餐厅","address":"卢湾区斜土路(鲁班路口)"},{"poiid":"B2094654DB65A1FC4498","title":"上海市民政第三精神病院(分部)","lon":"121.47792","lat":"31.20274","category":"162","category_name":"医院","address":"卢湾区斜土路486弄"},{"poiid":"B2094757D16EA6FB4493","title":"龙建大酒店","lon":"121.477746738","lat":"31.2033497275","category":"76","category_name":"上海菜","address":"卢湾区斜土路456号1楼(近蒙自路)"},{"poiid":"B2094757D064ABFB4299","title":"鲁班路","lon":"121.47529273","lat":"31.204056742","category":"500","category_name":"未知分类","address":"上海上班路上，心情很不错"},{"poiid":"B2094757D66EA6FB429E","title":"佳佳汤包","lon":"121.475238738","lat":"31.2028957178","category":"247","category_name":"餐饮美食","address":"上海市卢湾区丽园路"},{"poiid":"B2094654DB6BABF9439B","title":"永兴高级中学","lon":"121.47625","lat":"31.20201","category":"55","category_name":"中学","address":"鲁班路411"},{"poiid":"B2094655D36CA3FE489B","title":"上海长乐-霍尔姆斯职业学校(西门)","lon":"121.47596","lat":"31.20196","category":"47","category_name":"住宅区","address":"鲁班路411"},{"poiid":"B2094655D268A5FF469A","title":"斜土路556弄小区西门(鲁班路)","lon":"121.47579","lat":"31.20225","category":"47","category_name":"住宅区","address":"斜土路556弄7-8"},{"poiid":"B2094654DA68A7F54198","title":"快客No.918","lon":"121.47566","lat":"31.2026","category":"117","category_name":"便民商店/便利店","address":"鲁班路357"},{"poiid":"B2094654DA68A7F5419A","title":"卢湾区新华书店No.009","lon":"121.47578","lat":"31.2024","category":"125","category_name":"书店","address":"卢湾区鲁班路359号(近斜土路)"},{"poiid":"B2094750DA6AA2F5459D","title":"麦当劳汇景生活广场","lon":"121.47734","lat":"31.199983","category":"247","category_name":"餐饮美食","address":"鲁班路615号"},{"poiid":"B2094654DB69A7FB4993","title":"上海市向锋中学","lon":"121.47556","lat":"31.20252","category":"55","category_name":"中学","address":"卢湾区鲁班路407弄1号"},{"poiid":"B2094750DB65A4FC439A","title":"21#四期","lon":"121.476745","lat":"31.202745","category":"47","category_name":"住宅区","address":"松江大学城"},{"poiid":"B2094454D26FA7F8459B","title":"王子公主奇遇记","lon":"121.474678","lat":"31.202732","category":"248","category_name":"生活娱乐","address":"上海市 打浦桥"},{"poiid":"B2094757D16CAAF84693","title":"米兰护肤造型中心(斜土路店)","lon":"121.47398973","lat":"31.201712692","category":"148","category_name":"美容美发店","address":"徐汇区斜土路792号(近打浦路)"},{"poiid":"B2094655D268A5FF469E","title":"斜土路550弄小区","lon":"121.47606","lat":"31.20282","category":"47","category_name":"住宅区","address":"斜土路550弄1-2号"},{"poiid":"B2094654DA68A7F5409D","title":"上海市震旦进修学院","lon":"121.47663","lat":"31.20242","category":"53","category_name":"成人教育","address":"上海鲁班路369号"},{"poiid":"B2094757D66CA5FD479C","title":"瑞金尊邸","lon":"121.475798","lat":"31.201719","category":"500","category_name":"未知分类","address":"上海市徐汇区瑞金南路628弄"},{"poiid":"B2094654DA68A7F54492","title":"卢湾都市花园西区","lon":"121.47741","lat":"31.20149","category":"47","category_name":"住宅区","address":"五里桥"},{"poiid":"B2094655D268A5FF469F","title":"斜土路550弄小区(北门)","lon":"121.47598","lat":"31.20302","category":"47","category_name":"住宅区","address":"斜土路550弄1-2号"},{"poiid":"B2094655D268A5FF4699","title":"斜土路556弄小区(北门)","lon":"121.47582","lat":"31.20299","category":"47","category_name":"住宅区","address":"斜土路556弄7"},{"poiid":"B2094654DA68A7F54793","title":"桃源兴城苑","lon":"121.47677","lat":"31.203846","category":"47","category_name":"住宅区","address":"斜土路435,501弄"},{"poiid":"B2094757D06BA1FB419F","title":"全家便利(鲁班路店)","lon":"121.474977","lat":"31.202642","category":"117","category_name":"便民商店/便利店","address":"上海卢湾区鲁班路342号(近斜土路)"},{"poiid":"B2094750D76FA2F8489E","title":"韩朝阁","lon":"121.476","lat":"31.2006","category":"96","category_name":"韩国料理","address":"卢湾区鲁班路392号(近瞿溪路)"},{"poiid":"B2094654DA68A7F54499","title":"上海市震旦外国语中学(东门)","lon":"121.47731","lat":"31.20241","category":"678","category_name":"学校大门","address":"鲁班路369号"},{"poiid":"B2094751DA64A6F8459E","title":"上海出入境管理局卢湾分局","lon":"121.475488","lat":"31.200465","category":"252","category_name":"楼宇机构","address":"蒙自路701号"},{"poiid":"B2094655D268A5FF469C","title":"斜土路486弄小区","lon":"121.47747","lat":"31.20301","category":"47","category_name":"住宅区","address":"斜土路486弄"},{"poiid":"B2094654DA68A7F5469A","title":"中国移动斜土路营业厅","lon":"121.47796","lat":"31.20435","category":"151","category_name":"电讯营业厅","address":"徐汇区斜土路433号"},{"poiid":"B2094757D064A0FD419B","title":"806路(斜土路鲁班路)","lon":"121.476942","lat":"31.2035","category":"38","category_name":"公交车站","address":"上海斜土路鲁班路"},{"poiid":"B2094753D76CA7F94892","title":"新天地","lon":"121.477424","lat":"31.201187","category":"500","category_name":"未知分类","address":"上海市 馬當路"},{"poiid":"B2094757D165A4F4409D","title":"镁派宠物美容","lon":"121.47513","lat":"31.20214","category":"500","category_name":"未知分类","address":"上海卢湾区鲁班路382号(近斜土路)  "},{"poiid":"B2094655D26AA6FD499D","title":"豫申园城隍庙小吃世界 蒙自店","lon":"121.47885","lat":"31.2035","category":"68","category_name":"快餐厅","address":"卢湾区蒙自路358号(近斜土路)"},{"poiid":"B2094655D268A5FF469D","title":"斜土路486弄小区(北门)","lon":"121.47718","lat":"31.20336","category":"47","category_name":"住宅区","address":"斜土路486弄"},{"poiid":"B2094655D26FAAF94093","title":"茶陵路65弄小区","lon":"121.47530222654","lat":"31.201075359781","category":"47","category_name":"住宅区","address":"茶陵路65弄1-9号"},{"poiid":"B2094757D168A3FF439A","title":"枫林路中山南二路","lon":"121.47491373","lat":"31.202749714","category":"500","category_name":"未知分类","address":"上海枫林路中山南二路"},{"poiid":"B2094757D16EA2FC429B","title":"好美家(斜土店)","lon":"121.47455","lat":"31.20221","category":"500","category_name":"未知分类","address":"卢湾区斜土路645号(近打浦路)"},{"poiid":"B2094655D26BA4FD4098","title":"丰裕生煎(鲁班路店)","lon":"121.47688","lat":"31.19967","category":"68","category_name":"快餐厅","address":"卢湾区鲁班路529号(瞿溪路口)"},{"poiid":"B2094655D268A1FF459B","title":"白云公寓(西门)","lon":"121.47729","lat":"31.20336","category":"47","category_name":"住宅区","address":"斜土路468号"},{"poiid":"B2094655D269ABFA489C","title":"艺联相机行","lon":"121.47448","lat":"31.20316","category":"247","category_name":"餐饮美食","address":"卢湾区鲁班路300号星光摄影器材城1楼1-6号(近斜土路)"},{"poiid":"B2094654DA68A7F5439F","title":"中国光大银行市南支行","lon":"121.47695","lat":"31.20335","category":"150","category_name":"银行","address":"黄浦区陆家浜路1139号(陆家浜路沙家街)"},{"poiid":"B2094654DA68A6FE4992","title":"爱心公寓","lon":"121.47836","lat":"31.202185","category":"47","category_name":"住宅区","address":"蒙自路440弄"},{"poiid":"B2094757D16FAAFC4499","title":"中国联通斜土路营业厅","lon":"121.474473","lat":"31.202627","category":"500","category_name":"未知分类","address":"徐汇区斜土路608号"},{"poiid":"B2094654DA68A7F5449D","title":"卢湾都市花园东区","lon":"121.47783","lat":"31.20139","category":"47","category_name":"住宅区","address":"五里桥"},{"poiid":"B2094654DA68A7F54392","title":"白云公寓","lon":"121.47746","lat":"31.203444","category":"47","category_name":"住宅区","address":"上海斜土路468号"},{"poiid":"B2094454D36FABFB409A","title":"王子公主奇遇记","lon":"121.475044","lat":"31.203643","category":"248","category_name":"生活娱乐","address":"上海市 打浦桥"},{"poiid":"B2094757D568AAF44798","title":"好德便利海悦店","lon":"121.4745953","lat":"31.20277528","category":"117","category_name":"便民商店/便利店","address":"斜土路600号1层南侧"},{"poiid":"B2094655D26BA6F44392","title":"大通旅游鲁班店","lon":"121.47507","lat":"31.20216","category":"248","category_name":"生活娱乐","address":"鲁班路362"},{"poiid":"B2094757D06AA2FE459D","title":"丽园SOHO","lon":"121.474135718","lat":"31.2034905805","category":"46","category_name":"楼宇","address":"上海卢湾区丽园路501号"},{"poiid":"B2094757D16EABFB4292","title":"國元證券上海市斜土路營業部","lon":"121.476804","lat":"31.20329","category":"500","category_name":"未知分类","address":"上海斜土路500號"},{"poiid":"B2094654DA68A6FE499D","title":"上海市儿童临时看护中心","lon":"121.47818","lat":"31.20239","category":"57","category_name":"幼儿园","address":""},{"poiid":"B2094654DA6EA3FE489C","title":"明德坊","lon":"121.47341","lat":"31.201897","category":"47","category_name":"住宅区","address":"斜土路678弄1-3"},{"poiid":"B2094655D264A4F94198","title":"泓泽网吧","lon":"121.4753","lat":"31.20359","category":"176","category_name":"网吧","address":"鲁班路309号"},{"poiid":"B2094750D569ABFC499C","title":"海悦花园一期","lon":"121.47409","lat":"31.201042","category":"47","category_name":"住宅区","address":"上海市卢湾区鲁班路388号"},{"poiid":"B2094757D06AA3F8469E","title":"鲁班游泳馆","lon":"121.47517","lat":"31.20495","category":"220","category_name":"运动场所","address":"卢湾区鲁班路183弄7号(近丽园路)"},{"poiid":"B2094654DA68A6FE489D","title":"上海电气自动化工业科技园(蒙自路)","lon":"121.4784","lat":"31.20338","category":"45","category_name":"产业园区","address":"蒙自路360"},{"poiid":"B2094654DA6EA3FF429E","title":"东汇商务大楼","lon":"121.47406","lat":"31.20348","category":"46","category_name":"楼宇","address":"南塘浜路68"},{"poiid":"B2094757D069A6FB459B","title":"中国移动上海南区分公司","lon":"121.477897","lat":"31.204305","category":"500","category_name":"未知分类","address":"上海斜土路433号"},{"poiid":"B2094757D168A7FF499E","title":"DMG","lon":"121.477263738","lat":"31.2036597341","category":"249","category_name":"购物服务","address":"上海斜土路468号"},{"poiid":"B2094757D569A3F94493","title":"city life斜土路店","lon":"121.4746931","lat":"31.20267611","category":"249","category_name":"购物服务","address":"斜土路602号"},{"poiid":"B2094655D268A5FF479A","title":"蒙自路440弄小区","lon":"121.47882","lat":"31.20217","category":"47","category_name":"住宅区","address":"蒙自路440弄4-9号"},{"poiid":"B2094655D268A4F84093","title":"桃源兴城苑(北门)","lon":"121.47666","lat":"31.20421","category":"47","category_name":"住宅区","address":"斜土路435、501弄"},{"poiid":"B2094757D568A6FD499A","title":"格非造型SPA(旗舰店)","lon":"121.47754286","lat":"31.20414741","category":"148","category_name":"美容美发店","address":"斜土路455"},{"poiid":"B2094655D26FAAFE4698","title":"爱心公寓(北门)","lon":"121.47846","lat":"31.20228","category":"47","category_name":"住宅区","address":""},{"poiid":"B2094655D26FA3FC4093","title":"实力击剑俱乐部","lon":"121.47784","lat":"31.20364","category":"248","category_name":"生活娱乐","address":"卢湾区斜土路456号龙建大酒店西楼4楼(近鲁班路)"},{"poiid":"B2094757D16DA4FC419F","title":"南塘浜路93弄","lon":"121.474660738","lat":"31.2030367208","category":"500","category_name":"未知分类","address":"上海卢湾区南塘浜路93弄"},{"poiid":"B2094757D16EA4FD429D","title":"蒙自路380弄","lon":"121.478702549","lat":"31.2030216829","category":"47","category_name":"住宅区","address":"上海蒙自路380弄"},{"poiid":"B2094757D169A6F8439E","title":"博视坊学校","lon":"121.47757","lat":"31.20328","category":"253","category_name":"校园生活","address":"卢湾区斜土路791号5楼"},{"poiid":"B2094655D268ABFC4598","title":"鲁班路400弄小区(东门)","lon":"121.47586","lat":"31.20023","category":"47","category_name":"住宅区","address":"鲁班路400弄1-8号"},{"poiid":"B2094753DA68A3F44893","title":"home thai","lon":"121.475028","lat":"31.204113","category":"500","category_name":"未知分类","address":"上海市 淮海中路300号四楼"},{"poiid":"B2094655D268A4F54793","title":"鲁班路400弄小区","lon":"121.47574","lat":"31.20028","category":"47","category_name":"住宅区","address":"鲁班路400弄1-8号"},{"poiid":"B2094751D569A7FB469F","title":"上海长海医院","lon":"121.474481","lat":"31.200091","category":"162","category_name":"医院","address":null},{"poiid":"B2094654DA6EA3FE479E","title":"顽友宠物生活馆","lon":"121.47429","lat":"31.20259","category":"129","category_name":"宠物用品店","address":"卢湾区斜土路616号(近鲁班路)"},{"poiid":"B2094655D268A5FF499B","title":"瞿溪路937弄小区","lon":"121.47784","lat":"31.19992","category":"47","category_name":"住宅区","address":"瞿溪路937弄1-22号"},{"poiid":"B2094654DA68A7F5459C","title":"中国工商银行上海市鲁班路支行","lon":"121.47827","lat":"31.204","category":"150","category_name":"银行","address":"卢湾区斜土路418号近蒙自路(蒙自路斜土路)"},{"poiid":"B2094655D26FAAFC429B","title":"南塘浜路93弄小区","lon":"121.4741","lat":"31.20385","category":"47","category_name":"住宅区","address":"南塘浜路93弄3-15号"},{"poiid":"B2094757D16EA4FE429F","title":"合富置业海悦分行","lon":"121.47431748","lat":"31.201995228","category":"500","category_name":"未知分类","address":"上海卢湾区斜土路636号"},{"poiid":"B2094757D06FA6FA4599","title":"似芭蒂","lon":"121.47848","lat":"31.20353","category":"149","category_name":"洗浴推拿场所","address":"上海卢湾区斜土路418-428号2楼(近蒙自路)  "},{"poiid":"B2094752D364A0FF439C","title":"清风人家(星光店)","lon":"121.47449","lat":"31.20366","category":"247","category_name":"餐饮美食","address":"卢湾区鲁班路300号星光摄影器材城C区5楼(近南唐浜路)"},{"poiid":"B2094655D268A5FF4692","title":"蒙自路430弄小区","lon":"121.47865","lat":"31.20264","category":"47","category_name":"住宅区","address":"蒙自路430弄32-34号"},{"poiid":"B2094654DA68A7F54992","title":"兴城商务楼","lon":"121.47502","lat":"31.20487","category":"46","category_name":"楼宇","address":"鲁班路209"},{"poiid":"B2094655D26FAAFE4592","title":"蒙自大楼(北门)","lon":"121.47795","lat":"31.20383","category":"49","category_name":"无中心点楼宇大门","address":"斜土路448号"},{"poiid":"B2094654DB65A1FF4799","title":"江南职工医院门诊部","lon":"121.47495","lat":"31.20018","category":"162","category_name":"医院","address":""},{"poiid":"B2094655D268A5FF4693","title":"蒙自路430弄小区(南门)","lon":"121.47873","lat":"31.20257","category":"47","category_name":"住宅区","address":"蒙自路430弄32-34号"},{"poiid":"B2094654DA68A7F5479E","title":"华夏银行上海卢湾支行","lon":"121.47515","lat":"31.20423","category":"150","category_name":"银行","address":"鲁班路279号"},{"poiid":"B2094757D16CA0FD449F","title":"喜士多","lon":"121.47476293","lat":"31.203580332","category":"500","category_name":"未知分类","address":"卢湾区鲁班路205号(近南塘浜路)"},{"poiid":"B2094750D665A6FB4499","title":"芋花园(日月光店)","lon":"121.476","lat":"31.2048","category":"68","category_name":"快餐厅","address":"徐家汇路618号日月光中心广场B2楼美食广场内(近田子坊)"},{"poiid":"B2094757D165A2FC429D","title":"上海自来水市南有限公司瞿溪路营业所","lon":"121.477313538","lat":"31.1998424528","category":"46","category_name":"楼宇","address":"上海瞿溪路905号"},{"poiid":"B2094655D26FAAFC4298","title":"南塘浜路93弄小区(南门)","lon":"121.4742","lat":"31.20385","category":"47","category_name":"住宅区","address":"南塘浜路93弄3-15号"},{"poiid":"B2094757D064A0FC4199","title":"朱鸿兴面馆(鲁班路店)","lon":"121.47499","lat":"31.20505","category":"247","category_name":"餐饮美食","address":"上海卢湾区鲁班路193号丙(近丽园路)  "},{"poiid":"B2094753D46AA7FA4899","title":"正大乐成","lon":"121.477005","lat":"31.204093","category":"163","category_name":"4S店","address":"上海市 中山南一路"},{"poiid":"B2094750D16BAAFD4093","title":"汉庭快捷上海鲁班路店","lon":"121.475060284138","lat":"31.1998534887312","category":"216","category_name":"经济型连锁酒店","address":"上海卢湾区鲁班路412号"},{"poiid":"B2094654DA68A7F5439D","title":"国元证券有限责任公司斜土路证券营业部","lon":"121.47708","lat":"31.20336","category":"219","category_name":"其他","address":"斜土路500号"},{"poiid":"B2094654DA68A7F4449A","title":"卢湾五里桥开业园区","lon":"121.47849","lat":"31.20077","category":"45","category_name":"产业园区","address":"瞿溪路883弄22号"},{"poiid":"B2094655D26BA7FD409C","title":"卢湾五里桥青年创业孵化园区","lon":"121.4785","lat":"31.20077","category":"45","category_name":"产业园区","address":"瞿溪路883弄1-22号"},{"poiid":"B2094655D268A4F54792","title":"五里桥小区(东门)","lon":"121.47595","lat":"31.19998","category":"47","category_name":"住宅区","address":""},{"poiid":"B2094655D268A4F5469F","title":"明德坊(北门)","lon":"121.47331","lat":"31.20234","category":"47","category_name":"住宅区","address":""},{"poiid":"B2094655D268A4F8419B","title":"桃源兴城苑北区(南门)","lon":"121.47725","lat":"31.20465","category":"47","category_name":"住宅区","address":""},{"poiid":"B2094753DB6EA7F9409C","title":"锦江白玉兰酒店(上海徐家汇店)","lon":"121.47761","lat":"31.203803","category":"217","category_name":"旅馆招待所","address":"上海黄浦区斜土路456号"},{"poiid":"B2094752D06BA7FA4993","title":"麦当劳（瞿溪路店）","lon":"121.478764","lat":"31.202028","category":"247","category_name":"餐饮美食","address":"瞿溪路691号"},{"poiid":"B2094750D56FABF4469E","title":"龙","lon":"121.479","lat":"31.2012","category":"95","category_name":"日本料理","address":"卢湾区斜土路688号华美达大酒店2楼"},{"poiid":"B2094654DA68A7F4489B","title":"巨鹿集团江南菜场","lon":"121.47679","lat":"31.19988","category":"117","category_name":"便民商店/便利店","address":"鲁班路517-3"},{"poiid":"B2094654DA68A7F54799","title":"鲁班路供电营业厅","lon":"121.47532","lat":"31.2035","category":"219","category_name":"其他","address":"鲁班路317号"},{"poiid":"B2094750D165ABF4419A","title":"步行街","lon":"121.477325","lat":"31.200706","category":"627","category_name":"一般地点标志","address":"南京路"},{"poiid":"B2094655D268A5FF479B","title":"蒙自路440弄小区(东门)","lon":"121.47901","lat":"31.20227","category":"47","category_name":"住宅区","address":"蒙自路440弄4-9号"},{"poiid":"B2094654DA68A6FE459E","title":"上海卢湾区五爱幼稚园","lon":"121.47914","lat":"31.20168","category":"57","category_name":"幼儿园","address":"蒙自路460"},{"poiid":"B2094757D568A4FB409F","title":"上海农村商业银行(鲁班支行)","lon":"121.47720269","lat":"31.20400635","category":"150","category_name":"银行","address":"斜土路465"},{"poiid":"B2094757D16AAAFD449E","title":"朱鸿兴面馆","lon":"121.47908873","lat":"31.20302472","category":"247","category_name":"餐饮美食","address":"上海市卢湾区鲁班路193号"},{"poiid":"B2094655D268A2FD4893","title":"银杏家园南区(北门)","lon":"121.47563","lat":"31.20397","category":"48","category_name":"楼宇大门","address":""},{"poiid":"B2094757D16FA0FC449A","title":"933","lon":"121.47611253","lat":"31.20019546","category":"500","category_name":"未知分类","address":"上海鲁班路瞿溪路"},{"poiid":"B2094654DB65A4FA4299","title":"良友","lon":"121.47695","lat":"31.19951","category":"117","category_name":"便民商店/便利店","address":"瞿溪路1013-1"},{"poiid":"B2094757D064A4FF4098","title":"上海立信会计学院五号楼","lon":"121.474899418","lat":"31.204033172","category":"500","category_name":"未知分类","address":"上海文翔路2800号"},{"poiid":"B2094752D065A7F5479E","title":"新天地","lon":"121.477512","lat":"31.200789","category":"500","category_name":"未知分类","address":null},{"poiid":"B2094757D66EA1FF4899","title":"打浦路339弄","lon":"121.474533738","lat":"31.2005396676","category":"252","category_name":"楼宇机构","address":"打浦路339弄1-13号"},{"poiid":"B2094757D16EA5FF439A","title":"浦江之星","lon":"121.47603273","lat":"31.199854653","category":"251","category_name":"出行住宿","address":"卢湾区打浦路399号(近瞿溪路)"},{"poiid":"B2094757D56EA6F8429D","title":"璐德诚华中式美容院(卢湾店)","lon":"121.4777059","lat":"31.20428","category":"249","category_name":"购物服务","address":"卢湾区斜土路451号(近鲁班路)"},{"poiid":"B2094757D069ABFF4593","title":"蒙自路360号内","lon":"121.478197738","lat":"31.2042987477","category":"47","category_name":"住宅区","address":"上海制作室"},{"poiid":"B2094757D16BA7FF4893","title":"五里桥社区文化活动中心","lon":"121.47585173","lat":"31.199878653","category":"249","category_name":"购物服务","address":"上海瞿溪路1111弄"},{"poiid":"B2094757D06BA4FF469C","title":"东汇摄影广场","lon":"121.47406024","lat":"31.203476976","category":"249","category_name":"购物服务","address":"卢湾区鲁班路288号"},{"poiid":"B2094757D069A4FF459C","title":"瞿溪坊","lon":"121.4785","lat":"31.200769","category":"500","category_name":"未知分类","address":"上海瞿溪路883弄"},{"poiid":"B2094757D16EAAFC419B","title":"卢湾区医保中心","lon":"121.47593173","lat":"31.199879653","category":"500","category_name":"未知分类","address":"上海鲁班路390号"},{"poiid":"B2094757D164A1FB409A","title":"Casa di Qin &amp; Andongnio","lon":"121.47752773","lat":"31.204211745","category":"500","category_name":"未知分类","address":"上海市卢湾区丽园路"},{"poiid":"B2094655D268ABFE449B","title":"南塘公寓","lon":"121.47753","lat":"31.2047","category":"47","category_name":"住宅区","address":""},{"poiid":"B2094655D268A6FB439F","title":"瞿溪路1003弄小区","lon":"121.47718","lat":"31.19958","category":"47","category_name":"住宅区","address":"瞿溪路1003弄1-4号"},{"poiid":"B2094655D26FABFC479B","title":"瞿溪路1003弄小区(南门)","lon":"121.47736","lat":"31.19954","category":"47","category_name":"住宅区","address":"瞿溪路1003弄1-4号"},{"poiid":"B2094655D268A2FD4892","title":"银杏家园北区(南门)","lon":"121.47565","lat":"31.20425","category":"48","category_name":"楼宇大门","address":""},{"poiid":"B2094654DA6DAAFB4698","title":"江南商务中心","lon":"121.47559","lat":"31.20022","category":"263","category_name":"公司","address":""},{"poiid":"B2094654DA68A6FE489C","title":"上海电气自动化设计研究所有限公司","lon":"121.47841","lat":"31.20339","category":"191","category_name":"科研机构","address":"蒙自路360"},{"poiid":"B2094757D169A6FC479A","title":"卢湾区民政局","lon":"121.47454773","lat":"31.204046142","category":"252","category_name":"楼宇机构","address":"上海鲁班路"},{"poiid":"B2094757D16DA1FE4992","title":"上海皇府大酒店","lon":"121.477905273","lat":"31.2004814148","category":"217","category_name":"旅馆招待所","address":"上海斜土路688号"},{"poiid":"B2094750DB69A1F4449C","title":"铜川路水产市场","lon":"121.474411","lat":"31.20071","category":"627","category_name":"一般地点标志","address":"铜川路"},{"poiid":"B2094757D66EA4FA4393","title":"赢都汇港式茶餐厅","lon":"121.47378913","lat":"31.203466229","category":"500","category_name":"未知分类","address":"上海鲁班路286号东汇广场5楼"},{"poiid":"B2094757D568A1F54692","title":"广茂香鲁班路店","lon":"121.4767531","lat":"31.199995","category":"249","category_name":"购物服务","address":"鲁班路133号(瞿溪路鲁班路)"},{"poiid":"B2094757D165A3F9449E","title":"南唐浜路","lon":"121.474996","lat":"31.204699","category":"500","category_name":"未知分类","address":"上海南塘浜路鲁班路"},{"poiid":"B2094753D264A7F4469C","title":"上海轨道交通11号线","lon":"121.476044","lat":"31.204849","category":"500","category_name":"未知分类","address":"上海市 上海西站"},{"poiid":"B2094757D16AA2FF4899","title":"符家大院","lon":"121.47903373","lat":"31.202475708","category":"500","category_name":"未知分类","address":"上海市卢湾区南北高架路"},{"poiid":"B2094757D164ABFA419E","title":"蘇州東山收費站","lon":"121.479022238","lat":"31.2013666852","category":"500","category_name":"未知分类","address":"上海蘇州東山收費站"},{"poiid":"B2094757D064A6FE429B","title":"全家便利FamilyMart(瞿溪路店)","lon":"121.477178","lat":"31.199584","category":"249","category_name":"购物服务","address":"上海瞿溪路1003号"},{"poiid":"B2094757D06BA0FE4293","title":"温柔乡","lon":"121.476279438","lat":"31.1996922496","category":"500","category_name":"未知分类","address":"上海蒙自路"},{"poiid":"B2094757D16FABF5409C","title":"89路斜土路蒙自路站","lon":"121.47844573","lat":"31.204188745","category":"500","category_name":"未知分类","address":"上海斜土路蒙自路"},{"poiid":"B2094757D164A5F4459E","title":"苏菲雅 浦东基地","lon":"121.47620379","lat":"31.204809103","category":"500","category_name":"未知分类","address":"上海上南路5018弄25b"},{"poiid":"B2094757D06AA6FF4698","title":"qian's 小窝","lon":"121.47492373","lat":"31.199919654","category":"500","category_name":"未知分类","address":"上海市卢湾区瞿溪路"},{"poiid":"B2094757D069ABFD429B","title":"世博专用出租车","lon":"121.47901916","lat":"31.201442718","category":"500","category_name":"未知分类","address":"上海路上"},{"poiid":"B2094752D665A3F9459A","title":"漕河泾开发区","lon":"121.477918","lat":"31.200216","category":"627","category_name":"一般地点标志","address":null},{"poiid":"B2094757D66CAAFF459E","title":"19八3","lon":"121.4762324","lat":"31.199372094","category":"500","category_name":"未知分类","address":"卢湾区徐家汇路618号日月光中心广场"},{"poiid":"B2094757D068A2FA4799","title":"马来亚特色厨房","lon":"121.474978","lat":"31.204846","category":"500","category_name":"未知分类","address":"上海鲁班路205号"},{"poiid":"B2094654DA68A7F5499A","title":"上海市卢湾区卫生学校","lon":"121.47502","lat":"31.20488","category":"253","category_name":"校园生活","address":"鲁班路209号兴城商务楼"},{"poiid":"B2094654DA68A7F54593","title":"民生银行丽园支行贵宾特约洗车点","lon":"121.47814","lat":"31.20458","category":"156","category_name":"洗车场","address":"蒙自路278"},{"poiid":"B2094654DA68A7F4419E","title":"来伊份No.346","lon":"121.47718","lat":"31.19949","category":"248","category_name":"生活娱乐","address":"卢湾区瞿溪路1007号(近鲁班路)"},{"poiid":"B2094654DA68A7F5489D","title":"丽园路邮政支局","lon":"121.47492","lat":"31.20499","category":"248","category_name":"生活娱乐","address":"鲁班路197"},{"poiid":"B2094655D268A3FF439B","title":"打浦路339弄小区(西门)","lon":"121.47415","lat":"31.20021","category":"656","category_name":"大门","address":"打浦路339弄130-139号"}]