[{"poiid":"B2094757D068AAFE489F","title":"复兴西路","lon":"121.443012","lat":"31.208405","category":"46","category_name":"楼宇","address":"上海永福路"},{"poiid":"B2094757D068A3F5439E","title":"Sun flour Bakery &amp;amp; Cafe 阳光粮品","lon":"121.44065558","lat":"31.213297099","category":"67","category_name":"甜品店","address":"卢湾区南昌路109号(近瑞金二路)"},{"poiid":"B2094654D564A4F9499D","title":"上海话剧艺术中心","lon":"121.4417","lat":"31.21369","category":"248","category_name":"生活娱乐","address":"徐汇区安福路288号(近武康路)"},{"poiid":"B2094753D76FAAFA449C","title":"上海滩国泰旗舰店","lon":"121.466011","lat":"31.216125","category":"249","category_name":"购物服务","address":"淮海中路868号"},{"poiid":"B209475CD564A7F8439E","title":"上海滩中信泰富店","lon":"121.45602","lat":"31.22851","category":"119","category_name":"商场","address":"\"南京西路1168号中信泰富广场，店铺号221.\r\n\""},{"poiid":"B2094757D06FA7FC459F","title":"丁香花园","lon":"121.43927877","lat":"31.211933653","category":"47","category_name":"住宅区","address":"徐汇区华山路849号(近武康路)"},{"poiid":"B2094757D06FA0F5489B","title":"上海话剧艺术中心-D6空间(Shanghai Dramatic Arts Center - Studio D6)","lon":"121.44098064","lat":"31.213716677","category":"260","category_name":"其他","address":"徐汇区安福路288号上海话剧艺术中心六楼"},{"poiid":"B2094757D06FA2F44198","title":"Tima Harbour(镇宁店)","lon":"121.43944","lat":"31.21423","category":"98","category_name":"意式菜品餐厅","address":"上海静安区镇宁路11号(近昭化东路)"},{"poiid":"B2094757D06FA7F9459E","title":"申粤轩","lon":"121.43964","lat":"31.21242","category":"72","category_name":"广东菜","address":"徐汇区华山路849号丁香花园内(近武康路)"},{"poiid":"B2094757D168ABF54299","title":"乐笙 Le Sheng","lon":"121.440405586","lat":"31.2131990979","category":"500","category_name":"未知分类","address":"上海安福路322号102室(近武康路)"},{"poiid":"B2094757D068A5FC469F","title":"Y 瑜伽生活馆(安福店)","lon":"121.44017481","lat":"31.2131334512","category":"148","category_name":"美容美发店","address":"徐汇区安福路308号3楼(近武康路)"},{"poiid":"B2094757D06BA2FC439E","title":"安福路","lon":"121.44029658","lat":"31.213472103","category":"500","category_name":"未知分类","address":"上海市安福路229弄"},{"poiid":"B2094757D06FA3FA489D","title":"马里昂巴咖啡馆","lon":"121.439884136","lat":"31.2126682258","category":"260","category_name":"其他","address":"徐汇区武康路55号(近安福路)"},{"poiid":"B2094654D564A5F5469E","title":"上海美华妇科门诊部","lon":"121.43883","lat":"31.21443","category":"162","category_name":"医院","address":"华山路800弄6号丁香公寓裙楼3层"},{"poiid":"B2094654D564A4F9489E","title":"话剧大厦","lon":"121.44106","lat":"31.21363","category":"46","category_name":"楼宇","address":"安福路288号"},{"poiid":"B209475CD36DA4F5489F","title":"SunFlour 安福路店 Sun Flour","lon":"121.44036","lat":"31.21302","category":"97","category_name":"法式菜品餐厅","address":"安福路308号104室(近武康路)"},{"poiid":"B2094757D068A7FD4798","title":"夏味馆(镇宁路店)","lon":"121.4395","lat":"31.21411","category":"76","category_name":"上海菜","address":"静安区镇宁路9号九尊大厦(近华山路)"},{"poiid":"B2094751D56CA1FE459C","title":"夏朵西餐厅(丁香店)","lon":"121.43855","lat":"31.21245","category":"94","category_name":"西餐厅","address":"徐汇区华山路855号(近复兴西路)"},{"poiid":"B2094655D264A4FC4598","title":"COSTA(九尊店)","lon":"121.43842","lat":"31.21434","category":"65","category_name":"咖啡厅","address":"长宁区镇宁路9号(近华山路)"},{"poiid":"B2094757D664A2F84399","title":"Food Central","lon":"121.440535","lat":"31.213275","category":"94","category_name":"西餐厅","address":"徐汇区安福路322号(近武康路)"},{"poiid":"B2094757D169A7FB429A","title":"marienbad cafe&amp;bar","lon":"121.440523586","lat":"31.2133221003","category":"500","category_name":"未知分类","address":"上海安抚路"},{"poiid":"B2094757D465A1FE479A","title":"松坊餐厅 安福路店 Brown cafe","lon":"121.44035","lat":"31.2132","category":"94","category_name":"西餐厅","address":"徐汇区安福路318号2楼(近武康路)"},{"poiid":"B2094757D068A0F54092","title":"The Food Central","lon":"121.43989158","lat":"31.214789129","category":"500","category_name":"未知分类","address":"上海市安福路322号"},{"poiid":"B2094757D06BA4FE479C","title":"安福会","lon":"121.44166458","lat":"31.213478103","category":"94","category_name":"西餐厅","address":"徐汇区安福路284号(近上海市话剧艺术中心)"},{"poiid":"B2094757DA6EA7F94698","title":"The Food Central","lon":"121.440493299999","lat":"31.2134479","category":"247","category_name":"餐饮美食","address":"徐汇区安福路308号(近武康路)"},{"poiid":"B2094757D16CA1F4499A","title":"上海质量技术监督培训中心","lon":"121.442453","lat":"31.214949","category":"500","category_name":"未知分类","address":"徐汇区长乐路1219号"},{"poiid":"B2094654DB65A1FF429A","title":"上海市徐汇区爱菊小学(安福路)","lon":"121.44236","lat":"31.21359","category":"56","category_name":"小学","address":"徐汇区安福路247号(近武康路)"},{"poiid":"B2094654DB64AAF44399","title":"上海电影评论学会文艺片俱乐部","lon":"121.44047","lat":"31.2133","category":"178","category_name":"电影院","address":"安福路308号"},{"poiid":"B2094750D364A5FD479F","title":"上海美华妇儿服务","lon":"121.4388464368","lat":"31.214662099037","category":"162","category_name":"医院","address":"华山路800弄丁香公寓6号裙楼3楼"},{"poiid":"B2094757D06AA5FA489A","title":"五原路","lon":"121.44202758","lat":"31.211923073","category":"500","category_name":"未知分类","address":"上海徐汇区五原路"},{"poiid":"B2094757D065A2F8459A","title":"大家旺 武康路店","lon":"121.439341054","lat":"31.213180793","category":"68","category_name":"快餐厅","address":"徐汇区武康路55号(近安福路)"},{"poiid":"B2094757DB69ABF44398","title":"Marienbad cafe&bar","lon":"121.44051059028243","lat":"31.213306290982725","category":"500","category_name":"未知分类","address":"徐汇区安福路"},{"poiid":"B2094654DB64A4FA4298","title":"戏剧沙龙·贵宾厅","lon":"121.4411","lat":"31.21357","category":"180","category_name":"剧场","address":"安福路288号3层"},{"poiid":"B2094655D26EA7FA4099","title":"玉嘉大厦","lon":"121.439","lat":"31.215","category":"46","category_name":"楼宇","address":"昌平区回龙观镇国际信息产业基地高新二街"},{"poiid":"B2094654DB65A1FF479C","title":"上海松坊商场","lon":"121.44025","lat":"31.21325","category":"119","category_name":"商场","address":"静安区西康路223号(近新闸路)"},{"poiid":"B2094654D564A4F94793","title":"可的(五康路)","lon":"121.44039","lat":"31.21308","category":"117","category_name":"便民商店/便利店","address":"徐汇区武康路55号(安福路武康路)"},{"poiid":"B2094757D068A4FF409B","title":"丁香公寓","lon":"121.43855","lat":"31.214016","category":"47","category_name":"住宅区","address":"丁香公寓位于长宁华山路800弄6号"},{"poiid":"B2094757D16EA0F5459A","title":"康骏会馆","lon":"121.438498586","lat":"31.2148031293","category":"500","category_name":"未知分类","address":"长宁区镇宁路9号九尊大厦3楼AF(长乐路镇宁路)"},{"poiid":"B2094655D26CA4FA4092","title":"永福第五小区（北一门）","lon":"121.44068","lat":"31.21322","category":"47","category_name":"住宅区","address":"安福路275弄1-16号"},{"poiid":"B2094654D564A4F9499C","title":"话剧大厦会议中心","lon":"121.44107","lat":"31.21363","category":"185","category_name":"会展中心","address":"安福路288号话剧大厦18层"},{"poiid":"B2094757D065A4FA4192","title":"nikko hotel shanghai","lon":"121.440067572","lat":"31.2133979398","category":"500","category_name":"未知分类","address":"上海延安西路，镇宁路"},{"poiid":"B2094654D564A5F5459B","title":"东欣酒家","lon":"121.43975343627","lat":"31.213051023247","category":"76","category_name":"上海菜","address":"徐汇区武康路98号(近安福路)"},{"poiid":"B2094757DA69A2FA499B","title":"The TERRACE ItalianKITCHEN26","lon":"121.44236","lat":"31.21359","category":"94","category_name":"西餐厅","address":"上海市徐汇区安福路23号"},{"poiid":"B209475CD26EA5FA4693","title":"Paintertainment怡画室","lon":"121.440339","lat":"31.213499","category":"248","category_name":"生活娱乐","address":"徐汇区武康路55号202室"},{"poiid":"B2094752DA6DA7F94093","title":"Paintertainment","lon":"121.440389","lat":"31.213254","category":"248","category_name":"生活娱乐","address":"上海武康路55号2楼"},{"poiid":"B2094757D165A6FB4692","title":"COCON ART DECORN","lon":"121.44068358","lat":"31.213272099","category":"500","category_name":"未知分类","address":"上海安福路308號103"},{"poiid":"B2094757D06BAAFA489A","title":"上海市纤维检验所(SIFI)","lon":"121.441401","lat":"31.215053","category":"46","category_name":"楼宇","address":"徐汇区长乐路1228号"},{"poiid":"B2094654DB69A6FE479B","title":"上海市黎明中学","lon":"121.44156","lat":"31.21372","category":"55","category_name":"中学","address":"徐汇区安福路240号(近武康路)"},{"poiid":"B2094654DB6BA7F5489E","title":"徐汇一品苑","lon":"121.44102","lat":"31.214262","category":"47","category_name":"住宅区","address":"安福路298弄"},{"poiid":"B2094757D169A2FC4799","title":"和中堂","lon":"121.438987586","lat":"31.2146901271","category":"500","category_name":"未知分类","address":"上海华山路800弄裙房5楼丁香花园"},{"poiid":"B2094752D669A0F8499F","title":"La Maison Gourmande","lon":"121.442919","lat":"31.213856","category":"247","category_name":"餐饮美食","address":"安福路246号"},{"poiid":"B2094757D16AA0F44099","title":"华山路长乐路","lon":"121.439532086","lat":"31.2145643246","category":"500","category_name":"未知分类","address":"华山路388-1临"},{"poiid":"B2094757D064AAF44692","title":"上海市组织机构代码管理中心","lon":"121.44218558","lat":"31.215074134","category":"46","category_name":"楼宇","address":"上海徐汇区长乐路1219号长鑫大厦5楼"},{"poiid":"B2094757D165A7FD4292","title":"永福路","lon":"121.440921586","lat":"31.2121080766","category":"500","category_name":"未知分类","address":"上海"},{"poiid":"B2094654DB65A6F84998","title":"猫雨酒吧","lon":"121.4408","lat":"31.21221","category":"111","category_name":"休闲餐饮场所","address":"徐汇区武康路73弄1号101室"},{"poiid":"B2094655D26FAAFD499D","title":"华山业余美校(南门)","lon":"121.44008","lat":"31.21506","category":"678","category_name":"学校大门","address":"华山路803弄2"},{"poiid":"B2094655D26EABFB429F","title":"上海永乐股份有限公司(安福路)","lon":"121.44007","lat":"31.21323","category":"263","category_name":"公司","address":"安福路322"},{"poiid":"B2094654DB65ABF84293","title":"武康路67号住宅(武康路)","lon":"121.44066","lat":"31.21241","category":"47","category_name":"住宅区","address":"武康路67号"},{"poiid":"B2094655D26AAAFC4998","title":"菁菁保健会所","lon":"121.43883","lat":"31.21443","category":"149","category_name":"洗浴推拿场所","address":"徐汇区华山路800弄丁香公寓6号群楼2楼(镇宁路口)"},{"poiid":"B2094757D169A0FC4898","title":"上海永乐影视技术有限公司","lon":"121.4399414","lat":"31.213308334","category":"263","category_name":"公司","address":"上海市徐汇区安福路322号"},{"poiid":"B2094752D36CA1F9439D","title":"Cupcakes Cafe","lon":"121.441113","lat":"31.215137","category":"247","category_name":"餐饮美食","address":"No.192 Wulumuqi Rd(middle)"},{"poiid":"B2094654D564A5F54692","title":"丁香公寓裙楼","lon":"121.43884","lat":"31.21443","category":"46","category_name":"楼宇","address":"华山路800弄6号"},{"poiid":"B2094757D16FA0F44598","title":"大连周水子机场候机楼","lon":"121.442267186","lat":"31.2145720248","category":"21","category_name":"飞机场","address":"上海辽宁省"},{"poiid":"B2094655D264A7FF459A","title":"颜福庆旧居","lon":"121.44032","lat":"31.21234","category":"250","category_name":"公园户外","address":"武康路40弄1-5号"},{"poiid":"B2094757D069A7FB479B","title":"As U Wish 陶艺工作室(长乐路店)","lon":"121.44192","lat":"31.21464","category":"260","category_name":"其他","address":"上海徐汇区长乐路1039号(乌鲁木齐中路口)"},{"poiid":"B2094654D564A5F54693","title":"九尊大厦","lon":"121.43853","lat":"31.2149","category":"46","category_name":"楼宇","address":"上海市长宁区镇宁路9号"},{"poiid":"B2094757D069A0F84299","title":"Yu Massage","lon":"121.442263023","lat":"31.2119576271","category":"149","category_name":"洗浴推拿场所","address":"五原路370-6-2"},{"poiid":"B2094655D26CA4FA449F","title":"长华小区（南门）","lon":"121.44102","lat":"31.21489","category":"47","category_name":"住宅区","address":"长乐路1236弄1-2号"},{"poiid":"B2094757D568ABFA419F","title":"淀山湖一号","lon":"121.440132920003","lat":"31.2122490799999","category":"47","category_name":"住宅区","address":"徐汇区武康路40弄4号"},{"poiid":"B2094654D564A4FA479C","title":"标准文献馆","lon":"121.44249","lat":"31.21446","category":"183","category_name":"展览馆","address":"徐汇区长乐路1227号2楼(乌鲁木齐中路口)"},{"poiid":"B2094655D26CA4FA409D","title":"永福第五小区（北门）","lon":"121.44205","lat":"31.21355","category":"47","category_name":"住宅区","address":"安福路249弄1-8号"},{"poiid":"B2094757D569A3F4409D","title":"布言布语","lon":"121.44171821","lat":"31.21364773","category":"141","category_name":"服装鞋帽皮具店","address":"徐汇区安福路284号红楼1楼(近上海话剧艺术中心)"},{"poiid":"B2094655D36CA7FC4399","title":"华山路武康路","lon":"121.43857","lat":"31.21248","category":"38","category_name":"公交车站","address":""},{"poiid":"B2094757D169A5F44598","title":"武康路菜场","lon":"121.440154548","lat":"31.21252626","category":"500","category_name":"未知分类","address":"上海武康路五原路"},{"poiid":"B2094654D564A4F4479F","title":"华山公寓","lon":"121.43929","lat":"31.215906","category":"47","category_name":"住宅区","address":"华山公寓位于静安静安区华山路688号"},{"poiid":"B2094654D564A5F5469D","title":"蓝华口腔门诊","lon":"121.43883","lat":"31.21443","category":"162","category_name":"医院","address":"静安区华山路800弄丁香公寓6号2楼(镇宁路口)"},{"poiid":"B2094655D268A3FF4993","title":"永福第五小区","lon":"121.44213","lat":"31.21313","category":"47","category_name":"住宅区","address":"安福路249弄1-8号"},{"poiid":"B2094654D564A4FA439B","title":"100%Bamboo竹","lon":"121.44191","lat":"31.21368","category":"141","category_name":"服装鞋帽皮具店","address":""},{"poiid":"B2094654D564A4FA489A","title":"上海市标准化研究院","lon":"121.44169","lat":"31.21472","category":"191","category_name":"科研机构","address":"长乐路1227号"},{"poiid":"B2094655D26CA4FA449B","title":"长华小区（西门）","lon":"121.43971","lat":"31.21499","category":"47","category_name":"住宅区","address":"华山路803弄2-15号"},{"poiid":"B2094654D564A4FA489D","title":"好德便利No.392","lon":"121.44129","lat":"31.21504","category":"117","category_name":"便民商店/便利店","address":"长乐路1230识别"},{"poiid":"B2094655D268A2F8449B","title":"华山业余美校","lon":"121.44018","lat":"31.21521","category":"53","category_name":"成人教育","address":"华山路803弄2"},{"poiid":"B2094757D16CAAF84193","title":"华山医院监护室","lon":"121.44239178","lat":"31.214541624","category":"162","category_name":"医院","address":"上海乌鲁木齐中路12号6号楼9楼"},{"poiid":"B2094654DB6BA7F54892","title":"长乐公寓","lon":"121.44213","lat":"31.214462","category":"47","category_name":"住宅区","address":"长乐路1225号"},{"poiid":"B209475CD364AAF8459E","title":"Cozy Wine Bar & Bistro","lon":"121.44123","lat":"31.21182","category":"94","category_name":"西餐厅","address":"五原路"},{"poiid":"B2094750DB6EAAF4479A","title":"呷哺","lon":"121.440597","lat":"31.211494","category":"247","category_name":"餐饮美食","address":"长宁路巴黎春天"},{"poiid":"B2094757D069ABFC4193","title":"华山美校","lon":"121.440356","lat":"31.215265","category":"500","category_name":"未知分类","address":"静安区华山路433号(近乌鲁木齐北路)"},{"poiid":"B2094757D16DA1FC4699","title":"联华超市镇宁路店","lon":"121.43872987","lat":"31.214223498","category":"118","category_name":"超级市场","address":"上海镇宁路1号"},{"poiid":"B2094654D564A4FA489E","title":"比利王手工制鞋工作室","lon":"121.44084","lat":"31.21485","category":"141","category_name":"服装鞋帽皮具店","address":"长乐路1238甲-3识别"},{"poiid":"B2094654D564A4F4469E","title":"造形","lon":"121.43937","lat":"31.21473","category":"148","category_name":"美容美发店","address":"华山路750"},{"poiid":"B2094757D064A2FE4699","title":"长宁区民政局","lon":"121.43847656","lat":"31.212892532","category":"253","category_name":"校园生活","address":"上海延安西路"},{"poiid":"B2094757D065ABFF4399","title":"FCUK(新天地店)","lon":"121.44202","lat":"31.21251","category":"141","category_name":"服装鞋帽皮具店","address":"上海卢湾区兴业路123弄新天地广场南里7号楼1楼(近马当路)"},{"poiid":"B2094654DB65A6F9459D","title":"Means餐厅酒吧","lon":"121.44232","lat":"31.21499","category":"111","category_name":"休闲餐饮场所","address":"徐汇区长乐路1221号乙(华山路乌鲁木齐路间)"},{"poiid":"B2094654DB64A7F4409F","title":"上海光启学院边门","lon":"121.44141","lat":"31.21187","category":"52","category_name":"高等院校","address":"徐汇区五原路400"},{"poiid":"B2094752D36FA7FB4192","title":"静安嘉里中心办公楼","lon":"121.439392","lat":"31.213183","category":"500","category_name":"未知分类","address":"南京西路1515号"},{"poiid":"B2094757D06BA6FE479A","title":"上海广告有限公司","lon":"121.438722","lat":"31.21307","category":"263","category_name":"公司","address":"上海长宁区华山路888号"},{"poiid":"B2094757D16BA3FB489C","title":"华山小区","lon":"121.44096","lat":"31.215363","category":"47","category_name":"住宅区","address":"上海华山路803弄4号1楼"},{"poiid":"B2094757D168A6FC4699","title":"中国福利会","lon":"121.44267082","lat":"31.212293184","category":"500","category_name":"未知分类","address":"徐汇区五原路314号(近永福路)"},{"poiid":"B2094757D569A6FC449C","title":"Maria Mills(华山路)","lon":"121.43939128","lat":"31.21473796","category":"141","category_name":"服装鞋帽皮具店","address":"华山路750"},{"poiid":"B2094655D268A3FB499C","title":"上海雷士德工学院校友会","lon":"121.44249","lat":"31.21445","category":"52","category_name":"高等院校","address":"长乐路1219号702室"},{"poiid":"B2094655D268A3FB499F","title":"长华小区","lon":"121.44088","lat":"31.21551","category":"47","category_name":"住宅区","address":"长乐路1236弄1-2号"},{"poiid":"B2094757D66EA7FC479B","title":"Peter发型屋","lon":"121.439205586","lat":"31.2145651246","category":"148","category_name":"美容美发店","address":"上海镇宁路"},{"poiid":"B2094750D56AA7FF4592","title":"东方雅苑","lon":"121.4381","lat":"31.214733","category":"47","category_name":"住宅区","address":"东方雅苑位于长宁镇宁路9号近华山路"},{"poiid":"B2094654DB65A4F94092","title":"华康小区","lon":"121.44084","lat":"31.21152","category":"47","category_name":"住宅区","address":"武康路106弄1-8号"},{"poiid":"B2094757D165A4FE499F","title":"南京狮子桥美食街","lon":"121.43894712","lat":"31.212823955","category":"500","category_name":"未知分类","address":"上海湖南路"},{"poiid":"B2094654DB64AAF94992","title":"Free Soul","lon":"121.44222","lat":"31.21485","category":"260","category_name":"其他","address":"徐汇区长乐路1221号(乌鲁木齐中路口)"},{"poiid":"B209475CD16EA2FA479B","title":"La Maison Gourmande","lon":"121.443","lat":"31.21399","category":"97","category_name":"法式菜品餐厅","address":"安福路246号(近乌鲁木齐路)"},{"poiid":"B2094654D564A4FA4793","title":"上海银行长乐路支行","lon":"121.44182","lat":"31.21476","category":"150","category_name":"银行","address":"长乐路1227"},{"poiid":"B2094655D268A4FC4198","title":"长鑫大厦(北门)","lon":"121.44234","lat":"31.21487","category":"49","category_name":"无中心点楼宇大门","address":"长乐路1219"},{"poiid":"B2094757D66EA0F94199","title":"艾珂宠物(华山路店)","lon":"121.43938","lat":"31.214855","category":"129","category_name":"宠物用品店","address":"静安区华山路748-1号(近镇宁路)"},{"poiid":"B2094655D26BA3FF409E","title":"愉庭保健会所","lon":"121.44246","lat":"31.21199","category":"149","category_name":"洗浴推拿场所","address":"徐汇区五原路366号(近武康路)"},{"poiid":"B2094654D564A5F54792","title":"兴业银行上海长宁支行","lon":"121.43882","lat":"31.21463","category":"150","category_name":"银行","address":"华山路800弄12-30号"},{"poiid":"B2094752D26FA5F54599","title":"Sun flower","lon":"121.439803","lat":"31.21622","category":"247","category_name":"餐饮美食","address":"安福路308号"},{"poiid":"B2094757D16CAAF54898","title":"上海市住房置业担保有限公司","lon":"121.439049646","lat":"31.2149416831","category":"263","category_name":"公司","address":"上海镇宁路18号"},{"poiid":"B2094654D564A4F9479E","title":"上海福利会幼儿园旧址","lon":"121.44268","lat":"31.21229","category":"243","category_name":"纪念馆","address":"五原路314"},{"poiid":"B2094654D564A4FA4999","title":"上海市质量技术监督稽查总队","lon":"121.44186","lat":"31.2151","category":"250","category_name":"公园户外","address":"长乐路1226"},{"poiid":"B2094654DB64A4F9469E","title":"仙之居推拿","lon":"121.43883","lat":"31.21442","category":"149","category_name":"洗浴推拿场所","address":"徐汇区华山路800弄丁香公寓6号裙楼5楼(镇宁路口)"},{"poiid":"B2094654D564A5F5429B","title":"中国工商银行丁香花园支行","lon":"121.43857","lat":"31.21281","category":"150","category_name":"银行","address":"徐汇区华山路896号近镇宁路(华山路武康路)"},{"poiid":"B2094757D66CA2FD4993","title":"CHARME hair sculpture","lon":"121.43989908","lat":"31.211542265","category":"500","category_name":"未知分类","address":"上海安福路308号"},{"poiid":"B2094753D269A3FA4099","title":"美国ELS语言中心上海","lon":"121.44276021323","lat":"31.213678129194","category":"253","category_name":"校园生活","address":"安福路201号"},{"poiid":"B2094654D564A4F44699","title":"上海兴海房产综合开发公司","lon":"121.43928","lat":"31.21472","category":"263","category_name":"公司","address":"华山路758"},{"poiid":"B2094654D564A4F44798","title":"华山社区卫生服务站","lon":"121.43964","lat":"31.2157","category":"162","category_name":"医院","address":"华山路708"},{"poiid":"B2094655D26BABFB4599","title":"丁香别墅(南门)","lon":"121.43809","lat":"31.21227","category":"47","category_name":"住宅区","address":"华山路922"},{"poiid":"B2094757D16EA4FF499F","title":"U酱'S","lon":"121.44099484","lat":"31.215257104","category":"500","category_name":"未知分类","address":"上海长乐路"},{"poiid":"B2094757D065A3F8429B","title":"上海银行","lon":"121.442722436","lat":"31.2130730955","category":"150","category_name":"银行","address":"上海多处营业网点  "},{"poiid":"B2094654D564A4FA479B","title":"上海信星认证培训中心","lon":"121.4425","lat":"31.21446","category":"190","category_name":"培训机构","address":"长乐路1219号长鑫大厦6层604、606"},{"poiid":"B2094757D16AA3FA409C","title":"华敏世纪广场儿童乐园","lon":"121.43901062","lat":"31.214952468","category":"500","category_name":"未知分类","address":"上海延安西路688弄"},{"poiid":"B2094750DB6AA5FC459C","title":"新天地太平湖","lon":"121.439178","lat":"31.21561","category":"248","category_name":"生活娱乐","address":"淮海路黄陂路"},{"poiid":"B2094654D564A4FA4798","title":"方圆标志认证中心上海分中心培训部","lon":"121.44249","lat":"31.21446","category":"190","category_name":"培训机构","address":"长乐路1219号长鑫大厦6层604、606"},{"poiid":"B2094655D26EA2FC449F","title":"佐登妮丝美容SPA生活馆(安福路店)","lon":"121.44285","lat":"31.21393","category":"149","category_name":"洗浴推拿场所","address":"安福路246号"},{"poiid":"B2094654D564A4F44692","title":"莫氏画廊","lon":"121.43971","lat":"31.21523","category":"134","category_name":"古玩字画店","address":"徐汇区华山路789号(华山路泰安路)"},{"poiid":"B2094757D66EA4FF419C","title":"薡茶(雲南中路店)","lon":"121.44011718","lat":"31.216202156","category":"247","category_name":"餐饮美食","address":"上海黃浦區雲南中路"},{"poiid":"B2094654D564A4FA439D","title":"Wine-link","lon":"121.44296","lat":"31.21402","category":"172","category_name":"酒吧","address":"徐汇区安福路228弄18号(近乌鲁木齐中路)"},{"poiid":"B2094654D564A5F5459A","title":"康兴公寓","lon":"121.44087","lat":"31.210955","category":"47","category_name":"住宅区","address":"武康路112号"},{"poiid":"B2094654D564A4F44698","title":"上海市住房置业担保有限公司事务受理中心","lon":"121.43904","lat":"31.21492","category":"248","category_name":"生活娱乐","address":"镇宁路18"},{"poiid":"B2094757D16EA6FA479B","title":"UR Movie Zone影音地带","lon":"121.44293658","lat":"31.213895111","category":"500","category_name":"未知分类","address":"上海Shanghai安福路253号"},{"poiid":"B2094655D264A5FC479C","title":"湖南天平工商所","lon":"121.44015","lat":"31.21071","category":"250","category_name":"公园户外","address":"复兴西路201弄5-12号"},{"poiid":"B2094757D66FA0FF4793","title":"枕流公寓","lon":"121.44025","lat":"31.215914","category":"500","category_name":"未知分类","address":"上海华山路699号"},{"poiid":"B2094654D564A5F5479E","title":"上海市建纬律师事务所","lon":"121.43853","lat":"31.2149","category":"623","category_name":"律师事务所","address":"镇宁路9号九尊大厦16层"},{"poiid":"B2094757D16FAAFB4099","title":"aroma  age(长宁店)","lon":"121.43856","lat":"31.21524","category":"149","category_name":"洗浴推拿场所","address":"上海静安区镇宁路11号301室(近昭化东路)  "},{"poiid":"B2094654D564A4FA4998","title":"上海市计量测试技术研究院业务受理点","lon":"121.44168","lat":"31.21509","category":"191","category_name":"科研机构","address":"长乐路1226-2"},{"poiid":"B2094654DB65AAF5449A","title":"丁香公寓(东门)","lon":"121.43873","lat":"31.21469","category":"48","category_name":"楼宇大门","address":"江苏路"},{"poiid":"B2094757D568A2F84293","title":"上海丁香花园宾馆","lon":"121.4392769","lat":"31.211935","category":"251","category_name":"出行住宿","address":"华山路849号"},{"poiid":"B2094655D268A3FB4992","title":"上海市计量检定所长乐消费服务部","lon":"121.44249","lat":"31.21447","category":"248","category_name":"生活娱乐","address":"长乐路1219号"},{"poiid":"B2094654DB64AAF44593","title":"上海国盛(集团)有限公司","lon":"121.43853","lat":"31.21489","category":"263","category_name":"公司","address":"镇宁路9号九尊大厦"},{"poiid":"B2094757D16CA4F44299","title":"老沪太路","lon":"121.438623106","lat":"31.2151162254","category":"500","category_name":"未知分类","address":"上海普善路老沪太路"},{"poiid":"B2094655D268A2FB459E","title":"上海市房屋土地管理局老干部活动室","lon":"121.44169","lat":"31.2116","category":"248","category_name":"生活娱乐","address":"五原路297号"},{"poiid":"B2094654D564A5F5479F","title":"九尊会所","lon":"121.43853","lat":"31.2149","category":"248","category_name":"生活娱乐","address":"镇宁路9号九尊大厦2层"},{"poiid":"B2094757D568A7FE439D","title":"紫阳花俱乐部","lon":"121.43943","lat":"31.215669","category":"260","category_name":"其他","address":"静安区华山路728号(镇宁路口)"},{"poiid":"B2094757D16FA4FD4299","title":"愛儷軒 酒店式公寓","lon":"121.43918609","lat":"31.215646743","category":"217","category_name":"旅馆招待所","address":"上海市鎮寧路98號"},{"poiid":"B2094757D164A7F9409C","title":"沈流公寓","lon":"121.440258","lat":"31.215914","category":"500","category_name":"未知分类","address":"上海华山路699"},{"poiid":"B2094757D16BA7FE479A","title":"CASA204","lon":"121.44297458","lat":"31.212244079","category":"500","category_name":"未知分类","address":"上海市徐匯區五原路370弄"},{"poiid":"B2094757D66DA2F4479B","title":"上海人民美术出版社","lon":"121.440636586","lat":"31.2160931545","category":"500","category_name":"未知分类","address":"上海长乐路672弄33号D座"},{"poiid":"B2094757D06BA4FB479B","title":"温馨小憩","lon":"121.439501","lat":"31.210961","category":"148","category_name":"美容美发店","address":"上海高邮路、复兴西路"},{"poiid":"B2094655D26FA7FB439C","title":"东方雅苑(北门)","lon":"121.43825","lat":"31.21493","category":"48","category_name":"楼宇大门","address":""},{"poiid":"B2094752D06AA0FD4393","title":"La Maison Gourmande","lon":"121.442512","lat":"31.215246","category":"500","category_name":"未知分类","address":"安福路246号"}]