[{"poiid":"B2094757D06FA7F5469D","title":"捞王猪肚鸡(平利路店)","lon":"121.42749","lat":"31.27008","category":"86","category_name":"火锅店","address":"普陀区平利路86号(近灵石路)"},{"poiid":"B2094757D06FA0F54598","title":"930私房菜","lon":"121.43108","lat":"31.27501","category":"76","category_name":"上海菜","address":"闸北区灵石路930号(近沪太路)"},{"poiid":"B2094757D069A5F4469E","title":"同济医院急诊","lon":"121.43097095","lat":"31.265751978","category":"162","category_name":"医院","address":"上海市普陀区"},{"poiid":"B2094654D465A0FF4192","title":"普陀区体育中心","lon":"121.4281","lat":"31.26854","category":"224","category_name":"综合体育馆","address":"西乡路218"},{"poiid":"B2094757D06FA4FE4993","title":"自由港量贩式KTV(甘泉店)","lon":"121.4279","lat":"31.26881","category":"170","category_name":"KTV","address":"普陀区西乡路226号3楼(近平利路)"},{"poiid":"B2094757D06FAAFA489C","title":"回民中学","lon":"121.43503981","lat":"31.269070517","category":"55","category_name":"中学","address":"闸北区沪太路1000号(近宜川路)"},{"poiid":"B2094757D068A7FF499F","title":"甘泉苑","lon":"121.42907","lat":"31.271549","category":"252","category_name":"楼宇机构","address":"上海灵石路1082弄"},{"poiid":"B2094757D06FA5FB4298","title":"小绍兴(运城路店)","lon":"121.43503","lat":"31.27485","category":"68","category_name":"快餐厅","address":"闸北区运城路577号(近广中西路)"},{"poiid":"B2094654DB6AA2FC4098","title":"新健游泳俱乐部游泳馆","lon":"121.42896","lat":"31.26975","category":"231","category_name":"游泳馆","address":"普陀区平利路50号(平利路西乡路)"},{"poiid":"B2094757D068A5F84092","title":"新村路子长路","lon":"121.43429395","lat":"31.2674530113","category":"260","category_name":"其他","address":"上海市普陀区新村路子长路"},{"poiid":"B2094655D26EA2FB499D","title":"布丁酒店上海沪太路店","lon":"121.4317","lat":"31.27181","category":"216","category_name":"经济型连锁酒店","address":"上海普陀区志丹路524号(近沪太路)。"},{"poiid":"B2094750D76EA7F84892","title":"雅樱酒店","lon":"121.432","lat":"31.2728","category":"76","category_name":"上海菜","address":"闸北区广中西路1207号创业大厦2楼(近沪太路)"},{"poiid":"B2094757D06FA2F4469E","title":"85度C(志丹店)","lon":"121.43","lat":"31.26714","category":"112","category_name":"糕饼店","address":"普陀区志丹路135号丁(近甘泉路)"},{"poiid":"B2094757D06FAAFA4498","title":"佳宁花园","lon":"121.43584","lat":"31.27162","category":"47","category_name":"住宅区","address":"上海市长宁区延安西路1235弄"},{"poiid":"B2094757D068A1F8419A","title":"好又多(甘泉店)","lon":"121.43019","lat":"31.26936","category":"118","category_name":"超级市场","address":"上海普陀区平利路18号(近志丹路)"},{"poiid":"B2094654D465A0F8449B","title":"豪享来中西餐厅(志丹路)","lon":"121.43029","lat":"31.26888","category":"257","category_name":"中餐厅","address":"普陀区志丹路361号"},{"poiid":"B2094757D06AA0FD489E","title":"甘泉新村地段医院","lon":"121.428286415","lat":"31.2702351077","category":"162","category_name":"医院","address":"普陀区平利路57号(近西乡路)"},{"poiid":"B2094757D66BA5F4439D","title":"振鑫火锅 平利路店","lon":"121.42759368353","lat":"31.269827063916","category":"86","category_name":"火锅店","address":"普陀区平利路70号(近西乡路)"},{"poiid":"B2094757D06FA7FB4392","title":"世纪花苑","lon":"121.43383","lat":"31.2724","category":"252","category_name":"楼宇机构","address":"上海市闸北区俞泾港路18号"},{"poiid":"B2094654D465A0FF409F","title":"四海游龙 甘泉店 OVERSEAS DRAGON","lon":"121.428123054","lat":"31.269415793","category":"68","category_name":"快餐厅","address":"普陀区西乡路280号(近平利路)"},{"poiid":"B2094654DB6AA4F5499F","title":"锦江之星(沪太路店)","lon":"121.43601","lat":"31.27035","category":"216","category_name":"经济型连锁酒店","address":"上海市闸北区沪太路893号(近宜川路)"},{"poiid":"B2094655D264AAFB4693","title":"同济医院肝炎、肠道、发热门诊","lon":"121.43067","lat":"31.26797","category":"162","category_name":"医院","address":"志丹路368"},{"poiid":"B2094655D36DA7FF459D","title":"志丹路","lon":"121.4313","lat":"31.27284","category":"38","category_name":"公交车站","address":""},{"poiid":"B2094655D26AABF54499","title":"莫泰168上海沪太路店","lon":"121.43021","lat":"31.27483","category":"250","category_name":"公园户外","address":"普陀区沪太路951号(近灵石路)"},{"poiid":"B2094757D06AABFB4992","title":"优璞桌球","lon":"121.42827","lat":"31.26936","category":"171","category_name":"台球厅","address":"普陀区西乡路260号5楼(近平利路)"},{"poiid":"B2094757D068A0F44599","title":"华联吉买盛(新村店)","lon":"121.435840339","lat":"31.2671275041","category":"118","category_name":"超级市场","address":"普陀区新村路139号(宜川路口)"},{"poiid":"B2094757D16DAAF8459F","title":"大风车幼儿园","lon":"121.429449405","lat":"31.2703976326","category":"57","category_name":"幼儿园","address":"上海志丹路501弄"},{"poiid":"B2094757D069A2F9429E","title":"豆豆餐馆","lon":"121.42717","lat":"31.27061","category":"76","category_name":"上海菜","address":"上海普陀区平利路99号(近灵石路)"},{"poiid":"B2094757D069ABFA4199","title":"泰煌鸡(西乡路店)","lon":"121.42842","lat":"31.26916","category":"68","category_name":"快餐厅","address":"普陀区西乡路272号(近平利路)"},{"poiid":"B2094655D26BA1FC4998","title":"平利路","lon":"121.42856","lat":"31.26985","category":"38","category_name":"公交车站","address":""},{"poiid":"B2094655D26DABF84098","title":"平利路第一小学","lon":"121.43038","lat":"31.27084","category":"56","category_name":"小学","address":"普陀区平利路21弄28号(近志丹路)"},{"poiid":"B2094757D06BA1FF4598","title":"回民中学羽毛球馆","lon":"121.43585635","lat":"31.268529631","category":"500","category_name":"未知分类","address":"普陀区沪太路1000号(近宜川路)"},{"poiid":"B2094757D169A3F94192","title":"闸北区看守所","lon":"121.43249395","lat":"31.269892057","category":"500","category_name":"未知分类","address":"上海灵石路900号"},{"poiid":"B2094654D465A0F84393","title":"好又多量贩(志丹路)","lon":"121.43035","lat":"31.26916","category":"118","category_name":"超级市场","address":"平利路18号"},{"poiid":"B2094757D068AAFD4098","title":"天香阁","lon":"121.434736","lat":"31.274644","category":"76","category_name":"上海菜","address":"闸北区广中西路1097号(近运城路)"},{"poiid":"B2094757D169A0F84692","title":"老马记","lon":"121.43043145","lat":"31.2685173316","category":"257","category_name":"中餐厅","address":"普陀区西乡路284号(近平利路)"},{"poiid":"B2094655D26CA1FB469E","title":"东泉苑小区(西一门)","lon":"121.43093","lat":"31.26879","category":"47","category_name":"住宅区","address":"志丹路380弄、400弄、500弄"},{"poiid":"B2094654D465A0FE4798","title":"中国移动平利路营业厅","lon":"121.42887","lat":"31.26961","category":"151","category_name":"电讯营业厅","address":"平利路52"},{"poiid":"B2094654D465A0F8449D","title":"上海市普陀区精神卫生中心","lon":"121.42993","lat":"31.26712","category":"162","category_name":"医院","address":"志丹路211"},{"poiid":"B2094655D36CA7FE419E","title":"沪太路志丹路","lon":"121.43125","lat":"31.27288","category":"38","category_name":"公交车站","address":""},{"poiid":"B2094757D06BA4FC4393","title":"普陀体育中心篮球场","lon":"121.42836","lat":"31.26827","category":"220","category_name":"运动场所","address":"普陀区西乡路288号普陀体育中心(平利路口)"},{"poiid":"B2094757D069A2FB409E","title":"闸北区房地产交易中心","lon":"121.4359672","lat":"31.27057144","category":"500","category_name":"未知分类","address":"上海老沪太路1233号"},{"poiid":"B2094757D16BA6F94198","title":"松江大学城二期R&amp;B奶茶店","lon":"121.43195345","lat":"31.2714025867","category":"500","category_name":"未知分类","address":"上海文汇路332号"},{"poiid":"B2094655D26AA5F4439F","title":"广州本田华田4S店","lon":"121.43545","lat":"31.27097","category":"247","category_name":"餐饮美食","address":"普陀区沪太路901号(近广中路)"},{"poiid":"B2094655D26FA7FF479A","title":"同济大学同济医院(西门)","lon":"121.43039","lat":"31.26669","category":"265","category_name":"知名企业","address":"志丹路318号"},{"poiid":"B2094757D06AAAFF429F","title":"澳德巴克斯 Autobacs","lon":"121.432091","lat":"31.271701","category":"500","category_name":"未知分类","address":"上海普陀区沪太路1026-1028号"},{"poiid":"B2094654D465A1F4469E","title":"锦美苑","lon":"121.434","lat":"31.2698","category":"47","category_name":"住宅区","address":"黄陵路191号"},{"poiid":"B2094757D66DA3F44392","title":"南泉苑香酥鸡小摊","lon":"121.42891","lat":"31.26944","category":"68","category_name":"快餐厅","address":"普陀区平利路90弄南泉苑门口(近西乡路)"},{"poiid":"B2094757D16DA2FE479F","title":"Momo家~","lon":"121.431376","lat":"31.270885","category":"500","category_name":"未知分类","address":"上海志丹路501弄"},{"poiid":"B2094752D36CA4FD4598","title":"上海市第十人民医院","lon":"121.434539","lat":"31.269348","category":"162","category_name":"医院","address":null},{"poiid":"B2094757D064A2FB4792","title":"广州本田华田4S","lon":"121.435171","lat":"31.270589","category":"163","category_name":"4S店","address":"上海沪太路901号"},{"poiid":"B2094655D269AAFF4193","title":"北京名炉烤鸭","lon":"121.427912054","lat":"31.270170793","category":"68","category_name":"快餐厅","address":"普陀区平利路60号(近西乡路)"},{"poiid":"B2094655D26DA4FB4492","title":"灵芝公寓","lon":"121.42962","lat":"31.272184","category":"47","category_name":"住宅区","address":"志丹路501弄"},{"poiid":"B2094750D164ABF5449F","title":"枫林楼","lon":"121.430046","lat":"31.270298","category":"76","category_name":"上海菜","address":"普陀区西乡路282号(近平利路)"},{"poiid":"B2094655D36CA7FE419D","title":"沪太路宜川路","lon":"121.4351","lat":"31.27049","category":"38","category_name":"公交车站","address":""},{"poiid":"B2094655D26EA3FD4493","title":"汇味馆","lon":"121.43338","lat":"31.27564","category":"257","category_name":"中餐厅","address":"闸北区运城路633-645号(近广中西路)"},{"poiid":"B2094751DB6BA1F54199","title":"粤府大酒楼","lon":"121.43482","lat":"31.27464","category":"72","category_name":"广东菜","address":"闸北区广中西路1097号(近运城路)"},{"poiid":"B2094757D465A1F9409B","title":"真火炭烤鱼 运城路店","lon":"121.43566504189","lat":"31.274065514042","category":"247","category_name":"餐饮美食","address":"闸北区运城路599号(灵石路广中西路间)"},{"poiid":"B2094757D169A4FF419A","title":"新饭碗 西乡路店","lon":"121.427723054","lat":"31.269875793","category":"68","category_name":"快餐厅","address":"普陀区西乡路292号(近平利路)"},{"poiid":"B2094654D464ABFF4699","title":"沪太花鸟奇石市场","lon":"121.43401","lat":"31.2701","category":"123","category_name":"家具建材市场","address":"普陀区沪太路1012号(近灵石路)"},{"poiid":"B2094757D16EABFD479F","title":"十四稅務所","lon":"121.431925","lat":"31.271836","category":"500","category_name":"未知分类","address":"上海沪太路8885號"},{"poiid":"B2094753D165A7FD439F","title":"滨江大道","lon":"121.434386","lat":"31.26985","category":"500","category_name":"未知分类","address":"上海市 浦东滨江大道"},{"poiid":"B2094655D26AA1F4459E","title":"甘泉医院","lon":"121.4313","lat":"31.26675","category":"162","category_name":"医院","address":"普陀区新村路389号(近志丹路)"},{"poiid":"B2094655D26CA1FB469B","title":"上海五四大楼","lon":"121.43087","lat":"31.27317","category":"46","category_name":"楼宇","address":"沪太路1046号"},{"poiid":"B2094655D26EA2F44099","title":"平利路38弄小区","lon":"121.4293","lat":"31.26892","category":"47","category_name":"住宅区","address":"平利路38弄"},{"poiid":"B2094757DB68A2FF439F","title":"彭浦第一炸","lon":"121.429584","lat":"31.274042","category":"500","category_name":"未知分类","address":"闻喜路820号近共和新路"},{"poiid":"B2094655D26CA1F44898","title":"同济大学附属同济医院健康体检中心","lon":"121.42997","lat":"31.26658","category":"162","category_name":"医院","address":"普陀区志丹路201号(近新村路)"},{"poiid":"B2094757D168A6F9459C","title":"地质大厦","lon":"121.43133845","lat":"31.275230649","category":"46","category_name":"楼宇","address":"上海市闸北区灵石路930号"},{"poiid":"B2094655D26AA6F44693","title":"美林阁 沪太路店","lon":"121.43039673497","lat":"31.274984285335","category":"76","category_name":"上海菜","address":"普陀区沪太路951号(近灵石路)"},{"poiid":"B2094757D665A2FE479B","title":"红太阳湘菜","lon":"121.427521","lat":"31.27056","category":"77","category_name":"湖南菜","address":"普陀区平利路105号(灵石路口)"},{"poiid":"B2094655D26CA0FA469C","title":"志丹园","lon":"121.43097","lat":"31.26815","category":"196","category_name":"公园","address":""},{"poiid":"B2094757D16DAAF9449C","title":"朱鸿兴苏州汤包馆","lon":"121.42914378","lat":"31.270811235","category":"247","category_name":"餐饮美食","address":"上海普陀区平利路"},{"poiid":"B2094654D465A0F8409A","title":"冠龙高级中学","lon":"121.42947","lat":"31.27359","category":"55","category_name":"中学","address":"普陀区沪太路1060号(近灵石路)"},{"poiid":"B2094757D16BA3FE4693","title":"沪太路宜川路公交站","lon":"121.436284017","lat":"31.2701196289","category":"38","category_name":"公交车站","address":"上海845 58 959 974 185 963"},{"poiid":"B2094654D464A7FB439C","title":"芳语女子生活馆No.1189","lon":"121.43231","lat":"31.27313","category":"148","category_name":"美容美发店","address":"广中西路1189"},{"poiid":"B2094654D464A7F54493","title":"绿园小区","lon":"121.43663","lat":"31.270813","category":"47","category_name":"住宅区","address":"上海市沪太路883弄"},{"poiid":"B2094654D465A0F8409F","title":"快客No.6575","lon":"121.43078","lat":"31.27332","category":"117","category_name":"便民商店/便利店","address":"沪太路1046甲"},{"poiid":"B2094654D464ABFF4698","title":"上海众合检测应用技术研究所","lon":"121.43371","lat":"31.27079","category":"191","category_name":"科研机构","address":"沪太路1016"},{"poiid":"B2094654DB6AABFC409A","title":"世纪花苑(西门)","lon":"121.43331","lat":"31.27184","category":"656","category_name":"大门","address":"沪太路909弄"},{"poiid":"B2094757D66DA6FD459B","title":"大宁创业大厦","lon":"121.43183588","lat":"31.27262842","category":"252","category_name":"楼宇机构","address":"上海沪太路广中西路"},{"poiid":"B2094655D26DA5FB4799","title":"灵芝公寓(东门)","lon":"121.42979","lat":"31.27221","category":"47","category_name":"住宅区","address":""},{"poiid":"B2094654D465A0FE479E","title":"新健游泳俱乐部","lon":"121.429","lat":"31.26958","category":"231","category_name":"游泳馆","address":"平利路48-50"},{"poiid":"B209475CD165ABFC439D","title":"正大广场","lon":"121.42945","lat":"31.271734","category":"500","category_name":"未知分类","address":"上海市 陆家嘴"},{"poiid":"B2094757D165A1FF429D","title":"上海市第二看守所","lon":"121.43282295","lat":"31.2733261235","category":"500","category_name":"未知分类","address":"上海市闸北区灵石路沪太路"},{"poiid":"B2094655D36DA1F4409B","title":"西乡路平利路","lon":"121.42751","lat":"31.2693","category":"38","category_name":"公交车站","address":""},{"poiid":"B2094757D06BA0F44493","title":"西湘苗家","lon":"121.434304","lat":"31.275344","category":"77","category_name":"湖南菜","address":"闸北区运城路605号(近广中西路)"},{"poiid":"B2094655D26CA0FA469F","title":"平利路38弄小区(北门)","lon":"121.42939","lat":"31.26934","category":"47","category_name":"住宅区","address":""},{"poiid":"B2094654D465A0FE4799","title":"喜士多便利连锁(平利路)","lon":"121.42893","lat":"31.2696","category":"117","category_name":"便民商店/便利店","address":""},{"poiid":"B2094655D26EA3F54892","title":"东泉苑(西二门)","lon":"121.43152","lat":"31.27108","category":"656","category_name":"大门","address":"志丹路500弄"},{"poiid":"B2094751D364ABFD449D","title":"陆家嘴金融中心","lon":"121.434967","lat":"31.273193","category":"252","category_name":"楼宇机构","address":"浦东大道"},{"poiid":"B2094654D465A0F8439A","title":"甘泉苑(东门)","lon":"121.43082","lat":"31.27122","category":"656","category_name":"大门","address":"志丹路501弄"},{"poiid":"B209475DDB68A0FF489D","title":"我和上海有个约会","lon":"121.433013","lat":"31.275129","category":"247","category_name":"餐饮美食","address":"上海市 上海市闸北区运城路605号"},{"poiid":"B2094757D06AA0F94398","title":"圆缘园(志丹店)","lon":"121.43028","lat":"31.26603","category":"260","category_name":"其他","address":"普陀区志丹路197号(近新村路)"},{"poiid":"B2094654D464A7FB449F","title":"绿柳苑","lon":"121.43146","lat":"31.274157","category":"47","category_name":"住宅区","address":"上海市闸北区沪太路949号"},{"poiid":"B2094757D66DA4FB459E","title":"吉祥馄饨","lon":"121.42949795","lat":"31.2685700326","category":"247","category_name":"餐饮美食","address":"上海市闸北区平利路113"},{"poiid":"B2094757D568A4F4499D","title":"上海市回民中学体育馆生活区(边门)","lon":"121.436119","lat":"31.269655","category":"47","category_name":"住宅区","address":"沪太路1000"},{"poiid":"B2094655D26FA1FB479B","title":"中星宜川花苑(南门)","lon":"121.43574","lat":"31.26854","category":"47","category_name":"住宅区","address":"宜川路610号、640号、670号"},{"poiid":"B2094757D16EA3F4419F","title":"中國移動通信平利路營業廳","lon":"121.42906795","lat":"31.269845057","category":"500","category_name":"未知分类","address":"上海市普陀區平利路52號"},{"poiid":"B2094654D464A7FA4893","title":"重庆鸡公煲(运城路)","lon":"121.43437","lat":"31.27531","category":"71","category_name":"四川菜","address":"闸北区运城路(近广中西路)"},{"poiid":"B2094655D26DA5FF469E","title":"良友No.261","lon":"121.43619","lat":"31.27025","category":"117","category_name":"便民商店/便利店","address":"沪太路885"},{"poiid":"B2094655D264AAFB4799","title":"东泉苑(北门)","lon":"121.43367","lat":"31.27091","category":"656","category_name":"大门","address":"志丹路500弄1-6号"},{"poiid":"B2094757D66AA4FA4899","title":"东北四季饺子王 新村路","lon":"121.43287173132","lat":"31.265772472593","category":"82","category_name":"东北菜","address":"普陀区新村路261号(近宜川路)"},{"poiid":"B2094655D26AAAF9419A","title":"巴黎三城平利路店","lon":"121.43013","lat":"31.26934","category":"132","category_name":"眼镜店","address":"普陀区平利路18号好又多1楼(近志丹路)"},{"poiid":"B2094654D465A0FE469E","title":"文峰美发美容西乡店","lon":"121.42837","lat":"31.26967","category":"148","category_name":"美容美发店","address":"甘泉路"},{"poiid":"B2094751DA6CA7FF4192","title":"上海锦江汤臣洲际大酒店","lon":"121.434174","lat":"31.274078","category":"247","category_name":"餐饮美食","address":"张扬路777号"},{"poiid":"B2094757D164AAFE4998","title":"龙之梦美容美发","lon":"121.43290483","lat":"31.2730099174","category":"148","category_name":"美容美发店","address":"上海广中西路"},{"poiid":"B2094757D169AAF44098","title":"嘻涮涮老北京涮羊肉","lon":"121.43269","lat":"31.2758","category":"86","category_name":"火锅店","address":"闸北区运城路627号(广中西路口)"},{"poiid":"B2094654D464A7FA499B","title":"大场羊肉馆(运城路)","lon":"121.43447","lat":"31.27525","category":"76","category_name":"上海菜","address":"闸北区运城路595号(近广中西路)"},{"poiid":"B2094757D165A6F84893","title":"平利路烧烤摊","lon":"121.42791895","lat":"31.270921077","category":"247","category_name":"餐饮美食","address":"上海市普陀区平利路"},{"poiid":"B2094750D56EAAFB479F","title":"环球健身","lon":"121.435768","lat":"31.27086","category":"220","category_name":"运动场所","address":null},{"poiid":"B2094655D26FA7FA4798","title":"众源公寓(北门)","lon":"121.43463","lat":"31.27046","category":"48","category_name":"楼宇大门","address":"沪太路1008弄"},{"poiid":"B2094655D26FA1F5439F","title":"绿园小区(西门)","lon":"121.43631","lat":"31.27024","category":"47","category_name":"住宅区","address":"沪太路883弄"},{"poiid":"B2094655D26FA1F4459F","title":"广一小区(北门)","lon":"121.43436","lat":"31.27391","category":"47","category_name":"住宅区","address":"广中西路818弄"},{"poiid":"B2094654DB6AABFB409F","title":"光明便利No.552(甘泉苑西南)","lon":"121.42766","lat":"31.27041","category":"117","category_name":"便民商店/便利店","address":""},{"poiid":"B2094654D464A7F5479B","title":"广一小区","lon":"121.43514","lat":"31.27371","category":"47","category_name":"住宅区","address":"广中西路818弄"},{"poiid":"B2094655D26DA4FB449E","title":"长新小区东门(同济大学同济医院东)","lon":"121.43266","lat":"31.26725","category":"47","category_name":"住宅区","address":"新村路349弄(单号)"},{"poiid":"B2094654D464A7F54193","title":"宜川小区","lon":"121.43669","lat":"31.272242","category":"47","category_name":"住宅区","address":"宜川路810弄"},{"poiid":"B2094654D465A0F84499","title":"志丹公寓","lon":"121.42972","lat":"31.267506","category":"47","category_name":"住宅区","address":"志丹路295弄"},{"poiid":"B2094655D26AA7FF4992","title":"普陀区精神卫生中心","lon":"121.42993","lat":"31.26713","category":"247","category_name":"餐饮美食","address":"普陀区志丹路205号"},{"poiid":"B2094655D36CA6FE409D","title":"高平路灵石路","lon":"121.42997","lat":"31.27488","category":"38","category_name":"公交车站","address":""},{"poiid":"B2094654D465A0FF409B","title":"好德No.121","lon":"121.42749","lat":"31.27016","category":"117","category_name":"便民商店/便利店","address":"平利路70"},{"poiid":"B2094654DB6AA4F54993","title":"大通证券","lon":"121.4324","lat":"31.27252","category":"219","category_name":"其他","address":"广中西路988号3层"},{"poiid":"B2094655D26FA0FA449F","title":"志丹公寓(东门)","lon":"121.43007","lat":"31.26752","category":"47","category_name":"住宅区","address":""},{"poiid":"B2094654DB69A5F84193","title":"文峰美容美发(广中西路店)","lon":"121.43473","lat":"31.27464","category":"148","category_name":"美容美发店","address":"上海市闸北区广中西路1097号(近运城路)"},{"poiid":"B2094757D165A3F5439C","title":"广茂苑","lon":"121.43262","lat":"31.27409","category":"252","category_name":"楼宇机构","address":"上海市闸北区沪太路935号"},{"poiid":"B2094654DB65A2FE489D","title":"广中西路818弄","lon":"121.43526","lat":"31.27395","category":"47","category_name":"住宅区","address":"广中西路818弄"},{"poiid":"B2094654D465A0F84292","title":"阳辰棋牌","lon":"121.43104","lat":"31.27286","category":"175","category_name":"棋牌室","address":"沪太路1030号2层"},{"poiid":"B2094655D26FA1F5439D","title":"新沪小区(西门)","lon":"121.43605","lat":"31.26823","category":"47","category_name":"住宅区","address":"新村路39弄13-65(单)"},{"poiid":"B2094654D464ABFF489C","title":"可的(宜川路)","lon":"121.43543","lat":"31.26747","category":"117","category_name":"便民商店/便利店","address":"普陀区宜川路584号(新村路宜川路)"},{"poiid":"B2094655D36DA7FB439A","title":"子长路","lon":"121.43258","lat":"31.26606","category":"38","category_name":"公交车站","address":""},{"poiid":"B2094752D46BA5F8429F","title":"大润发大宁店","lon":"121.435731","lat":"31.27211","category":"500","category_name":"未知分类","address":null},{"poiid":"B2094654DB65A3FD459D","title":"地质大厦物业管理部","lon":"121.43124","lat":"31.27511","category":"46","category_name":"楼宇","address":"灵石路930号12层"},{"poiid":"B2094654DB64A7F9419B","title":"涌金楼-双城记时尚餐厅","lon":"121.43299518985","lat":"31.272735668731","category":"247","category_name":"餐饮美食","address":"广中西路1097号近沪太路"},{"poiid":"B2094757D16CA2FC439E","title":"城隍庙小吃世界","lon":"121.42730195","lat":"31.270213064","category":"500","category_name":"未知分类","address":"上海平利路"},{"poiid":"B209475CD56AABFA489F","title":"上海虹桥机场","lon":"121.436004","lat":"31.269899","category":"500","category_name":"未知分类","address":"上海市 上海虹桥机场"},{"poiid":"B2094757D16EA6FA449E","title":"08小吃(潮汕)","lon":"121.435437","lat":"31.267584","category":"247","category_name":"餐饮美食","address":"上海宜川路586号"},{"poiid":"B2094757D16EA0F4409C","title":"鼎红娱乐KTV","lon":"121.434652","lat":"31.274606","category":"170","category_name":"KTV","address":"广中西路1097号3层"},{"poiid":"B2094654D464A7FA4499","title":"灵石楼","lon":"121.4308","lat":"31.27528","category":"46","category_name":"楼宇","address":"灵石路930"},{"poiid":"B2094655D26BA1FC4893","title":"平利路灵石路","lon":"121.42749","lat":"31.26908","category":"38","category_name":"公交车站","address":""},{"poiid":"B2094750D665A4F94099","title":"上岛咖啡(广中西路店)","lon":"121.432","lat":"31.2728","category":"260","category_name":"其他","address":"闸北区广中西路1207号4楼(近沪太路)"},{"poiid":"B2094757D064A7FF4998","title":"闸北社保中心","lon":"121.437225342","lat":"31.269777298","category":"500","category_name":"未知分类","address":"上海沪太路711号"},{"poiid":"B2094654D464ABFF4893","title":"甘霖初级职业技术学校","lon":"121.43517","lat":"31.26735","category":"54","category_name":"职业技术学校","address":"宜川路580"},{"poiid":"B2094654DB6AABFE499F","title":"可的","lon":"121.43399","lat":"31.26646","category":"117","category_name":"便民商店/便利店","address":""},{"poiid":"B2094654D464A7FA459C","title":"上海地质陈列馆","lon":"121.43132","lat":"31.2752","category":"183","category_name":"展览馆","address":"闸北区灵石路930号1层(近沪太路)"},{"poiid":"B2094654D464A7FA4799","title":"896弄小区","lon":"121.43205","lat":"31.27575","category":"47","category_name":"住宅区","address":"灵石路896弄"},{"poiid":"B2094654D465A0FE479D","title":"上海铭人俱乐部","lon":"121.42917","lat":"31.26955","category":"248","category_name":"生活娱乐","address":"平利路42号"},{"poiid":"B2094752D568A4FF419D","title":"新天地","lon":"121.436957","lat":"31.26931","category":"500","category_name":"未知分类","address":"卢湾区新天地"},{"poiid":"B2094757D66CA2F5499F","title":"107路新村路子长路站","lon":"121.4341028","lat":"31.266400698","category":"38","category_name":"公交车站","address":"上海新村路(近子长路)"},{"poiid":"B2094757D16AA2FD439C","title":"虹桥开发区","lon":"121.42807555","lat":"31.269883757","category":"500","category_name":"未知分类","address":"上海虹桥路"},{"poiid":"B2094655D26CA7FE469B","title":"佳宁花园(西门)","lon":"121.43511","lat":"31.27097","category":"656","category_name":"大门","address":"沪太路903弄"},{"poiid":"B2094757D66DAAFE499E","title":"俊峰美容美发","lon":"121.42796935","lat":"31.2698804577","category":"148","category_name":"美容美发店","address":"普陀区西乡路75号(近平利路)"},{"poiid":"B2094750D76FA3F9469F","title":"纽西兰咖啡","lon":"121.434","lat":"31.2754","category":"260","category_name":"其他","address":"闸北区运城路617号(近灵石公园)"},{"poiid":"B2094655D264A7FB449B","title":"金原新苑二期","lon":"121.43400848272","lat":"31.266160999495","category":"47","category_name":"住宅区","address":"上海市普陀区延长西路677弄40号"},{"poiid":"B2094654DB6AABFB4198","title":"甘泉公园(东门)","lon":"121.4299","lat":"31.26784","category":"680","category_name":"楼宇机构","address":""},{"poiid":"B2094757D164A7F84598","title":"甘泉新村甘泉苑21弄","lon":"121.427513","lat":"31.2703043","category":"252","category_name":"楼宇机构","address":"上海平利路志丹路，好又多对面。"},{"poiid":"B2094757D16FABF4449E","title":"虹桥枢纽西交通中心","lon":"121.43282095","lat":"31.265728278","category":"500","category_name":"未知分类","address":"上海高铁虹桥站西"},{"poiid":"B2094654DB65A4FE4498","title":"世纪花苑(北门)","lon":"121.43293","lat":"31.273","category":"656","category_name":"大门","address":"广中西路928"},{"poiid":"B2094757D16BAAFA489C","title":"中国平安财产保险有限公司","lon":"121.43483195","lat":"31.273457126","category":"500","category_name":"未知分类","address":"上海市中山北一路1230号"},{"poiid":"B2094654D464A7FA4493","title":"上海市地质资料馆","lon":"121.43132","lat":"31.2752","category":"181","category_name":"图书馆","address":"灵石路930号地质大厦10层"},{"poiid":"B2094654D464ABFF439A","title":"上海东方雨虹防水工程有限公司","lon":"121.43231","lat":"31.26728","category":"263","category_name":"公司","address":""},{"poiid":"B2094655D26CA1FB4698","title":"甘泉苑(南三门)","lon":"121.42982","lat":"31.26976","category":"656","category_name":"大门","address":""},{"poiid":"B2094752D364A4FC479A","title":"新招鲜本地鸡窝(宜川路店)","lon":"121.43672","lat":"31.26928","category":"86","category_name":"火锅店","address":"普陀区宜川路678号(沪太路口)"},{"poiid":"B2094654D464A7FB429E","title":"闸北区绿园菜市场活鸡零售点No.11","lon":"121.43405","lat":"31.27492","category":"117","category_name":"便民商店/便利店","address":""},{"poiid":"B2094655D26EA3F8459C","title":"新俪公寓","lon":"121.43730975442","lat":"31.27120943696","category":"250","category_name":"公园户外","address":"普陀区志丹路262号(近新村路)"},{"poiid":"B2094757D16AA7FD449D","title":"良友金伴(沪太店)","lon":"121.4366","lat":"31.26995","category":"500","category_name":"未知分类","address":"上海普陀区沪太路885号  "},{"poiid":"B2094757DB6CA6F9469A","title":"佘山","lon":"121.429749","lat":"31.266701","category":"500","category_name":"未知分类","address":"欢乐谷"},{"poiid":"B2094655D26FA1F4499E","title":"广茂苑(西门)","lon":"121.43111","lat":"31.27363","category":"656","category_name":"大门","address":"沪太路935弄"},{"poiid":"B2094654D464ABFE439E","title":"好德便利No.085(新志饭店东)","lon":"121.43156","lat":"31.26568","category":"117","category_name":"便民商店/便利店","address":""},{"poiid":"B2094757D164ABFA429B","title":"閘北看守所","lon":"121.43195295","lat":"31.274804151","category":"500","category_name":"未知分类","address":"上海市闸北区沪太路"},{"poiid":"B2094654D464A7FA4992","title":"中国工商银行上海市大宁支行","lon":"121.43428","lat":"31.27442","category":"150","category_name":"银行","address":"闸北区广中西路1109号(近大宁绿地)"},{"poiid":"B2094753D56CA6F44198","title":"流浪中...","lon":"121.43003","lat":"31.274824","category":"500","category_name":"未知分类","address":"上海市 人民广场"},{"poiid":"B2094654D464ABFF479A","title":"家家足浴坊","lon":"121.43669","lat":"31.26936","category":"149","category_name":"洗浴推拿场所","address":""},{"poiid":"B2094655D26FA0FB449B","title":"绿柳苑(西门)","lon":"121.43094","lat":"31.27396","category":"48","category_name":"楼宇大门","address":"沪太路941弄1-12号"},{"poiid":"B2094655D26DA5F44292","title":"广茂苑(南门)","lon":"121.43292","lat":"31.27363","category":"656","category_name":"大门","address":"广中西路1173"},{"poiid":"B2094751DA6DA5FC459D","title":"全家宜川二店","lon":"121.432381","lat":"31.266146","category":"500","category_name":"未知分类","address":"宜川路414号"},{"poiid":"B2094757D16FABF5489E","title":"原平路55号","lon":"121.43618995","lat":"31.2674950121","category":"500","category_name":"未知分类","address":"上海原平路55号"},{"poiid":"B2094655D265AAFF429F","title":"绿岛沐浴","lon":"121.43474","lat":"31.27464","category":"149","category_name":"洗浴推拿场所","address":"广中西路1097号2-3层"},{"poiid":"B2094655D26CA0FA469E","title":"甘泉苑(南二门)","lon":"121.429","lat":"31.26989","category":"656","category_name":"大门","address":""},{"poiid":"B2094654D465A0F5459A","title":"扬光汽车装饰","lon":"121.42835","lat":"31.27386","category":"159","category_name":"汽车维修","address":"灵石路1129号"},{"poiid":"B2094654D465A0F5459B","title":"中国农业银行上海市分行汽车金融服务中心(1)","lon":"121.42856","lat":"31.27407","category":"150","category_name":"银行","address":"灵石路1113号"},{"poiid":"B2094757D065A3F94399","title":"小肉家","lon":"121.434714","lat":"31.266605","category":"500","category_name":"未知分类","address":null},{"poiid":"B2094757D16FA4F94499","title":"甘泉路街道社区事务受理服务中心","lon":"121.43534765","lat":"31.2667722983","category":"252","category_name":"楼宇机构","address":"上海宜君路9号"},{"poiid":"B2094654D464ABFF449B","title":"同济大学附属同济医院医学科学研究所","lon":"121.4313","lat":"31.26675","category":"191","category_name":"科研机构","address":"新村路389号"},{"poiid":"B2094654D464A7FA489A","title":"绿岛浴场","lon":"121.43385","lat":"31.27538","category":"149","category_name":"洗浴推拿场所","address":"闸北区广中西路1097号2-3楼(近运城路)"},{"poiid":"B2094655D26FA6FC409A","title":"甘泉苑(北门)","lon":"121.43055","lat":"31.2735","category":"656","category_name":"大门","address":""},{"poiid":"B2094757D069A0FA4799","title":"大宁广场苹果专卖店","lon":"121.43514251","lat":"31.274826049","category":"249","category_name":"购物服务","address":"上海大宁绿地"},{"poiid":"B2094655D26CA0F94899","title":"长新小区(西门)","lon":"121.43296","lat":"31.2672","category":"656","category_name":"大门","address":"新村路349弄2号-62号(双号)"},{"poiid":"B2094654DB6AA4F54892","title":"佳宁花园(东门)","lon":"121.43642","lat":"31.27345","category":"656","category_name":"大门","address":"运城路399"},{"poiid":"B2094757D66DA4F44892","title":"甘泉一村205号","lon":"121.43096195","lat":"31.265914981","category":"252","category_name":"楼宇机构","address":"上海市普陀区甘泉路子长路"},{"poiid":"B2094655D26FA1FA449A","title":"长新小区(南门)","lon":"121.43406","lat":"31.26676","category":"656","category_name":"大门","address":"新村路285弄"},{"poiid":"B2094654D464A7FA4598","title":"上海市地质调查研究院","lon":"121.43133","lat":"31.27521","category":"191","category_name":"科研机构","address":"灵石路930号地质大厦6-8层"},{"poiid":"B2094655D26CA0F9499B","title":"长新小区(东门)","lon":"121.43544","lat":"31.26774","category":"656","category_name":"大门","address":"宜川路"},{"poiid":"B2094654D464A7FA449E","title":"上海地矿工程勘察院(灵石路)","lon":"121.43105","lat":"31.27538","category":"191","category_name":"科研机构","address":"灵石路930号地质大厦11层"},{"poiid":"B2094757D569A2F94693","title":"同济大学消化系统疾病研究所","lon":"121.431175","lat":"31.265943","category":"191","category_name":"科研机构","address":"新村路389号"},{"poiid":"B2094655D26CA1F44793","title":"甘泉苑(南一门)","lon":"121.42758","lat":"31.27048","category":"656","category_name":"大门","address":""},{"poiid":"B2094654D465A0FF499C","title":"甘泉苑(西门)","lon":"121.42759","lat":"31.2725","category":"656","category_name":"大门","address":""},{"poiid":"B2094655D26CA0F9489C","title":"新长小区(北门)","lon":"121.43425","lat":"31.2662","category":"656","category_name":"大门","address":"新村路248弄"},{"poiid":"B2094655D26FA0F94792","title":"新长小区(南门)","lon":"121.43413","lat":"31.26619","category":"656","category_name":"大门","address":"新村路248弄"},{"poiid":"B2094655D26CA0F94898","title":"新村路350弄小区(北门)","lon":"121.43199","lat":"31.26575","category":"656","category_name":"大门","address":"新村路350弄"},{"poiid":"B2094655D26FA1FB469D","title":"甘泉一村(北门)","lon":"121.43148","lat":"31.26564","category":"656","category_name":"大门","address":""}]