[{"poiid":"B2094655D265A0F84392","title":"红麻辣料理(万航渡路店)","lon":"121.43574","lat":"31.22514","category":"68","category_name":"快餐厅","address":"静安区万航渡路465号(近镇宁路)"},{"poiid":"B2094757D069A2FE489E","title":"Time zipping house TZ","lon":"121.435335241","lat":"31.2244989389","category":"260","category_name":"其他","address":"静安区镇宁路525号新东纺大酒店1楼(近万航渡路)"},{"poiid":"B2094750D76EAAFC4993","title":"小胖龙虾(镇宁店)","lon":"121.435","lat":"31.2239","category":"68","category_name":"快餐厅","address":"静安区镇宁路483号(近万航渡路)"},{"poiid":"B209475CD564A7F8439E","title":"上海滩中信泰富店","lon":"121.45602","lat":"31.22851","category":"119","category_name":"商场","address":"\"南京西路1168号中信泰富广场，店铺号221.\r\n\""},{"poiid":"B2094750DB6FA0FB469D","title":"八重樱寿喜锅","lon":"121.436347","lat":"31.22504","category":"95","category_name":"日本料理","address":"静安区万航渡路450号2楼(近镇宁路)"},{"poiid":"B2094757D068A1FE489B","title":"舜元企业发展大厦","lon":"121.437273","lat":"31.225137","category":"46","category_name":"楼宇","address":"上海江苏路398号"},{"poiid":"B2094757D068A4F84692","title":"上海美术电影制片厂","lon":"121.43391","lat":"31.22595","category":"179","category_name":"音乐厅","address":"静安区万航渡路618号(近武定西路)"},{"poiid":"B2094757D468ABFA4792","title":"和平官邸5号","lon":"121.432227","lat":"31.224611","category":"247","category_name":"餐饮美食","address":"静安区武定西路1317弄10号(近万航渡路)"},{"poiid":"B2094757D16FABFF409A","title":"TZ house","lon":"121.436282","lat":"31.226693","category":"500","category_name":"未知分类","address":"上海武宁南路万航渡路"},{"poiid":"B2094757D069A1F44498","title":"Mokkos","lon":"121.433256152","lat":"31.2250710167","category":"260","category_name":"其他","address":"长宁区武定西路1245号103室(近万航渡路)"},{"poiid":"B2094757DB6CA5F84899","title":"外婆家","lon":"121.43476015","lat":"31.22588765","category":"500","category_name":"未知分类","address":"调频壹广场"},{"poiid":"B2094757D06FA4FA479B","title":"绿地商务大厦","lon":"121.43222758119","lat":"31.225661116139","category":"46","category_name":"楼宇","address":"上海市长宁区愚园路1258号"},{"poiid":"B2094750D26EA4FF4898","title":"庞克咖啡","lon":"121.435745","lat":"31.222717","category":"65","category_name":"咖啡厅","address":"静安区镇宁路425号(近愚园路)"},{"poiid":"B2094751D464A6FA4993","title":"CAS BAR","lon":"121.4359","lat":"31.22513","category":"260","category_name":"其他","address":"静安区武定路980号(近胶州路)"},{"poiid":"B2094750D664A3FB4893","title":"TZHouse弹指之间音乐酒吧","lon":"121.435","lat":"31.2245","category":"269","category_name":"烧烤","address":"镇宁路525号新东纺大酒店1楼(近万航渡路)"},{"poiid":"B2094757D56CABF4409C","title":"东北虎烧烤 镇宁路店","lon":"121.435838054","lat":"31.221491793","category":"68","category_name":"快餐厅","address":"静安区镇宁路367号(愚园路口)"},{"poiid":"B2094757DB6EA5F84199","title":"潮辣","lon":"121.433275","lat":"31.223303","category":"247","category_name":"餐饮美食","address":"愚圆路582号"},{"poiid":"B2094750DB64AAF4429B","title":"杨同兴火锅","lon":"121.43449","lat":"31.22562","category":"86","category_name":"火锅店","address":"静安区万航渡路550号(近武定西路)"},{"poiid":"B2094654D565A1FB499C","title":"嘉园","lon":"121.43611","lat":"31.224552","category":"47","category_name":"住宅区","address":"上海市静安区万航渡路458弄"},{"poiid":"B2094757D068A2FC4998","title":"红宝石 万航渡路店 Ruby","lon":"121.433935054","lat":"31.225951793","category":"67","category_name":"甜品店","address":"静安区万航渡路625号(近武定西路)"},{"poiid":"B2094757D065ABFD409F","title":"天星公寓","lon":"121.43437","lat":"31.224094","category":"47","category_name":"住宅区","address":"上海市虹口区天水路69弄"},{"poiid":"B2094757D068A6FF4693","title":"王家沙点心店(万航渡路店)","lon":"121.43307","lat":"31.22653","category":"68","category_name":"快餐厅","address":"静安区万航渡路673号(康定路与武定西路间)"},{"poiid":"B2094655D26DA3F94792","title":"兴星公寓","lon":"121.43436","lat":"31.223917","category":"47","category_name":"住宅区","address":"兴星公寓位于静安镇宁路545弄7号"},{"poiid":"B2094757D069A0F4479A","title":"天乐酒家","lon":"121.43225563741","lat":"31.226646519422","category":"76","category_name":"上海菜","address":"静安区万航渡路628号(近武定西路)"},{"poiid":"B2094757D068A2F84193","title":"MDB桌球会所","lon":"121.4354102","lat":"31.2250695","category":"248","category_name":"生活娱乐","address":"上海镇宁路525号(万航渡路口)"},{"poiid":"B2094757D16CAAFD4198","title":"红料理","lon":"121.435906586","lat":"31.2244983189","category":"247","category_name":"餐饮美食","address":"上海市静安区万航渡路"},{"poiid":"B2094757D065A1F8429B","title":"苏州五越斋汤包馆","lon":"121.434539586","lat":"31.2259423472","category":"68","category_name":"快餐厅","address":"静安区万航渡路529号(近武定西路)"},{"poiid":"B2094654D565A1FB449B","title":"重庆鸡公煲(镇宁路)","lon":"121.43631","lat":"31.22105","category":"71","category_name":"四川菜","address":"静安区愚园路654号(近镇宁路)"},{"poiid":"B2094757D06AAAF8449C","title":"镇宁路465弄","lon":"121.43528","lat":"31.223562","category":"500","category_name":"未知分类","address":"上海镇宁路465弄"},{"poiid":"B209475CDA6AA7F44599","title":"鱼酷活鱼现烤","lon":"121.434593","lat":"31.224903","category":"247","category_name":"餐饮美食","address":"上海市 静安区悦达889广场"},{"poiid":"B2094655D264A6FF449B","title":"益都名邸","lon":"121.433703","lat":"31.224221","category":"47","category_name":"住宅区","address":"上海市长宁区愚园路1155弄"},{"poiid":"B2094654DB69A6FE499C","title":"开开大厦","lon":"121.4338","lat":"31.22594","category":"46","category_name":"楼宇","address":"静安区万航渡路888号"},{"poiid":"B2094750DA64A0FB4699","title":"PUNK COFFEE","lon":"121.435043","lat":"31.223016","category":"247","category_name":"餐饮美食","address":"镇宁路425号"},{"poiid":"B2094654D565A1FB459B","title":"纺织工会大厦","lon":"121.43516","lat":"31.22431","category":"46","category_name":"楼宇","address":"镇宁路525"},{"poiid":"B2094757D068A7F8479B","title":"中行小区","lon":"121.43359768","lat":"31.226565699","category":"47","category_name":"住宅区","address":"上海市长宁区淮海西路346弄5号楼"},{"poiid":"B2094654D565A1FE4593","title":"京世造型(武定西路)","lon":"121.43558","lat":"31.22665","category":"148","category_name":"美容美发店","address":"武定西路1178"},{"poiid":"B2094655D26CABF44193","title":"中行别业商务中心","lon":"121.434","lat":"31.22675","category":"46","category_name":"楼宇","address":"城西路188、200号等"},{"poiid":"B2094654D565A1FB449D","title":"新东纺大酒店娱乐总汇","lon":"121.43528","lat":"31.22467","category":"170","category_name":"KTV","address":"静安区镇宁路525号新东纺大酒店4楼(近曹家渡)"},{"poiid":"B2094750D56DA6FA4492","title":"静安设计中心","lon":"121.43546177415","lat":"31.224096656872","category":"263","category_name":"公司","address":"静安区愚园路433弄8号(近乌鲁木齐路)"},{"poiid":"B2094757D66FA3FD4598","title":"福来多三国烤鱼","lon":"121.43662528","lat":"31.22507963","category":"71","category_name":"四川菜","address":"静安区万航渡路431号(近镇宁路)"},{"poiid":"B2094757DB6EAAF44792","title":"咕咚石锅蒸汽火锅","lon":"121.43476","lat":"31.225888","category":"247","category_name":"餐饮美食","address":"静安区"},{"poiid":"B2094757DB6FA4FC4492","title":"IMovie影院视听馆（静安店）","lon":"121.43618625","lat":"31.22430014","category":"248","category_name":"生活娱乐","address":"静安区北京西路1829号4楼(近乌鲁木齐路)"},{"poiid":"B2094655D26DA3FD449B","title":"传奇桌球(镇宁路)","lon":"121.43527","lat":"31.22467","category":"171","category_name":"台球厅","address":"镇宁路525号新东纺大酒店3层"},{"poiid":"B2094751D26EA1F94298","title":"海底捞火锅","lon":"121.4355280418445","lat":"31.22430984840841","category":"247","category_name":"餐饮美食","address":"南京西路"},{"poiid":"B2094654DB6BA6FE4892","title":"曹家渡派出所(武定西路)","lon":"121.4319","lat":"31.22475","category":"248","category_name":"生活娱乐","address":"武定西路1368"},{"poiid":"B209475CD06BA4F94493","title":"TZ House 弹指之间音乐酒吧  timezippinghouse","lon":"121.43542","lat":"31.22452","category":"172","category_name":"酒吧","address":"镇宁路525号新东纺大酒店1楼(近万航渡路)"},{"poiid":"B2094654DB6BA6FF4298","title":"光明便利(镇宁路)","lon":"121.43547","lat":"31.22371","category":"117","category_name":"便民商店/便利店","address":"普陀区江宁路958号(安远路江宁路)"},{"poiid":"B2094757D069AAF9409F","title":"新东纺大酒店","lon":"121.43539428","lat":"31.224704742","category":"217","category_name":"旅馆招待所","address":"静安区镇宁路525号(近万航渡路)"},{"poiid":"B2094757D16BA0FF429C","title":"上海市皮肤病医院","lon":"121.436256586","lat":"31.2217742656","category":"162","category_name":"医院","address":"上海市武夷路"},{"poiid":"B2094757D065A3FE429D","title":"上海镇宁路545弄","lon":"121.434918","lat":"31.224542","category":"500","category_name":"未知分类","address":"上海镇宁路545弄"},{"poiid":"B2094655D26CABF84793","title":"石化小区","lon":"121.43527","lat":"31.22356","category":"47","category_name":"住宅区","address":"镇宁路465弄6-16号"},{"poiid":"B2094750D164A3FB409D","title":"汉庭快捷上海静安寺新店","lon":"121.43470317343","lat":"31.225897751726","category":"216","category_name":"经济型连锁酒店","address":"上海市静安区万航渡路529号"},{"poiid":"B2094655D26EA2FC479C","title":"克莉丝汀饼屋(万航渡路店)","lon":"121.43585","lat":"31.22512","category":"112","category_name":"糕饼店","address":"静安区万航渡路463号"},{"poiid":"B2094757D56CABF9449C","title":"糖工坊 万航渡路店","lon":"121.434166054","lat":"31.225861793","category":"67","category_name":"甜品店","address":"静安区万航渡路699号(近武定西路)"},{"poiid":"B2094654D565A1FB449E","title":"时尚金剪立体研发机构","lon":"121.43544","lat":"31.22386","category":"148","category_name":"美容美发店","address":"镇宁路487识别"},{"poiid":"B2094750D669A0FC469D","title":"上海市静安区","lon":"121.433364","lat":"31.224691","category":"500","category_name":"未知分类","address":"万航渡路"},{"poiid":"B2094654DB69A4FE439F","title":"莫泰168连锁旅店(武宁南路店)","lon":"121.43601","lat":"31.22662","category":"216","category_name":"经济型连锁酒店","address":"上海静安区武定西路1185号"},{"poiid":"B2094753D36FABF5479C","title":"包玉刚实验学校","lon":"121.43351","lat":"31.22538","category":"56","category_name":"小学","address":"长宁区武定西路1251弄20号(近万航渡路)"},{"poiid":"B2094757D06AA5F9459F","title":"逸夫职业技术学校","lon":"121.436336","lat":"31.225274","category":"55","category_name":"中学","address":"上海万航渡路435号"},{"poiid":"B2094655D26DA3FD4499","title":"石化小区(东门)","lon":"121.4355","lat":"31.22361","category":"47","category_name":"住宅区","address":"镇宁路465弄6-16号"},{"poiid":"B2094757D069ABF4499C","title":"泰煌鸡(万航渡路店)","lon":"121.43379844","lat":"31.2269859112","category":"68","category_name":"快餐厅","address":"静安区万航渡路615号(近武定西路)"},{"poiid":"B2094654D565A1FB4593","title":"华园","lon":"121.43487","lat":"31.22537","category":"47","category_name":"住宅区","address":"万航渡路540"},{"poiid":"B2094757D16EA1FD499E","title":"疯狂烤翅","lon":"121.435628586","lat":"31.2265063582","category":"247","category_name":"餐饮美食","address":"上海市静安区定西路1188号"},{"poiid":"B2094655D26BA3F94398","title":"传奇台球镇宁店","lon":"121.43527","lat":"31.22467","category":"171","category_name":"台球厅","address":"静安区镇宁路525号3楼新东纺大酒店近万航渡路;;"},{"poiid":"B2094655D26EA7FB4693","title":"嘉园健身会所泳池游泳馆","lon":"121.43631","lat":"31.22487","category":"231","category_name":"游泳馆","address":"静安区万航渡路442号(近镇宁路)"},{"poiid":"B2094757D06AA4F5409D","title":"长宁区工人文化宫","lon":"121.43506158","lat":"31.222485279","category":"500","category_name":"未知分类","address":"上海安西路45号"},{"poiid":"B209475CD764A1FA449B","title":"和平官邸 武定西路店","lon":"121.432227","lat":"31.224611","category":"72","category_name":"广东菜","address":"武定西路1317弄10-12号近江苏路"},{"poiid":"B2094757D568A0FC429E","title":"两岸餐厅","lon":"121.43374376","lat":"31.22267415","category":"257","category_name":"中餐厅","address":"静安区镇宁路465弄97号(北京西路常德路)"},{"poiid":"B2094654DB65A7FF479A","title":"全家便利店(武定二店)","lon":"121.4342","lat":"31.22584","category":"117","category_name":"便民商店/便利店","address":"静安区武定西路1174号"},{"poiid":"B2094654DB6BA6FF4292","title":"上海市逸夫职业技术学校静安分部(南门)","lon":"121.43656","lat":"31.22526","category":"678","category_name":"学校大门","address":"万航渡路435"},{"poiid":"B2094757D168A2F8439E","title":"QingHua青花","lon":"121.435836586","lat":"31.2249193271","category":"247","category_name":"餐饮美食","address":"上海镇宁路万航度路"},{"poiid":"B2094654D565A1FB419C","title":"大华油酱店","lon":"121.4336","lat":"31.2228","category":"117","category_name":"便民商店/便利店","address":"镇宁路465弄112号"},{"poiid":"B2094757D16DAAF4409E","title":"镇宁路465弄口烧烤","lon":"121.43581","lat":"31.22383","category":"500","category_name":"未知分类","address":"上海长宁区镇宁路465弄口(近愚园路)  "},{"poiid":"B2094757D065A7FA429B","title":"华江石油","lon":"121.43563758","lat":"31.224272314","category":"154","category_name":"加油加气站","address":"上海市静安区万航渡路"},{"poiid":"B2094757D069ABF8419D","title":"思雨外贸服饰店","lon":"121.43374701","lat":"31.224917577","category":"249","category_name":"购物服务","address":"上海武定西路1234号"},{"poiid":"B2094654D565A1FB4899","title":"好德便利镇宁店(嘉园北)","lon":"121.43598","lat":"31.22511","category":"117","category_name":"便民商店/便利店","address":"静安区万航渡路459"},{"poiid":"B2094751D46AA6F94498","title":"Seesaw","lon":"121.435777","lat":"31.223909","category":"500","category_name":"未知分类","address":"愚园路433号"},{"poiid":"B2094655D26EA5FB4699","title":"齐珍辉盱眙龙虾城(万航渡路店)","lon":"121.43614","lat":"31.22482","category":"247","category_name":"餐饮美食","address":"静安区万航渡路450号"},{"poiid":"B2094757D56CA2F84199","title":"吉祥馄饨 愚园路","lon":"121.43168361992","lat":"31.222846426465","category":"247","category_name":"餐饮美食","address":"静安区愚园路580号(近镇宁路)"},{"poiid":"B2094757D16EA4F8469B","title":"耐索摄影棚","lon":"121.433194","lat":"31.225386","category":"500","category_name":"未知分类","address":"上海静安区武定西路1288号海影大厦"},{"poiid":"B2094757D568A2F5449D","title":"Tierra Mexicana","lon":"121.436229","lat":"31.224853","category":"247","category_name":"餐饮美食","address":"万航渡路嘉园公共绿地"},{"poiid":"B2094654D565A2F4479C","title":"上海市连梅痕时尚艺术学校","lon":"121.43308","lat":"31.22564","category":"52","category_name":"高等院校","address":"静安区武定西路1288号海影大厦4层"},{"poiid":"B2094757D568A6FF4799","title":"农夫山泉(石林别墅东)","lon":"121.43397651","lat":"31.22293403","category":"255","category_name":"专卖店","address":"中国上海市长宁区"},{"poiid":"B2094655D26EA5F5429F","title":"小杨生煎(万航渡路店)","lon":"121.43371","lat":"31.22598","category":"247","category_name":"餐饮美食","address":"静安区万航渡路600号"},{"poiid":"B2094655D26DA2FF439F","title":"天星公寓(北门)","lon":"121.43476","lat":"31.22438","category":"656","category_name":"大门","address":"镇宁路545弄15号"},{"poiid":"B2094655D26CABF8429B","title":"新镇宁菜市场","lon":"121.43663","lat":"31.22378","category":"117","category_name":"便民商店/便利店","address":"静安区镇宁路466号(近万航渡路)"},{"poiid":"B2094655D26DA3F9489E","title":"兴星公寓(北门)","lon":"121.43477","lat":"31.22438","category":"656","category_name":"大门","address":"镇宁路545弄7号"},{"poiid":"B2094654D565A1FD489B","title":"建华大楼","lon":"121.43352","lat":"31.22675","category":"46","category_name":"楼宇","address":"万航渡路623弄85-3"},{"poiid":"B2094655D26AA1FF419E","title":"美林阁静安店","lon":"121.43601","lat":"31.22662","category":"76","category_name":"上海菜","address":"静安区武定西路1185号神州大厦1-2楼(武定路口)"},{"poiid":"B2094757D16BA2F44593","title":"新镇宁菜场市场","lon":"121.43609658","lat":"31.223407297","category":"500","category_name":"未知分类","address":"上海市静安区镇宁路"},{"poiid":"B2094757D16AA2F8489D","title":"44路公交站","lon":"121.43230666","lat":"31.222540347","category":"38","category_name":"公交车站","address":"上海江苏北路长宁路"},{"poiid":"B2094654D565A1FB489D","title":"丽人坊美发沙龙(万航渡路)","lon":"121.43621","lat":"31.22516","category":"148","category_name":"美容美发店","address":"万航渡路451"},{"poiid":"B2094655D26EA3F9499C","title":"静安桂花园","lon":"121.43273","lat":"31.226236","category":"47","category_name":"住宅区","address":"上海市静安区万航渡路660弄"},{"poiid":"B2094655D264A7FB479D","title":"嘉御豪庭","lon":"121.43666","lat":"31.22319","category":"47","category_name":"住宅区","address":""},{"poiid":"B209475CD565A0F5419D","title":"NPC－环贸iamp店","lon":"121.435012","lat":"31.222007","category":"500","category_name":"未知分类","address":"上海市 上海市陕西南路环贸iampLG2"},{"poiid":"B2094757D16EA3FC4298","title":"芋花园","lon":"121.435589586","lat":"31.225676342","category":"500","category_name":"未知分类","address":"上海久光B1"},{"poiid":"B2094654DB64A6FB4992","title":"新东纺大酒店(东二门)","lon":"121.4353","lat":"31.22426","category":"656","category_name":"大门","address":"静安区镇宁路525号"},{"poiid":"B2094757D168A5FA429E","title":"东方有线万航渡路营业厅","lon":"121.43447758","lat":"31.225783344","category":"150","category_name":"银行","address":"上海万航渡路620号"},{"poiid":"B2094655D26DA3F94899","title":"天星公寓(南门)","lon":"121.43449","lat":"31.22337","category":"656","category_name":"大门","address":""},{"poiid":"B2094655D26DA3F94898","title":"兴星公寓(南门)","lon":"121.4345","lat":"31.22337","category":"656","category_name":"大门","address":""},{"poiid":"B2094655D26FA6FC4193","title":"新东纺大酒店(东一门)","lon":"121.43537","lat":"31.22472","category":"656","category_name":"大门","address":"静安区镇宁路525号"},{"poiid":"B2094654D565A2F4479B","title":"汇众公寓","lon":"121.43219","lat":"31.225487","category":"47","category_name":"住宅区","address":"武定西路1300号"},{"poiid":"B2094752D26FA4FE479A","title":"糖风甜韵港式甜品","lon":"121.435382","lat":"31.226437","category":"247","category_name":"餐饮美食","address":"静安区武定西路1188-2(近武宁南路)"},{"poiid":"B2094753D16DA7F4429C","title":"easybox studio（静安寺店）","lon":"121.436393","lat":"31.224773","category":"221","category_name":"健身中心","address":"上海市 愚园路168弄6号"},{"poiid":"B2094757D065A6FA4293","title":"新唯一","lon":"121.43477815","lat":"31.220904248","category":"68","category_name":"快餐厅","address":"静安区愚园路658号(近镇宁路)"},{"poiid":"B2094757D569A7F4419D","title":"冰糖葫芦小店","lon":"121.4328611","lat":"31.22677611","category":"68","category_name":"快餐厅","address":"静安区万航渡路673号王家沙旁(近康定路)"},{"poiid":"B2094654D565A2F44698","title":"静安区老年大学","lon":"121.43221","lat":"31.22512","category":"53","category_name":"成人教育","address":"静安区泰兴路233号(近北京西路)"},{"poiid":"B2094751DB6BA2F9429A","title":"品之鲜重庆麻辣烫","lon":"121.43524","lat":"31.2265","category":"68","category_name":"快餐厅","address":"静安区武定西路1188号(近武宁南路)"},{"poiid":"B2094750D069ABFD4493","title":"中国工商银行静安万航渡路支行","lon":"121.434","lat":"31.226","category":"150","category_name":"银行","address":"上海市万航渡路555号"},{"poiid":"B2094757D16EA7FD459C","title":"曹家渡街道社区文化中心","lon":"121.43141758","lat":"31.225278334","category":"500","category_name":"未知分类","address":"静安区武定西路1344弄12号"},{"poiid":"B2094654D565A2F4469E","title":"静安区爱心学校","lon":"121.43221","lat":"31.22512","category":"253","category_name":"校园生活","address":"武定西路1344弄12号"},{"poiid":"B2094654D565A1F9479D","title":"武西邨","lon":"121.43542","lat":"31.22618","category":"47","category_name":"住宅区","address":"武定西路1191弄1-2号"},{"poiid":"B2094757D168A5FF459E","title":"S.N.H","lon":"121.43255615","lat":"31.223026275","category":"500","category_name":"未知分类","address":"上海长宁路225弄"},{"poiid":"B2094654D565A2F44492","title":"静安城汽车公寓","lon":"121.43142","lat":"31.2252","category":"47","category_name":"住宅区","address":"武定西路1398弄3号"},{"poiid":"B2094654DB6BA6FE489C","title":"静安城振阳公寓","lon":"121.43142","lat":"31.22521","category":"47","category_name":"住宅区","address":"武定西路1388号"},{"poiid":"B2094752D26BA0FF4193","title":"2719茶局","lon":"121.434674","lat":"31.221968","category":"248","category_name":"生活娱乐","address":"上海市 镇宁路405弄53号"},{"poiid":"B2094654D565A2F54093","title":"万航公寓","lon":"121.43196","lat":"31.225796","category":"47","category_name":"住宅区","address":"万航渡路676弄52"},{"poiid":"B2094655D26DA7F8449E","title":"武西邨(北门)","lon":"121.4353","lat":"31.22633","category":"47","category_name":"住宅区","address":"武定西路1191弄1-2号"},{"poiid":"B2094757D16CA1FA469B","title":"上海海烟物流(静安区)","lon":"121.43502058","lat":"31.226210352","category":"500","category_name":"未知分类","address":"上海万航渡路525号"},{"poiid":"B2094757D168A2F5429D","title":"武定西路某别墅区","lon":"121.43158972","lat":"31.224020965","category":"500","category_name":"未知分类","address":"上海武定西路1371弄18号"},{"poiid":"B2094751D26EA1FF4193","title":"玲珑坊","lon":"121.433857","lat":"31.221909","category":"500","category_name":"未知分类","address":null},{"poiid":"B2094751D565A2F94292","title":"Damarco","lon":"121.435487","lat":"31.221215","category":"247","category_name":"餐饮美食","address":"东诸安浜路103号"},{"poiid":"B2094654D565A1F9419E","title":"快客(武定西路)","lon":"121.4312","lat":"31.22436","category":"117","category_name":"便民商店/便利店","address":"武定西路1363号"},{"poiid":"B2094654D565A1FD4798","title":"永琪美容美发(万航渡路)","lon":"121.43271","lat":"31.22683","category":"148","category_name":"美容美发店","address":"静安区万航渡路683号(近康定路)"},{"poiid":"B2094654D565A1FB489E","title":"迷恋咖啡馆","lon":"121.43602","lat":"31.22511","category":"260","category_name":"其他","address":"静安区万航渡路457号(万航渡路镇宁路)"},{"poiid":"B2094654D565A1FE4698","title":"瑞丽公寓","lon":"121.43542","lat":"31.226957","category":"47","category_name":"住宅区","address":"上海市静安区武宁南路101号～115号"},{"poiid":"B2094654D565A1F9489A","title":"中国银行上海市万航渡路支行","lon":"121.43625","lat":"31.22673","category":"150","category_name":"银行","address":"静安区武定西路1185号(万航渡路武定西路)"},{"poiid":"B2094757DA6EABF8439A","title":"KT形象工作室","lon":"121.433900999998","lat":"31.2257850000001","category":"248","category_name":"生活娱乐","address":"静安区武定西路1216号(万航渡路口)"},{"poiid":"B2094757D064A1FA4199","title":"武定西路萬行渡路","lon":"121.43318","lat":"31.226275","category":"500","category_name":"未知分类","address":"上海武定西路1288"},{"poiid":"B2094655D26CABFC479F","title":"藏宝","lon":"121.43542","lat":"31.22656","category":"260","category_name":"其他","address":"静安区武定西路1180-2号(近武宁南路)"},{"poiid":"B2094757D168AAF9469E","title":"中行别墅","lon":"121.433470919","lat":"31.2271013698","category":"47","category_name":"住宅区","address":"上海万航渡路623弄"},{"poiid":"B2094753D764A0FF489B","title":"悦达889中心","lon":"121.434608","lat":"31.226419","category":"500","category_name":"未知分类","address":"上海市 上海市长寿路1111号"},{"poiid":"B2094655D26DA3F94799","title":"嘉园(西门)","lon":"121.43569","lat":"31.22398","category":"656","category_name":"大门","address":""},{"poiid":"B2094654D565A1FD479E","title":"罗森(万航渡路)","lon":"121.43291","lat":"31.22675","category":"117","category_name":"便民商店/便利店","address":"静安区万航渡路663号"},{"poiid":"B2094654D565A2F44493","title":"静安城华安公寓","lon":"121.43142","lat":"31.22521","category":"47","category_name":"住宅区","address":"武定西路1398弄2号"},{"poiid":"B2094655D26AA0F54793","title":"馨凰健身休闲俱乐部","lon":"121.43722","lat":"31.22545","category":"247","category_name":"餐饮美食","address":"静安区万航渡路393弄1号1楼102室(近武宁南路)"},{"poiid":"B2094757D66EA7FB4798","title":"梅龙镇集团","lon":"121.43425758","lat":"31.221838266","category":"500","category_name":"未知分类","address":"上海市长宁区镇宁路405弄180号"},{"poiid":"B2094757D16CA5FE4398","title":"静安寺罗森","lon":"121.4366717","lat":"31.225177","category":"500","category_name":"未知分类","address":"上海静安区万航渡路"},{"poiid":"B2094654DB64A5F8479D","title":"神州大厦","lon":"121.436","lat":"31.22661","category":"215","category_name":"三星级宾馆","address":"静安区武定西路1185号"},{"poiid":"B2094654D565A2F4469B","title":"曹家渡社区文化活动中心","lon":"121.43221","lat":"31.22511","category":"248","category_name":"生活娱乐","address":"武定西路1344弄12号"},{"poiid":"B2094654D565A2F44699","title":"曹家渡社区智障人士阳光之家","lon":"121.4322","lat":"31.22511","category":"248","category_name":"生活娱乐","address":"武定西路1344弄12号102"},{"poiid":"B2094757D568A4FA4093","title":"江苏路街道图书馆","lon":"121.4310369","lat":"31.22431889","category":"181","category_name":"图书馆","address":"静安区武定西路1371弄65号(近江苏路)"},{"poiid":"B2094757D16DAAFA4993","title":"邦德造型","lon":"121.432969586","lat":"31.2265223585","category":"148","category_name":"美容美发店","address":"静安区万航渡路660号(近武定西路)"},{"poiid":"B2094757D66DA6F9489E","title":"yi～home","lon":"121.435908","lat":"31.2222485","category":"500","category_name":"未知分类","address":null},{"poiid":"B2094654DB6BA6FF419C","title":"快客(镇宁路)","lon":"121.43596","lat":"31.22139","category":"117","category_name":"便民商店/便利店","address":"镇宁路367-1"},{"poiid":"B2094757D16EA0FA489A","title":"MUSE时尚摄影","lon":"121.4353572","lat":"31.226168711","category":"500","category_name":"未知分类","address":"上海闸北区恒丰路218号现代交通大厦1610室(近汉中路)"},{"poiid":"B2094757D66DA4FD409D","title":"静安城众安公寓","lon":"121.43164062","lat":"31.224861145","category":"500","category_name":"未知分类","address":"上海武定西路1398弄5号"},{"poiid":"B2094757D66CA1F8429A","title":"大婊哥の家","lon":"121.43664558","lat":"31.222751284","category":"500","category_name":"未知分类","address":null},{"poiid":"B2094655D26FA6F54693","title":"上海市长宁区向红小学","lon":"121.43528","lat":"31.22092","category":"56","category_name":"小学","address":"愚园路718弄1-33号"},{"poiid":"B2094654D565A1FB4093","title":"石林别墅(后门)","lon":"121.43308","lat":"31.22235","category":"48","category_name":"楼宇大门","address":"镇宁路405弄79号"},{"poiid":"B209475DD364A4F4499C","title":"蛋糕细语 the icing room","lon":"121.431526","lat":"31.225811","category":"500","category_name":"未知分类","address":"上海市 淮海中路999号环贸iapm 广场LG2"},{"poiid":"B2094750DB64AAF9459E","title":"曹家渡街道社区生活服务中心","lon":"121.432113","lat":"31.225969","category":"500","category_name":"未知分类","address":"万航渡路684号"},{"poiid":"B2094757D164A1FA4799","title":"星雨美甲","lon":"121.43292258","lat":"31.226353355","category":"148","category_name":"美容美发店","address":"上海市静安区武定西路1218号"},{"poiid":"B2094655D26DA3FD449A","title":"嘉园(北门)","lon":"121.43617","lat":"31.22492","category":"656","category_name":"大门","address":"万航渡路458弄1-6号"},{"poiid":"B2094757D16EAAFB4993","title":"圣松传播","lon":"121.43725859","lat":"31.223964398","category":"263","category_name":"公司","address":"上海市镇宁路200号"},{"poiid":"B2094750DB6FABFD439C","title":"乐乐游婴幼儿游泳早教中心","lon":"121.435699","lat":"31.22661","category":"248","category_name":"生活娱乐","address":"静安区武定西路1189号218室(近万航渡路)"},{"poiid":"B2094752D068A1F84698","title":"地铁二号线","lon":"121.437177","lat":"31.22393","category":"251","category_name":"出行住宿","address":"人民广场站"},{"poiid":"B2094757DA64A5F9499F","title":"愚园路小弄堂","lon":"121.4314373","lat":"31.2239044","category":"251","category_name":"出行住宿","address":"愚园路608弄"},{"poiid":"B2094757D06FAAFD479B","title":"愚一小学向红分校","lon":"121.435227","lat":"31.220961","category":"500","category_name":"未知分类","address":"长宁区愚园路718弄1-33号(江苏路愚园路)"},{"poiid":"B2094654D565A2F54098","title":"我爱我家万航店","lon":"121.43267","lat":"31.22648","category":"248","category_name":"生活娱乐","address":"万航渡路662"},{"poiid":"B2094757D06BA6F9489E","title":"静安城小区","lon":"121.431172","lat":"31.224875","category":"260","category_name":"其他","address":"上海武定西路1398弄"},{"poiid":"B2094654D565A1FE4592","title":"电玩游戏(武定西路)","lon":"121.43554","lat":"31.22663","category":"173","category_name":"游戏厅","address":""},{"poiid":"B2094757D06AA3F9489D","title":"上海天祥健台制药机械有限公司","lon":"121.432518186","lat":"31.221590112","category":"263","category_name":"公司","address":"上海镇宁路465弄161号"}]