[{"poiid":"B2094757D169A4FA4698","title":"愚园路","lon":"121.427104586","lat":"31.2190412122","category":"500","category_name":"未知分类","address":"上海愚园路1155弄"},{"poiid":"B2094757D06FA5FD439A","title":"純粹私房咖啡工作室","lon":"121.42457458","lat":"31.217086173","category":"65","category_name":"咖啡厅","address":"长宁区宣化路299弄富都花园2号1B铺"},{"poiid":"B2094757D069A5FE459B","title":"长宁区少年宫","lon":"121.42641758","lat":"31.219353218","category":"248","category_name":"生活娱乐","address":"长宁区愚园路1136弄31号"},{"poiid":"B209475CD564A7F8439E","title":"上海滩中信泰富店","lon":"121.45602","lat":"31.22851","category":"119","category_name":"商场","address":"\"南京西路1168号中信泰富广场，店铺号221.\r\n\""},{"poiid":"B2094757D16FA5FB439B","title":"Tiramisu Italian Restaurant","lon":"121.42796058","lat":"31.217515182","category":"94","category_name":"西餐厅","address":"长宁区宣化路100号(近江苏路)"},{"poiid":"B2094757D16EA6FD489C","title":"长宁区","lon":"121.426747322","lat":"31.220535541","category":"250","category_name":"公园户外","address":"上海长宁区区域"},{"poiid":"B2094654D565A6F9439B","title":"百味手拨虾","lon":"121.42834","lat":"31.2189","category":"257","category_name":"中餐厅","address":"长宁区愚园路1096号(近江苏路)"},{"poiid":"B2094757D16EA4F5499F","title":"唐恩都乐(愚园店)","lon":"121.425279586","lat":"31.2190882131","category":"67","category_name":"甜品店","address":"长宁区愚园路1277号附近(近安西路)"},{"poiid":"B2094655D26DA2FE419B","title":"弘基创邑国际园","lon":"121.42823","lat":"31.21826","category":"45","category_name":"产业园区","address":"长宁区愚园路1107号(近江苏路)"},{"poiid":"B2094757D068A4FF479A","title":"长宁温水游泳池","lon":"121.43026","lat":"31.21814","category":"231","category_name":"游泳馆","address":"上海长宁区愚园路1041号(近江苏路)"},{"poiid":"B2094757D06FA7FB4498","title":"星伟桌球","lon":"121.42575","lat":"31.21863","category":"171","category_name":"台球厅","address":"长宁区宣化路311号6楼(近巴黎春天)"},{"poiid":"B2094757D069ABFC4098","title":"福1015","lon":"121.430094","lat":"31.21871","category":"76","category_name":"上海菜","address":"长宁区愚园路1015号"},{"poiid":"B2094757D06FA5FB4498","title":"龙峰大厦","lon":"121.427169","lat":"31.214745","category":"46","category_name":"楼宇","address":"普陀区长寿路137号(近陕西北路)"},{"poiid":"B2094757D569A6FF459E","title":"迎龙大厦写字楼","lon":"121.4251619","lat":"31.21624111","category":"46","category_name":"楼宇","address":"延安西路1358号"},{"poiid":"B2094757DB68A1FE4692","title":"大马可","lon":"121.42893","lat":"31.219728","category":"500","category_name":"未知分类","address":"维景酒店一楼"},{"poiid":"B2094757D069AAFD419A","title":"润湘之(宣化路店)","lon":"121.42981","lat":"31.21727","category":"77","category_name":"湖南菜","address":"上海长宁区宣化路59号(近江苏路)"},{"poiid":"B2094757D168A1FD4298","title":"银统大厦","lon":"121.43","lat":"31.2166","category":"46","category_name":"楼宇","address":"上海市长宁区遵义南路88号"},{"poiid":"B2094757D06BA0FE4792","title":"安西路","lon":"121.425997","lat":"31.218903","category":"500","category_name":"未知分类","address":"上海愚园路安西路"},{"poiid":"B2094752D165A0FD4398","title":"boom cafe","lon":"121.424805","lat":"31.216415","category":"247","category_name":"餐饮美食","address":"宣化路1310弄6号"},{"poiid":"B2094654D565A7F5479E","title":"辽油大厦","lon":"121.43","lat":"31.2181","category":"46","category_name":"楼宇","address":"上海长宁区定西路1100号"},{"poiid":"B2094757D16CA7FB409B","title":"yue1525粤","lon":"121.42632032","lat":"31.216147429","category":"500","category_name":"未知分类","address":"上海定西路1525"},{"poiid":"B2094654DB65A4F4459B","title":"罗柏记快餐","lon":"121.43090303812","lat":"31.217876284587","category":"68","category_name":"快餐厅","address":"长宁区宣化路51号(近江苏路)"},{"poiid":"B2094757D068A6FF469C","title":"Bill飚记面铺","lon":"121.42967","lat":"31.21737","category":"68","category_name":"快餐厅","address":"长宁区宣化路75号(近江苏路)"},{"poiid":"B2094750D26AA3F9429E","title":"陈记甜品窝 宣化路店","lon":"121.42570495606","lat":"31.216875435059","category":"67","category_name":"甜品店","address":"长宁区宣化路233号(安西路口)"},{"poiid":"B2094654D565A6FE439C","title":"南辉小区","lon":"121.42964","lat":"31.217155","category":"47","category_name":"住宅区","address":"宣化路113弄1-6,8,10,12,89,97,105,121,129,137号"},{"poiid":"B2094757D06BA0F94098","title":"苏州面馆","lon":"121.428344","lat":"31.218721","category":"68","category_name":"快餐厅","address":"长宁区愚园路1301号(近中山公园)"},{"poiid":"B2094757D46FA7FD409F","title":"天喔一佳 愚园店","lon":"121.4255206","lat":"31.2188889","category":"68","category_name":"快餐厅","address":"长宁区愚园路1253号(近安西路)"},{"poiid":"B2094750DA6DA6FD4892","title":"Z ’ PARK BAR","lon":"121.427551","lat":"31.217639","category":"247","category_name":"餐饮美食","address":"中山公园龙之梦25F"},{"poiid":"B2094757D068A4FF4499","title":"江苏路派出所","lon":"121.42839459","lat":"31.217337486","category":"609","category_name":"警察局","address":"上海愚园路1171号"},{"poiid":"B2094655D26DA7FF489B","title":"中国银行上海市愚园路支行","lon":"121.4281","lat":"31.21885","category":"150","category_name":"银行","address":"长宁区愚园路1118号"},{"poiid":"B2094654D565A6F5479C","title":"武定大厦","lon":"121.42842799209","lat":"31.218871725488","category":"46","category_name":"楼宇","address":"武夷路418弄1"},{"poiid":"B2094655D26AA0F4499F","title":"长宁区工人俱乐部","lon":"121.42613","lat":"31.21915","category":"247","category_name":"餐饮美食","address":"长宁区愚园路1240号(近安西路)"},{"poiid":"B2094757D069A5FE449F","title":"蚝门","lon":"121.42639","lat":"31.21883","category":"68","category_name":"快餐厅","address":"长宁区愚园路1203弄(近安西路)"},{"poiid":"B2094757D16DA3F54693","title":"江苏路宣化路","lon":"121.426545","lat":"31.217097","category":"500","category_name":"未知分类","address":"上海宣化路2号"},{"poiid":"B209475CDB6AA5FE4192","title":"鹤雅日料","lon":"121.427055","lat":"31.217168","category":"247","category_name":"餐饮美食","address":"上海市 愚园路1393号"},{"poiid":"B2094654D565A6FE4998","title":"上海市长宁区愚园路第一小学(宣化路)","lon":"121.42602","lat":"31.21739","category":"56","category_name":"小学","address":"长宁区宣化路222号(安西路宣化路)"},{"poiid":"B2094655D264A6FF4998","title":"阳光剧场","lon":"121.42747","lat":"31.21946","category":"180","category_name":"剧场","address":"上海愚园路"},{"poiid":"B2094655D26EA3F44899","title":"海信花苑","lon":"121.42606","lat":"31.21999","category":"47","category_name":"住宅区","address":"愚园路1240号"},{"poiid":"B2094655D26BABFF4899","title":"GioiamiaItalianRestaurantLoungeBar","lon":"121.42818","lat":"31.21763","category":"65","category_name":"咖啡厅","address":"宣化路100临"},{"poiid":"B2094757D66BA5FE4398","title":"真锅咖啡厅 愚园路店 Manabe","lon":"121.42983580565","lat":"31.218509754194","category":"65","category_name":"咖啡厅","address":"愚园路1037号近江苏路"},{"poiid":"B209475CDB64AAFE4192","title":"合点寿司承知之助","lon":"121.42675","lat":"31.215496","category":"247","category_name":"餐饮美食","address":"上海市 宣化路300号华宁弘基生活中心4楼"},{"poiid":"B2094750DA69A3FF419A","title":"江苏路地铁站","lon":"121.429954","lat":"31.216466","category":"36","category_name":"地铁站","address":"江苏路愚园路"},{"poiid":"B2094750D76FA2FD469C","title":"伊咖啡","lon":"121.425","lat":"31.2189","category":"269","category_name":"烧烤","address":"愚园路1265号103-1、103-2室(近安西路)"},{"poiid":"B2094655D26AA7FE4898","title":"HP惠普梦工厂","lon":"121.42696","lat":"31.21715","category":"247","category_name":"餐饮美食","address":"长宁区宣化路159号(近安西路)"},{"poiid":"B2094757D064A5F5469C","title":"安化路","lon":"121.426094586","lat":"31.2149811328","category":"500","category_name":"未知分类","address":"上海市长宁区定西路"},{"poiid":"B2094655D26BABFF499E","title":"江苏路街道图书馆","lon":"121.4259","lat":"31.21966","category":"181","category_name":"图书馆","address":"安西路45"},{"poiid":"B2094757D16CA0FD409C","title":"宏业花园","lon":"121.42867","lat":"31.21946","category":"47","category_name":"住宅区","address":"上海长宁区愚园路1088弄"},{"poiid":"B2094655D26DA2FC4298","title":"百和园","lon":"121.4279","lat":"31.21722","category":"196","category_name":"公园","address":""},{"poiid":"B2094654DB65A7F4419D","title":"永琪美容美发(宣化店)","lon":"121.42769","lat":"31.21712","category":"148","category_name":"美容美发店","address":"长宁区宜化路153号"},{"poiid":"B2094757D16DA0F5499B","title":"江苏路愚园路公交站","lon":"121.426561","lat":"31.218507","category":"38","category_name":"公交车站","address":"上海长宁区江苏路愚园路"},{"poiid":"B2094654DB65A2FE499C","title":"上海学生美术馆","lon":"121.42743","lat":"31.21961","category":"184","category_name":"美术馆","address":""},{"poiid":"B2094757D66CA5FF4398","title":"正宗绿豆饼","lon":"121.42747923","lat":"31.218210595","category":"247","category_name":"餐饮美食","address":"上海市长宁区长宁路770号"},{"poiid":"B2094654D565A6F44293","title":"新衡公寓","lon":"121.429","lat":"31.2176","category":"47","category_name":"住宅区","address":"昭化路508弄40,46,50号"},{"poiid":"B2094654D565A6FE479B","title":"中国联通江苏路营业厅(宣化路)","lon":"121.42965","lat":"31.21781","category":"151","category_name":"电讯营业厅","address":"宣化路62号"},{"poiid":"B2094750DB6BA7FB469A","title":"提拉米苏意大利餐厅","lon":"121.428237","lat":"31.217542","category":"500","category_name":"未知分类","address":"宣化路100号"},{"poiid":"B2094654D565A6FF499A","title":"可的(愚园路)","lon":"121.42673","lat":"31.21868","category":"117","category_name":"便民商店/便利店","address":"长宁区愚园路1177号(安西路愚园路)"},{"poiid":"B2094757D165AAFD4799","title":"仲信苑","lon":"121.42737","lat":"31.21666","category":"252","category_name":"楼宇机构","address":"上海市长宁区愚园路1203弄"},{"poiid":"B2094655D26DA2FC4193","title":"新中小区","lon":"121.42899","lat":"31.21669","category":"47","category_name":"住宅区","address":"西诸安浜路405弄2-20号"},{"poiid":"B2094655D26CABFE439D","title":"可的(上海市长宁区政协东南)","lon":"121.42783","lat":"31.21894","category":"117","category_name":"便民商店/便利店","address":"愚园路1134"},{"poiid":"B2094654D565A6FE489B","title":"宣化小区","lon":"121.42895","lat":"31.218029","category":"47","category_name":"住宅区","address":"宣化路72弄1-23号"},{"poiid":"B2094654DB6BA6F8459C","title":"福世小区(北门)","lon":"121.42667","lat":"31.21655","category":"47","category_name":"住宅区","address":"愚园路1203弄1-31号"},{"poiid":"B2094655D26AAAFE449F","title":"春在中国愚园路店","lon":"121.42834","lat":"31.2183","category":"123","category_name":"家具建材市场","address":"静安区愚园路1107号1楼102号"},{"poiid":"B2094757D164A3F94793","title":"233 BAR","lon":"121.42546558","lat":"31.217171675","category":"500","category_name":"未知分类","address":"上海宣化路233号"},{"poiid":"B2094757D064A1FF449F","title":"上海市人才服务中心(长宁区分部)","lon":"121.42605","lat":"31.21985","category":"500","category_name":"未知分类","address":"上海长宁区安西路37号  "},{"poiid":"B2094751D565A5FC409C","title":"华宁弘基生活中心","lon":"121.426032","lat":"31.216545","category":"627","category_name":"一般地点标志","address":"上海市长宁区宣化路300号"},{"poiid":"B2094654D565A6FE4898","title":"华氏大药房宣化路药房","lon":"121.4288","lat":"31.21767","category":"162","category_name":"医院","address":"长宁区宣化路74-76号"},{"poiid":"B2094654D565A6F9429E","title":"华阳地段医院愚园路门诊部","lon":"121.42868","lat":"31.21887","category":"162","category_name":"医院","address":"愚园路1086"},{"poiid":"B2094655D265A7FF4892","title":"马普专业楼","lon":"121.42864","lat":"31.21555","category":"46","category_name":"楼宇","address":"安化路84"},{"poiid":"B2094655D26DA7FA4198","title":"宣化小区(南门)","lon":"121.42892","lat":"31.21764","category":"47","category_name":"住宅区","address":"宣化路72弄1-23号"},{"poiid":"B2094757D168A3FF459B","title":"福世花园","lon":"121.42772","lat":"31.215908","category":"47","category_name":"住宅区","address":"上海安化路200弄"},{"poiid":"B2094757D66EA6FB409A","title":"大一夢薄皮鲷鱼烧(龙之梦店)","lon":"121.427555586","lat":"31.2154281415","category":"257","category_name":"中餐厅","address":"长宁区长宁路1018号龙之梦购物中心B2楼(近凯旋路)"},{"poiid":"B2094655D26DA2FC4192","title":"中包公寓(北门)","lon":"121.42836","lat":"31.21676","category":"47","category_name":"住宅区","address":"宣化路151弄15-33号"},{"poiid":"B2094757D16FA3F4469A","title":"福安小区","lon":"121.42603","lat":"31.216776","category":"47","category_name":"住宅区","address":"上海宣化路225弄"},{"poiid":"B2094757D068ABF4459D","title":"中包公寓","lon":"121.42848","lat":"31.216433","category":"47","category_name":"住宅区","address":"上海宣化路151弄"},{"poiid":"B2094757D16EABFD459C","title":"愚园路安西路939公交车站","lon":"121.42570031","lat":"31.219026636","category":"38","category_name":"公交车站","address":"上海愚园路安西路939公交车站"},{"poiid":"B2094757D169A3FE489D","title":"老德兴驴肉馆","lon":"121.424665586","lat":"31.2176411848","category":"247","category_name":"餐饮美食","address":"上海长宁路684号"},{"poiid":"B2094654D565A6FF4893","title":"萍聚美容美发","lon":"121.42629","lat":"31.21872","category":"148","category_name":"美容美发店","address":"静安区愚园路1209-1217号(近安西路)"},{"poiid":"B2094655D26DA7FA419B","title":"南辉小区(北门)","lon":"121.42951","lat":"31.2175","category":"47","category_name":"住宅区","address":"宣化路113弄1-6、8、10、12、89、97、105、121、129、137号"},{"poiid":"B2094655D26CAAFB439A","title":"良友(愚园路)","lon":"121.42517","lat":"31.21902","category":"117","category_name":"便民商店/便利店","address":"愚园路1266"},{"poiid":"B2094654D565A7F4449E","title":"快客(安西路)","lon":"121.42495","lat":"31.21614","category":"117","category_name":"便民商店/便利店","address":"安西路488-490"},{"poiid":"B2094654D565A6F94192","title":"良友金伴No.318(宏业花园东)","lon":"121.4296","lat":"31.2189","category":"117","category_name":"便民商店/便利店","address":"愚园路1040"},{"poiid":"B2094655D36CA3FE479E","title":"民主党派办公楼","lon":"121.42576","lat":"31.22007","category":"46","category_name":"楼宇","address":"安西路37"},{"poiid":"B2094757D16AA4F54293","title":"西诸安浜路","lon":"121.428630586","lat":"31.2160741542","category":"500","category_name":"未知分类","address":"上海长宁区宣化路"},{"poiid":"B2094655D26DA7FA4292","title":"福安小区(北门)","lon":"121.42604","lat":"31.21706","category":"47","category_name":"住宅区","address":"宣化路225弄1-10号"},{"poiid":"B2094655D26CAAFA439C","title":"大西别墅","lon":"121.429","lat":"31.2157","category":"47","category_name":"住宅区","address":"延安西路1453弄2-18号"},{"poiid":"B2094654DB6BA6F8449B","title":"上海市长宁区初级职业技术学校(北门)","lon":"121.42745","lat":"31.21468","category":"678","category_name":"学校大门","address":"利西路247号"},{"poiid":"B2094655D26DA0F8489B","title":"良友(香樟公寓西北)","lon":"121.43034","lat":"31.2179","category":"117","category_name":"便民商店/便利店","address":"宣化路44"},{"poiid":"B2094757D16EABF54998","title":"安化二中","lon":"121.42845958","lat":"31.215030133","category":"55","category_name":"中学","address":"上海安化路222号"},{"poiid":"B2094655D26DA7FA449C","title":"宏业花园(南门)","lon":"121.42861","lat":"31.21891","category":"47","category_name":"住宅区","address":"愚园路1088弄110支弄5-168号"},{"poiid":"B2094654D565A6FE449E","title":"顺记排档","lon":"121.43022","lat":"31.21765","category":"257","category_name":"中餐厅","address":"长宁区宣化路43号(东诸安浜路江苏路)"},{"poiid":"B2094655D26DA2FC429A","title":"新中小区(北门)","lon":"121.42903","lat":"31.21688","category":"47","category_name":"住宅区","address":"西诸安浜路405弄2-20号"},{"poiid":"B2094757D165A3FB4499","title":"ff show","lon":"121.42863158","lat":"31.217384179","category":"500","category_name":"未知分类","address":"上海宣化路61号"},{"poiid":"B2094654D565A6FE4792","title":"赣南平价水果超市","lon":"121.42916","lat":"31.21773","category":"117","category_name":"便民商店/便利店","address":""},{"poiid":"B2094655D264A0F54699","title":"上海市长宁区愚园路第一幼儿园","lon":"121.42496","lat":"31.21903","category":"57","category_name":"幼儿园","address":"长宁区愚园路1280弄18号(安西路愚园路)"},{"poiid":"B2094757D16CA1F9449E","title":"愚一幼儿园(长宁总部)","lon":"121.42518","lat":"31.21875","category":"57","category_name":"幼儿园","address":"上海长宁区愚园路1280弄18号  "},{"poiid":"B2094655D26DA6F44492","title":"苹果园(愚园路)","lon":"121.42568","lat":"31.21872","category":"47","category_name":"住宅区","address":""},{"poiid":"B2094654D565A6F84093","title":"快乐宝贝(愚园路)","lon":"121.42915","lat":"31.21859","category":"117","category_name":"便民商店/便利店","address":""},{"poiid":"B2094654D565A7FB489D","title":"利安小区","lon":"121.42716","lat":"31.214766","category":"47","category_name":"住宅区","address":"安化路231号"},{"poiid":"B2094757D06AA5FF459D","title":"全家便利店","lon":"121.42695617","lat":"31.217153549","category":"500","category_name":"未知分类","address":"上海宣化路"},{"poiid":"B2094655D264A6FE479B","title":"采芝邨(南门)","lon":"121.42496","lat":"31.21902","category":"47","category_name":"住宅区","address":"愚园路1280弄17-87号"},{"poiid":"B2094757D065A0FE4698","title":"家得利超市(宣化店)","lon":"121.42965","lat":"31.2174","category":"117","category_name":"便民商店/便利店","address":"长宁区宣化路68号(近江苏路)"},{"poiid":"B2094655D26DA7FF489C","title":"福世花园(南门)","lon":"121.42773","lat":"31.21538","category":"47","category_name":"住宅区","address":"安化路200弄"},{"poiid":"B2094654D565A7FB479E","title":"利西小区","lon":"121.42893","lat":"31.215069","category":"47","category_name":"住宅区","address":"安化路175-177"},{"poiid":"B2094655D264A6FE479A","title":"采芝村","lon":"121.42501","lat":"31.219263","category":"47","category_name":"住宅区","address":"愚园路1280弄17-87号"},{"poiid":"B2094750DB64A5FF429B","title":"朱家角镇","lon":"121.425628","lat":"31.218725","category":"248","category_name":"生活娱乐","address":"青浦区"},{"poiid":"B2094757D164A6FD4993","title":"良友金伴(愚园路二店)","lon":"121.42555","lat":"31.21873","category":"117","category_name":"便民商店/便利店","address":"上海长宁区愚园路1266号  "},{"poiid":"B209475CD26DA4FC4293","title":"cup cat猫猫咖啡馆","lon":"121.428649","lat":"31.21573","category":"500","category_name":"未知分类","address":"上海市 中山公园"},{"poiid":"B2094757D16EA1FA4499","title":"54路长宁路江苏路站","lon":"121.42693173","lat":"31.217297428","category":"500","category_name":"未知分类","address":"上海长宁路江苏路"},{"poiid":"B2094655D26DA0FF4998","title":"利安小区(北门)","lon":"121.42712","lat":"31.215","category":"47","category_name":"住宅区","address":""},{"poiid":"B2094654DB69ABFD4999","title":"丽婴房(宣化店)","lon":"121.42954","lat":"31.21754","category":"128","category_name":"儿童用品店","address":"长宁区宣化路59号(近江苏路)"},{"poiid":"B2094654D565A6FE439A","title":"上海一线通网吧","lon":"121.42896","lat":"31.21746","category":"176","category_name":"网吧","address":"宣化路59临"},{"poiid":"B2094757D66FA2F8419F","title":"李馥麟","lon":"121.425168486","lat":"31.2172293767","category":"500","category_name":"未知分类","address":"长宁区宣化路268号-2"},{"poiid":"B2094654DB69A6F8479C","title":"汪公馆","lon":"121.42655","lat":"31.21998","category":"250","category_name":"公园户外","address":"静安区愚园路1136弄31号"},{"poiid":"B2094655D26DA3FC409C","title":"利新小区","lon":"121.42884","lat":"31.21506","category":"47","category_name":"住宅区","address":"安化路175-177"},{"poiid":"B2094757D66EA6F9459C","title":"愚园路1357愚园路1357号(近定西路)","lon":"121.429312586","lat":"31.2164561616","category":"500","category_name":"未知分类","address":"上海愚园路1357号(近定西路)"},{"poiid":"B2094757D16FA5FC409B","title":"唐恩都乐","lon":"121.426729586","lat":"31.2167531674","category":"500","category_name":"未知分类","address":"上海长宁区愚园路1265号"},{"poiid":"B2094757D168A0FD4092","title":"蕃茄田","lon":"121.426410256","lat":"31.2185922434","category":"500","category_name":"未知分类","address":"长宁区长宁区宣化路299弄富都花园新媒体大楼201室(近定西路)"},{"poiid":"B2094655D26CAAF5489A","title":"江苏工商所消费者权益保护福世居委会联络点","lon":"121.43019","lat":"31.21788","category":"250","category_name":"公园户外","address":"宣化路52弄1-8号"},{"poiid":"B2094757D168A5F4409C","title":"颐霖至尊养生SPA馆","lon":"121.427562586","lat":"31.2165051626","category":"148","category_name":"美容美发店","address":"上海市长宁区宣化路155号"},{"poiid":"B2094757D064A1FF479B","title":"YUE 1525","lon":"121.42631314","lat":"31.216097762","category":"500","category_name":"未知分类","address":"上海定西路1525"},{"poiid":"B209475CD169A4F5459E","title":"paradise密室逃脱","lon":"121.426155","lat":"31.216762","category":"248","category_name":"生活娱乐","address":"长宁区宣化路299弄富都花园C座18D"},{"poiid":"B2094757D068A6FE4792","title":"MY衣尚","lon":"121.43015241","lat":"31.217852548","category":"141","category_name":"服装鞋帽皮具店","address":"长宁区宣化路56号(近江苏路)"},{"poiid":"B2094750DB6DA3FC429B","title":"中环","lon":"121.429748","lat":"31.216342","category":"500","category_name":"未知分类","address":"香港特别行政区"},{"poiid":"B2094750D56EA5F9479C","title":"一兆韦德龙之梦店","lon":"121.425064","lat":"31.217266","category":"248","category_name":"生活娱乐","address":"中山公园龙之梦购物中心12楼"},{"poiid":"B2094655D265A7F4429A","title":"上海市总工会长宁区工人文化宫","lon":"121.4259","lat":"31.21967","category":"188","category_name":"文化宫","address":"安西路45"},{"poiid":"B2094654D565A6F84098","title":"长宁公安分局居民身份证拍照点","lon":"121.42755","lat":"31.21858","category":"248","category_name":"生活娱乐","address":"愚园路1163"},{"poiid":"B2094757D065A5FF4898","title":"Disney English","lon":"121.428947449","lat":"31.2190418243","category":"500","category_name":"未知分类","address":"上海愚園路"},{"poiid":"B2094757D568A6FF469F","title":"故居童欢(长宁区少年宫)","lon":"121.4273683","lat":"31.21985167","category":"188","category_name":"文化宫","address":"愚园路1136弄31号"},{"poiid":"B2094654D565A6F9439F","title":"上海市长宁区新世纪培训学校","lon":"121.42825","lat":"31.21893","category":"190","category_name":"培训机构","address":"愚园路1112弄4-31号"},{"poiid":"B2094757D16DA4FC4093","title":"愚园路1136弄","lon":"121.42615658","lat":"31.21999623","category":"500","category_name":"未知分类","address":"上海愚园路1136弄51号"},{"poiid":"B2094757D06BA3F9479B","title":"Fairton","lon":"121.425797","lat":"31.219359","category":"500","category_name":"未知分类","address":"上海愚园路1258号"},{"poiid":"B2094757D165A7FA499F","title":"长宁会馆","lon":"121.426203786","lat":"31.2194268197","category":"500","category_name":"未知分类","address":"上海长宁路546号"},{"poiid":"B2094752D76FA7F9499C","title":"Mizzi cafe","lon":"121.425369","lat":"31.219555","category":"500","category_name":"未知分类","address":"日月光"},{"poiid":"B2094757D16EA0FE499A","title":"IN-HOUSE","lon":"121.427437","lat":"31.21887","category":"260","category_name":"其他","address":"上海武宁路99号我格广场B105"},{"poiid":"B2094654D565A6F94498","title":"上海形家广告设计有限公司","lon":"121.42805","lat":"31.21883","category":"263","category_name":"公司","address":"愚园路1118号3层"},{"poiid":"B2094753D66BABFA4692","title":"网鱼网咖","lon":"121.426773","lat":"31.215389","category":"248","category_name":"生活娱乐","address":"上海市 长宁区 定西路"},{"poiid":"B2094757DA6EABF44893","title":"卜内门洋行高级职员住宅","lon":"121.426388699998","lat":"31.2188198000001","category":"252","category_name":"楼宇机构","address":"长宁区愚园路1203弄"},{"poiid":"B2094757D069A5FE419F","title":"月宫","lon":"121.429852586","lat":"31.2179921917","category":"500","category_name":"未知分类","address":"上海市长宁区宣化路"},{"poiid":"B2094757D568A7FB469F","title":"吟之屋酒吧","lon":"121.4254531","lat":"31.21696","category":"260","category_name":"其他","address":"长宁区宣化路233号(安西路)"},{"poiid":"B2094757D16BA3FC459E","title":"园林一品","lon":"121.427649736","lat":"31.2149632662","category":"500","category_name":"未知分类","address":"上海兆丰嘉园二期"},{"poiid":"B2094654DB6BA6F8469B","title":"御华名苑(东门)","lon":"121.42633","lat":"31.21844","category":"48","category_name":"楼宇大门","address":"愚园路1203弄14"},{"poiid":"B2094757D06AA4F5469B","title":"社團總部","lon":"121.42946058","lat":"31.215775148","category":"500","category_name":"未知分类","address":"上海西浜"},{"poiid":"B2094757D16DA0FE4199","title":"安化路300弄","lon":"121.426187586","lat":"31.2149651325","category":"252","category_name":"楼宇机构","address":"上海市长宁区安化路安西路"},{"poiid":"B2094757D16FA7FF4398","title":"联强国际","lon":"121.42668908","lat":"31.220274736","category":"500","category_name":"未知分类","address":"上海金钟路899号"},{"poiid":"B2094655D264A2F9459A","title":"上海农商银行24小时自助银行","lon":"121.42855","lat":"31.21764","category":"152","category_name":"ATM","address":"宣化路86"},{"poiid":"B2094757D065A0F4479A","title":"米仓","lon":"121.42839858","lat":"31.215066134","category":"500","category_name":"未知分类","address":"上海市长宁区安化路"},{"poiid":"B2094757D06BA6FF409B","title":"锦江出租","lon":"121.43003614","lat":"31.217896939","category":"249","category_name":"购物服务","address":"上海  "},{"poiid":"B2094750D56CA6F9449D","title":"上海市，长宁区，利西路","lon":"121.429412","lat":"31.215986","category":"627","category_name":"一般地点标志","address":null},{"poiid":"B2094654D565A6F8419F","title":"上海永煊商务信息咨询有限公司","lon":"121.42967","lat":"31.21863","category":"263","category_name":"公司","address":"愚园路1037号5层"},{"poiid":"B2094655D26DA3FB489F","title":"上海市长宁区老干部活动中心","lon":"121.4277","lat":"31.21972","category":"248","category_name":"生活娱乐","address":"愚园路1136弄4-61号"},{"poiid":"B2094757D169A7F9429A","title":"益丰大厦","lon":"121.43011088","lat":"31.218894209","category":"252","category_name":"楼宇机构","address":"上海圆明园路34号"},{"poiid":"B2094751D468A4FF4793","title":"伊轩咖啡","lon":"121.42508","lat":"31.21887","category":"260","category_name":"其他","address":"长宁区愚园路1265号103-1、103-2室(近安西路)"},{"poiid":"B2094654D565A6FA4093","title":"上海京和景贸易有限公司","lon":"121.42568","lat":"31.21919","category":"263","category_name":"公司","address":"愚园路1258号绿地商务1906"},{"poiid":"B2094654D565A6FA4299","title":"上海定展航运有限公司","lon":"121.42568","lat":"31.2192","category":"248","category_name":"生活娱乐","address":"愚园路1258号绿地商务13层"},{"poiid":"B2094655D26DA7FA4598","title":"愚园公馆(东门)","lon":"121.42769","lat":"31.21824","category":"656","category_name":"大门","address":"愚园路1155弄"},{"poiid":"B2094655D26DA3FA4999","title":"仲信苑(西门)","lon":"121.42687","lat":"31.21681","category":"656","category_name":"大门","address":"愚园路1203弄33-45号"},{"poiid":"B2094655D265A4FF4093","title":"愚园公馆(西一门)","lon":"121.42673","lat":"31.2176","category":"656","category_name":"大门","address":""},{"poiid":"B2094655D26BA6F44898","title":"愚园公馆(西二门)","lon":"121.42663","lat":"31.21804","category":"656","category_name":"大门","address":""},{"poiid":"B2094655D26DA2FC429B","title":"仲信苑(东门)","lon":"121.42784","lat":"31.21702","category":"656","category_name":"大门","address":""},{"poiid":"B2094757D169A1F5449E","title":"1015会所","lon":"121.43009887","lat":"31.218515325","category":"260","category_name":"其他","address":"上海愚园路1015号"},{"poiid":"B2094753D568A6FA459C","title":"Yostel1310青年旅舍","lon":"121.427879","lat":"31.21495","category":"251","category_name":"出行住宿","address":"长宁区定西路1310-10号"},{"poiid":"B2094757D064A0FF4193","title":"附点琴行","lon":"121.42523768","lat":"31.217328678","category":"260","category_name":"其他","address":"上海长宁区宣化路268弄2-2"},{"poiid":"B2094655D26DA7FF4293","title":"岐山村(南门)","lon":"121.43003","lat":"31.21898","category":"656","category_name":"大门","address":"愚园路1032弄1-148号"},{"poiid":"B2094655D26DA3FB4193","title":"海信花苑(南门)","lon":"121.42633","lat":"31.21946","category":"656","category_name":"大门","address":"愚园路1240号"},{"poiid":"B2094655D26DAAF84193","title":"鸿凯湾绿苑(东二门)","lon":"121.42491","lat":"31.21621","category":"656","category_name":"大门","address":"安西路500弄1号-12号"},{"poiid":"B2094654DB6BA6F8479C","title":"海信花苑(西门)","lon":"121.42576","lat":"31.21979","category":"656","category_name":"大门","address":"愚园路1240号"}]