[{"poiid":"B2094655D26AA0F84799","title":"上海中医药大学附属曙光医院","lon":"121.47867","lat":"31.22293","category":"162","category_name":"医院","address":"卢湾区普安路185号(近淮海公园)"},{"poiid":"B2094655D36CA1FE409C","title":"寿宁路","lon":"121.48061","lat":"31.22345","category":"38","category_name":"公交车站","address":""},{"poiid":"B2094654DB6BA4FB409B","title":"星巴克(柳林店)","lon":"121.48024","lat":"31.22483","category":"65","category_name":"咖啡厅","address":"卢湾区柳林路65号柳林大厦1楼(近西藏南路)"},{"poiid":"B2094753D76FAAFA449C","title":"上海滩国泰旗舰店","lon":"121.466011","lat":"31.216125","category":"249","category_name":"购物服务","address":"淮海中路868号"},{"poiid":"B209475CD564A7F84292","title":"上海滩新天地店","lon":"121.47463","lat":"31.22164","category":"119","category_name":"商场","address":"\"太仓路181弄新天地北里15号\r\n\""},{"poiid":"B209475CD564A7F8439E","title":"上海滩中信泰富店","lon":"121.45602","lat":"31.22851","category":"119","category_name":"商场","address":"\"南京西路1168号中信泰富广场，店铺号221.\r\n\""},{"poiid":"B209475CD564A7F84392","title":"上海滩浦东香格里拉店","lon":"121.50058","lat":"31.23634","category":"119","category_name":"商场","address":"浦东富成路33号香格里拉酒店内大堂层"},{"poiid":"B2094654DA6EAAFE4998","title":"大上海时代广场","lon":"121.4789","lat":"31.22477","category":"119","category_name":"商场","address":"浦东区张杨路502号(浦东南路口)"},{"poiid":"B2094654DA6EAAF8499A","title":"万裕国际影城(淮海中路店)","lon":"121.478684","lat":"31.224496","category":"178","category_name":"电影院","address":"淮海中路93-99号大上海时代广场L6"},{"poiid":"B2094757D06FA1F5439E","title":"一锅鲜","lon":"121.48108643","lat":"31.223254051","category":"76","category_name":"上海菜","address":"黄浦区淮海东路99号新尚数码广场5楼(西藏路淮海东路交叉口)"},{"poiid":"B2094757D06EABF54599","title":"淮海一号","lon":"121.480128324","lat":"31.2250132719","category":"260","category_name":"其他","address":"卢湾区柳林路65号柳林大厦6楼(近淮海中路)"},{"poiid":"B2094757D064A1FD449A","title":"地铁8号线大世界站","lon":"121.478748638","lat":"31.2230810477","category":"36","category_name":"地铁站","address":"上海大世界站"},{"poiid":"B2094757D06FA5FF499D","title":"新天地太平桥人工湖","lon":"121.479294","lat":"31.222233","category":"196","category_name":"公园","address":"上海济南路"},{"poiid":"B2094753D26EA4FD4392","title":"饭小馆","lon":"121.480981","lat":"31.224193","category":"247","category_name":"餐饮美食","address":"上海市 上海市西藏南路279号108室"},{"poiid":"B2094757D06FA7FD479D","title":"藏鲜工坊","lon":"121.47956","lat":"31.22517","category":"260","category_name":"其他","address":"卢湾区淮海中路98号金钟广场5楼(近柳林路)"},{"poiid":"B2094757D06FA1F9479E","title":"821撞球娱乐P1馆","lon":"121.48010684","lat":"31.22494441","category":"171","category_name":"台球厅","address":"上海淮海中路1号8楼"},{"poiid":"B2094757D664A7FF4692","title":"翠萃餐厅","lon":"121.48078","lat":"31.22447","category":"76","category_name":"上海菜","address":"西藏南路251号2楼近桃源路"},{"poiid":"B2094654DA6EAAFC429C","title":"曙光大厦","lon":"121.47886","lat":"31.22255","category":"46","category_name":"楼宇","address":"静安区西康路946号"},{"poiid":"B2094654DA6EAAF8479D","title":"满记甜品 时代广场店","lon":"121.478519054","lat":"31.224573793","category":"67","category_name":"甜品店","address":"卢湾区淮海中路99号大上海时代广场B1楼K7-K8(柳林路口)"},{"poiid":"B2094757D568A7FB489A","title":"The Fat Olive","lon":"121.480385","lat":"31.224354","category":"257","category_name":"中餐厅","address":"西藏南路228号6楼会所餐厅南部2号(近寿宁路)"},{"poiid":"B2094753D46AA1FD459D","title":"环球港","lon":"121.480438","lat":"31.22241","category":"500","category_name":"未知分类","address":"上海市 中山北路"},{"poiid":"B2094654DA6EAAFC469E","title":"上海时光整形外科医院","lon":"121.47886","lat":"31.22255","category":"162","category_name":"医院","address":"卢湾区普安路189号曙光大厦2楼(近淮海公园)"},{"poiid":"B2094757D064A1FC4392","title":"淮海279","lon":"121.48077473","lat":"31.224404175","category":"76","category_name":"上海菜","address":"黄浦区西藏南路279号弘基西门町(近淮海东路)"},{"poiid":"B2094757D06EAAF9419C","title":"汤城小厨(时代广场店)","lon":"121.47876","lat":"31.22429","category":"72","category_name":"广东菜","address":"卢湾区淮海中路99号大上海时代广场4楼401-402号(柳林路口)"},{"poiid":"B2094757D66BA3F5439C","title":"十番烧肉","lon":"121.481204","lat":"31.224029","category":"269","category_name":"烧烤","address":"西藏南路279号近淮海东路"},{"poiid":"B2094757D064A3F44293","title":"Fraser Residence 上海辉盛庭国际公寓","lon":"121.481061948","lat":"31.2234862464","category":"500","category_name":"未知分类","address":"卢湾区寿宁路98号(近淮海中路)"},{"poiid":"B2094750D76EA3F5429C","title":"寿宁路美食街","lon":"121.481","lat":"31.2236","category":"68","category_name":"快餐厅","address":"黄浦区寿宁路(西藏路人民路之间)"},{"poiid":"B2094655D26EA6F54192","title":"大家乐(时代店)","lon":"121.47912","lat":"31.22467","category":"68","category_name":"快餐厅","address":"卢湾区淮海中路99号大上海时代广场B1楼(柳林路口)"},{"poiid":"B2094655D269A4FB4798","title":"ZARA(时代广场店)","lon":"121.47867","lat":"31.22439","category":"141","category_name":"服装鞋帽皮具店","address":"卢湾区淮海中路111号大上海时代广场(近普安路)"},{"poiid":"B2094757D568A4F5449F","title":"淮海1号酒吧ONEPUB","lon":"121.480039","lat":"31.225076","category":"172","category_name":"酒吧","address":"淮海中路1号"},{"poiid":"B2094654DA6EAAF8479E","title":"葡京茶餐厅(淮海店)","lon":"121.4789","lat":"31.22477","category":"72","category_name":"广东菜","address":"卢湾区淮海中路99号大上海时代广场B1楼(柳林路口)"},{"poiid":"B2094757D06BABFC419F","title":"西北狼烧烤","lon":"121.48115173","lat":"31.223499156","category":"247","category_name":"餐饮美食","address":"上海寿宁路60号"},{"poiid":"B2094757D16CA6F9479F","title":"麦德龙餐饮通西藏南路商场","lon":"121.48024373","lat":"31.224242172","category":"68","category_name":"快餐厅","address":"卢湾区西藏南路228号永银大厦2楼(近淮海中路)"},{"poiid":"B2094654DA6EABFB4198","title":"巴辣子","lon":"121.48039970258","lat":"31.223424021383","category":"71","category_name":"四川菜","address":"卢湾区寿宁路71弄7号(柳林路西藏南路间)"},{"poiid":"B2094753D76CA2F44598","title":"上海朗庭酒店","lon":"121.479156","lat":"31.22248","category":"500","category_name":"未知分类","address":"上海市 卢湾区马当路"},{"poiid":"B2094753DA6AA5F9419C","title":"COVA@K11","lon":"121.478927","lat":"31.223541","category":"500","category_name":"未知分类","address":"上海市 淮海中路300号2楼"},{"poiid":"B2094753D664A3FA4092","title":"复旦大学","lon":"121.479087","lat":"31.224962","category":"671","category_name":"高校中心点","address":"上海市 杨浦区邯郸路220号"},{"poiid":"B2094757D06FA6FA459A","title":"韩风炭火烤肉(时代店)","lon":"121.47924","lat":"31.22445","category":"96","category_name":"韩国料理","address":"卢湾区淮海中路99号大上海时代广场B1楼(柳林路口)"},{"poiid":"B2094757D065A7FD4198","title":"韩膳宫无限度店","lon":"121.478038738","lat":"31.2240281679","category":"500","category_name":"未知分类","address":"上海市黄浦区延安东路"},{"poiid":"B2094757D66CA3FE4198","title":"虎跳峽(下虎跳)","lon":"121.48102943","lat":"31.222836642","category":"234","category_name":"海滨浴场","address":"迪庆州香格里拉县(近大具乡) 下虎跳峡"},{"poiid":"B2094757D064A6FC4792","title":"大上海时代广场办公楼","lon":"121.47958473","lat":"31.224199171","category":"500","category_name":"未知分类","address":"上海市卢湾区淮海中路93号"},{"poiid":"B2094757D06FA1F9479A","title":"Cirka(大时代广场店)","lon":"121.478196","lat":"31.224255","category":"112","category_name":"糕饼店","address":"卢湾区淮海中路99号大上海时代广场大上海时代广场1楼"},{"poiid":"B2094757D16FABFE4799","title":"格维口腔","lon":"121.4792756956067","lat":"31.224931688498895","category":"162","category_name":"医院","address":"卢湾区淮海中路93号大上海时代广场办公楼4楼(柳林路口)"},{"poiid":"B2094750D76CA5FE479A","title":"Baker&Spice(时代广场店)","lon":"121.479","lat":"31.2247","category":"67","category_name":"甜品店","address":"卢湾区淮海中路300号上海K11购物艺术中心B1楼127-129铺(近黄陂北路)"},{"poiid":"B2094753D768A1F4419C","title":"上海外滩","lon":"121.480438","lat":"31.222406","category":"500","category_name":"未知分类","address":"上海市 外滩"},{"poiid":"B2094757D06BA6FD4992","title":"上海中医药大学附属曙光医院名中医诊疗中心","lon":"121.478672","lat":"31.222935","category":"162","category_name":"医院","address":"上海市卢湾区普安路185号(近淮海公园)"},{"poiid":"B2094655D26BA3FE4392","title":"立欧桌球概念馆","lon":"121.47886","lat":"31.22255","category":"171","category_name":"台球厅","address":"卢湾区普安路189号曙光大厦10楼(近淮海公园)"},{"poiid":"B2094757D068A1F9469F","title":"爱茜茜里(大上海时代广场店)","lon":"121.47871","lat":"31.22434","category":"113","category_name":"冷饮店","address":"卢湾区淮海中路939号巴黎春天内(近陕西南路)"},{"poiid":"B2094654DA6EAAF84793","title":"名家私宴精作坊","lon":"121.47868","lat":"31.22439","category":"76","category_name":"上海菜","address":"卢湾区淮海中路99号大上海时代广场4楼(柳林路口)"},{"poiid":"B2094655D264A1FE489F","title":"佰草集汉方SPA(卢湾永银店)","lon":"121.48039","lat":"31.22424","category":"148","category_name":"美容美发店","address":"桃源路85号永银大厦6层"},{"poiid":"B2094757D064A1F4499D","title":"淮海中路派出所","lon":"121.47819177","lat":"31.223276034","category":"609","category_name":"警察局","address":"上海黄浦区普安路177号"},{"poiid":"B2094654DA6EAAFF409D","title":"吉祥馄饨柳林店","lon":"121.48049","lat":"31.22322","category":"68","category_name":"快餐厅","address":"卢湾区柳林路109号(寿宁路口)"},{"poiid":"B2094753D164A1FB469C","title":"大时代广场","lon":"121.4792","lat":"31.22441","category":"119","category_name":"商场","address":"卢湾区淮海中路93号"},{"poiid":"B2094757D169ABFB479F","title":"剪约","lon":"121.481085438","lat":"31.2232150506","category":"500","category_name":"未知分类","address":"上海西藏南路322-324号"},{"poiid":"B2094757D16CA5F8479E","title":"势崛私属造型(无限度店)","lon":"121.479872905","lat":"31.2223626324","category":"148","category_name":"美容美发店","address":"卢湾区淮海中路138号无限度广场5楼516室(时代广场对面)"},{"poiid":"B2094654DA6EAAFE4192","title":"崇尚麻辣烫","lon":"121.47941","lat":"31.22203","category":"68","category_name":"快餐厅","address":"卢湾区崇德路46号(近柳林路)"},{"poiid":"B2094655D264A7F54392","title":"相思苑餐厅","lon":"121.480455054","lat":"31.222468793","category":"76","category_name":"上海菜","address":"卢湾区崇德路24号(近太仓路)"},{"poiid":"B2094757D165A6F5489A","title":"谨和五味","lon":"121.480788738","lat":"31.2236301594","category":"68","category_name":"快餐厅","address":"卢湾区寿宁路69号(近西藏南路)"},{"poiid":"B2094757D16FAAFB4292","title":"陆家嘴软件园1号楼 MBP","lon":"121.479995","lat":"31.224641","category":"46","category_name":"楼宇","address":"上海峨山路91弄98号2楼西单元 3楼东单元"},{"poiid":"B2094757D06BA3FE459C","title":"时光整形医院","lon":"121.47886","lat":"31.22229","category":"162","category_name":"医院","address":"上海卢湾区普安路189号曙光大厦6楼(近淮海公园)  "},{"poiid":"B2094750D664A2FA4598","title":"老昌盛苏州汤包馆","lon":"121.479","lat":"31.2249","category":"68","category_name":"快餐厅","address":"卢湾区淮海路51号(近云南南路)"},{"poiid":"B2094757D569A2F94492","title":"吴越人家(西藏南路)","lon":"121.48123671","lat":"31.22393826","category":"68","category_name":"快餐厅","address":"黄浦区西藏南路279号(柳林路寿宁路)"},{"poiid":"B2094757D06AA5F5499E","title":"金钟广场食堂","lon":"121.47861","lat":"31.22475","category":"68","category_name":"快餐厅","address":"卢湾区淮海中路98号金钟广场13楼(近柳林路)"},{"poiid":"B2094654DA6EAAFE499E","title":"淮海晶华","lon":"121.47902","lat":"31.22359","category":"47","category_name":"住宅区","address":"桃源路111弄1-8号"},{"poiid":"B2094753D768A3FA4592","title":"浦东新区","lon":"121.480422","lat":"31.222393","category":"500","category_name":"未知分类","address":"上海市 陆家嘴"},{"poiid":"B2094655D26BA1F5419C","title":"V-one时代广场店","lon":"121.47941","lat":"31.22487","category":"248","category_name":"生活娱乐","address":"淮海中路99号大上海时代广场"},{"poiid":"B2094757D16AA4FD459C","title":"梅园邨","lon":"121.479779","lat":"31.22519","category":"500","category_name":"未知分类","address":"上海淮海路柳林路"},{"poiid":"B2094757D06BA6FC4992","title":"胡记锅贴(原嵩山路)","lon":"121.47905673","lat":"31.222453134","category":"247","category_name":"餐饮美食","address":"上海市普安路207号"},{"poiid":"B2094757D069A2F84799","title":"壹号公馆","lon":"121.4795153","lat":"31.225025819","category":"500","category_name":"未知分类","address":"上海淮海中路1号六楼"},{"poiid":"B2094753D26AA4FA459E","title":"饭小馆","lon":"121.480988","lat":"31.224131","category":"247","category_name":"餐饮美食","address":"上海市 西藏南路279号"},{"poiid":"B2094757D16AA2FF449B","title":"曙光医院骨伤科","lon":"121.478867","lat":"31.222555","category":"162","category_name":"医院","address":"上海普安路185号"},{"poiid":"B209475CD464A4F84392","title":"Lane Crawford, Shanghai","lon":"121.478713","lat":"31.224555","category":"500","category_name":"未知分类","address":"上海市 上海淮海路"},{"poiid":"B2094654DA6EAAFE4399","title":"曙光医院(2号门)","lon":"121.48008","lat":"31.2224","category":"162","category_name":"医院","address":"崇德路2号"},{"poiid":"B2094655D26FA3F4489E","title":"城市超市(时代广场店)","lon":"121.47888","lat":"31.22479","category":"118","category_name":"超级市场","address":"上海市卢湾区淮海中路99号大上海时代广场B1楼(柳林路口)"},{"poiid":"B2094655D36CA1F8499D","title":"柳林路","lon":"121.4804","lat":"31.2232","category":"38","category_name":"公交车站","address":""},{"poiid":"B2094752D669ABF5459F","title":"上海中山公园","lon":"121.479294","lat":"31.222233","category":"247","category_name":"餐饮美食","address":null},{"poiid":"B2094655D26EABFB4093","title":"凰庭","lon":"121.48098881187","lat":"31.223576103453","category":"247","category_name":"餐饮美食","address":"寿宁路98号6楼近西藏南路"},{"poiid":"B2094753DB6AA5FA439D","title":"上海影城","lon":"121.48043","lat":"31.222402","category":"178","category_name":"电影院","address":"上海市 上海市长宁区新华路"},{"poiid":"B2094655D26AA1FC479F","title":"河河亭铁板烧淮海中路店","lon":"121.47867","lat":"31.22439","category":"269","category_name":"烧烤","address":"卢湾区淮海中路99号大上海时代广场3楼301A号铺(柳林路口)"},{"poiid":"B2094654DA6EAAFE4398","title":"曙光医院发热门诊","lon":"121.4802","lat":"31.22248","category":"162","category_name":"医院","address":"淮海中路"},{"poiid":"B2094757D06FABF44493","title":"俏江南(淮海店)","lon":"121.47906","lat":"31.22434","category":"71","category_name":"四川菜","address":"卢湾区淮海中路99号大上海时代广场5楼(柳林路口)  "},{"poiid":"B2094757D164A0F5499D","title":"普安路","lon":"121.480530738","lat":"31.2245901799","category":"500","category_name":"未知分类","address":"上海市黄浦区普安路"},{"poiid":"B2094757D16BABF84899","title":"华哥龙虾坊寿宁路2号","lon":"121.48049473","lat":"31.224775183","category":"500","category_name":"未知分类","address":"上海市黄浦区普安路"},{"poiid":"B2094757D164A6F94593","title":"17号香巴岛","lon":"121.47904373","lat":"31.224867185","category":"47","category_name":"住宅区","address":"上海市黄浦区寿宁路17号"},{"poiid":"B2094757D66CA3F94699","title":"wagas express","lon":"121.479798738","lat":"31.2246481811","category":"500","category_name":"未知分类","address":"淮海中路93号大上海时代广场"},{"poiid":"B2094757D66FA3FA449D","title":"中国馆班车3线西藏南路淮海东路站","lon":"121.480742116","lat":"31.2246314811","category":"38","category_name":"公交车站","address":"上海西藏南路(近淮海东路)"},{"poiid":"B2094757D664A1F9429F","title":"红梅餐厅","lon":"121.48080979908","lat":"31.223507701725","category":"269","category_name":"烧烤","address":"寿宁路27号近柳林路"},{"poiid":"B2094757DA64AAFD4492","title":"会德丰广场","lon":"121.479066","lat":"31.224656","category":"252","category_name":"楼宇机构","address":"静安南京西路1717号(靠近延安路)"},{"poiid":"B2094654DA6EAAFE4792","title":"十方大厦名都商务楼","lon":"121.47843","lat":"31.22323","category":"46","category_name":"楼宇","address":"普安路177号"},{"poiid":"B2094753DB6EA3F84793","title":"上海辉盛庭国际公寓","lon":"121.480728","lat":"31.223463","category":"214","category_name":"四星级宾馆","address":"上海黄浦区寿宁路98号"},{"poiid":"B209475DD565A0FF4298","title":"Pantry's Best","lon":"121.47924","lat":"31.223438","category":"247","category_name":"餐饮美食","address":"上海市 黄陂南路K11购物商场地库2楼"},{"poiid":"B2094757D06BA4F84699","title":"peach john 蜜桃派 (淮海店)","lon":"121.479154","lat":"31.224604","category":"247","category_name":"餐饮美食","address":"卢湾区淮海中路900号OPA淮海店2楼(近陕西南路)"},{"poiid":"B2094757D06BA5F94492","title":"Qbaker原味坊","lon":"121.481040138","lat":"31.2234625892","category":"247","category_name":"餐饮美食","address":"上海西藏南路西门町10室"},{"poiid":"B2094654DB65A4FE439B","title":"曙光医院名医诊疗中心","lon":"121.47886","lat":"31.22255","category":"162","category_name":"医院","address":"普安路185-189号曙光大厦1层"},{"poiid":"B2094757D064A2FA429E","title":"淮海晶华苑","lon":"121.47890031","lat":"31.22360309","category":"500","category_name":"未知分类","address":"上海市卢湾区桃园路111号"},{"poiid":"B2094654DB65A7FC4392","title":"美美百货(时代广场店)","lon":"121.47892","lat":"31.2248","category":"119","category_name":"商场","address":"上海市卢湾区淮海中路99号(大上海时代广场 )"},{"poiid":"B2094753D569A6FB409C","title":"K11","lon":"121.479316","lat":"31.223346","category":"500","category_name":"未知分类","address":"上海市 淮海中路300号"},{"poiid":"B2094757D568A0F9489A","title":"大上海会德丰广场商业","lon":"121.4790658","lat":"31.22465583","category":"46","category_name":"楼宇","address":"南京西路1717号"},{"poiid":"B209475CD764A2FB4492","title":"星巴克 永银大厦店","lon":"121.48049","lat":"31.22446","category":"65","category_name":"咖啡厅","address":"桃源路85号永银大厦1楼(近柳林路)"},{"poiid":"B2094655D269AAF9439F","title":"Longchamp大上海时代广场店","lon":"121.47867","lat":"31.22439","category":"247","category_name":"餐饮美食","address":"上海市卢湾区淮海中路99号大上海时代广场(柳林路口)"},{"poiid":"B2094757D66EABFE469C","title":"寿命路韩记烧烤","lon":"121.48044373","lat":"31.224877186","category":"247","category_name":"餐饮美食","address":"上海市黄浦区延安东路"},{"poiid":"B2094655D26AA2F54592","title":"孙剑华形象设计淮海中路店","lon":"121.47977","lat":"31.22518","category":"247","category_name":"餐饮美食","address":"卢湾区柳林路65号柳林大厦3楼(近西藏南路)"},{"poiid":"B2094753D564A3FE4398","title":"上海财经大学","lon":"121.480422","lat":"31.222396","category":"500","category_name":"未知分类","address":"上海市 国定路777号"},{"poiid":"B2094654DB65A1FC449F","title":"石氏伤科","lon":"121.47871","lat":"31.22264","category":"162","category_name":"医院","address":"四川中路109号"},{"poiid":"B2094655D26EA4F44393","title":"土耳其餐厅","lon":"121.47888","lat":"31.22479","category":"256","category_name":"外国餐厅","address":"淮海中路99号"},{"poiid":"B2094654DA6EAAFE469B","title":"上海中医药大学附属曙光医院中医疑难杂症会诊部","lon":"121.47873","lat":"31.2225","category":"162","category_name":"医院","address":"普安路185-189号曙光大厦"},{"poiid":"B2094654DB6BA4FA4998","title":"锦绣坊(崇德路)","lon":"121.47947","lat":"31.22208","category":"47","category_name":"住宅区","address":"崇德路40弄1-23号"},{"poiid":"B2094757D165AAFF4193","title":"刘氏烧烤","lon":"121.48102163","lat":"31.222894843","category":"247","category_name":"餐饮美食","address":"上海寿宁路62号"},{"poiid":"B2094757D16CA7F8489D","title":"浦发银行(永银大厦支行)","lon":"121.48082","lat":"31.22393","category":"500","category_name":"未知分类","address":"黄浦区西藏南路218号(桃源路西藏南路)"},{"poiid":"B2094753D769A0FA499F","title":"宝山万达","lon":"121.480422","lat":"31.222398","category":"500","category_name":"未知分类","address":"上海市 128纪念路"},{"poiid":"B2094654DA6EABFB419D","title":"上海药房香山堂国药号","lon":"121.48105","lat":"31.22326","category":"162","category_name":"医院","address":"黄浦区西藏南路280号(柳林路寿宁路)"},{"poiid":"B2094757D16AA7FC459E","title":"曙光大酒店(曙光医院食堂)","lon":"121.478548738","lat":"31.2232211507","category":"500","category_name":"未知分类","address":"卢湾区普安路189号曙光医院住院部"},{"poiid":"B2094654DA6EAAFE439B","title":"华宝坊","lon":"121.47976","lat":"31.2226","category":"47","category_name":"住宅区","address":"崇德路2弄1-15号"},{"poiid":"B2094757DB6AA1FF429B","title":"RICH COLOR（大上海时代广场店）","lon":"121.479","lat":"31.2249","category":"122","category_name":"个人用品/化妆品店","address":"上海卢湾区淮海中路99号 大上海时代广场地下一层"},{"poiid":"B209475CD56FA6F9409B","title":"浅水湾文化艺术中心","lon":"121.480476","lat":"31.224893","category":"500","category_name":"未知分类","address":"上海市 宜昌路179号"},{"poiid":"B2094757D065ABF9479A","title":"柳林电信局","lon":"121.48031616","lat":"31.223016738","category":"500","category_name":"未知分类","address":"上海市卢湾区柳林路158号"},{"poiid":"B2094757D16CA1F5499F","title":"大上海时代广场中庭","lon":"121.47848273","lat":"31.224739183","category":"500","category_name":"未知分类","address":"上海淮海路99号"},{"poiid":"B2094753D664A3FC449D","title":"上海博物馆","lon":"121.479515","lat":"31.223613","category":"500","category_name":"未知分类","address":"上海市 上海市黄浦区"},{"poiid":"B2094757D064A4FF429A","title":"Mango(九海百盛店)","lon":"121.47907","lat":"31.2247","category":"141","category_name":"服装鞋帽皮具店","address":"卢湾区淮海中路918号百盛购物中心3楼(近陕西南路)"},{"poiid":"B2094655D268ABFD439F","title":"华宝坊(南门)","lon":"121.48002","lat":"31.22237","category":"47","category_name":"住宅区","address":"崇德路2弄1-15号"},{"poiid":"B2094655D26CA7F4409B","title":"元声里","lon":"121.48073","lat":"31.22325","category":"47","category_name":"住宅区","address":"寿宁路71弄7-12号"},{"poiid":"B2094757D168A7F5489E","title":"杜华形象设计社(时代广场店)","lon":"121.479608","lat":"31.224708","category":"148","category_name":"美容美发店","address":"卢湾区淮海中路99号大上海时代广场5楼"},{"poiid":"B2094654DA6EAAF84893","title":"美至家时尚肌肤","lon":"121.47868","lat":"31.2244","category":"148","category_name":"美容美发店","address":"淮海中路93号时代广场办公楼"},{"poiid":"B2094753D56DA3FC489F","title":"上海音乐学院","lon":"121.480415","lat":"31.222398","category":"500","category_name":"未知分类","address":"上海市 汾阳路20号"},{"poiid":"B2094654DA6EAAF8489E","title":"汤尼英盖美容美发","lon":"121.47867","lat":"31.22439","category":"148","category_name":"美容美发店","address":"卢湾区淮海中路99号大上海时代广场L5"},{"poiid":"B2094654DA6EAAFC469A","title":"上海市食品药品监督所","lon":"121.47886","lat":"31.22255","category":"250","category_name":"公园户外","address":"普安路187-189号曙光大厦10层"},{"poiid":"B2094757D06AAAF44293","title":"D&amp;G(大上海时代店)","lon":"121.47917","lat":"31.22449","category":"141","category_name":"服装鞋帽皮具店","address":"卢湾区淮海中路99号大上海时代广场1楼"},{"poiid":"B209475CD16EAAFB429D","title":"上海师范大学奉贤校区","lon":"121.480438","lat":"31.222406","category":"500","category_name":"未知分类","address":"上海市 奉炮路"},{"poiid":"B209475DD064A5FF4899","title":"Le Rhone","lon":"121.479583","lat":"31.222099","category":"500","category_name":"未知分类","address":"上海市 上海市"},{"poiid":"B2094757D06EAAF9499C","title":"屈臣氏(时代广场店)","lon":"121.47844","lat":"31.22471","category":"117","category_name":"便民商店/便利店","address":"上海市卢湾区淮海中路99号大上海时代广场B1楼(柳林路口)"},{"poiid":"B2094655D26FA7F4429F","title":"大上海时代广场(东门)","lon":"121.47941","lat":"31.22487","category":"48","category_name":"楼宇大门","address":"淮海中路99"},{"poiid":"B2094757D06AA7F44199","title":"古铜日晒","lon":"121.47848473","lat":"31.224770183","category":"148","category_name":"美容美发店","address":"上海市黄浦区淮海中路138号无限度广场209A室"},{"poiid":"B2094750D268A5F94099","title":"青籁养身GreenMassage","lon":"121.47864558274","lat":"31.22283894909","category":"149","category_name":"洗浴推拿场所","address":"普安路189号曙光大厦24层C,D"},{"poiid":"B2094654DA6EAAF8499B","title":"MaxMara","lon":"121.47882","lat":"31.22468","category":"141","category_name":"服装鞋帽皮具店","address":""},{"poiid":"B2094753D569A2F94992","title":"比萨马上诺","lon":"121.479316","lat":"31.223468","category":"500","category_name":"未知分类","address":"上海市 淮海中路300号K11购物艺术中心403号铺(近黄陂南路)"},{"poiid":"B209475CD26BA4F5489B","title":"上海人民公园","lon":"121.48043","lat":"31.222412","category":"500","category_name":"未知分类","address":"上海市 人民大道10000号"},{"poiid":"B2094757D568ABF4439A","title":"大上海广场","lon":"121.4794081","lat":"31.22486806","category":"249","category_name":"购物服务","address":"淮海中路99号"},{"poiid":"B2094654DA6EAAFF409C","title":"快印先生","lon":"121.48051","lat":"31.22311","category":"138","category_name":"家电电子卖场","address":"卢湾区柳林路109-2号(崇德路柳林路)"},{"poiid":"B209475CD66AAAF5459B","title":"上海","lon":"121.480438","lat":"31.222414","category":"500","category_name":"未知分类","address":"上海市 浦东新区"},{"poiid":"B209475CD265A3FF449F","title":"松江大学城","lon":"121.480415","lat":"31.222398","category":"500","category_name":"未知分类","address":"上海市 松江大学城"},{"poiid":"B209475CD26DA5FB4998","title":"上海奉贤","lon":"121.48043","lat":"31.222408","category":"500","category_name":"未知分类","address":"上海市 上海市奉贤区金钱公路3469晨光文具"},{"poiid":"B2094753D76AAAFA499F","title":"佘山","lon":"121.480438","lat":"31.222412","category":"500","category_name":"未知分类","address":"上海市 佘山"},{"poiid":"B2094655D26EA4FB489B","title":"TONY&GUY(时代广场店)","lon":"121.47912","lat":"31.22467","category":"248","category_name":"生活娱乐","address":"卢湾区淮海中路93号大时代广场5楼"},{"poiid":"B2094757D065ABFD479D","title":"Max Mara(大上海时代广场店)","lon":"121.47916","lat":"31.22452","category":"141","category_name":"服装鞋帽皮具店","address":"卢湾区淮海中路99号大上海时代广场(柳林路口)"},{"poiid":"B2094757D569A0FD4892","title":"Salvafove Feviagamo","lon":"121.4788243","lat":"31.22454563","category":"141","category_name":"服装鞋帽皮具店","address":"淮海中路93-99号大上海时代广场"},{"poiid":"B2094757D16AABFA4998","title":"诺基亚客户服务中心","lon":"121.478265638","lat":"31.2236286094","category":"138","category_name":"家电电子卖场","address":"卢湾区淮海中路99号大上海时代广场B1楼"},{"poiid":"B209475CD769ABFD479D","title":"上海博物馆","lon":"121.479316","lat":"31.223701","category":"500","category_name":"未知分类","address":"上海市 人民广场"},{"poiid":"B2094757D16CA5F54499","title":"麦德龙淮海中路城中店","lon":"121.480323738","lat":"31.2237320116","category":"500","category_name":"未知分类","address":"上海西藏南路228号永银大厦2楼"},{"poiid":"B209475CD76CA5FB439C","title":"上海大舞台","lon":"121.480438","lat":"31.222412","category":"500","category_name":"未知分类","address":"上海市 上海"},{"poiid":"B2094757D16BABF54598","title":"俏江南South Beauty","lon":"121.47861426","lat":"31.22416666","category":"500","category_name":"未知分类","address":"上海淮海路時代廣場5F"},{"poiid":"B2094753D56EA3FE429F","title":"上海陆家嘴","lon":"121.48043","lat":"31.22241","category":"500","category_name":"未知分类","address":"上海市 汇豪天下"},{"poiid":"B2094757D06FA1FF439C","title":"诺基亚授权专卖店(时代广场店)","lon":"121.47848219","lat":"31.224312193","category":"138","category_name":"家电电子卖场","address":"上海淮海中路大上海时代广场商场地下一层B105-106号商铺"},{"poiid":"B2094757D66EA1F94292","title":"龙门路邮政局","lon":"121.479449738","lat":"31.2233921544","category":"500","category_name":"未知分类","address":"上海柳林路156号"},{"poiid":"B2094753D569A6FC4098","title":"新元素","lon":"121.48056","lat":"31.224348","category":"500","category_name":"未知分类","address":"上海市 西藏南路"},{"poiid":"B2094757D168A3FC4998","title":"大上海时代广场写字楼","lon":"121.478913","lat":"31.224761","category":"500","category_name":"未知分类","address":"上海卢湾区淮海中路93号"},{"poiid":"B2094753D76CA2F44592","title":"上海市新天地郎廷酒店","lon":"121.479148","lat":"31.222476","category":"500","category_name":"未知分类","address":"上海市 卢湾区马当路"},{"poiid":"B2094757D568ABFB469F","title":"NAUTICA上海时代广场店","lon":"121.4794081","lat":"31.22486806","category":"249","category_name":"购物服务","address":"淮海中路99号大上海时代广场2层"},{"poiid":"B209475CD769A0F8429D","title":"K11 阿吾罗日本料理","lon":"121.479309","lat":"31.223472","category":"500","category_name":"未知分类","address":"上海市 淮海路300号K11艺术购物中心407号铺"},{"poiid":"B209475CD768A1F54798","title":"k11艺术中心","lon":"121.479301","lat":"31.223468","category":"500","category_name":"未知分类","address":"上海市 上海"},{"poiid":"B2094757D16CA0F84298","title":"南申专线","lon":"121.479157038","lat":"31.2225960374","category":"500","category_name":"未知分类","address":"上海淮海中路柳林路至南桥汽车站"},{"poiid":"B2094753DA6AAAFE4092","title":"S2","lon":"121.480026","lat":"31.225025","category":"249","category_name":"购物服务","address":"上海市 柳林大夏6楼"},{"poiid":"B209475CD76BA5F5489A","title":"徐汇区","lon":"121.480438","lat":"31.222415","category":"500","category_name":"未知分类","address":"上海市 梅陇路130号"},{"poiid":"B2094753D665A7F94698","title":"上海杉达学院","lon":"121.48043","lat":"31.222406","category":"253","category_name":"校园生活","address":"上海市 金海路2727号"},{"poiid":"B2094757D069A0F9499B","title":"惠普专卖店浦东百脑汇分店","lon":"121.480247498","lat":"31.2248363495","category":"500","category_name":"未知分类","address":"上海张杨路588号浦东百脑汇1B08号"},{"poiid":"B2094654DB6BA4FA489F","title":"中国建设银行上海市分行(普安路)","lon":"121.47885","lat":"31.22255","category":"150","category_name":"银行","address":"普安路187-189号曙光大厦17层"},{"poiid":"B2094757D064A4F5449E","title":"Fresh everyday","lon":"121.47847423","lat":"31.22462268","category":"500","category_name":"未知分类","address":"上海淮海中路99号地下一层06商铺"},{"poiid":"B2094757D16DA7FA479F","title":"韩风","lon":"121.47879673","lat":"31.224890186","category":"500","category_name":"未知分类","address":"上海淮海中路"},{"poiid":"B2094757D164A6FB4598","title":"淮海中路 党员服务中心","lon":"121.479969","lat":"31.223596","category":"500","category_name":"未知分类","address":"上海柳林路118号"},{"poiid":"B2094757D569A3F4449C","title":"REPLAY大上海时代广场店","lon":"121.4792481","lat":"31.224475","category":"249","category_name":"购物服务","address":"淮海中路93号大上海时代广场206-207商铺"},{"poiid":"B2094654DA6EAAFE4899","title":"上海朱家角经济城","lon":"121.47843","lat":"31.22324","category":"263","category_name":"公司","address":"普安路177号十方大厦名都商务楼4层417"},{"poiid":"B2094757D16EA7FB429D","title":"781(西藏南路淮海东路)","lon":"121.481041538","lat":"31.2228724433","category":"500","category_name":"未知分类","address":"上海西藏南路淮海东路"},{"poiid":"B2094757D16AA2F8439C","title":"普安路十方大厦","lon":"121.478249","lat":"31.223149","category":"500","category_name":"未知分类","address":"上海普安路177号"},{"poiid":"B2094757D168A7FA479B","title":"罗森便利 西门厅","lon":"121.48105073","lat":"31.222899143","category":"500","category_name":"未知分类","address":"上海市西藏南路251号"},{"poiid":"B2094757D66CA0F4409D","title":"百腾数码","lon":"121.478573","lat":"31.224656","category":"249","category_name":"购物服务","address":"上海淮海路99号"},{"poiid":"B2094757D16EA3FB4793","title":"人保财险卢湾支公司","lon":"121.47841823","lat":"31.223182399","category":"500","category_name":"未知分类","address":"上海普安路177号5～6楼"},{"poiid":"B2094757D16FAAF4479D","title":"玛花纤体","lon":"121.478888","lat":"31.224709","category":"148","category_name":"美容美发店","address":"上海淮海中路99号时代广场5楼"},{"poiid":"B2094654DA6EAAFF419F","title":"中国民生银行财富管理中心(上海)","lon":"121.48038","lat":"31.22423","category":"150","category_name":"银行","address":"桃源路85号永银大厦1101"},{"poiid":"B2094757D16AA4FF4398","title":"平平","lon":"121.48063873","lat":"31.223585158","category":"500","category_name":"未知分类","address":"上海寿宁路21号"},{"poiid":"B2094757D16DA6FB439B","title":"112路终点站","lon":"121.47896575","lat":"31.225065231","category":"500","category_name":"未知分类","address":"上海"},{"poiid":"B2094757D065AAF4429C","title":"尚8艺术中心黑莓新业务发布会","lon":"121.478566","lat":"31.22482","category":"500","category_name":"未知分类","address":"上海大连市"},{"poiid":"B2094757D66FA1F84392","title":"武警九支队","lon":"121.478689738","lat":"31.2247321829","category":"500","category_name":"未知分类","address":"上海友林路2592号"},{"poiid":"B2094757D168A3FD429B","title":"佐依美容","lon":"121.479181043","lat":"31.2249961263","category":"148","category_name":"美容美发店","address":"上海淮海中路99号时代广场六楼"},{"poiid":"B2094757D66CA6F5489E","title":"sergio tacchini","lon":"121.47846873","lat":"31.224733183","category":"500","category_name":"未知分类","address":"大上海时代广场3楼"},{"poiid":"B2094757D168A1FB4793","title":"佐伊SPA养生馆","lon":"121.4786694","lat":"31.224648181","category":"148","category_name":"美容美发店","address":"卢湾区淮海中路99号大上海时代广场L613(柳林路口)"},{"poiid":"B2094757D568A6FF409F","title":"CK Jeans(时代广场店)","lon":"121.4794081","lat":"31.22486806","category":"249","category_name":"购物服务","address":"淮海中路99号大上海时代广场2层"},{"poiid":"B2094654DA6EAAF9479D","title":"温德姆国际酒店集团","lon":"121.47908","lat":"31.22462","category":"263","category_name":"公司","address":"淮海中路93号时代广场办公楼1301、1310"},{"poiid":"B2094655D269ABFE4698","title":"普茶宫","lon":"121.47867","lat":"31.22439","category":"260","category_name":"其他","address":"卢湾区淮海中路99号大上海时代广场L6号(柳林路口)"},{"poiid":"B2094757D66FA3F9449F","title":"桃园新村","lon":"121.481030738","lat":"31.2233231529","category":"252","category_name":"楼宇机构","address":"上海淮海东路89弄"},{"poiid":"B2094757D66CAAFC489B","title":"日本制品安全协会 中国联络所","lon":"121.480084838","lat":"31.2222635303","category":"252","category_name":"楼宇机构","address":"上海新华路200号"},{"poiid":"B2094757D568ABFA4598","title":"Urban Shock(时代广场店)","lon":"121.4792481","lat":"31.224475","category":"249","category_name":"购物服务","address":"淮海中路93号301B铺"},{"poiid":"B2094757D568A7F4459F","title":"Frederique Constant","lon":"121.4794081","lat":"31.22486806","category":"249","category_name":"购物服务","address":"淮海中路99号大上海时代广场2层"},{"poiid":"B2094655D26AA6FF4593","title":"艾洛沙","lon":"121.47867","lat":"31.22439","category":"260","category_name":"其他","address":"卢湾区淮海中路99号大上海时代广场1楼(柳林路口)"},{"poiid":"B2094654DA6EAAFE479D","title":"中国工商银行上海市普安路支行24小时自助银行","lon":"121.47823","lat":"31.22317","category":"152","category_name":"ATM","address":"普安路177"},{"poiid":"B2094654DA6EAAF9459E","title":"大上海时代广场物业管理(上海)有限公司","lon":"121.47907","lat":"31.22462","category":"263","category_name":"公司","address":"淮海中路93号时代广场办公楼8层"},{"poiid":"B2094654DA6EAAF94299","title":"英国豪罗宾逊船务经纪有限公司上海代表处","lon":"121.47908","lat":"31.22462","category":"263","category_name":"公司","address":"淮海中路93号时代广场办公楼1508-1510"},{"poiid":"B2094655D264A0FA4198","title":"ONLY时代广场店","lon":"121.47941","lat":"31.22487","category":"248","category_name":"生活娱乐","address":"淮海中路99号大上海时代广场3层"},{"poiid":"B2094655D36CA3F9479B","title":"ST.DUPONT时代广场店","lon":"121.47941","lat":"31.22487","category":"248","category_name":"生活娱乐","address":"淮海中路99号大上海时代广场1层"},{"poiid":"B2094655D264A1FF449B","title":"LEVI'S时代广场店","lon":"121.47941","lat":"31.22487","category":"248","category_name":"生活娱乐","address":"淮海中路99号大上海时代广场"},{"poiid":"B2094655D264A2F4489D","title":"OnitsukaTiger大时代店","lon":"121.47941","lat":"31.22487","category":"248","category_name":"生活娱乐","address":"淮海中路99号大时代广场5层"},{"poiid":"B2094655D26FA7F9439A","title":"淮海晶华(北门)","lon":"121.47933","lat":"31.22427","category":"656","category_name":"大门","address":"桃源路111弄1-8号"},{"poiid":"B2094655D26CA4FA469E","title":"淮海晶华(东门)","lon":"121.47978","lat":"31.22407","category":"656","category_name":"大门","address":""},{"poiid":"B2094655D265A5F44198","title":"时代豪庭(南门)","lon":"121.47805","lat":"31.22403","category":"656","category_name":"大门","address":"桃源路188临"},{"poiid":"B2094654DB6BA4FA499C","title":"淮海晶华(西门)","lon":"121.47836","lat":"31.22331","category":"656","category_name":"大门","address":""}]