[{"poiid":"B2094757D068AAFE489F","title":"复兴西路","lon":"121.443012","lat":"31.208405","category":"46","category_name":"楼宇","address":"上海永福路"},{"poiid":"B2094655D36DA6FE449F","title":"上海图书馆","lon":"121.44394","lat":"31.20779","category":"181","category_name":"图书馆","address":"徐汇区淮海中路1555号(近高安路)"},{"poiid":"B2094757D06FA2FE429C","title":"The Apartment","lon":"121.44423272","lat":"31.2114678","category":"94","category_name":"西餐厅","address":"徐汇区永福路47号3楼(近复兴西路)"},{"poiid":"B2094753D76FAAFA449C","title":"上海滩国泰旗舰店","lon":"121.466011","lat":"31.216125","category":"249","category_name":"购物服务","address":"淮海中路868号"},{"poiid":"B209475CD564A7F8439E","title":"上海滩中信泰富店","lon":"121.45602","lat":"31.22851","category":"119","category_name":"商场","address":"\"南京西路1168号中信泰富广场，店铺号221.\r\n\""},{"poiid":"B2094757D06EAAF54992","title":"JZ club(爵士俱乐部)","lon":"121.44488035","lat":"31.210675495","category":"172","category_name":"酒吧","address":"徐汇区复兴西路46号(近乌鲁木齐中路)"},{"poiid":"B2094757D06FA1F5479B","title":"El Cóctel","lon":"121.44435072","lat":"31.211305167","category":"260","category_name":"其他","address":"徐汇区永福路47号2楼(近复兴西路)"},{"poiid":"B2094757D06EAAFB429A","title":"1984bookstore","lon":"121.442412","lat":"31.208109","category":"260","category_name":"其他","address":"徐汇区湖南路11号(永福路口)"},{"poiid":"B2094757D069A2F94398","title":"Petite Jasmine 小茉莉西餐厅","lon":"121.440465586","lat":"31.2090540169","category":"94","category_name":"西餐厅","address":"徐汇区武康路214号(近湖南路)"},{"poiid":"B2094654DB69A7FD4193","title":"雍福会","lon":"121.44264","lat":"31.20911","category":"76","category_name":"上海菜","address":"徐汇区永福路200号原英国领事馆(近湖南路)"},{"poiid":"B2094757DA69A3FB4199","title":"上海交响乐团","lon":"121.44194","lat":"31.2083","category":"646","category_name":"文化体育类公司","address":"徐汇区湖南路105号(近武康路)"},{"poiid":"B2094757D16CA0F94492","title":"巴金故居","lon":"121.440725466","lat":"31.209418044","category":"607","category_name":"一般景点","address":"徐汇区武康路113号"},{"poiid":"B2094757D16CA3F44492","title":"Salute","lon":"121.444026586","lat":"31.2107440499","category":"94","category_name":"西餐厅","address":"静安区南京西路1038号梅龙镇伊势丹3楼(近江宁路)"},{"poiid":"B2094757D06FA3FF449D","title":"上海图书馆地铁站","lon":"121.44394","lat":"31.207792","category":"36","category_name":"地铁站","address":"上海轨道交通 十号线 轨交上海图书馆站 10"},{"poiid":"B2094757D169ABF5459E","title":"Bocado","lon":"121.44390058","lat":"31.211565066","category":"94","category_name":"西餐厅","address":"徐汇区永福路47号203(近复兴路)"},{"poiid":"B2094757D66EA0FA489E","title":"NeNe Italian restaurant","lon":"121.443460786","lat":"31.2108263515","category":"94","category_name":"西餐厅","address":"徐汇区永福路47号106室(近复兴路)"},{"poiid":"B2094757D068A2F54493","title":"博爱医院","lon":"121.44417408","lat":"31.208371816","category":"162","category_name":"医院","address":"卢湾区淮海中路1590号(近高安路)"},{"poiid":"B2094757D468AAFD4099","title":"鲁马滋 Rumors Coffee","lon":"121.442311","lat":"31.208188","category":"65","category_name":"咖啡厅","address":"徐汇区湖南路9号甲(近上海图书馆)"},{"poiid":"B2094757D46EABF84198","title":"麦坊威士忌酒吧","lon":"121.44067562392524","lat":"31.208291232965074","category":"94","category_name":"西餐厅","address":"上海市徐汇区湖南路123号(近武康路)"},{"poiid":"B2094752D669A6F8449B","title":"鼎王无老养生锅","lon":"121.444528","lat":"31.209638","category":"500","category_name":"未知分类","address":"衡山路2号甲香樟花园"},{"poiid":"B2094757D56CA2FF419B","title":"Misael酒吧","lon":"121.440953","lat":"31.210136","category":"260","category_name":"其他","address":"徐汇区武康路103号(近复兴西路)"},{"poiid":"B2094757D06AA5FA489A","title":"五原路","lon":"121.44202758","lat":"31.211923073","category":"500","category_name":"未知分类","address":"上海徐汇区五原路"},{"poiid":"B2094757D069A4F8409B","title":"Rhumerie Bounty(永福路店)","lon":"121.44434","lat":"31.21114","category":"260","category_name":"其他","address":"徐汇区永福路47号1楼(近五原路)"},{"poiid":"B2094757D06AA4F84298","title":"Hunan House","lon":"121.445337989","lat":"31.209769788","category":"77","category_name":"湖南菜","address":"徐汇区复兴西路49弄2号(近乌鲁木齐路)"},{"poiid":"B2094752D764AAFF449A","title":"SPICE BAZAAR／香料集市","lon":"121.44263","lat":"31.210202","category":"247","category_name":"餐饮美食","address":"东平路29号"},{"poiid":"B2094757D06BA6F8419F","title":"河边港式粤菜","lon":"121.443920586","lat":"31.2106350478","category":"72","category_name":"广东菜","address":"徐汇区淮海中路1293号"},{"poiid":"B2094757D16BA4F5499D","title":"新味牛肉面","lon":"121.443720087","lat":"31.2100886758","category":"68","category_name":"快餐厅","address":"徐汇区永福路127号(近复兴西路口)"},{"poiid":"B2094757D06FA7FA4798","title":"城市山民.谷(Urban Tribe·the Valley)","lon":"121.442986","lat":"31.210565","category":"260","category_name":"其他","address":"徐汇区复兴西路133号(近永福路)"},{"poiid":"B2094757D069A4FF499B","title":"德国驻上海总领事馆","lon":"121.44299316","lat":"31.209003448","category":"46","category_name":"楼宇","address":"上海市徐汇区永福路181号"},{"poiid":"B2094655D36CA6FF4292","title":"复兴西路武康路","lon":"121.44177","lat":"31.21073","category":"38","category_name":"公交车站","address":"上海复兴西路武康路"},{"poiid":"B2094654D564A4F9449D","title":"复兴商务","lon":"121.44272","lat":"31.21078","category":"46","category_name":"楼宇","address":"复兴西路100"},{"poiid":"B2094654D564A4F94492","title":"东英专业美容","lon":"121.44263","lat":"31.21078","category":"148","category_name":"美容美发店","address":"复兴西路100号"},{"poiid":"B2094654DB65A1FF429A","title":"上海市徐汇区爱菊小学(安福路)","lon":"121.44236","lat":"31.21359","category":"56","category_name":"小学","address":"徐汇区安福路247号(近武康路)"},{"poiid":"B2094655D268A6FC449A","title":"Bi N74 Wine Room","lon":"121.44328","lat":"31.21078","category":"65","category_name":"咖啡厅","address":"复兴西路72-74"},{"poiid":"B2094757D069A0F84299","title":"Yu Massage","lon":"121.442263023","lat":"31.2119576271","category":"149","category_name":"洗浴推拿场所","address":"五原路370-6-2"},{"poiid":"B2094654DB65A2FE499E","title":"micasa cincept","lon":"121.44358","lat":"31.20976","category":"183","category_name":"展览馆","address":""},{"poiid":"B2094757D06BA4FE479C","title":"安福会","lon":"121.44166458","lat":"31.213478103","category":"94","category_name":"西餐厅","address":"徐汇区安福路284号(近上海市话剧艺术中心)"},{"poiid":"B2094654DB6BA7F54798","title":"伯乐大院","lon":"121.44263","lat":"31.209949","category":"47","category_name":"住宅区","address":"永福路86弄1-6号"},{"poiid":"B2094750D76CA4FE4493","title":"Bikini","lon":"121.444","lat":"31.2115","category":"94","category_name":"西餐厅","address":"徐汇区永福路47号(近复兴路)"},{"poiid":"B2094757D069AAFD429B","title":"上海电影（集团）有限公司","lon":"121.44379425","lat":"31.2114124298","category":"248","category_name":"生活娱乐","address":"上海永福路52号"},{"poiid":"B2094757D46CA7FF4699","title":"1984书店 1984BOOKSTORE","lon":"121.4426","lat":"31.20812","category":"65","category_name":"咖啡厅","address":"湖南路11号近永福路"},{"poiid":"B2094757D16DA4FD499A","title":"天治基金管理有限公司","lon":"121.44253558","lat":"31.210182038","category":"263","category_name":"公司","address":"上海市徐匯區復興西路159號"},{"poiid":"B2094757D66DA5FC499E","title":"上海市发改委培训中心","lon":"121.44206758","lat":"31.20972603","category":"253","category_name":"校园生活","address":"徐汇区武康路103号甲(近上海图书馆)"},{"poiid":"B2094751D36EA4F5409B","title":"Organic Kitchen","lon":"121.44503","lat":"31.21022","category":"94","category_name":"西餐厅","address":"徐汇区复兴西路57号(近永福路)"},{"poiid":"B2094654D564A4F94493","title":"上海和风足部保健休闲苑","lon":"121.44253","lat":"31.21079","category":"149","category_name":"洗浴推拿场所","address":"徐汇区复兴西路100号(近武康路)"},{"poiid":"B2094757D065A0FB449A","title":"Yoga 109","lon":"121.442634583","lat":"31.2107849121","category":"500","category_name":"未知分类","address":"上海复兴西路100号3A"},{"poiid":"B2094757D16AABF9439B","title":"开功Split Works","lon":"121.442686","lat":"31.210682","category":"500","category_name":"未知分类","address":null},{"poiid":"B2094757D069AAFA439A","title":"BIN74","lon":"121.44315982","lat":"31.210790449","category":"260","category_name":"其他","address":"徐汇区复兴西路74号(近乌鲁木齐路)"},{"poiid":"B2094757D168A7F8479A","title":"Bikes &amp; Friends","lon":"121.443068586","lat":"31.2106370478","category":"500","category_name":"未知分类","address":"上海Shanghai 141 Fuxingxi Lu near Yongfu Lu"},{"poiid":"B2094757D16FAAF5449D","title":"永福路47号","lon":"121.44387758","lat":"31.211524065","category":"500","category_name":"未知分类","address":"上海市徐汇区永福路47号"},{"poiid":"B2094757D068AAFE489F","title":"复兴西路","lon":"121.443012","lat":"31.208405","category":"46","category_name":"楼宇","address":"上海永福路"},{"poiid":"B2094655D36DA6FE449F","title":"上海图书馆","lon":"121.44394","lat":"31.20779","category":"181","category_name":"图书馆","address":"徐汇区淮海中路1555号(近高安路)"},{"poiid":"B2094757D06FA2FE429C","title":"The Apartment","lon":"121.44423272","lat":"31.2114678","category":"94","category_name":"西餐厅","address":"徐汇区永福路47号3楼(近复兴西路)"},{"poiid":"B2094753D76FAAFA449C","title":"上海滩国泰旗舰店","lon":"121.466011","lat":"31.216125","category":"249","category_name":"购物服务","address":"淮海中路868号"},{"poiid":"B209475CD564A7F8439E","title":"上海滩中信泰富店","lon":"121.45602","lat":"31.22851","category":"119","category_name":"商场","address":"\"南京西路1168号中信泰富广场，店铺号221.\r\n\""},{"poiid":"B2094757D06EAAF54992","title":"JZ club(爵士俱乐部)","lon":"121.44488035","lat":"31.210675495","category":"172","category_name":"酒吧","address":"徐汇区复兴西路46号(近乌鲁木齐中路)"},{"poiid":"B2094757D06FA1F5479B","title":"El Cóctel","lon":"121.44435072","lat":"31.211305167","category":"260","category_name":"其他","address":"徐汇区永福路47号2楼(近复兴西路)"},{"poiid":"B2094757D06EAAFB429A","title":"1984bookstore","lon":"121.442412","lat":"31.208109","category":"260","category_name":"其他","address":"徐汇区湖南路11号(永福路口)"},{"poiid":"B2094757D069A2F94398","title":"Petite Jasmine 小茉莉西餐厅","lon":"121.440465586","lat":"31.2090540169","category":"94","category_name":"西餐厅","address":"徐汇区武康路214号(近湖南路)"},{"poiid":"B2094654DB69A7FD4193","title":"雍福会","lon":"121.44264","lat":"31.20911","category":"76","category_name":"上海菜","address":"徐汇区永福路200号原英国领事馆(近湖南路)"},{"poiid":"B2094757DA69A3FB4199","title":"上海交响乐团","lon":"121.44194","lat":"31.2083","category":"646","category_name":"文化体育类公司","address":"徐汇区湖南路105号(近武康路)"},{"poiid":"B2094757D16CA0F94492","title":"巴金故居","lon":"121.440725466","lat":"31.209418044","category":"607","category_name":"一般景点","address":"徐汇区武康路113号"},{"poiid":"B2094757D16CA3F44492","title":"Salute","lon":"121.444026586","lat":"31.2107440499","category":"94","category_name":"西餐厅","address":"静安区南京西路1038号梅龙镇伊势丹3楼(近江宁路)"},{"poiid":"B2094757D06FA3FF449D","title":"上海图书馆地铁站","lon":"121.44394","lat":"31.207792","category":"36","category_name":"地铁站","address":"上海轨道交通 十号线 轨交上海图书馆站 10"},{"poiid":"B2094757D169ABF5459E","title":"Bocado","lon":"121.44390058","lat":"31.211565066","category":"94","category_name":"西餐厅","address":"徐汇区永福路47号203(近复兴路)"},{"poiid":"B2094757D66EA0FA489E","title":"NeNe Italian restaurant","lon":"121.443460786","lat":"31.2108263515","category":"94","category_name":"西餐厅","address":"徐汇区永福路47号106室(近复兴路)"},{"poiid":"B2094757D068A2F54493","title":"博爱医院","lon":"121.44417408","lat":"31.208371816","category":"162","category_name":"医院","address":"卢湾区淮海中路1590号(近高安路)"},{"poiid":"B2094757D468AAFD4099","title":"鲁马滋 Rumors Coffee","lon":"121.442311","lat":"31.208188","category":"65","category_name":"咖啡厅","address":"徐汇区湖南路9号甲(近上海图书馆)"},{"poiid":"B2094757D46EABF84198","title":"麦坊威士忌酒吧","lon":"121.44067562392524","lat":"31.208291232965074","category":"94","category_name":"西餐厅","address":"上海市徐汇区湖南路123号(近武康路)"},{"poiid":"B2094752D669A6F8449B","title":"鼎王无老养生锅","lon":"121.444528","lat":"31.209638","category":"500","category_name":"未知分类","address":"衡山路2号甲香樟花园"},{"poiid":"B2094757D56CA2FF419B","title":"Misael酒吧","lon":"121.440953","lat":"31.210136","category":"260","category_name":"其他","address":"徐汇区武康路103号(近复兴西路)"},{"poiid":"B2094757D06AA5FA489A","title":"五原路","lon":"121.44202758","lat":"31.211923073","category":"500","category_name":"未知分类","address":"上海徐汇区五原路"},{"poiid":"B2094757D069A4F8409B","title":"Rhumerie Bounty(永福路店)","lon":"121.44434","lat":"31.21114","category":"260","category_name":"其他","address":"徐汇区永福路47号1楼(近五原路)"},{"poiid":"B2094757D06AA4F84298","title":"Hunan House","lon":"121.445337989","lat":"31.209769788","category":"77","category_name":"湖南菜","address":"徐汇区复兴西路49弄2号(近乌鲁木齐路)"},{"poiid":"B2094752D764AAFF449A","title":"SPICE BAZAAR／香料集市","lon":"121.44263","lat":"31.210202","category":"247","category_name":"餐饮美食","address":"东平路29号"},{"poiid":"B2094757D06BA6F8419F","title":"河边港式粤菜","lon":"121.443920586","lat":"31.2106350478","category":"72","category_name":"广东菜","address":"徐汇区淮海中路1293号"},{"poiid":"B2094757D16BA4F5499D","title":"新味牛肉面","lon":"121.443720087","lat":"31.2100886758","category":"68","category_name":"快餐厅","address":"徐汇区永福路127号(近复兴西路口)"},{"poiid":"B2094757D06FA7FA4798","title":"城市山民.谷(Urban Tribe·the Valley)","lon":"121.442986","lat":"31.210565","category":"260","category_name":"其他","address":"徐汇区复兴西路133号(近永福路)"},{"poiid":"B2094757D069A4FF499B","title":"德国驻上海总领事馆","lon":"121.44299316","lat":"31.209003448","category":"46","category_name":"楼宇","address":"上海市徐汇区永福路181号"},{"poiid":"B2094655D36CA6FF4292","title":"复兴西路武康路","lon":"121.44177","lat":"31.21073","category":"38","category_name":"公交车站","address":"上海复兴西路武康路"},{"poiid":"B2094654D564A4F9449D","title":"复兴商务","lon":"121.44272","lat":"31.21078","category":"46","category_name":"楼宇","address":"复兴西路100"},{"poiid":"B2094654D564A4F94492","title":"东英专业美容","lon":"121.44263","lat":"31.21078","category":"148","category_name":"美容美发店","address":"复兴西路100号"},{"poiid":"B2094654DB65A1FF429A","title":"上海市徐汇区爱菊小学(安福路)","lon":"121.44236","lat":"31.21359","category":"56","category_name":"小学","address":"徐汇区安福路247号(近武康路)"},{"poiid":"B2094655D268A6FC449A","title":"Bi N74 Wine Room","lon":"121.44328","lat":"31.21078","category":"65","category_name":"咖啡厅","address":"复兴西路72-74"},{"poiid":"B2094757D069A0F84299","title":"Yu Massage","lon":"121.442263023","lat":"31.2119576271","category":"149","category_name":"洗浴推拿场所","address":"五原路370-6-2"},{"poiid":"B2094654DB65A2FE499E","title":"micasa cincept","lon":"121.44358","lat":"31.20976","category":"183","category_name":"展览馆","address":""},{"poiid":"B2094757D06BA4FE479C","title":"安福会","lon":"121.44166458","lat":"31.213478103","category":"94","category_name":"西餐厅","address":"徐汇区安福路284号(近上海市话剧艺术中心)"},{"poiid":"B2094654DB6BA7F54798","title":"伯乐大院","lon":"121.44263","lat":"31.209949","category":"47","category_name":"住宅区","address":"永福路86弄1-6号"},{"poiid":"B2094750D76CA4FE4493","title":"Bikini","lon":"121.444","lat":"31.2115","category":"94","category_name":"西餐厅","address":"徐汇区永福路47号(近复兴路)"},{"poiid":"B2094757D069AAFD429B","title":"上海电影（集团）有限公司","lon":"121.44379425","lat":"31.2114124298","category":"248","category_name":"生活娱乐","address":"上海永福路52号"},{"poiid":"B2094757D46CA7FF4699","title":"1984书店 1984BOOKSTORE","lon":"121.4426","lat":"31.20812","category":"65","category_name":"咖啡厅","address":"湖南路11号近永福路"},{"poiid":"B2094757D16DA4FD499A","title":"天治基金管理有限公司","lon":"121.44253558","lat":"31.210182038","category":"263","category_name":"公司","address":"上海市徐匯區復興西路159號"},{"poiid":"B2094757D66DA5FC499E","title":"上海市发改委培训中心","lon":"121.44206758","lat":"31.20972603","category":"253","category_name":"校园生活","address":"徐汇区武康路103号甲(近上海图书馆)"},{"poiid":"B2094751D36EA4F5409B","title":"Organic Kitchen","lon":"121.44503","lat":"31.21022","category":"94","category_name":"西餐厅","address":"徐汇区复兴西路57号(近永福路)"},{"poiid":"B2094654D564A4F94493","title":"上海和风足部保健休闲苑","lon":"121.44253","lat":"31.21079","category":"149","category_name":"洗浴推拿场所","address":"徐汇区复兴西路100号(近武康路)"},{"poiid":"B2094757D065A0FB449A","title":"Yoga 109","lon":"121.442634583","lat":"31.2107849121","category":"500","category_name":"未知分类","address":"上海复兴西路100号3A"},{"poiid":"B2094757D16AABF9439B","title":"开功Split Works","lon":"121.442686","lat":"31.210682","category":"500","category_name":"未知分类","address":null},{"poiid":"B2094757D069AAFA439A","title":"BIN74","lon":"121.44315982","lat":"31.210790449","category":"260","category_name":"其他","address":"徐汇区复兴西路74号(近乌鲁木齐路)"},{"poiid":"B2094757D168A7F8479A","title":"Bikes &amp; Friends","lon":"121.443068586","lat":"31.2106370478","category":"500","category_name":"未知分类","address":"上海Shanghai 141 Fuxingxi Lu near Yongfu Lu"},{"poiid":"B2094757D16FAAF5449D","title":"永福路47号","lon":"121.44387758","lat":"31.211524065","category":"500","category_name":"未知分类","address":"上海市徐汇区永福路47号"},{"poiid":"B2094757D068AAFE489F","title":"复兴西路","lon":"121.443012","lat":"31.208405","category":"46","category_name":"楼宇","address":"上海永福路"},{"poiid":"B2094655D36DA6FE449F","title":"上海图书馆","lon":"121.44394","lat":"31.20779","category":"181","category_name":"图书馆","address":"徐汇区淮海中路1555号(近高安路)"},{"poiid":"B2094757D06FA2FE429C","title":"The Apartment","lon":"121.44423272","lat":"31.2114678","category":"94","category_name":"西餐厅","address":"徐汇区永福路47号3楼(近复兴西路)"},{"poiid":"B2094753D76FAAFA449C","title":"上海滩国泰旗舰店","lon":"121.466011","lat":"31.216125","category":"249","category_name":"购物服务","address":"淮海中路868号"},{"poiid":"B209475CD564A7F8439E","title":"上海滩中信泰富店","lon":"121.45602","lat":"31.22851","category":"119","category_name":"商场","address":"\"南京西路1168号中信泰富广场，店铺号221.\r\n\""},{"poiid":"B2094757D06EAAF54992","title":"JZ club(爵士俱乐部)","lon":"121.44488035","lat":"31.210675495","category":"172","category_name":"酒吧","address":"徐汇区复兴西路46号(近乌鲁木齐中路)"},{"poiid":"B2094757D06FA1F5479B","title":"El Cóctel","lon":"121.44435072","lat":"31.211305167","category":"260","category_name":"其他","address":"徐汇区永福路47号2楼(近复兴西路)"},{"poiid":"B2094757D06EAAFB429A","title":"1984bookstore","lon":"121.442412","lat":"31.208109","category":"260","category_name":"其他","address":"徐汇区湖南路11号(永福路口)"},{"poiid":"B2094757D069A2F94398","title":"Petite Jasmine 小茉莉西餐厅","lon":"121.440465586","lat":"31.2090540169","category":"94","category_name":"西餐厅","address":"徐汇区武康路214号(近湖南路)"},{"poiid":"B2094654DB69A7FD4193","title":"雍福会","lon":"121.44264","lat":"31.20911","category":"76","category_name":"上海菜","address":"徐汇区永福路200号原英国领事馆(近湖南路)"},{"poiid":"B2094757DA69A3FB4199","title":"上海交响乐团","lon":"121.44194","lat":"31.2083","category":"646","category_name":"文化体育类公司","address":"徐汇区湖南路105号(近武康路)"},{"poiid":"B2094757D16CA0F94492","title":"巴金故居","lon":"121.440725466","lat":"31.209418044","category":"607","category_name":"一般景点","address":"徐汇区武康路113号"},{"poiid":"B2094757D16CA3F44492","title":"Salute","lon":"121.444026586","lat":"31.2107440499","category":"94","category_name":"西餐厅","address":"静安区南京西路1038号梅龙镇伊势丹3楼(近江宁路)"},{"poiid":"B2094757D06FA3FF449D","title":"上海图书馆地铁站","lon":"121.44394","lat":"31.207792","category":"36","category_name":"地铁站","address":"上海轨道交通 十号线 轨交上海图书馆站 10"},{"poiid":"B2094757D169ABF5459E","title":"Bocado","lon":"121.44390058","lat":"31.211565066","category":"94","category_name":"西餐厅","address":"徐汇区永福路47号203(近复兴路)"},{"poiid":"B2094757D66EA0FA489E","title":"NeNe Italian restaurant","lon":"121.443460786","lat":"31.2108263515","category":"94","category_name":"西餐厅","address":"徐汇区永福路47号106室(近复兴路)"},{"poiid":"B2094757D068A2F54493","title":"博爱医院","lon":"121.44417408","lat":"31.208371816","category":"162","category_name":"医院","address":"卢湾区淮海中路1590号(近高安路)"},{"poiid":"B2094757D468AAFD4099","title":"鲁马滋 Rumors Coffee","lon":"121.442311","lat":"31.208188","category":"65","category_name":"咖啡厅","address":"徐汇区湖南路9号甲(近上海图书馆)"},{"poiid":"B2094757D46EABF84198","title":"麦坊威士忌酒吧","lon":"121.44067562392524","lat":"31.208291232965074","category":"94","category_name":"西餐厅","address":"上海市徐汇区湖南路123号(近武康路)"},{"poiid":"B2094752D669A6F8449B","title":"鼎王无老养生锅","lon":"121.444528","lat":"31.209638","category":"500","category_name":"未知分类","address":"衡山路2号甲香樟花园"},{"poiid":"B2094757D56CA2FF419B","title":"Misael酒吧","lon":"121.440953","lat":"31.210136","category":"260","category_name":"其他","address":"徐汇区武康路103号(近复兴西路)"},{"poiid":"B2094757D06AA5FA489A","title":"五原路","lon":"121.44202758","lat":"31.211923073","category":"500","category_name":"未知分类","address":"上海徐汇区五原路"},{"poiid":"B2094757D069A4F8409B","title":"Rhumerie Bounty(永福路店)","lon":"121.44434","lat":"31.21114","category":"260","category_name":"其他","address":"徐汇区永福路47号1楼(近五原路)"},{"poiid":"B2094757D06AA4F84298","title":"Hunan House","lon":"121.445337989","lat":"31.209769788","category":"77","category_name":"湖南菜","address":"徐汇区复兴西路49弄2号(近乌鲁木齐路)"},{"poiid":"B2094752D764AAFF449A","title":"SPICE BAZAAR／香料集市","lon":"121.44263","lat":"31.210202","category":"247","category_name":"餐饮美食","address":"东平路29号"},{"poiid":"B2094757D06BA6F8419F","title":"河边港式粤菜","lon":"121.443920586","lat":"31.2106350478","category":"72","category_name":"广东菜","address":"徐汇区淮海中路1293号"},{"poiid":"B2094757D16BA4F5499D","title":"新味牛肉面","lon":"121.443720087","lat":"31.2100886758","category":"68","category_name":"快餐厅","address":"徐汇区永福路127号(近复兴西路口)"},{"poiid":"B2094757D06FA7FA4798","title":"城市山民.谷(Urban Tribe·the Valley)","lon":"121.442986","lat":"31.210565","category":"260","category_name":"其他","address":"徐汇区复兴西路133号(近永福路)"},{"poiid":"B2094757D069A4FF499B","title":"德国驻上海总领事馆","lon":"121.44299316","lat":"31.209003448","category":"46","category_name":"楼宇","address":"上海市徐汇区永福路181号"},{"poiid":"B2094655D36CA6FF4292","title":"复兴西路武康路","lon":"121.44177","lat":"31.21073","category":"38","category_name":"公交车站","address":"上海复兴西路武康路"},{"poiid":"B2094654D564A4F9449D","title":"复兴商务","lon":"121.44272","lat":"31.21078","category":"46","category_name":"楼宇","address":"复兴西路100"},{"poiid":"B2094654D564A4F94492","title":"东英专业美容","lon":"121.44263","lat":"31.21078","category":"148","category_name":"美容美发店","address":"复兴西路100号"},{"poiid":"B2094654DB65A1FF429A","title":"上海市徐汇区爱菊小学(安福路)","lon":"121.44236","lat":"31.21359","category":"56","category_name":"小学","address":"徐汇区安福路247号(近武康路)"},{"poiid":"B2094655D268A6FC449A","title":"Bi N74 Wine Room","lon":"121.44328","lat":"31.21078","category":"65","category_name":"咖啡厅","address":"复兴西路72-74"},{"poiid":"B2094757D069A0F84299","title":"Yu Massage","lon":"121.442263023","lat":"31.2119576271","category":"149","category_name":"洗浴推拿场所","address":"五原路370-6-2"},{"poiid":"B2094654DB65A2FE499E","title":"micasa cincept","lon":"121.44358","lat":"31.20976","category":"183","category_name":"展览馆","address":""},{"poiid":"B2094757D06BA4FE479C","title":"安福会","lon":"121.44166458","lat":"31.213478103","category":"94","category_name":"西餐厅","address":"徐汇区安福路284号(近上海市话剧艺术中心)"},{"poiid":"B2094654DB6BA7F54798","title":"伯乐大院","lon":"121.44263","lat":"31.209949","category":"47","category_name":"住宅区","address":"永福路86弄1-6号"},{"poiid":"B2094750D76CA4FE4493","title":"Bikini","lon":"121.444","lat":"31.2115","category":"94","category_name":"西餐厅","address":"徐汇区永福路47号(近复兴路)"},{"poiid":"B2094757D069AAFD429B","title":"上海电影（集团）有限公司","lon":"121.44379425","lat":"31.2114124298","category":"248","category_name":"生活娱乐","address":"上海永福路52号"},{"poiid":"B2094757D46CA7FF4699","title":"1984书店 1984BOOKSTORE","lon":"121.4426","lat":"31.20812","category":"65","category_name":"咖啡厅","address":"湖南路11号近永福路"},{"poiid":"B2094757D16DA4FD499A","title":"天治基金管理有限公司","lon":"121.44253558","lat":"31.210182038","category":"263","category_name":"公司","address":"上海市徐匯區復興西路159號"},{"poiid":"B2094757D66DA5FC499E","title":"上海市发改委培训中心","lon":"121.44206758","lat":"31.20972603","category":"253","category_name":"校园生活","address":"徐汇区武康路103号甲(近上海图书馆)"},{"poiid":"B2094751D36EA4F5409B","title":"Organic Kitchen","lon":"121.44503","lat":"31.21022","category":"94","category_name":"西餐厅","address":"徐汇区复兴西路57号(近永福路)"},{"poiid":"B2094654D564A4F94493","title":"上海和风足部保健休闲苑","lon":"121.44253","lat":"31.21079","category":"149","category_name":"洗浴推拿场所","address":"徐汇区复兴西路100号(近武康路)"},{"poiid":"B2094757D065A0FB449A","title":"Yoga 109","lon":"121.442634583","lat":"31.2107849121","category":"500","category_name":"未知分类","address":"上海复兴西路100号3A"},{"poiid":"B2094757D16AABF9439B","title":"开功Split Works","lon":"121.442686","lat":"31.210682","category":"500","category_name":"未知分类","address":null},{"poiid":"B2094757D069AAFA439A","title":"BIN74","lon":"121.44315982","lat":"31.210790449","category":"260","category_name":"其他","address":"徐汇区复兴西路74号(近乌鲁木齐路)"},{"poiid":"B2094757D168A7F8479A","title":"Bikes &amp; Friends","lon":"121.443068586","lat":"31.2106370478","category":"500","category_name":"未知分类","address":"上海Shanghai 141 Fuxingxi Lu near Yongfu Lu"},{"poiid":"B2094757D16FAAF5449D","title":"永福路47号","lon":"121.44387758","lat":"31.211524065","category":"500","category_name":"未知分类","address":"上海市徐汇区永福路47号"}]