[{"poiid":"B2094757D06EAAF5479B","title":"星巴克(漕宝店)","lon":"121.3770909","lat":"31.157744","category":"65","category_name":"咖啡厅","address":"闵行区虹莘路2988号漕宝购物中心内"},{"poiid":"B2094751D36BA4FE4599","title":"韩太沐浴休闲会馆","lon":"121.373333","lat":"31.169284","category":"248","category_name":"生活娱乐","address":"闵行区虹泉路1078号井亭生活大厦西座2-4楼(近金汇南路)"},{"poiid":"B2094654DA65A3FB4498","title":"诺宝中心","lon":"121.379","lat":"31.1637","category":"71","category_name":"四川菜","address":"闵行区漕宝路1688号诺宝中心大酒店2楼(漕宝路星东路)"},{"poiid":"B2094757D064A5F44698","title":"多乐房土豆排骨汤","lon":"121.375566586","lat":"31.1692222386","category":"247","category_name":"餐饮美食","address":"上海市吴中路"},{"poiid":"B2094757D06AA3FB4693","title":"The coffee bean","lon":"121.37340458","lat":"31.169405242","category":"65","category_name":"咖啡厅","address":"闵行区虹泉路1078号井亭天地1楼05单元(近虹莘路)"},{"poiid":"B2094757D06FA1FB4299","title":"星中路地铁站","lon":"121.368422","lat":"31.158064","category":"36","category_name":"地铁站","address":"上海轨道交通 九号线 轨交星中路站 9"},{"poiid":"B2094757D66BA5FE4298","title":"明洞刀面","lon":"121.373493054","lat":"31.169683793","category":"96","category_name":"韩国料理","address":"闵行区虹泉路1051弄209号2楼(近金汇南路)"},{"poiid":"B2094757D66AAAF8469F","title":"麻浦屋 虹泉路店","lon":"121.373747054","lat":"31.169760793","category":"96","category_name":"韩国料理","address":"闵行区虹泉路1051弄209号2楼(近金汇路)"},{"poiid":"B2094752DA64A3FA489F","title":"炭韩国烧烤","lon":"121.37347","lat":"31.169216","category":"247","category_name":"餐饮美食","address":"上海市 虹泉路1101号"},{"poiid":"B2094757D06FA0F4449D","title":"大上海国际花园","lon":"121.37775","lat":"31.159109","category":"47","category_name":"住宅区","address":"漕宝路1555号"},{"poiid":"B2094753D768A5FA489B","title":"Caffe Bene","lon":"121.373741","lat":"31.169282","category":"500","category_name":"未知分类","address":"上海市 闵行区虹泉路1051弄43号"},{"poiid":"B2094757D465ABFA449A","title":"沪华海鲜大酒店","lon":"121.37256","lat":"31.1585","category":"76","category_name":"上海菜","address":"闵行区漕宝路1687号(近星中路)"},{"poiid":"B2094757DA65A7F84593","title":"炭","lon":"121.37090504","lat":"31.16090053999999","category":"247","category_name":"餐饮美食","address":"虹泉路1101弄7号(近虹莘路)"},{"poiid":"B2094757D168A2F8489C","title":"맛집바우바우 巴屋巴屋韩国料理","lon":"121.37475858","lat":"31.168861231","category":"247","category_name":"餐饮美食","address":"闵行区虹泉路1051-17-1(近虹莘路)"},{"poiid":"B209475DD26FA5FC459E","title":"富乐满韩式烤鸡","lon":"121.373008","lat":"31.169853","category":"247","category_name":"餐饮美食","address":"上海市 虹泉路1051弄风度国际内"},{"poiid":"B2094750D668AAFB4699","title":"上海歌城(漕虹店)","lon":"121.379295","lat":"31.158855","category":"170","category_name":"KTV","address":"闵行区虹莘路2968弄39号4楼(近易买得)"},{"poiid":"B2094757D06AA3F9419C","title":"江南公社","lon":"121.37763758","lat":"31.157779015","category":"77","category_name":"湖南菜","address":"闵行区漕宝路1539号大上海国际花园旁(近虹莘路)"},{"poiid":"B2094655D36CA7F84399","title":"虹泉路","lon":"121.37308","lat":"31.16938","category":"38","category_name":"公交车站","address":""},{"poiid":"B2094757D065AAF84592","title":"颖尚精菜坊","lon":"121.367322586","lat":"31.1647771518","category":"76","category_name":"上海菜","address":"闵行区虹秀路51号(虹泉路西)"},{"poiid":"B2094757D06BA7FC429C","title":"S20外环线漕宝路出口","lon":"121.367194586","lat":"31.158640732","category":"500","category_name":"未知分类","address":"上海漕宝路"},{"poiid":"B2094752D269A2F84292","title":"碳韩国烧烤","lon":"121.373905","lat":"31.16951","category":"247","category_name":"餐饮美食","address":"虹泉路1101弄7号"},{"poiid":"B2094654D569A5FC4592","title":"巴黎贝甜(虹泉路)","lon":"121.37406","lat":"31.16944","category":"67","category_name":"甜品店","address":"闵行区虹泉路1051号9号(近金汇路)"},{"poiid":"B2094751D36CA2F4429C","title":"Bulloman","lon":"121.37456","lat":"31.16981","category":"96","category_name":"韩国料理","address":"闵行区虹泉路1051弄风度国际内(近金汇南路)"},{"poiid":"B2094757D068A2FD4793","title":"DQ冰雪皇后 漕宝路店 Dairy Queen","lon":"121.37609","lat":"31.15785","category":"113","category_name":"冷饮店","address":"闵行区漕宝路1574号漕宝购物中心(漕宝路虹莘路)"},{"poiid":"B2094757D06AA0FE479D","title":"上海帝璟丽致大酒店","lon":"121.372522","lat":"31.169537","category":"217","category_name":"旅馆招待所","address":"上海市闵行区虹莘路3988号(近吴中路)"},{"poiid":"B209475CD469A1FE439D","title":"喜来稀肉","lon":"121.372673","lat":"31.169401","category":"500","category_name":"未知分类","address":"上海市 虹泉路1101弄10号so"},{"poiid":"B2094751D369A5F94793","title":"MARINEBLUES TOWN","lon":"121.37323","lat":"31.16941","category":"247","category_name":"餐饮美食","address":"闵行区虹泉路1051弄35号(近虹莘路)"},{"poiid":"B2094757D065A3FA489C","title":"菌道——菌菇火锅料理","lon":"121.377247815","lat":"31.1583192476","category":"86","category_name":"火锅店","address":"闵行区漕宝路1539号宝秀美食广场1楼(大上海国际花园旁)"},{"poiid":"B2094655D268A1FE479D","title":"上海市公用事业学校漕宝校区(西门)","lon":"121.37012","lat":"31.16177","category":"678","category_name":"学校大门","address":""},{"poiid":"B2094757D068A6F94292","title":"嘉义喷水火鸡肉饭(虹莘路店)","lon":"121.37291","lat":"31.16713","category":"91","category_name":"台湾菜","address":"闵行区虹莘路3787号(近吴中路)"},{"poiid":"B2094757D06AA6F9409C","title":"煮师妙台菜料理","lon":"121.37347555139","lat":"31.163844079776","category":"91","category_name":"台湾菜","address":"闵行区虹莘路3579号-2(近漕宝路)"},{"poiid":"B2094654D569A6F8429D","title":"潭阳烤烧","lon":"121.37226","lat":"31.16779","category":"87","category_name":"特色／地方风味餐厅","address":"闵行区虹莘路3811号(近吴中路)"},{"poiid":"B2094757D064A5FD4498","title":"爱乐游(漕宝购物中心店)","lon":"121.37506158","lat":"31.159373046","category":"500","category_name":"未知分类","address":"上海市闵行区漕宝路漕宝购物中心3F"},{"poiid":"B2094654DB65A1FB459E","title":"青瓦楼","lon":"121.3738","lat":"31.16461","category":"96","category_name":"韩国料理","address":"闵行区虹莘路3579号"},{"poiid":"B2094757D069A2FB429A","title":"味千拉面","lon":"121.37803056","lat":"31.157752234","category":"95","category_name":"日本料理","address":"闵行区漕宝路1574号漕宝购物中心2楼2001店铺"},{"poiid":"B2094654D569A5FC449C","title":"风度国际生活广场","lon":"121.37363","lat":"31.16901","category":"201","category_name":"城市广场","address":"虹桥镇"},{"poiid":"B2094753D764AAFB469B","title":"caffebene","lon":"121.373985","lat":"31.169582","category":"500","category_name":"未知分类","address":"上海市 虹泉路1051弄43号"},{"poiid":"B209475CD36FA2FD439D","title":"马布城  MARINEBLUES TOWN","lon":"121.37437","lat":"31.16904","category":"172","category_name":"酒吧","address":"虹泉路1051弄35号(近虹莘路)"},{"poiid":"B2094757DB68A4F54692","title":"上海歌城","lon":"121.37208861","lat":"31.15523277999998","category":"170","category_name":"KTV","address":"漕宝路"},{"poiid":"B2094750DB6DA1F54893","title":"上海歌城","lon":"121.37030315","lat":"31.16022074","category":"170","category_name":"KTV","address":"漕宝路1550号"},{"poiid":"B209475DD468AAFB4098","title":"崔家木炭烤肉","lon":"121.373924","lat":"31.169084","category":"247","category_name":"餐饮美食","address":"上海市 虹泉路1078号东2楼（近虹莘路）"},{"poiid":"B2094655D268A1FE479C","title":"上海市公用事业学校漕宝校区","lon":"121.3706","lat":"31.16182","category":"54","category_name":"职业技术学校","address":""},{"poiid":"B2094757D66CA6FF4892","title":"tamati","lon":"121.373498586","lat":"31.169600246","category":"94","category_name":"西餐厅","address":"闵行区虹泉路1078号1楼(近金汇南路)"},{"poiid":"B2094654D569A5FC479B","title":"富家","lon":"121.37237","lat":"31.16969","category":"96","category_name":"韩国料理","address":"闵行区虹莘路3988号帝憬丽致大酒店1楼(近吴中路)"},{"poiid":"B2094757D16CA5FA4292","title":"桐春金农庄","lon":"121.37724058","lat":"31.159310045","category":"87","category_name":"特色／地方风味餐厅","address":"闵行区漕宝路1539号(虹莘路)"},{"poiid":"B2094757D169A3FC459B","title":"九星市场","lon":"121.37508558","lat":"31.159269044","category":"217","category_name":"旅馆招待所","address":"上海九星路二区"},{"poiid":"B2094654DA65A3F8469E","title":"亦园别墅","lon":"121.37529","lat":"31.16412","category":"47","category_name":"住宅区","address":"上海虹莘路3500弄"},{"poiid":"B2094654DB64A2FF469E","title":"红明二村","lon":"121.37373","lat":"31.162861","category":"47","category_name":"住宅区","address":"虹莘路3553弄"},{"poiid":"B2094655D265A3F94198","title":"上海天安豪园一期","lon":"121.37185","lat":"31.15914","category":"47","category_name":"住宅区","address":""},{"poiid":"B2094757D16EAAFA4193","title":"华宝宴会楼","lon":"121.37703","lat":"31.15719","category":"76","category_name":"上海菜","address":"闵行区虹莘路3079号(漕宝路口)"},{"poiid":"B2094757D06EAAF5479B","title":"星巴克(漕宝店)","lon":"121.3770909","lat":"31.157744","category":"65","category_name":"咖啡厅","address":"闵行区虹莘路2988号漕宝购物中心内"},{"poiid":"B2094751D36BA4FE4599","title":"韩太沐浴休闲会馆","lon":"121.373333","lat":"31.169284","category":"248","category_name":"生活娱乐","address":"闵行区虹泉路1078号井亭生活大厦西座2-4楼(近金汇南路)"},{"poiid":"B2094654DA65A3FB4498","title":"诺宝中心","lon":"121.379","lat":"31.1637","category":"71","category_name":"四川菜","address":"闵行区漕宝路1688号诺宝中心大酒店2楼(漕宝路星东路)"},{"poiid":"B2094757D064A5F44698","title":"多乐房土豆排骨汤","lon":"121.375566586","lat":"31.1692222386","category":"247","category_name":"餐饮美食","address":"上海市吴中路"},{"poiid":"B2094757D06AA3FB4693","title":"The coffee bean","lon":"121.37340458","lat":"31.169405242","category":"65","category_name":"咖啡厅","address":"闵行区虹泉路1078号井亭天地1楼05单元(近虹莘路)"},{"poiid":"B2094757D06FA1FB4299","title":"星中路地铁站","lon":"121.368422","lat":"31.158064","category":"36","category_name":"地铁站","address":"上海轨道交通 九号线 轨交星中路站 9"},{"poiid":"B2094757D66BA5FE4298","title":"明洞刀面","lon":"121.373493054","lat":"31.169683793","category":"96","category_name":"韩国料理","address":"闵行区虹泉路1051弄209号2楼(近金汇南路)"},{"poiid":"B2094757D66AAAF8469F","title":"麻浦屋 虹泉路店","lon":"121.373747054","lat":"31.169760793","category":"96","category_name":"韩国料理","address":"闵行区虹泉路1051弄209号2楼(近金汇路)"},{"poiid":"B2094752DA64A3FA489F","title":"炭韩国烧烤","lon":"121.37347","lat":"31.169216","category":"247","category_name":"餐饮美食","address":"上海市 虹泉路1101号"},{"poiid":"B2094757D06FA0F4449D","title":"大上海国际花园","lon":"121.37775","lat":"31.159109","category":"47","category_name":"住宅区","address":"漕宝路1555号"},{"poiid":"B2094753D768A5FA489B","title":"Caffe Bene","lon":"121.373741","lat":"31.169282","category":"500","category_name":"未知分类","address":"上海市 闵行区虹泉路1051弄43号"},{"poiid":"B2094757D465ABFA449A","title":"沪华海鲜大酒店","lon":"121.37256","lat":"31.1585","category":"76","category_name":"上海菜","address":"闵行区漕宝路1687号(近星中路)"},{"poiid":"B2094757DA65A7F84593","title":"炭","lon":"121.37090504","lat":"31.16090053999999","category":"247","category_name":"餐饮美食","address":"虹泉路1101弄7号(近虹莘路)"},{"poiid":"B2094757D168A2F8489C","title":"맛집바우바우 巴屋巴屋韩国料理","lon":"121.37475858","lat":"31.168861231","category":"247","category_name":"餐饮美食","address":"闵行区虹泉路1051-17-1(近虹莘路)"},{"poiid":"B209475DD26FA5FC459E","title":"富乐满韩式烤鸡","lon":"121.373008","lat":"31.169853","category":"247","category_name":"餐饮美食","address":"上海市 虹泉路1051弄风度国际内"},{"poiid":"B2094750D668AAFB4699","title":"上海歌城(漕虹店)","lon":"121.379295","lat":"31.158855","category":"170","category_name":"KTV","address":"闵行区虹莘路2968弄39号4楼(近易买得)"},{"poiid":"B2094757D06AA3F9419C","title":"江南公社","lon":"121.37763758","lat":"31.157779015","category":"77","category_name":"湖南菜","address":"闵行区漕宝路1539号大上海国际花园旁(近虹莘路)"},{"poiid":"B2094655D36CA7F84399","title":"虹泉路","lon":"121.37308","lat":"31.16938","category":"38","category_name":"公交车站","address":""},{"poiid":"B2094757D065AAF84592","title":"颖尚精菜坊","lon":"121.367322586","lat":"31.1647771518","category":"76","category_name":"上海菜","address":"闵行区虹秀路51号(虹泉路西)"},{"poiid":"B2094757D06BA7FC429C","title":"S20外环线漕宝路出口","lon":"121.367194586","lat":"31.158640732","category":"500","category_name":"未知分类","address":"上海漕宝路"},{"poiid":"B2094752D269A2F84292","title":"碳韩国烧烤","lon":"121.373905","lat":"31.16951","category":"247","category_name":"餐饮美食","address":"虹泉路1101弄7号"},{"poiid":"B2094654D569A5FC4592","title":"巴黎贝甜(虹泉路)","lon":"121.37406","lat":"31.16944","category":"67","category_name":"甜品店","address":"闵行区虹泉路1051号9号(近金汇路)"},{"poiid":"B2094751D36CA2F4429C","title":"Bulloman","lon":"121.37456","lat":"31.16981","category":"96","category_name":"韩国料理","address":"闵行区虹泉路1051弄风度国际内(近金汇南路)"},{"poiid":"B2094757D068A2FD4793","title":"DQ冰雪皇后 漕宝路店 Dairy Queen","lon":"121.37609","lat":"31.15785","category":"113","category_name":"冷饮店","address":"闵行区漕宝路1574号漕宝购物中心(漕宝路虹莘路)"},{"poiid":"B2094757D06AA0FE479D","title":"上海帝璟丽致大酒店","lon":"121.372522","lat":"31.169537","category":"217","category_name":"旅馆招待所","address":"上海市闵行区虹莘路3988号(近吴中路)"},{"poiid":"B209475CD469A1FE439D","title":"喜来稀肉","lon":"121.372673","lat":"31.169401","category":"500","category_name":"未知分类","address":"上海市 虹泉路1101弄10号so"},{"poiid":"B2094751D369A5F94793","title":"MARINEBLUES TOWN","lon":"121.37323","lat":"31.16941","category":"247","category_name":"餐饮美食","address":"闵行区虹泉路1051弄35号(近虹莘路)"},{"poiid":"B2094757D065A3FA489C","title":"菌道——菌菇火锅料理","lon":"121.377247815","lat":"31.1583192476","category":"86","category_name":"火锅店","address":"闵行区漕宝路1539号宝秀美食广场1楼(大上海国际花园旁)"},{"poiid":"B2094655D268A1FE479D","title":"上海市公用事业学校漕宝校区(西门)","lon":"121.37012","lat":"31.16177","category":"678","category_name":"学校大门","address":""},{"poiid":"B2094757D068A6F94292","title":"嘉义喷水火鸡肉饭(虹莘路店)","lon":"121.37291","lat":"31.16713","category":"91","category_name":"台湾菜","address":"闵行区虹莘路3787号(近吴中路)"},{"poiid":"B2094757D06AA6F9409C","title":"煮师妙台菜料理","lon":"121.37347555139","lat":"31.163844079776","category":"91","category_name":"台湾菜","address":"闵行区虹莘路3579号-2(近漕宝路)"},{"poiid":"B2094654D569A6F8429D","title":"潭阳烤烧","lon":"121.37226","lat":"31.16779","category":"87","category_name":"特色／地方风味餐厅","address":"闵行区虹莘路3811号(近吴中路)"},{"poiid":"B2094757D064A5FD4498","title":"爱乐游(漕宝购物中心店)","lon":"121.37506158","lat":"31.159373046","category":"500","category_name":"未知分类","address":"上海市闵行区漕宝路漕宝购物中心3F"},{"poiid":"B2094654DB65A1FB459E","title":"青瓦楼","lon":"121.3738","lat":"31.16461","category":"96","category_name":"韩国料理","address":"闵行区虹莘路3579号"},{"poiid":"B2094757D069A2FB429A","title":"味千拉面","lon":"121.37803056","lat":"31.157752234","category":"95","category_name":"日本料理","address":"闵行区漕宝路1574号漕宝购物中心2楼2001店铺"},{"poiid":"B2094654D569A5FC449C","title":"风度国际生活广场","lon":"121.37363","lat":"31.16901","category":"201","category_name":"城市广场","address":"虹桥镇"},{"poiid":"B2094753D764AAFB469B","title":"caffebene","lon":"121.373985","lat":"31.169582","category":"500","category_name":"未知分类","address":"上海市 虹泉路1051弄43号"},{"poiid":"B209475CD36FA2FD439D","title":"马布城  MARINEBLUES TOWN","lon":"121.37437","lat":"31.16904","category":"172","category_name":"酒吧","address":"虹泉路1051弄35号(近虹莘路)"},{"poiid":"B2094757DB68A4F54692","title":"上海歌城","lon":"121.37208861","lat":"31.15523277999998","category":"170","category_name":"KTV","address":"漕宝路"},{"poiid":"B2094750DB6DA1F54893","title":"上海歌城","lon":"121.37030315","lat":"31.16022074","category":"170","category_name":"KTV","address":"漕宝路1550号"},{"poiid":"B209475DD468AAFB4098","title":"崔家木炭烤肉","lon":"121.373924","lat":"31.169084","category":"247","category_name":"餐饮美食","address":"上海市 虹泉路1078号东2楼（近虹莘路）"},{"poiid":"B2094655D268A1FE479C","title":"上海市公用事业学校漕宝校区","lon":"121.3706","lat":"31.16182","category":"54","category_name":"职业技术学校","address":""},{"poiid":"B2094757D66CA6FF4892","title":"tamati","lon":"121.373498586","lat":"31.169600246","category":"94","category_name":"西餐厅","address":"闵行区虹泉路1078号1楼(近金汇南路)"},{"poiid":"B2094654D569A5FC479B","title":"富家","lon":"121.37237","lat":"31.16969","category":"96","category_name":"韩国料理","address":"闵行区虹莘路3988号帝憬丽致大酒店1楼(近吴中路)"},{"poiid":"B2094757D16CA5FA4292","title":"桐春金农庄","lon":"121.37724058","lat":"31.159310045","category":"87","category_name":"特色／地方风味餐厅","address":"闵行区漕宝路1539号(虹莘路)"},{"poiid":"B2094757D169A3FC459B","title":"九星市场","lon":"121.37508558","lat":"31.159269044","category":"217","category_name":"旅馆招待所","address":"上海九星路二区"},{"poiid":"B2094654DA65A3F8469E","title":"亦园别墅","lon":"121.37529","lat":"31.16412","category":"47","category_name":"住宅区","address":"上海虹莘路3500弄"},{"poiid":"B2094654DB64A2FF469E","title":"红明二村","lon":"121.37373","lat":"31.162861","category":"47","category_name":"住宅区","address":"虹莘路3553弄"},{"poiid":"B2094655D265A3F94198","title":"上海天安豪园一期","lon":"121.37185","lat":"31.15914","category":"47","category_name":"住宅区","address":""},{"poiid":"B2094757D16EAAFA4193","title":"华宝宴会楼","lon":"121.37703","lat":"31.15719","category":"76","category_name":"上海菜","address":"闵行区虹莘路3079号(漕宝路口)"},{"poiid":"B2094757D06EAAF5479B","title":"星巴克(漕宝店)","lon":"121.3770909","lat":"31.157744","category":"65","category_name":"咖啡厅","address":"闵行区虹莘路2988号漕宝购物中心内"},{"poiid":"B2094751D36BA4FE4599","title":"韩太沐浴休闲会馆","lon":"121.373333","lat":"31.169284","category":"248","category_name":"生活娱乐","address":"闵行区虹泉路1078号井亭生活大厦西座2-4楼(近金汇南路)"},{"poiid":"B2094654DA65A3FB4498","title":"诺宝中心","lon":"121.379","lat":"31.1637","category":"71","category_name":"四川菜","address":"闵行区漕宝路1688号诺宝中心大酒店2楼(漕宝路星东路)"},{"poiid":"B2094757D064A5F44698","title":"多乐房土豆排骨汤","lon":"121.375566586","lat":"31.1692222386","category":"247","category_name":"餐饮美食","address":"上海市吴中路"},{"poiid":"B2094757D06AA3FB4693","title":"The coffee bean","lon":"121.37340458","lat":"31.169405242","category":"65","category_name":"咖啡厅","address":"闵行区虹泉路1078号井亭天地1楼05单元(近虹莘路)"},{"poiid":"B2094757D06FA1FB4299","title":"星中路地铁站","lon":"121.368422","lat":"31.158064","category":"36","category_name":"地铁站","address":"上海轨道交通 九号线 轨交星中路站 9"},{"poiid":"B2094757D66BA5FE4298","title":"明洞刀面","lon":"121.373493054","lat":"31.169683793","category":"96","category_name":"韩国料理","address":"闵行区虹泉路1051弄209号2楼(近金汇南路)"},{"poiid":"B2094757D66AAAF8469F","title":"麻浦屋 虹泉路店","lon":"121.373747054","lat":"31.169760793","category":"96","category_name":"韩国料理","address":"闵行区虹泉路1051弄209号2楼(近金汇路)"},{"poiid":"B2094752DA64A3FA489F","title":"炭韩国烧烤","lon":"121.37347","lat":"31.169216","category":"247","category_name":"餐饮美食","address":"上海市 虹泉路1101号"},{"poiid":"B2094757D06FA0F4449D","title":"大上海国际花园","lon":"121.37775","lat":"31.159109","category":"47","category_name":"住宅区","address":"漕宝路1555号"},{"poiid":"B2094753D768A5FA489B","title":"Caffe Bene","lon":"121.373741","lat":"31.169282","category":"500","category_name":"未知分类","address":"上海市 闵行区虹泉路1051弄43号"},{"poiid":"B2094757D465ABFA449A","title":"沪华海鲜大酒店","lon":"121.37256","lat":"31.1585","category":"76","category_name":"上海菜","address":"闵行区漕宝路1687号(近星中路)"},{"poiid":"B2094757DA65A7F84593","title":"炭","lon":"121.37090504","lat":"31.16090053999999","category":"247","category_name":"餐饮美食","address":"虹泉路1101弄7号(近虹莘路)"},{"poiid":"B2094757D168A2F8489C","title":"맛집바우바우 巴屋巴屋韩国料理","lon":"121.37475858","lat":"31.168861231","category":"247","category_name":"餐饮美食","address":"闵行区虹泉路1051-17-1(近虹莘路)"},{"poiid":"B209475DD26FA5FC459E","title":"富乐满韩式烤鸡","lon":"121.373008","lat":"31.169853","category":"247","category_name":"餐饮美食","address":"上海市 虹泉路1051弄风度国际内"},{"poiid":"B2094750D668AAFB4699","title":"上海歌城(漕虹店)","lon":"121.379295","lat":"31.158855","category":"170","category_name":"KTV","address":"闵行区虹莘路2968弄39号4楼(近易买得)"},{"poiid":"B2094757D06AA3F9419C","title":"江南公社","lon":"121.37763758","lat":"31.157779015","category":"77","category_name":"湖南菜","address":"闵行区漕宝路1539号大上海国际花园旁(近虹莘路)"},{"poiid":"B2094655D36CA7F84399","title":"虹泉路","lon":"121.37308","lat":"31.16938","category":"38","category_name":"公交车站","address":""},{"poiid":"B2094757D065AAF84592","title":"颖尚精菜坊","lon":"121.367322586","lat":"31.1647771518","category":"76","category_name":"上海菜","address":"闵行区虹秀路51号(虹泉路西)"},{"poiid":"B2094757D06BA7FC429C","title":"S20外环线漕宝路出口","lon":"121.367194586","lat":"31.158640732","category":"500","category_name":"未知分类","address":"上海漕宝路"},{"poiid":"B2094752D269A2F84292","title":"碳韩国烧烤","lon":"121.373905","lat":"31.16951","category":"247","category_name":"餐饮美食","address":"虹泉路1101弄7号"},{"poiid":"B2094654D569A5FC4592","title":"巴黎贝甜(虹泉路)","lon":"121.37406","lat":"31.16944","category":"67","category_name":"甜品店","address":"闵行区虹泉路1051号9号(近金汇路)"},{"poiid":"B2094751D36CA2F4429C","title":"Bulloman","lon":"121.37456","lat":"31.16981","category":"96","category_name":"韩国料理","address":"闵行区虹泉路1051弄风度国际内(近金汇南路)"},{"poiid":"B2094757D068A2FD4793","title":"DQ冰雪皇后 漕宝路店 Dairy Queen","lon":"121.37609","lat":"31.15785","category":"113","category_name":"冷饮店","address":"闵行区漕宝路1574号漕宝购物中心(漕宝路虹莘路)"},{"poiid":"B2094757D06AA0FE479D","title":"上海帝璟丽致大酒店","lon":"121.372522","lat":"31.169537","category":"217","category_name":"旅馆招待所","address":"上海市闵行区虹莘路3988号(近吴中路)"},{"poiid":"B209475CD469A1FE439D","title":"喜来稀肉","lon":"121.372673","lat":"31.169401","category":"500","category_name":"未知分类","address":"上海市 虹泉路1101弄10号so"},{"poiid":"B2094751D369A5F94793","title":"MARINEBLUES TOWN","lon":"121.37323","lat":"31.16941","category":"247","category_name":"餐饮美食","address":"闵行区虹泉路1051弄35号(近虹莘路)"},{"poiid":"B2094757D065A3FA489C","title":"菌道——菌菇火锅料理","lon":"121.377247815","lat":"31.1583192476","category":"86","category_name":"火锅店","address":"闵行区漕宝路1539号宝秀美食广场1楼(大上海国际花园旁)"},{"poiid":"B2094655D268A1FE479D","title":"上海市公用事业学校漕宝校区(西门)","lon":"121.37012","lat":"31.16177","category":"678","category_name":"学校大门","address":""},{"poiid":"B2094757D068A6F94292","title":"嘉义喷水火鸡肉饭(虹莘路店)","lon":"121.37291","lat":"31.16713","category":"91","category_name":"台湾菜","address":"闵行区虹莘路3787号(近吴中路)"},{"poiid":"B2094757D06AA6F9409C","title":"煮师妙台菜料理","lon":"121.37347555139","lat":"31.163844079776","category":"91","category_name":"台湾菜","address":"闵行区虹莘路3579号-2(近漕宝路)"},{"poiid":"B2094654D569A6F8429D","title":"潭阳烤烧","lon":"121.37226","lat":"31.16779","category":"87","category_name":"特色／地方风味餐厅","address":"闵行区虹莘路3811号(近吴中路)"},{"poiid":"B2094757D064A5FD4498","title":"爱乐游(漕宝购物中心店)","lon":"121.37506158","lat":"31.159373046","category":"500","category_name":"未知分类","address":"上海市闵行区漕宝路漕宝购物中心3F"},{"poiid":"B2094654DB65A1FB459E","title":"青瓦楼","lon":"121.3738","lat":"31.16461","category":"96","category_name":"韩国料理","address":"闵行区虹莘路3579号"},{"poiid":"B2094757D069A2FB429A","title":"味千拉面","lon":"121.37803056","lat":"31.157752234","category":"95","category_name":"日本料理","address":"闵行区漕宝路1574号漕宝购物中心2楼2001店铺"},{"poiid":"B2094654D569A5FC449C","title":"风度国际生活广场","lon":"121.37363","lat":"31.16901","category":"201","category_name":"城市广场","address":"虹桥镇"},{"poiid":"B2094753D764AAFB469B","title":"caffebene","lon":"121.373985","lat":"31.169582","category":"500","category_name":"未知分类","address":"上海市 虹泉路1051弄43号"},{"poiid":"B209475CD36FA2FD439D","title":"马布城  MARINEBLUES TOWN","lon":"121.37437","lat":"31.16904","category":"172","category_name":"酒吧","address":"虹泉路1051弄35号(近虹莘路)"},{"poiid":"B2094757DB68A4F54692","title":"上海歌城","lon":"121.37208861","lat":"31.15523277999998","category":"170","category_name":"KTV","address":"漕宝路"},{"poiid":"B2094750DB6DA1F54893","title":"上海歌城","lon":"121.37030315","lat":"31.16022074","category":"170","category_name":"KTV","address":"漕宝路1550号"},{"poiid":"B209475DD468AAFB4098","title":"崔家木炭烤肉","lon":"121.373924","lat":"31.169084","category":"247","category_name":"餐饮美食","address":"上海市 虹泉路1078号东2楼（近虹莘路）"},{"poiid":"B2094655D268A1FE479C","title":"上海市公用事业学校漕宝校区","lon":"121.3706","lat":"31.16182","category":"54","category_name":"职业技术学校","address":""},{"poiid":"B2094757D66CA6FF4892","title":"tamati","lon":"121.373498586","lat":"31.169600246","category":"94","category_name":"西餐厅","address":"闵行区虹泉路1078号1楼(近金汇南路)"},{"poiid":"B2094654D569A5FC479B","title":"富家","lon":"121.37237","lat":"31.16969","category":"96","category_name":"韩国料理","address":"闵行区虹莘路3988号帝憬丽致大酒店1楼(近吴中路)"},{"poiid":"B2094757D16CA5FA4292","title":"桐春金农庄","lon":"121.37724058","lat":"31.159310045","category":"87","category_name":"特色／地方风味餐厅","address":"闵行区漕宝路1539号(虹莘路)"},{"poiid":"B2094757D169A3FC459B","title":"九星市场","lon":"121.37508558","lat":"31.159269044","category":"217","category_name":"旅馆招待所","address":"上海九星路二区"},{"poiid":"B2094654DA65A3F8469E","title":"亦园别墅","lon":"121.37529","lat":"31.16412","category":"47","category_name":"住宅区","address":"上海虹莘路3500弄"},{"poiid":"B2094654DB64A2FF469E","title":"红明二村","lon":"121.37373","lat":"31.162861","category":"47","category_name":"住宅区","address":"虹莘路3553弄"},{"poiid":"B2094655D265A3F94198","title":"上海天安豪园一期","lon":"121.37185","lat":"31.15914","category":"47","category_name":"住宅区","address":""},{"poiid":"B2094757D16EAAFA4193","title":"华宝宴会楼","lon":"121.37703","lat":"31.15719","category":"76","category_name":"上海菜","address":"闵行区虹莘路3079号(漕宝路口)"},{"poiid":"B2094757D06EAAF5479B","title":"星巴克(漕宝店)","lon":"121.3770909","lat":"31.157744","category":"65","category_name":"咖啡厅","address":"闵行区虹莘路2988号漕宝购物中心内"},{"poiid":"B2094751D36BA4FE4599","title":"韩太沐浴休闲会馆","lon":"121.373333","lat":"31.169284","category":"248","category_name":"生活娱乐","address":"闵行区虹泉路1078号井亭生活大厦西座2-4楼(近金汇南路)"},{"poiid":"B2094654DA65A3FB4498","title":"诺宝中心","lon":"121.379","lat":"31.1637","category":"71","category_name":"四川菜","address":"闵行区漕宝路1688号诺宝中心大酒店2楼(漕宝路星东路)"},{"poiid":"B2094757D064A5F44698","title":"多乐房土豆排骨汤","lon":"121.375566586","lat":"31.1692222386","category":"247","category_name":"餐饮美食","address":"上海市吴中路"},{"poiid":"B2094757D06AA3FB4693","title":"The coffee bean","lon":"121.37340458","lat":"31.169405242","category":"65","category_name":"咖啡厅","address":"闵行区虹泉路1078号井亭天地1楼05单元(近虹莘路)"},{"poiid":"B2094757D06FA1FB4299","title":"星中路地铁站","lon":"121.368422","lat":"31.158064","category":"36","category_name":"地铁站","address":"上海轨道交通 九号线 轨交星中路站 9"},{"poiid":"B2094757D66BA5FE4298","title":"明洞刀面","lon":"121.373493054","lat":"31.169683793","category":"96","category_name":"韩国料理","address":"闵行区虹泉路1051弄209号2楼(近金汇南路)"},{"poiid":"B2094757D66AAAF8469F","title":"麻浦屋 虹泉路店","lon":"121.373747054","lat":"31.169760793","category":"96","category_name":"韩国料理","address":"闵行区虹泉路1051弄209号2楼(近金汇路)"},{"poiid":"B2094752DA64A3FA489F","title":"炭韩国烧烤","lon":"121.37347","lat":"31.169216","category":"247","category_name":"餐饮美食","address":"上海市 虹泉路1101号"},{"poiid":"B2094757D06FA0F4449D","title":"大上海国际花园","lon":"121.37775","lat":"31.159109","category":"47","category_name":"住宅区","address":"漕宝路1555号"},{"poiid":"B2094753D768A5FA489B","title":"Caffe Bene","lon":"121.373741","lat":"31.169282","category":"500","category_name":"未知分类","address":"上海市 闵行区虹泉路1051弄43号"},{"poiid":"B2094757D465ABFA449A","title":"沪华海鲜大酒店","lon":"121.37256","lat":"31.1585","category":"76","category_name":"上海菜","address":"闵行区漕宝路1687号(近星中路)"},{"poiid":"B2094757DA65A7F84593","title":"炭","lon":"121.37090504","lat":"31.16090053999999","category":"247","category_name":"餐饮美食","address":"虹泉路1101弄7号(近虹莘路)"},{"poiid":"B2094757D168A2F8489C","title":"맛집바우바우 巴屋巴屋韩国料理","lon":"121.37475858","lat":"31.168861231","category":"247","category_name":"餐饮美食","address":"闵行区虹泉路1051-17-1(近虹莘路)"},{"poiid":"B209475DD26FA5FC459E","title":"富乐满韩式烤鸡","lon":"121.373008","lat":"31.169853","category":"247","category_name":"餐饮美食","address":"上海市 虹泉路1051弄风度国际内"},{"poiid":"B2094750D668AAFB4699","title":"上海歌城(漕虹店)","lon":"121.379295","lat":"31.158855","category":"170","category_name":"KTV","address":"闵行区虹莘路2968弄39号4楼(近易买得)"},{"poiid":"B2094757D06AA3F9419C","title":"江南公社","lon":"121.37763758","lat":"31.157779015","category":"77","category_name":"湖南菜","address":"闵行区漕宝路1539号大上海国际花园旁(近虹莘路)"},{"poiid":"B2094655D36CA7F84399","title":"虹泉路","lon":"121.37308","lat":"31.16938","category":"38","category_name":"公交车站","address":""},{"poiid":"B2094757D065AAF84592","title":"颖尚精菜坊","lon":"121.367322586","lat":"31.1647771518","category":"76","category_name":"上海菜","address":"闵行区虹秀路51号(虹泉路西)"},{"poiid":"B2094757D06BA7FC429C","title":"S20外环线漕宝路出口","lon":"121.367194586","lat":"31.158640732","category":"500","category_name":"未知分类","address":"上海漕宝路"},{"poiid":"B2094752D269A2F84292","title":"碳韩国烧烤","lon":"121.373905","lat":"31.16951","category":"247","category_name":"餐饮美食","address":"虹泉路1101弄7号"},{"poiid":"B2094654D569A5FC4592","title":"巴黎贝甜(虹泉路)","lon":"121.37406","lat":"31.16944","category":"67","category_name":"甜品店","address":"闵行区虹泉路1051号9号(近金汇路)"},{"poiid":"B2094751D36CA2F4429C","title":"Bulloman","lon":"121.37456","lat":"31.16981","category":"96","category_name":"韩国料理","address":"闵行区虹泉路1051弄风度国际内(近金汇南路)"},{"poiid":"B2094757D068A2FD4793","title":"DQ冰雪皇后 漕宝路店 Dairy Queen","lon":"121.37609","lat":"31.15785","category":"113","category_name":"冷饮店","address":"闵行区漕宝路1574号漕宝购物中心(漕宝路虹莘路)"},{"poiid":"B2094757D06AA0FE479D","title":"上海帝璟丽致大酒店","lon":"121.372522","lat":"31.169537","category":"217","category_name":"旅馆招待所","address":"上海市闵行区虹莘路3988号(近吴中路)"},{"poiid":"B209475CD469A1FE439D","title":"喜来稀肉","lon":"121.372673","lat":"31.169401","category":"500","category_name":"未知分类","address":"上海市 虹泉路1101弄10号so"},{"poiid":"B2094751D369A5F94793","title":"MARINEBLUES TOWN","lon":"121.37323","lat":"31.16941","category":"247","category_name":"餐饮美食","address":"闵行区虹泉路1051弄35号(近虹莘路)"},{"poiid":"B2094757D065A3FA489C","title":"菌道——菌菇火锅料理","lon":"121.377247815","lat":"31.1583192476","category":"86","category_name":"火锅店","address":"闵行区漕宝路1539号宝秀美食广场1楼(大上海国际花园旁)"},{"poiid":"B2094655D268A1FE479D","title":"上海市公用事业学校漕宝校区(西门)","lon":"121.37012","lat":"31.16177","category":"678","category_name":"学校大门","address":""},{"poiid":"B2094757D068A6F94292","title":"嘉义喷水火鸡肉饭(虹莘路店)","lon":"121.37291","lat":"31.16713","category":"91","category_name":"台湾菜","address":"闵行区虹莘路3787号(近吴中路)"},{"poiid":"B2094757D06AA6F9409C","title":"煮师妙台菜料理","lon":"121.37347555139","lat":"31.163844079776","category":"91","category_name":"台湾菜","address":"闵行区虹莘路3579号-2(近漕宝路)"},{"poiid":"B2094654D569A6F8429D","title":"潭阳烤烧","lon":"121.37226","lat":"31.16779","category":"87","category_name":"特色／地方风味餐厅","address":"闵行区虹莘路3811号(近吴中路)"},{"poiid":"B2094757D064A5FD4498","title":"爱乐游(漕宝购物中心店)","lon":"121.37506158","lat":"31.159373046","category":"500","category_name":"未知分类","address":"上海市闵行区漕宝路漕宝购物中心3F"},{"poiid":"B2094654DB65A1FB459E","title":"青瓦楼","lon":"121.3738","lat":"31.16461","category":"96","category_name":"韩国料理","address":"闵行区虹莘路3579号"},{"poiid":"B2094757D069A2FB429A","title":"味千拉面","lon":"121.37803056","lat":"31.157752234","category":"95","category_name":"日本料理","address":"闵行区漕宝路1574号漕宝购物中心2楼2001店铺"},{"poiid":"B2094654D569A5FC449C","title":"风度国际生活广场","lon":"121.37363","lat":"31.16901","category":"201","category_name":"城市广场","address":"虹桥镇"},{"poiid":"B2094753D764AAFB469B","title":"caffebene","lon":"121.373985","lat":"31.169582","category":"500","category_name":"未知分类","address":"上海市 虹泉路1051弄43号"},{"poiid":"B209475CD36FA2FD439D","title":"马布城  MARINEBLUES TOWN","lon":"121.37437","lat":"31.16904","category":"172","category_name":"酒吧","address":"虹泉路1051弄35号(近虹莘路)"},{"poiid":"B2094757DB68A4F54692","title":"上海歌城","lon":"121.37208861","lat":"31.15523277999998","category":"170","category_name":"KTV","address":"漕宝路"},{"poiid":"B2094750DB6DA1F54893","title":"上海歌城","lon":"121.37030315","lat":"31.16022074","category":"170","category_name":"KTV","address":"漕宝路1550号"},{"poiid":"B209475DD468AAFB4098","title":"崔家木炭烤肉","lon":"121.373924","lat":"31.169084","category":"247","category_name":"餐饮美食","address":"上海市 虹泉路1078号东2楼（近虹莘路）"},{"poiid":"B2094655D268A1FE479C","title":"上海市公用事业学校漕宝校区","lon":"121.3706","lat":"31.16182","category":"54","category_name":"职业技术学校","address":""},{"poiid":"B2094757D66CA6FF4892","title":"tamati","lon":"121.373498586","lat":"31.169600246","category":"94","category_name":"西餐厅","address":"闵行区虹泉路1078号1楼(近金汇南路)"},{"poiid":"B2094654D569A5FC479B","title":"富家","lon":"121.37237","lat":"31.16969","category":"96","category_name":"韩国料理","address":"闵行区虹莘路3988号帝憬丽致大酒店1楼(近吴中路)"},{"poiid":"B2094757D16CA5FA4292","title":"桐春金农庄","lon":"121.37724058","lat":"31.159310045","category":"87","category_name":"特色／地方风味餐厅","address":"闵行区漕宝路1539号(虹莘路)"},{"poiid":"B2094757D169A3FC459B","title":"九星市场","lon":"121.37508558","lat":"31.159269044","category":"217","category_name":"旅馆招待所","address":"上海九星路二区"},{"poiid":"B2094654DA65A3F8469E","title":"亦园别墅","lon":"121.37529","lat":"31.16412","category":"47","category_name":"住宅区","address":"上海虹莘路3500弄"},{"poiid":"B2094654DB64A2FF469E","title":"红明二村","lon":"121.37373","lat":"31.162861","category":"47","category_name":"住宅区","address":"虹莘路3553弄"},{"poiid":"B2094655D265A3F94198","title":"上海天安豪园一期","lon":"121.37185","lat":"31.15914","category":"47","category_name":"住宅区","address":""},{"poiid":"B2094757D16EAAFA4193","title":"华宝宴会楼","lon":"121.37703","lat":"31.15719","category":"76","category_name":"上海菜","address":"闵行区虹莘路3079号(漕宝路口)"}]