[{"poiid":"B2094757D165A3FA489E","title":"七宝老街","lon":"121.358113586","lat":"31.1531869255","category":"500","category_name":"未知分类","address":"闵行区七宝镇富强街(七莘路新镇路间)"},{"poiid":"B2094654DA6BAAFC469B","title":"汇宝购物广场","lon":"121.35521","lat":"31.16134","category":"248","category_name":"生活娱乐","address":"闵行区漕宝路3509号(近七莘路)"},{"poiid":"B2094654DA64ABF5409E","title":"七宝镇步行街","lon":"121.35808437301637","lat":"31.153243179298574","category":"116","category_name":"特色商业街","address":"闵行区富强街"},{"poiid":"B2094757D06FA1FB4299","title":"星中路地铁站","lon":"121.368422","lat":"31.158064","category":"36","category_name":"地铁站","address":"上海轨道交通 九号线 轨交星中路站 9"},{"poiid":"B2094757D068A3F9499A","title":"龙通生活广场","lon":"121.35712036","lat":"31.166309951","category":"217","category_name":"旅馆招待所","address":"闵行区吴中路2115号龙通生活广场内(近航东路)"},{"poiid":"B2094757D069A7F5429F","title":"船料理","lon":"121.36570758","lat":"31.170860803","category":"95","category_name":"日本料理","address":"闵行区吴中路1780号1楼(紫藤路口)"},{"poiid":"B2094757D06FA3FD4493","title":"航中路地铁站","lon":"121.35431257408618","lat":"31.165802804243846","category":"36","category_name":"地铁站","address":"上海轨道交通 十号线 轨交航中路站 10"},{"poiid":"B2094757DA65A7F84593","title":"炭","lon":"121.37090504","lat":"31.16090053999999","category":"247","category_name":"餐饮美食","address":"虹泉路1101弄7号(近虹莘路)"},{"poiid":"B2094655D26EA4FD409E","title":"龙通生活广场龙宴楼","lon":"121.35704","lat":"31.16625","category":"247","category_name":"餐饮美食","address":"上海闵行区吴中路2115号龙通生活广场(近航东路)  "},{"poiid":"B2094757D069A2F84293","title":"七宝教寺","lon":"121.3578","lat":"31.15457","category":"244","category_name":"寺庙道观","address":"闵行区七宝镇新镇路1205号"},{"poiid":"B2094757D06BA7FC429C","title":"S20外环线漕宝路出口","lon":"121.367194586","lat":"31.158640732","category":"500","category_name":"未知分类","address":"上海漕宝路"},{"poiid":"B2094655D36DA6FF429D","title":"紫藤路","lon":"121.36432","lat":"31.16975","category":"38","category_name":"公交车站","address":""},{"poiid":"B2094757D065AAF84592","title":"颖尚精菜坊","lon":"121.367322586","lat":"31.1647771518","category":"76","category_name":"上海菜","address":"闵行区虹秀路51号(虹泉路西)"},{"poiid":"B2094757D06FA6FA4799","title":"紫藤路地铁站","lon":"121.3643881","lat":"31.169777636","category":"36","category_name":"地铁站","address":"上海轨道交通 十号线 轨交紫藤路站 10"},{"poiid":"B2094757D06FA4F8499E","title":"S20外环线 吴中路出口","lon":"121.36280834","lat":"31.1690515595","category":"260","category_name":"其他","address":"上海闵行区外环吴中路"},{"poiid":"B2094757D069A1FE469E","title":"新大陆高尔夫练习场","lon":"121.36319","lat":"31.16907","category":"260","category_name":"其他","address":"闵行区吴中路1888号(近环西一大道)"},{"poiid":"B2094654DA6BABF4409D","title":"茂盛城市花园","lon":"121.36122","lat":"31.15213","category":"47","category_name":"住宅区","address":"新镇路1036弄"},{"poiid":"B2094655D26BA2FC489D","title":"吴中路航中路","lon":"121.35786","lat":"31.16705","category":"38","category_name":"公交车站","address":""},{"poiid":"B2094654DA6BABF4439D","title":"秀枫翠谷公寓","lon":"121.36489","lat":"31.15887","category":"47","category_name":"住宅区","address":"漕宝路1911号"},{"poiid":"B2094757D069A7F4449D","title":"中化道达尔加油站","lon":"121.362674","lat":"31.158158","category":"500","category_name":"未知分类","address":"闵行区漕宝路1997号(近星强街)"},{"poiid":"B2094654DB69A6FE429B","title":"明强小学","lon":"121.3612","lat":"31.15171","category":"56","category_name":"小学","address":"闵行区七宝镇新镇路1050号"},{"poiid":"B2094757D068A0FB4699","title":"航华四村","lon":"121.35918","lat":"31.17104","category":"252","category_name":"楼宇机构","address":"上海市闵行区航北路"},{"poiid":"B2094654DA64A3FE469D","title":"上海市公安局闵行分局交通警察支队二中队","lon":"121.36434","lat":"31.15729","category":"248","category_name":"生活娱乐","address":""},{"poiid":"B2094654DA6BABF4439B","title":"金泰公寓","lon":"121.35968","lat":"31.158234","category":"47","category_name":"住宅区","address":"上海闵行区漕宝路2999弄"},{"poiid":"B2094654DA64A3F94993","title":"三佳花苑","lon":"121.36186","lat":"31.156012","category":"47","category_name":"住宅区","address":"上海新镇路1060弄"},{"poiid":"B2094655D36DA6FC419B","title":"漕宝路星西路","lon":"121.36297","lat":"31.15783","category":"38","category_name":"公交车站","address":""},{"poiid":"B2094655D268A1FE479D","title":"上海市公用事业学校漕宝校区(西门)","lon":"121.37012","lat":"31.16177","category":"678","category_name":"学校大门","address":""},{"poiid":"B2094655D26BA5FE4592","title":"龙昇园","lon":"121.35722","lat":"31.16636","category":"76","category_name":"上海菜","address":"闵行区吴中路2115号龙通生活广场内(近航东路)"},{"poiid":"B2094751D264A3FD4499","title":"上海  美罗城  星巴克","lon":"121.3599418","lat":"31.1644088","category":"247","category_name":"餐饮美食","address":"徐家汇 美罗城"},{"poiid":"B2094757D165AAF8429D","title":"鑫涛鱼村","lon":"121.364564086","lat":"31.1639635359","category":"247","category_name":"餐饮美食","address":"上海虹秀路51号28幢"},{"poiid":"B2094757D069A3FF489F","title":"全家便利 FamilyMart(徐家汇站店)","lon":"121.36650757","lat":"31.161474262","category":"117","category_name":"便民商店/便利店","address":"上海徐家汇1、9号线换乘通道内"},{"poiid":"B2094757D465A0FB419E","title":"梁记面馆 紫藤路店","lon":"121.36415","lat":"31.17385","category":"91","category_name":"台湾菜","address":"闵行区紫藤路225号(吴中路青衫路间)"},{"poiid":"B2094757D469A5F9449F","title":"鑫涛渔村","lon":"121.36588096619","lat":"31.166195162946","category":"260","category_name":"其他","address":"闵行区虹秀路51号28栋(吴中路)"},{"poiid":"B2094753D764A2F5459B","title":"上海七宝老街","lon":"121.361495","lat":"31.158798","category":"500","category_name":"未知分类","address":"上海市 上海七宝老街"},{"poiid":"B2094654DA6BAAFF4698","title":"七宝人家","lon":"121.357322054","lat":"31.157613793","category":"76","category_name":"上海菜","address":"闵行区新镇路1262号(漕宝路口)"},{"poiid":"B2094655D36DA0FE4699","title":"星中路","lon":"121.36743","lat":"31.15811","category":"38","category_name":"公交车站","address":""},{"poiid":"B2094757D065ABFC419F","title":"龙通生活广场 龙升园","lon":"121.36262558","lat":"31.16472415","category":"500","category_name":"未知分类","address":"上海吴中路2115号"},{"poiid":"B2094655D26AA0FA459A","title":"地铁星中路站","lon":"121.36841","lat":"31.15806","category":"36","category_name":"地铁站","address":""},{"poiid":"B2094654DA6BAAFF479C","title":"快客(漕宝路)","lon":"121.36234","lat":"31.15754","category":"117","category_name":"便民商店/便利店","address":""},{"poiid":"B2094757D06AA4F94998","title":"吴中路地铁控制中心","lon":"121.362484386","lat":"31.1692998401","category":"36","category_name":"地铁站","address":"上海吴中路1779号"},{"poiid":"B2094757D16DA6FC439E","title":"上海国际汽车城大厦","lon":"121.36170279","lat":"31.156581019","category":"46","category_name":"楼宇","address":"上海嘉定区安亭墨玉南路888号"},{"poiid":"B2094655D36DA2FF479C","title":"外环漕宝路立交桥","lon":"121.36653","lat":"31.15854","category":"250","category_name":"公园户外","address":""},{"poiid":"B2094757D065A6FC4392","title":"西北郎烧烤(七宝店)","lon":"121.3581","lat":"31.15587","category":"247","category_name":"餐饮美食","address":"上海闵行区七宝老街口  "},{"poiid":"B2094757D068ABFB479C","title":"海上新村","lon":"121.36875","lat":"31.156965","category":"47","category_name":"住宅区","address":"上海漕宝路1800弄"},{"poiid":"B2094655D36DA6FC419A","title":"漕宝路新镇路","lon":"121.35825","lat":"31.15719","category":"38","category_name":"公交车站","address":""},{"poiid":"B2094654DA6BABF44193","title":"七宝镇第一工业区","lon":"121.35789","lat":"31.16402","category":"45","category_name":"产业园区","address":""},{"poiid":"B2094654DB65A5F44592","title":"红明村","lon":"121.36797","lat":"31.160118","category":"47","category_name":"住宅区","address":"漕宝路1783弄"},{"poiid":"B2094757D469A5FD4793","title":"漕宝路兰州正宗牛肉拉面","lon":"121.368502","lat":"31.158047","category":"87","category_name":"特色／地方风味餐厅","address":"闵行区漕宝路1792号(近地铁星中路站)"},{"poiid":"B2094654DA6BAAFE409F","title":"上海伸铭亚克力制品有限公司","lon":"121.36214","lat":"31.16355","category":"263","category_name":"公司","address":""},{"poiid":"B2094753D56DA2FF4199","title":"南京路","lon":"121.363983","lat":"31.164787","category":"500","category_name":"未知分类","address":"上海市 上海福建中路535号"},{"poiid":"B2094757D165A3FA489E","title":"七宝老街","lon":"121.358113586","lat":"31.1531869255","category":"500","category_name":"未知分类","address":"闵行区七宝镇富强街(七莘路新镇路间)"},{"poiid":"B2094654DA6BAAFC469B","title":"汇宝购物广场","lon":"121.35521","lat":"31.16134","category":"248","category_name":"生活娱乐","address":"闵行区漕宝路3509号(近七莘路)"},{"poiid":"B2094654DA64ABF5409E","title":"七宝镇步行街","lon":"121.35808437301637","lat":"31.153243179298574","category":"116","category_name":"特色商业街","address":"闵行区富强街"},{"poiid":"B2094757D06FA1FB4299","title":"星中路地铁站","lon":"121.368422","lat":"31.158064","category":"36","category_name":"地铁站","address":"上海轨道交通 九号线 轨交星中路站 9"},{"poiid":"B2094757D068A3F9499A","title":"龙通生活广场","lon":"121.35712036","lat":"31.166309951","category":"217","category_name":"旅馆招待所","address":"闵行区吴中路2115号龙通生活广场内(近航东路)"},{"poiid":"B2094757D069A7F5429F","title":"船料理","lon":"121.36570758","lat":"31.170860803","category":"95","category_name":"日本料理","address":"闵行区吴中路1780号1楼(紫藤路口)"},{"poiid":"B2094757D06FA3FD4493","title":"航中路地铁站","lon":"121.35431257408618","lat":"31.165802804243846","category":"36","category_name":"地铁站","address":"上海轨道交通 十号线 轨交航中路站 10"},{"poiid":"B2094757DA65A7F84593","title":"炭","lon":"121.37090504","lat":"31.16090053999999","category":"247","category_name":"餐饮美食","address":"虹泉路1101弄7号(近虹莘路)"},{"poiid":"B2094655D26EA4FD409E","title":"龙通生活广场龙宴楼","lon":"121.35704","lat":"31.16625","category":"247","category_name":"餐饮美食","address":"上海闵行区吴中路2115号龙通生活广场(近航东路)  "},{"poiid":"B2094757D069A2F84293","title":"七宝教寺","lon":"121.3578","lat":"31.15457","category":"244","category_name":"寺庙道观","address":"闵行区七宝镇新镇路1205号"},{"poiid":"B2094757D06BA7FC429C","title":"S20外环线漕宝路出口","lon":"121.367194586","lat":"31.158640732","category":"500","category_name":"未知分类","address":"上海漕宝路"},{"poiid":"B2094655D36DA6FF429D","title":"紫藤路","lon":"121.36432","lat":"31.16975","category":"38","category_name":"公交车站","address":""},{"poiid":"B2094757D065AAF84592","title":"颖尚精菜坊","lon":"121.367322586","lat":"31.1647771518","category":"76","category_name":"上海菜","address":"闵行区虹秀路51号(虹泉路西)"},{"poiid":"B2094757D06FA6FA4799","title":"紫藤路地铁站","lon":"121.3643881","lat":"31.169777636","category":"36","category_name":"地铁站","address":"上海轨道交通 十号线 轨交紫藤路站 10"},{"poiid":"B2094757D06FA4F8499E","title":"S20外环线 吴中路出口","lon":"121.36280834","lat":"31.1690515595","category":"260","category_name":"其他","address":"上海闵行区外环吴中路"},{"poiid":"B2094757D069A1FE469E","title":"新大陆高尔夫练习场","lon":"121.36319","lat":"31.16907","category":"260","category_name":"其他","address":"闵行区吴中路1888号(近环西一大道)"},{"poiid":"B2094654DA6BABF4409D","title":"茂盛城市花园","lon":"121.36122","lat":"31.15213","category":"47","category_name":"住宅区","address":"新镇路1036弄"},{"poiid":"B2094655D26BA2FC489D","title":"吴中路航中路","lon":"121.35786","lat":"31.16705","category":"38","category_name":"公交车站","address":""},{"poiid":"B2094654DA6BABF4439D","title":"秀枫翠谷公寓","lon":"121.36489","lat":"31.15887","category":"47","category_name":"住宅区","address":"漕宝路1911号"},{"poiid":"B2094757D069A7F4449D","title":"中化道达尔加油站","lon":"121.362674","lat":"31.158158","category":"500","category_name":"未知分类","address":"闵行区漕宝路1997号(近星强街)"},{"poiid":"B2094654DB69A6FE429B","title":"明强小学","lon":"121.3612","lat":"31.15171","category":"56","category_name":"小学","address":"闵行区七宝镇新镇路1050号"},{"poiid":"B2094757D068A0FB4699","title":"航华四村","lon":"121.35918","lat":"31.17104","category":"252","category_name":"楼宇机构","address":"上海市闵行区航北路"},{"poiid":"B2094654DA64A3FE469D","title":"上海市公安局闵行分局交通警察支队二中队","lon":"121.36434","lat":"31.15729","category":"248","category_name":"生活娱乐","address":""},{"poiid":"B2094654DA6BABF4439B","title":"金泰公寓","lon":"121.35968","lat":"31.158234","category":"47","category_name":"住宅区","address":"上海闵行区漕宝路2999弄"},{"poiid":"B2094654DA64A3F94993","title":"三佳花苑","lon":"121.36186","lat":"31.156012","category":"47","category_name":"住宅区","address":"上海新镇路1060弄"},{"poiid":"B2094655D36DA6FC419B","title":"漕宝路星西路","lon":"121.36297","lat":"31.15783","category":"38","category_name":"公交车站","address":""},{"poiid":"B2094655D268A1FE479D","title":"上海市公用事业学校漕宝校区(西门)","lon":"121.37012","lat":"31.16177","category":"678","category_name":"学校大门","address":""},{"poiid":"B2094655D26BA5FE4592","title":"龙昇园","lon":"121.35722","lat":"31.16636","category":"76","category_name":"上海菜","address":"闵行区吴中路2115号龙通生活广场内(近航东路)"},{"poiid":"B2094751D264A3FD4499","title":"上海  美罗城  星巴克","lon":"121.3599418","lat":"31.1644088","category":"247","category_name":"餐饮美食","address":"徐家汇 美罗城"},{"poiid":"B2094757D165AAF8429D","title":"鑫涛鱼村","lon":"121.364564086","lat":"31.1639635359","category":"247","category_name":"餐饮美食","address":"上海虹秀路51号28幢"},{"poiid":"B2094757D069A3FF489F","title":"全家便利 FamilyMart(徐家汇站店)","lon":"121.36650757","lat":"31.161474262","category":"117","category_name":"便民商店/便利店","address":"上海徐家汇1、9号线换乘通道内"},{"poiid":"B2094757D465A0FB419E","title":"梁记面馆 紫藤路店","lon":"121.36415","lat":"31.17385","category":"91","category_name":"台湾菜","address":"闵行区紫藤路225号(吴中路青衫路间)"},{"poiid":"B2094757D469A5F9449F","title":"鑫涛渔村","lon":"121.36588096619","lat":"31.166195162946","category":"260","category_name":"其他","address":"闵行区虹秀路51号28栋(吴中路)"},{"poiid":"B2094753D764A2F5459B","title":"上海七宝老街","lon":"121.361495","lat":"31.158798","category":"500","category_name":"未知分类","address":"上海市 上海七宝老街"},{"poiid":"B2094654DA6BAAFF4698","title":"七宝人家","lon":"121.357322054","lat":"31.157613793","category":"76","category_name":"上海菜","address":"闵行区新镇路1262号(漕宝路口)"},{"poiid":"B2094655D36DA0FE4699","title":"星中路","lon":"121.36743","lat":"31.15811","category":"38","category_name":"公交车站","address":""},{"poiid":"B2094757D065ABFC419F","title":"龙通生活广场 龙升园","lon":"121.36262558","lat":"31.16472415","category":"500","category_name":"未知分类","address":"上海吴中路2115号"},{"poiid":"B2094655D26AA0FA459A","title":"地铁星中路站","lon":"121.36841","lat":"31.15806","category":"36","category_name":"地铁站","address":""},{"poiid":"B2094654DA6BAAFF479C","title":"快客(漕宝路)","lon":"121.36234","lat":"31.15754","category":"117","category_name":"便民商店/便利店","address":""},{"poiid":"B2094757D06AA4F94998","title":"吴中路地铁控制中心","lon":"121.362484386","lat":"31.1692998401","category":"36","category_name":"地铁站","address":"上海吴中路1779号"},{"poiid":"B2094757D16DA6FC439E","title":"上海国际汽车城大厦","lon":"121.36170279","lat":"31.156581019","category":"46","category_name":"楼宇","address":"上海嘉定区安亭墨玉南路888号"},{"poiid":"B2094655D36DA2FF479C","title":"外环漕宝路立交桥","lon":"121.36653","lat":"31.15854","category":"250","category_name":"公园户外","address":""},{"poiid":"B2094757D065A6FC4392","title":"西北郎烧烤(七宝店)","lon":"121.3581","lat":"31.15587","category":"247","category_name":"餐饮美食","address":"上海闵行区七宝老街口  "},{"poiid":"B2094757D068ABFB479C","title":"海上新村","lon":"121.36875","lat":"31.156965","category":"47","category_name":"住宅区","address":"上海漕宝路1800弄"},{"poiid":"B2094655D36DA6FC419A","title":"漕宝路新镇路","lon":"121.35825","lat":"31.15719","category":"38","category_name":"公交车站","address":""},{"poiid":"B2094654DA6BABF44193","title":"七宝镇第一工业区","lon":"121.35789","lat":"31.16402","category":"45","category_name":"产业园区","address":""},{"poiid":"B2094654DB65A5F44592","title":"红明村","lon":"121.36797","lat":"31.160118","category":"47","category_name":"住宅区","address":"漕宝路1783弄"},{"poiid":"B2094757D469A5FD4793","title":"漕宝路兰州正宗牛肉拉面","lon":"121.368502","lat":"31.158047","category":"87","category_name":"特色／地方风味餐厅","address":"闵行区漕宝路1792号(近地铁星中路站)"},{"poiid":"B2094654DA6BAAFE409F","title":"上海伸铭亚克力制品有限公司","lon":"121.36214","lat":"31.16355","category":"263","category_name":"公司","address":""},{"poiid":"B2094753D56DA2FF4199","title":"南京路","lon":"121.363983","lat":"31.164787","category":"500","category_name":"未知分类","address":"上海市 上海福建中路535号"},{"poiid":"B2094757D165A3FA489E","title":"七宝老街","lon":"121.358113586","lat":"31.1531869255","category":"500","category_name":"未知分类","address":"闵行区七宝镇富强街(七莘路新镇路间)"},{"poiid":"B2094654DA6BAAFC469B","title":"汇宝购物广场","lon":"121.35521","lat":"31.16134","category":"248","category_name":"生活娱乐","address":"闵行区漕宝路3509号(近七莘路)"},{"poiid":"B2094654DA64ABF5409E","title":"七宝镇步行街","lon":"121.35808437301637","lat":"31.153243179298574","category":"116","category_name":"特色商业街","address":"闵行区富强街"},{"poiid":"B2094757D06FA1FB4299","title":"星中路地铁站","lon":"121.368422","lat":"31.158064","category":"36","category_name":"地铁站","address":"上海轨道交通 九号线 轨交星中路站 9"},{"poiid":"B2094757D068A3F9499A","title":"龙通生活广场","lon":"121.35712036","lat":"31.166309951","category":"217","category_name":"旅馆招待所","address":"闵行区吴中路2115号龙通生活广场内(近航东路)"},{"poiid":"B2094757D069A7F5429F","title":"船料理","lon":"121.36570758","lat":"31.170860803","category":"95","category_name":"日本料理","address":"闵行区吴中路1780号1楼(紫藤路口)"},{"poiid":"B2094757D06FA3FD4493","title":"航中路地铁站","lon":"121.35431257408618","lat":"31.165802804243846","category":"36","category_name":"地铁站","address":"上海轨道交通 十号线 轨交航中路站 10"},{"poiid":"B2094757DA65A7F84593","title":"炭","lon":"121.37090504","lat":"31.16090053999999","category":"247","category_name":"餐饮美食","address":"虹泉路1101弄7号(近虹莘路)"},{"poiid":"B2094655D26EA4FD409E","title":"龙通生活广场龙宴楼","lon":"121.35704","lat":"31.16625","category":"247","category_name":"餐饮美食","address":"上海闵行区吴中路2115号龙通生活广场(近航东路)  "},{"poiid":"B2094757D069A2F84293","title":"七宝教寺","lon":"121.3578","lat":"31.15457","category":"244","category_name":"寺庙道观","address":"闵行区七宝镇新镇路1205号"},{"poiid":"B2094757D06BA7FC429C","title":"S20外环线漕宝路出口","lon":"121.367194586","lat":"31.158640732","category":"500","category_name":"未知分类","address":"上海漕宝路"},{"poiid":"B2094655D36DA6FF429D","title":"紫藤路","lon":"121.36432","lat":"31.16975","category":"38","category_name":"公交车站","address":""},{"poiid":"B2094757D065AAF84592","title":"颖尚精菜坊","lon":"121.367322586","lat":"31.1647771518","category":"76","category_name":"上海菜","address":"闵行区虹秀路51号(虹泉路西)"},{"poiid":"B2094757D06FA6FA4799","title":"紫藤路地铁站","lon":"121.3643881","lat":"31.169777636","category":"36","category_name":"地铁站","address":"上海轨道交通 十号线 轨交紫藤路站 10"},{"poiid":"B2094757D06FA4F8499E","title":"S20外环线 吴中路出口","lon":"121.36280834","lat":"31.1690515595","category":"260","category_name":"其他","address":"上海闵行区外环吴中路"},{"poiid":"B2094757D069A1FE469E","title":"新大陆高尔夫练习场","lon":"121.36319","lat":"31.16907","category":"260","category_name":"其他","address":"闵行区吴中路1888号(近环西一大道)"},{"poiid":"B2094654DA6BABF4409D","title":"茂盛城市花园","lon":"121.36122","lat":"31.15213","category":"47","category_name":"住宅区","address":"新镇路1036弄"},{"poiid":"B2094655D26BA2FC489D","title":"吴中路航中路","lon":"121.35786","lat":"31.16705","category":"38","category_name":"公交车站","address":""},{"poiid":"B2094654DA6BABF4439D","title":"秀枫翠谷公寓","lon":"121.36489","lat":"31.15887","category":"47","category_name":"住宅区","address":"漕宝路1911号"},{"poiid":"B2094757D069A7F4449D","title":"中化道达尔加油站","lon":"121.362674","lat":"31.158158","category":"500","category_name":"未知分类","address":"闵行区漕宝路1997号(近星强街)"},{"poiid":"B2094654DB69A6FE429B","title":"明强小学","lon":"121.3612","lat":"31.15171","category":"56","category_name":"小学","address":"闵行区七宝镇新镇路1050号"},{"poiid":"B2094757D068A0FB4699","title":"航华四村","lon":"121.35918","lat":"31.17104","category":"252","category_name":"楼宇机构","address":"上海市闵行区航北路"},{"poiid":"B2094654DA64A3FE469D","title":"上海市公安局闵行分局交通警察支队二中队","lon":"121.36434","lat":"31.15729","category":"248","category_name":"生活娱乐","address":""},{"poiid":"B2094654DA6BABF4439B","title":"金泰公寓","lon":"121.35968","lat":"31.158234","category":"47","category_name":"住宅区","address":"上海闵行区漕宝路2999弄"},{"poiid":"B2094654DA64A3F94993","title":"三佳花苑","lon":"121.36186","lat":"31.156012","category":"47","category_name":"住宅区","address":"上海新镇路1060弄"},{"poiid":"B2094655D36DA6FC419B","title":"漕宝路星西路","lon":"121.36297","lat":"31.15783","category":"38","category_name":"公交车站","address":""},{"poiid":"B2094655D268A1FE479D","title":"上海市公用事业学校漕宝校区(西门)","lon":"121.37012","lat":"31.16177","category":"678","category_name":"学校大门","address":""},{"poiid":"B2094655D26BA5FE4592","title":"龙昇园","lon":"121.35722","lat":"31.16636","category":"76","category_name":"上海菜","address":"闵行区吴中路2115号龙通生活广场内(近航东路)"},{"poiid":"B2094751D264A3FD4499","title":"上海  美罗城  星巴克","lon":"121.3599418","lat":"31.1644088","category":"247","category_name":"餐饮美食","address":"徐家汇 美罗城"},{"poiid":"B2094757D165AAF8429D","title":"鑫涛鱼村","lon":"121.364564086","lat":"31.1639635359","category":"247","category_name":"餐饮美食","address":"上海虹秀路51号28幢"},{"poiid":"B2094757D069A3FF489F","title":"全家便利 FamilyMart(徐家汇站店)","lon":"121.36650757","lat":"31.161474262","category":"117","category_name":"便民商店/便利店","address":"上海徐家汇1、9号线换乘通道内"},{"poiid":"B2094757D465A0FB419E","title":"梁记面馆 紫藤路店","lon":"121.36415","lat":"31.17385","category":"91","category_name":"台湾菜","address":"闵行区紫藤路225号(吴中路青衫路间)"},{"poiid":"B2094757D469A5F9449F","title":"鑫涛渔村","lon":"121.36588096619","lat":"31.166195162946","category":"260","category_name":"其他","address":"闵行区虹秀路51号28栋(吴中路)"},{"poiid":"B2094753D764A2F5459B","title":"上海七宝老街","lon":"121.361495","lat":"31.158798","category":"500","category_name":"未知分类","address":"上海市 上海七宝老街"},{"poiid":"B2094654DA6BAAFF4698","title":"七宝人家","lon":"121.357322054","lat":"31.157613793","category":"76","category_name":"上海菜","address":"闵行区新镇路1262号(漕宝路口)"},{"poiid":"B2094655D36DA0FE4699","title":"星中路","lon":"121.36743","lat":"31.15811","category":"38","category_name":"公交车站","address":""},{"poiid":"B2094757D065ABFC419F","title":"龙通生活广场 龙升园","lon":"121.36262558","lat":"31.16472415","category":"500","category_name":"未知分类","address":"上海吴中路2115号"},{"poiid":"B2094655D26AA0FA459A","title":"地铁星中路站","lon":"121.36841","lat":"31.15806","category":"36","category_name":"地铁站","address":""},{"poiid":"B2094654DA6BAAFF479C","title":"快客(漕宝路)","lon":"121.36234","lat":"31.15754","category":"117","category_name":"便民商店/便利店","address":""},{"poiid":"B2094757D06AA4F94998","title":"吴中路地铁控制中心","lon":"121.362484386","lat":"31.1692998401","category":"36","category_name":"地铁站","address":"上海吴中路1779号"},{"poiid":"B2094757D16DA6FC439E","title":"上海国际汽车城大厦","lon":"121.36170279","lat":"31.156581019","category":"46","category_name":"楼宇","address":"上海嘉定区安亭墨玉南路888号"},{"poiid":"B2094655D36DA2FF479C","title":"外环漕宝路立交桥","lon":"121.36653","lat":"31.15854","category":"250","category_name":"公园户外","address":""},{"poiid":"B2094757D065A6FC4392","title":"西北郎烧烤(七宝店)","lon":"121.3581","lat":"31.15587","category":"247","category_name":"餐饮美食","address":"上海闵行区七宝老街口  "},{"poiid":"B2094757D068ABFB479C","title":"海上新村","lon":"121.36875","lat":"31.156965","category":"47","category_name":"住宅区","address":"上海漕宝路1800弄"},{"poiid":"B2094655D36DA6FC419A","title":"漕宝路新镇路","lon":"121.35825","lat":"31.15719","category":"38","category_name":"公交车站","address":""},{"poiid":"B2094654DA6BABF44193","title":"七宝镇第一工业区","lon":"121.35789","lat":"31.16402","category":"45","category_name":"产业园区","address":""},{"poiid":"B2094654DB65A5F44592","title":"红明村","lon":"121.36797","lat":"31.160118","category":"47","category_name":"住宅区","address":"漕宝路1783弄"},{"poiid":"B2094757D469A5FD4793","title":"漕宝路兰州正宗牛肉拉面","lon":"121.368502","lat":"31.158047","category":"87","category_name":"特色／地方风味餐厅","address":"闵行区漕宝路1792号(近地铁星中路站)"},{"poiid":"B2094654DA6BAAFE409F","title":"上海伸铭亚克力制品有限公司","lon":"121.36214","lat":"31.16355","category":"263","category_name":"公司","address":""},{"poiid":"B2094753D56DA2FF4199","title":"南京路","lon":"121.363983","lat":"31.164787","category":"500","category_name":"未知分类","address":"上海市 上海福建中路535号"},{"poiid":"B2094757D165A3FA489E","title":"七宝老街","lon":"121.358113586","lat":"31.1531869255","category":"500","category_name":"未知分类","address":"闵行区七宝镇富强街(七莘路新镇路间)"},{"poiid":"B2094654DA6BAAFC469B","title":"汇宝购物广场","lon":"121.35521","lat":"31.16134","category":"248","category_name":"生活娱乐","address":"闵行区漕宝路3509号(近七莘路)"},{"poiid":"B2094654DA64ABF5409E","title":"七宝镇步行街","lon":"121.35808437301637","lat":"31.153243179298574","category":"116","category_name":"特色商业街","address":"闵行区富强街"},{"poiid":"B2094757D06FA1FB4299","title":"星中路地铁站","lon":"121.368422","lat":"31.158064","category":"36","category_name":"地铁站","address":"上海轨道交通 九号线 轨交星中路站 9"},{"poiid":"B2094757D068A3F9499A","title":"龙通生活广场","lon":"121.35712036","lat":"31.166309951","category":"217","category_name":"旅馆招待所","address":"闵行区吴中路2115号龙通生活广场内(近航东路)"},{"poiid":"B2094757D069A7F5429F","title":"船料理","lon":"121.36570758","lat":"31.170860803","category":"95","category_name":"日本料理","address":"闵行区吴中路1780号1楼(紫藤路口)"},{"poiid":"B2094757D06FA3FD4493","title":"航中路地铁站","lon":"121.35431257408618","lat":"31.165802804243846","category":"36","category_name":"地铁站","address":"上海轨道交通 十号线 轨交航中路站 10"},{"poiid":"B2094757DA65A7F84593","title":"炭","lon":"121.37090504","lat":"31.16090053999999","category":"247","category_name":"餐饮美食","address":"虹泉路1101弄7号(近虹莘路)"},{"poiid":"B2094655D26EA4FD409E","title":"龙通生活广场龙宴楼","lon":"121.35704","lat":"31.16625","category":"247","category_name":"餐饮美食","address":"上海闵行区吴中路2115号龙通生活广场(近航东路)  "},{"poiid":"B2094757D069A2F84293","title":"七宝教寺","lon":"121.3578","lat":"31.15457","category":"244","category_name":"寺庙道观","address":"闵行区七宝镇新镇路1205号"},{"poiid":"B2094757D06BA7FC429C","title":"S20外环线漕宝路出口","lon":"121.367194586","lat":"31.158640732","category":"500","category_name":"未知分类","address":"上海漕宝路"},{"poiid":"B2094655D36DA6FF429D","title":"紫藤路","lon":"121.36432","lat":"31.16975","category":"38","category_name":"公交车站","address":""},{"poiid":"B2094757D065AAF84592","title":"颖尚精菜坊","lon":"121.367322586","lat":"31.1647771518","category":"76","category_name":"上海菜","address":"闵行区虹秀路51号(虹泉路西)"},{"poiid":"B2094757D06FA6FA4799","title":"紫藤路地铁站","lon":"121.3643881","lat":"31.169777636","category":"36","category_name":"地铁站","address":"上海轨道交通 十号线 轨交紫藤路站 10"},{"poiid":"B2094757D06FA4F8499E","title":"S20外环线 吴中路出口","lon":"121.36280834","lat":"31.1690515595","category":"260","category_name":"其他","address":"上海闵行区外环吴中路"},{"poiid":"B2094757D069A1FE469E","title":"新大陆高尔夫练习场","lon":"121.36319","lat":"31.16907","category":"260","category_name":"其他","address":"闵行区吴中路1888号(近环西一大道)"},{"poiid":"B2094654DA6BABF4409D","title":"茂盛城市花园","lon":"121.36122","lat":"31.15213","category":"47","category_name":"住宅区","address":"新镇路1036弄"},{"poiid":"B2094655D26BA2FC489D","title":"吴中路航中路","lon":"121.35786","lat":"31.16705","category":"38","category_name":"公交车站","address":""},{"poiid":"B2094654DA6BABF4439D","title":"秀枫翠谷公寓","lon":"121.36489","lat":"31.15887","category":"47","category_name":"住宅区","address":"漕宝路1911号"},{"poiid":"B2094757D069A7F4449D","title":"中化道达尔加油站","lon":"121.362674","lat":"31.158158","category":"500","category_name":"未知分类","address":"闵行区漕宝路1997号(近星强街)"},{"poiid":"B2094654DB69A6FE429B","title":"明强小学","lon":"121.3612","lat":"31.15171","category":"56","category_name":"小学","address":"闵行区七宝镇新镇路1050号"},{"poiid":"B2094757D068A0FB4699","title":"航华四村","lon":"121.35918","lat":"31.17104","category":"252","category_name":"楼宇机构","address":"上海市闵行区航北路"},{"poiid":"B2094654DA64A3FE469D","title":"上海市公安局闵行分局交通警察支队二中队","lon":"121.36434","lat":"31.15729","category":"248","category_name":"生活娱乐","address":""},{"poiid":"B2094654DA6BABF4439B","title":"金泰公寓","lon":"121.35968","lat":"31.158234","category":"47","category_name":"住宅区","address":"上海闵行区漕宝路2999弄"},{"poiid":"B2094654DA64A3F94993","title":"三佳花苑","lon":"121.36186","lat":"31.156012","category":"47","category_name":"住宅区","address":"上海新镇路1060弄"},{"poiid":"B2094655D36DA6FC419B","title":"漕宝路星西路","lon":"121.36297","lat":"31.15783","category":"38","category_name":"公交车站","address":""},{"poiid":"B2094655D268A1FE479D","title":"上海市公用事业学校漕宝校区(西门)","lon":"121.37012","lat":"31.16177","category":"678","category_name":"学校大门","address":""},{"poiid":"B2094655D26BA5FE4592","title":"龙昇园","lon":"121.35722","lat":"31.16636","category":"76","category_name":"上海菜","address":"闵行区吴中路2115号龙通生活广场内(近航东路)"},{"poiid":"B2094751D264A3FD4499","title":"上海  美罗城  星巴克","lon":"121.3599418","lat":"31.1644088","category":"247","category_name":"餐饮美食","address":"徐家汇 美罗城"},{"poiid":"B2094757D165AAF8429D","title":"鑫涛鱼村","lon":"121.364564086","lat":"31.1639635359","category":"247","category_name":"餐饮美食","address":"上海虹秀路51号28幢"},{"poiid":"B2094757D069A3FF489F","title":"全家便利 FamilyMart(徐家汇站店)","lon":"121.36650757","lat":"31.161474262","category":"117","category_name":"便民商店/便利店","address":"上海徐家汇1、9号线换乘通道内"},{"poiid":"B2094757D465A0FB419E","title":"梁记面馆 紫藤路店","lon":"121.36415","lat":"31.17385","category":"91","category_name":"台湾菜","address":"闵行区紫藤路225号(吴中路青衫路间)"},{"poiid":"B2094757D469A5F9449F","title":"鑫涛渔村","lon":"121.36588096619","lat":"31.166195162946","category":"260","category_name":"其他","address":"闵行区虹秀路51号28栋(吴中路)"},{"poiid":"B2094753D764A2F5459B","title":"上海七宝老街","lon":"121.361495","lat":"31.158798","category":"500","category_name":"未知分类","address":"上海市 上海七宝老街"},{"poiid":"B2094654DA6BAAFF4698","title":"七宝人家","lon":"121.357322054","lat":"31.157613793","category":"76","category_name":"上海菜","address":"闵行区新镇路1262号(漕宝路口)"},{"poiid":"B2094655D36DA0FE4699","title":"星中路","lon":"121.36743","lat":"31.15811","category":"38","category_name":"公交车站","address":""},{"poiid":"B2094757D065ABFC419F","title":"龙通生活广场 龙升园","lon":"121.36262558","lat":"31.16472415","category":"500","category_name":"未知分类","address":"上海吴中路2115号"},{"poiid":"B2094655D26AA0FA459A","title":"地铁星中路站","lon":"121.36841","lat":"31.15806","category":"36","category_name":"地铁站","address":""},{"poiid":"B2094654DA6BAAFF479C","title":"快客(漕宝路)","lon":"121.36234","lat":"31.15754","category":"117","category_name":"便民商店/便利店","address":""},{"poiid":"B2094757D06AA4F94998","title":"吴中路地铁控制中心","lon":"121.362484386","lat":"31.1692998401","category":"36","category_name":"地铁站","address":"上海吴中路1779号"},{"poiid":"B2094757D16DA6FC439E","title":"上海国际汽车城大厦","lon":"121.36170279","lat":"31.156581019","category":"46","category_name":"楼宇","address":"上海嘉定区安亭墨玉南路888号"},{"poiid":"B2094655D36DA2FF479C","title":"外环漕宝路立交桥","lon":"121.36653","lat":"31.15854","category":"250","category_name":"公园户外","address":""},{"poiid":"B2094757D065A6FC4392","title":"西北郎烧烤(七宝店)","lon":"121.3581","lat":"31.15587","category":"247","category_name":"餐饮美食","address":"上海闵行区七宝老街口  "},{"poiid":"B2094757D068ABFB479C","title":"海上新村","lon":"121.36875","lat":"31.156965","category":"47","category_name":"住宅区","address":"上海漕宝路1800弄"},{"poiid":"B2094655D36DA6FC419A","title":"漕宝路新镇路","lon":"121.35825","lat":"31.15719","category":"38","category_name":"公交车站","address":""},{"poiid":"B2094654DA6BABF44193","title":"七宝镇第一工业区","lon":"121.35789","lat":"31.16402","category":"45","category_name":"产业园区","address":""},{"poiid":"B2094654DB65A5F44592","title":"红明村","lon":"121.36797","lat":"31.160118","category":"47","category_name":"住宅区","address":"漕宝路1783弄"},{"poiid":"B2094757D469A5FD4793","title":"漕宝路兰州正宗牛肉拉面","lon":"121.368502","lat":"31.158047","category":"87","category_name":"特色／地方风味餐厅","address":"闵行区漕宝路1792号(近地铁星中路站)"},{"poiid":"B2094654DA6BAAFE409F","title":"上海伸铭亚克力制品有限公司","lon":"121.36214","lat":"31.16355","category":"263","category_name":"公司","address":""},{"poiid":"B2094753D56DA2FF4199","title":"南京路","lon":"121.363983","lat":"31.164787","category":"500","category_name":"未知分类","address":"上海市 上海福建中路535号"}]