[{"poiid":"B2094655D268ABF8409D","title":"外环沪宁立交桥","lon":"121.35323","lat":"31.25253","category":"250","category_name":"公园户外","address":""},{"poiid":"B2094757D06FA2FA499A","title":"3131创意园","lon":"121.35798645","lat":"31.240301132","category":"46","category_name":"楼宇","address":"上海金沙江路3131号创意园"},{"poiid":"B2094757D06FA2FB439B","title":"大润发(曹安路店)","lon":"121.36147","lat":"31.25241","category":"118","category_name":"超级市场","address":"嘉定区新郁路807号(上海国际鞋城对面)"},{"poiid":"B2094654DB6BA0FE459E","title":"嘉宝·都市港湾","lon":"121.35691","lat":"31.24504","category":"47","category_name":"住宅区","address":"新郁路199弄1-33号"},{"poiid":"B2094655D36CA2F8479B","title":"清峪路丰庄西路","lon":"121.35609","lat":"31.24664","category":"38","category_name":"公交车站","address":""},{"poiid":"B2094757D06FA7FE479E","title":"丰庄十四街坊","lon":"121.36180756625","lat":"31.253108907649","category":"47","category_name":"住宅区","address":"上海嘉定区丰庄西路433弄,丰庄西路551弄,丰庄北路151弄"},{"poiid":"B2094757D064A3FE439B","title":"自由港量贩式KTV(曹安店)","lon":"121.36219423","lat":"31.2519824959","category":"170","category_name":"KTV","address":"嘉定区新郁路817号大润发B1楼(曹安路口)"},{"poiid":"B2094757D06AA3FA469D","title":"金沙嘉苑","lon":"121.35303","lat":"31.244444","category":"47","category_name":"住宅区","address":"上海市嘉定区金沙江路3188弄"},{"poiid":"B2094757D06FAAFC489E","title":"老盛昌苏州汤包馆(丰庄店)","lon":"121.363603","lat":"31.247496","category":"87","category_name":"特色／地方风味餐厅","address":"嘉定区丰庄路377号"},{"poiid":"B2094757D06EAAFF4893","title":"上海市轻纺市场","lon":"121.35904421","lat":"31.249372466","category":"249","category_name":"购物服务","address":"嘉定区曹安公路1618号(近祁连山路)"},{"poiid":"B2094757D065A4FF4998","title":"丰庄","lon":"121.359473","lat":"31.249872","category":"500","category_name":"未知分类","address":"上海丰庄西路"},{"poiid":"B2094654D56AA3FC409B","title":"金沙社区","lon":"121.3543","lat":"31.24689","category":"47","category_name":"住宅区","address":"丰庄西路433弄"},{"poiid":"B2094654D569AAF54399","title":"明日新苑","lon":"121.36196","lat":"31.24622","category":"47","category_name":"住宅区","address":"明日新苑(三期)位于普陀丰庄路291号"},{"poiid":"B2094757D16CA6F5449F","title":"住嘉佳園","lon":"121.35377392","lat":"31.250977359","category":"47","category_name":"住宅区","address":"上海豐庄北路"},{"poiid":"B2094757D66BABFE439A","title":"丰茂兴","lon":"121.361672054","lat":"31.242626793","category":"76","category_name":"上海菜","address":"嘉定区丰庄路118号(近清峪路)"},{"poiid":"B2094757D06FA1FB429A","title":"丰庄金沙社区","lon":"121.354304","lat":"31.246893","category":"47","category_name":"住宅区","address":"上海丰庄西路433弄"},{"poiid":"B2094655D26AA0F9499D","title":"地铁丰庄站","lon":"121.35443","lat":"31.24322","category":"36","category_name":"地铁站","address":""},{"poiid":"B2094757D16EA5F9449F","title":"川夫烤鱼重庆鸡公煲(丰庄店)","lon":"121.356486","lat":"31.249336","category":"71","category_name":"四川菜","address":"嘉定区丰庄西路629号(近765终点站)"},{"poiid":"B2094750D56DA5F4439C","title":"侬知虾","lon":"121.361267","lat":"31.243492","category":"68","category_name":"快餐厅","address":"普陀区丰庄路96号(近金沙江路)"},{"poiid":"B2094654D56AA3FC479C","title":"振鑫火锅 丰庄店","lon":"121.361565054","lat":"31.243104793","category":"86","category_name":"火锅店","address":"嘉定区丰庄路132号(近清峪路)"},{"poiid":"B2094654D569AAF5459D","title":"金沙丽晶苑","lon":"121.36074","lat":"31.243763","category":"47","category_name":"住宅区","address":"丰庄路99弄1-9号"},{"poiid":"B2094750D664A1FD439D","title":"楠华饭店(新郁店)","lon":"121.358","lat":"31.2437","category":"76","category_name":"上海菜","address":"嘉定区新郁路173号(近金沙江路)"},{"poiid":"B2094654DB64ABF9429F","title":"真新绿地医院","lon":"121.36176","lat":"31.24474","category":"162","category_name":"医院","address":"丰庄路255"},{"poiid":"B2094750D068A2FA489C","title":"谈阿姨炸猪排","lon":"121.36115319286","lat":"31.252600663819","category":"247","category_name":"餐饮美食","address":"丰庄路肯德基对面"},{"poiid":"B2094757D568A0FA499B","title":"智慧金沙3131","lon":"121.3543539","lat":"31.24302167","category":"47","category_name":"住宅区","address":"嘉定区金沙江路3131号(近新郁路)"},{"poiid":"B2094757D068AAFD4393","title":"a20高速公路","lon":"121.35552215","lat":"31.255931854","category":"260","category_name":"其他","address":"上海沪闵高架—漕宝—虹桥—淞虹路"},{"poiid":"B2094654D56AA3FC4198","title":"丰庄糕点","lon":"121.35558","lat":"31.24761","category":"112","category_name":"糕饼店","address":""},{"poiid":"B2094751D368AAFA4193","title":"蜀膳传火锅传奇(丰庄店)","lon":"121.36284","lat":"31.24621","category":"86","category_name":"火锅店","address":"嘉定区丰庄路319号(近曹安路轻纺市场)"},{"poiid":"B2094757D16CA2FA469E","title":"金沙绿地公园","lon":"121.35591168","lat":"31.245981789","category":"196","category_name":"公园","address":"嘉定区丰庄路69号(近清峪路)"},{"poiid":"B2094757D66BABF44098","title":"湘村人家 丰庄店","lon":"121.36274","lat":"31.24604","category":"77","category_name":"湖南菜","address":"嘉定区丰庄路309号(近清峪路)"},{"poiid":"B2094655D26EA3FE479B","title":"金沙社区(东门)","lon":"121.35524","lat":"31.247","category":"47","category_name":"住宅区","address":"丰庄西路433弄"},{"poiid":"B2094757D66EA0F4489F","title":"UAL倫敦藝術大學上海代表處","lon":"121.35537995","lat":"31.2487496542","category":"249","category_name":"购物服务","address":"上海市徐匯區天鑰橋路325號嘉匯國際廣場A棟2112-2113"},{"poiid":"B2094654D46BA6FC4698","title":"佳嘉佳园","lon":"121.35703","lat":"31.25065","category":"47","category_name":"住宅区","address":"丰庄北路5弄1-50号"},{"poiid":"B2094757D16AA7F4419A","title":"上海师范大学附属外国语中学","lon":"121.35549195","lat":"31.248423648","category":"500","category_name":"未知分类","address":"上海市松江区中山西路朱家廊18号"},{"poiid":"B2094757D068ABF44598","title":"765终点站-丰庄","lon":"121.36017495","lat":"31.249568669","category":"38","category_name":"公交车站","address":"上海丰庄西路"},{"poiid":"B2094757D16EA0FF459A","title":"四姑娘川菜馆 丰庄西路店","lon":"121.356608054","lat":"31.249574793","category":"71","category_name":"四川菜","address":"嘉定区丰庄西路641号(近公交765终点站)"},{"poiid":"B2094757D164A5FD429D","title":"肇嘉浜路吴兴路","lon":"121.35772588","lat":"31.246595751","category":"46","category_name":"楼宇","address":"上海肇嘉浜路798号"},{"poiid":"B2094654DB6AA4FF4192","title":"老五饭店","lon":"121.3576","lat":"31.25023","category":"68","category_name":"快餐厅","address":"普陀区丰庄北路"},{"poiid":"B2094655D265A1F9479A","title":"嘉宝都市港湾二期","lon":"121.35705","lat":"31.243309","category":"47","category_name":"住宅区","address":"上海市嘉定区新郁路199弄"},{"poiid":"B2094752DA64A7FF439F","title":"同济大学嘉定校区","lon":"121.354391","lat":"31.247466","category":"500","category_name":"未知分类","address":"上海市 曹安公路4800号"},{"poiid":"B2094655D26FA1F54998","title":"福建沙县营养小吃(丰庄西路)","lon":"121.35681","lat":"31.25023","category":"68","category_name":"快餐厅","address":"丰庄西路701"},{"poiid":"B2094757D66CA6FA479E","title":"龙虾哥哥","lon":"121.35881858","lat":"31.241848658","category":"247","category_name":"餐饮美食","address":"上海金沙江路2898号"},{"poiid":"B2094654D46BA6FD4492","title":"复星大药房丰庄店","lon":"121.35799","lat":"31.24985","category":"162","category_name":"医院","address":"丰庄北路60-64"},{"poiid":"B2094752D36CA0FA449E","title":"上海虹桥火车站","lon":"121.357257","lat":"31.243863","category":"500","category_name":"未知分类","address":null},{"poiid":"B2094757D465A7FE469B","title":"集集小镇 新郁路店 Jijitown","lon":"121.36144","lat":"31.25226","category":"68","category_name":"快餐厅","address":"嘉定区新郁路807号(近曹安路)"},{"poiid":"B2094757D069ABFF409F","title":"Mixxie's","lon":"121.3554805","lat":"31.2470748","category":"500","category_name":"未知分类","address":"上海嘉定区丰庄西路"},{"poiid":"B2094757D16EA6FD429E","title":"丰庄北路丰庄路(志能新苑)","lon":"121.35671345","lat":"31.248605151","category":"500","category_name":"未知分类","address":"上海丰庄北路丰庄路355弄"},{"poiid":"B2094654DB65A7FD4498","title":"佳嘉佳园(南门)","lon":"121.35713","lat":"31.25044","category":"47","category_name":"住宅区","address":"丰庄北路5弄1-50号"},{"poiid":"B2094757D06FA6FD439C","title":"丰庄新郁社区","lon":"121.35975372","lat":"31.248725323","category":"252","category_name":"楼宇机构","address":"上海丰庄十二街坊"},{"poiid":"B2094757D06BA4F8449E","title":"四海游龙 丰庄店 OVERSEAS DRAGON","lon":"121.36283","lat":"31.24643","category":"68","category_name":"快餐厅","address":"真新街道丰庄路325号"},{"poiid":"B2094655D268ABF8409D","title":"外环沪宁立交桥","lon":"121.35323","lat":"31.25253","category":"250","category_name":"公园户外","address":""},{"poiid":"B2094757D06FA2FA499A","title":"3131创意园","lon":"121.35798645","lat":"31.240301132","category":"46","category_name":"楼宇","address":"上海金沙江路3131号创意园"},{"poiid":"B2094757D06FA2FB439B","title":"大润发(曹安路店)","lon":"121.36147","lat":"31.25241","category":"118","category_name":"超级市场","address":"嘉定区新郁路807号(上海国际鞋城对面)"},{"poiid":"B2094654DB6BA0FE459E","title":"嘉宝·都市港湾","lon":"121.35691","lat":"31.24504","category":"47","category_name":"住宅区","address":"新郁路199弄1-33号"},{"poiid":"B2094655D36CA2F8479B","title":"清峪路丰庄西路","lon":"121.35609","lat":"31.24664","category":"38","category_name":"公交车站","address":""},{"poiid":"B2094757D06FA7FE479E","title":"丰庄十四街坊","lon":"121.36180756625","lat":"31.253108907649","category":"47","category_name":"住宅区","address":"上海嘉定区丰庄西路433弄,丰庄西路551弄,丰庄北路151弄"},{"poiid":"B2094757D064A3FE439B","title":"自由港量贩式KTV(曹安店)","lon":"121.36219423","lat":"31.2519824959","category":"170","category_name":"KTV","address":"嘉定区新郁路817号大润发B1楼(曹安路口)"},{"poiid":"B2094757D06AA3FA469D","title":"金沙嘉苑","lon":"121.35303","lat":"31.244444","category":"47","category_name":"住宅区","address":"上海市嘉定区金沙江路3188弄"},{"poiid":"B2094757D06FAAFC489E","title":"老盛昌苏州汤包馆(丰庄店)","lon":"121.363603","lat":"31.247496","category":"87","category_name":"特色／地方风味餐厅","address":"嘉定区丰庄路377号"},{"poiid":"B2094757D06EAAFF4893","title":"上海市轻纺市场","lon":"121.35904421","lat":"31.249372466","category":"249","category_name":"购物服务","address":"嘉定区曹安公路1618号(近祁连山路)"},{"poiid":"B2094757D065A4FF4998","title":"丰庄","lon":"121.359473","lat":"31.249872","category":"500","category_name":"未知分类","address":"上海丰庄西路"},{"poiid":"B2094654D56AA3FC409B","title":"金沙社区","lon":"121.3543","lat":"31.24689","category":"47","category_name":"住宅区","address":"丰庄西路433弄"},{"poiid":"B2094654D569AAF54399","title":"明日新苑","lon":"121.36196","lat":"31.24622","category":"47","category_name":"住宅区","address":"明日新苑(三期)位于普陀丰庄路291号"},{"poiid":"B2094757D16CA6F5449F","title":"住嘉佳園","lon":"121.35377392","lat":"31.250977359","category":"47","category_name":"住宅区","address":"上海豐庄北路"},{"poiid":"B2094757D66BABFE439A","title":"丰茂兴","lon":"121.361672054","lat":"31.242626793","category":"76","category_name":"上海菜","address":"嘉定区丰庄路118号(近清峪路)"},{"poiid":"B2094757D06FA1FB429A","title":"丰庄金沙社区","lon":"121.354304","lat":"31.246893","category":"47","category_name":"住宅区","address":"上海丰庄西路433弄"},{"poiid":"B2094655D26AA0F9499D","title":"地铁丰庄站","lon":"121.35443","lat":"31.24322","category":"36","category_name":"地铁站","address":""},{"poiid":"B2094757D16EA5F9449F","title":"川夫烤鱼重庆鸡公煲(丰庄店)","lon":"121.356486","lat":"31.249336","category":"71","category_name":"四川菜","address":"嘉定区丰庄西路629号(近765终点站)"},{"poiid":"B2094750D56DA5F4439C","title":"侬知虾","lon":"121.361267","lat":"31.243492","category":"68","category_name":"快餐厅","address":"普陀区丰庄路96号(近金沙江路)"},{"poiid":"B2094654D56AA3FC479C","title":"振鑫火锅 丰庄店","lon":"121.361565054","lat":"31.243104793","category":"86","category_name":"火锅店","address":"嘉定区丰庄路132号(近清峪路)"},{"poiid":"B2094654D569AAF5459D","title":"金沙丽晶苑","lon":"121.36074","lat":"31.243763","category":"47","category_name":"住宅区","address":"丰庄路99弄1-9号"},{"poiid":"B2094750D664A1FD439D","title":"楠华饭店(新郁店)","lon":"121.358","lat":"31.2437","category":"76","category_name":"上海菜","address":"嘉定区新郁路173号(近金沙江路)"},{"poiid":"B2094654DB64ABF9429F","title":"真新绿地医院","lon":"121.36176","lat":"31.24474","category":"162","category_name":"医院","address":"丰庄路255"},{"poiid":"B2094750D068A2FA489C","title":"谈阿姨炸猪排","lon":"121.36115319286","lat":"31.252600663819","category":"247","category_name":"餐饮美食","address":"丰庄路肯德基对面"},{"poiid":"B2094757D568A0FA499B","title":"智慧金沙3131","lon":"121.3543539","lat":"31.24302167","category":"47","category_name":"住宅区","address":"嘉定区金沙江路3131号(近新郁路)"},{"poiid":"B2094757D068AAFD4393","title":"a20高速公路","lon":"121.35552215","lat":"31.255931854","category":"260","category_name":"其他","address":"上海沪闵高架—漕宝—虹桥—淞虹路"},{"poiid":"B2094654D56AA3FC4198","title":"丰庄糕点","lon":"121.35558","lat":"31.24761","category":"112","category_name":"糕饼店","address":""},{"poiid":"B2094751D368AAFA4193","title":"蜀膳传火锅传奇(丰庄店)","lon":"121.36284","lat":"31.24621","category":"86","category_name":"火锅店","address":"嘉定区丰庄路319号(近曹安路轻纺市场)"},{"poiid":"B2094757D16CA2FA469E","title":"金沙绿地公园","lon":"121.35591168","lat":"31.245981789","category":"196","category_name":"公园","address":"嘉定区丰庄路69号(近清峪路)"},{"poiid":"B2094757D66BABF44098","title":"湘村人家 丰庄店","lon":"121.36274","lat":"31.24604","category":"77","category_name":"湖南菜","address":"嘉定区丰庄路309号(近清峪路)"},{"poiid":"B2094655D26EA3FE479B","title":"金沙社区(东门)","lon":"121.35524","lat":"31.247","category":"47","category_name":"住宅区","address":"丰庄西路433弄"},{"poiid":"B2094757D66EA0F4489F","title":"UAL倫敦藝術大學上海代表處","lon":"121.35537995","lat":"31.2487496542","category":"249","category_name":"购物服务","address":"上海市徐匯區天鑰橋路325號嘉匯國際廣場A棟2112-2113"},{"poiid":"B2094654D46BA6FC4698","title":"佳嘉佳园","lon":"121.35703","lat":"31.25065","category":"47","category_name":"住宅区","address":"丰庄北路5弄1-50号"},{"poiid":"B2094757D16AA7F4419A","title":"上海师范大学附属外国语中学","lon":"121.35549195","lat":"31.248423648","category":"500","category_name":"未知分类","address":"上海市松江区中山西路朱家廊18号"},{"poiid":"B2094757D068ABF44598","title":"765终点站-丰庄","lon":"121.36017495","lat":"31.249568669","category":"38","category_name":"公交车站","address":"上海丰庄西路"},{"poiid":"B2094757D16EA0FF459A","title":"四姑娘川菜馆 丰庄西路店","lon":"121.356608054","lat":"31.249574793","category":"71","category_name":"四川菜","address":"嘉定区丰庄西路641号(近公交765终点站)"},{"poiid":"B2094757D164A5FD429D","title":"肇嘉浜路吴兴路","lon":"121.35772588","lat":"31.246595751","category":"46","category_name":"楼宇","address":"上海肇嘉浜路798号"},{"poiid":"B2094654DB6AA4FF4192","title":"老五饭店","lon":"121.3576","lat":"31.25023","category":"68","category_name":"快餐厅","address":"普陀区丰庄北路"},{"poiid":"B2094655D265A1F9479A","title":"嘉宝都市港湾二期","lon":"121.35705","lat":"31.243309","category":"47","category_name":"住宅区","address":"上海市嘉定区新郁路199弄"},{"poiid":"B2094752DA64A7FF439F","title":"同济大学嘉定校区","lon":"121.354391","lat":"31.247466","category":"500","category_name":"未知分类","address":"上海市 曹安公路4800号"},{"poiid":"B2094655D26FA1F54998","title":"福建沙县营养小吃(丰庄西路)","lon":"121.35681","lat":"31.25023","category":"68","category_name":"快餐厅","address":"丰庄西路701"},{"poiid":"B2094757D66CA6FA479E","title":"龙虾哥哥","lon":"121.35881858","lat":"31.241848658","category":"247","category_name":"餐饮美食","address":"上海金沙江路2898号"},{"poiid":"B2094654D46BA6FD4492","title":"复星大药房丰庄店","lon":"121.35799","lat":"31.24985","category":"162","category_name":"医院","address":"丰庄北路60-64"},{"poiid":"B2094752D36CA0FA449E","title":"上海虹桥火车站","lon":"121.357257","lat":"31.243863","category":"500","category_name":"未知分类","address":null},{"poiid":"B2094757D465A7FE469B","title":"集集小镇 新郁路店 Jijitown","lon":"121.36144","lat":"31.25226","category":"68","category_name":"快餐厅","address":"嘉定区新郁路807号(近曹安路)"},{"poiid":"B2094757D069ABFF409F","title":"Mixxie's","lon":"121.3554805","lat":"31.2470748","category":"500","category_name":"未知分类","address":"上海嘉定区丰庄西路"},{"poiid":"B2094757D16EA6FD429E","title":"丰庄北路丰庄路(志能新苑)","lon":"121.35671345","lat":"31.248605151","category":"500","category_name":"未知分类","address":"上海丰庄北路丰庄路355弄"},{"poiid":"B2094654DB65A7FD4498","title":"佳嘉佳园(南门)","lon":"121.35713","lat":"31.25044","category":"47","category_name":"住宅区","address":"丰庄北路5弄1-50号"},{"poiid":"B2094757D06FA6FD439C","title":"丰庄新郁社区","lon":"121.35975372","lat":"31.248725323","category":"252","category_name":"楼宇机构","address":"上海丰庄十二街坊"},{"poiid":"B2094757D06BA4F8449E","title":"四海游龙 丰庄店 OVERSEAS DRAGON","lon":"121.36283","lat":"31.24643","category":"68","category_name":"快餐厅","address":"真新街道丰庄路325号"},{"poiid":"B2094655D268ABF8409D","title":"外环沪宁立交桥","lon":"121.35323","lat":"31.25253","category":"250","category_name":"公园户外","address":""},{"poiid":"B2094757D06FA2FA499A","title":"3131创意园","lon":"121.35798645","lat":"31.240301132","category":"46","category_name":"楼宇","address":"上海金沙江路3131号创意园"},{"poiid":"B2094757D06FA2FB439B","title":"大润发(曹安路店)","lon":"121.36147","lat":"31.25241","category":"118","category_name":"超级市场","address":"嘉定区新郁路807号(上海国际鞋城对面)"},{"poiid":"B2094654DB6BA0FE459E","title":"嘉宝·都市港湾","lon":"121.35691","lat":"31.24504","category":"47","category_name":"住宅区","address":"新郁路199弄1-33号"},{"poiid":"B2094655D36CA2F8479B","title":"清峪路丰庄西路","lon":"121.35609","lat":"31.24664","category":"38","category_name":"公交车站","address":""},{"poiid":"B2094757D06FA7FE479E","title":"丰庄十四街坊","lon":"121.36180756625","lat":"31.253108907649","category":"47","category_name":"住宅区","address":"上海嘉定区丰庄西路433弄,丰庄西路551弄,丰庄北路151弄"},{"poiid":"B2094757D064A3FE439B","title":"自由港量贩式KTV(曹安店)","lon":"121.36219423","lat":"31.2519824959","category":"170","category_name":"KTV","address":"嘉定区新郁路817号大润发B1楼(曹安路口)"},{"poiid":"B2094757D06AA3FA469D","title":"金沙嘉苑","lon":"121.35303","lat":"31.244444","category":"47","category_name":"住宅区","address":"上海市嘉定区金沙江路3188弄"},{"poiid":"B2094757D06FAAFC489E","title":"老盛昌苏州汤包馆(丰庄店)","lon":"121.363603","lat":"31.247496","category":"87","category_name":"特色／地方风味餐厅","address":"嘉定区丰庄路377号"},{"poiid":"B2094757D06EAAFF4893","title":"上海市轻纺市场","lon":"121.35904421","lat":"31.249372466","category":"249","category_name":"购物服务","address":"嘉定区曹安公路1618号(近祁连山路)"},{"poiid":"B2094757D065A4FF4998","title":"丰庄","lon":"121.359473","lat":"31.249872","category":"500","category_name":"未知分类","address":"上海丰庄西路"},{"poiid":"B2094654D56AA3FC409B","title":"金沙社区","lon":"121.3543","lat":"31.24689","category":"47","category_name":"住宅区","address":"丰庄西路433弄"},{"poiid":"B2094654D569AAF54399","title":"明日新苑","lon":"121.36196","lat":"31.24622","category":"47","category_name":"住宅区","address":"明日新苑(三期)位于普陀丰庄路291号"},{"poiid":"B2094757D16CA6F5449F","title":"住嘉佳園","lon":"121.35377392","lat":"31.250977359","category":"47","category_name":"住宅区","address":"上海豐庄北路"},{"poiid":"B2094757D66BABFE439A","title":"丰茂兴","lon":"121.361672054","lat":"31.242626793","category":"76","category_name":"上海菜","address":"嘉定区丰庄路118号(近清峪路)"},{"poiid":"B2094757D06FA1FB429A","title":"丰庄金沙社区","lon":"121.354304","lat":"31.246893","category":"47","category_name":"住宅区","address":"上海丰庄西路433弄"},{"poiid":"B2094655D26AA0F9499D","title":"地铁丰庄站","lon":"121.35443","lat":"31.24322","category":"36","category_name":"地铁站","address":""},{"poiid":"B2094757D16EA5F9449F","title":"川夫烤鱼重庆鸡公煲(丰庄店)","lon":"121.356486","lat":"31.249336","category":"71","category_name":"四川菜","address":"嘉定区丰庄西路629号(近765终点站)"},{"poiid":"B2094750D56DA5F4439C","title":"侬知虾","lon":"121.361267","lat":"31.243492","category":"68","category_name":"快餐厅","address":"普陀区丰庄路96号(近金沙江路)"},{"poiid":"B2094654D56AA3FC479C","title":"振鑫火锅 丰庄店","lon":"121.361565054","lat":"31.243104793","category":"86","category_name":"火锅店","address":"嘉定区丰庄路132号(近清峪路)"},{"poiid":"B2094654D569AAF5459D","title":"金沙丽晶苑","lon":"121.36074","lat":"31.243763","category":"47","category_name":"住宅区","address":"丰庄路99弄1-9号"},{"poiid":"B2094750D664A1FD439D","title":"楠华饭店(新郁店)","lon":"121.358","lat":"31.2437","category":"76","category_name":"上海菜","address":"嘉定区新郁路173号(近金沙江路)"},{"poiid":"B2094654DB64ABF9429F","title":"真新绿地医院","lon":"121.36176","lat":"31.24474","category":"162","category_name":"医院","address":"丰庄路255"},{"poiid":"B2094750D068A2FA489C","title":"谈阿姨炸猪排","lon":"121.36115319286","lat":"31.252600663819","category":"247","category_name":"餐饮美食","address":"丰庄路肯德基对面"},{"poiid":"B2094757D568A0FA499B","title":"智慧金沙3131","lon":"121.3543539","lat":"31.24302167","category":"47","category_name":"住宅区","address":"嘉定区金沙江路3131号(近新郁路)"},{"poiid":"B2094757D068AAFD4393","title":"a20高速公路","lon":"121.35552215","lat":"31.255931854","category":"260","category_name":"其他","address":"上海沪闵高架—漕宝—虹桥—淞虹路"},{"poiid":"B2094654D56AA3FC4198","title":"丰庄糕点","lon":"121.35558","lat":"31.24761","category":"112","category_name":"糕饼店","address":""},{"poiid":"B2094751D368AAFA4193","title":"蜀膳传火锅传奇(丰庄店)","lon":"121.36284","lat":"31.24621","category":"86","category_name":"火锅店","address":"嘉定区丰庄路319号(近曹安路轻纺市场)"},{"poiid":"B2094757D16CA2FA469E","title":"金沙绿地公园","lon":"121.35591168","lat":"31.245981789","category":"196","category_name":"公园","address":"嘉定区丰庄路69号(近清峪路)"},{"poiid":"B2094757D66BABF44098","title":"湘村人家 丰庄店","lon":"121.36274","lat":"31.24604","category":"77","category_name":"湖南菜","address":"嘉定区丰庄路309号(近清峪路)"},{"poiid":"B2094655D26EA3FE479B","title":"金沙社区(东门)","lon":"121.35524","lat":"31.247","category":"47","category_name":"住宅区","address":"丰庄西路433弄"},{"poiid":"B2094757D66EA0F4489F","title":"UAL倫敦藝術大學上海代表處","lon":"121.35537995","lat":"31.2487496542","category":"249","category_name":"购物服务","address":"上海市徐匯區天鑰橋路325號嘉匯國際廣場A棟2112-2113"},{"poiid":"B2094654D46BA6FC4698","title":"佳嘉佳园","lon":"121.35703","lat":"31.25065","category":"47","category_name":"住宅区","address":"丰庄北路5弄1-50号"},{"poiid":"B2094757D16AA7F4419A","title":"上海师范大学附属外国语中学","lon":"121.35549195","lat":"31.248423648","category":"500","category_name":"未知分类","address":"上海市松江区中山西路朱家廊18号"},{"poiid":"B2094757D068ABF44598","title":"765终点站-丰庄","lon":"121.36017495","lat":"31.249568669","category":"38","category_name":"公交车站","address":"上海丰庄西路"},{"poiid":"B2094757D16EA0FF459A","title":"四姑娘川菜馆 丰庄西路店","lon":"121.356608054","lat":"31.249574793","category":"71","category_name":"四川菜","address":"嘉定区丰庄西路641号(近公交765终点站)"},{"poiid":"B2094757D164A5FD429D","title":"肇嘉浜路吴兴路","lon":"121.35772588","lat":"31.246595751","category":"46","category_name":"楼宇","address":"上海肇嘉浜路798号"},{"poiid":"B2094654DB6AA4FF4192","title":"老五饭店","lon":"121.3576","lat":"31.25023","category":"68","category_name":"快餐厅","address":"普陀区丰庄北路"},{"poiid":"B2094655D265A1F9479A","title":"嘉宝都市港湾二期","lon":"121.35705","lat":"31.243309","category":"47","category_name":"住宅区","address":"上海市嘉定区新郁路199弄"},{"poiid":"B2094752DA64A7FF439F","title":"同济大学嘉定校区","lon":"121.354391","lat":"31.247466","category":"500","category_name":"未知分类","address":"上海市 曹安公路4800号"},{"poiid":"B2094655D26FA1F54998","title":"福建沙县营养小吃(丰庄西路)","lon":"121.35681","lat":"31.25023","category":"68","category_name":"快餐厅","address":"丰庄西路701"},{"poiid":"B2094757D66CA6FA479E","title":"龙虾哥哥","lon":"121.35881858","lat":"31.241848658","category":"247","category_name":"餐饮美食","address":"上海金沙江路2898号"},{"poiid":"B2094654D46BA6FD4492","title":"复星大药房丰庄店","lon":"121.35799","lat":"31.24985","category":"162","category_name":"医院","address":"丰庄北路60-64"},{"poiid":"B2094752D36CA0FA449E","title":"上海虹桥火车站","lon":"121.357257","lat":"31.243863","category":"500","category_name":"未知分类","address":null},{"poiid":"B2094757D465A7FE469B","title":"集集小镇 新郁路店 Jijitown","lon":"121.36144","lat":"31.25226","category":"68","category_name":"快餐厅","address":"嘉定区新郁路807号(近曹安路)"},{"poiid":"B2094757D069ABFF409F","title":"Mixxie's","lon":"121.3554805","lat":"31.2470748","category":"500","category_name":"未知分类","address":"上海嘉定区丰庄西路"},{"poiid":"B2094757D16EA6FD429E","title":"丰庄北路丰庄路(志能新苑)","lon":"121.35671345","lat":"31.248605151","category":"500","category_name":"未知分类","address":"上海丰庄北路丰庄路355弄"},{"poiid":"B2094654DB65A7FD4498","title":"佳嘉佳园(南门)","lon":"121.35713","lat":"31.25044","category":"47","category_name":"住宅区","address":"丰庄北路5弄1-50号"},{"poiid":"B2094757D06FA6FD439C","title":"丰庄新郁社区","lon":"121.35975372","lat":"31.248725323","category":"252","category_name":"楼宇机构","address":"上海丰庄十二街坊"},{"poiid":"B2094757D06BA4F8449E","title":"四海游龙 丰庄店 OVERSEAS DRAGON","lon":"121.36283","lat":"31.24643","category":"68","category_name":"快餐厅","address":"真新街道丰庄路325号"},{"poiid":"B2094655D268ABF8409D","title":"外环沪宁立交桥","lon":"121.35323","lat":"31.25253","category":"250","category_name":"公园户外","address":""},{"poiid":"B2094757D06FA2FA499A","title":"3131创意园","lon":"121.35798645","lat":"31.240301132","category":"46","category_name":"楼宇","address":"上海金沙江路3131号创意园"},{"poiid":"B2094757D06FA2FB439B","title":"大润发(曹安路店)","lon":"121.36147","lat":"31.25241","category":"118","category_name":"超级市场","address":"嘉定区新郁路807号(上海国际鞋城对面)"},{"poiid":"B2094654DB6BA0FE459E","title":"嘉宝·都市港湾","lon":"121.35691","lat":"31.24504","category":"47","category_name":"住宅区","address":"新郁路199弄1-33号"},{"poiid":"B2094655D36CA2F8479B","title":"清峪路丰庄西路","lon":"121.35609","lat":"31.24664","category":"38","category_name":"公交车站","address":""},{"poiid":"B2094757D06FA7FE479E","title":"丰庄十四街坊","lon":"121.36180756625","lat":"31.253108907649","category":"47","category_name":"住宅区","address":"上海嘉定区丰庄西路433弄,丰庄西路551弄,丰庄北路151弄"},{"poiid":"B2094757D064A3FE439B","title":"自由港量贩式KTV(曹安店)","lon":"121.36219423","lat":"31.2519824959","category":"170","category_name":"KTV","address":"嘉定区新郁路817号大润发B1楼(曹安路口)"},{"poiid":"B2094757D06AA3FA469D","title":"金沙嘉苑","lon":"121.35303","lat":"31.244444","category":"47","category_name":"住宅区","address":"上海市嘉定区金沙江路3188弄"},{"poiid":"B2094757D06FAAFC489E","title":"老盛昌苏州汤包馆(丰庄店)","lon":"121.363603","lat":"31.247496","category":"87","category_name":"特色／地方风味餐厅","address":"嘉定区丰庄路377号"},{"poiid":"B2094757D06EAAFF4893","title":"上海市轻纺市场","lon":"121.35904421","lat":"31.249372466","category":"249","category_name":"购物服务","address":"嘉定区曹安公路1618号(近祁连山路)"},{"poiid":"B2094757D065A4FF4998","title":"丰庄","lon":"121.359473","lat":"31.249872","category":"500","category_name":"未知分类","address":"上海丰庄西路"},{"poiid":"B2094654D56AA3FC409B","title":"金沙社区","lon":"121.3543","lat":"31.24689","category":"47","category_name":"住宅区","address":"丰庄西路433弄"},{"poiid":"B2094654D569AAF54399","title":"明日新苑","lon":"121.36196","lat":"31.24622","category":"47","category_name":"住宅区","address":"明日新苑(三期)位于普陀丰庄路291号"},{"poiid":"B2094757D16CA6F5449F","title":"住嘉佳園","lon":"121.35377392","lat":"31.250977359","category":"47","category_name":"住宅区","address":"上海豐庄北路"},{"poiid":"B2094757D66BABFE439A","title":"丰茂兴","lon":"121.361672054","lat":"31.242626793","category":"76","category_name":"上海菜","address":"嘉定区丰庄路118号(近清峪路)"},{"poiid":"B2094757D06FA1FB429A","title":"丰庄金沙社区","lon":"121.354304","lat":"31.246893","category":"47","category_name":"住宅区","address":"上海丰庄西路433弄"},{"poiid":"B2094655D26AA0F9499D","title":"地铁丰庄站","lon":"121.35443","lat":"31.24322","category":"36","category_name":"地铁站","address":""},{"poiid":"B2094757D16EA5F9449F","title":"川夫烤鱼重庆鸡公煲(丰庄店)","lon":"121.356486","lat":"31.249336","category":"71","category_name":"四川菜","address":"嘉定区丰庄西路629号(近765终点站)"},{"poiid":"B2094750D56DA5F4439C","title":"侬知虾","lon":"121.361267","lat":"31.243492","category":"68","category_name":"快餐厅","address":"普陀区丰庄路96号(近金沙江路)"},{"poiid":"B2094654D56AA3FC479C","title":"振鑫火锅 丰庄店","lon":"121.361565054","lat":"31.243104793","category":"86","category_name":"火锅店","address":"嘉定区丰庄路132号(近清峪路)"},{"poiid":"B2094654D569AAF5459D","title":"金沙丽晶苑","lon":"121.36074","lat":"31.243763","category":"47","category_name":"住宅区","address":"丰庄路99弄1-9号"},{"poiid":"B2094750D664A1FD439D","title":"楠华饭店(新郁店)","lon":"121.358","lat":"31.2437","category":"76","category_name":"上海菜","address":"嘉定区新郁路173号(近金沙江路)"},{"poiid":"B2094654DB64ABF9429F","title":"真新绿地医院","lon":"121.36176","lat":"31.24474","category":"162","category_name":"医院","address":"丰庄路255"},{"poiid":"B2094750D068A2FA489C","title":"谈阿姨炸猪排","lon":"121.36115319286","lat":"31.252600663819","category":"247","category_name":"餐饮美食","address":"丰庄路肯德基对面"},{"poiid":"B2094757D568A0FA499B","title":"智慧金沙3131","lon":"121.3543539","lat":"31.24302167","category":"47","category_name":"住宅区","address":"嘉定区金沙江路3131号(近新郁路)"},{"poiid":"B2094757D068AAFD4393","title":"a20高速公路","lon":"121.35552215","lat":"31.255931854","category":"260","category_name":"其他","address":"上海沪闵高架—漕宝—虹桥—淞虹路"},{"poiid":"B2094654D56AA3FC4198","title":"丰庄糕点","lon":"121.35558","lat":"31.24761","category":"112","category_name":"糕饼店","address":""},{"poiid":"B2094751D368AAFA4193","title":"蜀膳传火锅传奇(丰庄店)","lon":"121.36284","lat":"31.24621","category":"86","category_name":"火锅店","address":"嘉定区丰庄路319号(近曹安路轻纺市场)"},{"poiid":"B2094757D16CA2FA469E","title":"金沙绿地公园","lon":"121.35591168","lat":"31.245981789","category":"196","category_name":"公园","address":"嘉定区丰庄路69号(近清峪路)"},{"poiid":"B2094757D66BABF44098","title":"湘村人家 丰庄店","lon":"121.36274","lat":"31.24604","category":"77","category_name":"湖南菜","address":"嘉定区丰庄路309号(近清峪路)"},{"poiid":"B2094655D26EA3FE479B","title":"金沙社区(东门)","lon":"121.35524","lat":"31.247","category":"47","category_name":"住宅区","address":"丰庄西路433弄"},{"poiid":"B2094757D66EA0F4489F","title":"UAL倫敦藝術大學上海代表處","lon":"121.35537995","lat":"31.2487496542","category":"249","category_name":"购物服务","address":"上海市徐匯區天鑰橋路325號嘉匯國際廣場A棟2112-2113"},{"poiid":"B2094654D46BA6FC4698","title":"佳嘉佳园","lon":"121.35703","lat":"31.25065","category":"47","category_name":"住宅区","address":"丰庄北路5弄1-50号"},{"poiid":"B2094757D16AA7F4419A","title":"上海师范大学附属外国语中学","lon":"121.35549195","lat":"31.248423648","category":"500","category_name":"未知分类","address":"上海市松江区中山西路朱家廊18号"},{"poiid":"B2094757D068ABF44598","title":"765终点站-丰庄","lon":"121.36017495","lat":"31.249568669","category":"38","category_name":"公交车站","address":"上海丰庄西路"},{"poiid":"B2094757D16EA0FF459A","title":"四姑娘川菜馆 丰庄西路店","lon":"121.356608054","lat":"31.249574793","category":"71","category_name":"四川菜","address":"嘉定区丰庄西路641号(近公交765终点站)"},{"poiid":"B2094757D164A5FD429D","title":"肇嘉浜路吴兴路","lon":"121.35772588","lat":"31.246595751","category":"46","category_name":"楼宇","address":"上海肇嘉浜路798号"},{"poiid":"B2094654DB6AA4FF4192","title":"老五饭店","lon":"121.3576","lat":"31.25023","category":"68","category_name":"快餐厅","address":"普陀区丰庄北路"},{"poiid":"B2094655D265A1F9479A","title":"嘉宝都市港湾二期","lon":"121.35705","lat":"31.243309","category":"47","category_name":"住宅区","address":"上海市嘉定区新郁路199弄"},{"poiid":"B2094752DA64A7FF439F","title":"同济大学嘉定校区","lon":"121.354391","lat":"31.247466","category":"500","category_name":"未知分类","address":"上海市 曹安公路4800号"},{"poiid":"B2094655D26FA1F54998","title":"福建沙县营养小吃(丰庄西路)","lon":"121.35681","lat":"31.25023","category":"68","category_name":"快餐厅","address":"丰庄西路701"},{"poiid":"B2094757D66CA6FA479E","title":"龙虾哥哥","lon":"121.35881858","lat":"31.241848658","category":"247","category_name":"餐饮美食","address":"上海金沙江路2898号"},{"poiid":"B2094654D46BA6FD4492","title":"复星大药房丰庄店","lon":"121.35799","lat":"31.24985","category":"162","category_name":"医院","address":"丰庄北路60-64"},{"poiid":"B2094752D36CA0FA449E","title":"上海虹桥火车站","lon":"121.357257","lat":"31.243863","category":"500","category_name":"未知分类","address":null},{"poiid":"B2094757D465A7FE469B","title":"集集小镇 新郁路店 Jijitown","lon":"121.36144","lat":"31.25226","category":"68","category_name":"快餐厅","address":"嘉定区新郁路807号(近曹安路)"},{"poiid":"B2094757D069ABFF409F","title":"Mixxie's","lon":"121.3554805","lat":"31.2470748","category":"500","category_name":"未知分类","address":"上海嘉定区丰庄西路"},{"poiid":"B2094757D16EA6FD429E","title":"丰庄北路丰庄路(志能新苑)","lon":"121.35671345","lat":"31.248605151","category":"500","category_name":"未知分类","address":"上海丰庄北路丰庄路355弄"},{"poiid":"B2094654DB65A7FD4498","title":"佳嘉佳园(南门)","lon":"121.35713","lat":"31.25044","category":"47","category_name":"住宅区","address":"丰庄北路5弄1-50号"},{"poiid":"B2094757D06FA6FD439C","title":"丰庄新郁社区","lon":"121.35975372","lat":"31.248725323","category":"252","category_name":"楼宇机构","address":"上海丰庄十二街坊"},{"poiid":"B2094757D06BA4F8449E","title":"四海游龙 丰庄店 OVERSEAS DRAGON","lon":"121.36283","lat":"31.24643","category":"68","category_name":"快餐厅","address":"真新街道丰庄路325号"}]