[{"poiid":"B2094757D06FA2FE489C","title":"百联金山购物中心","lon":"121.34676264","lat":"30.733259894","category":"119","category_name":"商场","address":"近郊金山区卫清西路168弄99号(近松卫南路)"},{"poiid":"B2094757D06FA2FB489E","title":"星巴克(金山百联店)","lon":"121.35126","lat":"30.731089","category":"260","category_name":"其他","address":"近郊金山区卫清西路168弄99号百联金山购物中心内(近松卫南路)"},{"poiid":"B2094757D06FAAF5429B","title":"好乐迪金山店","lon":"121.34451927","lat":"30.732421942","category":"170","category_name":"KTV","address":"上海卫清西路168弄99号3f"},{"poiid":"B2094757D06FA0FC4699","title":"星美国际影城金山店","lon":"121.348272","lat":"30.730783","category":"178","category_name":"电影院","address":"上海金山区卫清西路188号301-1302-2室"},{"poiid":"B2094757D068A3F8449B","title":"必胜客(金山百联店)","lon":"121.35021","lat":"30.73057","category":"94","category_name":"西餐厅","address":"近郊金山区卫清西路168弄99号百联金山购物中心1楼B120-121室(近松卫南路)"},{"poiid":"B2094655D36CA0FE459B","title":"金山区政府","lon":"121.34336","lat":"30.74191","category":"38","category_name":"公交车站","address":"金山区金山大道2000号"},{"poiid":"B2094757D068A3F4419F","title":"乐购(金山店)","lon":"121.34391118","lat":"30.728586968","category":"118","category_name":"超级市场","address":"近郊金山区石化街道卫清西路477号(蒙山路口)"},{"poiid":"B2094757D06FA4FA459E","title":"避风塘 百联金山店","lon":"121.35021","lat":"30.73057","category":"111","category_name":"休闲餐饮场所","address":"近郊金山区卫清西路168弄99号百联金山购物中心1楼(近松卫南路)"},{"poiid":"B2094750DA6EA2F5429E","title":"湖蝶轩法式越南料理","lon":"121.346382","lat":"30.729667","category":"247","category_name":"餐饮美食","address":null},{"poiid":"B2094757D069A0FC419A","title":"汤姆熊(百联金山店)","lon":"121.34654524","lat":"30.732037833","category":"500","category_name":"未知分类","address":"上海金山区卫清西路168弄99号百联金山购物中心2楼"},{"poiid":"B2094753DB64A7FA489B","title":"糖小姐的店","lon":"121.339065","lat":"30.73596","category":"247","category_name":"餐饮美食","address":"上海市金山区金山大道世纪城2277／2279号"},{"poiid":"B2094757D16BA3FC439E","title":"金山税务局","lon":"121.338526645","lat":"30.7419290002","category":"500","category_name":"未知分类","address":"上海市金山区龙山路"},{"poiid":"B2094757D169AAF4479A","title":"上海市金山区人民法院","lon":"121.341330645","lat":"30.7375678973","category":"608","category_name":"法院","address":"金山区石化金山大道2288号"},{"poiid":"B2094654DB69A3FB4398","title":"金山世纪城","lon":"121.33766","lat":"30.73488","category":"47","category_name":"住宅区","address":"卫零路886弄8"},{"poiid":"B2094654DB69A3F9479C","title":"上海市公安局金山分局","lon":"121.33789","lat":"30.74057","category":"248","category_name":"生活娱乐","address":"上海金山区蒙源路110号"},{"poiid":"B2094654DB69A1FE4393","title":"蓝山咖啡馆金山店","lon":"121.34013183680531","lat":"30.728110924965684","category":"65","category_name":"咖啡厅","address":"近郊金山区卫清西路641号"},{"poiid":"B2094654DB69A3FB429C","title":"皓正百货","lon":"121.33975","lat":"30.73673","category":"119","category_name":"商场","address":"世纪城东街47"},{"poiid":"B2094757D168A2FC4698","title":"金山区行政服务中心","lon":"121.340799045","lat":"30.7442538551","category":"500","category_name":"未知分类","address":"上海金山区龙山路555号"},{"poiid":"B2094655D268A6FE479F","title":"三岛龙洲苑(西二门)","lon":"121.3425","lat":"30.73417","category":"656","category_name":"大门","address":"蒙山路1498"},{"poiid":"B2094757D568A7FB4093","title":"三品香(卫清店)","lon":"121.3453087","lat":"30.72963515","category":"88","category_name":"海鲜酒楼","address":"上海市金山区卫清西路318号"},{"poiid":"B2094655D268A1FF459E","title":"复旦大学上海医学院法医学鉴定中心金山受理点","lon":"121.33845","lat":"30.73656","category":"250","category_name":"公园户外","address":"金山大道2335弄2281号"},{"poiid":"B2094757D065A0FF439F","title":"辰凯紫薇园","lon":"121.341606","lat":"30.734109","category":"47","category_name":"住宅区","address":"上海金山区蒙山路1517弄"},{"poiid":"B2094757D16EA2FC429F","title":"汇都大酒楼","lon":"121.33604145","lat":"30.733219669","category":"247","category_name":"餐饮美食","address":"近郊金山区山阳镇杨家村卫零路3009号(卫零路卫清西路)"},{"poiid":"B2094654DB69A3FB4093","title":"辰凯紫薇苑","lon":"121.34617913329","lat":"30.740805127992","category":"47","category_name":"住宅区","address":"上海市金山区蒙山路1517弄"},{"poiid":"B2094655D268A7FB4893","title":"金山世纪城(北门)","lon":"121.33805","lat":"30.73637","category":"656","category_name":"大门","address":"金山大道2335"},{"poiid":"B2094654DB69A3FB449A","title":"卫龙新村","lon":"121.343","lat":"30.7374","category":"47","category_name":"住宅区","address":"卫零路726弄"},{"poiid":"B2094654DB69A3FB419D","title":"良友金伴便利连锁NO.690","lon":"121.34243","lat":"30.73444","category":"117","category_name":"便民商店/便利店","address":"石化"},{"poiid":"B2094654DB69A3FB469E","title":"书香门第","lon":"121.34148","lat":"30.7309","category":"47","category_name":"住宅区","address":"蒙山路1291弄1-87号"},{"poiid":"B2094654DB69A3FB4393","title":"汇都海鲜大酒店石化店","lon":"121.33602","lat":"30.73327","category":"88","category_name":"海鲜酒楼","address":"近郊金山区山阳镇杨家村卫零路3009号(卫零路卫清西路)"},{"poiid":"B2094750D665A2FF4799","title":"万宫亭","lon":"121.343","lat":"30.7327","category":"95","category_name":"日本料理","address":"近郊金山石化板桥西路368号(近金山百联)"},{"poiid":"B2094757D168A7F44792","title":"好乐迪","lon":"121.34642564","lat":"30.732410775","category":"500","category_name":"未知分类","address":"上海市金山区蒙山路"},{"poiid":"B2094757D16FA3FA4299","title":"蒙山路","lon":"121.341609","lat":"30.732681","category":"500","category_name":"未知分类","address":"上海石化蒙山路"},{"poiid":"B2094752DB6CABFD449B","title":"城市沙滩","lon":"121.338151","lat":"30.731711","category":"500","category_name":"未知分类","address":"上海市 上海市金山区"},{"poiid":"B2094757D068A3FF419C","title":"金山区","lon":"121.341964","lat":"30.741986","category":"250","category_name":"公园户外","address":"上海金山区区域"},{"poiid":"B2094757D66BA2FC429C","title":"品尚豆捞 金山店","lon":"121.343541","lat":"30.728007","category":"86","category_name":"火锅店","address":"近郊金山石化蒙山路1252号(近国美)"},{"poiid":"B2094655D268A4F8459A","title":"金山世纪城(东门)","lon":"121.33998","lat":"30.73712","category":"656","category_name":"大门","address":""},{"poiid":"B2094654DB64A7FF489E","title":"良友金伴","lon":"121.33648","lat":"30.73519","category":"117","category_name":"便民商店/便利店","address":"世纪城西街94"},{"poiid":"B2094655D268A3FD499B","title":"喜乐","lon":"121.34279","lat":"30.73187","category":"95","category_name":"日本料理","address":"近郊金山石化蒙山路1329号安信保险对面(板桥路蒙山路)"},{"poiid":"B2094654DB69A3FB4199","title":"克丽缇娜NO.15507","lon":"121.34246","lat":"30.73315","category":"148","category_name":"美容美发店","address":"蒙山路1414"},{"poiid":"B2094757D06AABFC4093","title":"肯德基(金山百联店)","lon":"121.34377836","lat":"30.728891859","category":"68","category_name":"快餐厅","address":"近郊金山区卫清西路168弄99号百联金山购物中心1楼(近松卫南路)"},{"poiid":"B2094654DB69A3F9469B","title":"金山广场","lon":"121.34195","lat":"30.73987","category":"201","category_name":"城市广场","address":""},{"poiid":"B2094654DB69AAFC499A","title":"集集小镇(金山二店)","lon":"121.34429","lat":"30.72882","category":"68","category_name":"快餐厅","address":"近郊金山区卫清西路477号乐购1楼(近蒙山路)"},{"poiid":"B2094655D26FA1FA419C","title":"好人家酒店","lon":"121.34517","lat":"30.73325","category":"257","category_name":"中餐厅","address":"近郊金山石化板桥西路270号"},{"poiid":"B2094757D16CA4FF4092","title":"味千拉面(金山百联店)","lon":"121.34775619","lat":"30.7326628985","category":"95","category_name":"日本料理","address":"近郊金山区卫清西路168弄99号百联金山购物中心内(近松卫南路)"},{"poiid":"B2094655D268A6FD4893","title":"金山农行金投综合楼","lon":"121.33916","lat":"30.74008","category":"46","category_name":"楼宇","address":""},{"poiid":"B2094655D268A1FF459C","title":"辰凯紫薇苑(东门)","lon":"121.3416","lat":"30.73411","category":"48","category_name":"楼宇大门","address":"蒙山路1517弄1-132号"},{"poiid":"B2094757D069A6FE469C","title":"许留山(金山百联店)","lon":"121.34743773","lat":"30.732148669","category":"67","category_name":"甜品店","address":"上海金山百联"},{"poiid":"B2094757D16EA3FC4398","title":"草根骨头皇火锅","lon":"121.34211062","lat":"30.729088557","category":"86","category_name":"火锅店","address":"近郊金山卫清西路543号(近金山乐购)"},{"poiid":"B2094757D16BA5FE459E","title":"金山供电公司","lon":"121.335862","lat":"30.737096","category":"500","category_name":"未知分类","address":"上海市金山区金山大道2522号"},{"poiid":"B2094757D164A5FD459D","title":"咔萨音乐休闲餐厅","lon":"121.34636864","lat":"30.731582756","category":"94","category_name":"西餐厅","address":"近郊前京大道131号(金山百联对面)"},{"poiid":"B2094757D06FA2FE489C","title":"百联金山购物中心","lon":"121.34676264","lat":"30.733259894","category":"119","category_name":"商场","address":"近郊金山区卫清西路168弄99号(近松卫南路)"},{"poiid":"B2094757D06FA2FB489E","title":"星巴克(金山百联店)","lon":"121.35126","lat":"30.731089","category":"260","category_name":"其他","address":"近郊金山区卫清西路168弄99号百联金山购物中心内(近松卫南路)"},{"poiid":"B2094757D06FAAF5429B","title":"好乐迪金山店","lon":"121.34451927","lat":"30.732421942","category":"170","category_name":"KTV","address":"上海卫清西路168弄99号3f"},{"poiid":"B2094757D06FA0FC4699","title":"星美国际影城金山店","lon":"121.348272","lat":"30.730783","category":"178","category_name":"电影院","address":"上海金山区卫清西路188号301-1302-2室"},{"poiid":"B2094757D068A3F8449B","title":"必胜客(金山百联店)","lon":"121.35021","lat":"30.73057","category":"94","category_name":"西餐厅","address":"近郊金山区卫清西路168弄99号百联金山购物中心1楼B120-121室(近松卫南路)"},{"poiid":"B2094655D36CA0FE459B","title":"金山区政府","lon":"121.34336","lat":"30.74191","category":"38","category_name":"公交车站","address":"金山区金山大道2000号"},{"poiid":"B2094757D068A3F4419F","title":"乐购(金山店)","lon":"121.34391118","lat":"30.728586968","category":"118","category_name":"超级市场","address":"近郊金山区石化街道卫清西路477号(蒙山路口)"},{"poiid":"B2094757D06FA4FA459E","title":"避风塘 百联金山店","lon":"121.35021","lat":"30.73057","category":"111","category_name":"休闲餐饮场所","address":"近郊金山区卫清西路168弄99号百联金山购物中心1楼(近松卫南路)"},{"poiid":"B2094750DA6EA2F5429E","title":"湖蝶轩法式越南料理","lon":"121.346382","lat":"30.729667","category":"247","category_name":"餐饮美食","address":null},{"poiid":"B2094757D069A0FC419A","title":"汤姆熊(百联金山店)","lon":"121.34654524","lat":"30.732037833","category":"500","category_name":"未知分类","address":"上海金山区卫清西路168弄99号百联金山购物中心2楼"},{"poiid":"B2094753DB64A7FA489B","title":"糖小姐的店","lon":"121.339065","lat":"30.73596","category":"247","category_name":"餐饮美食","address":"上海市金山区金山大道世纪城2277／2279号"},{"poiid":"B2094757D16BA3FC439E","title":"金山税务局","lon":"121.338526645","lat":"30.7419290002","category":"500","category_name":"未知分类","address":"上海市金山区龙山路"},{"poiid":"B2094757D169AAF4479A","title":"上海市金山区人民法院","lon":"121.341330645","lat":"30.7375678973","category":"608","category_name":"法院","address":"金山区石化金山大道2288号"},{"poiid":"B2094654DB69A3FB4398","title":"金山世纪城","lon":"121.33766","lat":"30.73488","category":"47","category_name":"住宅区","address":"卫零路886弄8"},{"poiid":"B2094654DB69A3F9479C","title":"上海市公安局金山分局","lon":"121.33789","lat":"30.74057","category":"248","category_name":"生活娱乐","address":"上海金山区蒙源路110号"},{"poiid":"B2094654DB69A1FE4393","title":"蓝山咖啡馆金山店","lon":"121.34013183680531","lat":"30.728110924965684","category":"65","category_name":"咖啡厅","address":"近郊金山区卫清西路641号"},{"poiid":"B2094654DB69A3FB429C","title":"皓正百货","lon":"121.33975","lat":"30.73673","category":"119","category_name":"商场","address":"世纪城东街47"},{"poiid":"B2094757D168A2FC4698","title":"金山区行政服务中心","lon":"121.340799045","lat":"30.7442538551","category":"500","category_name":"未知分类","address":"上海金山区龙山路555号"},{"poiid":"B2094655D268A6FE479F","title":"三岛龙洲苑(西二门)","lon":"121.3425","lat":"30.73417","category":"656","category_name":"大门","address":"蒙山路1498"},{"poiid":"B2094757D568A7FB4093","title":"三品香(卫清店)","lon":"121.3453087","lat":"30.72963515","category":"88","category_name":"海鲜酒楼","address":"上海市金山区卫清西路318号"},{"poiid":"B2094655D268A1FF459E","title":"复旦大学上海医学院法医学鉴定中心金山受理点","lon":"121.33845","lat":"30.73656","category":"250","category_name":"公园户外","address":"金山大道2335弄2281号"},{"poiid":"B2094757D065A0FF439F","title":"辰凯紫薇园","lon":"121.341606","lat":"30.734109","category":"47","category_name":"住宅区","address":"上海金山区蒙山路1517弄"},{"poiid":"B2094757D16EA2FC429F","title":"汇都大酒楼","lon":"121.33604145","lat":"30.733219669","category":"247","category_name":"餐饮美食","address":"近郊金山区山阳镇杨家村卫零路3009号(卫零路卫清西路)"},{"poiid":"B2094654DB69A3FB4093","title":"辰凯紫薇苑","lon":"121.34617913329","lat":"30.740805127992","category":"47","category_name":"住宅区","address":"上海市金山区蒙山路1517弄"},{"poiid":"B2094655D268A7FB4893","title":"金山世纪城(北门)","lon":"121.33805","lat":"30.73637","category":"656","category_name":"大门","address":"金山大道2335"},{"poiid":"B2094654DB69A3FB449A","title":"卫龙新村","lon":"121.343","lat":"30.7374","category":"47","category_name":"住宅区","address":"卫零路726弄"},{"poiid":"B2094654DB69A3FB419D","title":"良友金伴便利连锁NO.690","lon":"121.34243","lat":"30.73444","category":"117","category_name":"便民商店/便利店","address":"石化"},{"poiid":"B2094654DB69A3FB469E","title":"书香门第","lon":"121.34148","lat":"30.7309","category":"47","category_name":"住宅区","address":"蒙山路1291弄1-87号"},{"poiid":"B2094654DB69A3FB4393","title":"汇都海鲜大酒店石化店","lon":"121.33602","lat":"30.73327","category":"88","category_name":"海鲜酒楼","address":"近郊金山区山阳镇杨家村卫零路3009号(卫零路卫清西路)"},{"poiid":"B2094750D665A2FF4799","title":"万宫亭","lon":"121.343","lat":"30.7327","category":"95","category_name":"日本料理","address":"近郊金山石化板桥西路368号(近金山百联)"},{"poiid":"B2094757D168A7F44792","title":"好乐迪","lon":"121.34642564","lat":"30.732410775","category":"500","category_name":"未知分类","address":"上海市金山区蒙山路"},{"poiid":"B2094757D16FA3FA4299","title":"蒙山路","lon":"121.341609","lat":"30.732681","category":"500","category_name":"未知分类","address":"上海石化蒙山路"},{"poiid":"B2094752DB6CABFD449B","title":"城市沙滩","lon":"121.338151","lat":"30.731711","category":"500","category_name":"未知分类","address":"上海市 上海市金山区"},{"poiid":"B2094757D068A3FF419C","title":"金山区","lon":"121.341964","lat":"30.741986","category":"250","category_name":"公园户外","address":"上海金山区区域"},{"poiid":"B2094757D66BA2FC429C","title":"品尚豆捞 金山店","lon":"121.343541","lat":"30.728007","category":"86","category_name":"火锅店","address":"近郊金山石化蒙山路1252号(近国美)"},{"poiid":"B2094655D268A4F8459A","title":"金山世纪城(东门)","lon":"121.33998","lat":"30.73712","category":"656","category_name":"大门","address":""},{"poiid":"B2094654DB64A7FF489E","title":"良友金伴","lon":"121.33648","lat":"30.73519","category":"117","category_name":"便民商店/便利店","address":"世纪城西街94"},{"poiid":"B2094655D268A3FD499B","title":"喜乐","lon":"121.34279","lat":"30.73187","category":"95","category_name":"日本料理","address":"近郊金山石化蒙山路1329号安信保险对面(板桥路蒙山路)"},{"poiid":"B2094654DB69A3FB4199","title":"克丽缇娜NO.15507","lon":"121.34246","lat":"30.73315","category":"148","category_name":"美容美发店","address":"蒙山路1414"},{"poiid":"B2094757D06AABFC4093","title":"肯德基(金山百联店)","lon":"121.34377836","lat":"30.728891859","category":"68","category_name":"快餐厅","address":"近郊金山区卫清西路168弄99号百联金山购物中心1楼(近松卫南路)"},{"poiid":"B2094654DB69A3F9469B","title":"金山广场","lon":"121.34195","lat":"30.73987","category":"201","category_name":"城市广场","address":""},{"poiid":"B2094654DB69AAFC499A","title":"集集小镇(金山二店)","lon":"121.34429","lat":"30.72882","category":"68","category_name":"快餐厅","address":"近郊金山区卫清西路477号乐购1楼(近蒙山路)"},{"poiid":"B2094655D26FA1FA419C","title":"好人家酒店","lon":"121.34517","lat":"30.73325","category":"257","category_name":"中餐厅","address":"近郊金山石化板桥西路270号"},{"poiid":"B2094757D16CA4FF4092","title":"味千拉面(金山百联店)","lon":"121.34775619","lat":"30.7326628985","category":"95","category_name":"日本料理","address":"近郊金山区卫清西路168弄99号百联金山购物中心内(近松卫南路)"},{"poiid":"B2094655D268A6FD4893","title":"金山农行金投综合楼","lon":"121.33916","lat":"30.74008","category":"46","category_name":"楼宇","address":""},{"poiid":"B2094655D268A1FF459C","title":"辰凯紫薇苑(东门)","lon":"121.3416","lat":"30.73411","category":"48","category_name":"楼宇大门","address":"蒙山路1517弄1-132号"},{"poiid":"B2094757D069A6FE469C","title":"许留山(金山百联店)","lon":"121.34743773","lat":"30.732148669","category":"67","category_name":"甜品店","address":"上海金山百联"},{"poiid":"B2094757D16EA3FC4398","title":"草根骨头皇火锅","lon":"121.34211062","lat":"30.729088557","category":"86","category_name":"火锅店","address":"近郊金山卫清西路543号(近金山乐购)"},{"poiid":"B2094757D16BA5FE459E","title":"金山供电公司","lon":"121.335862","lat":"30.737096","category":"500","category_name":"未知分类","address":"上海市金山区金山大道2522号"},{"poiid":"B2094757D164A5FD459D","title":"咔萨音乐休闲餐厅","lon":"121.34636864","lat":"30.731582756","category":"94","category_name":"西餐厅","address":"近郊前京大道131号(金山百联对面)"},{"poiid":"B2094757D06FA2FE489C","title":"百联金山购物中心","lon":"121.34676264","lat":"30.733259894","category":"119","category_name":"商场","address":"近郊金山区卫清西路168弄99号(近松卫南路)"},{"poiid":"B2094757D06FA2FB489E","title":"星巴克(金山百联店)","lon":"121.35126","lat":"30.731089","category":"260","category_name":"其他","address":"近郊金山区卫清西路168弄99号百联金山购物中心内(近松卫南路)"},{"poiid":"B2094757D06FAAF5429B","title":"好乐迪金山店","lon":"121.34451927","lat":"30.732421942","category":"170","category_name":"KTV","address":"上海卫清西路168弄99号3f"},{"poiid":"B2094757D06FA0FC4699","title":"星美国际影城金山店","lon":"121.348272","lat":"30.730783","category":"178","category_name":"电影院","address":"上海金山区卫清西路188号301-1302-2室"},{"poiid":"B2094757D068A3F8449B","title":"必胜客(金山百联店)","lon":"121.35021","lat":"30.73057","category":"94","category_name":"西餐厅","address":"近郊金山区卫清西路168弄99号百联金山购物中心1楼B120-121室(近松卫南路)"},{"poiid":"B2094655D36CA0FE459B","title":"金山区政府","lon":"121.34336","lat":"30.74191","category":"38","category_name":"公交车站","address":"金山区金山大道2000号"},{"poiid":"B2094757D068A3F4419F","title":"乐购(金山店)","lon":"121.34391118","lat":"30.728586968","category":"118","category_name":"超级市场","address":"近郊金山区石化街道卫清西路477号(蒙山路口)"},{"poiid":"B2094757D06FA4FA459E","title":"避风塘 百联金山店","lon":"121.35021","lat":"30.73057","category":"111","category_name":"休闲餐饮场所","address":"近郊金山区卫清西路168弄99号百联金山购物中心1楼(近松卫南路)"},{"poiid":"B2094750DA6EA2F5429E","title":"湖蝶轩法式越南料理","lon":"121.346382","lat":"30.729667","category":"247","category_name":"餐饮美食","address":null},{"poiid":"B2094757D069A0FC419A","title":"汤姆熊(百联金山店)","lon":"121.34654524","lat":"30.732037833","category":"500","category_name":"未知分类","address":"上海金山区卫清西路168弄99号百联金山购物中心2楼"},{"poiid":"B2094753DB64A7FA489B","title":"糖小姐的店","lon":"121.339065","lat":"30.73596","category":"247","category_name":"餐饮美食","address":"上海市金山区金山大道世纪城2277／2279号"},{"poiid":"B2094757D16BA3FC439E","title":"金山税务局","lon":"121.338526645","lat":"30.7419290002","category":"500","category_name":"未知分类","address":"上海市金山区龙山路"},{"poiid":"B2094757D169AAF4479A","title":"上海市金山区人民法院","lon":"121.341330645","lat":"30.7375678973","category":"608","category_name":"法院","address":"金山区石化金山大道2288号"},{"poiid":"B2094654DB69A3FB4398","title":"金山世纪城","lon":"121.33766","lat":"30.73488","category":"47","category_name":"住宅区","address":"卫零路886弄8"},{"poiid":"B2094654DB69A3F9479C","title":"上海市公安局金山分局","lon":"121.33789","lat":"30.74057","category":"248","category_name":"生活娱乐","address":"上海金山区蒙源路110号"},{"poiid":"B2094654DB69A1FE4393","title":"蓝山咖啡馆金山店","lon":"121.34013183680531","lat":"30.728110924965684","category":"65","category_name":"咖啡厅","address":"近郊金山区卫清西路641号"},{"poiid":"B2094654DB69A3FB429C","title":"皓正百货","lon":"121.33975","lat":"30.73673","category":"119","category_name":"商场","address":"世纪城东街47"},{"poiid":"B2094757D168A2FC4698","title":"金山区行政服务中心","lon":"121.340799045","lat":"30.7442538551","category":"500","category_name":"未知分类","address":"上海金山区龙山路555号"},{"poiid":"B2094655D268A6FE479F","title":"三岛龙洲苑(西二门)","lon":"121.3425","lat":"30.73417","category":"656","category_name":"大门","address":"蒙山路1498"},{"poiid":"B2094757D568A7FB4093","title":"三品香(卫清店)","lon":"121.3453087","lat":"30.72963515","category":"88","category_name":"海鲜酒楼","address":"上海市金山区卫清西路318号"},{"poiid":"B2094655D268A1FF459E","title":"复旦大学上海医学院法医学鉴定中心金山受理点","lon":"121.33845","lat":"30.73656","category":"250","category_name":"公园户外","address":"金山大道2335弄2281号"},{"poiid":"B2094757D065A0FF439F","title":"辰凯紫薇园","lon":"121.341606","lat":"30.734109","category":"47","category_name":"住宅区","address":"上海金山区蒙山路1517弄"},{"poiid":"B2094757D16EA2FC429F","title":"汇都大酒楼","lon":"121.33604145","lat":"30.733219669","category":"247","category_name":"餐饮美食","address":"近郊金山区山阳镇杨家村卫零路3009号(卫零路卫清西路)"},{"poiid":"B2094654DB69A3FB4093","title":"辰凯紫薇苑","lon":"121.34617913329","lat":"30.740805127992","category":"47","category_name":"住宅区","address":"上海市金山区蒙山路1517弄"},{"poiid":"B2094655D268A7FB4893","title":"金山世纪城(北门)","lon":"121.33805","lat":"30.73637","category":"656","category_name":"大门","address":"金山大道2335"},{"poiid":"B2094654DB69A3FB449A","title":"卫龙新村","lon":"121.343","lat":"30.7374","category":"47","category_name":"住宅区","address":"卫零路726弄"},{"poiid":"B2094654DB69A3FB419D","title":"良友金伴便利连锁NO.690","lon":"121.34243","lat":"30.73444","category":"117","category_name":"便民商店/便利店","address":"石化"},{"poiid":"B2094654DB69A3FB469E","title":"书香门第","lon":"121.34148","lat":"30.7309","category":"47","category_name":"住宅区","address":"蒙山路1291弄1-87号"},{"poiid":"B2094654DB69A3FB4393","title":"汇都海鲜大酒店石化店","lon":"121.33602","lat":"30.73327","category":"88","category_name":"海鲜酒楼","address":"近郊金山区山阳镇杨家村卫零路3009号(卫零路卫清西路)"},{"poiid":"B2094750D665A2FF4799","title":"万宫亭","lon":"121.343","lat":"30.7327","category":"95","category_name":"日本料理","address":"近郊金山石化板桥西路368号(近金山百联)"},{"poiid":"B2094757D168A7F44792","title":"好乐迪","lon":"121.34642564","lat":"30.732410775","category":"500","category_name":"未知分类","address":"上海市金山区蒙山路"},{"poiid":"B2094757D16FA3FA4299","title":"蒙山路","lon":"121.341609","lat":"30.732681","category":"500","category_name":"未知分类","address":"上海石化蒙山路"},{"poiid":"B2094752DB6CABFD449B","title":"城市沙滩","lon":"121.338151","lat":"30.731711","category":"500","category_name":"未知分类","address":"上海市 上海市金山区"},{"poiid":"B2094757D068A3FF419C","title":"金山区","lon":"121.341964","lat":"30.741986","category":"250","category_name":"公园户外","address":"上海金山区区域"},{"poiid":"B2094757D66BA2FC429C","title":"品尚豆捞 金山店","lon":"121.343541","lat":"30.728007","category":"86","category_name":"火锅店","address":"近郊金山石化蒙山路1252号(近国美)"},{"poiid":"B2094655D268A4F8459A","title":"金山世纪城(东门)","lon":"121.33998","lat":"30.73712","category":"656","category_name":"大门","address":""},{"poiid":"B2094654DB64A7FF489E","title":"良友金伴","lon":"121.33648","lat":"30.73519","category":"117","category_name":"便民商店/便利店","address":"世纪城西街94"},{"poiid":"B2094655D268A3FD499B","title":"喜乐","lon":"121.34279","lat":"30.73187","category":"95","category_name":"日本料理","address":"近郊金山石化蒙山路1329号安信保险对面(板桥路蒙山路)"},{"poiid":"B2094654DB69A3FB4199","title":"克丽缇娜NO.15507","lon":"121.34246","lat":"30.73315","category":"148","category_name":"美容美发店","address":"蒙山路1414"},{"poiid":"B2094757D06AABFC4093","title":"肯德基(金山百联店)","lon":"121.34377836","lat":"30.728891859","category":"68","category_name":"快餐厅","address":"近郊金山区卫清西路168弄99号百联金山购物中心1楼(近松卫南路)"},{"poiid":"B2094654DB69A3F9469B","title":"金山广场","lon":"121.34195","lat":"30.73987","category":"201","category_name":"城市广场","address":""},{"poiid":"B2094654DB69AAFC499A","title":"集集小镇(金山二店)","lon":"121.34429","lat":"30.72882","category":"68","category_name":"快餐厅","address":"近郊金山区卫清西路477号乐购1楼(近蒙山路)"},{"poiid":"B2094655D26FA1FA419C","title":"好人家酒店","lon":"121.34517","lat":"30.73325","category":"257","category_name":"中餐厅","address":"近郊金山石化板桥西路270号"},{"poiid":"B2094757D16CA4FF4092","title":"味千拉面(金山百联店)","lon":"121.34775619","lat":"30.7326628985","category":"95","category_name":"日本料理","address":"近郊金山区卫清西路168弄99号百联金山购物中心内(近松卫南路)"},{"poiid":"B2094655D268A6FD4893","title":"金山农行金投综合楼","lon":"121.33916","lat":"30.74008","category":"46","category_name":"楼宇","address":""},{"poiid":"B2094655D268A1FF459C","title":"辰凯紫薇苑(东门)","lon":"121.3416","lat":"30.73411","category":"48","category_name":"楼宇大门","address":"蒙山路1517弄1-132号"},{"poiid":"B2094757D069A6FE469C","title":"许留山(金山百联店)","lon":"121.34743773","lat":"30.732148669","category":"67","category_name":"甜品店","address":"上海金山百联"},{"poiid":"B2094757D16EA3FC4398","title":"草根骨头皇火锅","lon":"121.34211062","lat":"30.729088557","category":"86","category_name":"火锅店","address":"近郊金山卫清西路543号(近金山乐购)"},{"poiid":"B2094757D16BA5FE459E","title":"金山供电公司","lon":"121.335862","lat":"30.737096","category":"500","category_name":"未知分类","address":"上海市金山区金山大道2522号"},{"poiid":"B2094757D164A5FD459D","title":"咔萨音乐休闲餐厅","lon":"121.34636864","lat":"30.731582756","category":"94","category_name":"西餐厅","address":"近郊前京大道131号(金山百联对面)"},{"poiid":"B2094757D06FA2FE489C","title":"百联金山购物中心","lon":"121.34676264","lat":"30.733259894","category":"119","category_name":"商场","address":"近郊金山区卫清西路168弄99号(近松卫南路)"},{"poiid":"B2094757D06FA2FB489E","title":"星巴克(金山百联店)","lon":"121.35126","lat":"30.731089","category":"260","category_name":"其他","address":"近郊金山区卫清西路168弄99号百联金山购物中心内(近松卫南路)"},{"poiid":"B2094757D06FAAF5429B","title":"好乐迪金山店","lon":"121.34451927","lat":"30.732421942","category":"170","category_name":"KTV","address":"上海卫清西路168弄99号3f"},{"poiid":"B2094757D06FA0FC4699","title":"星美国际影城金山店","lon":"121.348272","lat":"30.730783","category":"178","category_name":"电影院","address":"上海金山区卫清西路188号301-1302-2室"},{"poiid":"B2094757D068A3F8449B","title":"必胜客(金山百联店)","lon":"121.35021","lat":"30.73057","category":"94","category_name":"西餐厅","address":"近郊金山区卫清西路168弄99号百联金山购物中心1楼B120-121室(近松卫南路)"},{"poiid":"B2094655D36CA0FE459B","title":"金山区政府","lon":"121.34336","lat":"30.74191","category":"38","category_name":"公交车站","address":"金山区金山大道2000号"},{"poiid":"B2094757D068A3F4419F","title":"乐购(金山店)","lon":"121.34391118","lat":"30.728586968","category":"118","category_name":"超级市场","address":"近郊金山区石化街道卫清西路477号(蒙山路口)"},{"poiid":"B2094757D06FA4FA459E","title":"避风塘 百联金山店","lon":"121.35021","lat":"30.73057","category":"111","category_name":"休闲餐饮场所","address":"近郊金山区卫清西路168弄99号百联金山购物中心1楼(近松卫南路)"},{"poiid":"B2094750DA6EA2F5429E","title":"湖蝶轩法式越南料理","lon":"121.346382","lat":"30.729667","category":"247","category_name":"餐饮美食","address":null},{"poiid":"B2094757D069A0FC419A","title":"汤姆熊(百联金山店)","lon":"121.34654524","lat":"30.732037833","category":"500","category_name":"未知分类","address":"上海金山区卫清西路168弄99号百联金山购物中心2楼"},{"poiid":"B2094753DB64A7FA489B","title":"糖小姐的店","lon":"121.339065","lat":"30.73596","category":"247","category_name":"餐饮美食","address":"上海市金山区金山大道世纪城2277／2279号"},{"poiid":"B2094757D16BA3FC439E","title":"金山税务局","lon":"121.338526645","lat":"30.7419290002","category":"500","category_name":"未知分类","address":"上海市金山区龙山路"},{"poiid":"B2094757D169AAF4479A","title":"上海市金山区人民法院","lon":"121.341330645","lat":"30.7375678973","category":"608","category_name":"法院","address":"金山区石化金山大道2288号"},{"poiid":"B2094654DB69A3FB4398","title":"金山世纪城","lon":"121.33766","lat":"30.73488","category":"47","category_name":"住宅区","address":"卫零路886弄8"},{"poiid":"B2094654DB69A3F9479C","title":"上海市公安局金山分局","lon":"121.33789","lat":"30.74057","category":"248","category_name":"生活娱乐","address":"上海金山区蒙源路110号"},{"poiid":"B2094654DB69A1FE4393","title":"蓝山咖啡馆金山店","lon":"121.34013183680531","lat":"30.728110924965684","category":"65","category_name":"咖啡厅","address":"近郊金山区卫清西路641号"},{"poiid":"B2094654DB69A3FB429C","title":"皓正百货","lon":"121.33975","lat":"30.73673","category":"119","category_name":"商场","address":"世纪城东街47"},{"poiid":"B2094757D168A2FC4698","title":"金山区行政服务中心","lon":"121.340799045","lat":"30.7442538551","category":"500","category_name":"未知分类","address":"上海金山区龙山路555号"},{"poiid":"B2094655D268A6FE479F","title":"三岛龙洲苑(西二门)","lon":"121.3425","lat":"30.73417","category":"656","category_name":"大门","address":"蒙山路1498"},{"poiid":"B2094757D568A7FB4093","title":"三品香(卫清店)","lon":"121.3453087","lat":"30.72963515","category":"88","category_name":"海鲜酒楼","address":"上海市金山区卫清西路318号"},{"poiid":"B2094655D268A1FF459E","title":"复旦大学上海医学院法医学鉴定中心金山受理点","lon":"121.33845","lat":"30.73656","category":"250","category_name":"公园户外","address":"金山大道2335弄2281号"},{"poiid":"B2094757D065A0FF439F","title":"辰凯紫薇园","lon":"121.341606","lat":"30.734109","category":"47","category_name":"住宅区","address":"上海金山区蒙山路1517弄"},{"poiid":"B2094757D16EA2FC429F","title":"汇都大酒楼","lon":"121.33604145","lat":"30.733219669","category":"247","category_name":"餐饮美食","address":"近郊金山区山阳镇杨家村卫零路3009号(卫零路卫清西路)"},{"poiid":"B2094654DB69A3FB4093","title":"辰凯紫薇苑","lon":"121.34617913329","lat":"30.740805127992","category":"47","category_name":"住宅区","address":"上海市金山区蒙山路1517弄"},{"poiid":"B2094655D268A7FB4893","title":"金山世纪城(北门)","lon":"121.33805","lat":"30.73637","category":"656","category_name":"大门","address":"金山大道2335"},{"poiid":"B2094654DB69A3FB449A","title":"卫龙新村","lon":"121.343","lat":"30.7374","category":"47","category_name":"住宅区","address":"卫零路726弄"},{"poiid":"B2094654DB69A3FB419D","title":"良友金伴便利连锁NO.690","lon":"121.34243","lat":"30.73444","category":"117","category_name":"便民商店/便利店","address":"石化"},{"poiid":"B2094654DB69A3FB469E","title":"书香门第","lon":"121.34148","lat":"30.7309","category":"47","category_name":"住宅区","address":"蒙山路1291弄1-87号"},{"poiid":"B2094654DB69A3FB4393","title":"汇都海鲜大酒店石化店","lon":"121.33602","lat":"30.73327","category":"88","category_name":"海鲜酒楼","address":"近郊金山区山阳镇杨家村卫零路3009号(卫零路卫清西路)"},{"poiid":"B2094750D665A2FF4799","title":"万宫亭","lon":"121.343","lat":"30.7327","category":"95","category_name":"日本料理","address":"近郊金山石化板桥西路368号(近金山百联)"},{"poiid":"B2094757D168A7F44792","title":"好乐迪","lon":"121.34642564","lat":"30.732410775","category":"500","category_name":"未知分类","address":"上海市金山区蒙山路"},{"poiid":"B2094757D16FA3FA4299","title":"蒙山路","lon":"121.341609","lat":"30.732681","category":"500","category_name":"未知分类","address":"上海石化蒙山路"},{"poiid":"B2094752DB6CABFD449B","title":"城市沙滩","lon":"121.338151","lat":"30.731711","category":"500","category_name":"未知分类","address":"上海市 上海市金山区"},{"poiid":"B2094757D068A3FF419C","title":"金山区","lon":"121.341964","lat":"30.741986","category":"250","category_name":"公园户外","address":"上海金山区区域"},{"poiid":"B2094757D66BA2FC429C","title":"品尚豆捞 金山店","lon":"121.343541","lat":"30.728007","category":"86","category_name":"火锅店","address":"近郊金山石化蒙山路1252号(近国美)"},{"poiid":"B2094655D268A4F8459A","title":"金山世纪城(东门)","lon":"121.33998","lat":"30.73712","category":"656","category_name":"大门","address":""},{"poiid":"B2094654DB64A7FF489E","title":"良友金伴","lon":"121.33648","lat":"30.73519","category":"117","category_name":"便民商店/便利店","address":"世纪城西街94"},{"poiid":"B2094655D268A3FD499B","title":"喜乐","lon":"121.34279","lat":"30.73187","category":"95","category_name":"日本料理","address":"近郊金山石化蒙山路1329号安信保险对面(板桥路蒙山路)"},{"poiid":"B2094654DB69A3FB4199","title":"克丽缇娜NO.15507","lon":"121.34246","lat":"30.73315","category":"148","category_name":"美容美发店","address":"蒙山路1414"},{"poiid":"B2094757D06AABFC4093","title":"肯德基(金山百联店)","lon":"121.34377836","lat":"30.728891859","category":"68","category_name":"快餐厅","address":"近郊金山区卫清西路168弄99号百联金山购物中心1楼(近松卫南路)"},{"poiid":"B2094654DB69A3F9469B","title":"金山广场","lon":"121.34195","lat":"30.73987","category":"201","category_name":"城市广场","address":""},{"poiid":"B2094654DB69AAFC499A","title":"集集小镇(金山二店)","lon":"121.34429","lat":"30.72882","category":"68","category_name":"快餐厅","address":"近郊金山区卫清西路477号乐购1楼(近蒙山路)"},{"poiid":"B2094655D26FA1FA419C","title":"好人家酒店","lon":"121.34517","lat":"30.73325","category":"257","category_name":"中餐厅","address":"近郊金山石化板桥西路270号"},{"poiid":"B2094757D16CA4FF4092","title":"味千拉面(金山百联店)","lon":"121.34775619","lat":"30.7326628985","category":"95","category_name":"日本料理","address":"近郊金山区卫清西路168弄99号百联金山购物中心内(近松卫南路)"},{"poiid":"B2094655D268A6FD4893","title":"金山农行金投综合楼","lon":"121.33916","lat":"30.74008","category":"46","category_name":"楼宇","address":""},{"poiid":"B2094655D268A1FF459C","title":"辰凯紫薇苑(东门)","lon":"121.3416","lat":"30.73411","category":"48","category_name":"楼宇大门","address":"蒙山路1517弄1-132号"},{"poiid":"B2094757D069A6FE469C","title":"许留山(金山百联店)","lon":"121.34743773","lat":"30.732148669","category":"67","category_name":"甜品店","address":"上海金山百联"},{"poiid":"B2094757D16EA3FC4398","title":"草根骨头皇火锅","lon":"121.34211062","lat":"30.729088557","category":"86","category_name":"火锅店","address":"近郊金山卫清西路543号(近金山乐购)"},{"poiid":"B2094757D16BA5FE459E","title":"金山供电公司","lon":"121.335862","lat":"30.737096","category":"500","category_name":"未知分类","address":"上海市金山区金山大道2522号"},{"poiid":"B2094757D164A5FD459D","title":"咔萨音乐休闲餐厅","lon":"121.34636864","lat":"30.731582756","category":"94","category_name":"西餐厅","address":"近郊前京大道131号(金山百联对面)"}]