[{"poiid":"B2094757D068A3F9439E","title":"自由港量贩式KTV(青浦店)","lon":"121.12195","lat":"31.14887","category":"170","category_name":"KTV","address":"青浦区公园路258号(浦仓路口)"},{"poiid":"B2094757D068A4F5419A","title":"帕缇欧香苑","lon":"121.1250559","lat":"31.141070094","category":"252","category_name":"楼宇机构","address":"上海青浦区外青松公路6666弄"},{"poiid":"B2094757D664A1F84893","title":"海港一号","lon":"121.132756054","lat":"31.146040793","category":"76","category_name":"上海菜","address":"青浦区华青南路177弄58号(近青湖路)"},{"poiid":"B2094655D36CA5FF4392","title":"城中东路保安路","lon":"121.12422","lat":"31.14644","category":"38","category_name":"公交车站","address":""},{"poiid":"B2094750D568A0F94392","title":"香港纯Kparyt","lon":"121.126731","lat":"31.146087","category":"170","category_name":"KTV","address":"青浦区青湖路晨兴国际"},{"poiid":"B2094757D06BABFF4693","title":"青浦区政府","lon":"121.12415141","lat":"31.15036197","category":"500","category_name":"未知分类","address":"上海公园路100号"},{"poiid":"B2094757D06BA3FF479E","title":"仁恒运杰河滨花苑","lon":"121.12885939","lat":"31.140946384","category":"252","category_name":"楼宇机构","address":"上海青浦区外青松公路6999弄"},{"poiid":"B2094757D165A7F54198","title":"青浦教师进修学院","lon":"121.12072706","lat":"31.148430402","category":"253","category_name":"校园生活","address":"上海青浦"},{"poiid":"B2094757D068A3F8439C","title":"85度C 青浦店","lon":"121.12089","lat":"31.14898","category":"112","category_name":"糕饼店","address":"青浦区公园路300号农工商超市旁(浦仓路公园路)"},{"poiid":"B2094654DA6BA5F94393","title":"青浦东方中学","lon":"121.12189","lat":"31.14408","category":"55","category_name":"中学","address":"上海青浦区浦仓路88号"},{"poiid":"B2094751D56CA1F8419F","title":"Ms Chen's Restaurant & Bar","lon":"121.12579","lat":"31.14401","category":"172","category_name":"酒吧","address":"青浦区外青松公路6666弄16号帕缇欧香小区内"},{"poiid":"B2094654DA6BABFA409D","title":"梦丹苑","lon":"121.13171","lat":"31.146254","category":"47","category_name":"住宅区","address":"青湖路4625弄"},{"poiid":"B2094654DA6BA6FC469C","title":"农工商超市NO.50","lon":"121.12065","lat":"31.14896","category":"118","category_name":"超级市场","address":"青浦镇"},{"poiid":"B2094757D16DAAFF419E","title":"青浦热浪游泳健身会所","lon":"121.12440467","lat":"31.141178186","category":"500","category_name":"未知分类","address":"青浦区外青松公路6666号(近沪青平公路)"},{"poiid":"B2094757D06BA4FA489B","title":"迪欧咖啡(青浦店)","lon":"121.12578","lat":"31.14938","category":"65","category_name":"咖啡厅","address":"青浦区公园路99号(公园路外青松公路)"},{"poiid":"B2094757D665ABF84599","title":"红宝石 城中东路店 Ruby","lon":"121.12091","lat":"31.14668","category":"67","category_name":"甜品店","address":"青浦区城中东路218号(城中东路浦仓路)"},{"poiid":"B2094655D36CA2F8419F","title":"青湖路外青松公路","lon":"121.12826","lat":"31.14603","category":"38","category_name":"公交车站","address":""},{"poiid":"B2094654DA6BA0F8429F","title":"晨兴公寓","lon":"121.1284","lat":"31.145359","category":"47","category_name":"住宅区","address":"青湖路997弄"},{"poiid":"B2094757D064AAF9419F","title":"城东新村","lon":"121.12563357","lat":"31.143727738","category":"500","category_name":"未知分类","address":"上海市青浦区"},{"poiid":"B2094654DA6BA5F94199","title":"保安新村","lon":"121.12564","lat":"31.145197","category":"47","category_name":"住宅区","address":"淀浦河东路225号"},{"poiid":"B2094757D16FA0FE4898","title":"青浦区桂花苑","lon":"121.127376171","lat":"31.1456536766","category":"252","category_name":"楼宇机构","address":"上海青浦区青湖路1070弄"},{"poiid":"B2094654DA6BA1F4449F","title":"美代口腔专科门诊部","lon":"121.12827","lat":"31.14581","category":"162","category_name":"医院","address":"青湖路1001"},{"poiid":"B2094753D268A0FA4999","title":"上井精致创作料理","lon":"121.130565","lat":"31.146973","category":"247","category_name":"餐饮美食","address":"上海市 运杰城市花园"},{"poiid":"B2094654DB69AAF9409B","title":"巷深酒楼","lon":"121.121047054","lat":"31.147857793","category":"76","category_name":"上海菜","address":"青浦区浦仓路250号(城中东路浦仓路)"},{"poiid":"B2094654DA6BA5FE449C","title":"友谊酒家","lon":"121.12075433399","lat":"31.149022380998","category":"76","category_name":"上海菜","address":"青浦区公园路197号(近外青松公路)"},{"poiid":"B2094654DA6BA5FD4692","title":"青浦区东门小学","lon":"121.12454","lat":"31.14716","category":"56","category_name":"小学","address":"青浦区城中东路48号"},{"poiid":"B2094757D169AAF8489C","title":"青浦区社保中心","lon":"121.122893","lat":"31.149602","category":"500","category_name":"未知分类","address":"上海公园路200号"},{"poiid":"B2094654DA6BA4FB459B","title":"多味坊土菜馆","lon":"121.13249","lat":"31.14557","category":"257","category_name":"中餐厅","address":"青浦区青湖路945号"},{"poiid":"B2094757D66CA7FF459E","title":"越岭阁(青浦店)","lon":"121.12066","lat":"31.14847","category":"96","category_name":"韩国料理","address":"青浦区公园路209号(近浦仓路)"},{"poiid":"B2094753D164AAF84198","title":"上井精致料理","lon":"121.126556","lat":"31.146908","category":"247","category_name":"餐饮美食","address":"上海市 青浦店"},{"poiid":"B2094654DA6BA5FE409C","title":"舜浦大厦","lon":"121.12488","lat":"31.14919","category":"46","category_name":"楼宇","address":"上海青浦区公园路99号"},{"poiid":"B2094751D56CAAFA4992","title":"小阁楼(青湖路店)","lon":"121.13161","lat":"31.14554","category":"71","category_name":"四川菜","address":"青浦区青湖路975号(近外青松公路)"},{"poiid":"B2094753D768A2FF4299","title":"上井精致料理","lon":"121.130928","lat":"31.14208","category":"247","category_name":"餐饮美食","address":"上海市 青浦区华青南路"},{"poiid":"B2094654DA6BA0FF479E","title":"舜浦世外苑","lon":"121.12706","lat":"31.14439","category":"47","category_name":"住宅区","address":""},{"poiid":"B2094757D16FA5F8429E","title":"金色淡水","lon":"121.131923071","lat":"31.1441594467","category":"68","category_name":"快餐厅","address":"青浦区青峰路71号(新华骥苑对面)"},{"poiid":"B2094654DA6BA5FD469F","title":"城东口腔门诊部","lon":"121.12436","lat":"31.14676","category":"162","category_name":"医院","address":"城中东路54号"},{"poiid":"B2094654DA6BABF9469C","title":"华骥小区1号门","lon":"121.13148","lat":"31.14469","category":"47","category_name":"住宅区","address":"青浦镇"},{"poiid":"B209475CD26BA5F54892","title":"澜隐茶餐厅","lon":"121.125999","lat":"31.144603","category":"500","category_name":"未知分类","address":"上海市 青浦区外青松公路青湖路"},{"poiid":"B2094655D36CA2F8419A","title":"青湖路晨兴公寓","lon":"121.12874","lat":"31.14599","category":"38","category_name":"公交车站","address":""},{"poiid":"B2094654DA6BA0FF499B","title":"天天过年酒楼","lon":"121.1292","lat":"31.14468","category":"70","category_name":"综合酒楼","address":""},{"poiid":"B2094654DA6BA4FB469A","title":"青浦区实验幼儿园","lon":"121.13058","lat":"31.14507","category":"57","category_name":"幼儿园","address":"青浦区青浦区青峰路156号"},{"poiid":"B2094654DA6BA5FD4592","title":"上海宏良经济开发区","lon":"121.12387","lat":"31.14671","category":"45","category_name":"产业园区","address":"城中东路66号2层"},{"poiid":"B2094752D165A2FB469D","title":"艾玛咖啡","lon":"121.127899","lat":"31.147671","category":"247","category_name":"餐饮美食","address":"青湖路"},{"poiid":"B2094654DA6BA5F9469B","title":"城东新村二区","lon":"121.12197","lat":"31.14501","category":"47","category_name":"住宅区","address":""},{"poiid":"B2094753D76DA0FF4293","title":"鹭鹭小馆","lon":"121.120529","lat":"31.146512","category":"247","category_name":"餐饮美食","address":"上海市 青浦区公园路"},{"poiid":"B2094654DA6BA5F94299","title":"青浦夏阳街道青青心理咨询中心","lon":"121.12313","lat":"31.14614","category":"162","category_name":"医院","address":""},{"poiid":"B2094757D16EA5F8489B","title":"民生银行青浦分行","lon":"121.127682381","lat":"31.146018994","category":"150","category_name":"银行","address":"青浦区青湖路1023号(近青松公路)"},{"poiid":"B2094752D264A7FE4799","title":"艾杩咖啡","lon":"121.126394","lat":"31.146749","category":"500","category_name":"未知分类","address":"青浦区青浦青湖路(近华青南路)"},{"poiid":"B2094655D265A5F8499E","title":"索尼食堂","lon":"121.12344","lat":"31.14277","category":"257","category_name":"中餐厅","address":"卢湾区湖滨路222号企业天地1号楼7楼(近济南路)"},{"poiid":"B2094654DA6BA5FD4993","title":"保安新村18-22号楼(北侧)","lon":"121.1254","lat":"31.1477","category":"47","category_name":"住宅区","address":"淀浦河东路225号"},{"poiid":"B2094757D068A3F9439E","title":"自由港量贩式KTV(青浦店)","lon":"121.12195","lat":"31.14887","category":"170","category_name":"KTV","address":"青浦区公园路258号(浦仓路口)"},{"poiid":"B2094757D068A4F5419A","title":"帕缇欧香苑","lon":"121.1250559","lat":"31.141070094","category":"252","category_name":"楼宇机构","address":"上海青浦区外青松公路6666弄"},{"poiid":"B2094757D664A1F84893","title":"海港一号","lon":"121.132756054","lat":"31.146040793","category":"76","category_name":"上海菜","address":"青浦区华青南路177弄58号(近青湖路)"},{"poiid":"B2094655D36CA5FF4392","title":"城中东路保安路","lon":"121.12422","lat":"31.14644","category":"38","category_name":"公交车站","address":""},{"poiid":"B2094750D568A0F94392","title":"香港纯Kparyt","lon":"121.126731","lat":"31.146087","category":"170","category_name":"KTV","address":"青浦区青湖路晨兴国际"},{"poiid":"B2094757D06BABFF4693","title":"青浦区政府","lon":"121.12415141","lat":"31.15036197","category":"500","category_name":"未知分类","address":"上海公园路100号"},{"poiid":"B2094757D06BA3FF479E","title":"仁恒运杰河滨花苑","lon":"121.12885939","lat":"31.140946384","category":"252","category_name":"楼宇机构","address":"上海青浦区外青松公路6999弄"},{"poiid":"B2094757D165A7F54198","title":"青浦教师进修学院","lon":"121.12072706","lat":"31.148430402","category":"253","category_name":"校园生活","address":"上海青浦"},{"poiid":"B2094757D068A3F8439C","title":"85度C 青浦店","lon":"121.12089","lat":"31.14898","category":"112","category_name":"糕饼店","address":"青浦区公园路300号农工商超市旁(浦仓路公园路)"},{"poiid":"B2094654DA6BA5F94393","title":"青浦东方中学","lon":"121.12189","lat":"31.14408","category":"55","category_name":"中学","address":"上海青浦区浦仓路88号"},{"poiid":"B2094751D56CA1F8419F","title":"Ms Chen's Restaurant & Bar","lon":"121.12579","lat":"31.14401","category":"172","category_name":"酒吧","address":"青浦区外青松公路6666弄16号帕缇欧香小区内"},{"poiid":"B2094654DA6BABFA409D","title":"梦丹苑","lon":"121.13171","lat":"31.146254","category":"47","category_name":"住宅区","address":"青湖路4625弄"},{"poiid":"B2094654DA6BA6FC469C","title":"农工商超市NO.50","lon":"121.12065","lat":"31.14896","category":"118","category_name":"超级市场","address":"青浦镇"},{"poiid":"B2094757D16DAAFF419E","title":"青浦热浪游泳健身会所","lon":"121.12440467","lat":"31.141178186","category":"500","category_name":"未知分类","address":"青浦区外青松公路6666号(近沪青平公路)"},{"poiid":"B2094757D06BA4FA489B","title":"迪欧咖啡(青浦店)","lon":"121.12578","lat":"31.14938","category":"65","category_name":"咖啡厅","address":"青浦区公园路99号(公园路外青松公路)"},{"poiid":"B2094757D665ABF84599","title":"红宝石 城中东路店 Ruby","lon":"121.12091","lat":"31.14668","category":"67","category_name":"甜品店","address":"青浦区城中东路218号(城中东路浦仓路)"},{"poiid":"B2094655D36CA2F8419F","title":"青湖路外青松公路","lon":"121.12826","lat":"31.14603","category":"38","category_name":"公交车站","address":""},{"poiid":"B2094654DA6BA0F8429F","title":"晨兴公寓","lon":"121.1284","lat":"31.145359","category":"47","category_name":"住宅区","address":"青湖路997弄"},{"poiid":"B2094757D064AAF9419F","title":"城东新村","lon":"121.12563357","lat":"31.143727738","category":"500","category_name":"未知分类","address":"上海市青浦区"},{"poiid":"B2094654DA6BA5F94199","title":"保安新村","lon":"121.12564","lat":"31.145197","category":"47","category_name":"住宅区","address":"淀浦河东路225号"},{"poiid":"B2094757D16FA0FE4898","title":"青浦区桂花苑","lon":"121.127376171","lat":"31.1456536766","category":"252","category_name":"楼宇机构","address":"上海青浦区青湖路1070弄"},{"poiid":"B2094654DA6BA1F4449F","title":"美代口腔专科门诊部","lon":"121.12827","lat":"31.14581","category":"162","category_name":"医院","address":"青湖路1001"},{"poiid":"B2094753D268A0FA4999","title":"上井精致创作料理","lon":"121.130565","lat":"31.146973","category":"247","category_name":"餐饮美食","address":"上海市 运杰城市花园"},{"poiid":"B2094654DB69AAF9409B","title":"巷深酒楼","lon":"121.121047054","lat":"31.147857793","category":"76","category_name":"上海菜","address":"青浦区浦仓路250号(城中东路浦仓路)"},{"poiid":"B2094654DA6BA5FE449C","title":"友谊酒家","lon":"121.12075433399","lat":"31.149022380998","category":"76","category_name":"上海菜","address":"青浦区公园路197号(近外青松公路)"},{"poiid":"B2094654DA6BA5FD4692","title":"青浦区东门小学","lon":"121.12454","lat":"31.14716","category":"56","category_name":"小学","address":"青浦区城中东路48号"},{"poiid":"B2094757D169AAF8489C","title":"青浦区社保中心","lon":"121.122893","lat":"31.149602","category":"500","category_name":"未知分类","address":"上海公园路200号"},{"poiid":"B2094654DA6BA4FB459B","title":"多味坊土菜馆","lon":"121.13249","lat":"31.14557","category":"257","category_name":"中餐厅","address":"青浦区青湖路945号"},{"poiid":"B2094757D66CA7FF459E","title":"越岭阁(青浦店)","lon":"121.12066","lat":"31.14847","category":"96","category_name":"韩国料理","address":"青浦区公园路209号(近浦仓路)"},{"poiid":"B2094753D164AAF84198","title":"上井精致料理","lon":"121.126556","lat":"31.146908","category":"247","category_name":"餐饮美食","address":"上海市 青浦店"},{"poiid":"B2094654DA6BA5FE409C","title":"舜浦大厦","lon":"121.12488","lat":"31.14919","category":"46","category_name":"楼宇","address":"上海青浦区公园路99号"},{"poiid":"B2094751D56CAAFA4992","title":"小阁楼(青湖路店)","lon":"121.13161","lat":"31.14554","category":"71","category_name":"四川菜","address":"青浦区青湖路975号(近外青松公路)"},{"poiid":"B2094753D768A2FF4299","title":"上井精致料理","lon":"121.130928","lat":"31.14208","category":"247","category_name":"餐饮美食","address":"上海市 青浦区华青南路"},{"poiid":"B2094654DA6BA0FF479E","title":"舜浦世外苑","lon":"121.12706","lat":"31.14439","category":"47","category_name":"住宅区","address":""},{"poiid":"B2094757D16FA5F8429E","title":"金色淡水","lon":"121.131923071","lat":"31.1441594467","category":"68","category_name":"快餐厅","address":"青浦区青峰路71号(新华骥苑对面)"},{"poiid":"B2094654DA6BA5FD469F","title":"城东口腔门诊部","lon":"121.12436","lat":"31.14676","category":"162","category_name":"医院","address":"城中东路54号"},{"poiid":"B2094654DA6BABF9469C","title":"华骥小区1号门","lon":"121.13148","lat":"31.14469","category":"47","category_name":"住宅区","address":"青浦镇"},{"poiid":"B209475CD26BA5F54892","title":"澜隐茶餐厅","lon":"121.125999","lat":"31.144603","category":"500","category_name":"未知分类","address":"上海市 青浦区外青松公路青湖路"},{"poiid":"B2094655D36CA2F8419A","title":"青湖路晨兴公寓","lon":"121.12874","lat":"31.14599","category":"38","category_name":"公交车站","address":""},{"poiid":"B2094654DA6BA0FF499B","title":"天天过年酒楼","lon":"121.1292","lat":"31.14468","category":"70","category_name":"综合酒楼","address":""},{"poiid":"B2094654DA6BA4FB469A","title":"青浦区实验幼儿园","lon":"121.13058","lat":"31.14507","category":"57","category_name":"幼儿园","address":"青浦区青浦区青峰路156号"},{"poiid":"B2094654DA6BA5FD4592","title":"上海宏良经济开发区","lon":"121.12387","lat":"31.14671","category":"45","category_name":"产业园区","address":"城中东路66号2层"},{"poiid":"B2094752D165A2FB469D","title":"艾玛咖啡","lon":"121.127899","lat":"31.147671","category":"247","category_name":"餐饮美食","address":"青湖路"},{"poiid":"B2094654DA6BA5F9469B","title":"城东新村二区","lon":"121.12197","lat":"31.14501","category":"47","category_name":"住宅区","address":""},{"poiid":"B2094753D76DA0FF4293","title":"鹭鹭小馆","lon":"121.120529","lat":"31.146512","category":"247","category_name":"餐饮美食","address":"上海市 青浦区公园路"},{"poiid":"B2094654DA6BA5F94299","title":"青浦夏阳街道青青心理咨询中心","lon":"121.12313","lat":"31.14614","category":"162","category_name":"医院","address":""},{"poiid":"B2094757D16EA5F8489B","title":"民生银行青浦分行","lon":"121.127682381","lat":"31.146018994","category":"150","category_name":"银行","address":"青浦区青湖路1023号(近青松公路)"},{"poiid":"B2094752D264A7FE4799","title":"艾杩咖啡","lon":"121.126394","lat":"31.146749","category":"500","category_name":"未知分类","address":"青浦区青浦青湖路(近华青南路)"},{"poiid":"B2094655D265A5F8499E","title":"索尼食堂","lon":"121.12344","lat":"31.14277","category":"257","category_name":"中餐厅","address":"卢湾区湖滨路222号企业天地1号楼7楼(近济南路)"},{"poiid":"B2094654DA6BA5FD4993","title":"保安新村18-22号楼(北侧)","lon":"121.1254","lat":"31.1477","category":"47","category_name":"住宅区","address":"淀浦河东路225号"},{"poiid":"B2094757D068A3F9439E","title":"自由港量贩式KTV(青浦店)","lon":"121.12195","lat":"31.14887","category":"170","category_name":"KTV","address":"青浦区公园路258号(浦仓路口)"},{"poiid":"B2094757D068A4F5419A","title":"帕缇欧香苑","lon":"121.1250559","lat":"31.141070094","category":"252","category_name":"楼宇机构","address":"上海青浦区外青松公路6666弄"},{"poiid":"B2094757D664A1F84893","title":"海港一号","lon":"121.132756054","lat":"31.146040793","category":"76","category_name":"上海菜","address":"青浦区华青南路177弄58号(近青湖路)"},{"poiid":"B2094655D36CA5FF4392","title":"城中东路保安路","lon":"121.12422","lat":"31.14644","category":"38","category_name":"公交车站","address":""},{"poiid":"B2094750D568A0F94392","title":"香港纯Kparyt","lon":"121.126731","lat":"31.146087","category":"170","category_name":"KTV","address":"青浦区青湖路晨兴国际"},{"poiid":"B2094757D06BABFF4693","title":"青浦区政府","lon":"121.12415141","lat":"31.15036197","category":"500","category_name":"未知分类","address":"上海公园路100号"},{"poiid":"B2094757D06BA3FF479E","title":"仁恒运杰河滨花苑","lon":"121.12885939","lat":"31.140946384","category":"252","category_name":"楼宇机构","address":"上海青浦区外青松公路6999弄"},{"poiid":"B2094757D165A7F54198","title":"青浦教师进修学院","lon":"121.12072706","lat":"31.148430402","category":"253","category_name":"校园生活","address":"上海青浦"},{"poiid":"B2094757D068A3F8439C","title":"85度C 青浦店","lon":"121.12089","lat":"31.14898","category":"112","category_name":"糕饼店","address":"青浦区公园路300号农工商超市旁(浦仓路公园路)"},{"poiid":"B2094654DA6BA5F94393","title":"青浦东方中学","lon":"121.12189","lat":"31.14408","category":"55","category_name":"中学","address":"上海青浦区浦仓路88号"},{"poiid":"B2094751D56CA1F8419F","title":"Ms Chen's Restaurant & Bar","lon":"121.12579","lat":"31.14401","category":"172","category_name":"酒吧","address":"青浦区外青松公路6666弄16号帕缇欧香小区内"},{"poiid":"B2094654DA6BABFA409D","title":"梦丹苑","lon":"121.13171","lat":"31.146254","category":"47","category_name":"住宅区","address":"青湖路4625弄"},{"poiid":"B2094654DA6BA6FC469C","title":"农工商超市NO.50","lon":"121.12065","lat":"31.14896","category":"118","category_name":"超级市场","address":"青浦镇"},{"poiid":"B2094757D16DAAFF419E","title":"青浦热浪游泳健身会所","lon":"121.12440467","lat":"31.141178186","category":"500","category_name":"未知分类","address":"青浦区外青松公路6666号(近沪青平公路)"},{"poiid":"B2094757D06BA4FA489B","title":"迪欧咖啡(青浦店)","lon":"121.12578","lat":"31.14938","category":"65","category_name":"咖啡厅","address":"青浦区公园路99号(公园路外青松公路)"},{"poiid":"B2094757D665ABF84599","title":"红宝石 城中东路店 Ruby","lon":"121.12091","lat":"31.14668","category":"67","category_name":"甜品店","address":"青浦区城中东路218号(城中东路浦仓路)"},{"poiid":"B2094655D36CA2F8419F","title":"青湖路外青松公路","lon":"121.12826","lat":"31.14603","category":"38","category_name":"公交车站","address":""},{"poiid":"B2094654DA6BA0F8429F","title":"晨兴公寓","lon":"121.1284","lat":"31.145359","category":"47","category_name":"住宅区","address":"青湖路997弄"},{"poiid":"B2094757D064AAF9419F","title":"城东新村","lon":"121.12563357","lat":"31.143727738","category":"500","category_name":"未知分类","address":"上海市青浦区"},{"poiid":"B2094654DA6BA5F94199","title":"保安新村","lon":"121.12564","lat":"31.145197","category":"47","category_name":"住宅区","address":"淀浦河东路225号"},{"poiid":"B2094757D16FA0FE4898","title":"青浦区桂花苑","lon":"121.127376171","lat":"31.1456536766","category":"252","category_name":"楼宇机构","address":"上海青浦区青湖路1070弄"},{"poiid":"B2094654DA6BA1F4449F","title":"美代口腔专科门诊部","lon":"121.12827","lat":"31.14581","category":"162","category_name":"医院","address":"青湖路1001"},{"poiid":"B2094753D268A0FA4999","title":"上井精致创作料理","lon":"121.130565","lat":"31.146973","category":"247","category_name":"餐饮美食","address":"上海市 运杰城市花园"},{"poiid":"B2094654DB69AAF9409B","title":"巷深酒楼","lon":"121.121047054","lat":"31.147857793","category":"76","category_name":"上海菜","address":"青浦区浦仓路250号(城中东路浦仓路)"},{"poiid":"B2094654DA6BA5FE449C","title":"友谊酒家","lon":"121.12075433399","lat":"31.149022380998","category":"76","category_name":"上海菜","address":"青浦区公园路197号(近外青松公路)"},{"poiid":"B2094654DA6BA5FD4692","title":"青浦区东门小学","lon":"121.12454","lat":"31.14716","category":"56","category_name":"小学","address":"青浦区城中东路48号"},{"poiid":"B2094757D169AAF8489C","title":"青浦区社保中心","lon":"121.122893","lat":"31.149602","category":"500","category_name":"未知分类","address":"上海公园路200号"},{"poiid":"B2094654DA6BA4FB459B","title":"多味坊土菜馆","lon":"121.13249","lat":"31.14557","category":"257","category_name":"中餐厅","address":"青浦区青湖路945号"},{"poiid":"B2094757D66CA7FF459E","title":"越岭阁(青浦店)","lon":"121.12066","lat":"31.14847","category":"96","category_name":"韩国料理","address":"青浦区公园路209号(近浦仓路)"},{"poiid":"B2094753D164AAF84198","title":"上井精致料理","lon":"121.126556","lat":"31.146908","category":"247","category_name":"餐饮美食","address":"上海市 青浦店"},{"poiid":"B2094654DA6BA5FE409C","title":"舜浦大厦","lon":"121.12488","lat":"31.14919","category":"46","category_name":"楼宇","address":"上海青浦区公园路99号"},{"poiid":"B2094751D56CAAFA4992","title":"小阁楼(青湖路店)","lon":"121.13161","lat":"31.14554","category":"71","category_name":"四川菜","address":"青浦区青湖路975号(近外青松公路)"},{"poiid":"B2094753D768A2FF4299","title":"上井精致料理","lon":"121.130928","lat":"31.14208","category":"247","category_name":"餐饮美食","address":"上海市 青浦区华青南路"},{"poiid":"B2094654DA6BA0FF479E","title":"舜浦世外苑","lon":"121.12706","lat":"31.14439","category":"47","category_name":"住宅区","address":""},{"poiid":"B2094757D16FA5F8429E","title":"金色淡水","lon":"121.131923071","lat":"31.1441594467","category":"68","category_name":"快餐厅","address":"青浦区青峰路71号(新华骥苑对面)"},{"poiid":"B2094654DA6BA5FD469F","title":"城东口腔门诊部","lon":"121.12436","lat":"31.14676","category":"162","category_name":"医院","address":"城中东路54号"},{"poiid":"B2094654DA6BABF9469C","title":"华骥小区1号门","lon":"121.13148","lat":"31.14469","category":"47","category_name":"住宅区","address":"青浦镇"},{"poiid":"B209475CD26BA5F54892","title":"澜隐茶餐厅","lon":"121.125999","lat":"31.144603","category":"500","category_name":"未知分类","address":"上海市 青浦区外青松公路青湖路"},{"poiid":"B2094655D36CA2F8419A","title":"青湖路晨兴公寓","lon":"121.12874","lat":"31.14599","category":"38","category_name":"公交车站","address":""},{"poiid":"B2094654DA6BA0FF499B","title":"天天过年酒楼","lon":"121.1292","lat":"31.14468","category":"70","category_name":"综合酒楼","address":""},{"poiid":"B2094654DA6BA4FB469A","title":"青浦区实验幼儿园","lon":"121.13058","lat":"31.14507","category":"57","category_name":"幼儿园","address":"青浦区青浦区青峰路156号"},{"poiid":"B2094654DA6BA5FD4592","title":"上海宏良经济开发区","lon":"121.12387","lat":"31.14671","category":"45","category_name":"产业园区","address":"城中东路66号2层"},{"poiid":"B2094752D165A2FB469D","title":"艾玛咖啡","lon":"121.127899","lat":"31.147671","category":"247","category_name":"餐饮美食","address":"青湖路"},{"poiid":"B2094654DA6BA5F9469B","title":"城东新村二区","lon":"121.12197","lat":"31.14501","category":"47","category_name":"住宅区","address":""},{"poiid":"B2094753D76DA0FF4293","title":"鹭鹭小馆","lon":"121.120529","lat":"31.146512","category":"247","category_name":"餐饮美食","address":"上海市 青浦区公园路"},{"poiid":"B2094654DA6BA5F94299","title":"青浦夏阳街道青青心理咨询中心","lon":"121.12313","lat":"31.14614","category":"162","category_name":"医院","address":""},{"poiid":"B2094757D16EA5F8489B","title":"民生银行青浦分行","lon":"121.127682381","lat":"31.146018994","category":"150","category_name":"银行","address":"青浦区青湖路1023号(近青松公路)"},{"poiid":"B2094752D264A7FE4799","title":"艾杩咖啡","lon":"121.126394","lat":"31.146749","category":"500","category_name":"未知分类","address":"青浦区青浦青湖路(近华青南路)"},{"poiid":"B2094655D265A5F8499E","title":"索尼食堂","lon":"121.12344","lat":"31.14277","category":"257","category_name":"中餐厅","address":"卢湾区湖滨路222号企业天地1号楼7楼(近济南路)"},{"poiid":"B2094654DA6BA5FD4993","title":"保安新村18-22号楼(北侧)","lon":"121.1254","lat":"31.1477","category":"47","category_name":"住宅区","address":"淀浦河东路225号"},{"poiid":"B2094757D068A3F9439E","title":"自由港量贩式KTV(青浦店)","lon":"121.12195","lat":"31.14887","category":"170","category_name":"KTV","address":"青浦区公园路258号(浦仓路口)"},{"poiid":"B2094757D068A4F5419A","title":"帕缇欧香苑","lon":"121.1250559","lat":"31.141070094","category":"252","category_name":"楼宇机构","address":"上海青浦区外青松公路6666弄"},{"poiid":"B2094757D664A1F84893","title":"海港一号","lon":"121.132756054","lat":"31.146040793","category":"76","category_name":"上海菜","address":"青浦区华青南路177弄58号(近青湖路)"},{"poiid":"B2094655D36CA5FF4392","title":"城中东路保安路","lon":"121.12422","lat":"31.14644","category":"38","category_name":"公交车站","address":""},{"poiid":"B2094750D568A0F94392","title":"香港纯Kparyt","lon":"121.126731","lat":"31.146087","category":"170","category_name":"KTV","address":"青浦区青湖路晨兴国际"},{"poiid":"B2094757D06BABFF4693","title":"青浦区政府","lon":"121.12415141","lat":"31.15036197","category":"500","category_name":"未知分类","address":"上海公园路100号"},{"poiid":"B2094757D06BA3FF479E","title":"仁恒运杰河滨花苑","lon":"121.12885939","lat":"31.140946384","category":"252","category_name":"楼宇机构","address":"上海青浦区外青松公路6999弄"},{"poiid":"B2094757D165A7F54198","title":"青浦教师进修学院","lon":"121.12072706","lat":"31.148430402","category":"253","category_name":"校园生活","address":"上海青浦"},{"poiid":"B2094757D068A3F8439C","title":"85度C 青浦店","lon":"121.12089","lat":"31.14898","category":"112","category_name":"糕饼店","address":"青浦区公园路300号农工商超市旁(浦仓路公园路)"},{"poiid":"B2094654DA6BA5F94393","title":"青浦东方中学","lon":"121.12189","lat":"31.14408","category":"55","category_name":"中学","address":"上海青浦区浦仓路88号"},{"poiid":"B2094751D56CA1F8419F","title":"Ms Chen's Restaurant & Bar","lon":"121.12579","lat":"31.14401","category":"172","category_name":"酒吧","address":"青浦区外青松公路6666弄16号帕缇欧香小区内"},{"poiid":"B2094654DA6BABFA409D","title":"梦丹苑","lon":"121.13171","lat":"31.146254","category":"47","category_name":"住宅区","address":"青湖路4625弄"},{"poiid":"B2094654DA6BA6FC469C","title":"农工商超市NO.50","lon":"121.12065","lat":"31.14896","category":"118","category_name":"超级市场","address":"青浦镇"},{"poiid":"B2094757D16DAAFF419E","title":"青浦热浪游泳健身会所","lon":"121.12440467","lat":"31.141178186","category":"500","category_name":"未知分类","address":"青浦区外青松公路6666号(近沪青平公路)"},{"poiid":"B2094757D06BA4FA489B","title":"迪欧咖啡(青浦店)","lon":"121.12578","lat":"31.14938","category":"65","category_name":"咖啡厅","address":"青浦区公园路99号(公园路外青松公路)"},{"poiid":"B2094757D665ABF84599","title":"红宝石 城中东路店 Ruby","lon":"121.12091","lat":"31.14668","category":"67","category_name":"甜品店","address":"青浦区城中东路218号(城中东路浦仓路)"},{"poiid":"B2094655D36CA2F8419F","title":"青湖路外青松公路","lon":"121.12826","lat":"31.14603","category":"38","category_name":"公交车站","address":""},{"poiid":"B2094654DA6BA0F8429F","title":"晨兴公寓","lon":"121.1284","lat":"31.145359","category":"47","category_name":"住宅区","address":"青湖路997弄"},{"poiid":"B2094757D064AAF9419F","title":"城东新村","lon":"121.12563357","lat":"31.143727738","category":"500","category_name":"未知分类","address":"上海市青浦区"},{"poiid":"B2094654DA6BA5F94199","title":"保安新村","lon":"121.12564","lat":"31.145197","category":"47","category_name":"住宅区","address":"淀浦河东路225号"},{"poiid":"B2094757D16FA0FE4898","title":"青浦区桂花苑","lon":"121.127376171","lat":"31.1456536766","category":"252","category_name":"楼宇机构","address":"上海青浦区青湖路1070弄"},{"poiid":"B2094654DA6BA1F4449F","title":"美代口腔专科门诊部","lon":"121.12827","lat":"31.14581","category":"162","category_name":"医院","address":"青湖路1001"},{"poiid":"B2094753D268A0FA4999","title":"上井精致创作料理","lon":"121.130565","lat":"31.146973","category":"247","category_name":"餐饮美食","address":"上海市 运杰城市花园"},{"poiid":"B2094654DB69AAF9409B","title":"巷深酒楼","lon":"121.121047054","lat":"31.147857793","category":"76","category_name":"上海菜","address":"青浦区浦仓路250号(城中东路浦仓路)"},{"poiid":"B2094654DA6BA5FE449C","title":"友谊酒家","lon":"121.12075433399","lat":"31.149022380998","category":"76","category_name":"上海菜","address":"青浦区公园路197号(近外青松公路)"},{"poiid":"B2094654DA6BA5FD4692","title":"青浦区东门小学","lon":"121.12454","lat":"31.14716","category":"56","category_name":"小学","address":"青浦区城中东路48号"},{"poiid":"B2094757D169AAF8489C","title":"青浦区社保中心","lon":"121.122893","lat":"31.149602","category":"500","category_name":"未知分类","address":"上海公园路200号"},{"poiid":"B2094654DA6BA4FB459B","title":"多味坊土菜馆","lon":"121.13249","lat":"31.14557","category":"257","category_name":"中餐厅","address":"青浦区青湖路945号"},{"poiid":"B2094757D66CA7FF459E","title":"越岭阁(青浦店)","lon":"121.12066","lat":"31.14847","category":"96","category_name":"韩国料理","address":"青浦区公园路209号(近浦仓路)"},{"poiid":"B2094753D164AAF84198","title":"上井精致料理","lon":"121.126556","lat":"31.146908","category":"247","category_name":"餐饮美食","address":"上海市 青浦店"},{"poiid":"B2094654DA6BA5FE409C","title":"舜浦大厦","lon":"121.12488","lat":"31.14919","category":"46","category_name":"楼宇","address":"上海青浦区公园路99号"},{"poiid":"B2094751D56CAAFA4992","title":"小阁楼(青湖路店)","lon":"121.13161","lat":"31.14554","category":"71","category_name":"四川菜","address":"青浦区青湖路975号(近外青松公路)"},{"poiid":"B2094753D768A2FF4299","title":"上井精致料理","lon":"121.130928","lat":"31.14208","category":"247","category_name":"餐饮美食","address":"上海市 青浦区华青南路"},{"poiid":"B2094654DA6BA0FF479E","title":"舜浦世外苑","lon":"121.12706","lat":"31.14439","category":"47","category_name":"住宅区","address":""},{"poiid":"B2094757D16FA5F8429E","title":"金色淡水","lon":"121.131923071","lat":"31.1441594467","category":"68","category_name":"快餐厅","address":"青浦区青峰路71号(新华骥苑对面)"},{"poiid":"B2094654DA6BA5FD469F","title":"城东口腔门诊部","lon":"121.12436","lat":"31.14676","category":"162","category_name":"医院","address":"城中东路54号"},{"poiid":"B2094654DA6BABF9469C","title":"华骥小区1号门","lon":"121.13148","lat":"31.14469","category":"47","category_name":"住宅区","address":"青浦镇"},{"poiid":"B209475CD26BA5F54892","title":"澜隐茶餐厅","lon":"121.125999","lat":"31.144603","category":"500","category_name":"未知分类","address":"上海市 青浦区外青松公路青湖路"},{"poiid":"B2094655D36CA2F8419A","title":"青湖路晨兴公寓","lon":"121.12874","lat":"31.14599","category":"38","category_name":"公交车站","address":""},{"poiid":"B2094654DA6BA0FF499B","title":"天天过年酒楼","lon":"121.1292","lat":"31.14468","category":"70","category_name":"综合酒楼","address":""},{"poiid":"B2094654DA6BA4FB469A","title":"青浦区实验幼儿园","lon":"121.13058","lat":"31.14507","category":"57","category_name":"幼儿园","address":"青浦区青浦区青峰路156号"},{"poiid":"B2094654DA6BA5FD4592","title":"上海宏良经济开发区","lon":"121.12387","lat":"31.14671","category":"45","category_name":"产业园区","address":"城中东路66号2层"},{"poiid":"B2094752D165A2FB469D","title":"艾玛咖啡","lon":"121.127899","lat":"31.147671","category":"247","category_name":"餐饮美食","address":"青湖路"},{"poiid":"B2094654DA6BA5F9469B","title":"城东新村二区","lon":"121.12197","lat":"31.14501","category":"47","category_name":"住宅区","address":""},{"poiid":"B2094753D76DA0FF4293","title":"鹭鹭小馆","lon":"121.120529","lat":"31.146512","category":"247","category_name":"餐饮美食","address":"上海市 青浦区公园路"},{"poiid":"B2094654DA6BA5F94299","title":"青浦夏阳街道青青心理咨询中心","lon":"121.12313","lat":"31.14614","category":"162","category_name":"医院","address":""},{"poiid":"B2094757D16EA5F8489B","title":"民生银行青浦分行","lon":"121.127682381","lat":"31.146018994","category":"150","category_name":"银行","address":"青浦区青湖路1023号(近青松公路)"},{"poiid":"B2094752D264A7FE4799","title":"艾杩咖啡","lon":"121.126394","lat":"31.146749","category":"500","category_name":"未知分类","address":"青浦区青浦青湖路(近华青南路)"},{"poiid":"B2094655D265A5F8499E","title":"索尼食堂","lon":"121.12344","lat":"31.14277","category":"257","category_name":"中餐厅","address":"卢湾区湖滨路222号企业天地1号楼7楼(近济南路)"},{"poiid":"B2094654DA6BA5FD4993","title":"保安新村18-22号楼(北侧)","lon":"121.1254","lat":"31.1477","category":"47","category_name":"住宅区","address":"淀浦河东路225号"}]