[{"poiid":"B2094757D06FA3F9449A","title":"金橘新苑","lon":"121.52583","lat":"31.151133","category":"47","category_name":"住宅区","address":"上海尚博路799弄"},{"poiid":"B2094654DB64A1FA469C","title":"杉林新月","lon":"121.53147","lat":"31.14319","category":"47","category_name":"住宅区","address":"环林东路799弄1-131号"},{"poiid":"B2094757D16CA1FF4098","title":"吉亨面馆","lon":"121.53361773","lat":"31.150677606","category":"68","category_name":"快餐厅","address":"浦东新区御桥路266号(近西泰林路)"},{"poiid":"B2094655D265A0F4459C","title":"未来域城","lon":"121.53676","lat":"31.147446","category":"47","category_name":"住宅区","address":"上海市浦东新区御桥路288号"},{"poiid":"B2094757D06AA2FA419D","title":"美林别墅","lon":"121.535","lat":"31.1525","category":"252","category_name":"楼宇机构","address":"上海浦东新区三林路"},{"poiid":"B2094757D068A4F8439C","title":"明丰花园","lon":"121.53193","lat":"31.1502","category":"47","category_name":"住宅区","address":"上海市浦东新区杨高南路5055弄(三林路口)"},{"poiid":"B2094757D06FA0FF489F","title":"第一食品商店(三林店)","lon":"121.52633213","lat":"31.143686085","category":"260","category_name":"其他","address":"浦东新区永泰路1138弄三林城市广场1楼(近东明路)"},{"poiid":"B2094654DB6DA7FD469B","title":"三林安居苑","lon":"121.5257","lat":"31.146095","category":"47","category_name":"住宅区","address":"三林路1662弄1-174号"},{"poiid":"B2094757D06FA4F8489A","title":"三林城市商业广场","lon":"121.53193","lat":"31.143952","category":"500","category_name":"未知分类","address":"浦东新区永泰路1138弄"},{"poiid":"B2094654DB64A1FA4592","title":"锦江之星(三林店)","lon":"121.53218","lat":"31.14827","category":"216","category_name":"经济型连锁酒店","address":"上海浦东新区杨高南路5139号(近三林路)"},{"poiid":"B2094757D06AA2F4449B","title":"金禾新苑","lon":"121.52824","lat":"31.149494","category":"47","category_name":"住宅区","address":"浦东新区环林东路271弄"},{"poiid":"B2094654DB64A1FA499E","title":"樱桃苑","lon":"121.52344","lat":"31.147839","category":"47","category_name":"住宅区","address":"上海市浦东新区环林东路270弄"},{"poiid":"B2094757D16CA1F8409F","title":"东三林塘精菜坊","lon":"121.531907","lat":"31.148956","category":"76","category_name":"上海菜","address":"上海浦东新区杨高南路5139号锦江之星酒店1楼(近三林路)"},{"poiid":"B2094757D068A3FE459E","title":"金地湾流域","lon":"121.529009","lat":"31.155908","category":"47","category_name":"住宅区","address":"浦东新区尚博路518弄(近东明路)"},{"poiid":"B2094757D165A1FE449C","title":"中环杨高路上匝道","lon":"121.530991738","lat":"31.1550446995","category":"500","category_name":"未知分类","address":"上海杨高路上匝道"},{"poiid":"B2094757D06AA0FB4898","title":"东明社区卫生服务中心","lon":"121.52888","lat":"31.14536","category":"162","category_name":"医院","address":"上海浦东新区环林东路555号(近永泰路)"},{"poiid":"B2094655D26DA6FC489C","title":"日月豪庭","lon":"121.53321","lat":"31.148512","category":"47","category_name":"住宅区","address":"杨高南路5135弄1-79号"},{"poiid":"B2094655D36DA0F8489A","title":"杨高南路三林路","lon":"121.53018","lat":"31.14862","category":"38","category_name":"公交车站","address":""},{"poiid":"B2094654DB6DA0F4439D","title":"好德No.397","lon":"121.53287","lat":"31.14961","category":"117","category_name":"便民商店/便利店","address":"御桥路89"},{"poiid":"B2094654DB6DA0F44299","title":"克丽缇娜国际护肤中心御桥店","lon":"121.53243","lat":"31.14875","category":"148","category_name":"美容美发店","address":"浦东新区御桥路76号(近杨高南路)"},{"poiid":"B2094757D16BA3FD4793","title":"一碗汤特色湘菜馆","lon":"121.53562164","lat":"31.14968872","category":"77","category_name":"湖南菜","address":"浦东新区御桥路280号(御桥路西泰林路)"},{"poiid":"B2094757D06BA0F8429F","title":"盛源公寓","lon":"121.52785","lat":"31.14435","category":"252","category_name":"楼宇机构","address":"上海永泰路1299弄"},{"poiid":"B2094757D065A7FA459C","title":"日月豪廷","lon":"121.533208","lat":"31.148512","category":"47","category_name":"住宅区","address":"上海杨高南路5135弄御桥路"},{"poiid":"B2094757D068ABFB4092","title":"84/572/780/795/1003路永泰路东明路(三林城)终点站","lon":"121.5282174","lat":"31.1433501","category":"38","category_name":"公交车站","address":"上海市浦东新区永泰路1300号"},{"poiid":"B2094757D66CA5FE499D","title":"狗友堂","lon":"121.53046573","lat":"31.149987925","category":"500","category_name":"未知分类","address":"上海御桥路136号"},{"poiid":"B2094654DB6DA7FD4592","title":"美林会所","lon":"121.52791","lat":"31.14738","category":"248","category_name":"生活娱乐","address":"环林东路491弄108号"},{"poiid":"B2094757D065AAFE439C","title":"再次祈福","lon":"121.530644738","lat":"31.1496795855","category":"500","category_name":"未知分类","address":"上海让不好的记忆都散去 祝福所有的人都安好 世界和平"},{"poiid":"B2094757D165A5FB499E","title":"三林城","lon":"121.528491","lat":"31.150356","category":"500","category_name":"未知分类","address":"上海市浦东新区永泰路环林西路口"},{"poiid":"B2094757D06BA5FF499F","title":"上南中学南校区羽毛球馆","lon":"121.534459","lat":"31.14587","category":"253","category_name":"校园生活","address":"浦东新区永泰路1655号(近杨高南路)"},{"poiid":"B2094655D26DAAFA499C","title":"上海市浦东新区未来之星幼儿园","lon":"121.53501","lat":"31.1489","category":"57","category_name":"幼儿园","address":"浦东新区西泰林路375号(近御桥路)"},{"poiid":"B2094757D66CA4F8409A","title":"创智空间","lon":"121.532331938","lat":"31.1503910006","category":"500","category_name":"未知分类","address":"上海金科路2966号"},{"poiid":"B2094757D66CA2F84192","title":"未来域健身俱乐部","lon":"121.53423303","lat":"31.15083671","category":"220","category_name":"运动场所","address":"上海御桥路288弄"},{"poiid":"B2094757D064ABFA4493","title":"凌云酒家(尚博路店)","lon":"121.52461","lat":"31.14945","category":"76","category_name":"上海菜","address":"浦东新区尚博路650弄20号(近金禾新苑)"},{"poiid":"B2094654DB64A1FA459B","title":"盛世天地(盛苑路)","lon":"121.52902","lat":"31.15726","category":"47","category_name":"住宅区","address":"盛苑路800弄"},{"poiid":"B2094757D16DA4FB489E","title":"780终点站","lon":"121.53038661","lat":"31.148568443","category":"500","category_name":"未知分类","address":"上海永泰路公交枢纽站"},{"poiid":"B2094757D16CA7FD409E","title":"博园","lon":"121.5340976","lat":"31.151051724","category":"500","category_name":"未知分类","address":"上海御桥路269弄91号"},{"poiid":"B2094757D06AA2F8409A","title":"安居苑","lon":"121.53406939617","lat":"31.153527724355","category":"500","category_name":"未知分类","address":"上海三林路1662弄"},{"poiid":"B2094757D06FA6FA499B","title":"易买得(三林店)","lon":"121.53618","lat":"31.15466","category":"118","category_name":"超级市场","address":"上海浦东新区浦三路3058号(近御桥路)"},{"poiid":"B2094753D26DA0FC4598","title":"上海家宴","lon":"121.529694","lat":"31.146857","category":"247","category_name":"餐饮美食","address":"上海市 浦东新区永泰路1759号"},{"poiid":"B2094655D268A2FF439C","title":"博园(明丰花园东)","lon":"121.53457","lat":"31.15068","category":"47","category_name":"住宅区","address":""},{"poiid":"B2094757D06BA0F44898","title":"四海游龙永泰路店","lon":"121.52614569","lat":"31.143845504","category":"68","category_name":"快餐厅","address":"浦东新区永泰路1138弄三林城市广场1楼(近东明路)"},{"poiid":"B2094757D064A4FF4792","title":"仕亮汤馆","lon":"121.52724795","lat":"31.143664744","category":"76","category_name":"上海菜","address":"浦东新区永泰路1138弄城市生活广场2楼(近苏宁电器)"},{"poiid":"B2094757D069A2F84893","title":"金桂苑浦东","lon":"121.52900400624","lat":"31.145749950456","category":"47","category_name":"住宅区","address":"上海环林西路618弄"},{"poiid":"B2094750D364A0FF4392","title":"上海新华都","lon":"121.53710699471","lat":"31.152440671723","category":"119","category_name":"商场","address":"浦东新区浦三路3058号易买得内(近西泰林路)"},{"poiid":"B2094655D26DA0FA469E","title":"明丰花园(西门)","lon":"121.53067","lat":"31.14982","category":"656","category_name":"大门","address":"杨高南路5055弄1-65号"},{"poiid":"B2094655D26BA4FB4592","title":"好又多购物广场","lon":"121.52656","lat":"31.148","category":"118","category_name":"超级市场","address":"三林路1687"},{"poiid":"B2094654DB6DA7FD4298","title":"紫华中意幼儿园","lon":"121.52635","lat":"31.14952","category":"57","category_name":"幼儿园","address":"浦东新区环林东路271弄41号"},{"poiid":"B2094655D36CA0F44693","title":"环林东路永泰路","lon":"121.5286","lat":"31.14568","category":"38","category_name":"公交车站","address":""},{"poiid":"B2094757D16AA2FE449E","title":"同福易家丽国际石材城","lon":"121.5354685","lat":"31.14758154","category":"46","category_name":"楼宇","address":"上海大叶公路6818号"},{"poiid":"B2094655D264A2FF4299","title":"上海乔家栅小吃世界名店坊","lon":"121.53705","lat":"31.14585","category":"68","category_name":"快餐厅","address":"浦东新区三林镇永泰路1755-1757号"},{"poiid":"B2094757D06FA3F9449A","title":"金橘新苑","lon":"121.52583","lat":"31.151133","category":"47","category_name":"住宅区","address":"上海尚博路799弄"},{"poiid":"B2094654DB64A1FA469C","title":"杉林新月","lon":"121.53147","lat":"31.14319","category":"47","category_name":"住宅区","address":"环林东路799弄1-131号"},{"poiid":"B2094757D16CA1FF4098","title":"吉亨面馆","lon":"121.53361773","lat":"31.150677606","category":"68","category_name":"快餐厅","address":"浦东新区御桥路266号(近西泰林路)"},{"poiid":"B2094655D265A0F4459C","title":"未来域城","lon":"121.53676","lat":"31.147446","category":"47","category_name":"住宅区","address":"上海市浦东新区御桥路288号"},{"poiid":"B2094757D06AA2FA419D","title":"美林别墅","lon":"121.535","lat":"31.1525","category":"252","category_name":"楼宇机构","address":"上海浦东新区三林路"},{"poiid":"B2094757D068A4F8439C","title":"明丰花园","lon":"121.53193","lat":"31.1502","category":"47","category_name":"住宅区","address":"上海市浦东新区杨高南路5055弄(三林路口)"},{"poiid":"B2094757D06FA0FF489F","title":"第一食品商店(三林店)","lon":"121.52633213","lat":"31.143686085","category":"260","category_name":"其他","address":"浦东新区永泰路1138弄三林城市广场1楼(近东明路)"},{"poiid":"B2094654DB6DA7FD469B","title":"三林安居苑","lon":"121.5257","lat":"31.146095","category":"47","category_name":"住宅区","address":"三林路1662弄1-174号"},{"poiid":"B2094757D06FA4F8489A","title":"三林城市商业广场","lon":"121.53193","lat":"31.143952","category":"500","category_name":"未知分类","address":"浦东新区永泰路1138弄"},{"poiid":"B2094654DB64A1FA4592","title":"锦江之星(三林店)","lon":"121.53218","lat":"31.14827","category":"216","category_name":"经济型连锁酒店","address":"上海浦东新区杨高南路5139号(近三林路)"},{"poiid":"B2094757D06AA2F4449B","title":"金禾新苑","lon":"121.52824","lat":"31.149494","category":"47","category_name":"住宅区","address":"浦东新区环林东路271弄"},{"poiid":"B2094654DB64A1FA499E","title":"樱桃苑","lon":"121.52344","lat":"31.147839","category":"47","category_name":"住宅区","address":"上海市浦东新区环林东路270弄"},{"poiid":"B2094757D16CA1F8409F","title":"东三林塘精菜坊","lon":"121.531907","lat":"31.148956","category":"76","category_name":"上海菜","address":"上海浦东新区杨高南路5139号锦江之星酒店1楼(近三林路)"},{"poiid":"B2094757D068A3FE459E","title":"金地湾流域","lon":"121.529009","lat":"31.155908","category":"47","category_name":"住宅区","address":"浦东新区尚博路518弄(近东明路)"},{"poiid":"B2094757D165A1FE449C","title":"中环杨高路上匝道","lon":"121.530991738","lat":"31.1550446995","category":"500","category_name":"未知分类","address":"上海杨高路上匝道"},{"poiid":"B2094757D06AA0FB4898","title":"东明社区卫生服务中心","lon":"121.52888","lat":"31.14536","category":"162","category_name":"医院","address":"上海浦东新区环林东路555号(近永泰路)"},{"poiid":"B2094655D26DA6FC489C","title":"日月豪庭","lon":"121.53321","lat":"31.148512","category":"47","category_name":"住宅区","address":"杨高南路5135弄1-79号"},{"poiid":"B2094655D36DA0F8489A","title":"杨高南路三林路","lon":"121.53018","lat":"31.14862","category":"38","category_name":"公交车站","address":""},{"poiid":"B2094654DB6DA0F4439D","title":"好德No.397","lon":"121.53287","lat":"31.14961","category":"117","category_name":"便民商店/便利店","address":"御桥路89"},{"poiid":"B2094654DB6DA0F44299","title":"克丽缇娜国际护肤中心御桥店","lon":"121.53243","lat":"31.14875","category":"148","category_name":"美容美发店","address":"浦东新区御桥路76号(近杨高南路)"},{"poiid":"B2094757D16BA3FD4793","title":"一碗汤特色湘菜馆","lon":"121.53562164","lat":"31.14968872","category":"77","category_name":"湖南菜","address":"浦东新区御桥路280号(御桥路西泰林路)"},{"poiid":"B2094757D06BA0F8429F","title":"盛源公寓","lon":"121.52785","lat":"31.14435","category":"252","category_name":"楼宇机构","address":"上海永泰路1299弄"},{"poiid":"B2094757D065A7FA459C","title":"日月豪廷","lon":"121.533208","lat":"31.148512","category":"47","category_name":"住宅区","address":"上海杨高南路5135弄御桥路"},{"poiid":"B2094757D068ABFB4092","title":"84/572/780/795/1003路永泰路东明路(三林城)终点站","lon":"121.5282174","lat":"31.1433501","category":"38","category_name":"公交车站","address":"上海市浦东新区永泰路1300号"},{"poiid":"B2094757D66CA5FE499D","title":"狗友堂","lon":"121.53046573","lat":"31.149987925","category":"500","category_name":"未知分类","address":"上海御桥路136号"},{"poiid":"B2094654DB6DA7FD4592","title":"美林会所","lon":"121.52791","lat":"31.14738","category":"248","category_name":"生活娱乐","address":"环林东路491弄108号"},{"poiid":"B2094757D065AAFE439C","title":"再次祈福","lon":"121.530644738","lat":"31.1496795855","category":"500","category_name":"未知分类","address":"上海让不好的记忆都散去 祝福所有的人都安好 世界和平"},{"poiid":"B2094757D165A5FB499E","title":"三林城","lon":"121.528491","lat":"31.150356","category":"500","category_name":"未知分类","address":"上海市浦东新区永泰路环林西路口"},{"poiid":"B2094757D06BA5FF499F","title":"上南中学南校区羽毛球馆","lon":"121.534459","lat":"31.14587","category":"253","category_name":"校园生活","address":"浦东新区永泰路1655号(近杨高南路)"},{"poiid":"B2094655D26DAAFA499C","title":"上海市浦东新区未来之星幼儿园","lon":"121.53501","lat":"31.1489","category":"57","category_name":"幼儿园","address":"浦东新区西泰林路375号(近御桥路)"},{"poiid":"B2094757D66CA4F8409A","title":"创智空间","lon":"121.532331938","lat":"31.1503910006","category":"500","category_name":"未知分类","address":"上海金科路2966号"},{"poiid":"B2094757D66CA2F84192","title":"未来域健身俱乐部","lon":"121.53423303","lat":"31.15083671","category":"220","category_name":"运动场所","address":"上海御桥路288弄"},{"poiid":"B2094757D064ABFA4493","title":"凌云酒家(尚博路店)","lon":"121.52461","lat":"31.14945","category":"76","category_name":"上海菜","address":"浦东新区尚博路650弄20号(近金禾新苑)"},{"poiid":"B2094654DB64A1FA459B","title":"盛世天地(盛苑路)","lon":"121.52902","lat":"31.15726","category":"47","category_name":"住宅区","address":"盛苑路800弄"},{"poiid":"B2094757D16DA4FB489E","title":"780终点站","lon":"121.53038661","lat":"31.148568443","category":"500","category_name":"未知分类","address":"上海永泰路公交枢纽站"},{"poiid":"B2094757D16CA7FD409E","title":"博园","lon":"121.5340976","lat":"31.151051724","category":"500","category_name":"未知分类","address":"上海御桥路269弄91号"},{"poiid":"B2094757D06AA2F8409A","title":"安居苑","lon":"121.53406939617","lat":"31.153527724355","category":"500","category_name":"未知分类","address":"上海三林路1662弄"},{"poiid":"B2094757D06FA6FA499B","title":"易买得(三林店)","lon":"121.53618","lat":"31.15466","category":"118","category_name":"超级市场","address":"上海浦东新区浦三路3058号(近御桥路)"},{"poiid":"B2094753D26DA0FC4598","title":"上海家宴","lon":"121.529694","lat":"31.146857","category":"247","category_name":"餐饮美食","address":"上海市 浦东新区永泰路1759号"},{"poiid":"B2094655D268A2FF439C","title":"博园(明丰花园东)","lon":"121.53457","lat":"31.15068","category":"47","category_name":"住宅区","address":""},{"poiid":"B2094757D06BA0F44898","title":"四海游龙永泰路店","lon":"121.52614569","lat":"31.143845504","category":"68","category_name":"快餐厅","address":"浦东新区永泰路1138弄三林城市广场1楼(近东明路)"},{"poiid":"B2094757D064A4FF4792","title":"仕亮汤馆","lon":"121.52724795","lat":"31.143664744","category":"76","category_name":"上海菜","address":"浦东新区永泰路1138弄城市生活广场2楼(近苏宁电器)"},{"poiid":"B2094757D069A2F84893","title":"金桂苑浦东","lon":"121.52900400624","lat":"31.145749950456","category":"47","category_name":"住宅区","address":"上海环林西路618弄"},{"poiid":"B2094750D364A0FF4392","title":"上海新华都","lon":"121.53710699471","lat":"31.152440671723","category":"119","category_name":"商场","address":"浦东新区浦三路3058号易买得内(近西泰林路)"},{"poiid":"B2094655D26DA0FA469E","title":"明丰花园(西门)","lon":"121.53067","lat":"31.14982","category":"656","category_name":"大门","address":"杨高南路5055弄1-65号"},{"poiid":"B2094655D26BA4FB4592","title":"好又多购物广场","lon":"121.52656","lat":"31.148","category":"118","category_name":"超级市场","address":"三林路1687"},{"poiid":"B2094654DB6DA7FD4298","title":"紫华中意幼儿园","lon":"121.52635","lat":"31.14952","category":"57","category_name":"幼儿园","address":"浦东新区环林东路271弄41号"},{"poiid":"B2094655D36CA0F44693","title":"环林东路永泰路","lon":"121.5286","lat":"31.14568","category":"38","category_name":"公交车站","address":""},{"poiid":"B2094757D16AA2FE449E","title":"同福易家丽国际石材城","lon":"121.5354685","lat":"31.14758154","category":"46","category_name":"楼宇","address":"上海大叶公路6818号"},{"poiid":"B2094655D264A2FF4299","title":"上海乔家栅小吃世界名店坊","lon":"121.53705","lat":"31.14585","category":"68","category_name":"快餐厅","address":"浦东新区三林镇永泰路1755-1757号"},{"poiid":"B2094757D06FA3F9449A","title":"金橘新苑","lon":"121.52583","lat":"31.151133","category":"47","category_name":"住宅区","address":"上海尚博路799弄"},{"poiid":"B2094654DB64A1FA469C","title":"杉林新月","lon":"121.53147","lat":"31.14319","category":"47","category_name":"住宅区","address":"环林东路799弄1-131号"},{"poiid":"B2094757D16CA1FF4098","title":"吉亨面馆","lon":"121.53361773","lat":"31.150677606","category":"68","category_name":"快餐厅","address":"浦东新区御桥路266号(近西泰林路)"},{"poiid":"B2094655D265A0F4459C","title":"未来域城","lon":"121.53676","lat":"31.147446","category":"47","category_name":"住宅区","address":"上海市浦东新区御桥路288号"},{"poiid":"B2094757D06AA2FA419D","title":"美林别墅","lon":"121.535","lat":"31.1525","category":"252","category_name":"楼宇机构","address":"上海浦东新区三林路"},{"poiid":"B2094757D068A4F8439C","title":"明丰花园","lon":"121.53193","lat":"31.1502","category":"47","category_name":"住宅区","address":"上海市浦东新区杨高南路5055弄(三林路口)"},{"poiid":"B2094757D06FA0FF489F","title":"第一食品商店(三林店)","lon":"121.52633213","lat":"31.143686085","category":"260","category_name":"其他","address":"浦东新区永泰路1138弄三林城市广场1楼(近东明路)"},{"poiid":"B2094654DB6DA7FD469B","title":"三林安居苑","lon":"121.5257","lat":"31.146095","category":"47","category_name":"住宅区","address":"三林路1662弄1-174号"},{"poiid":"B2094757D06FA4F8489A","title":"三林城市商业广场","lon":"121.53193","lat":"31.143952","category":"500","category_name":"未知分类","address":"浦东新区永泰路1138弄"},{"poiid":"B2094654DB64A1FA4592","title":"锦江之星(三林店)","lon":"121.53218","lat":"31.14827","category":"216","category_name":"经济型连锁酒店","address":"上海浦东新区杨高南路5139号(近三林路)"},{"poiid":"B2094757D06AA2F4449B","title":"金禾新苑","lon":"121.52824","lat":"31.149494","category":"47","category_name":"住宅区","address":"浦东新区环林东路271弄"},{"poiid":"B2094654DB64A1FA499E","title":"樱桃苑","lon":"121.52344","lat":"31.147839","category":"47","category_name":"住宅区","address":"上海市浦东新区环林东路270弄"},{"poiid":"B2094757D16CA1F8409F","title":"东三林塘精菜坊","lon":"121.531907","lat":"31.148956","category":"76","category_name":"上海菜","address":"上海浦东新区杨高南路5139号锦江之星酒店1楼(近三林路)"},{"poiid":"B2094757D068A3FE459E","title":"金地湾流域","lon":"121.529009","lat":"31.155908","category":"47","category_name":"住宅区","address":"浦东新区尚博路518弄(近东明路)"},{"poiid":"B2094757D165A1FE449C","title":"中环杨高路上匝道","lon":"121.530991738","lat":"31.1550446995","category":"500","category_name":"未知分类","address":"上海杨高路上匝道"},{"poiid":"B2094757D06AA0FB4898","title":"东明社区卫生服务中心","lon":"121.52888","lat":"31.14536","category":"162","category_name":"医院","address":"上海浦东新区环林东路555号(近永泰路)"},{"poiid":"B2094655D26DA6FC489C","title":"日月豪庭","lon":"121.53321","lat":"31.148512","category":"47","category_name":"住宅区","address":"杨高南路5135弄1-79号"},{"poiid":"B2094655D36DA0F8489A","title":"杨高南路三林路","lon":"121.53018","lat":"31.14862","category":"38","category_name":"公交车站","address":""},{"poiid":"B2094654DB6DA0F4439D","title":"好德No.397","lon":"121.53287","lat":"31.14961","category":"117","category_name":"便民商店/便利店","address":"御桥路89"},{"poiid":"B2094654DB6DA0F44299","title":"克丽缇娜国际护肤中心御桥店","lon":"121.53243","lat":"31.14875","category":"148","category_name":"美容美发店","address":"浦东新区御桥路76号(近杨高南路)"},{"poiid":"B2094757D16BA3FD4793","title":"一碗汤特色湘菜馆","lon":"121.53562164","lat":"31.14968872","category":"77","category_name":"湖南菜","address":"浦东新区御桥路280号(御桥路西泰林路)"},{"poiid":"B2094757D06BA0F8429F","title":"盛源公寓","lon":"121.52785","lat":"31.14435","category":"252","category_name":"楼宇机构","address":"上海永泰路1299弄"},{"poiid":"B2094757D065A7FA459C","title":"日月豪廷","lon":"121.533208","lat":"31.148512","category":"47","category_name":"住宅区","address":"上海杨高南路5135弄御桥路"},{"poiid":"B2094757D068ABFB4092","title":"84/572/780/795/1003路永泰路东明路(三林城)终点站","lon":"121.5282174","lat":"31.1433501","category":"38","category_name":"公交车站","address":"上海市浦东新区永泰路1300号"},{"poiid":"B2094757D66CA5FE499D","title":"狗友堂","lon":"121.53046573","lat":"31.149987925","category":"500","category_name":"未知分类","address":"上海御桥路136号"},{"poiid":"B2094654DB6DA7FD4592","title":"美林会所","lon":"121.52791","lat":"31.14738","category":"248","category_name":"生活娱乐","address":"环林东路491弄108号"},{"poiid":"B2094757D065AAFE439C","title":"再次祈福","lon":"121.530644738","lat":"31.1496795855","category":"500","category_name":"未知分类","address":"上海让不好的记忆都散去 祝福所有的人都安好 世界和平"},{"poiid":"B2094757D165A5FB499E","title":"三林城","lon":"121.528491","lat":"31.150356","category":"500","category_name":"未知分类","address":"上海市浦东新区永泰路环林西路口"},{"poiid":"B2094757D06BA5FF499F","title":"上南中学南校区羽毛球馆","lon":"121.534459","lat":"31.14587","category":"253","category_name":"校园生活","address":"浦东新区永泰路1655号(近杨高南路)"},{"poiid":"B2094655D26DAAFA499C","title":"上海市浦东新区未来之星幼儿园","lon":"121.53501","lat":"31.1489","category":"57","category_name":"幼儿园","address":"浦东新区西泰林路375号(近御桥路)"},{"poiid":"B2094757D66CA4F8409A","title":"创智空间","lon":"121.532331938","lat":"31.1503910006","category":"500","category_name":"未知分类","address":"上海金科路2966号"},{"poiid":"B2094757D66CA2F84192","title":"未来域健身俱乐部","lon":"121.53423303","lat":"31.15083671","category":"220","category_name":"运动场所","address":"上海御桥路288弄"},{"poiid":"B2094757D064ABFA4493","title":"凌云酒家(尚博路店)","lon":"121.52461","lat":"31.14945","category":"76","category_name":"上海菜","address":"浦东新区尚博路650弄20号(近金禾新苑)"},{"poiid":"B2094654DB64A1FA459B","title":"盛世天地(盛苑路)","lon":"121.52902","lat":"31.15726","category":"47","category_name":"住宅区","address":"盛苑路800弄"},{"poiid":"B2094757D16DA4FB489E","title":"780终点站","lon":"121.53038661","lat":"31.148568443","category":"500","category_name":"未知分类","address":"上海永泰路公交枢纽站"},{"poiid":"B2094757D16CA7FD409E","title":"博园","lon":"121.5340976","lat":"31.151051724","category":"500","category_name":"未知分类","address":"上海御桥路269弄91号"},{"poiid":"B2094757D06AA2F8409A","title":"安居苑","lon":"121.53406939617","lat":"31.153527724355","category":"500","category_name":"未知分类","address":"上海三林路1662弄"},{"poiid":"B2094757D06FA6FA499B","title":"易买得(三林店)","lon":"121.53618","lat":"31.15466","category":"118","category_name":"超级市场","address":"上海浦东新区浦三路3058号(近御桥路)"},{"poiid":"B2094753D26DA0FC4598","title":"上海家宴","lon":"121.529694","lat":"31.146857","category":"247","category_name":"餐饮美食","address":"上海市 浦东新区永泰路1759号"},{"poiid":"B2094655D268A2FF439C","title":"博园(明丰花园东)","lon":"121.53457","lat":"31.15068","category":"47","category_name":"住宅区","address":""},{"poiid":"B2094757D06BA0F44898","title":"四海游龙永泰路店","lon":"121.52614569","lat":"31.143845504","category":"68","category_name":"快餐厅","address":"浦东新区永泰路1138弄三林城市广场1楼(近东明路)"},{"poiid":"B2094757D064A4FF4792","title":"仕亮汤馆","lon":"121.52724795","lat":"31.143664744","category":"76","category_name":"上海菜","address":"浦东新区永泰路1138弄城市生活广场2楼(近苏宁电器)"},{"poiid":"B2094757D069A2F84893","title":"金桂苑浦东","lon":"121.52900400624","lat":"31.145749950456","category":"47","category_name":"住宅区","address":"上海环林西路618弄"},{"poiid":"B2094750D364A0FF4392","title":"上海新华都","lon":"121.53710699471","lat":"31.152440671723","category":"119","category_name":"商场","address":"浦东新区浦三路3058号易买得内(近西泰林路)"},{"poiid":"B2094655D26DA0FA469E","title":"明丰花园(西门)","lon":"121.53067","lat":"31.14982","category":"656","category_name":"大门","address":"杨高南路5055弄1-65号"},{"poiid":"B2094655D26BA4FB4592","title":"好又多购物广场","lon":"121.52656","lat":"31.148","category":"118","category_name":"超级市场","address":"三林路1687"},{"poiid":"B2094654DB6DA7FD4298","title":"紫华中意幼儿园","lon":"121.52635","lat":"31.14952","category":"57","category_name":"幼儿园","address":"浦东新区环林东路271弄41号"},{"poiid":"B2094655D36CA0F44693","title":"环林东路永泰路","lon":"121.5286","lat":"31.14568","category":"38","category_name":"公交车站","address":""},{"poiid":"B2094757D16AA2FE449E","title":"同福易家丽国际石材城","lon":"121.5354685","lat":"31.14758154","category":"46","category_name":"楼宇","address":"上海大叶公路6818号"},{"poiid":"B2094655D264A2FF4299","title":"上海乔家栅小吃世界名店坊","lon":"121.53705","lat":"31.14585","category":"68","category_name":"快餐厅","address":"浦东新区三林镇永泰路1755-1757号"},{"poiid":"B2094757D06FA3F9449A","title":"金橘新苑","lon":"121.52583","lat":"31.151133","category":"47","category_name":"住宅区","address":"上海尚博路799弄"},{"poiid":"B2094654DB64A1FA469C","title":"杉林新月","lon":"121.53147","lat":"31.14319","category":"47","category_name":"住宅区","address":"环林东路799弄1-131号"},{"poiid":"B2094757D16CA1FF4098","title":"吉亨面馆","lon":"121.53361773","lat":"31.150677606","category":"68","category_name":"快餐厅","address":"浦东新区御桥路266号(近西泰林路)"},{"poiid":"B2094655D265A0F4459C","title":"未来域城","lon":"121.53676","lat":"31.147446","category":"47","category_name":"住宅区","address":"上海市浦东新区御桥路288号"},{"poiid":"B2094757D06AA2FA419D","title":"美林别墅","lon":"121.535","lat":"31.1525","category":"252","category_name":"楼宇机构","address":"上海浦东新区三林路"},{"poiid":"B2094757D068A4F8439C","title":"明丰花园","lon":"121.53193","lat":"31.1502","category":"47","category_name":"住宅区","address":"上海市浦东新区杨高南路5055弄(三林路口)"},{"poiid":"B2094757D06FA0FF489F","title":"第一食品商店(三林店)","lon":"121.52633213","lat":"31.143686085","category":"260","category_name":"其他","address":"浦东新区永泰路1138弄三林城市广场1楼(近东明路)"},{"poiid":"B2094654DB6DA7FD469B","title":"三林安居苑","lon":"121.5257","lat":"31.146095","category":"47","category_name":"住宅区","address":"三林路1662弄1-174号"},{"poiid":"B2094757D06FA4F8489A","title":"三林城市商业广场","lon":"121.53193","lat":"31.143952","category":"500","category_name":"未知分类","address":"浦东新区永泰路1138弄"},{"poiid":"B2094654DB64A1FA4592","title":"锦江之星(三林店)","lon":"121.53218","lat":"31.14827","category":"216","category_name":"经济型连锁酒店","address":"上海浦东新区杨高南路5139号(近三林路)"},{"poiid":"B2094757D06AA2F4449B","title":"金禾新苑","lon":"121.52824","lat":"31.149494","category":"47","category_name":"住宅区","address":"浦东新区环林东路271弄"},{"poiid":"B2094654DB64A1FA499E","title":"樱桃苑","lon":"121.52344","lat":"31.147839","category":"47","category_name":"住宅区","address":"上海市浦东新区环林东路270弄"},{"poiid":"B2094757D16CA1F8409F","title":"东三林塘精菜坊","lon":"121.531907","lat":"31.148956","category":"76","category_name":"上海菜","address":"上海浦东新区杨高南路5139号锦江之星酒店1楼(近三林路)"},{"poiid":"B2094757D068A3FE459E","title":"金地湾流域","lon":"121.529009","lat":"31.155908","category":"47","category_name":"住宅区","address":"浦东新区尚博路518弄(近东明路)"},{"poiid":"B2094757D165A1FE449C","title":"中环杨高路上匝道","lon":"121.530991738","lat":"31.1550446995","category":"500","category_name":"未知分类","address":"上海杨高路上匝道"},{"poiid":"B2094757D06AA0FB4898","title":"东明社区卫生服务中心","lon":"121.52888","lat":"31.14536","category":"162","category_name":"医院","address":"上海浦东新区环林东路555号(近永泰路)"},{"poiid":"B2094655D26DA6FC489C","title":"日月豪庭","lon":"121.53321","lat":"31.148512","category":"47","category_name":"住宅区","address":"杨高南路5135弄1-79号"},{"poiid":"B2094655D36DA0F8489A","title":"杨高南路三林路","lon":"121.53018","lat":"31.14862","category":"38","category_name":"公交车站","address":""},{"poiid":"B2094654DB6DA0F4439D","title":"好德No.397","lon":"121.53287","lat":"31.14961","category":"117","category_name":"便民商店/便利店","address":"御桥路89"},{"poiid":"B2094654DB6DA0F44299","title":"克丽缇娜国际护肤中心御桥店","lon":"121.53243","lat":"31.14875","category":"148","category_name":"美容美发店","address":"浦东新区御桥路76号(近杨高南路)"},{"poiid":"B2094757D16BA3FD4793","title":"一碗汤特色湘菜馆","lon":"121.53562164","lat":"31.14968872","category":"77","category_name":"湖南菜","address":"浦东新区御桥路280号(御桥路西泰林路)"},{"poiid":"B2094757D06BA0F8429F","title":"盛源公寓","lon":"121.52785","lat":"31.14435","category":"252","category_name":"楼宇机构","address":"上海永泰路1299弄"},{"poiid":"B2094757D065A7FA459C","title":"日月豪廷","lon":"121.533208","lat":"31.148512","category":"47","category_name":"住宅区","address":"上海杨高南路5135弄御桥路"},{"poiid":"B2094757D068ABFB4092","title":"84/572/780/795/1003路永泰路东明路(三林城)终点站","lon":"121.5282174","lat":"31.1433501","category":"38","category_name":"公交车站","address":"上海市浦东新区永泰路1300号"},{"poiid":"B2094757D66CA5FE499D","title":"狗友堂","lon":"121.53046573","lat":"31.149987925","category":"500","category_name":"未知分类","address":"上海御桥路136号"},{"poiid":"B2094654DB6DA7FD4592","title":"美林会所","lon":"121.52791","lat":"31.14738","category":"248","category_name":"生活娱乐","address":"环林东路491弄108号"},{"poiid":"B2094757D065AAFE439C","title":"再次祈福","lon":"121.530644738","lat":"31.1496795855","category":"500","category_name":"未知分类","address":"上海让不好的记忆都散去 祝福所有的人都安好 世界和平"},{"poiid":"B2094757D165A5FB499E","title":"三林城","lon":"121.528491","lat":"31.150356","category":"500","category_name":"未知分类","address":"上海市浦东新区永泰路环林西路口"},{"poiid":"B2094757D06BA5FF499F","title":"上南中学南校区羽毛球馆","lon":"121.534459","lat":"31.14587","category":"253","category_name":"校园生活","address":"浦东新区永泰路1655号(近杨高南路)"},{"poiid":"B2094655D26DAAFA499C","title":"上海市浦东新区未来之星幼儿园","lon":"121.53501","lat":"31.1489","category":"57","category_name":"幼儿园","address":"浦东新区西泰林路375号(近御桥路)"},{"poiid":"B2094757D66CA4F8409A","title":"创智空间","lon":"121.532331938","lat":"31.1503910006","category":"500","category_name":"未知分类","address":"上海金科路2966号"},{"poiid":"B2094757D66CA2F84192","title":"未来域健身俱乐部","lon":"121.53423303","lat":"31.15083671","category":"220","category_name":"运动场所","address":"上海御桥路288弄"},{"poiid":"B2094757D064ABFA4493","title":"凌云酒家(尚博路店)","lon":"121.52461","lat":"31.14945","category":"76","category_name":"上海菜","address":"浦东新区尚博路650弄20号(近金禾新苑)"},{"poiid":"B2094654DB64A1FA459B","title":"盛世天地(盛苑路)","lon":"121.52902","lat":"31.15726","category":"47","category_name":"住宅区","address":"盛苑路800弄"},{"poiid":"B2094757D16DA4FB489E","title":"780终点站","lon":"121.53038661","lat":"31.148568443","category":"500","category_name":"未知分类","address":"上海永泰路公交枢纽站"},{"poiid":"B2094757D16CA7FD409E","title":"博园","lon":"121.5340976","lat":"31.151051724","category":"500","category_name":"未知分类","address":"上海御桥路269弄91号"},{"poiid":"B2094757D06AA2F8409A","title":"安居苑","lon":"121.53406939617","lat":"31.153527724355","category":"500","category_name":"未知分类","address":"上海三林路1662弄"},{"poiid":"B2094757D06FA6FA499B","title":"易买得(三林店)","lon":"121.53618","lat":"31.15466","category":"118","category_name":"超级市场","address":"上海浦东新区浦三路3058号(近御桥路)"},{"poiid":"B2094753D26DA0FC4598","title":"上海家宴","lon":"121.529694","lat":"31.146857","category":"247","category_name":"餐饮美食","address":"上海市 浦东新区永泰路1759号"},{"poiid":"B2094655D268A2FF439C","title":"博园(明丰花园东)","lon":"121.53457","lat":"31.15068","category":"47","category_name":"住宅区","address":""},{"poiid":"B2094757D06BA0F44898","title":"四海游龙永泰路店","lon":"121.52614569","lat":"31.143845504","category":"68","category_name":"快餐厅","address":"浦东新区永泰路1138弄三林城市广场1楼(近东明路)"},{"poiid":"B2094757D064A4FF4792","title":"仕亮汤馆","lon":"121.52724795","lat":"31.143664744","category":"76","category_name":"上海菜","address":"浦东新区永泰路1138弄城市生活广场2楼(近苏宁电器)"},{"poiid":"B2094757D069A2F84893","title":"金桂苑浦东","lon":"121.52900400624","lat":"31.145749950456","category":"47","category_name":"住宅区","address":"上海环林西路618弄"},{"poiid":"B2094750D364A0FF4392","title":"上海新华都","lon":"121.53710699471","lat":"31.152440671723","category":"119","category_name":"商场","address":"浦东新区浦三路3058号易买得内(近西泰林路)"},{"poiid":"B2094655D26DA0FA469E","title":"明丰花园(西门)","lon":"121.53067","lat":"31.14982","category":"656","category_name":"大门","address":"杨高南路5055弄1-65号"},{"poiid":"B2094655D26BA4FB4592","title":"好又多购物广场","lon":"121.52656","lat":"31.148","category":"118","category_name":"超级市场","address":"三林路1687"},{"poiid":"B2094654DB6DA7FD4298","title":"紫华中意幼儿园","lon":"121.52635","lat":"31.14952","category":"57","category_name":"幼儿园","address":"浦东新区环林东路271弄41号"},{"poiid":"B2094655D36CA0F44693","title":"环林东路永泰路","lon":"121.5286","lat":"31.14568","category":"38","category_name":"公交车站","address":""},{"poiid":"B2094757D16AA2FE449E","title":"同福易家丽国际石材城","lon":"121.5354685","lat":"31.14758154","category":"46","category_name":"楼宇","address":"上海大叶公路6818号"},{"poiid":"B2094655D264A2FF4299","title":"上海乔家栅小吃世界名店坊","lon":"121.53705","lat":"31.14585","category":"68","category_name":"快餐厅","address":"浦东新区三林镇永泰路1755-1757号"}]