[{"poiid":"B2094757DA6FA3F54798","title":"满记甜品(金谊广场店)","lon":"121.514410972595","lat":"31.138815432809","category":"67","category_name":"甜品店","address":"浦东新区上南路4467号金谊广场1楼"},{"poiid":"B2094757D16CABFA479E","title":"龙记香港茶餐厅(金谊广场店)","lon":"121.5128","lat":"31.14039","category":"72","category_name":"广东菜","address":"浦东新区上南路4467号金谊广场1楼"},{"poiid":"B2094750D26EA2F94992","title":"星巴克","lon":"121.512878","lat":"31.14019","category":"260","category_name":"其他","address":"浦东新区上南路4467号金谊广场1楼(近永泰路)"},{"poiid":"B2094757D16DA0F94993","title":"三林老街庙会","lon":"121.5008689","lat":"31.1396464","category":"500","category_name":"未知分类","address":"上海灵岩南路三林路"},{"poiid":"B2094757D064ABFB459A","title":"金源坊酒家","lon":"121.514134","lat":"31.139748869","category":"76","category_name":"上海菜","address":"浦东新区上南路4467号金谊广场4楼(近三林路)"},{"poiid":"B2094757D06FA1FD449E","title":"永泰花苑","lon":"121.51777","lat":"31.138294","category":"47","category_name":"住宅区","address":"上海永泰路630弄"},{"poiid":"B2094757D06FA6FE4692","title":"乐购(金谊广场)","lon":"121.51280695","lat":"31.141156467","category":"118","category_name":"超级市场","address":"浦东新区上南路4467号20号金谊广场B1楼(近永泰路)"},{"poiid":"B2094757D76DA0FF409F","title":"品悦酒店 灵岩南路店","lon":"121.5021815","lat":"31.1372262","category":"76","category_name":"上海菜","address":"浦东新区灵岩南路1399弄1号(近三林路)"},{"poiid":"B2094757D16CA5FA4092","title":"金谊河畔","lon":"121.518327","lat":"31.140542886","category":"47","category_name":"住宅区","address":"上海市浦东新区永泰路595弄"},{"poiid":"B2094757D465A3FE429F","title":"汉韵唐风","lon":"121.51348829269","lat":"31.14000921435","category":"72","category_name":"广东菜","address":"上南路4467号金谊广场4楼"},{"poiid":"B2094757D064A4FF409F","title":"盱眙倪氏龙虾(三林路店)","lon":"121.50191","lat":"31.13963","category":"68","category_name":"快餐厅","address":"浦东新区三林路517号(近灵岩南路)"},{"poiid":"B2094757D069AAFA4993","title":"上南路","lon":"121.50829911","lat":"31.146226552","category":"500","category_name":"未知分类","address":"上海上南路"},{"poiid":"B2094750D56DA6FF429C","title":"大碗鱼(金谊广场)","lon":"121.513183","lat":"31.141038","category":"71","category_name":"四川菜","address":"浦东新区上南路4467弄金谊广场49号418室(近永泰路)"},{"poiid":"B2094757D66EA4F8459B","title":"武贞烧肉","lon":"121.513863009","lat":"31.1413689048","category":"95","category_name":"日本料理","address":"浦东新区上南路4467号中房金谊广场4楼"},{"poiid":"B2094750D76DA5FD469E","title":"吉利士南洋美食餐厅","lon":"121.514","lat":"31.1394","category":"110","category_name":"其他亚洲菜","address":"浦东新区上南路4467号金谊广场4楼(近永泰路)"},{"poiid":"B2094757D468ABF54999","title":"品尚豆捞 金谊广场店","lon":"121.513829","lat":"31.138724","category":"86","category_name":"火锅店","address":"浦东新区上南路4467号金谊广场4楼(永泰路口)"},{"poiid":"B2094655D36CA2F5419C","title":"上南路外环线","lon":"121.51737","lat":"31.13247","category":"38","category_name":"公交车站","address":""},{"poiid":"B2094757D06BA0FE469A","title":"三林新村","lon":"121.511800009","lat":"31.1362487932","category":"500","category_name":"未知分类","address":"上海市浦东新区永泰路258弄"},{"poiid":"B2094757D068A2FC459D","title":"三林路","lon":"121.50924682","lat":"31.142173767","category":"500","category_name":"未知分类","address":"上海浦东新区三林路"},{"poiid":"B2094757DA6FA3F9489D","title":"董大师金牌稻香蛙(中房金谊广场店)","lon":"121.512004999999","lat":"31.1439009999997","category":"247","category_name":"餐饮美食","address":"浦东新区上南路4467号中房金谊广场4楼(近永泰路)"},{"poiid":"B2094654DB6DA0F8459E","title":"上海市三林中学","lon":"121.50445","lat":"31.14043","category":"55","category_name":"中学","address":"浦东新区三林路658号(浦东三新路三林路)"},{"poiid":"B2094757D16FA5F4499A","title":"苏菲雅摄影基地","lon":"121.5100884","lat":"31.134071745","category":"500","category_name":"未知分类","address":"上海上南路5018弄25号"},{"poiid":"B2094655D36CA2FA4692","title":"三林","lon":"121.50875","lat":"31.14565","category":"38","category_name":"公交车站","address":""},{"poiid":"B2094757D068A7FE4893","title":"老盛昌苏州汤包馆(三林店)","lon":"121.50114","lat":"31.13879","category":"68","category_name":"快餐厅","address":"浦东新区灵岩南路1166号(近三林路)"},{"poiid":"B2094757D06BA6F4469E","title":"跃达大酒店 三林路店","lon":"121.50984906981","lat":"31.142692882422","category":"76","category_name":"上海菜","address":"浦东新区三林路869号(近上南路)"},{"poiid":"B2094751D36CA0F5439D","title":"三林本帮馆","lon":"121.5017","lat":"31.13729","category":"76","category_name":"上海菜","address":"浦东新区中林街65号(近人民桥)"},{"poiid":"B2094654DB6DA0F84093","title":"旺林酒家","lon":"121.50582921752","lat":"31.141371779699","category":"76","category_name":"上海菜","address":"浦东新区三林路767号"},{"poiid":"B2094757D66EA0F5459A","title":"SOHO GYM健身馆","lon":"121.513905009","lat":"31.1402548805","category":"220","category_name":"运动场所","address":"上海金谊广场"},{"poiid":"B2094757D06BA1F5439A","title":"品悦鼎味上海菜","lon":"121.50293185","lat":"31.13361831","category":"247","category_name":"餐饮美食","address":"上海浦东灵岩南路1399弄1号"},{"poiid":"B2094655D268A0F4439F","title":"永泰大酒店","lon":"121.51181","lat":"31.1374","category":"76","category_name":"上海菜","address":"浦东新区永泰路538号(近上南路)"},{"poiid":"B2094750D665A7FB419B","title":"三林老八样","lon":"121.512","lat":"31.1375","category":"87","category_name":"特色／地方风味餐厅","address":"浦东新区三林永泰路217号(近三林新村)"},{"poiid":"B2094750D768A7F54498","title":"越味风(上南路店)","lon":"121.513","lat":"31.1398","category":"99","category_name":"泰国／越南菜品餐厅","address":"上南路4467号中房金谊广场4楼层"},{"poiid":"B2094750DA69A2FE4899","title":"新石器烤肉","lon":"121.512893","lat":"31.140678","category":"247","category_name":"餐饮美食","address":"三林上南路金谊广场"},{"poiid":"B2094757D16EA0F4489C","title":"肯德基Kfc(金谊广场店)","lon":"121.515883","lat":"31.139906872","category":"68","category_name":"快餐厅","address":"浦东新区上南路4467号20号金谊广场内(近永泰路)"},{"poiid":"B2094750D26EA6FC4498","title":"星巴克金谊店","lon":"121.514427","lat":"31.139675","category":"247","category_name":"餐饮美食","address":"上南路"},{"poiid":"B2094757D16DA0FA419D","title":"三林路三新路","lon":"121.506581","lat":"31.138418","category":"500","category_name":"未知分类","address":"上海三林路三新路"},{"poiid":"B2094454D065A6F5429C","title":"金谊华夏影城","lon":"121.513381","lat":"31.140973","category":"178","category_name":"电影院","address":"上海市浦东新区上南路4467号中房金谊生活广场"},{"poiid":"B2094654DB6DA0F8459B","title":"上海市育人中学","lon":"121.50686","lat":"31.13765","category":"55","category_name":"中学","address":"浦东新区三新路15号(三林中学南首)"},{"poiid":"B2094751D56DA2FA4193","title":"四谷姜太公","lon":"121.5131","lat":"31.1397","category":"95","category_name":"日本料理","address":"上南路4467号金谊广场2楼221号铺"},{"poiid":"B2094750DB68A2F8409C","title":"姜太公日式料理","lon":"121.512153","lat":"31.13878","category":"247","category_name":"餐饮美食","address":"金谊广场2F"},{"poiid":"B2094757D069A3F8459C","title":"海宁阿月煲(三林路店)","lon":"121.50242242","lat":"31.139621493","category":"260","category_name":"其他","address":"浦东新区三林路535号(灵岩南路口)"},{"poiid":"B2094757D16BAAFD4098","title":"蒸真好","lon":"121.51431","lat":"31.13836","category":"76","category_name":"上海菜","address":"浦东新区上南路4559号(近永泰路)"},{"poiid":"B2094655D26BA4FF439C","title":"三林新村(北门)","lon":"121.51249","lat":"31.13757","category":"47","category_name":"住宅区","address":"永泰路468弄"},{"poiid":"B2094750D664A1FA439F","title":"外婆小菜","lon":"121.501","lat":"31.1399","category":"76","category_name":"上海菜","address":"浦东新区灵岩南路1200号(近三林路)"},{"poiid":"B2094751D36CABF44093","title":"冰果师(金谊广场店)","lon":"121.51424","lat":"31.13923","category":"113","category_name":"冷饮店","address":"浦东新区上南路4523号金谊广场1楼(近永泰路)"},{"poiid":"B2094655D268A0F4439C","title":"金光菜市场","lon":"121.51139","lat":"31.13724","category":"117","category_name":"便民商店/便利店","address":""},{"poiid":"B2094757D06BABF5429E","title":"卢浦大桥(济阳路口)","lon":"121.50298","lat":"31.133287","category":"500","category_name":"未知分类","address":"上海济阳路出口"},{"poiid":"B2094751D36DA4FB449F","title":"锦香楼","lon":"121.50365","lat":"31.14033","category":"77","category_name":"湖南菜","address":"浦东新区三林路616号(近灵岩南路)"},{"poiid":"B2094757D76EA4F5429F","title":"重庆鸡公煲 永泰路店","lon":"121.51642","lat":"31.1394","category":"86","category_name":"火锅店","address":"浦东新区永泰路1155号(近东明路)"},{"poiid":"B2094654DB6DA0FF4292","title":"金光工业园区","lon":"121.51287","lat":"31.13903","category":"45","category_name":"产业园区","address":"上南路4560弄1-17号"},{"poiid":"B2094757DA6FA3F54798","title":"满记甜品(金谊广场店)","lon":"121.514410972595","lat":"31.138815432809","category":"67","category_name":"甜品店","address":"浦东新区上南路4467号金谊广场1楼"},{"poiid":"B2094757D16CABFA479E","title":"龙记香港茶餐厅(金谊广场店)","lon":"121.5128","lat":"31.14039","category":"72","category_name":"广东菜","address":"浦东新区上南路4467号金谊广场1楼"},{"poiid":"B2094750D26EA2F94992","title":"星巴克","lon":"121.512878","lat":"31.14019","category":"260","category_name":"其他","address":"浦东新区上南路4467号金谊广场1楼(近永泰路)"},{"poiid":"B2094757D16DA0F94993","title":"三林老街庙会","lon":"121.5008689","lat":"31.1396464","category":"500","category_name":"未知分类","address":"上海灵岩南路三林路"},{"poiid":"B2094757D064ABFB459A","title":"金源坊酒家","lon":"121.514134","lat":"31.139748869","category":"76","category_name":"上海菜","address":"浦东新区上南路4467号金谊广场4楼(近三林路)"},{"poiid":"B2094757D06FA1FD449E","title":"永泰花苑","lon":"121.51777","lat":"31.138294","category":"47","category_name":"住宅区","address":"上海永泰路630弄"},{"poiid":"B2094757D06FA6FE4692","title":"乐购(金谊广场)","lon":"121.51280695","lat":"31.141156467","category":"118","category_name":"超级市场","address":"浦东新区上南路4467号20号金谊广场B1楼(近永泰路)"},{"poiid":"B2094757D76DA0FF409F","title":"品悦酒店 灵岩南路店","lon":"121.5021815","lat":"31.1372262","category":"76","category_name":"上海菜","address":"浦东新区灵岩南路1399弄1号(近三林路)"},{"poiid":"B2094757D16CA5FA4092","title":"金谊河畔","lon":"121.518327","lat":"31.140542886","category":"47","category_name":"住宅区","address":"上海市浦东新区永泰路595弄"},{"poiid":"B2094757D465A3FE429F","title":"汉韵唐风","lon":"121.51348829269","lat":"31.14000921435","category":"72","category_name":"广东菜","address":"上南路4467号金谊广场4楼"},{"poiid":"B2094757D064A4FF409F","title":"盱眙倪氏龙虾(三林路店)","lon":"121.50191","lat":"31.13963","category":"68","category_name":"快餐厅","address":"浦东新区三林路517号(近灵岩南路)"},{"poiid":"B2094757D069AAFA4993","title":"上南路","lon":"121.50829911","lat":"31.146226552","category":"500","category_name":"未知分类","address":"上海上南路"},{"poiid":"B2094750D56DA6FF429C","title":"大碗鱼(金谊广场)","lon":"121.513183","lat":"31.141038","category":"71","category_name":"四川菜","address":"浦东新区上南路4467弄金谊广场49号418室(近永泰路)"},{"poiid":"B2094757D66EA4F8459B","title":"武贞烧肉","lon":"121.513863009","lat":"31.1413689048","category":"95","category_name":"日本料理","address":"浦东新区上南路4467号中房金谊广场4楼"},{"poiid":"B2094750D76DA5FD469E","title":"吉利士南洋美食餐厅","lon":"121.514","lat":"31.1394","category":"110","category_name":"其他亚洲菜","address":"浦东新区上南路4467号金谊广场4楼(近永泰路)"},{"poiid":"B2094757D468ABF54999","title":"品尚豆捞 金谊广场店","lon":"121.513829","lat":"31.138724","category":"86","category_name":"火锅店","address":"浦东新区上南路4467号金谊广场4楼(永泰路口)"},{"poiid":"B2094655D36CA2F5419C","title":"上南路外环线","lon":"121.51737","lat":"31.13247","category":"38","category_name":"公交车站","address":""},{"poiid":"B2094757D06BA0FE469A","title":"三林新村","lon":"121.511800009","lat":"31.1362487932","category":"500","category_name":"未知分类","address":"上海市浦东新区永泰路258弄"},{"poiid":"B2094757D068A2FC459D","title":"三林路","lon":"121.50924682","lat":"31.142173767","category":"500","category_name":"未知分类","address":"上海浦东新区三林路"},{"poiid":"B2094757DA6FA3F9489D","title":"董大师金牌稻香蛙(中房金谊广场店)","lon":"121.512004999999","lat":"31.1439009999997","category":"247","category_name":"餐饮美食","address":"浦东新区上南路4467号中房金谊广场4楼(近永泰路)"},{"poiid":"B2094654DB6DA0F8459E","title":"上海市三林中学","lon":"121.50445","lat":"31.14043","category":"55","category_name":"中学","address":"浦东新区三林路658号(浦东三新路三林路)"},{"poiid":"B2094757D16FA5F4499A","title":"苏菲雅摄影基地","lon":"121.5100884","lat":"31.134071745","category":"500","category_name":"未知分类","address":"上海上南路5018弄25号"},{"poiid":"B2094655D36CA2FA4692","title":"三林","lon":"121.50875","lat":"31.14565","category":"38","category_name":"公交车站","address":""},{"poiid":"B2094757D068A7FE4893","title":"老盛昌苏州汤包馆(三林店)","lon":"121.50114","lat":"31.13879","category":"68","category_name":"快餐厅","address":"浦东新区灵岩南路1166号(近三林路)"},{"poiid":"B2094757D06BA6F4469E","title":"跃达大酒店 三林路店","lon":"121.50984906981","lat":"31.142692882422","category":"76","category_name":"上海菜","address":"浦东新区三林路869号(近上南路)"},{"poiid":"B2094751D36CA0F5439D","title":"三林本帮馆","lon":"121.5017","lat":"31.13729","category":"76","category_name":"上海菜","address":"浦东新区中林街65号(近人民桥)"},{"poiid":"B2094654DB6DA0F84093","title":"旺林酒家","lon":"121.50582921752","lat":"31.141371779699","category":"76","category_name":"上海菜","address":"浦东新区三林路767号"},{"poiid":"B2094757D66EA0F5459A","title":"SOHO GYM健身馆","lon":"121.513905009","lat":"31.1402548805","category":"220","category_name":"运动场所","address":"上海金谊广场"},{"poiid":"B2094757D06BA1F5439A","title":"品悦鼎味上海菜","lon":"121.50293185","lat":"31.13361831","category":"247","category_name":"餐饮美食","address":"上海浦东灵岩南路1399弄1号"},{"poiid":"B2094655D268A0F4439F","title":"永泰大酒店","lon":"121.51181","lat":"31.1374","category":"76","category_name":"上海菜","address":"浦东新区永泰路538号(近上南路)"},{"poiid":"B2094750D665A7FB419B","title":"三林老八样","lon":"121.512","lat":"31.1375","category":"87","category_name":"特色／地方风味餐厅","address":"浦东新区三林永泰路217号(近三林新村)"},{"poiid":"B2094750D768A7F54498","title":"越味风(上南路店)","lon":"121.513","lat":"31.1398","category":"99","category_name":"泰国／越南菜品餐厅","address":"上南路4467号中房金谊广场4楼层"},{"poiid":"B2094750DA69A2FE4899","title":"新石器烤肉","lon":"121.512893","lat":"31.140678","category":"247","category_name":"餐饮美食","address":"三林上南路金谊广场"},{"poiid":"B2094757D16EA0F4489C","title":"肯德基Kfc(金谊广场店)","lon":"121.515883","lat":"31.139906872","category":"68","category_name":"快餐厅","address":"浦东新区上南路4467号20号金谊广场内(近永泰路)"},{"poiid":"B2094750D26EA6FC4498","title":"星巴克金谊店","lon":"121.514427","lat":"31.139675","category":"247","category_name":"餐饮美食","address":"上南路"},{"poiid":"B2094757D16DA0FA419D","title":"三林路三新路","lon":"121.506581","lat":"31.138418","category":"500","category_name":"未知分类","address":"上海三林路三新路"},{"poiid":"B2094454D065A6F5429C","title":"金谊华夏影城","lon":"121.513381","lat":"31.140973","category":"178","category_name":"电影院","address":"上海市浦东新区上南路4467号中房金谊生活广场"},{"poiid":"B2094654DB6DA0F8459B","title":"上海市育人中学","lon":"121.50686","lat":"31.13765","category":"55","category_name":"中学","address":"浦东新区三新路15号(三林中学南首)"},{"poiid":"B2094751D56DA2FA4193","title":"四谷姜太公","lon":"121.5131","lat":"31.1397","category":"95","category_name":"日本料理","address":"上南路4467号金谊广场2楼221号铺"},{"poiid":"B2094750DB68A2F8409C","title":"姜太公日式料理","lon":"121.512153","lat":"31.13878","category":"247","category_name":"餐饮美食","address":"金谊广场2F"},{"poiid":"B2094757D069A3F8459C","title":"海宁阿月煲(三林路店)","lon":"121.50242242","lat":"31.139621493","category":"260","category_name":"其他","address":"浦东新区三林路535号(灵岩南路口)"},{"poiid":"B2094757D16BAAFD4098","title":"蒸真好","lon":"121.51431","lat":"31.13836","category":"76","category_name":"上海菜","address":"浦东新区上南路4559号(近永泰路)"},{"poiid":"B2094655D26BA4FF439C","title":"三林新村(北门)","lon":"121.51249","lat":"31.13757","category":"47","category_name":"住宅区","address":"永泰路468弄"},{"poiid":"B2094750D664A1FA439F","title":"外婆小菜","lon":"121.501","lat":"31.1399","category":"76","category_name":"上海菜","address":"浦东新区灵岩南路1200号(近三林路)"},{"poiid":"B2094751D36CABF44093","title":"冰果师(金谊广场店)","lon":"121.51424","lat":"31.13923","category":"113","category_name":"冷饮店","address":"浦东新区上南路4523号金谊广场1楼(近永泰路)"},{"poiid":"B2094655D268A0F4439C","title":"金光菜市场","lon":"121.51139","lat":"31.13724","category":"117","category_name":"便民商店/便利店","address":""},{"poiid":"B2094757D06BABF5429E","title":"卢浦大桥(济阳路口)","lon":"121.50298","lat":"31.133287","category":"500","category_name":"未知分类","address":"上海济阳路出口"},{"poiid":"B2094751D36DA4FB449F","title":"锦香楼","lon":"121.50365","lat":"31.14033","category":"77","category_name":"湖南菜","address":"浦东新区三林路616号(近灵岩南路)"},{"poiid":"B2094757D76EA4F5429F","title":"重庆鸡公煲 永泰路店","lon":"121.51642","lat":"31.1394","category":"86","category_name":"火锅店","address":"浦东新区永泰路1155号(近东明路)"},{"poiid":"B2094654DB6DA0FF4292","title":"金光工业园区","lon":"121.51287","lat":"31.13903","category":"45","category_name":"产业园区","address":"上南路4560弄1-17号"},{"poiid":"B2094757DA6FA3F54798","title":"满记甜品(金谊广场店)","lon":"121.514410972595","lat":"31.138815432809","category":"67","category_name":"甜品店","address":"浦东新区上南路4467号金谊广场1楼"},{"poiid":"B2094757D16CABFA479E","title":"龙记香港茶餐厅(金谊广场店)","lon":"121.5128","lat":"31.14039","category":"72","category_name":"广东菜","address":"浦东新区上南路4467号金谊广场1楼"},{"poiid":"B2094750D26EA2F94992","title":"星巴克","lon":"121.512878","lat":"31.14019","category":"260","category_name":"其他","address":"浦东新区上南路4467号金谊广场1楼(近永泰路)"},{"poiid":"B2094757D16DA0F94993","title":"三林老街庙会","lon":"121.5008689","lat":"31.1396464","category":"500","category_name":"未知分类","address":"上海灵岩南路三林路"},{"poiid":"B2094757D064ABFB459A","title":"金源坊酒家","lon":"121.514134","lat":"31.139748869","category":"76","category_name":"上海菜","address":"浦东新区上南路4467号金谊广场4楼(近三林路)"},{"poiid":"B2094757D06FA1FD449E","title":"永泰花苑","lon":"121.51777","lat":"31.138294","category":"47","category_name":"住宅区","address":"上海永泰路630弄"},{"poiid":"B2094757D06FA6FE4692","title":"乐购(金谊广场)","lon":"121.51280695","lat":"31.141156467","category":"118","category_name":"超级市场","address":"浦东新区上南路4467号20号金谊广场B1楼(近永泰路)"},{"poiid":"B2094757D76DA0FF409F","title":"品悦酒店 灵岩南路店","lon":"121.5021815","lat":"31.1372262","category":"76","category_name":"上海菜","address":"浦东新区灵岩南路1399弄1号(近三林路)"},{"poiid":"B2094757D16CA5FA4092","title":"金谊河畔","lon":"121.518327","lat":"31.140542886","category":"47","category_name":"住宅区","address":"上海市浦东新区永泰路595弄"},{"poiid":"B2094757D465A3FE429F","title":"汉韵唐风","lon":"121.51348829269","lat":"31.14000921435","category":"72","category_name":"广东菜","address":"上南路4467号金谊广场4楼"},{"poiid":"B2094757D064A4FF409F","title":"盱眙倪氏龙虾(三林路店)","lon":"121.50191","lat":"31.13963","category":"68","category_name":"快餐厅","address":"浦东新区三林路517号(近灵岩南路)"},{"poiid":"B2094757D069AAFA4993","title":"上南路","lon":"121.50829911","lat":"31.146226552","category":"500","category_name":"未知分类","address":"上海上南路"},{"poiid":"B2094750D56DA6FF429C","title":"大碗鱼(金谊广场)","lon":"121.513183","lat":"31.141038","category":"71","category_name":"四川菜","address":"浦东新区上南路4467弄金谊广场49号418室(近永泰路)"},{"poiid":"B2094757D66EA4F8459B","title":"武贞烧肉","lon":"121.513863009","lat":"31.1413689048","category":"95","category_name":"日本料理","address":"浦东新区上南路4467号中房金谊广场4楼"},{"poiid":"B2094750D76DA5FD469E","title":"吉利士南洋美食餐厅","lon":"121.514","lat":"31.1394","category":"110","category_name":"其他亚洲菜","address":"浦东新区上南路4467号金谊广场4楼(近永泰路)"},{"poiid":"B2094757D468ABF54999","title":"品尚豆捞 金谊广场店","lon":"121.513829","lat":"31.138724","category":"86","category_name":"火锅店","address":"浦东新区上南路4467号金谊广场4楼(永泰路口)"},{"poiid":"B2094655D36CA2F5419C","title":"上南路外环线","lon":"121.51737","lat":"31.13247","category":"38","category_name":"公交车站","address":""},{"poiid":"B2094757D06BA0FE469A","title":"三林新村","lon":"121.511800009","lat":"31.1362487932","category":"500","category_name":"未知分类","address":"上海市浦东新区永泰路258弄"},{"poiid":"B2094757D068A2FC459D","title":"三林路","lon":"121.50924682","lat":"31.142173767","category":"500","category_name":"未知分类","address":"上海浦东新区三林路"},{"poiid":"B2094757DA6FA3F9489D","title":"董大师金牌稻香蛙(中房金谊广场店)","lon":"121.512004999999","lat":"31.1439009999997","category":"247","category_name":"餐饮美食","address":"浦东新区上南路4467号中房金谊广场4楼(近永泰路)"},{"poiid":"B2094654DB6DA0F8459E","title":"上海市三林中学","lon":"121.50445","lat":"31.14043","category":"55","category_name":"中学","address":"浦东新区三林路658号(浦东三新路三林路)"},{"poiid":"B2094757D16FA5F4499A","title":"苏菲雅摄影基地","lon":"121.5100884","lat":"31.134071745","category":"500","category_name":"未知分类","address":"上海上南路5018弄25号"},{"poiid":"B2094655D36CA2FA4692","title":"三林","lon":"121.50875","lat":"31.14565","category":"38","category_name":"公交车站","address":""},{"poiid":"B2094757D068A7FE4893","title":"老盛昌苏州汤包馆(三林店)","lon":"121.50114","lat":"31.13879","category":"68","category_name":"快餐厅","address":"浦东新区灵岩南路1166号(近三林路)"},{"poiid":"B2094757D06BA6F4469E","title":"跃达大酒店 三林路店","lon":"121.50984906981","lat":"31.142692882422","category":"76","category_name":"上海菜","address":"浦东新区三林路869号(近上南路)"},{"poiid":"B2094751D36CA0F5439D","title":"三林本帮馆","lon":"121.5017","lat":"31.13729","category":"76","category_name":"上海菜","address":"浦东新区中林街65号(近人民桥)"},{"poiid":"B2094654DB6DA0F84093","title":"旺林酒家","lon":"121.50582921752","lat":"31.141371779699","category":"76","category_name":"上海菜","address":"浦东新区三林路767号"},{"poiid":"B2094757D66EA0F5459A","title":"SOHO GYM健身馆","lon":"121.513905009","lat":"31.1402548805","category":"220","category_name":"运动场所","address":"上海金谊广场"},{"poiid":"B2094757D06BA1F5439A","title":"品悦鼎味上海菜","lon":"121.50293185","lat":"31.13361831","category":"247","category_name":"餐饮美食","address":"上海浦东灵岩南路1399弄1号"},{"poiid":"B2094655D268A0F4439F","title":"永泰大酒店","lon":"121.51181","lat":"31.1374","category":"76","category_name":"上海菜","address":"浦东新区永泰路538号(近上南路)"},{"poiid":"B2094750D665A7FB419B","title":"三林老八样","lon":"121.512","lat":"31.1375","category":"87","category_name":"特色／地方风味餐厅","address":"浦东新区三林永泰路217号(近三林新村)"},{"poiid":"B2094750D768A7F54498","title":"越味风(上南路店)","lon":"121.513","lat":"31.1398","category":"99","category_name":"泰国／越南菜品餐厅","address":"上南路4467号中房金谊广场4楼层"},{"poiid":"B2094750DA69A2FE4899","title":"新石器烤肉","lon":"121.512893","lat":"31.140678","category":"247","category_name":"餐饮美食","address":"三林上南路金谊广场"},{"poiid":"B2094757D16EA0F4489C","title":"肯德基Kfc(金谊广场店)","lon":"121.515883","lat":"31.139906872","category":"68","category_name":"快餐厅","address":"浦东新区上南路4467号20号金谊广场内(近永泰路)"},{"poiid":"B2094750D26EA6FC4498","title":"星巴克金谊店","lon":"121.514427","lat":"31.139675","category":"247","category_name":"餐饮美食","address":"上南路"},{"poiid":"B2094757D16DA0FA419D","title":"三林路三新路","lon":"121.506581","lat":"31.138418","category":"500","category_name":"未知分类","address":"上海三林路三新路"},{"poiid":"B2094454D065A6F5429C","title":"金谊华夏影城","lon":"121.513381","lat":"31.140973","category":"178","category_name":"电影院","address":"上海市浦东新区上南路4467号中房金谊生活广场"},{"poiid":"B2094654DB6DA0F8459B","title":"上海市育人中学","lon":"121.50686","lat":"31.13765","category":"55","category_name":"中学","address":"浦东新区三新路15号(三林中学南首)"},{"poiid":"B2094751D56DA2FA4193","title":"四谷姜太公","lon":"121.5131","lat":"31.1397","category":"95","category_name":"日本料理","address":"上南路4467号金谊广场2楼221号铺"},{"poiid":"B2094750DB68A2F8409C","title":"姜太公日式料理","lon":"121.512153","lat":"31.13878","category":"247","category_name":"餐饮美食","address":"金谊广场2F"},{"poiid":"B2094757D069A3F8459C","title":"海宁阿月煲(三林路店)","lon":"121.50242242","lat":"31.139621493","category":"260","category_name":"其他","address":"浦东新区三林路535号(灵岩南路口)"},{"poiid":"B2094757D16BAAFD4098","title":"蒸真好","lon":"121.51431","lat":"31.13836","category":"76","category_name":"上海菜","address":"浦东新区上南路4559号(近永泰路)"},{"poiid":"B2094655D26BA4FF439C","title":"三林新村(北门)","lon":"121.51249","lat":"31.13757","category":"47","category_name":"住宅区","address":"永泰路468弄"},{"poiid":"B2094750D664A1FA439F","title":"外婆小菜","lon":"121.501","lat":"31.1399","category":"76","category_name":"上海菜","address":"浦东新区灵岩南路1200号(近三林路)"},{"poiid":"B2094751D36CABF44093","title":"冰果师(金谊广场店)","lon":"121.51424","lat":"31.13923","category":"113","category_name":"冷饮店","address":"浦东新区上南路4523号金谊广场1楼(近永泰路)"},{"poiid":"B2094655D268A0F4439C","title":"金光菜市场","lon":"121.51139","lat":"31.13724","category":"117","category_name":"便民商店/便利店","address":""},{"poiid":"B2094757D06BABF5429E","title":"卢浦大桥(济阳路口)","lon":"121.50298","lat":"31.133287","category":"500","category_name":"未知分类","address":"上海济阳路出口"},{"poiid":"B2094751D36DA4FB449F","title":"锦香楼","lon":"121.50365","lat":"31.14033","category":"77","category_name":"湖南菜","address":"浦东新区三林路616号(近灵岩南路)"},{"poiid":"B2094757D76EA4F5429F","title":"重庆鸡公煲 永泰路店","lon":"121.51642","lat":"31.1394","category":"86","category_name":"火锅店","address":"浦东新区永泰路1155号(近东明路)"},{"poiid":"B2094654DB6DA0FF4292","title":"金光工业园区","lon":"121.51287","lat":"31.13903","category":"45","category_name":"产业园区","address":"上南路4560弄1-17号"},{"poiid":"B2094757DA6FA3F54798","title":"满记甜品(金谊广场店)","lon":"121.514410972595","lat":"31.138815432809","category":"67","category_name":"甜品店","address":"浦东新区上南路4467号金谊广场1楼"},{"poiid":"B2094757D16CABFA479E","title":"龙记香港茶餐厅(金谊广场店)","lon":"121.5128","lat":"31.14039","category":"72","category_name":"广东菜","address":"浦东新区上南路4467号金谊广场1楼"},{"poiid":"B2094750D26EA2F94992","title":"星巴克","lon":"121.512878","lat":"31.14019","category":"260","category_name":"其他","address":"浦东新区上南路4467号金谊广场1楼(近永泰路)"},{"poiid":"B2094757D16DA0F94993","title":"三林老街庙会","lon":"121.5008689","lat":"31.1396464","category":"500","category_name":"未知分类","address":"上海灵岩南路三林路"},{"poiid":"B2094757D064ABFB459A","title":"金源坊酒家","lon":"121.514134","lat":"31.139748869","category":"76","category_name":"上海菜","address":"浦东新区上南路4467号金谊广场4楼(近三林路)"},{"poiid":"B2094757D06FA1FD449E","title":"永泰花苑","lon":"121.51777","lat":"31.138294","category":"47","category_name":"住宅区","address":"上海永泰路630弄"},{"poiid":"B2094757D06FA6FE4692","title":"乐购(金谊广场)","lon":"121.51280695","lat":"31.141156467","category":"118","category_name":"超级市场","address":"浦东新区上南路4467号20号金谊广场B1楼(近永泰路)"},{"poiid":"B2094757D76DA0FF409F","title":"品悦酒店 灵岩南路店","lon":"121.5021815","lat":"31.1372262","category":"76","category_name":"上海菜","address":"浦东新区灵岩南路1399弄1号(近三林路)"},{"poiid":"B2094757D16CA5FA4092","title":"金谊河畔","lon":"121.518327","lat":"31.140542886","category":"47","category_name":"住宅区","address":"上海市浦东新区永泰路595弄"},{"poiid":"B2094757D465A3FE429F","title":"汉韵唐风","lon":"121.51348829269","lat":"31.14000921435","category":"72","category_name":"广东菜","address":"上南路4467号金谊广场4楼"},{"poiid":"B2094757D064A4FF409F","title":"盱眙倪氏龙虾(三林路店)","lon":"121.50191","lat":"31.13963","category":"68","category_name":"快餐厅","address":"浦东新区三林路517号(近灵岩南路)"},{"poiid":"B2094757D069AAFA4993","title":"上南路","lon":"121.50829911","lat":"31.146226552","category":"500","category_name":"未知分类","address":"上海上南路"},{"poiid":"B2094750D56DA6FF429C","title":"大碗鱼(金谊广场)","lon":"121.513183","lat":"31.141038","category":"71","category_name":"四川菜","address":"浦东新区上南路4467弄金谊广场49号418室(近永泰路)"},{"poiid":"B2094757D66EA4F8459B","title":"武贞烧肉","lon":"121.513863009","lat":"31.1413689048","category":"95","category_name":"日本料理","address":"浦东新区上南路4467号中房金谊广场4楼"},{"poiid":"B2094750D76DA5FD469E","title":"吉利士南洋美食餐厅","lon":"121.514","lat":"31.1394","category":"110","category_name":"其他亚洲菜","address":"浦东新区上南路4467号金谊广场4楼(近永泰路)"},{"poiid":"B2094757D468ABF54999","title":"品尚豆捞 金谊广场店","lon":"121.513829","lat":"31.138724","category":"86","category_name":"火锅店","address":"浦东新区上南路4467号金谊广场4楼(永泰路口)"},{"poiid":"B2094655D36CA2F5419C","title":"上南路外环线","lon":"121.51737","lat":"31.13247","category":"38","category_name":"公交车站","address":""},{"poiid":"B2094757D06BA0FE469A","title":"三林新村","lon":"121.511800009","lat":"31.1362487932","category":"500","category_name":"未知分类","address":"上海市浦东新区永泰路258弄"},{"poiid":"B2094757D068A2FC459D","title":"三林路","lon":"121.50924682","lat":"31.142173767","category":"500","category_name":"未知分类","address":"上海浦东新区三林路"},{"poiid":"B2094757DA6FA3F9489D","title":"董大师金牌稻香蛙(中房金谊广场店)","lon":"121.512004999999","lat":"31.1439009999997","category":"247","category_name":"餐饮美食","address":"浦东新区上南路4467号中房金谊广场4楼(近永泰路)"},{"poiid":"B2094654DB6DA0F8459E","title":"上海市三林中学","lon":"121.50445","lat":"31.14043","category":"55","category_name":"中学","address":"浦东新区三林路658号(浦东三新路三林路)"},{"poiid":"B2094757D16FA5F4499A","title":"苏菲雅摄影基地","lon":"121.5100884","lat":"31.134071745","category":"500","category_name":"未知分类","address":"上海上南路5018弄25号"},{"poiid":"B2094655D36CA2FA4692","title":"三林","lon":"121.50875","lat":"31.14565","category":"38","category_name":"公交车站","address":""},{"poiid":"B2094757D068A7FE4893","title":"老盛昌苏州汤包馆(三林店)","lon":"121.50114","lat":"31.13879","category":"68","category_name":"快餐厅","address":"浦东新区灵岩南路1166号(近三林路)"},{"poiid":"B2094757D06BA6F4469E","title":"跃达大酒店 三林路店","lon":"121.50984906981","lat":"31.142692882422","category":"76","category_name":"上海菜","address":"浦东新区三林路869号(近上南路)"},{"poiid":"B2094751D36CA0F5439D","title":"三林本帮馆","lon":"121.5017","lat":"31.13729","category":"76","category_name":"上海菜","address":"浦东新区中林街65号(近人民桥)"},{"poiid":"B2094654DB6DA0F84093","title":"旺林酒家","lon":"121.50582921752","lat":"31.141371779699","category":"76","category_name":"上海菜","address":"浦东新区三林路767号"},{"poiid":"B2094757D66EA0F5459A","title":"SOHO GYM健身馆","lon":"121.513905009","lat":"31.1402548805","category":"220","category_name":"运动场所","address":"上海金谊广场"},{"poiid":"B2094757D06BA1F5439A","title":"品悦鼎味上海菜","lon":"121.50293185","lat":"31.13361831","category":"247","category_name":"餐饮美食","address":"上海浦东灵岩南路1399弄1号"},{"poiid":"B2094655D268A0F4439F","title":"永泰大酒店","lon":"121.51181","lat":"31.1374","category":"76","category_name":"上海菜","address":"浦东新区永泰路538号(近上南路)"},{"poiid":"B2094750D665A7FB419B","title":"三林老八样","lon":"121.512","lat":"31.1375","category":"87","category_name":"特色／地方风味餐厅","address":"浦东新区三林永泰路217号(近三林新村)"},{"poiid":"B2094750D768A7F54498","title":"越味风(上南路店)","lon":"121.513","lat":"31.1398","category":"99","category_name":"泰国／越南菜品餐厅","address":"上南路4467号中房金谊广场4楼层"},{"poiid":"B2094750DA69A2FE4899","title":"新石器烤肉","lon":"121.512893","lat":"31.140678","category":"247","category_name":"餐饮美食","address":"三林上南路金谊广场"},{"poiid":"B2094757D16EA0F4489C","title":"肯德基Kfc(金谊广场店)","lon":"121.515883","lat":"31.139906872","category":"68","category_name":"快餐厅","address":"浦东新区上南路4467号20号金谊广场内(近永泰路)"},{"poiid":"B2094750D26EA6FC4498","title":"星巴克金谊店","lon":"121.514427","lat":"31.139675","category":"247","category_name":"餐饮美食","address":"上南路"},{"poiid":"B2094757D16DA0FA419D","title":"三林路三新路","lon":"121.506581","lat":"31.138418","category":"500","category_name":"未知分类","address":"上海三林路三新路"},{"poiid":"B2094454D065A6F5429C","title":"金谊华夏影城","lon":"121.513381","lat":"31.140973","category":"178","category_name":"电影院","address":"上海市浦东新区上南路4467号中房金谊生活广场"},{"poiid":"B2094654DB6DA0F8459B","title":"上海市育人中学","lon":"121.50686","lat":"31.13765","category":"55","category_name":"中学","address":"浦东新区三新路15号(三林中学南首)"},{"poiid":"B2094751D56DA2FA4193","title":"四谷姜太公","lon":"121.5131","lat":"31.1397","category":"95","category_name":"日本料理","address":"上南路4467号金谊广场2楼221号铺"},{"poiid":"B2094750DB68A2F8409C","title":"姜太公日式料理","lon":"121.512153","lat":"31.13878","category":"247","category_name":"餐饮美食","address":"金谊广场2F"},{"poiid":"B2094757D069A3F8459C","title":"海宁阿月煲(三林路店)","lon":"121.50242242","lat":"31.139621493","category":"260","category_name":"其他","address":"浦东新区三林路535号(灵岩南路口)"},{"poiid":"B2094757D16BAAFD4098","title":"蒸真好","lon":"121.51431","lat":"31.13836","category":"76","category_name":"上海菜","address":"浦东新区上南路4559号(近永泰路)"},{"poiid":"B2094655D26BA4FF439C","title":"三林新村(北门)","lon":"121.51249","lat":"31.13757","category":"47","category_name":"住宅区","address":"永泰路468弄"},{"poiid":"B2094750D664A1FA439F","title":"外婆小菜","lon":"121.501","lat":"31.1399","category":"76","category_name":"上海菜","address":"浦东新区灵岩南路1200号(近三林路)"},{"poiid":"B2094751D36CABF44093","title":"冰果师(金谊广场店)","lon":"121.51424","lat":"31.13923","category":"113","category_name":"冷饮店","address":"浦东新区上南路4523号金谊广场1楼(近永泰路)"},{"poiid":"B2094655D268A0F4439C","title":"金光菜市场","lon":"121.51139","lat":"31.13724","category":"117","category_name":"便民商店/便利店","address":""},{"poiid":"B2094757D06BABF5429E","title":"卢浦大桥(济阳路口)","lon":"121.50298","lat":"31.133287","category":"500","category_name":"未知分类","address":"上海济阳路出口"},{"poiid":"B2094751D36DA4FB449F","title":"锦香楼","lon":"121.50365","lat":"31.14033","category":"77","category_name":"湖南菜","address":"浦东新区三林路616号(近灵岩南路)"},{"poiid":"B2094757D76EA4F5429F","title":"重庆鸡公煲 永泰路店","lon":"121.51642","lat":"31.1394","category":"86","category_name":"火锅店","address":"浦东新区永泰路1155号(近东明路)"},{"poiid":"B2094654DB6DA0FF4292","title":"金光工业园区","lon":"121.51287","lat":"31.13903","category":"45","category_name":"产业园区","address":"上南路4560弄1-17号"}]