[{"poiid":"B2094757D06FA5FA429C","title":"三甲港海滨乐园","lon":"121.77083","lat":"31.212","category":"195","category_name":"游乐场","address":"浦东新区华夏东路6015号(近浦东国际机场)"},{"poiid":"B2094757D069A3F4489B","title":"三甲港堤坝","lon":"121.76463","lat":"31.21095","category":"500","category_name":"未知分类","address":"上海浦东新区三甲港  "},{"poiid":"B2094654DA6BA1FA419F","title":"上海一尘大酒店","lon":"121.7629","lat":"31.21919","category":"88","category_name":"海鲜酒楼","address":"上海市浦东新区三甲港人民塘路4008号(近华夏东路最东端三甲港海滨乐园"},{"poiid":"B2094654DA6BA1FA489F","title":"夏威屿海鲜城","lon":"121.77239","lat":"31.21264","category":"76","category_name":"上海菜","address":"浦东新区三甲港华夏东路东首海滨浴场"},{"poiid":"B2094757D16EA2F44792","title":"海滨渔村","lon":"121.76993","lat":"31.21164","category":"260","category_name":"其他","address":"浦东新区川沙人民塘路3868号(近华夏东路)"},{"poiid":"B2094655D36CA2FA469B","title":"三甲港广场","lon":"121.7706","lat":"31.21086","category":"38","category_name":"公交车站","address":""},{"poiid":"B2094654DA6BA1FA4293","title":"广场购物中心","lon":"121.77033","lat":"31.21148","category":"119","category_name":"商场","address":""},{"poiid":"B209475CD76EA0FF429C","title":"长江迷笛音乐节","lon":"121.769027","lat":"31.211608","category":"500","category_name":"未知分类","address":"上海市 上海浦东三甲港"},{"poiid":"B2094654DB64A3F4479C","title":"东方酒楼 华夏总店","lon":"121.76861529485","lat":"31.210493298232","category":"260","category_name":"其他","address":"浦东新区三甲港人民塘路4238号(华夏东路人民塘)"},{"poiid":"B209475CD76EA4F9439E","title":"MIDI CAMP","lon":"121.78553","lat":"31.202465","category":"500","category_name":"未知分类","address":"上海市 浦东三甲港"},{"poiid":"B2094655D264A4F84298","title":"华夏文化旅游区三甲港海滨区","lon":"121.7657","lat":"31.21559","category":"250","category_name":"公园户外","address":"人民塘路"},{"poiid":"B2094654DA6BA1FA439B","title":"海滨广场","lon":"121.76966","lat":"31.21143","category":"248","category_name":"生活娱乐","address":"合庆镇"},{"poiid":"B2094654DA6BA1FA439E","title":"红中海鲜广场","lon":"121.76923803259","lat":"31.210351741967","category":"260","category_name":"其他","address":"浦东新区华夏东路4828-4830号三甲港海滨"},{"poiid":"B2094757D16AA0F44093","title":"海塘村","lon":"121.76765699","lat":"31.208569958","category":"500","category_name":"未知分类","address":"上海海塘村"},{"poiid":"B2094655D36DA2F8419B","title":"三甲港桥","lon":"121.76378","lat":"31.21524","category":"250","category_name":"公园户外","address":"蔡路镇三甲港"},{"poiid":"B209475DDA65A3FA499E","title":"上海迷笛音乐节","lon":"121.781143","lat":"31.202512","category":"248","category_name":"生活娱乐","address":"上海市 上海浦东新区三浦甲"},{"poiid":"B2094757D16BA7FB4099","title":"Vastium's Villa","lon":"121.76646794","lat":"31.209323598","category":"500","category_name":"未知分类","address":"上海浦东新区华夏东路188号"},{"poiid":"B209475CD76CA2FF4899","title":"2013迷笛音乐节现场","lon":"121.785972","lat":"31.201856","category":"500","category_name":"未知分类","address":"上海市 就这条路海边上！"},{"poiid":"B2094751DA6DA1F8449D","title":"浦东机场","lon":"121.764405","lat":"31.207867","category":"500","category_name":"未知分类","address":null},{"poiid":"B2094654DB64A3F44793","title":"三甲港边防派出所","lon":"121.76229","lat":"31.21535","category":"609","category_name":"警察局","address":"上海浦东新区川杨路1555号"},{"poiid":"B2094750D36BA5F4469D","title":"三甲港海滨乐场","lon":"121.76526643813","lat":"31.209387666855","category":"219","category_name":"其他","address":"华夏东路东首三甲港海滨广场"},{"poiid":"B209475CD76FA7FF419B","title":"长江迷笛音乐节唐舞台","lon":"121.789627","lat":"31.199518","category":"500","category_name":"未知分类","address":"上海市 上海三甲港"},{"poiid":"B2094757D16DA3FB489B","title":"杨浦区教育局","lon":"121.76477813","lat":"31.22576332","category":"500","category_name":"未知分类","address":"上海长岭路91号"}]