[{"poiid":"B2094757D068AAF84199","title":"上海交通大学钱学森图书馆","lon":"121.435496989","lat":"31.2013391905","category":"181","category_name":"图书馆","address":"徐汇区华山路1800号"},{"poiid":"B2094757D06EAAF4469F","title":"交通大学地铁站","lon":"121.434637","lat":"31.201981","category":"36","category_name":"地铁站","address":"上海轨道交通 十号线 轨交交通大学站 10"},{"poiid":"B2094757D068A2FA419F","title":"幸福路","lon":"121.431038586","lat":"31.2040639193","category":"260","category_name":"其他","address":"上海市长宁区幸福路"},{"poiid":"B2094757D06FA0F54899","title":"华山绿地","lon":"121.43312","lat":"31.2059","category":"196","category_name":"公园","address":"长宁区华山路平武路(近幸福路)"},{"poiid":"B2094654D564A6FC409F","title":"复旦中学","lon":"121.43437","lat":"31.20306","category":"55","category_name":"中学","address":"徐汇区华山路1626号(近淮海西路)"},{"poiid":"B2094757D469A3F9469E","title":"素人素食","lon":"121.434384","lat":"31.203704","category":"89","category_name":"中式素餐馆","address":"徐汇区华山路1585号(泰安路淮海西路)"},{"poiid":"B2094757D06FAAF4429B","title":"中村发型设计中心(华山路店)","lon":"121.43522","lat":"31.20261","category":"260","category_name":"其他","address":"上海徐汇区华山路1591号(淮海西路口)  "},{"poiid":"B2094757DA6EAAFC4198","title":"Aroom","lon":"121.435461000002","lat":"31.2060190000001","category":"260","category_name":"其他","address":"徐汇区泰安路120弄卫乐园15号(近华山路)"},{"poiid":"B2094757D068AAFB439A","title":"上海交通大学工程馆","lon":"121.43378196","lat":"31.2005447742","category":"253","category_name":"校园生活","address":"上海市徐汇区华山路1954号"},{"poiid":"B2094757D06FA2FB439D","title":"星巴克(华山国际店)","lon":"121.433629","lat":"31.205356","category":"260","category_name":"其他","address":"徐汇区华山路1568号华山国际大厦102座(近华山绿地)"},{"poiid":"B2094757D06AAAF5409D","title":"酷芝PIZZA COOLZEY","lon":"121.43455421439","lat":"31.20311280591","category":"94","category_name":"西餐厅","address":"徐汇区华山路1589号3号(近淮海中路)"},{"poiid":"B2094654DB6BA7F5469A","title":"逸谷餐厅","lon":"121.43748","lat":"31.20458","category":"70","category_name":"综合酒楼","address":"徐汇区兴国路380号(近淮海中路)"},{"poiid":"B2094757D068A0FD4092","title":"金萨岛伊斯兰风情餐吧(新华路店)","lon":"121.43161","lat":"31.20135","category":"90","category_name":"清真餐馆","address":"长宁区新华路60号(近淮海西路)"},{"poiid":"B2094757D06AA2FC409F","title":"复旦中学羽毛球馆","lon":"121.433770759","lat":"31.2032934808","category":"253","category_name":"校园生活","address":"上海徐汇区华山路1626号复旦中学体育馆内(近淮海西路)"},{"poiid":"B2094654DB6BA5F54193","title":"南洋模范中学","lon":"121.43667","lat":"31.20099","category":"55","category_name":"中学","address":"天平路200"},{"poiid":"B2094750D76EA2FF4799","title":"尊萃508公馆","lon":"121.436","lat":"31.2018","category":"76","category_name":"上海菜","address":"徐汇区华山路1731号(近淮海西路)"},{"poiid":"B2094757D065A6F4489D","title":"1号线人民广场站","lon":"121.433984586","lat":"31.2019978789","category":"500","category_name":"未知分类","address":"上海人民广场"},{"poiid":"B2094757D16BA4FD449C","title":"法华镇路番禺路","lon":"121.43102358","lat":"31.203950917","category":"500","category_name":"未知分类","address":"上海法华镇路番禺路"},{"poiid":"B2094750D26AABFC499B","title":"澄园","lon":"121.434806","lat":"31.204935","category":"260","category_name":"其他","address":"徐汇区泰安路115弄1号楼101室(近华山路)"},{"poiid":"B2094654DA6DA3FF4292","title":"上海西华酒店公寓","lon":"121.43513","lat":"31.2018","category":"214","category_name":"四星级宾馆","address":"上海市徐汇区淮海西路1号(华山路口)"},{"poiid":"B2094757D464A7FD4699","title":"MARDI GRAS","lon":"121.436810054","lat":"31.205342793","category":"94","category_name":"西餐厅","address":"徐汇区兴国路372弄1号(近泰安路)"},{"poiid":"B2094757D06BAAFF479D","title":"香奈造型(上海影城店)","lon":"121.43309858","lat":"31.202635891","category":"148","category_name":"美容美发店","address":"上海市长宁区法华镇路59号近淮海西路华山路(预约电话"},{"poiid":"B2094757D168AAF8409A","title":"永和豆浆","lon":"121.434330586","lat":"31.2038849158","category":"68","category_name":"快餐厅","address":"徐汇区华山路1603号(华山路淮海西路)"},{"poiid":"B2094757D06AA5F54292","title":"蒲记","lon":"121.43498","lat":"31.20357","category":"72","category_name":"广东菜","address":"徐汇区华山路1597号(近淮海中路)"},{"poiid":"B2094655D36CA7FC4393","title":"华山路淮海西路","lon":"121.4345","lat":"31.20352","category":"38","category_name":"公交车站","address":""},{"poiid":"B2094757D16CA3FB4293","title":"淮海西路","lon":"121.434335","lat":"31.204117","category":"500","category_name":"未知分类","address":"上海淮海西路"},{"poiid":"B2094757D069ABFC419B","title":"长颈鹿美语","lon":"121.436288","lat":"31.201712","category":"260","category_name":"其他","address":"徐汇区华山路1751号海斯大厦3楼(近淮海西路)"},{"poiid":"B2094655D26EA1FF469D","title":"金凤凰酒家","lon":"121.43513","lat":"31.2018","category":"247","category_name":"餐饮美食","address":"长宁区淮海西路1号西华酒店公寓4-5楼(华山路口)"},{"poiid":"B2094757D16AAAF94398","title":"华山路","lon":"121.43305858","lat":"31.206015957","category":"500","category_name":"未知分类","address":"上海市华山路淮海西路"},{"poiid":"B2094655D26EA5FF429A","title":"浦江之星(上海徐家汇店)","lon":"121.43475","lat":"31.20329","category":"250","category_name":"公园户外","address":"徐汇区华山路1621号(近淮海西路)"},{"poiid":"B2094753D069A1FC469D","title":"Nakamuraby中村","lon":"121.43457","lat":"31.20374","category":"148","category_name":"美容美发店","address":"徐汇区华山路1589号近泰安路(近泰安路)"},{"poiid":"B2094654DB69A7FB449D","title":"华山国际","lon":"121.43312","lat":"31.20492","category":"47","category_name":"住宅区","address":"上海市长宁区华山路1568号"},{"poiid":"B2094655D26EA2FF4193","title":"华山儿童公园","lon":"121.43473","lat":"31.20414","category":"196","category_name":"公园","address":"长宁区华山路1575号(华山路泰安路)"},{"poiid":"B2094752D06EA3FF4298","title":"小辉哥火锅","lon":"121.4343095487457","lat":"31.20029722177148","category":"247","category_name":"餐饮美食","address":"港汇恒隆广场5F538室"},{"poiid":"B2094757D069AAFF4299","title":"华山花苑","lon":"121.4355","lat":"31.203335","category":"252","category_name":"楼宇机构","address":"上海华山路1615号"},{"poiid":"B2094654DB6BA7F54599","title":"永琪美容美发(华山路)","lon":"121.43472","lat":"31.20338","category":"148","category_name":"美容美发店","address":"华山路1617"},{"poiid":"B2094655D26AA2F5479E","title":"李公祠","lon":"121.43437","lat":"31.20306","category":"247","category_name":"餐饮美食","address":"徐汇区华山路1626号复旦中学内(华山路淮海西路)"},{"poiid":"B2094751D564A3F9429B","title":"华山医院","lon":"121.434353","lat":"31.201086","category":"162","category_name":"医院","address":null},{"poiid":"B2094757D569A2F44892","title":"体育图书馆","lon":"121.4343789","lat":"31.203065","category":"181","category_name":"图书馆","address":"徐汇区华山路1626号(近淮海西路)"},{"poiid":"B2094757D06FA0FD4693","title":"Shanghai Studio","lon":"121.4377","lat":"31.20369","category":"260","category_name":"其他","address":"徐汇区淮海中路1950弄4号(近天平路)"},{"poiid":"B2094654DA6DA3FA489B","title":"南洋大楼","lon":"121.436","lat":"31.2052","category":"46","category_name":"楼宇","address":"徐汇区番禺路667号"},{"poiid":"B2094654DB64AAFB459D","title":"东镇小区","lon":"121.43402","lat":"31.202662","category":"47","category_name":"住宅区","address":"法华镇路25弄1"},{"poiid":"B2094654D564A6FC419D","title":"时尚造型(法华镇路)","lon":"121.43318","lat":"31.20273","category":"148","category_name":"美容美发店","address":"长宁区法华镇路65号(淮海路口)"},{"poiid":"B2094654DB6BA7F54593","title":"新亚大包 兴国路店","lon":"121.43739739493","lat":"31.204392216969","category":"68","category_name":"快餐厅","address":"徐汇区兴国路408号(近淮海中路武康路)"},{"poiid":"B2094752D66FA1FF469F","title":"70后饭吧","lon":"121.432258","lat":"31.203279","category":"247","category_name":"餐饮美食","address":"汇金百货"},{"poiid":"B2094757D064A5FC439D","title":"红庄小区","lon":"121.433757","lat":"31.20223","category":"47","category_name":"住宅区","address":"新华路73弄35-47号"},{"poiid":"B2094655D26EA0F5449C","title":"花之林人文茶馆(华山店)","lon":"121.43477","lat":"31.2025","category":"66","category_name":"茶艺馆","address":"长宁区华山路1686号"},{"poiid":"B2094757D06AA5FB4599","title":"财瑞大厦","lon":"121.433553","lat":"31.205167","category":"46","category_name":"楼宇","address":"上海市长宁区华山路1568号"},{"poiid":"B2094757D469A2FC409A","title":"地平线 skyline","lon":"121.431913","lat":"31.203082","category":"172","category_name":"酒吧","address":"法华镇路455-4号近番愚路"},{"poiid":"B2094654DA6DA3F8419D","title":"上海交通大学徐汇校区(北门)","lon":"121.43278","lat":"31.20102","category":"52","category_name":"高等院校","address":""},{"poiid":"B2094757D068AAF84199","title":"上海交通大学钱学森图书馆","lon":"121.435496989","lat":"31.2013391905","category":"181","category_name":"图书馆","address":"徐汇区华山路1800号"},{"poiid":"B2094757D06EAAF4469F","title":"交通大学地铁站","lon":"121.434637","lat":"31.201981","category":"36","category_name":"地铁站","address":"上海轨道交通 十号线 轨交交通大学站 10"},{"poiid":"B2094757D068A2FA419F","title":"幸福路","lon":"121.431038586","lat":"31.2040639193","category":"260","category_name":"其他","address":"上海市长宁区幸福路"},{"poiid":"B2094757D06FA0F54899","title":"华山绿地","lon":"121.43312","lat":"31.2059","category":"196","category_name":"公园","address":"长宁区华山路平武路(近幸福路)"},{"poiid":"B2094654D564A6FC409F","title":"复旦中学","lon":"121.43437","lat":"31.20306","category":"55","category_name":"中学","address":"徐汇区华山路1626号(近淮海西路)"},{"poiid":"B2094757D469A3F9469E","title":"素人素食","lon":"121.434384","lat":"31.203704","category":"89","category_name":"中式素餐馆","address":"徐汇区华山路1585号(泰安路淮海西路)"},{"poiid":"B2094757D06FAAF4429B","title":"中村发型设计中心(华山路店)","lon":"121.43522","lat":"31.20261","category":"260","category_name":"其他","address":"上海徐汇区华山路1591号(淮海西路口)  "},{"poiid":"B2094757DA6EAAFC4198","title":"Aroom","lon":"121.435461000002","lat":"31.2060190000001","category":"260","category_name":"其他","address":"徐汇区泰安路120弄卫乐园15号(近华山路)"},{"poiid":"B2094757D068AAFB439A","title":"上海交通大学工程馆","lon":"121.43378196","lat":"31.2005447742","category":"253","category_name":"校园生活","address":"上海市徐汇区华山路1954号"},{"poiid":"B2094757D06FA2FB439D","title":"星巴克(华山国际店)","lon":"121.433629","lat":"31.205356","category":"260","category_name":"其他","address":"徐汇区华山路1568号华山国际大厦102座(近华山绿地)"},{"poiid":"B2094757D06AAAF5409D","title":"酷芝PIZZA COOLZEY","lon":"121.43455421439","lat":"31.20311280591","category":"94","category_name":"西餐厅","address":"徐汇区华山路1589号3号(近淮海中路)"},{"poiid":"B2094654DB6BA7F5469A","title":"逸谷餐厅","lon":"121.43748","lat":"31.20458","category":"70","category_name":"综合酒楼","address":"徐汇区兴国路380号(近淮海中路)"},{"poiid":"B2094757D068A0FD4092","title":"金萨岛伊斯兰风情餐吧(新华路店)","lon":"121.43161","lat":"31.20135","category":"90","category_name":"清真餐馆","address":"长宁区新华路60号(近淮海西路)"},{"poiid":"B2094757D06AA2FC409F","title":"复旦中学羽毛球馆","lon":"121.433770759","lat":"31.2032934808","category":"253","category_name":"校园生活","address":"上海徐汇区华山路1626号复旦中学体育馆内(近淮海西路)"},{"poiid":"B2094654DB6BA5F54193","title":"南洋模范中学","lon":"121.43667","lat":"31.20099","category":"55","category_name":"中学","address":"天平路200"},{"poiid":"B2094750D76EA2FF4799","title":"尊萃508公馆","lon":"121.436","lat":"31.2018","category":"76","category_name":"上海菜","address":"徐汇区华山路1731号(近淮海西路)"},{"poiid":"B2094757D065A6F4489D","title":"1号线人民广场站","lon":"121.433984586","lat":"31.2019978789","category":"500","category_name":"未知分类","address":"上海人民广场"},{"poiid":"B2094757D16BA4FD449C","title":"法华镇路番禺路","lon":"121.43102358","lat":"31.203950917","category":"500","category_name":"未知分类","address":"上海法华镇路番禺路"},{"poiid":"B2094750D26AABFC499B","title":"澄园","lon":"121.434806","lat":"31.204935","category":"260","category_name":"其他","address":"徐汇区泰安路115弄1号楼101室(近华山路)"},{"poiid":"B2094654DA6DA3FF4292","title":"上海西华酒店公寓","lon":"121.43513","lat":"31.2018","category":"214","category_name":"四星级宾馆","address":"上海市徐汇区淮海西路1号(华山路口)"},{"poiid":"B2094757D464A7FD4699","title":"MARDI GRAS","lon":"121.436810054","lat":"31.205342793","category":"94","category_name":"西餐厅","address":"徐汇区兴国路372弄1号(近泰安路)"},{"poiid":"B2094757D06BAAFF479D","title":"香奈造型(上海影城店)","lon":"121.43309858","lat":"31.202635891","category":"148","category_name":"美容美发店","address":"上海市长宁区法华镇路59号近淮海西路华山路(预约电话"},{"poiid":"B2094757D168AAF8409A","title":"永和豆浆","lon":"121.434330586","lat":"31.2038849158","category":"68","category_name":"快餐厅","address":"徐汇区华山路1603号(华山路淮海西路)"},{"poiid":"B2094757D06AA5F54292","title":"蒲记","lon":"121.43498","lat":"31.20357","category":"72","category_name":"广东菜","address":"徐汇区华山路1597号(近淮海中路)"},{"poiid":"B2094655D36CA7FC4393","title":"华山路淮海西路","lon":"121.4345","lat":"31.20352","category":"38","category_name":"公交车站","address":""},{"poiid":"B2094757D16CA3FB4293","title":"淮海西路","lon":"121.434335","lat":"31.204117","category":"500","category_name":"未知分类","address":"上海淮海西路"},{"poiid":"B2094757D069ABFC419B","title":"长颈鹿美语","lon":"121.436288","lat":"31.201712","category":"260","category_name":"其他","address":"徐汇区华山路1751号海斯大厦3楼(近淮海西路)"},{"poiid":"B2094655D26EA1FF469D","title":"金凤凰酒家","lon":"121.43513","lat":"31.2018","category":"247","category_name":"餐饮美食","address":"长宁区淮海西路1号西华酒店公寓4-5楼(华山路口)"},{"poiid":"B2094757D16AAAF94398","title":"华山路","lon":"121.43305858","lat":"31.206015957","category":"500","category_name":"未知分类","address":"上海市华山路淮海西路"},{"poiid":"B2094655D26EA5FF429A","title":"浦江之星(上海徐家汇店)","lon":"121.43475","lat":"31.20329","category":"250","category_name":"公园户外","address":"徐汇区华山路1621号(近淮海西路)"},{"poiid":"B2094753D069A1FC469D","title":"Nakamuraby中村","lon":"121.43457","lat":"31.20374","category":"148","category_name":"美容美发店","address":"徐汇区华山路1589号近泰安路(近泰安路)"},{"poiid":"B2094654DB69A7FB449D","title":"华山国际","lon":"121.43312","lat":"31.20492","category":"47","category_name":"住宅区","address":"上海市长宁区华山路1568号"},{"poiid":"B2094655D26EA2FF4193","title":"华山儿童公园","lon":"121.43473","lat":"31.20414","category":"196","category_name":"公园","address":"长宁区华山路1575号(华山路泰安路)"},{"poiid":"B2094752D06EA3FF4298","title":"小辉哥火锅","lon":"121.4343095487457","lat":"31.20029722177148","category":"247","category_name":"餐饮美食","address":"港汇恒隆广场5F538室"},{"poiid":"B2094757D069AAFF4299","title":"华山花苑","lon":"121.4355","lat":"31.203335","category":"252","category_name":"楼宇机构","address":"上海华山路1615号"},{"poiid":"B2094654DB6BA7F54599","title":"永琪美容美发(华山路)","lon":"121.43472","lat":"31.20338","category":"148","category_name":"美容美发店","address":"华山路1617"},{"poiid":"B2094655D26AA2F5479E","title":"李公祠","lon":"121.43437","lat":"31.20306","category":"247","category_name":"餐饮美食","address":"徐汇区华山路1626号复旦中学内(华山路淮海西路)"},{"poiid":"B2094751D564A3F9429B","title":"华山医院","lon":"121.434353","lat":"31.201086","category":"162","category_name":"医院","address":null},{"poiid":"B2094757D569A2F44892","title":"体育图书馆","lon":"121.4343789","lat":"31.203065","category":"181","category_name":"图书馆","address":"徐汇区华山路1626号(近淮海西路)"},{"poiid":"B2094757D06FA0FD4693","title":"Shanghai Studio","lon":"121.4377","lat":"31.20369","category":"260","category_name":"其他","address":"徐汇区淮海中路1950弄4号(近天平路)"},{"poiid":"B2094654DA6DA3FA489B","title":"南洋大楼","lon":"121.436","lat":"31.2052","category":"46","category_name":"楼宇","address":"徐汇区番禺路667号"},{"poiid":"B2094654DB64AAFB459D","title":"东镇小区","lon":"121.43402","lat":"31.202662","category":"47","category_name":"住宅区","address":"法华镇路25弄1"},{"poiid":"B2094654D564A6FC419D","title":"时尚造型(法华镇路)","lon":"121.43318","lat":"31.20273","category":"148","category_name":"美容美发店","address":"长宁区法华镇路65号(淮海路口)"},{"poiid":"B2094654DB6BA7F54593","title":"新亚大包 兴国路店","lon":"121.43739739493","lat":"31.204392216969","category":"68","category_name":"快餐厅","address":"徐汇区兴国路408号(近淮海中路武康路)"},{"poiid":"B2094752D66FA1FF469F","title":"70后饭吧","lon":"121.432258","lat":"31.203279","category":"247","category_name":"餐饮美食","address":"汇金百货"},{"poiid":"B2094757D064A5FC439D","title":"红庄小区","lon":"121.433757","lat":"31.20223","category":"47","category_name":"住宅区","address":"新华路73弄35-47号"},{"poiid":"B2094655D26EA0F5449C","title":"花之林人文茶馆(华山店)","lon":"121.43477","lat":"31.2025","category":"66","category_name":"茶艺馆","address":"长宁区华山路1686号"},{"poiid":"B2094757D06AA5FB4599","title":"财瑞大厦","lon":"121.433553","lat":"31.205167","category":"46","category_name":"楼宇","address":"上海市长宁区华山路1568号"},{"poiid":"B2094757D469A2FC409A","title":"地平线 skyline","lon":"121.431913","lat":"31.203082","category":"172","category_name":"酒吧","address":"法华镇路455-4号近番愚路"},{"poiid":"B2094654DA6DA3F8419D","title":"上海交通大学徐汇校区(北门)","lon":"121.43278","lat":"31.20102","category":"52","category_name":"高等院校","address":""},{"poiid":"B2094757D068AAF84199","title":"上海交通大学钱学森图书馆","lon":"121.435496989","lat":"31.2013391905","category":"181","category_name":"图书馆","address":"徐汇区华山路1800号"},{"poiid":"B2094757D06EAAF4469F","title":"交通大学地铁站","lon":"121.434637","lat":"31.201981","category":"36","category_name":"地铁站","address":"上海轨道交通 十号线 轨交交通大学站 10"},{"poiid":"B2094757D068A2FA419F","title":"幸福路","lon":"121.431038586","lat":"31.2040639193","category":"260","category_name":"其他","address":"上海市长宁区幸福路"},{"poiid":"B2094757D06FA0F54899","title":"华山绿地","lon":"121.43312","lat":"31.2059","category":"196","category_name":"公园","address":"长宁区华山路平武路(近幸福路)"},{"poiid":"B2094654D564A6FC409F","title":"复旦中学","lon":"121.43437","lat":"31.20306","category":"55","category_name":"中学","address":"徐汇区华山路1626号(近淮海西路)"},{"poiid":"B2094757D469A3F9469E","title":"素人素食","lon":"121.434384","lat":"31.203704","category":"89","category_name":"中式素餐馆","address":"徐汇区华山路1585号(泰安路淮海西路)"},{"poiid":"B2094757D06FAAF4429B","title":"中村发型设计中心(华山路店)","lon":"121.43522","lat":"31.20261","category":"260","category_name":"其他","address":"上海徐汇区华山路1591号(淮海西路口)  "},{"poiid":"B2094757DA6EAAFC4198","title":"Aroom","lon":"121.435461000002","lat":"31.2060190000001","category":"260","category_name":"其他","address":"徐汇区泰安路120弄卫乐园15号(近华山路)"},{"poiid":"B2094757D068AAFB439A","title":"上海交通大学工程馆","lon":"121.43378196","lat":"31.2005447742","category":"253","category_name":"校园生活","address":"上海市徐汇区华山路1954号"},{"poiid":"B2094757D06FA2FB439D","title":"星巴克(华山国际店)","lon":"121.433629","lat":"31.205356","category":"260","category_name":"其他","address":"徐汇区华山路1568号华山国际大厦102座(近华山绿地)"},{"poiid":"B2094757D06AAAF5409D","title":"酷芝PIZZA COOLZEY","lon":"121.43455421439","lat":"31.20311280591","category":"94","category_name":"西餐厅","address":"徐汇区华山路1589号3号(近淮海中路)"},{"poiid":"B2094654DB6BA7F5469A","title":"逸谷餐厅","lon":"121.43748","lat":"31.20458","category":"70","category_name":"综合酒楼","address":"徐汇区兴国路380号(近淮海中路)"},{"poiid":"B2094757D068A0FD4092","title":"金萨岛伊斯兰风情餐吧(新华路店)","lon":"121.43161","lat":"31.20135","category":"90","category_name":"清真餐馆","address":"长宁区新华路60号(近淮海西路)"},{"poiid":"B2094757D06AA2FC409F","title":"复旦中学羽毛球馆","lon":"121.433770759","lat":"31.2032934808","category":"253","category_name":"校园生活","address":"上海徐汇区华山路1626号复旦中学体育馆内(近淮海西路)"},{"poiid":"B2094654DB6BA5F54193","title":"南洋模范中学","lon":"121.43667","lat":"31.20099","category":"55","category_name":"中学","address":"天平路200"},{"poiid":"B2094750D76EA2FF4799","title":"尊萃508公馆","lon":"121.436","lat":"31.2018","category":"76","category_name":"上海菜","address":"徐汇区华山路1731号(近淮海西路)"},{"poiid":"B2094757D065A6F4489D","title":"1号线人民广场站","lon":"121.433984586","lat":"31.2019978789","category":"500","category_name":"未知分类","address":"上海人民广场"},{"poiid":"B2094757D16BA4FD449C","title":"法华镇路番禺路","lon":"121.43102358","lat":"31.203950917","category":"500","category_name":"未知分类","address":"上海法华镇路番禺路"},{"poiid":"B2094750D26AABFC499B","title":"澄园","lon":"121.434806","lat":"31.204935","category":"260","category_name":"其他","address":"徐汇区泰安路115弄1号楼101室(近华山路)"},{"poiid":"B2094654DA6DA3FF4292","title":"上海西华酒店公寓","lon":"121.43513","lat":"31.2018","category":"214","category_name":"四星级宾馆","address":"上海市徐汇区淮海西路1号(华山路口)"},{"poiid":"B2094757D464A7FD4699","title":"MARDI GRAS","lon":"121.436810054","lat":"31.205342793","category":"94","category_name":"西餐厅","address":"徐汇区兴国路372弄1号(近泰安路)"},{"poiid":"B2094757D06BAAFF479D","title":"香奈造型(上海影城店)","lon":"121.43309858","lat":"31.202635891","category":"148","category_name":"美容美发店","address":"上海市长宁区法华镇路59号近淮海西路华山路(预约电话"},{"poiid":"B2094757D168AAF8409A","title":"永和豆浆","lon":"121.434330586","lat":"31.2038849158","category":"68","category_name":"快餐厅","address":"徐汇区华山路1603号(华山路淮海西路)"},{"poiid":"B2094757D06AA5F54292","title":"蒲记","lon":"121.43498","lat":"31.20357","category":"72","category_name":"广东菜","address":"徐汇区华山路1597号(近淮海中路)"},{"poiid":"B2094655D36CA7FC4393","title":"华山路淮海西路","lon":"121.4345","lat":"31.20352","category":"38","category_name":"公交车站","address":""},{"poiid":"B2094757D16CA3FB4293","title":"淮海西路","lon":"121.434335","lat":"31.204117","category":"500","category_name":"未知分类","address":"上海淮海西路"},{"poiid":"B2094757D069ABFC419B","title":"长颈鹿美语","lon":"121.436288","lat":"31.201712","category":"260","category_name":"其他","address":"徐汇区华山路1751号海斯大厦3楼(近淮海西路)"},{"poiid":"B2094655D26EA1FF469D","title":"金凤凰酒家","lon":"121.43513","lat":"31.2018","category":"247","category_name":"餐饮美食","address":"长宁区淮海西路1号西华酒店公寓4-5楼(华山路口)"},{"poiid":"B2094757D16AAAF94398","title":"华山路","lon":"121.43305858","lat":"31.206015957","category":"500","category_name":"未知分类","address":"上海市华山路淮海西路"},{"poiid":"B2094655D26EA5FF429A","title":"浦江之星(上海徐家汇店)","lon":"121.43475","lat":"31.20329","category":"250","category_name":"公园户外","address":"徐汇区华山路1621号(近淮海西路)"},{"poiid":"B2094753D069A1FC469D","title":"Nakamuraby中村","lon":"121.43457","lat":"31.20374","category":"148","category_name":"美容美发店","address":"徐汇区华山路1589号近泰安路(近泰安路)"},{"poiid":"B2094654DB69A7FB449D","title":"华山国际","lon":"121.43312","lat":"31.20492","category":"47","category_name":"住宅区","address":"上海市长宁区华山路1568号"},{"poiid":"B2094655D26EA2FF4193","title":"华山儿童公园","lon":"121.43473","lat":"31.20414","category":"196","category_name":"公园","address":"长宁区华山路1575号(华山路泰安路)"},{"poiid":"B2094752D06EA3FF4298","title":"小辉哥火锅","lon":"121.4343095487457","lat":"31.20029722177148","category":"247","category_name":"餐饮美食","address":"港汇恒隆广场5F538室"},{"poiid":"B2094757D069AAFF4299","title":"华山花苑","lon":"121.4355","lat":"31.203335","category":"252","category_name":"楼宇机构","address":"上海华山路1615号"},{"poiid":"B2094654DB6BA7F54599","title":"永琪美容美发(华山路)","lon":"121.43472","lat":"31.20338","category":"148","category_name":"美容美发店","address":"华山路1617"},{"poiid":"B2094655D26AA2F5479E","title":"李公祠","lon":"121.43437","lat":"31.20306","category":"247","category_name":"餐饮美食","address":"徐汇区华山路1626号复旦中学内(华山路淮海西路)"},{"poiid":"B2094751D564A3F9429B","title":"华山医院","lon":"121.434353","lat":"31.201086","category":"162","category_name":"医院","address":null},{"poiid":"B2094757D569A2F44892","title":"体育图书馆","lon":"121.4343789","lat":"31.203065","category":"181","category_name":"图书馆","address":"徐汇区华山路1626号(近淮海西路)"},{"poiid":"B2094757D06FA0FD4693","title":"Shanghai Studio","lon":"121.4377","lat":"31.20369","category":"260","category_name":"其他","address":"徐汇区淮海中路1950弄4号(近天平路)"},{"poiid":"B2094654DA6DA3FA489B","title":"南洋大楼","lon":"121.436","lat":"31.2052","category":"46","category_name":"楼宇","address":"徐汇区番禺路667号"},{"poiid":"B2094654DB64AAFB459D","title":"东镇小区","lon":"121.43402","lat":"31.202662","category":"47","category_name":"住宅区","address":"法华镇路25弄1"},{"poiid":"B2094654D564A6FC419D","title":"时尚造型(法华镇路)","lon":"121.43318","lat":"31.20273","category":"148","category_name":"美容美发店","address":"长宁区法华镇路65号(淮海路口)"},{"poiid":"B2094654DB6BA7F54593","title":"新亚大包 兴国路店","lon":"121.43739739493","lat":"31.204392216969","category":"68","category_name":"快餐厅","address":"徐汇区兴国路408号(近淮海中路武康路)"},{"poiid":"B2094752D66FA1FF469F","title":"70后饭吧","lon":"121.432258","lat":"31.203279","category":"247","category_name":"餐饮美食","address":"汇金百货"},{"poiid":"B2094757D064A5FC439D","title":"红庄小区","lon":"121.433757","lat":"31.20223","category":"47","category_name":"住宅区","address":"新华路73弄35-47号"},{"poiid":"B2094655D26EA0F5449C","title":"花之林人文茶馆(华山店)","lon":"121.43477","lat":"31.2025","category":"66","category_name":"茶艺馆","address":"长宁区华山路1686号"},{"poiid":"B2094757D06AA5FB4599","title":"财瑞大厦","lon":"121.433553","lat":"31.205167","category":"46","category_name":"楼宇","address":"上海市长宁区华山路1568号"},{"poiid":"B2094757D469A2FC409A","title":"地平线 skyline","lon":"121.431913","lat":"31.203082","category":"172","category_name":"酒吧","address":"法华镇路455-4号近番愚路"},{"poiid":"B2094654DA6DA3F8419D","title":"上海交通大学徐汇校区(北门)","lon":"121.43278","lat":"31.20102","category":"52","category_name":"高等院校","address":""},{"poiid":"B2094757D068AAF84199","title":"上海交通大学钱学森图书馆","lon":"121.435496989","lat":"31.2013391905","category":"181","category_name":"图书馆","address":"徐汇区华山路1800号"},{"poiid":"B2094757D06EAAF4469F","title":"交通大学地铁站","lon":"121.434637","lat":"31.201981","category":"36","category_name":"地铁站","address":"上海轨道交通 十号线 轨交交通大学站 10"},{"poiid":"B2094757D068A2FA419F","title":"幸福路","lon":"121.431038586","lat":"31.2040639193","category":"260","category_name":"其他","address":"上海市长宁区幸福路"},{"poiid":"B2094757D06FA0F54899","title":"华山绿地","lon":"121.43312","lat":"31.2059","category":"196","category_name":"公园","address":"长宁区华山路平武路(近幸福路)"},{"poiid":"B2094654D564A6FC409F","title":"复旦中学","lon":"121.43437","lat":"31.20306","category":"55","category_name":"中学","address":"徐汇区华山路1626号(近淮海西路)"},{"poiid":"B2094757D469A3F9469E","title":"素人素食","lon":"121.434384","lat":"31.203704","category":"89","category_name":"中式素餐馆","address":"徐汇区华山路1585号(泰安路淮海西路)"},{"poiid":"B2094757D06FAAF4429B","title":"中村发型设计中心(华山路店)","lon":"121.43522","lat":"31.20261","category":"260","category_name":"其他","address":"上海徐汇区华山路1591号(淮海西路口)  "},{"poiid":"B2094757DA6EAAFC4198","title":"Aroom","lon":"121.435461000002","lat":"31.2060190000001","category":"260","category_name":"其他","address":"徐汇区泰安路120弄卫乐园15号(近华山路)"},{"poiid":"B2094757D068AAFB439A","title":"上海交通大学工程馆","lon":"121.43378196","lat":"31.2005447742","category":"253","category_name":"校园生活","address":"上海市徐汇区华山路1954号"},{"poiid":"B2094757D06FA2FB439D","title":"星巴克(华山国际店)","lon":"121.433629","lat":"31.205356","category":"260","category_name":"其他","address":"徐汇区华山路1568号华山国际大厦102座(近华山绿地)"},{"poiid":"B2094757D06AAAF5409D","title":"酷芝PIZZA COOLZEY","lon":"121.43455421439","lat":"31.20311280591","category":"94","category_name":"西餐厅","address":"徐汇区华山路1589号3号(近淮海中路)"},{"poiid":"B2094654DB6BA7F5469A","title":"逸谷餐厅","lon":"121.43748","lat":"31.20458","category":"70","category_name":"综合酒楼","address":"徐汇区兴国路380号(近淮海中路)"},{"poiid":"B2094757D068A0FD4092","title":"金萨岛伊斯兰风情餐吧(新华路店)","lon":"121.43161","lat":"31.20135","category":"90","category_name":"清真餐馆","address":"长宁区新华路60号(近淮海西路)"},{"poiid":"B2094757D06AA2FC409F","title":"复旦中学羽毛球馆","lon":"121.433770759","lat":"31.2032934808","category":"253","category_name":"校园生活","address":"上海徐汇区华山路1626号复旦中学体育馆内(近淮海西路)"},{"poiid":"B2094654DB6BA5F54193","title":"南洋模范中学","lon":"121.43667","lat":"31.20099","category":"55","category_name":"中学","address":"天平路200"},{"poiid":"B2094750D76EA2FF4799","title":"尊萃508公馆","lon":"121.436","lat":"31.2018","category":"76","category_name":"上海菜","address":"徐汇区华山路1731号(近淮海西路)"},{"poiid":"B2094757D065A6F4489D","title":"1号线人民广场站","lon":"121.433984586","lat":"31.2019978789","category":"500","category_name":"未知分类","address":"上海人民广场"},{"poiid":"B2094757D16BA4FD449C","title":"法华镇路番禺路","lon":"121.43102358","lat":"31.203950917","category":"500","category_name":"未知分类","address":"上海法华镇路番禺路"},{"poiid":"B2094750D26AABFC499B","title":"澄园","lon":"121.434806","lat":"31.204935","category":"260","category_name":"其他","address":"徐汇区泰安路115弄1号楼101室(近华山路)"},{"poiid":"B2094654DA6DA3FF4292","title":"上海西华酒店公寓","lon":"121.43513","lat":"31.2018","category":"214","category_name":"四星级宾馆","address":"上海市徐汇区淮海西路1号(华山路口)"},{"poiid":"B2094757D464A7FD4699","title":"MARDI GRAS","lon":"121.436810054","lat":"31.205342793","category":"94","category_name":"西餐厅","address":"徐汇区兴国路372弄1号(近泰安路)"},{"poiid":"B2094757D06BAAFF479D","title":"香奈造型(上海影城店)","lon":"121.43309858","lat":"31.202635891","category":"148","category_name":"美容美发店","address":"上海市长宁区法华镇路59号近淮海西路华山路(预约电话"},{"poiid":"B2094757D168AAF8409A","title":"永和豆浆","lon":"121.434330586","lat":"31.2038849158","category":"68","category_name":"快餐厅","address":"徐汇区华山路1603号(华山路淮海西路)"},{"poiid":"B2094757D06AA5F54292","title":"蒲记","lon":"121.43498","lat":"31.20357","category":"72","category_name":"广东菜","address":"徐汇区华山路1597号(近淮海中路)"},{"poiid":"B2094655D36CA7FC4393","title":"华山路淮海西路","lon":"121.4345","lat":"31.20352","category":"38","category_name":"公交车站","address":""},{"poiid":"B2094757D16CA3FB4293","title":"淮海西路","lon":"121.434335","lat":"31.204117","category":"500","category_name":"未知分类","address":"上海淮海西路"},{"poiid":"B2094757D069ABFC419B","title":"长颈鹿美语","lon":"121.436288","lat":"31.201712","category":"260","category_name":"其他","address":"徐汇区华山路1751号海斯大厦3楼(近淮海西路)"},{"poiid":"B2094655D26EA1FF469D","title":"金凤凰酒家","lon":"121.43513","lat":"31.2018","category":"247","category_name":"餐饮美食","address":"长宁区淮海西路1号西华酒店公寓4-5楼(华山路口)"},{"poiid":"B2094757D16AAAF94398","title":"华山路","lon":"121.43305858","lat":"31.206015957","category":"500","category_name":"未知分类","address":"上海市华山路淮海西路"},{"poiid":"B2094655D26EA5FF429A","title":"浦江之星(上海徐家汇店)","lon":"121.43475","lat":"31.20329","category":"250","category_name":"公园户外","address":"徐汇区华山路1621号(近淮海西路)"},{"poiid":"B2094753D069A1FC469D","title":"Nakamuraby中村","lon":"121.43457","lat":"31.20374","category":"148","category_name":"美容美发店","address":"徐汇区华山路1589号近泰安路(近泰安路)"},{"poiid":"B2094654DB69A7FB449D","title":"华山国际","lon":"121.43312","lat":"31.20492","category":"47","category_name":"住宅区","address":"上海市长宁区华山路1568号"},{"poiid":"B2094655D26EA2FF4193","title":"华山儿童公园","lon":"121.43473","lat":"31.20414","category":"196","category_name":"公园","address":"长宁区华山路1575号(华山路泰安路)"},{"poiid":"B2094752D06EA3FF4298","title":"小辉哥火锅","lon":"121.4343095487457","lat":"31.20029722177148","category":"247","category_name":"餐饮美食","address":"港汇恒隆广场5F538室"},{"poiid":"B2094757D069AAFF4299","title":"华山花苑","lon":"121.4355","lat":"31.203335","category":"252","category_name":"楼宇机构","address":"上海华山路1615号"},{"poiid":"B2094654DB6BA7F54599","title":"永琪美容美发(华山路)","lon":"121.43472","lat":"31.20338","category":"148","category_name":"美容美发店","address":"华山路1617"},{"poiid":"B2094655D26AA2F5479E","title":"李公祠","lon":"121.43437","lat":"31.20306","category":"247","category_name":"餐饮美食","address":"徐汇区华山路1626号复旦中学内(华山路淮海西路)"},{"poiid":"B2094751D564A3F9429B","title":"华山医院","lon":"121.434353","lat":"31.201086","category":"162","category_name":"医院","address":null},{"poiid":"B2094757D569A2F44892","title":"体育图书馆","lon":"121.4343789","lat":"31.203065","category":"181","category_name":"图书馆","address":"徐汇区华山路1626号(近淮海西路)"},{"poiid":"B2094757D06FA0FD4693","title":"Shanghai Studio","lon":"121.4377","lat":"31.20369","category":"260","category_name":"其他","address":"徐汇区淮海中路1950弄4号(近天平路)"},{"poiid":"B2094654DA6DA3FA489B","title":"南洋大楼","lon":"121.436","lat":"31.2052","category":"46","category_name":"楼宇","address":"徐汇区番禺路667号"},{"poiid":"B2094654DB64AAFB459D","title":"东镇小区","lon":"121.43402","lat":"31.202662","category":"47","category_name":"住宅区","address":"法华镇路25弄1"},{"poiid":"B2094654D564A6FC419D","title":"时尚造型(法华镇路)","lon":"121.43318","lat":"31.20273","category":"148","category_name":"美容美发店","address":"长宁区法华镇路65号(淮海路口)"},{"poiid":"B2094654DB6BA7F54593","title":"新亚大包 兴国路店","lon":"121.43739739493","lat":"31.204392216969","category":"68","category_name":"快餐厅","address":"徐汇区兴国路408号(近淮海中路武康路)"},{"poiid":"B2094752D66FA1FF469F","title":"70后饭吧","lon":"121.432258","lat":"31.203279","category":"247","category_name":"餐饮美食","address":"汇金百货"},{"poiid":"B2094757D064A5FC439D","title":"红庄小区","lon":"121.433757","lat":"31.20223","category":"47","category_name":"住宅区","address":"新华路73弄35-47号"},{"poiid":"B2094655D26EA0F5449C","title":"花之林人文茶馆(华山店)","lon":"121.43477","lat":"31.2025","category":"66","category_name":"茶艺馆","address":"长宁区华山路1686号"},{"poiid":"B2094757D06AA5FB4599","title":"财瑞大厦","lon":"121.433553","lat":"31.205167","category":"46","category_name":"楼宇","address":"上海市长宁区华山路1568号"},{"poiid":"B2094757D469A2FC409A","title":"地平线 skyline","lon":"121.431913","lat":"31.203082","category":"172","category_name":"酒吧","address":"法华镇路455-4号近番愚路"},{"poiid":"B2094654DA6DA3F8419D","title":"上海交通大学徐汇校区(北门)","lon":"121.43278","lat":"31.20102","category":"52","category_name":"高等院校","address":""}]