[{"poiid":"B2094757D06FA3F8469A","title":"场中路地铁站","lon":"121.41373969","lat":"31.303964334","category":"36","category_name":"地铁站","address":"上海轨道交通 七号线 轨交场中路站 7"},{"poiid":"B2094757D06FA3FF4999","title":"上海飞机制造有限公司","lon":"121.43297576","lat":"31.304088592","category":"263","category_name":"公司","address":"上海市闸北区场中路3115号"},{"poiid":"B2094757D06FA4FD439B","title":"场中路少年村路","lon":"121.429806911","lat":"31.3033917109","category":"500","category_name":"未知分类","address":"上海场中路少年村路"},{"poiid":"B2094757D06FA3F9489D","title":"上大路地铁站","lon":"121.40900643","lat":"31.314450071","category":"36","category_name":"地铁站","address":"上海轨道交通 七号线 轨交上大路站 7"},{"poiid":"B2094655D26FA6FB4792","title":"共康四村","lon":"121.43363","lat":"31.32072","category":"47","category_name":"住宅区","address":"长临路380弄1-185号"},{"poiid":"B2094757D06FA5FE4899","title":"家乐福(大场店)","lon":"121.41809409","lat":"31.302195446","category":"118","category_name":"超级市场","address":"上海宝山区场中路4048号"},{"poiid":"B2094654D464A6F54992","title":"共康三村","lon":"121.43672","lat":"31.314007","category":"47","category_name":"住宅区","address":"长临路200弄1-124号"},{"poiid":"B2094654D464A5F94692","title":"共康八村","lon":"121.43336","lat":"31.324244","category":"47","category_name":"住宅区","address":"长临路880弄"},{"poiid":"B2094757D068A1FA4092","title":"老盛昌苏州汤包馆(环镇北路店)","lon":"121.41023","lat":"31.30774","category":"87","category_name":"特色／地方风味餐厅","address":"宝山区场联路口(近环镇北路)"},{"poiid":"B2094757D069A0FD4493","title":"雪佛兰锦骏店","lon":"121.42529","lat":"31.303517","category":"500","category_name":"未知分类","address":"上海场中路3535-1号"},{"poiid":"B2094654DB65A6FA499B","title":"宝山区大场体育场","lon":"121.42079","lat":"31.30011","category":"224","category_name":"综合体育馆","address":"少年村路2号"},{"poiid":"B2094757D06FABF9459E","title":"大场医院","lon":"121.42565953","lat":"31.300639866","category":"162","category_name":"医院","address":"宝山区少年村路1号"},{"poiid":"B2094757D068ABFA4793","title":"中国人民解放军四七二四工厂","lon":"121.4311834","lat":"31.303639","category":"46","category_name":"楼宇","address":"上海场中路3127号"},{"poiid":"B2094757D16DA1FF469A","title":"新石器烤肉","lon":"121.41698291","lat":"31.302963749","category":"68","category_name":"快餐厅","address":"宝山区场中路4048号家乐福107A室"},{"poiid":"B2094757D069A4FC4492","title":"国药控股","lon":"121.43312095","lat":"31.308941804","category":"263","category_name":"公司","address":"上海市宝山区康宁路1089号"},{"poiid":"B2094757D068A3FF459F","title":"龙馨嘉园","lon":"121.4285","lat":"31.302309","category":"47","category_name":"住宅区","address":"上海场中路3386弄"},{"poiid":"B2094654DB65ABFF489C","title":"共康四村(东门)","lon":"121.43677","lat":"31.31838","category":"656","category_name":"大门","address":"长临路380弄1-185号"},{"poiid":"B2094757D068A1FB459C","title":"乾清园","lon":"121.41009","lat":"31.310429","category":"500","category_name":"未知分类","address":"上海市宝山区环镇北路152号"},{"poiid":"B2094654DB6AABF54998","title":"乾泽园","lon":"121.40899283552","lat":"31.316330635524","category":"47","category_name":"住宅区","address":"上海环镇北路699弄"},{"poiid":"B2094654D465A6FE4792","title":"大康公寓","lon":"121.42245","lat":"31.3202","category":"47","category_name":"住宅区","address":"共康路1089弄"},{"poiid":"B2094757D16CA5F44198","title":"长江西路共和新路","lon":"121.42527136","lat":"31.313066933","category":"500","category_name":"未知分类","address":"上海长江西路共和新路路口"},{"poiid":"B2094757D065A6F94298","title":"上海飞机设计研究院","lon":"121.43181395","lat":"31.3117188573","category":"500","category_name":"未知分类","address":"上海华夏中路800号"},{"poiid":"B2094757D06BA7F4429C","title":"噢谢特","lon":"121.42021965","lat":"31.31604494","category":"249","category_name":"购物服务","address":"上海噢谢特"},{"poiid":"B2094757DB68A5F5419B","title":"鱼林王 场中路店","lon":"121.428581054","lat":"31.303392793","category":"86","category_name":"火锅店","address":"闸北区场中路3333号(近少年村路)"},{"poiid":"B2094655D264A1FF4198","title":"乾澄园","lon":"121.415","lat":"31.3136","category":"47","category_name":"住宅区","address":"上海市宝山区环镇北路300弄"},{"poiid":"B2094757D169A0FF409F","title":"味千拉面(大场家乐福店)","lon":"121.41577065","lat":"31.3014165603","category":"95","category_name":"日本料理","address":"宝山区场中路4048号家乐福购物中心1楼(近守仁桥路)"},{"poiid":"B209475CD76FABFC479F","title":"宝山万达影城","lon":"121.42984","lat":"31.318515","category":"178","category_name":"电影院","address":"上海市 一二八纪念路"},{"poiid":"B2094757D068ABFF4293","title":"巴黎贝甜(长临路店)","lon":"121.43468695","lat":"31.3217860498","category":"67","category_name":"甜品店","address":"宝山区共康路555号(近大康度假城)"},{"poiid":"B2094757D06AA7FF4599","title":"大众4S店","lon":"121.42581526","lat":"31.30339024","category":"500","category_name":"未知分类","address":"上海场中路3525号"},{"poiid":"B2094757D169AAF9459B","title":"宜仕怡家","lon":"121.42443595","lat":"31.320389423","category":"47","category_name":"住宅区","address":"上海徐匯區龍華西路591弄"},{"poiid":"B2094655D36CA5F9429C","title":"长临路","lon":"121.43719","lat":"31.317","category":"38","category_name":"公交车站","address":""},{"poiid":"B2094757D16AABF84399","title":"上海大学 H楼","lon":"121.42936995","lat":"31.319323002","category":"500","category_name":"未知分类","address":"上海宝山区上大路99号"},{"poiid":"B2094757D064AAFD4293","title":"老绍兴三黄鸡酒家(沪太支路店)","lon":"121.4175","lat":"31.29954","category":"76","category_name":"上海菜","address":"宝山区沪太支路1388号"},{"poiid":"B2094757D16AA6FB429B","title":"南康","lon":"121.4308554","lat":"31.3149336","category":"500","category_name":"未知分类","address":"上海宝山区刘场路349弄"},{"poiid":"B2094757D168A0F5479E","title":"鑫亮酒家私房菜","lon":"121.42984","lat":"31.30287","category":"76","category_name":"上海菜","address":"闸北区少年村路740号(近场中路)"},{"poiid":"B2094654DB6AABF5499E","title":"上大阳光乾恩园","lon":"121.41116007124","lat":"31.315618633581","category":"47","category_name":"住宅区","address":"环镇北路655弄"},{"poiid":"B2094757D06BA3FC4892","title":"环镇北路500弄","lon":"121.412","lat":"31.3135","category":"500","category_name":"未知分类","address":"上海环镇北路500弄"},{"poiid":"B2094757D66CABFD4298","title":"东华苑","lon":"121.428531","lat":"31.309065","category":"500","category_name":"未知分类","address":"大场镇场中路界华路100弄"},{"poiid":"B2094655D264A0FB409D","title":"乾恩园二期","lon":"121.412691","lat":"31.313969","category":"47","category_name":"住宅区","address":"上海市宝山区环镇北路655弄"},{"poiid":"B2094757D16CA1FE439C","title":"La Paleta","lon":"121.42511749","lat":"31.320384979","category":"500","category_name":"未知分类","address":"上海彩色盘8839"},{"poiid":"B2094654DB6AA4F5419A","title":"美好家","lon":"121.433","lat":"31.3082","category":"47","category_name":"住宅区","address":"美好家位于宝山场中路3426号"},{"poiid":"B2094654D465A4FE439E","title":"共康便利店(共康路)","lon":"121.42732","lat":"31.3206","category":"117","category_name":"便民商店/便利店","address":"共康路888号"},{"poiid":"B2094655D36DA6FE4399","title":"上大路","lon":"121.40928","lat":"31.31367","category":"38","category_name":"公交车站","address":""},{"poiid":"B2094757D16AA2F8459F","title":"宝安公路","lon":"121.42395095","lat":"31.3204129235","category":"500","category_name":"未知分类","address":"上海宝安公路"},{"poiid":"B2094757D065A3FF409D","title":"重庆鸡公煲 环镇北路店","lon":"121.409784054","lat":"31.307759793","category":"71","category_name":"四川菜","address":"宝山区环镇北路364号(近场联路)"},{"poiid":"B2094753D46AA5F44099","title":"临汾路夜市","lon":"121.428428","lat":"31.321561","category":"247","category_name":"餐饮美食","address":"上海市 临汾路"},{"poiid":"B2094757D568A7FC4899","title":"如家快捷酒店(场中路店)","lon":"121.42792806","lat":"31.30356852","category":"216","category_name":"经济型连锁酒店","address":"上海市宝山区场中路3333号"},{"poiid":"B209475CDB69A6FC4999","title":"上海飞机制造有限公司","lon":"121.428932","lat":"31.308853","category":"263","category_name":"公司","address":"上海市 场中路3115号"},{"poiid":"B2094655D26AA0F94599","title":"地铁上大路站","lon":"121.40928","lat":"31.31367","category":"36","category_name":"地铁站","address":""},{"poiid":"B2094654D465A4FE409E","title":"华联超市No.1645","lon":"121.42928","lat":"31.32097","category":"118","category_name":"超级市场","address":"共康路857识别"},{"poiid":"B2094757D06FA3F8469A","title":"场中路地铁站","lon":"121.41373969","lat":"31.303964334","category":"36","category_name":"地铁站","address":"上海轨道交通 七号线 轨交场中路站 7"},{"poiid":"B2094757D06FA3FF4999","title":"上海飞机制造有限公司","lon":"121.43297576","lat":"31.304088592","category":"263","category_name":"公司","address":"上海市闸北区场中路3115号"},{"poiid":"B2094757D06FA4FD439B","title":"场中路少年村路","lon":"121.429806911","lat":"31.3033917109","category":"500","category_name":"未知分类","address":"上海场中路少年村路"},{"poiid":"B2094757D06FA3F9489D","title":"上大路地铁站","lon":"121.40900643","lat":"31.314450071","category":"36","category_name":"地铁站","address":"上海轨道交通 七号线 轨交上大路站 7"},{"poiid":"B2094655D26FA6FB4792","title":"共康四村","lon":"121.43363","lat":"31.32072","category":"47","category_name":"住宅区","address":"长临路380弄1-185号"},{"poiid":"B2094757D06FA5FE4899","title":"家乐福(大场店)","lon":"121.41809409","lat":"31.302195446","category":"118","category_name":"超级市场","address":"上海宝山区场中路4048号"},{"poiid":"B2094654D464A6F54992","title":"共康三村","lon":"121.43672","lat":"31.314007","category":"47","category_name":"住宅区","address":"长临路200弄1-124号"},{"poiid":"B2094654D464A5F94692","title":"共康八村","lon":"121.43336","lat":"31.324244","category":"47","category_name":"住宅区","address":"长临路880弄"},{"poiid":"B2094757D068A1FA4092","title":"老盛昌苏州汤包馆(环镇北路店)","lon":"121.41023","lat":"31.30774","category":"87","category_name":"特色／地方风味餐厅","address":"宝山区场联路口(近环镇北路)"},{"poiid":"B2094757D069A0FD4493","title":"雪佛兰锦骏店","lon":"121.42529","lat":"31.303517","category":"500","category_name":"未知分类","address":"上海场中路3535-1号"},{"poiid":"B2094654DB65A6FA499B","title":"宝山区大场体育场","lon":"121.42079","lat":"31.30011","category":"224","category_name":"综合体育馆","address":"少年村路2号"},{"poiid":"B2094757D06FABF9459E","title":"大场医院","lon":"121.42565953","lat":"31.300639866","category":"162","category_name":"医院","address":"宝山区少年村路1号"},{"poiid":"B2094757D068ABFA4793","title":"中国人民解放军四七二四工厂","lon":"121.4311834","lat":"31.303639","category":"46","category_name":"楼宇","address":"上海场中路3127号"},{"poiid":"B2094757D16DA1FF469A","title":"新石器烤肉","lon":"121.41698291","lat":"31.302963749","category":"68","category_name":"快餐厅","address":"宝山区场中路4048号家乐福107A室"},{"poiid":"B2094757D069A4FC4492","title":"国药控股","lon":"121.43312095","lat":"31.308941804","category":"263","category_name":"公司","address":"上海市宝山区康宁路1089号"},{"poiid":"B2094757D068A3FF459F","title":"龙馨嘉园","lon":"121.4285","lat":"31.302309","category":"47","category_name":"住宅区","address":"上海场中路3386弄"},{"poiid":"B2094654DB65ABFF489C","title":"共康四村(东门)","lon":"121.43677","lat":"31.31838","category":"656","category_name":"大门","address":"长临路380弄1-185号"},{"poiid":"B2094757D068A1FB459C","title":"乾清园","lon":"121.41009","lat":"31.310429","category":"500","category_name":"未知分类","address":"上海市宝山区环镇北路152号"},{"poiid":"B2094654DB6AABF54998","title":"乾泽园","lon":"121.40899283552","lat":"31.316330635524","category":"47","category_name":"住宅区","address":"上海环镇北路699弄"},{"poiid":"B2094654D465A6FE4792","title":"大康公寓","lon":"121.42245","lat":"31.3202","category":"47","category_name":"住宅区","address":"共康路1089弄"},{"poiid":"B2094757D16CA5F44198","title":"长江西路共和新路","lon":"121.42527136","lat":"31.313066933","category":"500","category_name":"未知分类","address":"上海长江西路共和新路路口"},{"poiid":"B2094757D065A6F94298","title":"上海飞机设计研究院","lon":"121.43181395","lat":"31.3117188573","category":"500","category_name":"未知分类","address":"上海华夏中路800号"},{"poiid":"B2094757D06BA7F4429C","title":"噢谢特","lon":"121.42021965","lat":"31.31604494","category":"249","category_name":"购物服务","address":"上海噢谢特"},{"poiid":"B2094757DB68A5F5419B","title":"鱼林王 场中路店","lon":"121.428581054","lat":"31.303392793","category":"86","category_name":"火锅店","address":"闸北区场中路3333号(近少年村路)"},{"poiid":"B2094655D264A1FF4198","title":"乾澄园","lon":"121.415","lat":"31.3136","category":"47","category_name":"住宅区","address":"上海市宝山区环镇北路300弄"},{"poiid":"B2094757D169A0FF409F","title":"味千拉面(大场家乐福店)","lon":"121.41577065","lat":"31.3014165603","category":"95","category_name":"日本料理","address":"宝山区场中路4048号家乐福购物中心1楼(近守仁桥路)"},{"poiid":"B209475CD76FABFC479F","title":"宝山万达影城","lon":"121.42984","lat":"31.318515","category":"178","category_name":"电影院","address":"上海市 一二八纪念路"},{"poiid":"B2094757D068ABFF4293","title":"巴黎贝甜(长临路店)","lon":"121.43468695","lat":"31.3217860498","category":"67","category_name":"甜品店","address":"宝山区共康路555号(近大康度假城)"},{"poiid":"B2094757D06AA7FF4599","title":"大众4S店","lon":"121.42581526","lat":"31.30339024","category":"500","category_name":"未知分类","address":"上海场中路3525号"},{"poiid":"B2094757D169AAF9459B","title":"宜仕怡家","lon":"121.42443595","lat":"31.320389423","category":"47","category_name":"住宅区","address":"上海徐匯區龍華西路591弄"},{"poiid":"B2094655D36CA5F9429C","title":"长临路","lon":"121.43719","lat":"31.317","category":"38","category_name":"公交车站","address":""},{"poiid":"B2094757D16AABF84399","title":"上海大学 H楼","lon":"121.42936995","lat":"31.319323002","category":"500","category_name":"未知分类","address":"上海宝山区上大路99号"},{"poiid":"B2094757D064AAFD4293","title":"老绍兴三黄鸡酒家(沪太支路店)","lon":"121.4175","lat":"31.29954","category":"76","category_name":"上海菜","address":"宝山区沪太支路1388号"},{"poiid":"B2094757D16AA6FB429B","title":"南康","lon":"121.4308554","lat":"31.3149336","category":"500","category_name":"未知分类","address":"上海宝山区刘场路349弄"},{"poiid":"B2094757D168A0F5479E","title":"鑫亮酒家私房菜","lon":"121.42984","lat":"31.30287","category":"76","category_name":"上海菜","address":"闸北区少年村路740号(近场中路)"},{"poiid":"B2094654DB6AABF5499E","title":"上大阳光乾恩园","lon":"121.41116007124","lat":"31.315618633581","category":"47","category_name":"住宅区","address":"环镇北路655弄"},{"poiid":"B2094757D06BA3FC4892","title":"环镇北路500弄","lon":"121.412","lat":"31.3135","category":"500","category_name":"未知分类","address":"上海环镇北路500弄"},{"poiid":"B2094757D66CABFD4298","title":"东华苑","lon":"121.428531","lat":"31.309065","category":"500","category_name":"未知分类","address":"大场镇场中路界华路100弄"},{"poiid":"B2094655D264A0FB409D","title":"乾恩园二期","lon":"121.412691","lat":"31.313969","category":"47","category_name":"住宅区","address":"上海市宝山区环镇北路655弄"},{"poiid":"B2094757D16CA1FE439C","title":"La Paleta","lon":"121.42511749","lat":"31.320384979","category":"500","category_name":"未知分类","address":"上海彩色盘8839"},{"poiid":"B2094654DB6AA4F5419A","title":"美好家","lon":"121.433","lat":"31.3082","category":"47","category_name":"住宅区","address":"美好家位于宝山场中路3426号"},{"poiid":"B2094654D465A4FE439E","title":"共康便利店(共康路)","lon":"121.42732","lat":"31.3206","category":"117","category_name":"便民商店/便利店","address":"共康路888号"},{"poiid":"B2094655D36DA6FE4399","title":"上大路","lon":"121.40928","lat":"31.31367","category":"38","category_name":"公交车站","address":""},{"poiid":"B2094757D16AA2F8459F","title":"宝安公路","lon":"121.42395095","lat":"31.3204129235","category":"500","category_name":"未知分类","address":"上海宝安公路"},{"poiid":"B2094757D065A3FF409D","title":"重庆鸡公煲 环镇北路店","lon":"121.409784054","lat":"31.307759793","category":"71","category_name":"四川菜","address":"宝山区环镇北路364号(近场联路)"},{"poiid":"B2094753D46AA5F44099","title":"临汾路夜市","lon":"121.428428","lat":"31.321561","category":"247","category_name":"餐饮美食","address":"上海市 临汾路"},{"poiid":"B2094757D568A7FC4899","title":"如家快捷酒店(场中路店)","lon":"121.42792806","lat":"31.30356852","category":"216","category_name":"经济型连锁酒店","address":"上海市宝山区场中路3333号"},{"poiid":"B209475CDB69A6FC4999","title":"上海飞机制造有限公司","lon":"121.428932","lat":"31.308853","category":"263","category_name":"公司","address":"上海市 场中路3115号"},{"poiid":"B2094655D26AA0F94599","title":"地铁上大路站","lon":"121.40928","lat":"31.31367","category":"36","category_name":"地铁站","address":""},{"poiid":"B2094654D465A4FE409E","title":"华联超市No.1645","lon":"121.42928","lat":"31.32097","category":"118","category_name":"超级市场","address":"共康路857识别"},{"poiid":"B2094757D06FA3F8469A","title":"场中路地铁站","lon":"121.41373969","lat":"31.303964334","category":"36","category_name":"地铁站","address":"上海轨道交通 七号线 轨交场中路站 7"},{"poiid":"B2094757D06FA3FF4999","title":"上海飞机制造有限公司","lon":"121.43297576","lat":"31.304088592","category":"263","category_name":"公司","address":"上海市闸北区场中路3115号"},{"poiid":"B2094757D06FA4FD439B","title":"场中路少年村路","lon":"121.429806911","lat":"31.3033917109","category":"500","category_name":"未知分类","address":"上海场中路少年村路"},{"poiid":"B2094757D06FA3F9489D","title":"上大路地铁站","lon":"121.40900643","lat":"31.314450071","category":"36","category_name":"地铁站","address":"上海轨道交通 七号线 轨交上大路站 7"},{"poiid":"B2094655D26FA6FB4792","title":"共康四村","lon":"121.43363","lat":"31.32072","category":"47","category_name":"住宅区","address":"长临路380弄1-185号"},{"poiid":"B2094757D06FA5FE4899","title":"家乐福(大场店)","lon":"121.41809409","lat":"31.302195446","category":"118","category_name":"超级市场","address":"上海宝山区场中路4048号"},{"poiid":"B2094654D464A6F54992","title":"共康三村","lon":"121.43672","lat":"31.314007","category":"47","category_name":"住宅区","address":"长临路200弄1-124号"},{"poiid":"B2094654D464A5F94692","title":"共康八村","lon":"121.43336","lat":"31.324244","category":"47","category_name":"住宅区","address":"长临路880弄"},{"poiid":"B2094757D068A1FA4092","title":"老盛昌苏州汤包馆(环镇北路店)","lon":"121.41023","lat":"31.30774","category":"87","category_name":"特色／地方风味餐厅","address":"宝山区场联路口(近环镇北路)"},{"poiid":"B2094757D069A0FD4493","title":"雪佛兰锦骏店","lon":"121.42529","lat":"31.303517","category":"500","category_name":"未知分类","address":"上海场中路3535-1号"},{"poiid":"B2094654DB65A6FA499B","title":"宝山区大场体育场","lon":"121.42079","lat":"31.30011","category":"224","category_name":"综合体育馆","address":"少年村路2号"},{"poiid":"B2094757D06FABF9459E","title":"大场医院","lon":"121.42565953","lat":"31.300639866","category":"162","category_name":"医院","address":"宝山区少年村路1号"},{"poiid":"B2094757D068ABFA4793","title":"中国人民解放军四七二四工厂","lon":"121.4311834","lat":"31.303639","category":"46","category_name":"楼宇","address":"上海场中路3127号"},{"poiid":"B2094757D16DA1FF469A","title":"新石器烤肉","lon":"121.41698291","lat":"31.302963749","category":"68","category_name":"快餐厅","address":"宝山区场中路4048号家乐福107A室"},{"poiid":"B2094757D069A4FC4492","title":"国药控股","lon":"121.43312095","lat":"31.308941804","category":"263","category_name":"公司","address":"上海市宝山区康宁路1089号"},{"poiid":"B2094757D068A3FF459F","title":"龙馨嘉园","lon":"121.4285","lat":"31.302309","category":"47","category_name":"住宅区","address":"上海场中路3386弄"},{"poiid":"B2094654DB65ABFF489C","title":"共康四村(东门)","lon":"121.43677","lat":"31.31838","category":"656","category_name":"大门","address":"长临路380弄1-185号"},{"poiid":"B2094757D068A1FB459C","title":"乾清园","lon":"121.41009","lat":"31.310429","category":"500","category_name":"未知分类","address":"上海市宝山区环镇北路152号"},{"poiid":"B2094654DB6AABF54998","title":"乾泽园","lon":"121.40899283552","lat":"31.316330635524","category":"47","category_name":"住宅区","address":"上海环镇北路699弄"},{"poiid":"B2094654D465A6FE4792","title":"大康公寓","lon":"121.42245","lat":"31.3202","category":"47","category_name":"住宅区","address":"共康路1089弄"},{"poiid":"B2094757D16CA5F44198","title":"长江西路共和新路","lon":"121.42527136","lat":"31.313066933","category":"500","category_name":"未知分类","address":"上海长江西路共和新路路口"},{"poiid":"B2094757D065A6F94298","title":"上海飞机设计研究院","lon":"121.43181395","lat":"31.3117188573","category":"500","category_name":"未知分类","address":"上海华夏中路800号"},{"poiid":"B2094757D06BA7F4429C","title":"噢谢特","lon":"121.42021965","lat":"31.31604494","category":"249","category_name":"购物服务","address":"上海噢谢特"},{"poiid":"B2094757DB68A5F5419B","title":"鱼林王 场中路店","lon":"121.428581054","lat":"31.303392793","category":"86","category_name":"火锅店","address":"闸北区场中路3333号(近少年村路)"},{"poiid":"B2094655D264A1FF4198","title":"乾澄园","lon":"121.415","lat":"31.3136","category":"47","category_name":"住宅区","address":"上海市宝山区环镇北路300弄"},{"poiid":"B2094757D169A0FF409F","title":"味千拉面(大场家乐福店)","lon":"121.41577065","lat":"31.3014165603","category":"95","category_name":"日本料理","address":"宝山区场中路4048号家乐福购物中心1楼(近守仁桥路)"},{"poiid":"B209475CD76FABFC479F","title":"宝山万达影城","lon":"121.42984","lat":"31.318515","category":"178","category_name":"电影院","address":"上海市 一二八纪念路"},{"poiid":"B2094757D068ABFF4293","title":"巴黎贝甜(长临路店)","lon":"121.43468695","lat":"31.3217860498","category":"67","category_name":"甜品店","address":"宝山区共康路555号(近大康度假城)"},{"poiid":"B2094757D06AA7FF4599","title":"大众4S店","lon":"121.42581526","lat":"31.30339024","category":"500","category_name":"未知分类","address":"上海场中路3525号"},{"poiid":"B2094757D169AAF9459B","title":"宜仕怡家","lon":"121.42443595","lat":"31.320389423","category":"47","category_name":"住宅区","address":"上海徐匯區龍華西路591弄"},{"poiid":"B2094655D36CA5F9429C","title":"长临路","lon":"121.43719","lat":"31.317","category":"38","category_name":"公交车站","address":""},{"poiid":"B2094757D16AABF84399","title":"上海大学 H楼","lon":"121.42936995","lat":"31.319323002","category":"500","category_name":"未知分类","address":"上海宝山区上大路99号"},{"poiid":"B2094757D064AAFD4293","title":"老绍兴三黄鸡酒家(沪太支路店)","lon":"121.4175","lat":"31.29954","category":"76","category_name":"上海菜","address":"宝山区沪太支路1388号"},{"poiid":"B2094757D16AA6FB429B","title":"南康","lon":"121.4308554","lat":"31.3149336","category":"500","category_name":"未知分类","address":"上海宝山区刘场路349弄"},{"poiid":"B2094757D168A0F5479E","title":"鑫亮酒家私房菜","lon":"121.42984","lat":"31.30287","category":"76","category_name":"上海菜","address":"闸北区少年村路740号(近场中路)"},{"poiid":"B2094654DB6AABF5499E","title":"上大阳光乾恩园","lon":"121.41116007124","lat":"31.315618633581","category":"47","category_name":"住宅区","address":"环镇北路655弄"},{"poiid":"B2094757D06BA3FC4892","title":"环镇北路500弄","lon":"121.412","lat":"31.3135","category":"500","category_name":"未知分类","address":"上海环镇北路500弄"},{"poiid":"B2094757D66CABFD4298","title":"东华苑","lon":"121.428531","lat":"31.309065","category":"500","category_name":"未知分类","address":"大场镇场中路界华路100弄"},{"poiid":"B2094655D264A0FB409D","title":"乾恩园二期","lon":"121.412691","lat":"31.313969","category":"47","category_name":"住宅区","address":"上海市宝山区环镇北路655弄"},{"poiid":"B2094757D16CA1FE439C","title":"La Paleta","lon":"121.42511749","lat":"31.320384979","category":"500","category_name":"未知分类","address":"上海彩色盘8839"},{"poiid":"B2094654DB6AA4F5419A","title":"美好家","lon":"121.433","lat":"31.3082","category":"47","category_name":"住宅区","address":"美好家位于宝山场中路3426号"},{"poiid":"B2094654D465A4FE439E","title":"共康便利店(共康路)","lon":"121.42732","lat":"31.3206","category":"117","category_name":"便民商店/便利店","address":"共康路888号"},{"poiid":"B2094655D36DA6FE4399","title":"上大路","lon":"121.40928","lat":"31.31367","category":"38","category_name":"公交车站","address":""},{"poiid":"B2094757D16AA2F8459F","title":"宝安公路","lon":"121.42395095","lat":"31.3204129235","category":"500","category_name":"未知分类","address":"上海宝安公路"},{"poiid":"B2094757D065A3FF409D","title":"重庆鸡公煲 环镇北路店","lon":"121.409784054","lat":"31.307759793","category":"71","category_name":"四川菜","address":"宝山区环镇北路364号(近场联路)"},{"poiid":"B2094753D46AA5F44099","title":"临汾路夜市","lon":"121.428428","lat":"31.321561","category":"247","category_name":"餐饮美食","address":"上海市 临汾路"},{"poiid":"B2094757D568A7FC4899","title":"如家快捷酒店(场中路店)","lon":"121.42792806","lat":"31.30356852","category":"216","category_name":"经济型连锁酒店","address":"上海市宝山区场中路3333号"},{"poiid":"B209475CDB69A6FC4999","title":"上海飞机制造有限公司","lon":"121.428932","lat":"31.308853","category":"263","category_name":"公司","address":"上海市 场中路3115号"},{"poiid":"B2094655D26AA0F94599","title":"地铁上大路站","lon":"121.40928","lat":"31.31367","category":"36","category_name":"地铁站","address":""},{"poiid":"B2094654D465A4FE409E","title":"华联超市No.1645","lon":"121.42928","lat":"31.32097","category":"118","category_name":"超级市场","address":"共康路857识别"},{"poiid":"B2094757D06FA3F8469A","title":"场中路地铁站","lon":"121.41373969","lat":"31.303964334","category":"36","category_name":"地铁站","address":"上海轨道交通 七号线 轨交场中路站 7"},{"poiid":"B2094757D06FA3FF4999","title":"上海飞机制造有限公司","lon":"121.43297576","lat":"31.304088592","category":"263","category_name":"公司","address":"上海市闸北区场中路3115号"},{"poiid":"B2094757D06FA4FD439B","title":"场中路少年村路","lon":"121.429806911","lat":"31.3033917109","category":"500","category_name":"未知分类","address":"上海场中路少年村路"},{"poiid":"B2094757D06FA3F9489D","title":"上大路地铁站","lon":"121.40900643","lat":"31.314450071","category":"36","category_name":"地铁站","address":"上海轨道交通 七号线 轨交上大路站 7"},{"poiid":"B2094655D26FA6FB4792","title":"共康四村","lon":"121.43363","lat":"31.32072","category":"47","category_name":"住宅区","address":"长临路380弄1-185号"},{"poiid":"B2094757D06FA5FE4899","title":"家乐福(大场店)","lon":"121.41809409","lat":"31.302195446","category":"118","category_name":"超级市场","address":"上海宝山区场中路4048号"},{"poiid":"B2094654D464A6F54992","title":"共康三村","lon":"121.43672","lat":"31.314007","category":"47","category_name":"住宅区","address":"长临路200弄1-124号"},{"poiid":"B2094654D464A5F94692","title":"共康八村","lon":"121.43336","lat":"31.324244","category":"47","category_name":"住宅区","address":"长临路880弄"},{"poiid":"B2094757D068A1FA4092","title":"老盛昌苏州汤包馆(环镇北路店)","lon":"121.41023","lat":"31.30774","category":"87","category_name":"特色／地方风味餐厅","address":"宝山区场联路口(近环镇北路)"},{"poiid":"B2094757D069A0FD4493","title":"雪佛兰锦骏店","lon":"121.42529","lat":"31.303517","category":"500","category_name":"未知分类","address":"上海场中路3535-1号"},{"poiid":"B2094654DB65A6FA499B","title":"宝山区大场体育场","lon":"121.42079","lat":"31.30011","category":"224","category_name":"综合体育馆","address":"少年村路2号"},{"poiid":"B2094757D06FABF9459E","title":"大场医院","lon":"121.42565953","lat":"31.300639866","category":"162","category_name":"医院","address":"宝山区少年村路1号"},{"poiid":"B2094757D068ABFA4793","title":"中国人民解放军四七二四工厂","lon":"121.4311834","lat":"31.303639","category":"46","category_name":"楼宇","address":"上海场中路3127号"},{"poiid":"B2094757D16DA1FF469A","title":"新石器烤肉","lon":"121.41698291","lat":"31.302963749","category":"68","category_name":"快餐厅","address":"宝山区场中路4048号家乐福107A室"},{"poiid":"B2094757D069A4FC4492","title":"国药控股","lon":"121.43312095","lat":"31.308941804","category":"263","category_name":"公司","address":"上海市宝山区康宁路1089号"},{"poiid":"B2094757D068A3FF459F","title":"龙馨嘉园","lon":"121.4285","lat":"31.302309","category":"47","category_name":"住宅区","address":"上海场中路3386弄"},{"poiid":"B2094654DB65ABFF489C","title":"共康四村(东门)","lon":"121.43677","lat":"31.31838","category":"656","category_name":"大门","address":"长临路380弄1-185号"},{"poiid":"B2094757D068A1FB459C","title":"乾清园","lon":"121.41009","lat":"31.310429","category":"500","category_name":"未知分类","address":"上海市宝山区环镇北路152号"},{"poiid":"B2094654DB6AABF54998","title":"乾泽园","lon":"121.40899283552","lat":"31.316330635524","category":"47","category_name":"住宅区","address":"上海环镇北路699弄"},{"poiid":"B2094654D465A6FE4792","title":"大康公寓","lon":"121.42245","lat":"31.3202","category":"47","category_name":"住宅区","address":"共康路1089弄"},{"poiid":"B2094757D16CA5F44198","title":"长江西路共和新路","lon":"121.42527136","lat":"31.313066933","category":"500","category_name":"未知分类","address":"上海长江西路共和新路路口"},{"poiid":"B2094757D065A6F94298","title":"上海飞机设计研究院","lon":"121.43181395","lat":"31.3117188573","category":"500","category_name":"未知分类","address":"上海华夏中路800号"},{"poiid":"B2094757D06BA7F4429C","title":"噢谢特","lon":"121.42021965","lat":"31.31604494","category":"249","category_name":"购物服务","address":"上海噢谢特"},{"poiid":"B2094757DB68A5F5419B","title":"鱼林王 场中路店","lon":"121.428581054","lat":"31.303392793","category":"86","category_name":"火锅店","address":"闸北区场中路3333号(近少年村路)"},{"poiid":"B2094655D264A1FF4198","title":"乾澄园","lon":"121.415","lat":"31.3136","category":"47","category_name":"住宅区","address":"上海市宝山区环镇北路300弄"},{"poiid":"B2094757D169A0FF409F","title":"味千拉面(大场家乐福店)","lon":"121.41577065","lat":"31.3014165603","category":"95","category_name":"日本料理","address":"宝山区场中路4048号家乐福购物中心1楼(近守仁桥路)"},{"poiid":"B209475CD76FABFC479F","title":"宝山万达影城","lon":"121.42984","lat":"31.318515","category":"178","category_name":"电影院","address":"上海市 一二八纪念路"},{"poiid":"B2094757D068ABFF4293","title":"巴黎贝甜(长临路店)","lon":"121.43468695","lat":"31.3217860498","category":"67","category_name":"甜品店","address":"宝山区共康路555号(近大康度假城)"},{"poiid":"B2094757D06AA7FF4599","title":"大众4S店","lon":"121.42581526","lat":"31.30339024","category":"500","category_name":"未知分类","address":"上海场中路3525号"},{"poiid":"B2094757D169AAF9459B","title":"宜仕怡家","lon":"121.42443595","lat":"31.320389423","category":"47","category_name":"住宅区","address":"上海徐匯區龍華西路591弄"},{"poiid":"B2094655D36CA5F9429C","title":"长临路","lon":"121.43719","lat":"31.317","category":"38","category_name":"公交车站","address":""},{"poiid":"B2094757D16AABF84399","title":"上海大学 H楼","lon":"121.42936995","lat":"31.319323002","category":"500","category_name":"未知分类","address":"上海宝山区上大路99号"},{"poiid":"B2094757D064AAFD4293","title":"老绍兴三黄鸡酒家(沪太支路店)","lon":"121.4175","lat":"31.29954","category":"76","category_name":"上海菜","address":"宝山区沪太支路1388号"},{"poiid":"B2094757D16AA6FB429B","title":"南康","lon":"121.4308554","lat":"31.3149336","category":"500","category_name":"未知分类","address":"上海宝山区刘场路349弄"},{"poiid":"B2094757D168A0F5479E","title":"鑫亮酒家私房菜","lon":"121.42984","lat":"31.30287","category":"76","category_name":"上海菜","address":"闸北区少年村路740号(近场中路)"},{"poiid":"B2094654DB6AABF5499E","title":"上大阳光乾恩园","lon":"121.41116007124","lat":"31.315618633581","category":"47","category_name":"住宅区","address":"环镇北路655弄"},{"poiid":"B2094757D06BA3FC4892","title":"环镇北路500弄","lon":"121.412","lat":"31.3135","category":"500","category_name":"未知分类","address":"上海环镇北路500弄"},{"poiid":"B2094757D66CABFD4298","title":"东华苑","lon":"121.428531","lat":"31.309065","category":"500","category_name":"未知分类","address":"大场镇场中路界华路100弄"},{"poiid":"B2094655D264A0FB409D","title":"乾恩园二期","lon":"121.412691","lat":"31.313969","category":"47","category_name":"住宅区","address":"上海市宝山区环镇北路655弄"},{"poiid":"B2094757D16CA1FE439C","title":"La Paleta","lon":"121.42511749","lat":"31.320384979","category":"500","category_name":"未知分类","address":"上海彩色盘8839"},{"poiid":"B2094654DB6AA4F5419A","title":"美好家","lon":"121.433","lat":"31.3082","category":"47","category_name":"住宅区","address":"美好家位于宝山场中路3426号"},{"poiid":"B2094654D465A4FE439E","title":"共康便利店(共康路)","lon":"121.42732","lat":"31.3206","category":"117","category_name":"便民商店/便利店","address":"共康路888号"},{"poiid":"B2094655D36DA6FE4399","title":"上大路","lon":"121.40928","lat":"31.31367","category":"38","category_name":"公交车站","address":""},{"poiid":"B2094757D16AA2F8459F","title":"宝安公路","lon":"121.42395095","lat":"31.3204129235","category":"500","category_name":"未知分类","address":"上海宝安公路"},{"poiid":"B2094757D065A3FF409D","title":"重庆鸡公煲 环镇北路店","lon":"121.409784054","lat":"31.307759793","category":"71","category_name":"四川菜","address":"宝山区环镇北路364号(近场联路)"},{"poiid":"B2094753D46AA5F44099","title":"临汾路夜市","lon":"121.428428","lat":"31.321561","category":"247","category_name":"餐饮美食","address":"上海市 临汾路"},{"poiid":"B2094757D568A7FC4899","title":"如家快捷酒店(场中路店)","lon":"121.42792806","lat":"31.30356852","category":"216","category_name":"经济型连锁酒店","address":"上海市宝山区场中路3333号"},{"poiid":"B209475CDB69A6FC4999","title":"上海飞机制造有限公司","lon":"121.428932","lat":"31.308853","category":"263","category_name":"公司","address":"上海市 场中路3115号"},{"poiid":"B2094655D26AA0F94599","title":"地铁上大路站","lon":"121.40928","lat":"31.31367","category":"36","category_name":"地铁站","address":""},{"poiid":"B2094654D465A4FE409E","title":"华联超市No.1645","lon":"121.42928","lat":"31.32097","category":"118","category_name":"超级市场","address":"共康路857识别"}]