[{"poiid":"B2094654D569AAFC449B","title":"上海动物园","lon":"121.36272202550413","lat":"31.194404631992096","category":"197","category_name":"动物园","address":"虹桥路2381号。"},{"poiid":"B2094757D06BABFE4698","title":"虹桥机场2号航站楼21号登机口","lon":"121.35440496","lat":"31.1979483666","category":"21","category_name":"飞机场","address":"上海虹桥机场T2"},{"poiid":"B2094757D06AA3FA439E","title":"虹桥1号楼","lon":"121.3544507","lat":"31.1985262788","category":"252","category_name":"楼宇机构","address":"上海虹桥机场"},{"poiid":"B2094757D168A5FB479C","title":"西郊动物园","lon":"121.357255586","lat":"31.1915996757","category":"500","category_name":"未知分类","address":"上海"},{"poiid":"B2094757D065A2F84892","title":"虹橋機場一號航站樓","lon":"121.34894756","lat":"31.1947728996","category":"500","category_name":"未知分类","address":"上海虹橋機場一號航站樓"},{"poiid":"B2094757D465A3F9479B","title":"金庭喜庆庄园","lon":"121.35713606994057","lat":"31.204823643244364","category":"214","category_name":"四星级宾馆","address":"上海长宁区协和路1号"},{"poiid":"B2094757D06FA7FA4699","title":"上海市交通警察总队车辆管理所(一分所)","lon":"121.366082","lat":"31.2012371","category":"252","category_name":"楼宇机构","address":"上海长宁区哈密路1330号"},{"poiid":"B2094757D06FA1F5499E","title":"龙柏饭店","lon":"121.35993957","lat":"31.190093994","category":"217","category_name":"旅馆招待所","address":"上海市长宁区虹桥路2419号(近沪青平公路)"},{"poiid":"B2094757D068A5F9469D","title":"上海国际旅行卫生保健中心","lon":"121.36435699","lat":"31.198169708","category":"162","category_name":"医院","address":"长宁区金浜路15号(近哈密路)"},{"poiid":"B2094757D165A1F44792","title":"上海动物园大猩猩馆","lon":"121.362465586","lat":"31.1930057032","category":"500","category_name":"未知分类","address":"上海动物园"},{"poiid":"B2094757D16CA4FF459D","title":"虹桥机场2号航站楼27号登机口","lon":"121.35021209","lat":"31.192869186","category":"21","category_name":"飞机场","address":"上海虹桥机场T2"},{"poiid":"B2094655D26FA4F84692","title":"上海金庭酒店","lon":"121.35617","lat":"31.20397","category":"250","category_name":"公园户外","address":"上海市长宁区协和路1号（近新泾路）"},{"poiid":"B2094757D065A1FD4298","title":"老虎山","lon":"121.360507586","lat":"31.1949827418","category":"500","category_name":"未知分类","address":"上海西郊公园"},{"poiid":"B2094757D069AAF4409E","title":"上海国际机场宾馆","lon":"121.351939","lat":"31.193988","category":"217","category_name":"旅馆招待所","address":"长宁区迎宾一路368号(虹桥机场候机楼旁)"},{"poiid":"B2094655D269A4F54293","title":"金庭庄园会所","lon":"121.35679","lat":"31.20289","category":"247","category_name":"餐饮美食","address":"长宁区虹桥路2489弄66号"},{"poiid":"B2094757D069A3FE419A","title":"上海出入境检验检疫局/上海国际旅行卫生保健中心","lon":"121.36445758","lat":"31.197729795","category":"162","category_name":"医院","address":"上海市长宁区金浜路15号"},{"poiid":"B2094757D068ABFE499D","title":"中国东方航空股份有限公司","lon":"121.350748","lat":"31.194755","category":"263","category_name":"公司","address":"上海市虹桥机场空港三路"},{"poiid":"B2094757D66DABF4499C","title":"浦东机场T1航站楼VVIP A区","lon":"121.361251336","lat":"31.198727265","category":"21","category_name":"飞机场","address":"上海浦东机场T1航站楼VVIP A区"},{"poiid":"B2094757D465ABFE429A","title":"满月","lon":"121.360967","lat":"31.198553","category":"269","category_name":"烧烤","address":"长宁区金浜路112号(近福泉路)"},{"poiid":"B2094757D66DAAFC489C","title":"复旦大学(邯郸校区)正门","lon":"121.35829468","lat":"31.197275886","category":"52","category_name":"高等院校","address":"上海邯郸路220号"},{"poiid":"B2094757D068A7FA419A","title":"绿谷别墅","lon":"121.365924","lat":"31.198598","category":"47","category_name":"住宅区","address":"上海哈密路1500号"},{"poiid":"B2094757D065ABFD4099","title":"虹橋機場T1貴賓室","lon":"121.35541458","lat":"31.198562811","category":"500","category_name":"未知分类","address":"上海市闵行区虹翔三路"},{"poiid":"B2094654D569AAFE4699","title":"满庭芳花园","lon":"121.358","lat":"31.200369","category":"47","category_name":"住宅区","address":"上海市虹桥路2489弄222号"},{"poiid":"B2094757D66EA1FB449D","title":"虹桥机场2号航站楼22号登机口","lon":"121.34868276","lat":"31.195881323","category":"500","category_name":"未知分类","address":"上海虹桥机场2号航站楼22号登机口"},{"poiid":"B2094752D66AA4F54098","title":"上海虹桥机场2号航站楼48号登机口","lon":"121.358172","lat":"31.197984","category":"500","category_name":"未知分类","address":null},{"poiid":"B2094654DB6BA0FE4098","title":"上海花园广场南区","lon":"121.35841","lat":"31.19739","category":"47","category_name":"住宅区","address":"虹桥路2489弄200号"},{"poiid":"B2094750D66FA6FB4092","title":"医院","lon":"121.364761","lat":"31.195802","category":"162","category_name":"医院","address":"哈密路青溪路"},{"poiid":"B2094654D56AA2FF449E","title":"上海航友宾馆","lon":"121.35079","lat":"31.19295","category":"215","category_name":"三星级宾馆","address":"上海市长宁区迎宾一路425号(近虹桥机场一号航站楼)"},{"poiid":"B2094655D26CA4FF4193","title":"上海花园广场南区(北门)","lon":"121.35865","lat":"31.1983","category":"47","category_name":"住宅区","address":"虹桥路2489弄200号"},{"poiid":"B2094654D569AAFE479F","title":"新泾苑","lon":"121.36304","lat":"31.200182","category":"47","category_name":"住宅区","address":"中泾路18弄1-85号"},{"poiid":"B2094750D564A1FD4993","title":"复地御西郊","lon":"121.358886","lat":"31.199725","category":"47","category_name":"住宅区","address":"长宁区金浜路188弄(近福泉路)"},{"poiid":"B2094753D26FA3FA419D","title":"金游宝宝水上亲子中心","lon":"121.356037","lat":"31.204056","category":"190","category_name":"培训机构","address":"长宁区协和路99号金庭庄园酒店18-19幢"},{"poiid":"B2094750DB6DABFA429D","title":"虹桥机场上空","lon":"121.357681","lat":"31.197037","category":"500","category_name":"未知分类","address":null},{"poiid":"B2094757D06FA1FE469D","title":"绿园十一居","lon":"121.35897258","lat":"31.204185921","category":"47","category_name":"住宅区","address":"上海福泉路435弄(近新泾路)"},{"poiid":"B2094654DB6BA0FE4099","title":"上海花园广场北区","lon":"121.35888","lat":"31.19972","category":"47","category_name":"住宅区","address":"虹桥路2489弄200号"},{"poiid":"B2094655D26AA7F4439C","title":"满庭芳俱乐部","lon":"121.358","lat":"31.20036","category":"247","category_name":"餐饮美食","address":"长宁区虹桥路2489弄222号55幢(近新潮路)"},{"poiid":"B2094753D769A6FB439D","title":"上海虹桥机场","lon":"121.355987","lat":"31.201789","category":"500","category_name":"未知分类","address":"上海市 虹桥机场"},{"poiid":"B2094757D16EABFC4899","title":"东航STARCO机库","lon":"121.3503533","lat":"31.2005093706","category":"500","category_name":"未知分类","address":"上海虹桥机场一号航站楼"},{"poiid":"B2094654D569AAFE469B","title":"龙柏山庄","lon":"121.35802","lat":"31.195896","category":"47","category_name":"住宅区","address":"虹桥路1489弄188"},{"poiid":"B2094750DA65ABFE489E","title":"上海一零八医院","lon":"121.358589","lat":"31.195766","category":"162","category_name":"医院","address":"长宁区哈密路1713号"},{"poiid":"B2094655D36CA6FF4699","title":"福泉路新泾路","lon":"121.35998","lat":"31.20366","category":"38","category_name":"公交车站","address":""},{"poiid":"B2094654D56AA1F4419E","title":"新中工业小区(南)","lon":"121.35513","lat":"31.19908","category":"47","category_name":"住宅区","address":""},{"poiid":"B2094752D36DABFF4599","title":"Geneva","lon":"121.364115","lat":"31.196543","category":"247","category_name":"餐饮美食","address":"哈密路1876弄6号"},{"poiid":"B2094655D36CA0FD489B","title":"金浜路福泉路","lon":"121.36125","lat":"31.19846","category":"38","category_name":"公交车站","address":""},{"poiid":"B2094757D568A6FE489D","title":"真功夫(虹桥机场T2店)","lon":"121.351975999998","lat":"31.1938240000001","category":"68","category_name":"快餐厅","address":"闵行区虹桥路2550号虹桥机场T2航站楼内(近迎宾一路)"},{"poiid":"B2094654D56AA0F44092","title":"王姚更小区","lon":"121.35504","lat":"31.20039","category":"47","category_name":"住宅区","address":""},{"poiid":"B2094757D16CA2FE459E","title":"长宁区中心医院外二","lon":"121.35651628","lat":"31.201310565","category":"162","category_name":"医院","address":"上海仙霞路1111号"},{"poiid":"B2094655D26FA0FA439F","title":"满庭芳花园(北门)","lon":"121.35857","lat":"31.20172","category":"47","category_name":"住宅区","address":"虹桥路2489弄222号"},{"poiid":"B2094655D26EA3FF4598","title":"上海花园广场北区(南二门)","lon":"121.35877","lat":"31.19865","category":"656","category_name":"大门","address":"虹桥路2489弄200号"},{"poiid":"B2094654D569AAFE4592","title":"上海市长宁区一郎食品店","lon":"121.36125","lat":"31.19828","category":"117","category_name":"便民商店/便利店","address":"金浜路107-117号"},{"poiid":"B2094654D569AAFC449B","title":"上海动物园","lon":"121.36272202550413","lat":"31.194404631992096","category":"197","category_name":"动物园","address":"虹桥路2381号。"},{"poiid":"B2094757D06BABFE4698","title":"虹桥机场2号航站楼21号登机口","lon":"121.35440496","lat":"31.1979483666","category":"21","category_name":"飞机场","address":"上海虹桥机场T2"},{"poiid":"B2094757D06AA3FA439E","title":"虹桥1号楼","lon":"121.3544507","lat":"31.1985262788","category":"252","category_name":"楼宇机构","address":"上海虹桥机场"},{"poiid":"B2094757D168A5FB479C","title":"西郊动物园","lon":"121.357255586","lat":"31.1915996757","category":"500","category_name":"未知分类","address":"上海"},{"poiid":"B2094757D065A2F84892","title":"虹橋機場一號航站樓","lon":"121.34894756","lat":"31.1947728996","category":"500","category_name":"未知分类","address":"上海虹橋機場一號航站樓"},{"poiid":"B2094757D465A3F9479B","title":"金庭喜庆庄园","lon":"121.35713606994057","lat":"31.204823643244364","category":"214","category_name":"四星级宾馆","address":"上海长宁区协和路1号"},{"poiid":"B2094757D06FA7FA4699","title":"上海市交通警察总队车辆管理所(一分所)","lon":"121.366082","lat":"31.2012371","category":"252","category_name":"楼宇机构","address":"上海长宁区哈密路1330号"},{"poiid":"B2094757D06FA1F5499E","title":"龙柏饭店","lon":"121.35993957","lat":"31.190093994","category":"217","category_name":"旅馆招待所","address":"上海市长宁区虹桥路2419号(近沪青平公路)"},{"poiid":"B2094757D068A5F9469D","title":"上海国际旅行卫生保健中心","lon":"121.36435699","lat":"31.198169708","category":"162","category_name":"医院","address":"长宁区金浜路15号(近哈密路)"},{"poiid":"B2094757D165A1F44792","title":"上海动物园大猩猩馆","lon":"121.362465586","lat":"31.1930057032","category":"500","category_name":"未知分类","address":"上海动物园"},{"poiid":"B2094757D16CA4FF459D","title":"虹桥机场2号航站楼27号登机口","lon":"121.35021209","lat":"31.192869186","category":"21","category_name":"飞机场","address":"上海虹桥机场T2"},{"poiid":"B2094655D26FA4F84692","title":"上海金庭酒店","lon":"121.35617","lat":"31.20397","category":"250","category_name":"公园户外","address":"上海市长宁区协和路1号（近新泾路）"},{"poiid":"B2094757D065A1FD4298","title":"老虎山","lon":"121.360507586","lat":"31.1949827418","category":"500","category_name":"未知分类","address":"上海西郊公园"},{"poiid":"B2094757D069AAF4409E","title":"上海国际机场宾馆","lon":"121.351939","lat":"31.193988","category":"217","category_name":"旅馆招待所","address":"长宁区迎宾一路368号(虹桥机场候机楼旁)"},{"poiid":"B2094655D269A4F54293","title":"金庭庄园会所","lon":"121.35679","lat":"31.20289","category":"247","category_name":"餐饮美食","address":"长宁区虹桥路2489弄66号"},{"poiid":"B2094757D069A3FE419A","title":"上海出入境检验检疫局/上海国际旅行卫生保健中心","lon":"121.36445758","lat":"31.197729795","category":"162","category_name":"医院","address":"上海市长宁区金浜路15号"},{"poiid":"B2094757D068ABFE499D","title":"中国东方航空股份有限公司","lon":"121.350748","lat":"31.194755","category":"263","category_name":"公司","address":"上海市虹桥机场空港三路"},{"poiid":"B2094757D66DABF4499C","title":"浦东机场T1航站楼VVIP A区","lon":"121.361251336","lat":"31.198727265","category":"21","category_name":"飞机场","address":"上海浦东机场T1航站楼VVIP A区"},{"poiid":"B2094757D465ABFE429A","title":"满月","lon":"121.360967","lat":"31.198553","category":"269","category_name":"烧烤","address":"长宁区金浜路112号(近福泉路)"},{"poiid":"B2094757D66DAAFC489C","title":"复旦大学(邯郸校区)正门","lon":"121.35829468","lat":"31.197275886","category":"52","category_name":"高等院校","address":"上海邯郸路220号"},{"poiid":"B2094757D068A7FA419A","title":"绿谷别墅","lon":"121.365924","lat":"31.198598","category":"47","category_name":"住宅区","address":"上海哈密路1500号"},{"poiid":"B2094757D065ABFD4099","title":"虹橋機場T1貴賓室","lon":"121.35541458","lat":"31.198562811","category":"500","category_name":"未知分类","address":"上海市闵行区虹翔三路"},{"poiid":"B2094654D569AAFE4699","title":"满庭芳花园","lon":"121.358","lat":"31.200369","category":"47","category_name":"住宅区","address":"上海市虹桥路2489弄222号"},{"poiid":"B2094757D66EA1FB449D","title":"虹桥机场2号航站楼22号登机口","lon":"121.34868276","lat":"31.195881323","category":"500","category_name":"未知分类","address":"上海虹桥机场2号航站楼22号登机口"},{"poiid":"B2094752D66AA4F54098","title":"上海虹桥机场2号航站楼48号登机口","lon":"121.358172","lat":"31.197984","category":"500","category_name":"未知分类","address":null},{"poiid":"B2094654DB6BA0FE4098","title":"上海花园广场南区","lon":"121.35841","lat":"31.19739","category":"47","category_name":"住宅区","address":"虹桥路2489弄200号"},{"poiid":"B2094750D66FA6FB4092","title":"医院","lon":"121.364761","lat":"31.195802","category":"162","category_name":"医院","address":"哈密路青溪路"},{"poiid":"B2094654D56AA2FF449E","title":"上海航友宾馆","lon":"121.35079","lat":"31.19295","category":"215","category_name":"三星级宾馆","address":"上海市长宁区迎宾一路425号(近虹桥机场一号航站楼)"},{"poiid":"B2094655D26CA4FF4193","title":"上海花园广场南区(北门)","lon":"121.35865","lat":"31.1983","category":"47","category_name":"住宅区","address":"虹桥路2489弄200号"},{"poiid":"B2094654D569AAFE479F","title":"新泾苑","lon":"121.36304","lat":"31.200182","category":"47","category_name":"住宅区","address":"中泾路18弄1-85号"},{"poiid":"B2094750D564A1FD4993","title":"复地御西郊","lon":"121.358886","lat":"31.199725","category":"47","category_name":"住宅区","address":"长宁区金浜路188弄(近福泉路)"},{"poiid":"B2094753D26FA3FA419D","title":"金游宝宝水上亲子中心","lon":"121.356037","lat":"31.204056","category":"190","category_name":"培训机构","address":"长宁区协和路99号金庭庄园酒店18-19幢"},{"poiid":"B2094750DB6DABFA429D","title":"虹桥机场上空","lon":"121.357681","lat":"31.197037","category":"500","category_name":"未知分类","address":null},{"poiid":"B2094757D06FA1FE469D","title":"绿园十一居","lon":"121.35897258","lat":"31.204185921","category":"47","category_name":"住宅区","address":"上海福泉路435弄(近新泾路)"},{"poiid":"B2094654DB6BA0FE4099","title":"上海花园广场北区","lon":"121.35888","lat":"31.19972","category":"47","category_name":"住宅区","address":"虹桥路2489弄200号"},{"poiid":"B2094655D26AA7F4439C","title":"满庭芳俱乐部","lon":"121.358","lat":"31.20036","category":"247","category_name":"餐饮美食","address":"长宁区虹桥路2489弄222号55幢(近新潮路)"},{"poiid":"B2094753D769A6FB439D","title":"上海虹桥机场","lon":"121.355987","lat":"31.201789","category":"500","category_name":"未知分类","address":"上海市 虹桥机场"},{"poiid":"B2094757D16EABFC4899","title":"东航STARCO机库","lon":"121.3503533","lat":"31.2005093706","category":"500","category_name":"未知分类","address":"上海虹桥机场一号航站楼"},{"poiid":"B2094654D569AAFE469B","title":"龙柏山庄","lon":"121.35802","lat":"31.195896","category":"47","category_name":"住宅区","address":"虹桥路1489弄188"},{"poiid":"B2094750DA65ABFE489E","title":"上海一零八医院","lon":"121.358589","lat":"31.195766","category":"162","category_name":"医院","address":"长宁区哈密路1713号"},{"poiid":"B2094655D36CA6FF4699","title":"福泉路新泾路","lon":"121.35998","lat":"31.20366","category":"38","category_name":"公交车站","address":""},{"poiid":"B2094654D56AA1F4419E","title":"新中工业小区(南)","lon":"121.35513","lat":"31.19908","category":"47","category_name":"住宅区","address":""},{"poiid":"B2094752D36DABFF4599","title":"Geneva","lon":"121.364115","lat":"31.196543","category":"247","category_name":"餐饮美食","address":"哈密路1876弄6号"},{"poiid":"B2094655D36CA0FD489B","title":"金浜路福泉路","lon":"121.36125","lat":"31.19846","category":"38","category_name":"公交车站","address":""},{"poiid":"B2094757D568A6FE489D","title":"真功夫(虹桥机场T2店)","lon":"121.351975999998","lat":"31.1938240000001","category":"68","category_name":"快餐厅","address":"闵行区虹桥路2550号虹桥机场T2航站楼内(近迎宾一路)"},{"poiid":"B2094654D56AA0F44092","title":"王姚更小区","lon":"121.35504","lat":"31.20039","category":"47","category_name":"住宅区","address":""},{"poiid":"B2094757D16CA2FE459E","title":"长宁区中心医院外二","lon":"121.35651628","lat":"31.201310565","category":"162","category_name":"医院","address":"上海仙霞路1111号"},{"poiid":"B2094655D26FA0FA439F","title":"满庭芳花园(北门)","lon":"121.35857","lat":"31.20172","category":"47","category_name":"住宅区","address":"虹桥路2489弄222号"},{"poiid":"B2094655D26EA3FF4598","title":"上海花园广场北区(南二门)","lon":"121.35877","lat":"31.19865","category":"656","category_name":"大门","address":"虹桥路2489弄200号"},{"poiid":"B2094654D569AAFE4592","title":"上海市长宁区一郎食品店","lon":"121.36125","lat":"31.19828","category":"117","category_name":"便民商店/便利店","address":"金浜路107-117号"},{"poiid":"B2094654D569AAFC449B","title":"上海动物园","lon":"121.36272202550413","lat":"31.194404631992096","category":"197","category_name":"动物园","address":"虹桥路2381号。"},{"poiid":"B2094757D06BABFE4698","title":"虹桥机场2号航站楼21号登机口","lon":"121.35440496","lat":"31.1979483666","category":"21","category_name":"飞机场","address":"上海虹桥机场T2"},{"poiid":"B2094757D06AA3FA439E","title":"虹桥1号楼","lon":"121.3544507","lat":"31.1985262788","category":"252","category_name":"楼宇机构","address":"上海虹桥机场"},{"poiid":"B2094757D168A5FB479C","title":"西郊动物园","lon":"121.357255586","lat":"31.1915996757","category":"500","category_name":"未知分类","address":"上海"},{"poiid":"B2094757D065A2F84892","title":"虹橋機場一號航站樓","lon":"121.34894756","lat":"31.1947728996","category":"500","category_name":"未知分类","address":"上海虹橋機場一號航站樓"},{"poiid":"B2094757D465A3F9479B","title":"金庭喜庆庄园","lon":"121.35713606994057","lat":"31.204823643244364","category":"214","category_name":"四星级宾馆","address":"上海长宁区协和路1号"},{"poiid":"B2094757D06FA7FA4699","title":"上海市交通警察总队车辆管理所(一分所)","lon":"121.366082","lat":"31.2012371","category":"252","category_name":"楼宇机构","address":"上海长宁区哈密路1330号"},{"poiid":"B2094757D06FA1F5499E","title":"龙柏饭店","lon":"121.35993957","lat":"31.190093994","category":"217","category_name":"旅馆招待所","address":"上海市长宁区虹桥路2419号(近沪青平公路)"},{"poiid":"B2094757D068A5F9469D","title":"上海国际旅行卫生保健中心","lon":"121.36435699","lat":"31.198169708","category":"162","category_name":"医院","address":"长宁区金浜路15号(近哈密路)"},{"poiid":"B2094757D165A1F44792","title":"上海动物园大猩猩馆","lon":"121.362465586","lat":"31.1930057032","category":"500","category_name":"未知分类","address":"上海动物园"},{"poiid":"B2094757D16CA4FF459D","title":"虹桥机场2号航站楼27号登机口","lon":"121.35021209","lat":"31.192869186","category":"21","category_name":"飞机场","address":"上海虹桥机场T2"},{"poiid":"B2094655D26FA4F84692","title":"上海金庭酒店","lon":"121.35617","lat":"31.20397","category":"250","category_name":"公园户外","address":"上海市长宁区协和路1号（近新泾路）"},{"poiid":"B2094757D065A1FD4298","title":"老虎山","lon":"121.360507586","lat":"31.1949827418","category":"500","category_name":"未知分类","address":"上海西郊公园"},{"poiid":"B2094757D069AAF4409E","title":"上海国际机场宾馆","lon":"121.351939","lat":"31.193988","category":"217","category_name":"旅馆招待所","address":"长宁区迎宾一路368号(虹桥机场候机楼旁)"},{"poiid":"B2094655D269A4F54293","title":"金庭庄园会所","lon":"121.35679","lat":"31.20289","category":"247","category_name":"餐饮美食","address":"长宁区虹桥路2489弄66号"},{"poiid":"B2094757D069A3FE419A","title":"上海出入境检验检疫局/上海国际旅行卫生保健中心","lon":"121.36445758","lat":"31.197729795","category":"162","category_name":"医院","address":"上海市长宁区金浜路15号"},{"poiid":"B2094757D068ABFE499D","title":"中国东方航空股份有限公司","lon":"121.350748","lat":"31.194755","category":"263","category_name":"公司","address":"上海市虹桥机场空港三路"},{"poiid":"B2094757D66DABF4499C","title":"浦东机场T1航站楼VVIP A区","lon":"121.361251336","lat":"31.198727265","category":"21","category_name":"飞机场","address":"上海浦东机场T1航站楼VVIP A区"},{"poiid":"B2094757D465ABFE429A","title":"满月","lon":"121.360967","lat":"31.198553","category":"269","category_name":"烧烤","address":"长宁区金浜路112号(近福泉路)"},{"poiid":"B2094757D66DAAFC489C","title":"复旦大学(邯郸校区)正门","lon":"121.35829468","lat":"31.197275886","category":"52","category_name":"高等院校","address":"上海邯郸路220号"},{"poiid":"B2094757D068A7FA419A","title":"绿谷别墅","lon":"121.365924","lat":"31.198598","category":"47","category_name":"住宅区","address":"上海哈密路1500号"},{"poiid":"B2094757D065ABFD4099","title":"虹橋機場T1貴賓室","lon":"121.35541458","lat":"31.198562811","category":"500","category_name":"未知分类","address":"上海市闵行区虹翔三路"},{"poiid":"B2094654D569AAFE4699","title":"满庭芳花园","lon":"121.358","lat":"31.200369","category":"47","category_name":"住宅区","address":"上海市虹桥路2489弄222号"},{"poiid":"B2094757D66EA1FB449D","title":"虹桥机场2号航站楼22号登机口","lon":"121.34868276","lat":"31.195881323","category":"500","category_name":"未知分类","address":"上海虹桥机场2号航站楼22号登机口"},{"poiid":"B2094752D66AA4F54098","title":"上海虹桥机场2号航站楼48号登机口","lon":"121.358172","lat":"31.197984","category":"500","category_name":"未知分类","address":null},{"poiid":"B2094654DB6BA0FE4098","title":"上海花园广场南区","lon":"121.35841","lat":"31.19739","category":"47","category_name":"住宅区","address":"虹桥路2489弄200号"},{"poiid":"B2094750D66FA6FB4092","title":"医院","lon":"121.364761","lat":"31.195802","category":"162","category_name":"医院","address":"哈密路青溪路"},{"poiid":"B2094654D56AA2FF449E","title":"上海航友宾馆","lon":"121.35079","lat":"31.19295","category":"215","category_name":"三星级宾馆","address":"上海市长宁区迎宾一路425号(近虹桥机场一号航站楼)"},{"poiid":"B2094655D26CA4FF4193","title":"上海花园广场南区(北门)","lon":"121.35865","lat":"31.1983","category":"47","category_name":"住宅区","address":"虹桥路2489弄200号"},{"poiid":"B2094654D569AAFE479F","title":"新泾苑","lon":"121.36304","lat":"31.200182","category":"47","category_name":"住宅区","address":"中泾路18弄1-85号"},{"poiid":"B2094750D564A1FD4993","title":"复地御西郊","lon":"121.358886","lat":"31.199725","category":"47","category_name":"住宅区","address":"长宁区金浜路188弄(近福泉路)"},{"poiid":"B2094753D26FA3FA419D","title":"金游宝宝水上亲子中心","lon":"121.356037","lat":"31.204056","category":"190","category_name":"培训机构","address":"长宁区协和路99号金庭庄园酒店18-19幢"},{"poiid":"B2094750DB6DABFA429D","title":"虹桥机场上空","lon":"121.357681","lat":"31.197037","category":"500","category_name":"未知分类","address":null},{"poiid":"B2094757D06FA1FE469D","title":"绿园十一居","lon":"121.35897258","lat":"31.204185921","category":"47","category_name":"住宅区","address":"上海福泉路435弄(近新泾路)"},{"poiid":"B2094654DB6BA0FE4099","title":"上海花园广场北区","lon":"121.35888","lat":"31.19972","category":"47","category_name":"住宅区","address":"虹桥路2489弄200号"},{"poiid":"B2094655D26AA7F4439C","title":"满庭芳俱乐部","lon":"121.358","lat":"31.20036","category":"247","category_name":"餐饮美食","address":"长宁区虹桥路2489弄222号55幢(近新潮路)"},{"poiid":"B2094753D769A6FB439D","title":"上海虹桥机场","lon":"121.355987","lat":"31.201789","category":"500","category_name":"未知分类","address":"上海市 虹桥机场"},{"poiid":"B2094757D16EABFC4899","title":"东航STARCO机库","lon":"121.3503533","lat":"31.2005093706","category":"500","category_name":"未知分类","address":"上海虹桥机场一号航站楼"},{"poiid":"B2094654D569AAFE469B","title":"龙柏山庄","lon":"121.35802","lat":"31.195896","category":"47","category_name":"住宅区","address":"虹桥路1489弄188"},{"poiid":"B2094750DA65ABFE489E","title":"上海一零八医院","lon":"121.358589","lat":"31.195766","category":"162","category_name":"医院","address":"长宁区哈密路1713号"},{"poiid":"B2094655D36CA6FF4699","title":"福泉路新泾路","lon":"121.35998","lat":"31.20366","category":"38","category_name":"公交车站","address":""},{"poiid":"B2094654D56AA1F4419E","title":"新中工业小区(南)","lon":"121.35513","lat":"31.19908","category":"47","category_name":"住宅区","address":""},{"poiid":"B2094752D36DABFF4599","title":"Geneva","lon":"121.364115","lat":"31.196543","category":"247","category_name":"餐饮美食","address":"哈密路1876弄6号"},{"poiid":"B2094655D36CA0FD489B","title":"金浜路福泉路","lon":"121.36125","lat":"31.19846","category":"38","category_name":"公交车站","address":""},{"poiid":"B2094757D568A6FE489D","title":"真功夫(虹桥机场T2店)","lon":"121.351975999998","lat":"31.1938240000001","category":"68","category_name":"快餐厅","address":"闵行区虹桥路2550号虹桥机场T2航站楼内(近迎宾一路)"},{"poiid":"B2094654D56AA0F44092","title":"王姚更小区","lon":"121.35504","lat":"31.20039","category":"47","category_name":"住宅区","address":""},{"poiid":"B2094757D16CA2FE459E","title":"长宁区中心医院外二","lon":"121.35651628","lat":"31.201310565","category":"162","category_name":"医院","address":"上海仙霞路1111号"},{"poiid":"B2094655D26FA0FA439F","title":"满庭芳花园(北门)","lon":"121.35857","lat":"31.20172","category":"47","category_name":"住宅区","address":"虹桥路2489弄222号"},{"poiid":"B2094655D26EA3FF4598","title":"上海花园广场北区(南二门)","lon":"121.35877","lat":"31.19865","category":"656","category_name":"大门","address":"虹桥路2489弄200号"},{"poiid":"B2094654D569AAFE4592","title":"上海市长宁区一郎食品店","lon":"121.36125","lat":"31.19828","category":"117","category_name":"便民商店/便利店","address":"金浜路107-117号"},{"poiid":"B2094654D569AAFC449B","title":"上海动物园","lon":"121.36272202550413","lat":"31.194404631992096","category":"197","category_name":"动物园","address":"虹桥路2381号。"},{"poiid":"B2094757D06BABFE4698","title":"虹桥机场2号航站楼21号登机口","lon":"121.35440496","lat":"31.1979483666","category":"21","category_name":"飞机场","address":"上海虹桥机场T2"},{"poiid":"B2094757D06AA3FA439E","title":"虹桥1号楼","lon":"121.3544507","lat":"31.1985262788","category":"252","category_name":"楼宇机构","address":"上海虹桥机场"},{"poiid":"B2094757D168A5FB479C","title":"西郊动物园","lon":"121.357255586","lat":"31.1915996757","category":"500","category_name":"未知分类","address":"上海"},{"poiid":"B2094757D065A2F84892","title":"虹橋機場一號航站樓","lon":"121.34894756","lat":"31.1947728996","category":"500","category_name":"未知分类","address":"上海虹橋機場一號航站樓"},{"poiid":"B2094757D465A3F9479B","title":"金庭喜庆庄园","lon":"121.35713606994057","lat":"31.204823643244364","category":"214","category_name":"四星级宾馆","address":"上海长宁区协和路1号"},{"poiid":"B2094757D06FA7FA4699","title":"上海市交通警察总队车辆管理所(一分所)","lon":"121.366082","lat":"31.2012371","category":"252","category_name":"楼宇机构","address":"上海长宁区哈密路1330号"},{"poiid":"B2094757D06FA1F5499E","title":"龙柏饭店","lon":"121.35993957","lat":"31.190093994","category":"217","category_name":"旅馆招待所","address":"上海市长宁区虹桥路2419号(近沪青平公路)"},{"poiid":"B2094757D068A5F9469D","title":"上海国际旅行卫生保健中心","lon":"121.36435699","lat":"31.198169708","category":"162","category_name":"医院","address":"长宁区金浜路15号(近哈密路)"},{"poiid":"B2094757D165A1F44792","title":"上海动物园大猩猩馆","lon":"121.362465586","lat":"31.1930057032","category":"500","category_name":"未知分类","address":"上海动物园"},{"poiid":"B2094757D16CA4FF459D","title":"虹桥机场2号航站楼27号登机口","lon":"121.35021209","lat":"31.192869186","category":"21","category_name":"飞机场","address":"上海虹桥机场T2"},{"poiid":"B2094655D26FA4F84692","title":"上海金庭酒店","lon":"121.35617","lat":"31.20397","category":"250","category_name":"公园户外","address":"上海市长宁区协和路1号（近新泾路）"},{"poiid":"B2094757D065A1FD4298","title":"老虎山","lon":"121.360507586","lat":"31.1949827418","category":"500","category_name":"未知分类","address":"上海西郊公园"},{"poiid":"B2094757D069AAF4409E","title":"上海国际机场宾馆","lon":"121.351939","lat":"31.193988","category":"217","category_name":"旅馆招待所","address":"长宁区迎宾一路368号(虹桥机场候机楼旁)"},{"poiid":"B2094655D269A4F54293","title":"金庭庄园会所","lon":"121.35679","lat":"31.20289","category":"247","category_name":"餐饮美食","address":"长宁区虹桥路2489弄66号"},{"poiid":"B2094757D069A3FE419A","title":"上海出入境检验检疫局/上海国际旅行卫生保健中心","lon":"121.36445758","lat":"31.197729795","category":"162","category_name":"医院","address":"上海市长宁区金浜路15号"},{"poiid":"B2094757D068ABFE499D","title":"中国东方航空股份有限公司","lon":"121.350748","lat":"31.194755","category":"263","category_name":"公司","address":"上海市虹桥机场空港三路"},{"poiid":"B2094757D66DABF4499C","title":"浦东机场T1航站楼VVIP A区","lon":"121.361251336","lat":"31.198727265","category":"21","category_name":"飞机场","address":"上海浦东机场T1航站楼VVIP A区"},{"poiid":"B2094757D465ABFE429A","title":"满月","lon":"121.360967","lat":"31.198553","category":"269","category_name":"烧烤","address":"长宁区金浜路112号(近福泉路)"},{"poiid":"B2094757D66DAAFC489C","title":"复旦大学(邯郸校区)正门","lon":"121.35829468","lat":"31.197275886","category":"52","category_name":"高等院校","address":"上海邯郸路220号"},{"poiid":"B2094757D068A7FA419A","title":"绿谷别墅","lon":"121.365924","lat":"31.198598","category":"47","category_name":"住宅区","address":"上海哈密路1500号"},{"poiid":"B2094757D065ABFD4099","title":"虹橋機場T1貴賓室","lon":"121.35541458","lat":"31.198562811","category":"500","category_name":"未知分类","address":"上海市闵行区虹翔三路"},{"poiid":"B2094654D569AAFE4699","title":"满庭芳花园","lon":"121.358","lat":"31.200369","category":"47","category_name":"住宅区","address":"上海市虹桥路2489弄222号"},{"poiid":"B2094757D66EA1FB449D","title":"虹桥机场2号航站楼22号登机口","lon":"121.34868276","lat":"31.195881323","category":"500","category_name":"未知分类","address":"上海虹桥机场2号航站楼22号登机口"},{"poiid":"B2094752D66AA4F54098","title":"上海虹桥机场2号航站楼48号登机口","lon":"121.358172","lat":"31.197984","category":"500","category_name":"未知分类","address":null},{"poiid":"B2094654DB6BA0FE4098","title":"上海花园广场南区","lon":"121.35841","lat":"31.19739","category":"47","category_name":"住宅区","address":"虹桥路2489弄200号"},{"poiid":"B2094750D66FA6FB4092","title":"医院","lon":"121.364761","lat":"31.195802","category":"162","category_name":"医院","address":"哈密路青溪路"},{"poiid":"B2094654D56AA2FF449E","title":"上海航友宾馆","lon":"121.35079","lat":"31.19295","category":"215","category_name":"三星级宾馆","address":"上海市长宁区迎宾一路425号(近虹桥机场一号航站楼)"},{"poiid":"B2094655D26CA4FF4193","title":"上海花园广场南区(北门)","lon":"121.35865","lat":"31.1983","category":"47","category_name":"住宅区","address":"虹桥路2489弄200号"},{"poiid":"B2094654D569AAFE479F","title":"新泾苑","lon":"121.36304","lat":"31.200182","category":"47","category_name":"住宅区","address":"中泾路18弄1-85号"},{"poiid":"B2094750D564A1FD4993","title":"复地御西郊","lon":"121.358886","lat":"31.199725","category":"47","category_name":"住宅区","address":"长宁区金浜路188弄(近福泉路)"},{"poiid":"B2094753D26FA3FA419D","title":"金游宝宝水上亲子中心","lon":"121.356037","lat":"31.204056","category":"190","category_name":"培训机构","address":"长宁区协和路99号金庭庄园酒店18-19幢"},{"poiid":"B2094750DB6DABFA429D","title":"虹桥机场上空","lon":"121.357681","lat":"31.197037","category":"500","category_name":"未知分类","address":null},{"poiid":"B2094757D06FA1FE469D","title":"绿园十一居","lon":"121.35897258","lat":"31.204185921","category":"47","category_name":"住宅区","address":"上海福泉路435弄(近新泾路)"},{"poiid":"B2094654DB6BA0FE4099","title":"上海花园广场北区","lon":"121.35888","lat":"31.19972","category":"47","category_name":"住宅区","address":"虹桥路2489弄200号"},{"poiid":"B2094655D26AA7F4439C","title":"满庭芳俱乐部","lon":"121.358","lat":"31.20036","category":"247","category_name":"餐饮美食","address":"长宁区虹桥路2489弄222号55幢(近新潮路)"},{"poiid":"B2094753D769A6FB439D","title":"上海虹桥机场","lon":"121.355987","lat":"31.201789","category":"500","category_name":"未知分类","address":"上海市 虹桥机场"},{"poiid":"B2094757D16EABFC4899","title":"东航STARCO机库","lon":"121.3503533","lat":"31.2005093706","category":"500","category_name":"未知分类","address":"上海虹桥机场一号航站楼"},{"poiid":"B2094654D569AAFE469B","title":"龙柏山庄","lon":"121.35802","lat":"31.195896","category":"47","category_name":"住宅区","address":"虹桥路1489弄188"},{"poiid":"B2094750DA65ABFE489E","title":"上海一零八医院","lon":"121.358589","lat":"31.195766","category":"162","category_name":"医院","address":"长宁区哈密路1713号"},{"poiid":"B2094655D36CA6FF4699","title":"福泉路新泾路","lon":"121.35998","lat":"31.20366","category":"38","category_name":"公交车站","address":""},{"poiid":"B2094654D56AA1F4419E","title":"新中工业小区(南)","lon":"121.35513","lat":"31.19908","category":"47","category_name":"住宅区","address":""},{"poiid":"B2094752D36DABFF4599","title":"Geneva","lon":"121.364115","lat":"31.196543","category":"247","category_name":"餐饮美食","address":"哈密路1876弄6号"},{"poiid":"B2094655D36CA0FD489B","title":"金浜路福泉路","lon":"121.36125","lat":"31.19846","category":"38","category_name":"公交车站","address":""},{"poiid":"B2094757D568A6FE489D","title":"真功夫(虹桥机场T2店)","lon":"121.351975999998","lat":"31.1938240000001","category":"68","category_name":"快餐厅","address":"闵行区虹桥路2550号虹桥机场T2航站楼内(近迎宾一路)"},{"poiid":"B2094654D56AA0F44092","title":"王姚更小区","lon":"121.35504","lat":"31.20039","category":"47","category_name":"住宅区","address":""},{"poiid":"B2094757D16CA2FE459E","title":"长宁区中心医院外二","lon":"121.35651628","lat":"31.201310565","category":"162","category_name":"医院","address":"上海仙霞路1111号"},{"poiid":"B2094655D26FA0FA439F","title":"满庭芳花园(北门)","lon":"121.35857","lat":"31.20172","category":"47","category_name":"住宅区","address":"虹桥路2489弄222号"},{"poiid":"B2094655D26EA3FF4598","title":"上海花园广场北区(南二门)","lon":"121.35877","lat":"31.19865","category":"656","category_name":"大门","address":"虹桥路2489弄200号"},{"poiid":"B2094654D569AAFE4592","title":"上海市长宁区一郎食品店","lon":"121.36125","lat":"31.19828","category":"117","category_name":"便民商店/便利店","address":"金浜路107-117号"}]