[{"poiid":"B2094757D068A3F9439E","title":"自由港量贩式KTV(青浦店)","lon":"121.12195","lat":"31.14887","category":"170","category_name":"KTV","address":"青浦区公园路258号(浦仓路口)"},{"poiid":"B2094655D36CA5FF4392","title":"城中东路保安路","lon":"121.12422","lat":"31.14644","category":"38","category_name":"公交车站","address":""},{"poiid":"B2094757D06BABFF4693","title":"青浦区政府","lon":"121.12415141","lat":"31.15036197","category":"500","category_name":"未知分类","address":"上海公园路100号"},{"poiid":"B2094750D568A0F94392","title":"香港纯Kparyt","lon":"121.126731","lat":"31.146087","category":"170","category_name":"KTV","address":"青浦区青湖路晨兴国际"},{"poiid":"B2094757D165A7F54198","title":"青浦教师进修学院","lon":"121.12072706","lat":"31.148430402","category":"253","category_name":"校园生活","address":"上海青浦"},{"poiid":"B2094757D068A3F8439C","title":"85度C 青浦店","lon":"121.12089","lat":"31.14898","category":"112","category_name":"糕饼店","address":"青浦区公园路300号农工商超市旁(浦仓路公园路)"},{"poiid":"B2094757D06BA4FA499D","title":"青浦区行政服务中心","lon":"121.12342184","lat":"31.152591323","category":"500","category_name":"未知分类","address":"上海近郊青浦区外青松公路6189号"},{"poiid":"B2094654DA6BA6FC469C","title":"农工商超市NO.50","lon":"121.12065","lat":"31.14896","category":"118","category_name":"超级市场","address":"青浦镇"},{"poiid":"B2094654DA6BA5F94393","title":"青浦东方中学","lon":"121.12189","lat":"31.14408","category":"55","category_name":"中学","address":"上海青浦区浦仓路88号"},{"poiid":"B2094757D06BA4FA489B","title":"迪欧咖啡(青浦店)","lon":"121.12578","lat":"31.14938","category":"65","category_name":"咖啡厅","address":"青浦区公园路99号(公园路外青松公路)"},{"poiid":"B2094757D665ABF84599","title":"红宝石 城中东路店 Ruby","lon":"121.12091","lat":"31.14668","category":"67","category_name":"甜品店","address":"青浦区城中东路218号(城中东路浦仓路)"},{"poiid":"B2094654DA6BA5FE449C","title":"友谊酒家","lon":"121.12075433399","lat":"31.149022380998","category":"76","category_name":"上海菜","address":"青浦区公园路197号(近外青松公路)"},{"poiid":"B2094654DA6BA5FD4692","title":"青浦区东门小学","lon":"121.12454","lat":"31.14716","category":"56","category_name":"小学","address":"青浦区城中东路48号"},{"poiid":"B2094654DB69AAF9409B","title":"巷深酒楼","lon":"121.121047054","lat":"31.147857793","category":"76","category_name":"上海菜","address":"青浦区浦仓路250号(城中东路浦仓路)"},{"poiid":"B2094757D66EA5F94999","title":"咔浓咖啡","lon":"121.119855035","lat":"31.1505348737","category":"65","category_name":"咖啡厅","address":"青浦区欧洲街74弄3号"},{"poiid":"B2094757D169AAF8489C","title":"青浦区社保中心","lon":"121.122893","lat":"31.149602","category":"500","category_name":"未知分类","address":"上海公园路200号"},{"poiid":"B2094757D16CA0FB499B","title":"世田造型","lon":"121.120825","lat":"31.150514","category":"148","category_name":"美容美发店","address":"上海浦仓路"},{"poiid":"B2094757D66CA7FF459E","title":"越岭阁(青浦店)","lon":"121.12066","lat":"31.14847","category":"96","category_name":"韩国料理","address":"青浦区公园路209号(近浦仓路)"},{"poiid":"B2094654DA6BA5FE409C","title":"舜浦大厦","lon":"121.12488","lat":"31.14919","category":"46","category_name":"楼宇","address":"上海青浦区公园路99号"},{"poiid":"B2094654DA6BA5FD469F","title":"城东口腔门诊部","lon":"121.12436","lat":"31.14676","category":"162","category_name":"医院","address":"城中东路54号"},{"poiid":"B2094654DA6BA5FD459E","title":"青浦镇城东新邨一邨2号门","lon":"121.12357","lat":"31.14732","category":"47","category_name":"住宅区","address":"城东新邨24号楼"},{"poiid":"B2094655D268A6FB469C","title":"城东一邨","lon":"121.1241","lat":"31.14732","category":"47","category_name":"住宅区","address":""},{"poiid":"B2094654DA6BA5FD4592","title":"上海宏良经济开发区","lon":"121.12387","lat":"31.14671","category":"45","category_name":"产业园区","address":"城中东路66号2层"},{"poiid":"B2094751D56CA1F8419F","title":"Ms Chen's Restaurant & Bar","lon":"121.12579","lat":"31.14401","category":"172","category_name":"酒吧","address":"青浦区外青松公路6666弄16号帕缇欧香小区内"},{"poiid":"B2094655D268A5F54693","title":"公园路营业厅","lon":"121.11843","lat":"31.14888","category":"151","category_name":"电讯营业厅","address":"青浦区公园路406号"},{"poiid":"B2094757D568A0F44699","title":"浦义杂货店","lon":"121.12356744","lat":"31.14687663","category":"117","category_name":"便民商店/便利店","address":"城中东路82"},{"poiid":"B2094655D26FABFA4093","title":"城东新村一区","lon":"121.12278","lat":"31.14821","category":"47","category_name":"住宅区","address":""},{"poiid":"B2094655D36CA2F8419F","title":"青湖路外青松公路","lon":"121.12826","lat":"31.14603","category":"38","category_name":"公交车站","address":""},{"poiid":"B2094654DA6BA5FE469A","title":"城东新村二村2号门","lon":"121.12259","lat":"31.14759","category":"47","category_name":"住宅区","address":"保安路"},{"poiid":"B2094654DA6BA5F94299","title":"青浦夏阳街道青青心理咨询中心","lon":"121.12313","lat":"31.14614","category":"162","category_name":"医院","address":""},{"poiid":"B2094654DA6BA5FD4993","title":"保安新村18-22号楼(北侧)","lon":"121.1254","lat":"31.1477","category":"47","category_name":"住宅区","address":"淀浦河东路225号"},{"poiid":"B2094753D76DA0FF4293","title":"鹭鹭小馆","lon":"121.120529","lat":"31.146512","category":"247","category_name":"餐饮美食","address":"上海市 青浦区公园路"},{"poiid":"B2094757D16DAAFF419E","title":"青浦热浪游泳健身会所","lon":"121.12440467","lat":"31.141178186","category":"500","category_name":"未知分类","address":"青浦区外青松公路6666号(近沪青平公路)"},{"poiid":"B2094757D66EA3FC449A","title":"盈港缘汗蒸馆","lon":"121.124819671","lat":"31.1476133159","category":"148","category_name":"美容美发店","address":"上海青浦区青龙路7号"},{"poiid":"B2094753D164AAF84198","title":"上井精致料理","lon":"121.126556","lat":"31.146908","category":"247","category_name":"餐饮美食","address":"上海市 青浦店"},{"poiid":"B2094654DA6BA5F94199","title":"保安新村","lon":"121.12564","lat":"31.145197","category":"47","category_name":"住宅区","address":"淀浦河东路225号"},{"poiid":"B2094757D16FA2F94693","title":"欧洲街","lon":"121.125363","lat":"31.150549","category":"500","category_name":"未知分类","address":"上海青浦区公园路"},{"poiid":"B2094655D268A1FD469D","title":"亿路顺典当","lon":"121.12376","lat":"31.1467","category":"249","category_name":"购物服务","address":"城中东路72"},{"poiid":"B2094757D064ABFB489A","title":"城中东路烧烤摊","lon":"121.12155","lat":"31.146325","category":"247","category_name":"餐饮美食","address":"上海浦仓路城中东路"},{"poiid":"B2094654DB64A3F5469B","title":"上海青浦工业园区创业中心","lon":"121.12488","lat":"31.1492","category":"45","category_name":"产业园区","address":"公园路99号11层"},{"poiid":"B2094654DA6BA5FE4299","title":"上海益田经济开发区","lon":"121.12488","lat":"31.1492","category":"45","category_name":"产业园区","address":"公园路99号1层"},{"poiid":"B2094654DB64A3F5459C","title":"中国工商银行城东支行","lon":"121.12391","lat":"31.1467","category":"150","category_name":"银行","address":"青浦区青浦镇城中东路66号保安路加油站对面(保安路城中东路)"},{"poiid":"B2094654DA6BA5FE4692","title":"青浦区职业技术培训学校","lon":"121.12152","lat":"31.14723","category":"54","category_name":"职业技术学校","address":"青浦区浦仓路252号"},{"poiid":"B2094654DA6BA5FE469D","title":"上海市青浦区劳动保障协会","lon":"121.12152","lat":"31.14723","category":"250","category_name":"公园户外","address":"浦仓路252号"},{"poiid":"B2094655D36CA5FF439C","title":"城中东路浦仓路","lon":"121.12033","lat":"31.14653","category":"38","category_name":"公交车站","address":""},{"poiid":"B2094655D26FABFF489B","title":"城东新村南门(青浦区夏阳街道人民调解工作室西南)","lon":"121.12203","lat":"31.14665","category":"47","category_name":"住宅区","address":""},{"poiid":"B2094757D16FA0FE4898","title":"青浦区桂花苑","lon":"121.127376171","lat":"31.1456536766","category":"252","category_name":"楼宇机构","address":"上海青浦区青湖路1070弄"},{"poiid":"B2094757D465A5F4419E","title":"永和大王 青浦店","lon":"121.12046813965","lat":"31.148950576782","category":"68","category_name":"快餐厅","address":"青浦区公园路544号稻香村商业广场1楼(近青安路)"},{"poiid":"B2094655D26FABFA419B","title":"城东新邨一邨(北门)","lon":"121.12279","lat":"31.14898","category":"47","category_name":"住宅区","address":""},{"poiid":"B2094655D26BA1FC4092","title":"浦仓路","lon":"121.12089","lat":"31.14887","category":"38","category_name":"公交车站","address":"城东新村123号"},{"poiid":"B2094757D068A3F9439E","title":"自由港量贩式KTV(青浦店)","lon":"121.12195","lat":"31.14887","category":"170","category_name":"KTV","address":"青浦区公园路258号(浦仓路口)"},{"poiid":"B2094655D36CA5FF4392","title":"城中东路保安路","lon":"121.12422","lat":"31.14644","category":"38","category_name":"公交车站","address":""},{"poiid":"B2094757D06BABFF4693","title":"青浦区政府","lon":"121.12415141","lat":"31.15036197","category":"500","category_name":"未知分类","address":"上海公园路100号"},{"poiid":"B2094750D568A0F94392","title":"香港纯Kparyt","lon":"121.126731","lat":"31.146087","category":"170","category_name":"KTV","address":"青浦区青湖路晨兴国际"},{"poiid":"B2094757D165A7F54198","title":"青浦教师进修学院","lon":"121.12072706","lat":"31.148430402","category":"253","category_name":"校园生活","address":"上海青浦"},{"poiid":"B2094757D068A3F8439C","title":"85度C 青浦店","lon":"121.12089","lat":"31.14898","category":"112","category_name":"糕饼店","address":"青浦区公园路300号农工商超市旁(浦仓路公园路)"},{"poiid":"B2094757D06BA4FA499D","title":"青浦区行政服务中心","lon":"121.12342184","lat":"31.152591323","category":"500","category_name":"未知分类","address":"上海近郊青浦区外青松公路6189号"},{"poiid":"B2094654DA6BA6FC469C","title":"农工商超市NO.50","lon":"121.12065","lat":"31.14896","category":"118","category_name":"超级市场","address":"青浦镇"},{"poiid":"B2094654DA6BA5F94393","title":"青浦东方中学","lon":"121.12189","lat":"31.14408","category":"55","category_name":"中学","address":"上海青浦区浦仓路88号"},{"poiid":"B2094757D06BA4FA489B","title":"迪欧咖啡(青浦店)","lon":"121.12578","lat":"31.14938","category":"65","category_name":"咖啡厅","address":"青浦区公园路99号(公园路外青松公路)"},{"poiid":"B2094757D665ABF84599","title":"红宝石 城中东路店 Ruby","lon":"121.12091","lat":"31.14668","category":"67","category_name":"甜品店","address":"青浦区城中东路218号(城中东路浦仓路)"},{"poiid":"B2094654DA6BA5FE449C","title":"友谊酒家","lon":"121.12075433399","lat":"31.149022380998","category":"76","category_name":"上海菜","address":"青浦区公园路197号(近外青松公路)"},{"poiid":"B2094654DA6BA5FD4692","title":"青浦区东门小学","lon":"121.12454","lat":"31.14716","category":"56","category_name":"小学","address":"青浦区城中东路48号"},{"poiid":"B2094654DB69AAF9409B","title":"巷深酒楼","lon":"121.121047054","lat":"31.147857793","category":"76","category_name":"上海菜","address":"青浦区浦仓路250号(城中东路浦仓路)"},{"poiid":"B2094757D66EA5F94999","title":"咔浓咖啡","lon":"121.119855035","lat":"31.1505348737","category":"65","category_name":"咖啡厅","address":"青浦区欧洲街74弄3号"},{"poiid":"B2094757D169AAF8489C","title":"青浦区社保中心","lon":"121.122893","lat":"31.149602","category":"500","category_name":"未知分类","address":"上海公园路200号"},{"poiid":"B2094757D16CA0FB499B","title":"世田造型","lon":"121.120825","lat":"31.150514","category":"148","category_name":"美容美发店","address":"上海浦仓路"},{"poiid":"B2094757D66CA7FF459E","title":"越岭阁(青浦店)","lon":"121.12066","lat":"31.14847","category":"96","category_name":"韩国料理","address":"青浦区公园路209号(近浦仓路)"},{"poiid":"B2094654DA6BA5FE409C","title":"舜浦大厦","lon":"121.12488","lat":"31.14919","category":"46","category_name":"楼宇","address":"上海青浦区公园路99号"},{"poiid":"B2094654DA6BA5FD469F","title":"城东口腔门诊部","lon":"121.12436","lat":"31.14676","category":"162","category_name":"医院","address":"城中东路54号"},{"poiid":"B2094654DA6BA5FD459E","title":"青浦镇城东新邨一邨2号门","lon":"121.12357","lat":"31.14732","category":"47","category_name":"住宅区","address":"城东新邨24号楼"},{"poiid":"B2094655D268A6FB469C","title":"城东一邨","lon":"121.1241","lat":"31.14732","category":"47","category_name":"住宅区","address":""},{"poiid":"B2094654DA6BA5FD4592","title":"上海宏良经济开发区","lon":"121.12387","lat":"31.14671","category":"45","category_name":"产业园区","address":"城中东路66号2层"},{"poiid":"B2094751D56CA1F8419F","title":"Ms Chen's Restaurant & Bar","lon":"121.12579","lat":"31.14401","category":"172","category_name":"酒吧","address":"青浦区外青松公路6666弄16号帕缇欧香小区内"},{"poiid":"B2094655D268A5F54693","title":"公园路营业厅","lon":"121.11843","lat":"31.14888","category":"151","category_name":"电讯营业厅","address":"青浦区公园路406号"},{"poiid":"B2094757D568A0F44699","title":"浦义杂货店","lon":"121.12356744","lat":"31.14687663","category":"117","category_name":"便民商店/便利店","address":"城中东路82"},{"poiid":"B2094655D26FABFA4093","title":"城东新村一区","lon":"121.12278","lat":"31.14821","category":"47","category_name":"住宅区","address":""},{"poiid":"B2094655D36CA2F8419F","title":"青湖路外青松公路","lon":"121.12826","lat":"31.14603","category":"38","category_name":"公交车站","address":""},{"poiid":"B2094654DA6BA5FE469A","title":"城东新村二村2号门","lon":"121.12259","lat":"31.14759","category":"47","category_name":"住宅区","address":"保安路"},{"poiid":"B2094654DA6BA5F94299","title":"青浦夏阳街道青青心理咨询中心","lon":"121.12313","lat":"31.14614","category":"162","category_name":"医院","address":""},{"poiid":"B2094654DA6BA5FD4993","title":"保安新村18-22号楼(北侧)","lon":"121.1254","lat":"31.1477","category":"47","category_name":"住宅区","address":"淀浦河东路225号"},{"poiid":"B2094753D76DA0FF4293","title":"鹭鹭小馆","lon":"121.120529","lat":"31.146512","category":"247","category_name":"餐饮美食","address":"上海市 青浦区公园路"},{"poiid":"B2094757D16DAAFF419E","title":"青浦热浪游泳健身会所","lon":"121.12440467","lat":"31.141178186","category":"500","category_name":"未知分类","address":"青浦区外青松公路6666号(近沪青平公路)"},{"poiid":"B2094757D66EA3FC449A","title":"盈港缘汗蒸馆","lon":"121.124819671","lat":"31.1476133159","category":"148","category_name":"美容美发店","address":"上海青浦区青龙路7号"},{"poiid":"B2094753D164AAF84198","title":"上井精致料理","lon":"121.126556","lat":"31.146908","category":"247","category_name":"餐饮美食","address":"上海市 青浦店"},{"poiid":"B2094654DA6BA5F94199","title":"保安新村","lon":"121.12564","lat":"31.145197","category":"47","category_name":"住宅区","address":"淀浦河东路225号"},{"poiid":"B2094757D16FA2F94693","title":"欧洲街","lon":"121.125363","lat":"31.150549","category":"500","category_name":"未知分类","address":"上海青浦区公园路"},{"poiid":"B2094655D268A1FD469D","title":"亿路顺典当","lon":"121.12376","lat":"31.1467","category":"249","category_name":"购物服务","address":"城中东路72"},{"poiid":"B2094757D064ABFB489A","title":"城中东路烧烤摊","lon":"121.12155","lat":"31.146325","category":"247","category_name":"餐饮美食","address":"上海浦仓路城中东路"},{"poiid":"B2094654DB64A3F5469B","title":"上海青浦工业园区创业中心","lon":"121.12488","lat":"31.1492","category":"45","category_name":"产业园区","address":"公园路99号11层"},{"poiid":"B2094654DA6BA5FE4299","title":"上海益田经济开发区","lon":"121.12488","lat":"31.1492","category":"45","category_name":"产业园区","address":"公园路99号1层"},{"poiid":"B2094654DB64A3F5459C","title":"中国工商银行城东支行","lon":"121.12391","lat":"31.1467","category":"150","category_name":"银行","address":"青浦区青浦镇城中东路66号保安路加油站对面(保安路城中东路)"},{"poiid":"B2094654DA6BA5FE4692","title":"青浦区职业技术培训学校","lon":"121.12152","lat":"31.14723","category":"54","category_name":"职业技术学校","address":"青浦区浦仓路252号"},{"poiid":"B2094654DA6BA5FE469D","title":"上海市青浦区劳动保障协会","lon":"121.12152","lat":"31.14723","category":"250","category_name":"公园户外","address":"浦仓路252号"},{"poiid":"B2094655D36CA5FF439C","title":"城中东路浦仓路","lon":"121.12033","lat":"31.14653","category":"38","category_name":"公交车站","address":""},{"poiid":"B2094655D26FABFF489B","title":"城东新村南门(青浦区夏阳街道人民调解工作室西南)","lon":"121.12203","lat":"31.14665","category":"47","category_name":"住宅区","address":""},{"poiid":"B2094757D16FA0FE4898","title":"青浦区桂花苑","lon":"121.127376171","lat":"31.1456536766","category":"252","category_name":"楼宇机构","address":"上海青浦区青湖路1070弄"},{"poiid":"B2094757D465A5F4419E","title":"永和大王 青浦店","lon":"121.12046813965","lat":"31.148950576782","category":"68","category_name":"快餐厅","address":"青浦区公园路544号稻香村商业广场1楼(近青安路)"},{"poiid":"B2094655D26FABFA419B","title":"城东新邨一邨(北门)","lon":"121.12279","lat":"31.14898","category":"47","category_name":"住宅区","address":""},{"poiid":"B2094655D26BA1FC4092","title":"浦仓路","lon":"121.12089","lat":"31.14887","category":"38","category_name":"公交车站","address":"城东新村123号"},{"poiid":"B2094757D068A3F9439E","title":"自由港量贩式KTV(青浦店)","lon":"121.12195","lat":"31.14887","category":"170","category_name":"KTV","address":"青浦区公园路258号(浦仓路口)"},{"poiid":"B2094655D36CA5FF4392","title":"城中东路保安路","lon":"121.12422","lat":"31.14644","category":"38","category_name":"公交车站","address":""},{"poiid":"B2094757D06BABFF4693","title":"青浦区政府","lon":"121.12415141","lat":"31.15036197","category":"500","category_name":"未知分类","address":"上海公园路100号"},{"poiid":"B2094750D568A0F94392","title":"香港纯Kparyt","lon":"121.126731","lat":"31.146087","category":"170","category_name":"KTV","address":"青浦区青湖路晨兴国际"},{"poiid":"B2094757D165A7F54198","title":"青浦教师进修学院","lon":"121.12072706","lat":"31.148430402","category":"253","category_name":"校园生活","address":"上海青浦"},{"poiid":"B2094757D068A3F8439C","title":"85度C 青浦店","lon":"121.12089","lat":"31.14898","category":"112","category_name":"糕饼店","address":"青浦区公园路300号农工商超市旁(浦仓路公园路)"},{"poiid":"B2094757D06BA4FA499D","title":"青浦区行政服务中心","lon":"121.12342184","lat":"31.152591323","category":"500","category_name":"未知分类","address":"上海近郊青浦区外青松公路6189号"},{"poiid":"B2094654DA6BA6FC469C","title":"农工商超市NO.50","lon":"121.12065","lat":"31.14896","category":"118","category_name":"超级市场","address":"青浦镇"},{"poiid":"B2094654DA6BA5F94393","title":"青浦东方中学","lon":"121.12189","lat":"31.14408","category":"55","category_name":"中学","address":"上海青浦区浦仓路88号"},{"poiid":"B2094757D06BA4FA489B","title":"迪欧咖啡(青浦店)","lon":"121.12578","lat":"31.14938","category":"65","category_name":"咖啡厅","address":"青浦区公园路99号(公园路外青松公路)"},{"poiid":"B2094757D665ABF84599","title":"红宝石 城中东路店 Ruby","lon":"121.12091","lat":"31.14668","category":"67","category_name":"甜品店","address":"青浦区城中东路218号(城中东路浦仓路)"},{"poiid":"B2094654DA6BA5FE449C","title":"友谊酒家","lon":"121.12075433399","lat":"31.149022380998","category":"76","category_name":"上海菜","address":"青浦区公园路197号(近外青松公路)"},{"poiid":"B2094654DA6BA5FD4692","title":"青浦区东门小学","lon":"121.12454","lat":"31.14716","category":"56","category_name":"小学","address":"青浦区城中东路48号"},{"poiid":"B2094654DB69AAF9409B","title":"巷深酒楼","lon":"121.121047054","lat":"31.147857793","category":"76","category_name":"上海菜","address":"青浦区浦仓路250号(城中东路浦仓路)"},{"poiid":"B2094757D66EA5F94999","title":"咔浓咖啡","lon":"121.119855035","lat":"31.1505348737","category":"65","category_name":"咖啡厅","address":"青浦区欧洲街74弄3号"},{"poiid":"B2094757D169AAF8489C","title":"青浦区社保中心","lon":"121.122893","lat":"31.149602","category":"500","category_name":"未知分类","address":"上海公园路200号"},{"poiid":"B2094757D16CA0FB499B","title":"世田造型","lon":"121.120825","lat":"31.150514","category":"148","category_name":"美容美发店","address":"上海浦仓路"},{"poiid":"B2094757D66CA7FF459E","title":"越岭阁(青浦店)","lon":"121.12066","lat":"31.14847","category":"96","category_name":"韩国料理","address":"青浦区公园路209号(近浦仓路)"},{"poiid":"B2094654DA6BA5FE409C","title":"舜浦大厦","lon":"121.12488","lat":"31.14919","category":"46","category_name":"楼宇","address":"上海青浦区公园路99号"},{"poiid":"B2094654DA6BA5FD469F","title":"城东口腔门诊部","lon":"121.12436","lat":"31.14676","category":"162","category_name":"医院","address":"城中东路54号"},{"poiid":"B2094654DA6BA5FD459E","title":"青浦镇城东新邨一邨2号门","lon":"121.12357","lat":"31.14732","category":"47","category_name":"住宅区","address":"城东新邨24号楼"},{"poiid":"B2094655D268A6FB469C","title":"城东一邨","lon":"121.1241","lat":"31.14732","category":"47","category_name":"住宅区","address":""},{"poiid":"B2094654DA6BA5FD4592","title":"上海宏良经济开发区","lon":"121.12387","lat":"31.14671","category":"45","category_name":"产业园区","address":"城中东路66号2层"},{"poiid":"B2094751D56CA1F8419F","title":"Ms Chen's Restaurant & Bar","lon":"121.12579","lat":"31.14401","category":"172","category_name":"酒吧","address":"青浦区外青松公路6666弄16号帕缇欧香小区内"},{"poiid":"B2094655D268A5F54693","title":"公园路营业厅","lon":"121.11843","lat":"31.14888","category":"151","category_name":"电讯营业厅","address":"青浦区公园路406号"},{"poiid":"B2094757D568A0F44699","title":"浦义杂货店","lon":"121.12356744","lat":"31.14687663","category":"117","category_name":"便民商店/便利店","address":"城中东路82"},{"poiid":"B2094655D26FABFA4093","title":"城东新村一区","lon":"121.12278","lat":"31.14821","category":"47","category_name":"住宅区","address":""},{"poiid":"B2094655D36CA2F8419F","title":"青湖路外青松公路","lon":"121.12826","lat":"31.14603","category":"38","category_name":"公交车站","address":""},{"poiid":"B2094654DA6BA5FE469A","title":"城东新村二村2号门","lon":"121.12259","lat":"31.14759","category":"47","category_name":"住宅区","address":"保安路"},{"poiid":"B2094654DA6BA5F94299","title":"青浦夏阳街道青青心理咨询中心","lon":"121.12313","lat":"31.14614","category":"162","category_name":"医院","address":""},{"poiid":"B2094654DA6BA5FD4993","title":"保安新村18-22号楼(北侧)","lon":"121.1254","lat":"31.1477","category":"47","category_name":"住宅区","address":"淀浦河东路225号"},{"poiid":"B2094753D76DA0FF4293","title":"鹭鹭小馆","lon":"121.120529","lat":"31.146512","category":"247","category_name":"餐饮美食","address":"上海市 青浦区公园路"},{"poiid":"B2094757D16DAAFF419E","title":"青浦热浪游泳健身会所","lon":"121.12440467","lat":"31.141178186","category":"500","category_name":"未知分类","address":"青浦区外青松公路6666号(近沪青平公路)"},{"poiid":"B2094757D66EA3FC449A","title":"盈港缘汗蒸馆","lon":"121.124819671","lat":"31.1476133159","category":"148","category_name":"美容美发店","address":"上海青浦区青龙路7号"},{"poiid":"B2094753D164AAF84198","title":"上井精致料理","lon":"121.126556","lat":"31.146908","category":"247","category_name":"餐饮美食","address":"上海市 青浦店"},{"poiid":"B2094654DA6BA5F94199","title":"保安新村","lon":"121.12564","lat":"31.145197","category":"47","category_name":"住宅区","address":"淀浦河东路225号"},{"poiid":"B2094757D16FA2F94693","title":"欧洲街","lon":"121.125363","lat":"31.150549","category":"500","category_name":"未知分类","address":"上海青浦区公园路"},{"poiid":"B2094655D268A1FD469D","title":"亿路顺典当","lon":"121.12376","lat":"31.1467","category":"249","category_name":"购物服务","address":"城中东路72"},{"poiid":"B2094757D064ABFB489A","title":"城中东路烧烤摊","lon":"121.12155","lat":"31.146325","category":"247","category_name":"餐饮美食","address":"上海浦仓路城中东路"},{"poiid":"B2094654DB64A3F5469B","title":"上海青浦工业园区创业中心","lon":"121.12488","lat":"31.1492","category":"45","category_name":"产业园区","address":"公园路99号11层"},{"poiid":"B2094654DA6BA5FE4299","title":"上海益田经济开发区","lon":"121.12488","lat":"31.1492","category":"45","category_name":"产业园区","address":"公园路99号1层"},{"poiid":"B2094654DB64A3F5459C","title":"中国工商银行城东支行","lon":"121.12391","lat":"31.1467","category":"150","category_name":"银行","address":"青浦区青浦镇城中东路66号保安路加油站对面(保安路城中东路)"},{"poiid":"B2094654DA6BA5FE4692","title":"青浦区职业技术培训学校","lon":"121.12152","lat":"31.14723","category":"54","category_name":"职业技术学校","address":"青浦区浦仓路252号"},{"poiid":"B2094654DA6BA5FE469D","title":"上海市青浦区劳动保障协会","lon":"121.12152","lat":"31.14723","category":"250","category_name":"公园户外","address":"浦仓路252号"},{"poiid":"B2094655D36CA5FF439C","title":"城中东路浦仓路","lon":"121.12033","lat":"31.14653","category":"38","category_name":"公交车站","address":""},{"poiid":"B2094655D26FABFF489B","title":"城东新村南门(青浦区夏阳街道人民调解工作室西南)","lon":"121.12203","lat":"31.14665","category":"47","category_name":"住宅区","address":""},{"poiid":"B2094757D16FA0FE4898","title":"青浦区桂花苑","lon":"121.127376171","lat":"31.1456536766","category":"252","category_name":"楼宇机构","address":"上海青浦区青湖路1070弄"},{"poiid":"B2094757D465A5F4419E","title":"永和大王 青浦店","lon":"121.12046813965","lat":"31.148950576782","category":"68","category_name":"快餐厅","address":"青浦区公园路544号稻香村商业广场1楼(近青安路)"},{"poiid":"B2094655D26FABFA419B","title":"城东新邨一邨(北门)","lon":"121.12279","lat":"31.14898","category":"47","category_name":"住宅区","address":""},{"poiid":"B2094655D26BA1FC4092","title":"浦仓路","lon":"121.12089","lat":"31.14887","category":"38","category_name":"公交车站","address":"城东新村123号"},{"poiid":"B2094757D068A3F9439E","title":"自由港量贩式KTV(青浦店)","lon":"121.12195","lat":"31.14887","category":"170","category_name":"KTV","address":"青浦区公园路258号(浦仓路口)"},{"poiid":"B2094655D36CA5FF4392","title":"城中东路保安路","lon":"121.12422","lat":"31.14644","category":"38","category_name":"公交车站","address":""},{"poiid":"B2094757D06BABFF4693","title":"青浦区政府","lon":"121.12415141","lat":"31.15036197","category":"500","category_name":"未知分类","address":"上海公园路100号"},{"poiid":"B2094750D568A0F94392","title":"香港纯Kparyt","lon":"121.126731","lat":"31.146087","category":"170","category_name":"KTV","address":"青浦区青湖路晨兴国际"},{"poiid":"B2094757D165A7F54198","title":"青浦教师进修学院","lon":"121.12072706","lat":"31.148430402","category":"253","category_name":"校园生活","address":"上海青浦"},{"poiid":"B2094757D068A3F8439C","title":"85度C 青浦店","lon":"121.12089","lat":"31.14898","category":"112","category_name":"糕饼店","address":"青浦区公园路300号农工商超市旁(浦仓路公园路)"},{"poiid":"B2094757D06BA4FA499D","title":"青浦区行政服务中心","lon":"121.12342184","lat":"31.152591323","category":"500","category_name":"未知分类","address":"上海近郊青浦区外青松公路6189号"},{"poiid":"B2094654DA6BA6FC469C","title":"农工商超市NO.50","lon":"121.12065","lat":"31.14896","category":"118","category_name":"超级市场","address":"青浦镇"},{"poiid":"B2094654DA6BA5F94393","title":"青浦东方中学","lon":"121.12189","lat":"31.14408","category":"55","category_name":"中学","address":"上海青浦区浦仓路88号"},{"poiid":"B2094757D06BA4FA489B","title":"迪欧咖啡(青浦店)","lon":"121.12578","lat":"31.14938","category":"65","category_name":"咖啡厅","address":"青浦区公园路99号(公园路外青松公路)"},{"poiid":"B2094757D665ABF84599","title":"红宝石 城中东路店 Ruby","lon":"121.12091","lat":"31.14668","category":"67","category_name":"甜品店","address":"青浦区城中东路218号(城中东路浦仓路)"},{"poiid":"B2094654DA6BA5FE449C","title":"友谊酒家","lon":"121.12075433399","lat":"31.149022380998","category":"76","category_name":"上海菜","address":"青浦区公园路197号(近外青松公路)"},{"poiid":"B2094654DA6BA5FD4692","title":"青浦区东门小学","lon":"121.12454","lat":"31.14716","category":"56","category_name":"小学","address":"青浦区城中东路48号"},{"poiid":"B2094654DB69AAF9409B","title":"巷深酒楼","lon":"121.121047054","lat":"31.147857793","category":"76","category_name":"上海菜","address":"青浦区浦仓路250号(城中东路浦仓路)"},{"poiid":"B2094757D66EA5F94999","title":"咔浓咖啡","lon":"121.119855035","lat":"31.1505348737","category":"65","category_name":"咖啡厅","address":"青浦区欧洲街74弄3号"},{"poiid":"B2094757D169AAF8489C","title":"青浦区社保中心","lon":"121.122893","lat":"31.149602","category":"500","category_name":"未知分类","address":"上海公园路200号"},{"poiid":"B2094757D16CA0FB499B","title":"世田造型","lon":"121.120825","lat":"31.150514","category":"148","category_name":"美容美发店","address":"上海浦仓路"},{"poiid":"B2094757D66CA7FF459E","title":"越岭阁(青浦店)","lon":"121.12066","lat":"31.14847","category":"96","category_name":"韩国料理","address":"青浦区公园路209号(近浦仓路)"},{"poiid":"B2094654DA6BA5FE409C","title":"舜浦大厦","lon":"121.12488","lat":"31.14919","category":"46","category_name":"楼宇","address":"上海青浦区公园路99号"},{"poiid":"B2094654DA6BA5FD469F","title":"城东口腔门诊部","lon":"121.12436","lat":"31.14676","category":"162","category_name":"医院","address":"城中东路54号"},{"poiid":"B2094654DA6BA5FD459E","title":"青浦镇城东新邨一邨2号门","lon":"121.12357","lat":"31.14732","category":"47","category_name":"住宅区","address":"城东新邨24号楼"},{"poiid":"B2094655D268A6FB469C","title":"城东一邨","lon":"121.1241","lat":"31.14732","category":"47","category_name":"住宅区","address":""},{"poiid":"B2094654DA6BA5FD4592","title":"上海宏良经济开发区","lon":"121.12387","lat":"31.14671","category":"45","category_name":"产业园区","address":"城中东路66号2层"},{"poiid":"B2094751D56CA1F8419F","title":"Ms Chen's Restaurant & Bar","lon":"121.12579","lat":"31.14401","category":"172","category_name":"酒吧","address":"青浦区外青松公路6666弄16号帕缇欧香小区内"},{"poiid":"B2094655D268A5F54693","title":"公园路营业厅","lon":"121.11843","lat":"31.14888","category":"151","category_name":"电讯营业厅","address":"青浦区公园路406号"},{"poiid":"B2094757D568A0F44699","title":"浦义杂货店","lon":"121.12356744","lat":"31.14687663","category":"117","category_name":"便民商店/便利店","address":"城中东路82"},{"poiid":"B2094655D26FABFA4093","title":"城东新村一区","lon":"121.12278","lat":"31.14821","category":"47","category_name":"住宅区","address":""},{"poiid":"B2094655D36CA2F8419F","title":"青湖路外青松公路","lon":"121.12826","lat":"31.14603","category":"38","category_name":"公交车站","address":""},{"poiid":"B2094654DA6BA5FE469A","title":"城东新村二村2号门","lon":"121.12259","lat":"31.14759","category":"47","category_name":"住宅区","address":"保安路"},{"poiid":"B2094654DA6BA5F94299","title":"青浦夏阳街道青青心理咨询中心","lon":"121.12313","lat":"31.14614","category":"162","category_name":"医院","address":""},{"poiid":"B2094654DA6BA5FD4993","title":"保安新村18-22号楼(北侧)","lon":"121.1254","lat":"31.1477","category":"47","category_name":"住宅区","address":"淀浦河东路225号"},{"poiid":"B2094753D76DA0FF4293","title":"鹭鹭小馆","lon":"121.120529","lat":"31.146512","category":"247","category_name":"餐饮美食","address":"上海市 青浦区公园路"},{"poiid":"B2094757D16DAAFF419E","title":"青浦热浪游泳健身会所","lon":"121.12440467","lat":"31.141178186","category":"500","category_name":"未知分类","address":"青浦区外青松公路6666号(近沪青平公路)"},{"poiid":"B2094757D66EA3FC449A","title":"盈港缘汗蒸馆","lon":"121.124819671","lat":"31.1476133159","category":"148","category_name":"美容美发店","address":"上海青浦区青龙路7号"},{"poiid":"B2094753D164AAF84198","title":"上井精致料理","lon":"121.126556","lat":"31.146908","category":"247","category_name":"餐饮美食","address":"上海市 青浦店"},{"poiid":"B2094654DA6BA5F94199","title":"保安新村","lon":"121.12564","lat":"31.145197","category":"47","category_name":"住宅区","address":"淀浦河东路225号"},{"poiid":"B2094757D16FA2F94693","title":"欧洲街","lon":"121.125363","lat":"31.150549","category":"500","category_name":"未知分类","address":"上海青浦区公园路"},{"poiid":"B2094655D268A1FD469D","title":"亿路顺典当","lon":"121.12376","lat":"31.1467","category":"249","category_name":"购物服务","address":"城中东路72"},{"poiid":"B2094757D064ABFB489A","title":"城中东路烧烤摊","lon":"121.12155","lat":"31.146325","category":"247","category_name":"餐饮美食","address":"上海浦仓路城中东路"},{"poiid":"B2094654DB64A3F5469B","title":"上海青浦工业园区创业中心","lon":"121.12488","lat":"31.1492","category":"45","category_name":"产业园区","address":"公园路99号11层"},{"poiid":"B2094654DA6BA5FE4299","title":"上海益田经济开发区","lon":"121.12488","lat":"31.1492","category":"45","category_name":"产业园区","address":"公园路99号1层"},{"poiid":"B2094654DB64A3F5459C","title":"中国工商银行城东支行","lon":"121.12391","lat":"31.1467","category":"150","category_name":"银行","address":"青浦区青浦镇城中东路66号保安路加油站对面(保安路城中东路)"},{"poiid":"B2094654DA6BA5FE4692","title":"青浦区职业技术培训学校","lon":"121.12152","lat":"31.14723","category":"54","category_name":"职业技术学校","address":"青浦区浦仓路252号"},{"poiid":"B2094654DA6BA5FE469D","title":"上海市青浦区劳动保障协会","lon":"121.12152","lat":"31.14723","category":"250","category_name":"公园户外","address":"浦仓路252号"},{"poiid":"B2094655D36CA5FF439C","title":"城中东路浦仓路","lon":"121.12033","lat":"31.14653","category":"38","category_name":"公交车站","address":""},{"poiid":"B2094655D26FABFF489B","title":"城东新村南门(青浦区夏阳街道人民调解工作室西南)","lon":"121.12203","lat":"31.14665","category":"47","category_name":"住宅区","address":""},{"poiid":"B2094757D16FA0FE4898","title":"青浦区桂花苑","lon":"121.127376171","lat":"31.1456536766","category":"252","category_name":"楼宇机构","address":"上海青浦区青湖路1070弄"},{"poiid":"B2094757D465A5F4419E","title":"永和大王 青浦店","lon":"121.12046813965","lat":"31.148950576782","category":"68","category_name":"快餐厅","address":"青浦区公园路544号稻香村商业广场1楼(近青安路)"},{"poiid":"B2094655D26FABFA419B","title":"城东新邨一邨(北门)","lon":"121.12279","lat":"31.14898","category":"47","category_name":"住宅区","address":""},{"poiid":"B2094655D26BA1FC4092","title":"浦仓路","lon":"121.12089","lat":"31.14887","category":"38","category_name":"公交车站","address":"城东新村123号"}]