[{"poiid":"B2094757D06FA7F4409B","title":"金桥路浦东大道","lon":"121.570783","lat":"31.2663931","category":"260","category_name":"其他","address":"上海浦东新区金桥路浦东大道"},{"poiid":"B2094655D26BA2F4459B","title":"栖山路金桥路","lon":"121.57318","lat":"31.26157","category":"38","category_name":"公交车站","address":""},{"poiid":"B2094757D16FAAF9489E","title":"出出汗羽毛球馆","lon":"121.57750033","lat":"31.259098006","category":"500","category_name":"未知分类","address":"浦东新区金桥路799号(博山东路口)"},{"poiid":"B2094654DB6BA1FD469B","title":"锦江之星(金桥路店)","lon":"121.57164","lat":"31.26161","category":"216","category_name":"经济型连锁酒店","address":"浦东新区栖山路1875号(栖山路团林路)"},{"poiid":"B2094655D26CA5FC4799","title":"蝶恋园","lon":"121.57263","lat":"31.26247","category":"47","category_name":"住宅区","address":"上海市浦东新区金桥路338号"},{"poiid":"B2094655D26BA5F5469F","title":"中环滨江大厦","lon":"121.57168","lat":"31.26648","category":"47","category_name":"住宅区","address":"上海浦东新区浦东大道2742号(近金桥路)"},{"poiid":"B2094757D068A3FD479F","title":"肯德基 KFC (金桥店)","lon":"121.577796","lat":"31.258478","category":"68","category_name":"快餐厅","address":"浦东新区张杨路3611号金桥国际商业广场1座1楼--2楼(金桥路张杨路)"},{"poiid":"B2094757D069A4FC4293","title":"浦东大道金桥路","lon":"121.569491","lat":"31.265606","category":"500","category_name":"未知分类","address":"上海浦东消防支队"},{"poiid":"B2094654DB6BA1FD4698","title":"上海海事大学东校区北门(浦东大道)","lon":"121.56855","lat":"31.26329","category":"52","category_name":"高等院校","address":"浦东大道2600"},{"poiid":"B2094757D069A1FD429E","title":"建平实验中学","lon":"121.57119","lat":"31.25922","category":"55","category_name":"中学","address":"浦东新区枣庄路111号(近栖山路)"},{"poiid":"B2094655D26FA0FE4193","title":"陈家宅小区","lon":"121.57315","lat":"31.26672","category":"47","category_name":"住宅区","address":"金桥路301弄1-32号"},{"poiid":"B2094655D265A2FA479A","title":"巴黎贝甜 金桥店 Paris Baguette","lon":"121.580948054","lat":"31.256730793","category":"112","category_name":"糕饼店","address":"浦东新区张杨路3611号金桥国际商业广场1座1楼(金桥路博山东路)"},{"poiid":"B2094655D26FA0FA4192","title":"东方知音苑","lon":"121.57529","lat":"31.257813","category":"47","category_name":"住宅区","address":"博山东路811弄1-100号"},{"poiid":"B2094655D36CA0FE499C","title":"金桥路博山东路","lon":"121.57728","lat":"31.25884","category":"38","category_name":"公交车站","address":""},{"poiid":"B2094655D264A1FB4198","title":"建平实验小学","lon":"121.57215","lat":"31.25812","category":"56","category_name":"小学","address":"浦东新区枣庄路199号(近博山东路)"},{"poiid":"B2094654D568A7FA429B","title":"上海交通职业技术学院(浦东大道)","lon":"121.56713","lat":"31.26276","category":"52","category_name":"高等院校","address":"浦东大道2598"},{"poiid":"B2094757D069A5FF459A","title":"上房金丰苑","lon":"121.569","lat":"31.266","category":"47","category_name":"住宅区","address":"上海市浦东新区浦东大道2567号"},{"poiid":"B2094655D269AAF44598","title":"莫泰168金桥路店","lon":"121.57185","lat":"31.26483","category":"247","category_name":"餐饮美食","address":"浦东新区金桥路298号"},{"poiid":"B2094654D568A5F54699","title":"中国极地研究中心","lon":"121.57431","lat":"31.26365","category":"191","category_name":"科研机构","address":"金桥路451号"},{"poiid":"B2094757D664A7FF449A","title":"一品粥坊","lon":"121.57187","lat":"31.26483","category":"68","category_name":"快餐厅","address":"浦东新区金桥路298号(近浦东大道)"},{"poiid":"B2094757D16CA7FA499D","title":"康骏会馆(博山店)","lon":"121.57545233","lat":"31.256914956","category":"500","category_name":"未知分类","address":"浦东新区博山东路750号"},{"poiid":"B2094654DB69AAF5459E","title":"江东医院","lon":"121.57192","lat":"31.26478","category":"162","category_name":"医院","address":"浦东新区金桥路300号(近浦东大道)"},{"poiid":"B2094757D16CA5FB489B","title":"上海市远洋教育中心(友林路)","lon":"121.568641757","lat":"31.2604601886","category":"46","category_name":"楼宇","address":"上海市浦东新区友林路55号"},{"poiid":"B2094752D564A7F54293","title":"金桥国际商业广场","lon":"121.574496","lat":"31.265524","category":"247","category_name":"餐饮美食","address":null},{"poiid":"B2094655D26DA4FE4098","title":"南极苑金桥路","lon":"121.57337","lat":"31.26382","category":"47","category_name":"住宅区","address":"金桥路421弄1-10号"},{"poiid":"B2094654D568A5F5469C","title":"上海杉达学院沪东工学院","lon":"121.57604","lat":"31.26144","category":"52","category_name":"高等院校","address":"金桥路545、555"},{"poiid":"B2094655D26FA5F5459F","title":"陈家宅小区(东门)","lon":"121.57267","lat":"31.26476","category":"47","category_name":"住宅区","address":""},{"poiid":"B2094655D26BA5FD469F","title":"济川国际广场","lon":"121.569","lat":"31.2652","category":"47","category_name":"住宅区","address":"上海市浦东新区浦东大道2954弄"},{"poiid":"B2094757D16DABFF4598","title":"竹园小学(沪东校区)","lon":"121.578426","lat":"31.26551","category":"56","category_name":"小学","address":"浦东新区长岛路281号(近兰城路)"},{"poiid":"B2094757D069A5FC4498","title":"中星长岛苑","lon":"121.57972","lat":"31.266523","category":"47","category_name":"住宅区","address":"中星长岛苑位于浦东浦东蓝城路115弄"},{"poiid":"B2094655D26CA5FC479E","title":"弘扬雅苑","lon":"121.57287","lat":"31.26053","category":"47","category_name":"住宅区","address":"栖山路1876弄1-32号"},{"poiid":"B2094654D568A7F94598","title":"好德(栖山路)","lon":"121.57302","lat":"31.26165","category":"117","category_name":"便民商店/便利店","address":"栖山路1891"},{"poiid":"B2094655D26CA5FC4798","title":"栖山苑","lon":"121.57409","lat":"31.261507","category":"47","category_name":"住宅区","address":"栖山苑位于浦东栖山路金桥路口"},{"poiid":"B2094655D26BA5F4429A","title":"阿玛尼烫染造型广场","lon":"121.56878","lat":"31.26497","category":"148","category_name":"美容美发店","address":""},{"poiid":"B2094654D568A7F9449D","title":"快客No.6138","lon":"121.57283","lat":"31.26155","category":"117","category_name":"便民商店/便利店","address":"栖山路1885"},{"poiid":"B2094654D568A7F94699","title":"名角女士生活馆(金鑫休闲足浴西南)","lon":"121.57374","lat":"31.26161","category":"148","category_name":"美容美发店","address":"栖山路1918"},{"poiid":"B2094757D569A3F9419C","title":"百家便利店","lon":"121.57179335","lat":"31.26476861","category":"117","category_name":"便民商店/便利店","address":"中国上海市浦东新区金桥路"},{"poiid":"B2094655D264ABF4489E","title":"寺前浜小区","lon":"121.56795","lat":"31.264982","category":"47","category_name":"住宅区","address":"浦东大道2639弄1-36号"},{"poiid":"B2094757D06BA0F44899","title":"高庙","lon":"121.571746826","lat":"31.2650794983","category":"500","category_name":"未知分类","address":"上海浦东大道 金桥路"},{"poiid":"B2094757D568ABFC499D","title":"庆宁寺社区卫生服务站","lon":"121.571388","lat":"31.265243","category":"162","category_name":"医院","address":"金桥路260"},{"poiid":"B2094654D568A7F9459C","title":"顶尚堂上海总店","lon":"121.57337","lat":"31.26142","category":"162","category_name":"医院","address":"栖山路1900"},{"poiid":"B2094654D568A5F5469D","title":"上海海事大学海华高等技术学院","lon":"121.57604","lat":"31.26144","category":"52","category_name":"高等院校","address":"浦东新区金桥路545、555"},{"poiid":"B2094654D568A7F9489B","title":"帝凡尼狂剪美容美发","lon":"121.57335","lat":"31.26181","category":"148","category_name":"美容美发店","address":"栖山路1905号"},{"poiid":"B2094654D568A5F44898","title":"东华科技大厦","lon":"121.57269","lat":"31.26868","category":"46","category_name":"楼宇","address":"浦东大道2789号"},{"poiid":"B2094757D16AA7F84492","title":"星雨幼儿园(利津路总部)","lon":"121.574762839","lat":"31.2613715587","category":"57","category_name":"幼儿园","address":"浦东新区利津路185弄35号"},{"poiid":"B2094654D568A5F54698","title":"中国电信东昌分局庆宁寺站","lon":"121.57338","lat":"31.26436","category":"263","category_name":"公司","address":"金桥路401"},{"poiid":"B2094654D568A7FA409C","title":"海事学生公寓","lon":"121.57003","lat":"31.26349","category":"47","category_name":"住宅区","address":""},{"poiid":"B2094753D765A7FD4992","title":"和平影都","lon":"121.576545","lat":"31.26478","category":"178","category_name":"电影院","address":"上海市 西藏中路290号"},{"poiid":"B2094757D568A4F44999","title":"黛芙妮尔女子香芬养生馆栖山店","lon":"121.57373","lat":"31.2616","category":"148","category_name":"美容美发店","address":"浦东新区栖山路1918号(金桥路栖山路)"},{"poiid":"B2094654D568A7F9449B","title":"弘扬雅苑(北门)","lon":"121.5726","lat":"31.26106","category":"47","category_name":"住宅区","address":"栖山路1876弄1-32号"},{"poiid":"B2094757D06FA7F4409B","title":"金桥路浦东大道","lon":"121.570783","lat":"31.2663931","category":"260","category_name":"其他","address":"上海浦东新区金桥路浦东大道"},{"poiid":"B2094655D26BA2F4459B","title":"栖山路金桥路","lon":"121.57318","lat":"31.26157","category":"38","category_name":"公交车站","address":""},{"poiid":"B2094757D16FAAF9489E","title":"出出汗羽毛球馆","lon":"121.57750033","lat":"31.259098006","category":"500","category_name":"未知分类","address":"浦东新区金桥路799号(博山东路口)"},{"poiid":"B2094654DB6BA1FD469B","title":"锦江之星(金桥路店)","lon":"121.57164","lat":"31.26161","category":"216","category_name":"经济型连锁酒店","address":"浦东新区栖山路1875号(栖山路团林路)"},{"poiid":"B2094655D26CA5FC4799","title":"蝶恋园","lon":"121.57263","lat":"31.26247","category":"47","category_name":"住宅区","address":"上海市浦东新区金桥路338号"},{"poiid":"B2094655D26BA5F5469F","title":"中环滨江大厦","lon":"121.57168","lat":"31.26648","category":"47","category_name":"住宅区","address":"上海浦东新区浦东大道2742号(近金桥路)"},{"poiid":"B2094757D068A3FD479F","title":"肯德基 KFC (金桥店)","lon":"121.577796","lat":"31.258478","category":"68","category_name":"快餐厅","address":"浦东新区张杨路3611号金桥国际商业广场1座1楼--2楼(金桥路张杨路)"},{"poiid":"B2094757D069A4FC4293","title":"浦东大道金桥路","lon":"121.569491","lat":"31.265606","category":"500","category_name":"未知分类","address":"上海浦东消防支队"},{"poiid":"B2094654DB6BA1FD4698","title":"上海海事大学东校区北门(浦东大道)","lon":"121.56855","lat":"31.26329","category":"52","category_name":"高等院校","address":"浦东大道2600"},{"poiid":"B2094757D069A1FD429E","title":"建平实验中学","lon":"121.57119","lat":"31.25922","category":"55","category_name":"中学","address":"浦东新区枣庄路111号(近栖山路)"},{"poiid":"B2094655D26FA0FE4193","title":"陈家宅小区","lon":"121.57315","lat":"31.26672","category":"47","category_name":"住宅区","address":"金桥路301弄1-32号"},{"poiid":"B2094655D265A2FA479A","title":"巴黎贝甜 金桥店 Paris Baguette","lon":"121.580948054","lat":"31.256730793","category":"112","category_name":"糕饼店","address":"浦东新区张杨路3611号金桥国际商业广场1座1楼(金桥路博山东路)"},{"poiid":"B2094655D26FA0FA4192","title":"东方知音苑","lon":"121.57529","lat":"31.257813","category":"47","category_name":"住宅区","address":"博山东路811弄1-100号"},{"poiid":"B2094655D36CA0FE499C","title":"金桥路博山东路","lon":"121.57728","lat":"31.25884","category":"38","category_name":"公交车站","address":""},{"poiid":"B2094655D264A1FB4198","title":"建平实验小学","lon":"121.57215","lat":"31.25812","category":"56","category_name":"小学","address":"浦东新区枣庄路199号(近博山东路)"},{"poiid":"B2094654D568A7FA429B","title":"上海交通职业技术学院(浦东大道)","lon":"121.56713","lat":"31.26276","category":"52","category_name":"高等院校","address":"浦东大道2598"},{"poiid":"B2094757D069A5FF459A","title":"上房金丰苑","lon":"121.569","lat":"31.266","category":"47","category_name":"住宅区","address":"上海市浦东新区浦东大道2567号"},{"poiid":"B2094655D269AAF44598","title":"莫泰168金桥路店","lon":"121.57185","lat":"31.26483","category":"247","category_name":"餐饮美食","address":"浦东新区金桥路298号"},{"poiid":"B2094654D568A5F54699","title":"中国极地研究中心","lon":"121.57431","lat":"31.26365","category":"191","category_name":"科研机构","address":"金桥路451号"},{"poiid":"B2094757D664A7FF449A","title":"一品粥坊","lon":"121.57187","lat":"31.26483","category":"68","category_name":"快餐厅","address":"浦东新区金桥路298号(近浦东大道)"},{"poiid":"B2094757D16CA7FA499D","title":"康骏会馆(博山店)","lon":"121.57545233","lat":"31.256914956","category":"500","category_name":"未知分类","address":"浦东新区博山东路750号"},{"poiid":"B2094654DB69AAF5459E","title":"江东医院","lon":"121.57192","lat":"31.26478","category":"162","category_name":"医院","address":"浦东新区金桥路300号(近浦东大道)"},{"poiid":"B2094757D16CA5FB489B","title":"上海市远洋教育中心(友林路)","lon":"121.568641757","lat":"31.2604601886","category":"46","category_name":"楼宇","address":"上海市浦东新区友林路55号"},{"poiid":"B2094752D564A7F54293","title":"金桥国际商业广场","lon":"121.574496","lat":"31.265524","category":"247","category_name":"餐饮美食","address":null},{"poiid":"B2094655D26DA4FE4098","title":"南极苑金桥路","lon":"121.57337","lat":"31.26382","category":"47","category_name":"住宅区","address":"金桥路421弄1-10号"},{"poiid":"B2094654D568A5F5469C","title":"上海杉达学院沪东工学院","lon":"121.57604","lat":"31.26144","category":"52","category_name":"高等院校","address":"金桥路545、555"},{"poiid":"B2094655D26FA5F5459F","title":"陈家宅小区(东门)","lon":"121.57267","lat":"31.26476","category":"47","category_name":"住宅区","address":""},{"poiid":"B2094655D26BA5FD469F","title":"济川国际广场","lon":"121.569","lat":"31.2652","category":"47","category_name":"住宅区","address":"上海市浦东新区浦东大道2954弄"},{"poiid":"B2094757D16DABFF4598","title":"竹园小学(沪东校区)","lon":"121.578426","lat":"31.26551","category":"56","category_name":"小学","address":"浦东新区长岛路281号(近兰城路)"},{"poiid":"B2094757D069A5FC4498","title":"中星长岛苑","lon":"121.57972","lat":"31.266523","category":"47","category_name":"住宅区","address":"中星长岛苑位于浦东浦东蓝城路115弄"},{"poiid":"B2094655D26CA5FC479E","title":"弘扬雅苑","lon":"121.57287","lat":"31.26053","category":"47","category_name":"住宅区","address":"栖山路1876弄1-32号"},{"poiid":"B2094654D568A7F94598","title":"好德(栖山路)","lon":"121.57302","lat":"31.26165","category":"117","category_name":"便民商店/便利店","address":"栖山路1891"},{"poiid":"B2094655D26CA5FC4798","title":"栖山苑","lon":"121.57409","lat":"31.261507","category":"47","category_name":"住宅区","address":"栖山苑位于浦东栖山路金桥路口"},{"poiid":"B2094655D26BA5F4429A","title":"阿玛尼烫染造型广场","lon":"121.56878","lat":"31.26497","category":"148","category_name":"美容美发店","address":""},{"poiid":"B2094654D568A7F9449D","title":"快客No.6138","lon":"121.57283","lat":"31.26155","category":"117","category_name":"便民商店/便利店","address":"栖山路1885"},{"poiid":"B2094654D568A7F94699","title":"名角女士生活馆(金鑫休闲足浴西南)","lon":"121.57374","lat":"31.26161","category":"148","category_name":"美容美发店","address":"栖山路1918"},{"poiid":"B2094757D569A3F9419C","title":"百家便利店","lon":"121.57179335","lat":"31.26476861","category":"117","category_name":"便民商店/便利店","address":"中国上海市浦东新区金桥路"},{"poiid":"B2094655D264ABF4489E","title":"寺前浜小区","lon":"121.56795","lat":"31.264982","category":"47","category_name":"住宅区","address":"浦东大道2639弄1-36号"},{"poiid":"B2094757D06BA0F44899","title":"高庙","lon":"121.571746826","lat":"31.2650794983","category":"500","category_name":"未知分类","address":"上海浦东大道 金桥路"},{"poiid":"B2094757D568ABFC499D","title":"庆宁寺社区卫生服务站","lon":"121.571388","lat":"31.265243","category":"162","category_name":"医院","address":"金桥路260"},{"poiid":"B2094654D568A7F9459C","title":"顶尚堂上海总店","lon":"121.57337","lat":"31.26142","category":"162","category_name":"医院","address":"栖山路1900"},{"poiid":"B2094654D568A5F5469D","title":"上海海事大学海华高等技术学院","lon":"121.57604","lat":"31.26144","category":"52","category_name":"高等院校","address":"浦东新区金桥路545、555"},{"poiid":"B2094654D568A7F9489B","title":"帝凡尼狂剪美容美发","lon":"121.57335","lat":"31.26181","category":"148","category_name":"美容美发店","address":"栖山路1905号"},{"poiid":"B2094654D568A5F44898","title":"东华科技大厦","lon":"121.57269","lat":"31.26868","category":"46","category_name":"楼宇","address":"浦东大道2789号"},{"poiid":"B2094757D16AA7F84492","title":"星雨幼儿园(利津路总部)","lon":"121.574762839","lat":"31.2613715587","category":"57","category_name":"幼儿园","address":"浦东新区利津路185弄35号"},{"poiid":"B2094654D568A5F54698","title":"中国电信东昌分局庆宁寺站","lon":"121.57338","lat":"31.26436","category":"263","category_name":"公司","address":"金桥路401"},{"poiid":"B2094654D568A7FA409C","title":"海事学生公寓","lon":"121.57003","lat":"31.26349","category":"47","category_name":"住宅区","address":""},{"poiid":"B2094753D765A7FD4992","title":"和平影都","lon":"121.576545","lat":"31.26478","category":"178","category_name":"电影院","address":"上海市 西藏中路290号"},{"poiid":"B2094757D568A4F44999","title":"黛芙妮尔女子香芬养生馆栖山店","lon":"121.57373","lat":"31.2616","category":"148","category_name":"美容美发店","address":"浦东新区栖山路1918号(金桥路栖山路)"},{"poiid":"B2094654D568A7F9449B","title":"弘扬雅苑(北门)","lon":"121.5726","lat":"31.26106","category":"47","category_name":"住宅区","address":"栖山路1876弄1-32号"},{"poiid":"B2094757D06FA7F4409B","title":"金桥路浦东大道","lon":"121.570783","lat":"31.2663931","category":"260","category_name":"其他","address":"上海浦东新区金桥路浦东大道"},{"poiid":"B2094655D26BA2F4459B","title":"栖山路金桥路","lon":"121.57318","lat":"31.26157","category":"38","category_name":"公交车站","address":""},{"poiid":"B2094757D16FAAF9489E","title":"出出汗羽毛球馆","lon":"121.57750033","lat":"31.259098006","category":"500","category_name":"未知分类","address":"浦东新区金桥路799号(博山东路口)"},{"poiid":"B2094654DB6BA1FD469B","title":"锦江之星(金桥路店)","lon":"121.57164","lat":"31.26161","category":"216","category_name":"经济型连锁酒店","address":"浦东新区栖山路1875号(栖山路团林路)"},{"poiid":"B2094655D26CA5FC4799","title":"蝶恋园","lon":"121.57263","lat":"31.26247","category":"47","category_name":"住宅区","address":"上海市浦东新区金桥路338号"},{"poiid":"B2094655D26BA5F5469F","title":"中环滨江大厦","lon":"121.57168","lat":"31.26648","category":"47","category_name":"住宅区","address":"上海浦东新区浦东大道2742号(近金桥路)"},{"poiid":"B2094757D068A3FD479F","title":"肯德基 KFC (金桥店)","lon":"121.577796","lat":"31.258478","category":"68","category_name":"快餐厅","address":"浦东新区张杨路3611号金桥国际商业广场1座1楼--2楼(金桥路张杨路)"},{"poiid":"B2094757D069A4FC4293","title":"浦东大道金桥路","lon":"121.569491","lat":"31.265606","category":"500","category_name":"未知分类","address":"上海浦东消防支队"},{"poiid":"B2094654DB6BA1FD4698","title":"上海海事大学东校区北门(浦东大道)","lon":"121.56855","lat":"31.26329","category":"52","category_name":"高等院校","address":"浦东大道2600"},{"poiid":"B2094757D069A1FD429E","title":"建平实验中学","lon":"121.57119","lat":"31.25922","category":"55","category_name":"中学","address":"浦东新区枣庄路111号(近栖山路)"},{"poiid":"B2094655D26FA0FE4193","title":"陈家宅小区","lon":"121.57315","lat":"31.26672","category":"47","category_name":"住宅区","address":"金桥路301弄1-32号"},{"poiid":"B2094655D265A2FA479A","title":"巴黎贝甜 金桥店 Paris Baguette","lon":"121.580948054","lat":"31.256730793","category":"112","category_name":"糕饼店","address":"浦东新区张杨路3611号金桥国际商业广场1座1楼(金桥路博山东路)"},{"poiid":"B2094655D26FA0FA4192","title":"东方知音苑","lon":"121.57529","lat":"31.257813","category":"47","category_name":"住宅区","address":"博山东路811弄1-100号"},{"poiid":"B2094655D36CA0FE499C","title":"金桥路博山东路","lon":"121.57728","lat":"31.25884","category":"38","category_name":"公交车站","address":""},{"poiid":"B2094655D264A1FB4198","title":"建平实验小学","lon":"121.57215","lat":"31.25812","category":"56","category_name":"小学","address":"浦东新区枣庄路199号(近博山东路)"},{"poiid":"B2094654D568A7FA429B","title":"上海交通职业技术学院(浦东大道)","lon":"121.56713","lat":"31.26276","category":"52","category_name":"高等院校","address":"浦东大道2598"},{"poiid":"B2094757D069A5FF459A","title":"上房金丰苑","lon":"121.569","lat":"31.266","category":"47","category_name":"住宅区","address":"上海市浦东新区浦东大道2567号"},{"poiid":"B2094655D269AAF44598","title":"莫泰168金桥路店","lon":"121.57185","lat":"31.26483","category":"247","category_name":"餐饮美食","address":"浦东新区金桥路298号"},{"poiid":"B2094654D568A5F54699","title":"中国极地研究中心","lon":"121.57431","lat":"31.26365","category":"191","category_name":"科研机构","address":"金桥路451号"},{"poiid":"B2094757D664A7FF449A","title":"一品粥坊","lon":"121.57187","lat":"31.26483","category":"68","category_name":"快餐厅","address":"浦东新区金桥路298号(近浦东大道)"},{"poiid":"B2094757D16CA7FA499D","title":"康骏会馆(博山店)","lon":"121.57545233","lat":"31.256914956","category":"500","category_name":"未知分类","address":"浦东新区博山东路750号"},{"poiid":"B2094654DB69AAF5459E","title":"江东医院","lon":"121.57192","lat":"31.26478","category":"162","category_name":"医院","address":"浦东新区金桥路300号(近浦东大道)"},{"poiid":"B2094757D16CA5FB489B","title":"上海市远洋教育中心(友林路)","lon":"121.568641757","lat":"31.2604601886","category":"46","category_name":"楼宇","address":"上海市浦东新区友林路55号"},{"poiid":"B2094752D564A7F54293","title":"金桥国际商业广场","lon":"121.574496","lat":"31.265524","category":"247","category_name":"餐饮美食","address":null},{"poiid":"B2094655D26DA4FE4098","title":"南极苑金桥路","lon":"121.57337","lat":"31.26382","category":"47","category_name":"住宅区","address":"金桥路421弄1-10号"},{"poiid":"B2094654D568A5F5469C","title":"上海杉达学院沪东工学院","lon":"121.57604","lat":"31.26144","category":"52","category_name":"高等院校","address":"金桥路545、555"},{"poiid":"B2094655D26FA5F5459F","title":"陈家宅小区(东门)","lon":"121.57267","lat":"31.26476","category":"47","category_name":"住宅区","address":""},{"poiid":"B2094655D26BA5FD469F","title":"济川国际广场","lon":"121.569","lat":"31.2652","category":"47","category_name":"住宅区","address":"上海市浦东新区浦东大道2954弄"},{"poiid":"B2094757D16DABFF4598","title":"竹园小学(沪东校区)","lon":"121.578426","lat":"31.26551","category":"56","category_name":"小学","address":"浦东新区长岛路281号(近兰城路)"},{"poiid":"B2094757D069A5FC4498","title":"中星长岛苑","lon":"121.57972","lat":"31.266523","category":"47","category_name":"住宅区","address":"中星长岛苑位于浦东浦东蓝城路115弄"},{"poiid":"B2094655D26CA5FC479E","title":"弘扬雅苑","lon":"121.57287","lat":"31.26053","category":"47","category_name":"住宅区","address":"栖山路1876弄1-32号"},{"poiid":"B2094654D568A7F94598","title":"好德(栖山路)","lon":"121.57302","lat":"31.26165","category":"117","category_name":"便民商店/便利店","address":"栖山路1891"},{"poiid":"B2094655D26CA5FC4798","title":"栖山苑","lon":"121.57409","lat":"31.261507","category":"47","category_name":"住宅区","address":"栖山苑位于浦东栖山路金桥路口"},{"poiid":"B2094655D26BA5F4429A","title":"阿玛尼烫染造型广场","lon":"121.56878","lat":"31.26497","category":"148","category_name":"美容美发店","address":""},{"poiid":"B2094654D568A7F9449D","title":"快客No.6138","lon":"121.57283","lat":"31.26155","category":"117","category_name":"便民商店/便利店","address":"栖山路1885"},{"poiid":"B2094654D568A7F94699","title":"名角女士生活馆(金鑫休闲足浴西南)","lon":"121.57374","lat":"31.26161","category":"148","category_name":"美容美发店","address":"栖山路1918"},{"poiid":"B2094757D569A3F9419C","title":"百家便利店","lon":"121.57179335","lat":"31.26476861","category":"117","category_name":"便民商店/便利店","address":"中国上海市浦东新区金桥路"},{"poiid":"B2094655D264ABF4489E","title":"寺前浜小区","lon":"121.56795","lat":"31.264982","category":"47","category_name":"住宅区","address":"浦东大道2639弄1-36号"},{"poiid":"B2094757D06BA0F44899","title":"高庙","lon":"121.571746826","lat":"31.2650794983","category":"500","category_name":"未知分类","address":"上海浦东大道 金桥路"},{"poiid":"B2094757D568ABFC499D","title":"庆宁寺社区卫生服务站","lon":"121.571388","lat":"31.265243","category":"162","category_name":"医院","address":"金桥路260"},{"poiid":"B2094654D568A7F9459C","title":"顶尚堂上海总店","lon":"121.57337","lat":"31.26142","category":"162","category_name":"医院","address":"栖山路1900"},{"poiid":"B2094654D568A5F5469D","title":"上海海事大学海华高等技术学院","lon":"121.57604","lat":"31.26144","category":"52","category_name":"高等院校","address":"浦东新区金桥路545、555"},{"poiid":"B2094654D568A7F9489B","title":"帝凡尼狂剪美容美发","lon":"121.57335","lat":"31.26181","category":"148","category_name":"美容美发店","address":"栖山路1905号"},{"poiid":"B2094654D568A5F44898","title":"东华科技大厦","lon":"121.57269","lat":"31.26868","category":"46","category_name":"楼宇","address":"浦东大道2789号"},{"poiid":"B2094757D16AA7F84492","title":"星雨幼儿园(利津路总部)","lon":"121.574762839","lat":"31.2613715587","category":"57","category_name":"幼儿园","address":"浦东新区利津路185弄35号"},{"poiid":"B2094654D568A5F54698","title":"中国电信东昌分局庆宁寺站","lon":"121.57338","lat":"31.26436","category":"263","category_name":"公司","address":"金桥路401"},{"poiid":"B2094654D568A7FA409C","title":"海事学生公寓","lon":"121.57003","lat":"31.26349","category":"47","category_name":"住宅区","address":""},{"poiid":"B2094753D765A7FD4992","title":"和平影都","lon":"121.576545","lat":"31.26478","category":"178","category_name":"电影院","address":"上海市 西藏中路290号"},{"poiid":"B2094757D568A4F44999","title":"黛芙妮尔女子香芬养生馆栖山店","lon":"121.57373","lat":"31.2616","category":"148","category_name":"美容美发店","address":"浦东新区栖山路1918号(金桥路栖山路)"},{"poiid":"B2094654D568A7F9449B","title":"弘扬雅苑(北门)","lon":"121.5726","lat":"31.26106","category":"47","category_name":"住宅区","address":"栖山路1876弄1-32号"}]