[{"poiid":"B2094757D06FA3FA4399","title":"海神诺富特大酒店","lon":"121.52459373247143","lat":"31.24026721198827","category":"214","category_name":"四星级宾馆","address":"浦东新区浦东大道728号海神诺富特大酒店5楼(近福山路)"},{"poiid":"B2094757D06FA1FB4099","title":"国际航运金融大厦","lon":"121.531","lat":"31.246","category":"46","category_name":"楼宇","address":"越秀区广州沿江中路298号"},{"poiid":"B2094654DA69AAF9479C","title":"上海海事职业技术学院","lon":"121.52937","lat":"31.23919","category":"671","category_name":"高校中心点","address":"浦东新区源深路158号(乳山路源深路)"},{"poiid":"B209475CD564A7F84392","title":"上海滩浦东香格里拉店","lon":"121.50058","lat":"31.23634","category":"119","category_name":"商场","address":"浦东富成路33号香格里拉酒店内大堂层"},{"poiid":"B2094757D06FA3FF409B","title":"星巴克(航运金融大厦店)","lon":"121.524694","lat":"31.240575","category":"260","category_name":"其他","address":"浦东新区浦东大道720号国际航运金融大厦1楼(近福山路)"},{"poiid":"B2094757D06AAAFE4598","title":"陸家嘴國金百貨Ifc","lon":"121.53044098","lat":"31.241297536","category":"500","category_name":"未知分类","address":"上海陸家嘴國金百貨Ifc"},{"poiid":"B2094757D06FAAFE4193","title":"东方渔人码头","lon":"121.531883894","lat":"31.2528163104","category":"500","category_name":"未知分类","address":"上海杨浦区杨树浦路江浦路口"},{"poiid":"B2094654DA69AAFB4798","title":"裕景国际","lon":"121.52645574206","lat":"31.248226919703","category":"46","category_name":"楼宇","address":"东方路69号"},{"poiid":"B2094757D16FA6F9429D","title":"大隐国际青年旅舍","lon":"121.52725","lat":"31.24011","category":"216","category_name":"经济型连锁酒店","address":"浦东新区浦东大道834弄840号甲(近源深路)"},{"poiid":"B2094757D068A2FC429B","title":"粤尚名庭","lon":"121.53463","lat":"31.24159","category":"47","category_name":"住宅区","address":"浦东新区浦东大道1179号(桃林路口)"},{"poiid":"B2094757D06FAAFC4093","title":"张生记(浦东店)","lon":"121.53079","lat":"31.24146","category":"75","category_name":"浙江菜","address":"浦东新区浦东大道1085号中信五牛广场5楼(近源深路)"},{"poiid":"B2094757D06FA7FA4999","title":"航科大厦","lon":"121.52903224","lat":"31.240261721","category":"46","category_name":"楼宇","address":"昌平区回龙观镇国际信息产业基地高新二街"},{"poiid":"B2094757D16CA7F84899","title":"Ricky's Sports Bar&amp; G","lon":"121.531560718","lat":"31.2411718133","category":"500","category_name":"未知分类","address":"浦东新区浦东大道930-936号(近源深路)"},{"poiid":"B2094757D164A7F9479C","title":"建工大厦","lon":"121.531714","lat":"31.244747","category":"46","category_name":"楼宇","address":"上海市闵行区莲花南路1500弄"},{"poiid":"B2094654DA68ABFD439B","title":"巨洋大厦","lon":"121.533062","lat":"31.241866","category":"46","category_name":"楼宇","address":"浦东区浦东大道1200号"},{"poiid":"B2094757D068ABFA4592","title":"スタミナ苑焼肉(食特美烧肉)","lon":"121.53180673","lat":"31.241224534","category":"95","category_name":"日本料理","address":"浦东新区浦东大道908-912号(桃林路与源深路间)"},{"poiid":"B2094757D56DAAF44392","title":"上海隆德丰国际大酒店","lon":"121.53145909309387","lat":"31.241288089337655","category":"251","category_name":"出行住宿","address":"浦东新区浦东大道988号(近源深路)"},{"poiid":"B2094655D26BA7FE469D","title":"重庆四季鱼庄","lon":"121.53345","lat":"31.24172","category":"86","category_name":"火锅店","address":"浦东新区浦东大道1108号(近桃林路)"},{"poiid":"B2094655D26AABFA479C","title":"上海中信五牛城酒店式公寓","lon":"121.53102","lat":"31.24206","category":"250","category_name":"公园户外","address":"浦东新区浦东大道1089号(浦东大道华开路)"},{"poiid":"B2094757D06EAAFB4598","title":"黄浦江畔其昌栈码头","lon":"121.525503","lat":"31.249784","category":"34","category_name":"港口码头","address":"上海东方路1号"},{"poiid":"B2094654DA68ABFC469D","title":"珠江玫瑰花园","lon":"121.53242","lat":"31.242773","category":"47","category_name":"住宅区","address":"上海浦东大道1097弄"},{"poiid":"B2094753DA6FA6FC4599","title":"四川香天下火锅","lon":"121.531852","lat":"31.243154","category":"247","category_name":"餐饮美食","address":"上海市 上海市浦东新区浦东大道1108号"},{"poiid":"B2094757D16CAAF94398","title":"上海海事大学民生路校区教学楼","lon":"121.533594","lat":"31.244508","category":"253","category_name":"校园生活","address":"上海浦东大道1550 号"},{"poiid":"B2094757D069A7F5479D","title":"豪享来上海福山店","lon":"121.5257","lat":"31.2413","category":"247","category_name":"餐饮美食","address":"上海市浦东大道800号福山分店"},{"poiid":"B2094654DA69A7FB419A","title":"崂山三四村","lon":"121.524","lat":"31.2422","category":"47","category_name":"住宅区","address":"栖霞路76号"},{"poiid":"B2094654DA69AAF94498","title":"VIP大厦","lon":"121.532","lat":"31.247","category":"46","category_name":"楼宇","address":"浦东大道727弄1-3号"},{"poiid":"B2094654D56EA7F54398","title":"丹东路轮渡站","lon":"121.53383","lat":"31.25136","category":"34","category_name":"港口码头","address":"上海丹东路65号"},{"poiid":"B2094654DA69AAFB489F","title":"同科公寓","lon":"121.53","lat":"31.2468","category":"46","category_name":"楼宇","address":"上海浦东大道637号"},{"poiid":"B2094654D56EABFF489D","title":"东方星座","lon":"121.528","lat":"31.2477","category":"46","category_name":"楼宇","address":"杨浦区江浦路1058号(近周家嘴路)"},{"poiid":"B2094654DB6BAAFE4298","title":"良丰大厦","lon":"121.525","lat":"31.2489","category":"46","category_name":"楼宇","address":"松江区工业区鼎源路广富林路路口"},{"poiid":"B2094655D26BA2F5469E","title":"浦东大道源深路","lon":"121.52843","lat":"31.24072","category":"38","category_name":"公交车站","address":""},{"poiid":"B2094654DA69A0F4429F","title":"普联大厦","lon":"121.527","lat":"31.2405","category":"46","category_name":"楼宇","address":"上海市虹口区四平路777号"},{"poiid":"B2094750D66DA1F4409E","title":"家东苑","lon":"121.530639","lat":"31.241127","category":"47","category_name":"住宅区","address":"浦东新区浦东大道906号(近源深路)"},{"poiid":"B2094757D16DA0FB4198","title":"681鲜缘坊(浦东店)","lon":"121.5341","lat":"31.24384","category":"74","category_name":"江苏菜","address":"浦东新区桃林路18号(近昌邑路)"},{"poiid":"B2094757D069A6FA4498","title":"泰和足道(浦东大道店)","lon":"121.53294","lat":"31.24154","category":"149","category_name":"洗浴推拿场所","address":"浦东新区浦东大道1068号(浦东大道华开路)"},{"poiid":"B2094757D064AAFA4499","title":"阳升公寓","lon":"121.528997","lat":"31.248022","category":"47","category_name":"住宅区","address":"阳升公寓位于杨浦上海浦东浦东大道其昌栈许家厅51号"},{"poiid":"B2094757D065A1FD429F","title":"交大附中浦东实验高中","lon":"121.526867","lat":"31.240447","category":"253","category_name":"校园生活","address":"上海浦东大道830号"},{"poiid":"B2094655D26BA2F54692","title":"浦东大道桃林路","lon":"121.53421","lat":"31.2422","category":"38","category_name":"公交车站","address":""},{"poiid":"B2094757D06AA2F8429B","title":"哈尔滨饺子坊","lon":"121.530711","lat":"31.241021","category":"68","category_name":"快餐厅","address":"浦东新区浦东大道916号(近源深路)"},{"poiid":"B2094757D569A3FE4993","title":"天安诚韩国料理","lon":"121.52588677","lat":"31.24044623","category":"96","category_name":"韩国料理","address":"浦东新区浦东大道808号(近福山路)"},{"poiid":"B2094654DA68ABFD429E","title":"泰和茶馆","lon":"121.5329","lat":"31.2415","category":"260","category_name":"其他","address":"浦东新区浦东大道1048号(桃林路与源深路之间)"},{"poiid":"B2094654DA69AAF94592","title":"湘情酒店","lon":"121.5282","lat":"31.24052","category":"77","category_name":"湖南菜","address":"浦东新区浦东大道844号(近源深路)"},{"poiid":"B2094757D069A6FA489F","title":"福山小区","lon":"121.532","lat":"31.2439","category":"47","category_name":"住宅区","address":"上海福山路49弄"},{"poiid":"B2094757D065A2FE4099","title":"名门滨江苑","lon":"121.53034","lat":"31.24243","category":"47","category_name":"住宅区","address":"上海市浦东新区浦东大道1093弄"},{"poiid":"B2094654DA69AAFA419A","title":"申富大厦","lon":"121.536","lat":"31.2437","category":"46","category_name":"楼宇","address":"黄浦区外滩23号,中山东一路,南京东路"},{"poiid":"B2094757D168A1FF4693","title":"越南共和国驻沪总领事馆","lon":"121.53028473","lat":"31.240706523","category":"500","category_name":"未知分类","address":"上海浦东大道900号华辰金融中心三楼"},{"poiid":"B2094654DA68ABFC479E","title":"天主教上海教区傅家天主堂","lon":"121.53198","lat":"31.24209","category":"245","category_name":"教堂","address":"浦东大道1115"},{"poiid":"B2094757D06AA6FA4193","title":"真锅咖啡厅 浦东大道店 Manabe","lon":"121.53089880856","lat":"31.24115663148","category":"65","category_name":"咖啡厅","address":"浦东新区浦东大道972号(近源深路)"},{"poiid":"B2094757D069AAF4499E","title":"上海贝尔股份有限公司","lon":"121.525697423","lat":"31.243682444","category":"46","category_name":"楼宇","address":"上海浦东新区金桥出口加工区宁桥路388号"},{"poiid":"B2094750DB6CA1FD4893","title":"上海火车站","lon":"121.528008","lat":"31.250115","category":"500","category_name":"未知分类","address":null},{"poiid":"B2094757D06FA3FA4399","title":"海神诺富特大酒店","lon":"121.52459373247143","lat":"31.24026721198827","category":"214","category_name":"四星级宾馆","address":"浦东新区浦东大道728号海神诺富特大酒店5楼(近福山路)"},{"poiid":"B2094757D06FA1FB4099","title":"国际航运金融大厦","lon":"121.531","lat":"31.246","category":"46","category_name":"楼宇","address":"越秀区广州沿江中路298号"},{"poiid":"B2094654DA69AAF9479C","title":"上海海事职业技术学院","lon":"121.52937","lat":"31.23919","category":"671","category_name":"高校中心点","address":"浦东新区源深路158号(乳山路源深路)"},{"poiid":"B209475CD564A7F84392","title":"上海滩浦东香格里拉店","lon":"121.50058","lat":"31.23634","category":"119","category_name":"商场","address":"浦东富成路33号香格里拉酒店内大堂层"},{"poiid":"B2094757D06FA3FF409B","title":"星巴克(航运金融大厦店)","lon":"121.524694","lat":"31.240575","category":"260","category_name":"其他","address":"浦东新区浦东大道720号国际航运金融大厦1楼(近福山路)"},{"poiid":"B2094757D06AAAFE4598","title":"陸家嘴國金百貨Ifc","lon":"121.53044098","lat":"31.241297536","category":"500","category_name":"未知分类","address":"上海陸家嘴國金百貨Ifc"},{"poiid":"B2094757D06FAAFE4193","title":"东方渔人码头","lon":"121.531883894","lat":"31.2528163104","category":"500","category_name":"未知分类","address":"上海杨浦区杨树浦路江浦路口"},{"poiid":"B2094654DA69AAFB4798","title":"裕景国际","lon":"121.52645574206","lat":"31.248226919703","category":"46","category_name":"楼宇","address":"东方路69号"},{"poiid":"B2094757D16FA6F9429D","title":"大隐国际青年旅舍","lon":"121.52725","lat":"31.24011","category":"216","category_name":"经济型连锁酒店","address":"浦东新区浦东大道834弄840号甲(近源深路)"},{"poiid":"B2094757D068A2FC429B","title":"粤尚名庭","lon":"121.53463","lat":"31.24159","category":"47","category_name":"住宅区","address":"浦东新区浦东大道1179号(桃林路口)"},{"poiid":"B2094757D06FAAFC4093","title":"张生记(浦东店)","lon":"121.53079","lat":"31.24146","category":"75","category_name":"浙江菜","address":"浦东新区浦东大道1085号中信五牛广场5楼(近源深路)"},{"poiid":"B2094757D06FA7FA4999","title":"航科大厦","lon":"121.52903224","lat":"31.240261721","category":"46","category_name":"楼宇","address":"昌平区回龙观镇国际信息产业基地高新二街"},{"poiid":"B2094757D16CA7F84899","title":"Ricky's Sports Bar&amp; G","lon":"121.531560718","lat":"31.2411718133","category":"500","category_name":"未知分类","address":"浦东新区浦东大道930-936号(近源深路)"},{"poiid":"B2094757D164A7F9479C","title":"建工大厦","lon":"121.531714","lat":"31.244747","category":"46","category_name":"楼宇","address":"上海市闵行区莲花南路1500弄"},{"poiid":"B2094654DA68ABFD439B","title":"巨洋大厦","lon":"121.533062","lat":"31.241866","category":"46","category_name":"楼宇","address":"浦东区浦东大道1200号"},{"poiid":"B2094757D068ABFA4592","title":"スタミナ苑焼肉(食特美烧肉)","lon":"121.53180673","lat":"31.241224534","category":"95","category_name":"日本料理","address":"浦东新区浦东大道908-912号(桃林路与源深路间)"},{"poiid":"B2094757D56DAAF44392","title":"上海隆德丰国际大酒店","lon":"121.53145909309387","lat":"31.241288089337655","category":"251","category_name":"出行住宿","address":"浦东新区浦东大道988号(近源深路)"},{"poiid":"B2094655D26BA7FE469D","title":"重庆四季鱼庄","lon":"121.53345","lat":"31.24172","category":"86","category_name":"火锅店","address":"浦东新区浦东大道1108号(近桃林路)"},{"poiid":"B2094655D26AABFA479C","title":"上海中信五牛城酒店式公寓","lon":"121.53102","lat":"31.24206","category":"250","category_name":"公园户外","address":"浦东新区浦东大道1089号(浦东大道华开路)"},{"poiid":"B2094757D06EAAFB4598","title":"黄浦江畔其昌栈码头","lon":"121.525503","lat":"31.249784","category":"34","category_name":"港口码头","address":"上海东方路1号"},{"poiid":"B2094654DA68ABFC469D","title":"珠江玫瑰花园","lon":"121.53242","lat":"31.242773","category":"47","category_name":"住宅区","address":"上海浦东大道1097弄"},{"poiid":"B2094753DA6FA6FC4599","title":"四川香天下火锅","lon":"121.531852","lat":"31.243154","category":"247","category_name":"餐饮美食","address":"上海市 上海市浦东新区浦东大道1108号"},{"poiid":"B2094757D16CAAF94398","title":"上海海事大学民生路校区教学楼","lon":"121.533594","lat":"31.244508","category":"253","category_name":"校园生活","address":"上海浦东大道1550 号"},{"poiid":"B2094757D069A7F5479D","title":"豪享来上海福山店","lon":"121.5257","lat":"31.2413","category":"247","category_name":"餐饮美食","address":"上海市浦东大道800号福山分店"},{"poiid":"B2094654DA69A7FB419A","title":"崂山三四村","lon":"121.524","lat":"31.2422","category":"47","category_name":"住宅区","address":"栖霞路76号"},{"poiid":"B2094654DA69AAF94498","title":"VIP大厦","lon":"121.532","lat":"31.247","category":"46","category_name":"楼宇","address":"浦东大道727弄1-3号"},{"poiid":"B2094654D56EA7F54398","title":"丹东路轮渡站","lon":"121.53383","lat":"31.25136","category":"34","category_name":"港口码头","address":"上海丹东路65号"},{"poiid":"B2094654DA69AAFB489F","title":"同科公寓","lon":"121.53","lat":"31.2468","category":"46","category_name":"楼宇","address":"上海浦东大道637号"},{"poiid":"B2094654D56EABFF489D","title":"东方星座","lon":"121.528","lat":"31.2477","category":"46","category_name":"楼宇","address":"杨浦区江浦路1058号(近周家嘴路)"},{"poiid":"B2094654DB6BAAFE4298","title":"良丰大厦","lon":"121.525","lat":"31.2489","category":"46","category_name":"楼宇","address":"松江区工业区鼎源路广富林路路口"},{"poiid":"B2094655D26BA2F5469E","title":"浦东大道源深路","lon":"121.52843","lat":"31.24072","category":"38","category_name":"公交车站","address":""},{"poiid":"B2094654DA69A0F4429F","title":"普联大厦","lon":"121.527","lat":"31.2405","category":"46","category_name":"楼宇","address":"上海市虹口区四平路777号"},{"poiid":"B2094750D66DA1F4409E","title":"家东苑","lon":"121.530639","lat":"31.241127","category":"47","category_name":"住宅区","address":"浦东新区浦东大道906号(近源深路)"},{"poiid":"B2094757D16DA0FB4198","title":"681鲜缘坊(浦东店)","lon":"121.5341","lat":"31.24384","category":"74","category_name":"江苏菜","address":"浦东新区桃林路18号(近昌邑路)"},{"poiid":"B2094757D069A6FA4498","title":"泰和足道(浦东大道店)","lon":"121.53294","lat":"31.24154","category":"149","category_name":"洗浴推拿场所","address":"浦东新区浦东大道1068号(浦东大道华开路)"},{"poiid":"B2094757D064AAFA4499","title":"阳升公寓","lon":"121.528997","lat":"31.248022","category":"47","category_name":"住宅区","address":"阳升公寓位于杨浦上海浦东浦东大道其昌栈许家厅51号"},{"poiid":"B2094757D065A1FD429F","title":"交大附中浦东实验高中","lon":"121.526867","lat":"31.240447","category":"253","category_name":"校园生活","address":"上海浦东大道830号"},{"poiid":"B2094655D26BA2F54692","title":"浦东大道桃林路","lon":"121.53421","lat":"31.2422","category":"38","category_name":"公交车站","address":""},{"poiid":"B2094757D06AA2F8429B","title":"哈尔滨饺子坊","lon":"121.530711","lat":"31.241021","category":"68","category_name":"快餐厅","address":"浦东新区浦东大道916号(近源深路)"},{"poiid":"B2094757D569A3FE4993","title":"天安诚韩国料理","lon":"121.52588677","lat":"31.24044623","category":"96","category_name":"韩国料理","address":"浦东新区浦东大道808号(近福山路)"},{"poiid":"B2094654DA68ABFD429E","title":"泰和茶馆","lon":"121.5329","lat":"31.2415","category":"260","category_name":"其他","address":"浦东新区浦东大道1048号(桃林路与源深路之间)"},{"poiid":"B2094654DA69AAF94592","title":"湘情酒店","lon":"121.5282","lat":"31.24052","category":"77","category_name":"湖南菜","address":"浦东新区浦东大道844号(近源深路)"},{"poiid":"B2094757D069A6FA489F","title":"福山小区","lon":"121.532","lat":"31.2439","category":"47","category_name":"住宅区","address":"上海福山路49弄"},{"poiid":"B2094757D065A2FE4099","title":"名门滨江苑","lon":"121.53034","lat":"31.24243","category":"47","category_name":"住宅区","address":"上海市浦东新区浦东大道1093弄"},{"poiid":"B2094654DA69AAFA419A","title":"申富大厦","lon":"121.536","lat":"31.2437","category":"46","category_name":"楼宇","address":"黄浦区外滩23号,中山东一路,南京东路"},{"poiid":"B2094757D168A1FF4693","title":"越南共和国驻沪总领事馆","lon":"121.53028473","lat":"31.240706523","category":"500","category_name":"未知分类","address":"上海浦东大道900号华辰金融中心三楼"},{"poiid":"B2094654DA68ABFC479E","title":"天主教上海教区傅家天主堂","lon":"121.53198","lat":"31.24209","category":"245","category_name":"教堂","address":"浦东大道1115"},{"poiid":"B2094757D06AA6FA4193","title":"真锅咖啡厅 浦东大道店 Manabe","lon":"121.53089880856","lat":"31.24115663148","category":"65","category_name":"咖啡厅","address":"浦东新区浦东大道972号(近源深路)"},{"poiid":"B2094757D069AAF4499E","title":"上海贝尔股份有限公司","lon":"121.525697423","lat":"31.243682444","category":"46","category_name":"楼宇","address":"上海浦东新区金桥出口加工区宁桥路388号"},{"poiid":"B2094750DB6CA1FD4893","title":"上海火车站","lon":"121.528008","lat":"31.250115","category":"500","category_name":"未知分类","address":null},{"poiid":"B2094757D06FA3FA4399","title":"海神诺富特大酒店","lon":"121.52459373247143","lat":"31.24026721198827","category":"214","category_name":"四星级宾馆","address":"浦东新区浦东大道728号海神诺富特大酒店5楼(近福山路)"},{"poiid":"B2094757D06FA1FB4099","title":"国际航运金融大厦","lon":"121.531","lat":"31.246","category":"46","category_name":"楼宇","address":"越秀区广州沿江中路298号"},{"poiid":"B2094654DA69AAF9479C","title":"上海海事职业技术学院","lon":"121.52937","lat":"31.23919","category":"671","category_name":"高校中心点","address":"浦东新区源深路158号(乳山路源深路)"},{"poiid":"B209475CD564A7F84392","title":"上海滩浦东香格里拉店","lon":"121.50058","lat":"31.23634","category":"119","category_name":"商场","address":"浦东富成路33号香格里拉酒店内大堂层"},{"poiid":"B2094757D06FA3FF409B","title":"星巴克(航运金融大厦店)","lon":"121.524694","lat":"31.240575","category":"260","category_name":"其他","address":"浦东新区浦东大道720号国际航运金融大厦1楼(近福山路)"},{"poiid":"B2094757D06AAAFE4598","title":"陸家嘴國金百貨Ifc","lon":"121.53044098","lat":"31.241297536","category":"500","category_name":"未知分类","address":"上海陸家嘴國金百貨Ifc"},{"poiid":"B2094757D06FAAFE4193","title":"东方渔人码头","lon":"121.531883894","lat":"31.2528163104","category":"500","category_name":"未知分类","address":"上海杨浦区杨树浦路江浦路口"},{"poiid":"B2094654DA69AAFB4798","title":"裕景国际","lon":"121.52645574206","lat":"31.248226919703","category":"46","category_name":"楼宇","address":"东方路69号"},{"poiid":"B2094757D16FA6F9429D","title":"大隐国际青年旅舍","lon":"121.52725","lat":"31.24011","category":"216","category_name":"经济型连锁酒店","address":"浦东新区浦东大道834弄840号甲(近源深路)"},{"poiid":"B2094757D068A2FC429B","title":"粤尚名庭","lon":"121.53463","lat":"31.24159","category":"47","category_name":"住宅区","address":"浦东新区浦东大道1179号(桃林路口)"},{"poiid":"B2094757D06FAAFC4093","title":"张生记(浦东店)","lon":"121.53079","lat":"31.24146","category":"75","category_name":"浙江菜","address":"浦东新区浦东大道1085号中信五牛广场5楼(近源深路)"},{"poiid":"B2094757D06FA7FA4999","title":"航科大厦","lon":"121.52903224","lat":"31.240261721","category":"46","category_name":"楼宇","address":"昌平区回龙观镇国际信息产业基地高新二街"},{"poiid":"B2094757D16CA7F84899","title":"Ricky's Sports Bar&amp; G","lon":"121.531560718","lat":"31.2411718133","category":"500","category_name":"未知分类","address":"浦东新区浦东大道930-936号(近源深路)"},{"poiid":"B2094757D164A7F9479C","title":"建工大厦","lon":"121.531714","lat":"31.244747","category":"46","category_name":"楼宇","address":"上海市闵行区莲花南路1500弄"},{"poiid":"B2094654DA68ABFD439B","title":"巨洋大厦","lon":"121.533062","lat":"31.241866","category":"46","category_name":"楼宇","address":"浦东区浦东大道1200号"},{"poiid":"B2094757D068ABFA4592","title":"スタミナ苑焼肉(食特美烧肉)","lon":"121.53180673","lat":"31.241224534","category":"95","category_name":"日本料理","address":"浦东新区浦东大道908-912号(桃林路与源深路间)"},{"poiid":"B2094757D56DAAF44392","title":"上海隆德丰国际大酒店","lon":"121.53145909309387","lat":"31.241288089337655","category":"251","category_name":"出行住宿","address":"浦东新区浦东大道988号(近源深路)"},{"poiid":"B2094655D26BA7FE469D","title":"重庆四季鱼庄","lon":"121.53345","lat":"31.24172","category":"86","category_name":"火锅店","address":"浦东新区浦东大道1108号(近桃林路)"},{"poiid":"B2094655D26AABFA479C","title":"上海中信五牛城酒店式公寓","lon":"121.53102","lat":"31.24206","category":"250","category_name":"公园户外","address":"浦东新区浦东大道1089号(浦东大道华开路)"},{"poiid":"B2094757D06EAAFB4598","title":"黄浦江畔其昌栈码头","lon":"121.525503","lat":"31.249784","category":"34","category_name":"港口码头","address":"上海东方路1号"},{"poiid":"B2094654DA68ABFC469D","title":"珠江玫瑰花园","lon":"121.53242","lat":"31.242773","category":"47","category_name":"住宅区","address":"上海浦东大道1097弄"},{"poiid":"B2094753DA6FA6FC4599","title":"四川香天下火锅","lon":"121.531852","lat":"31.243154","category":"247","category_name":"餐饮美食","address":"上海市 上海市浦东新区浦东大道1108号"},{"poiid":"B2094757D16CAAF94398","title":"上海海事大学民生路校区教学楼","lon":"121.533594","lat":"31.244508","category":"253","category_name":"校园生活","address":"上海浦东大道1550 号"},{"poiid":"B2094757D069A7F5479D","title":"豪享来上海福山店","lon":"121.5257","lat":"31.2413","category":"247","category_name":"餐饮美食","address":"上海市浦东大道800号福山分店"},{"poiid":"B2094654DA69A7FB419A","title":"崂山三四村","lon":"121.524","lat":"31.2422","category":"47","category_name":"住宅区","address":"栖霞路76号"},{"poiid":"B2094654DA69AAF94498","title":"VIP大厦","lon":"121.532","lat":"31.247","category":"46","category_name":"楼宇","address":"浦东大道727弄1-3号"},{"poiid":"B2094654D56EA7F54398","title":"丹东路轮渡站","lon":"121.53383","lat":"31.25136","category":"34","category_name":"港口码头","address":"上海丹东路65号"},{"poiid":"B2094654DA69AAFB489F","title":"同科公寓","lon":"121.53","lat":"31.2468","category":"46","category_name":"楼宇","address":"上海浦东大道637号"},{"poiid":"B2094654D56EABFF489D","title":"东方星座","lon":"121.528","lat":"31.2477","category":"46","category_name":"楼宇","address":"杨浦区江浦路1058号(近周家嘴路)"},{"poiid":"B2094654DB6BAAFE4298","title":"良丰大厦","lon":"121.525","lat":"31.2489","category":"46","category_name":"楼宇","address":"松江区工业区鼎源路广富林路路口"},{"poiid":"B2094655D26BA2F5469E","title":"浦东大道源深路","lon":"121.52843","lat":"31.24072","category":"38","category_name":"公交车站","address":""},{"poiid":"B2094654DA69A0F4429F","title":"普联大厦","lon":"121.527","lat":"31.2405","category":"46","category_name":"楼宇","address":"上海市虹口区四平路777号"},{"poiid":"B2094750D66DA1F4409E","title":"家东苑","lon":"121.530639","lat":"31.241127","category":"47","category_name":"住宅区","address":"浦东新区浦东大道906号(近源深路)"},{"poiid":"B2094757D16DA0FB4198","title":"681鲜缘坊(浦东店)","lon":"121.5341","lat":"31.24384","category":"74","category_name":"江苏菜","address":"浦东新区桃林路18号(近昌邑路)"},{"poiid":"B2094757D069A6FA4498","title":"泰和足道(浦东大道店)","lon":"121.53294","lat":"31.24154","category":"149","category_name":"洗浴推拿场所","address":"浦东新区浦东大道1068号(浦东大道华开路)"},{"poiid":"B2094757D064AAFA4499","title":"阳升公寓","lon":"121.528997","lat":"31.248022","category":"47","category_name":"住宅区","address":"阳升公寓位于杨浦上海浦东浦东大道其昌栈许家厅51号"},{"poiid":"B2094757D065A1FD429F","title":"交大附中浦东实验高中","lon":"121.526867","lat":"31.240447","category":"253","category_name":"校园生活","address":"上海浦东大道830号"},{"poiid":"B2094655D26BA2F54692","title":"浦东大道桃林路","lon":"121.53421","lat":"31.2422","category":"38","category_name":"公交车站","address":""},{"poiid":"B2094757D06AA2F8429B","title":"哈尔滨饺子坊","lon":"121.530711","lat":"31.241021","category":"68","category_name":"快餐厅","address":"浦东新区浦东大道916号(近源深路)"},{"poiid":"B2094757D569A3FE4993","title":"天安诚韩国料理","lon":"121.52588677","lat":"31.24044623","category":"96","category_name":"韩国料理","address":"浦东新区浦东大道808号(近福山路)"},{"poiid":"B2094654DA68ABFD429E","title":"泰和茶馆","lon":"121.5329","lat":"31.2415","category":"260","category_name":"其他","address":"浦东新区浦东大道1048号(桃林路与源深路之间)"},{"poiid":"B2094654DA69AAF94592","title":"湘情酒店","lon":"121.5282","lat":"31.24052","category":"77","category_name":"湖南菜","address":"浦东新区浦东大道844号(近源深路)"},{"poiid":"B2094757D069A6FA489F","title":"福山小区","lon":"121.532","lat":"31.2439","category":"47","category_name":"住宅区","address":"上海福山路49弄"},{"poiid":"B2094757D065A2FE4099","title":"名门滨江苑","lon":"121.53034","lat":"31.24243","category":"47","category_name":"住宅区","address":"上海市浦东新区浦东大道1093弄"},{"poiid":"B2094654DA69AAFA419A","title":"申富大厦","lon":"121.536","lat":"31.2437","category":"46","category_name":"楼宇","address":"黄浦区外滩23号,中山东一路,南京东路"},{"poiid":"B2094757D168A1FF4693","title":"越南共和国驻沪总领事馆","lon":"121.53028473","lat":"31.240706523","category":"500","category_name":"未知分类","address":"上海浦东大道900号华辰金融中心三楼"},{"poiid":"B2094654DA68ABFC479E","title":"天主教上海教区傅家天主堂","lon":"121.53198","lat":"31.24209","category":"245","category_name":"教堂","address":"浦东大道1115"},{"poiid":"B2094757D06AA6FA4193","title":"真锅咖啡厅 浦东大道店 Manabe","lon":"121.53089880856","lat":"31.24115663148","category":"65","category_name":"咖啡厅","address":"浦东新区浦东大道972号(近源深路)"},{"poiid":"B2094757D069AAF4499E","title":"上海贝尔股份有限公司","lon":"121.525697423","lat":"31.243682444","category":"46","category_name":"楼宇","address":"上海浦东新区金桥出口加工区宁桥路388号"},{"poiid":"B2094750DB6CA1FD4893","title":"上海火车站","lon":"121.528008","lat":"31.250115","category":"500","category_name":"未知分类","address":null},{"poiid":"B2094757D06FA3FA4399","title":"海神诺富特大酒店","lon":"121.52459373247143","lat":"31.24026721198827","category":"214","category_name":"四星级宾馆","address":"浦东新区浦东大道728号海神诺富特大酒店5楼(近福山路)"},{"poiid":"B2094757D06FA1FB4099","title":"国际航运金融大厦","lon":"121.531","lat":"31.246","category":"46","category_name":"楼宇","address":"越秀区广州沿江中路298号"},{"poiid":"B2094654DA69AAF9479C","title":"上海海事职业技术学院","lon":"121.52937","lat":"31.23919","category":"671","category_name":"高校中心点","address":"浦东新区源深路158号(乳山路源深路)"},{"poiid":"B209475CD564A7F84392","title":"上海滩浦东香格里拉店","lon":"121.50058","lat":"31.23634","category":"119","category_name":"商场","address":"浦东富成路33号香格里拉酒店内大堂层"},{"poiid":"B2094757D06FA3FF409B","title":"星巴克(航运金融大厦店)","lon":"121.524694","lat":"31.240575","category":"260","category_name":"其他","address":"浦东新区浦东大道720号国际航运金融大厦1楼(近福山路)"},{"poiid":"B2094757D06AAAFE4598","title":"陸家嘴國金百貨Ifc","lon":"121.53044098","lat":"31.241297536","category":"500","category_name":"未知分类","address":"上海陸家嘴國金百貨Ifc"},{"poiid":"B2094757D06FAAFE4193","title":"东方渔人码头","lon":"121.531883894","lat":"31.2528163104","category":"500","category_name":"未知分类","address":"上海杨浦区杨树浦路江浦路口"},{"poiid":"B2094654DA69AAFB4798","title":"裕景国际","lon":"121.52645574206","lat":"31.248226919703","category":"46","category_name":"楼宇","address":"东方路69号"},{"poiid":"B2094757D16FA6F9429D","title":"大隐国际青年旅舍","lon":"121.52725","lat":"31.24011","category":"216","category_name":"经济型连锁酒店","address":"浦东新区浦东大道834弄840号甲(近源深路)"},{"poiid":"B2094757D068A2FC429B","title":"粤尚名庭","lon":"121.53463","lat":"31.24159","category":"47","category_name":"住宅区","address":"浦东新区浦东大道1179号(桃林路口)"},{"poiid":"B2094757D06FAAFC4093","title":"张生记(浦东店)","lon":"121.53079","lat":"31.24146","category":"75","category_name":"浙江菜","address":"浦东新区浦东大道1085号中信五牛广场5楼(近源深路)"},{"poiid":"B2094757D06FA7FA4999","title":"航科大厦","lon":"121.52903224","lat":"31.240261721","category":"46","category_name":"楼宇","address":"昌平区回龙观镇国际信息产业基地高新二街"},{"poiid":"B2094757D16CA7F84899","title":"Ricky's Sports Bar&amp; G","lon":"121.531560718","lat":"31.2411718133","category":"500","category_name":"未知分类","address":"浦东新区浦东大道930-936号(近源深路)"},{"poiid":"B2094757D164A7F9479C","title":"建工大厦","lon":"121.531714","lat":"31.244747","category":"46","category_name":"楼宇","address":"上海市闵行区莲花南路1500弄"},{"poiid":"B2094654DA68ABFD439B","title":"巨洋大厦","lon":"121.533062","lat":"31.241866","category":"46","category_name":"楼宇","address":"浦东区浦东大道1200号"},{"poiid":"B2094757D068ABFA4592","title":"スタミナ苑焼肉(食特美烧肉)","lon":"121.53180673","lat":"31.241224534","category":"95","category_name":"日本料理","address":"浦东新区浦东大道908-912号(桃林路与源深路间)"},{"poiid":"B2094757D56DAAF44392","title":"上海隆德丰国际大酒店","lon":"121.53145909309387","lat":"31.241288089337655","category":"251","category_name":"出行住宿","address":"浦东新区浦东大道988号(近源深路)"},{"poiid":"B2094655D26BA7FE469D","title":"重庆四季鱼庄","lon":"121.53345","lat":"31.24172","category":"86","category_name":"火锅店","address":"浦东新区浦东大道1108号(近桃林路)"},{"poiid":"B2094655D26AABFA479C","title":"上海中信五牛城酒店式公寓","lon":"121.53102","lat":"31.24206","category":"250","category_name":"公园户外","address":"浦东新区浦东大道1089号(浦东大道华开路)"},{"poiid":"B2094757D06EAAFB4598","title":"黄浦江畔其昌栈码头","lon":"121.525503","lat":"31.249784","category":"34","category_name":"港口码头","address":"上海东方路1号"},{"poiid":"B2094654DA68ABFC469D","title":"珠江玫瑰花园","lon":"121.53242","lat":"31.242773","category":"47","category_name":"住宅区","address":"上海浦东大道1097弄"},{"poiid":"B2094753DA6FA6FC4599","title":"四川香天下火锅","lon":"121.531852","lat":"31.243154","category":"247","category_name":"餐饮美食","address":"上海市 上海市浦东新区浦东大道1108号"},{"poiid":"B2094757D16CAAF94398","title":"上海海事大学民生路校区教学楼","lon":"121.533594","lat":"31.244508","category":"253","category_name":"校园生活","address":"上海浦东大道1550 号"},{"poiid":"B2094757D069A7F5479D","title":"豪享来上海福山店","lon":"121.5257","lat":"31.2413","category":"247","category_name":"餐饮美食","address":"上海市浦东大道800号福山分店"},{"poiid":"B2094654DA69A7FB419A","title":"崂山三四村","lon":"121.524","lat":"31.2422","category":"47","category_name":"住宅区","address":"栖霞路76号"},{"poiid":"B2094654DA69AAF94498","title":"VIP大厦","lon":"121.532","lat":"31.247","category":"46","category_name":"楼宇","address":"浦东大道727弄1-3号"},{"poiid":"B2094654D56EA7F54398","title":"丹东路轮渡站","lon":"121.53383","lat":"31.25136","category":"34","category_name":"港口码头","address":"上海丹东路65号"},{"poiid":"B2094654DA69AAFB489F","title":"同科公寓","lon":"121.53","lat":"31.2468","category":"46","category_name":"楼宇","address":"上海浦东大道637号"},{"poiid":"B2094654D56EABFF489D","title":"东方星座","lon":"121.528","lat":"31.2477","category":"46","category_name":"楼宇","address":"杨浦区江浦路1058号(近周家嘴路)"},{"poiid":"B2094654DB6BAAFE4298","title":"良丰大厦","lon":"121.525","lat":"31.2489","category":"46","category_name":"楼宇","address":"松江区工业区鼎源路广富林路路口"},{"poiid":"B2094655D26BA2F5469E","title":"浦东大道源深路","lon":"121.52843","lat":"31.24072","category":"38","category_name":"公交车站","address":""},{"poiid":"B2094654DA69A0F4429F","title":"普联大厦","lon":"121.527","lat":"31.2405","category":"46","category_name":"楼宇","address":"上海市虹口区四平路777号"},{"poiid":"B2094750D66DA1F4409E","title":"家东苑","lon":"121.530639","lat":"31.241127","category":"47","category_name":"住宅区","address":"浦东新区浦东大道906号(近源深路)"},{"poiid":"B2094757D16DA0FB4198","title":"681鲜缘坊(浦东店)","lon":"121.5341","lat":"31.24384","category":"74","category_name":"江苏菜","address":"浦东新区桃林路18号(近昌邑路)"},{"poiid":"B2094757D069A6FA4498","title":"泰和足道(浦东大道店)","lon":"121.53294","lat":"31.24154","category":"149","category_name":"洗浴推拿场所","address":"浦东新区浦东大道1068号(浦东大道华开路)"},{"poiid":"B2094757D064AAFA4499","title":"阳升公寓","lon":"121.528997","lat":"31.248022","category":"47","category_name":"住宅区","address":"阳升公寓位于杨浦上海浦东浦东大道其昌栈许家厅51号"},{"poiid":"B2094757D065A1FD429F","title":"交大附中浦东实验高中","lon":"121.526867","lat":"31.240447","category":"253","category_name":"校园生活","address":"上海浦东大道830号"},{"poiid":"B2094655D26BA2F54692","title":"浦东大道桃林路","lon":"121.53421","lat":"31.2422","category":"38","category_name":"公交车站","address":""},{"poiid":"B2094757D06AA2F8429B","title":"哈尔滨饺子坊","lon":"121.530711","lat":"31.241021","category":"68","category_name":"快餐厅","address":"浦东新区浦东大道916号(近源深路)"},{"poiid":"B2094757D569A3FE4993","title":"天安诚韩国料理","lon":"121.52588677","lat":"31.24044623","category":"96","category_name":"韩国料理","address":"浦东新区浦东大道808号(近福山路)"},{"poiid":"B2094654DA68ABFD429E","title":"泰和茶馆","lon":"121.5329","lat":"31.2415","category":"260","category_name":"其他","address":"浦东新区浦东大道1048号(桃林路与源深路之间)"},{"poiid":"B2094654DA69AAF94592","title":"湘情酒店","lon":"121.5282","lat":"31.24052","category":"77","category_name":"湖南菜","address":"浦东新区浦东大道844号(近源深路)"},{"poiid":"B2094757D069A6FA489F","title":"福山小区","lon":"121.532","lat":"31.2439","category":"47","category_name":"住宅区","address":"上海福山路49弄"},{"poiid":"B2094757D065A2FE4099","title":"名门滨江苑","lon":"121.53034","lat":"31.24243","category":"47","category_name":"住宅区","address":"上海市浦东新区浦东大道1093弄"},{"poiid":"B2094654DA69AAFA419A","title":"申富大厦","lon":"121.536","lat":"31.2437","category":"46","category_name":"楼宇","address":"黄浦区外滩23号,中山东一路,南京东路"},{"poiid":"B2094757D168A1FF4693","title":"越南共和国驻沪总领事馆","lon":"121.53028473","lat":"31.240706523","category":"500","category_name":"未知分类","address":"上海浦东大道900号华辰金融中心三楼"},{"poiid":"B2094654DA68ABFC479E","title":"天主教上海教区傅家天主堂","lon":"121.53198","lat":"31.24209","category":"245","category_name":"教堂","address":"浦东大道1115"},{"poiid":"B2094757D06AA6FA4193","title":"真锅咖啡厅 浦东大道店 Manabe","lon":"121.53089880856","lat":"31.24115663148","category":"65","category_name":"咖啡厅","address":"浦东新区浦东大道972号(近源深路)"},{"poiid":"B2094757D069AAF4499E","title":"上海贝尔股份有限公司","lon":"121.525697423","lat":"31.243682444","category":"46","category_name":"楼宇","address":"上海浦东新区金桥出口加工区宁桥路388号"},{"poiid":"B2094750DB6CA1FD4893","title":"上海火车站","lon":"121.528008","lat":"31.250115","category":"500","category_name":"未知分类","address":null},{"poiid":"B2094757D06FA3FA4399","title":"海神诺富特大酒店","lon":"121.52459373247143","lat":"31.24026721198827","category":"214","category_name":"四星级宾馆","address":"浦东新区浦东大道728号海神诺富特大酒店5楼(近福山路)"},{"poiid":"B2094757D06FA1FB4099","title":"国际航运金融大厦","lon":"121.531","lat":"31.246","category":"46","category_name":"楼宇","address":"越秀区广州沿江中路298号"},{"poiid":"B2094654DA69AAF9479C","title":"上海海事职业技术学院","lon":"121.52937","lat":"31.23919","category":"671","category_name":"高校中心点","address":"浦东新区源深路158号(乳山路源深路)"},{"poiid":"B209475CD564A7F84392","title":"上海滩浦东香格里拉店","lon":"121.50058","lat":"31.23634","category":"119","category_name":"商场","address":"浦东富成路33号香格里拉酒店内大堂层"},{"poiid":"B2094757D06FA3FF409B","title":"星巴克(航运金融大厦店)","lon":"121.524694","lat":"31.240575","category":"260","category_name":"其他","address":"浦东新区浦东大道720号国际航运金融大厦1楼(近福山路)"},{"poiid":"B2094757D06AAAFE4598","title":"陸家嘴國金百貨Ifc","lon":"121.53044098","lat":"31.241297536","category":"500","category_name":"未知分类","address":"上海陸家嘴國金百貨Ifc"},{"poiid":"B2094757D06FAAFE4193","title":"东方渔人码头","lon":"121.531883894","lat":"31.2528163104","category":"500","category_name":"未知分类","address":"上海杨浦区杨树浦路江浦路口"},{"poiid":"B2094654DA69AAFB4798","title":"裕景国际","lon":"121.52645574206","lat":"31.248226919703","category":"46","category_name":"楼宇","address":"东方路69号"},{"poiid":"B2094757D16FA6F9429D","title":"大隐国际青年旅舍","lon":"121.52725","lat":"31.24011","category":"216","category_name":"经济型连锁酒店","address":"浦东新区浦东大道834弄840号甲(近源深路)"},{"poiid":"B2094757D068A2FC429B","title":"粤尚名庭","lon":"121.53463","lat":"31.24159","category":"47","category_name":"住宅区","address":"浦东新区浦东大道1179号(桃林路口)"},{"poiid":"B2094757D06FAAFC4093","title":"张生记(浦东店)","lon":"121.53079","lat":"31.24146","category":"75","category_name":"浙江菜","address":"浦东新区浦东大道1085号中信五牛广场5楼(近源深路)"},{"poiid":"B2094757D06FA7FA4999","title":"航科大厦","lon":"121.52903224","lat":"31.240261721","category":"46","category_name":"楼宇","address":"昌平区回龙观镇国际信息产业基地高新二街"},{"poiid":"B2094757D16CA7F84899","title":"Ricky's Sports Bar&amp; G","lon":"121.531560718","lat":"31.2411718133","category":"500","category_name":"未知分类","address":"浦东新区浦东大道930-936号(近源深路)"},{"poiid":"B2094757D164A7F9479C","title":"建工大厦","lon":"121.531714","lat":"31.244747","category":"46","category_name":"楼宇","address":"上海市闵行区莲花南路1500弄"},{"poiid":"B2094654DA68ABFD439B","title":"巨洋大厦","lon":"121.533062","lat":"31.241866","category":"46","category_name":"楼宇","address":"浦东区浦东大道1200号"},{"poiid":"B2094757D068ABFA4592","title":"スタミナ苑焼肉(食特美烧肉)","lon":"121.53180673","lat":"31.241224534","category":"95","category_name":"日本料理","address":"浦东新区浦东大道908-912号(桃林路与源深路间)"},{"poiid":"B2094757D56DAAF44392","title":"上海隆德丰国际大酒店","lon":"121.53145909309387","lat":"31.241288089337655","category":"251","category_name":"出行住宿","address":"浦东新区浦东大道988号(近源深路)"},{"poiid":"B2094655D26BA7FE469D","title":"重庆四季鱼庄","lon":"121.53345","lat":"31.24172","category":"86","category_name":"火锅店","address":"浦东新区浦东大道1108号(近桃林路)"},{"poiid":"B2094655D26AABFA479C","title":"上海中信五牛城酒店式公寓","lon":"121.53102","lat":"31.24206","category":"250","category_name":"公园户外","address":"浦东新区浦东大道1089号(浦东大道华开路)"},{"poiid":"B2094757D06EAAFB4598","title":"黄浦江畔其昌栈码头","lon":"121.525503","lat":"31.249784","category":"34","category_name":"港口码头","address":"上海东方路1号"},{"poiid":"B2094654DA68ABFC469D","title":"珠江玫瑰花园","lon":"121.53242","lat":"31.242773","category":"47","category_name":"住宅区","address":"上海浦东大道1097弄"},{"poiid":"B2094753DA6FA6FC4599","title":"四川香天下火锅","lon":"121.531852","lat":"31.243154","category":"247","category_name":"餐饮美食","address":"上海市 上海市浦东新区浦东大道1108号"},{"poiid":"B2094757D16CAAF94398","title":"上海海事大学民生路校区教学楼","lon":"121.533594","lat":"31.244508","category":"253","category_name":"校园生活","address":"上海浦东大道1550 号"},{"poiid":"B2094757D069A7F5479D","title":"豪享来上海福山店","lon":"121.5257","lat":"31.2413","category":"247","category_name":"餐饮美食","address":"上海市浦东大道800号福山分店"},{"poiid":"B2094654DA69A7FB419A","title":"崂山三四村","lon":"121.524","lat":"31.2422","category":"47","category_name":"住宅区","address":"栖霞路76号"},{"poiid":"B2094654DA69AAF94498","title":"VIP大厦","lon":"121.532","lat":"31.247","category":"46","category_name":"楼宇","address":"浦东大道727弄1-3号"},{"poiid":"B2094654D56EA7F54398","title":"丹东路轮渡站","lon":"121.53383","lat":"31.25136","category":"34","category_name":"港口码头","address":"上海丹东路65号"},{"poiid":"B2094654DA69AAFB489F","title":"同科公寓","lon":"121.53","lat":"31.2468","category":"46","category_name":"楼宇","address":"上海浦东大道637号"},{"poiid":"B2094654D56EABFF489D","title":"东方星座","lon":"121.528","lat":"31.2477","category":"46","category_name":"楼宇","address":"杨浦区江浦路1058号(近周家嘴路)"},{"poiid":"B2094654DB6BAAFE4298","title":"良丰大厦","lon":"121.525","lat":"31.2489","category":"46","category_name":"楼宇","address":"松江区工业区鼎源路广富林路路口"},{"poiid":"B2094655D26BA2F5469E","title":"浦东大道源深路","lon":"121.52843","lat":"31.24072","category":"38","category_name":"公交车站","address":""},{"poiid":"B2094654DA69A0F4429F","title":"普联大厦","lon":"121.527","lat":"31.2405","category":"46","category_name":"楼宇","address":"上海市虹口区四平路777号"},{"poiid":"B2094750D66DA1F4409E","title":"家东苑","lon":"121.530639","lat":"31.241127","category":"47","category_name":"住宅区","address":"浦东新区浦东大道906号(近源深路)"},{"poiid":"B2094757D16DA0FB4198","title":"681鲜缘坊(浦东店)","lon":"121.5341","lat":"31.24384","category":"74","category_name":"江苏菜","address":"浦东新区桃林路18号(近昌邑路)"},{"poiid":"B2094757D069A6FA4498","title":"泰和足道(浦东大道店)","lon":"121.53294","lat":"31.24154","category":"149","category_name":"洗浴推拿场所","address":"浦东新区浦东大道1068号(浦东大道华开路)"},{"poiid":"B2094757D064AAFA4499","title":"阳升公寓","lon":"121.528997","lat":"31.248022","category":"47","category_name":"住宅区","address":"阳升公寓位于杨浦上海浦东浦东大道其昌栈许家厅51号"},{"poiid":"B2094757D065A1FD429F","title":"交大附中浦东实验高中","lon":"121.526867","lat":"31.240447","category":"253","category_name":"校园生活","address":"上海浦东大道830号"},{"poiid":"B2094655D26BA2F54692","title":"浦东大道桃林路","lon":"121.53421","lat":"31.2422","category":"38","category_name":"公交车站","address":""},{"poiid":"B2094757D06AA2F8429B","title":"哈尔滨饺子坊","lon":"121.530711","lat":"31.241021","category":"68","category_name":"快餐厅","address":"浦东新区浦东大道916号(近源深路)"},{"poiid":"B2094757D569A3FE4993","title":"天安诚韩国料理","lon":"121.52588677","lat":"31.24044623","category":"96","category_name":"韩国料理","address":"浦东新区浦东大道808号(近福山路)"},{"poiid":"B2094654DA68ABFD429E","title":"泰和茶馆","lon":"121.5329","lat":"31.2415","category":"260","category_name":"其他","address":"浦东新区浦东大道1048号(桃林路与源深路之间)"},{"poiid":"B2094654DA69AAF94592","title":"湘情酒店","lon":"121.5282","lat":"31.24052","category":"77","category_name":"湖南菜","address":"浦东新区浦东大道844号(近源深路)"},{"poiid":"B2094757D069A6FA489F","title":"福山小区","lon":"121.532","lat":"31.2439","category":"47","category_name":"住宅区","address":"上海福山路49弄"},{"poiid":"B2094757D065A2FE4099","title":"名门滨江苑","lon":"121.53034","lat":"31.24243","category":"47","category_name":"住宅区","address":"上海市浦东新区浦东大道1093弄"},{"poiid":"B2094654DA69AAFA419A","title":"申富大厦","lon":"121.536","lat":"31.2437","category":"46","category_name":"楼宇","address":"黄浦区外滩23号,中山东一路,南京东路"},{"poiid":"B2094757D168A1FF4693","title":"越南共和国驻沪总领事馆","lon":"121.53028473","lat":"31.240706523","category":"500","category_name":"未知分类","address":"上海浦东大道900号华辰金融中心三楼"},{"poiid":"B2094654DA68ABFC479E","title":"天主教上海教区傅家天主堂","lon":"121.53198","lat":"31.24209","category":"245","category_name":"教堂","address":"浦东大道1115"},{"poiid":"B2094757D06AA6FA4193","title":"真锅咖啡厅 浦东大道店 Manabe","lon":"121.53089880856","lat":"31.24115663148","category":"65","category_name":"咖啡厅","address":"浦东新区浦东大道972号(近源深路)"},{"poiid":"B2094757D069AAF4499E","title":"上海贝尔股份有限公司","lon":"121.525697423","lat":"31.243682444","category":"46","category_name":"楼宇","address":"上海浦东新区金桥出口加工区宁桥路388号"},{"poiid":"B2094750DB6CA1FD4893","title":"上海火车站","lon":"121.528008","lat":"31.250115","category":"500","category_name":"未知分类","address":null}]