[{"poiid":"B2094655D26FA0FB449C","title":"共青国家森林公园","lon":"121.55085","lat":"31.32009","category":"240","category_name":"国家级景点","address":"军工路2000号"},{"poiid":"B2094757D068A3F8429C","title":"五维空间创意园区","lon":"121.5463861","lat":"31.308660221","category":"500","category_name":"未知分类","address":"上海市杨浦区民星路"},{"poiid":"B2094655D36DA2F4499A","title":"翔殷路隧道","lon":"121.56697","lat":"31.30256","category":"250","category_name":"公园户外","address":"上海市杨浦区南翔殷路-浦东新区五洲大道"},{"poiid":"B2094757D068A0FD4693","title":"烧烤","lon":"121.545813","lat":"31.321156","category":"247","category_name":"餐饮美食","address":"上海共青森林公园"},{"poiid":"B2094750D768ABFF499C","title":"共青森林公园烧烤区","lon":"121.546","lat":"31.3206","category":"68","category_name":"快餐厅","address":"杨浦区军工路2000号共青森林公园内"},{"poiid":"B2094757D06FA7F84893","title":"唯一视觉","lon":"121.5459671","lat":"31.308347702","category":"500","category_name":"未知分类","address":"上海五维空间创意产业园"},{"poiid":"B2094757D06FABFF4598","title":"蔚蓝海岸Studio(杨浦店)","lon":"121.5461873","lat":"31.3150192","category":"249","category_name":"购物服务","address":"上海杨浦区军工路1436号五维创业园内(近翔殷路)"},{"poiid":"B2094757D06FA1F5489D","title":"翔殷路隧道(军工路出口)","lon":"121.545063","lat":"31.305381","category":"260","category_name":"其他","address":"上海市杨浦区军工路"},{"poiid":"B2094654DB65A6FE409E","title":"上海城市管理学院(一号路)","lon":"121.55381","lat":"31.32524","category":"52","category_name":"高等院校","address":"军工路2360"},{"poiid":"B2094757D068A4FE419D","title":"龙阳海鲜酒家","lon":"121.5551583","lat":"31.327923639","category":"88","category_name":"海鲜酒楼","address":"杨浦区军工路2600号水产批发市场内(近港水路)"},{"poiid":"B2094757D06FA1FD4799","title":"上海城市管理职业技术学院","lon":"121.54669","lat":"31.32383","category":"671","category_name":"高校中心点","address":"杨浦区军工路2360号(近森林公园)"},{"poiid":"B2094757D06FA2FE4093","title":"市光二村","lon":"121.54085","lat":"31.31772","category":"47","category_name":"住宅区","address":"上海国和路包头路"},{"poiid":"B2094654D568A2F4489A","title":"理工大学科技园","lon":"121.558","lat":"31.3153","category":"45","category_name":"产业园区","address":"翔殷路128号"},{"poiid":"B2094757D06FA2FA469B","title":"星云苑","lon":"121.54228","lat":"31.30961","category":"47","category_name":"住宅区","address":"杨浦区翔殷路258弄(近白城南路)"},{"poiid":"B2094655D36CA0FC409B","title":"军工路翔殷路","lon":"121.54555","lat":"31.30524","category":"38","category_name":"公交车站","address":""},{"poiid":"B2094654D568A2FA439D","title":"上海理工大学第三学生公寓","lon":"121.55713","lat":"31.29555","category":"47","category_name":"住宅区","address":"上海理工大学第三学生公寓"},{"poiid":"B2094757D065AAF44993","title":"格林威福特4S汽车","lon":"121.544248769","lat":"31.3121138941","category":"500","category_name":"未知分类","address":"杨浦区军工路1488号(近民星路)"},{"poiid":"B2094757D068A5F84098","title":"民星路","lon":"121.540491","lat":"31.311405","category":"500","category_name":"未知分类","address":null},{"poiid":"B2094757D66EA4FC4298","title":"共青森林公园海盗船","lon":"121.5472672","lat":"31.320308965","category":"500","category_name":"未知分类","address":"上海军工路"},{"poiid":"B2094750DB6FA2FF4399","title":"上海帝国皇家理工大学","lon":"121.556884","lat":"31.29532","category":"253","category_name":"校园生活","address":"杨浦区军工路516号"},{"poiid":"B2094654D568A2FF499C","title":"嫩江路轮渡站","lon":"121.55838","lat":"31.31606","category":"34","category_name":"港口码头","address":"殷行"},{"poiid":"B2094757D068A0FC4992","title":"市光一村","lon":"121.542811","lat":"31.322146","category":"47","category_name":"住宅区","address":"上海国和路包头路"},{"poiid":"B2094757D068A4F5449B","title":"东塘轮渡站","lon":"121.56574244","lat":"31.3165062","category":"35","category_name":"长途汽车站","address":"上海东塘路604号"},{"poiid":"B2094654DB65A6FB489B","title":"万竹园","lon":"121.55342","lat":"31.31517","category":"196","category_name":"公园","address":"嫩江路"},{"poiid":"B2094655D36DA6FC469F","title":"虬江码头","lon":"121.55533","lat":"31.30673","category":"38","category_name":"公交车站","address":"上海虬江码头路"},{"poiid":"B2094750D365A7FE479D","title":"OPC汽车俱乐部","lon":"121.547981","lat":"31.309179","category":"260","category_name":"其他","address":"杨浦区军工路1436号五维空间45栋(近民星路)"},{"poiid":"B2094757D06AA2F84693","title":"大桶大足浴(包头路店)","lon":"121.5403531","lat":"31.312187295","category":"500","category_name":"未知分类","address":"杨浦区民星路376弄3楼(近包头路)"},{"poiid":"B2094654D568A2FB409A","title":"东嫩线轮渡站","lon":"121.55821","lat":"31.31583","category":"34","category_name":"港口码头","address":""},{"poiid":"B2094757DA69A2F44398","title":"上海蔚蓝海岸婚纱摄影","lon":"121.5462","lat":"31.30844","category":"611","category_name":"照相馆","address":"拍摄基地：军工路1436号"},{"poiid":"B2094655D26BA1FE4499","title":"嫩江码头","lon":"121.55713","lat":"31.31586","category":"38","category_name":"公交车站","address":""},{"poiid":"B2094654DB6AA6FE429F","title":"共青森林度假村","lon":"121.54578","lat":"31.32221","category":"207","category_name":"度假疗养场所","address":"杨浦区军工路2180号"},{"poiid":"B2094654D568A2FB4293","title":"光明便利(虬江码头路)","lon":"121.55524","lat":"31.30874","category":"117","category_name":"便民商店/便利店","address":""},{"poiid":"B2094757D168A5FA459C","title":"古摄影婚纱摄影","lon":"121.5500901","lat":"31.306350173","category":"500","category_name":"未知分类","address":"上海市杨浦区翔殷路81号"},{"poiid":"B2094757D06FABF84199","title":"翔殷路491弄小区","lon":"121.545","lat":"31.314","category":"47","category_name":"住宅区","address":"翔殷路491弄1-86号"},{"poiid":"B2094757D168ABF4489B","title":"美聚汇民间瓦罐煨汤","lon":"121.546028103","lat":"31.3104892601","category":"72","category_name":"广东菜","address":"杨浦区军工路1468号(近民星路)"},{"poiid":"B2094757D56DA2FD4598","title":"洋胖海鲜","lon":"121.54579","lat":"31.31068","category":"247","category_name":"餐饮美食","address":"杨浦区军工路2855号东方国际水产城内(殷行路口)"},{"poiid":"B2094655D26BA1F94198","title":"民星路军工路","lon":"121.54639","lat":"31.31156","category":"38","category_name":"公交车站","address":""},{"poiid":"B2094655D36DA6FF449F","title":"东塘路","lon":"121.56585","lat":"31.31655","category":"38","category_name":"公交车站","address":""},{"poiid":"B2094757D169A1FB449C","title":"乌镇","lon":"121.56420773","lat":"31.312576766","category":"500","category_name":"未知分类","address":"上海乌镇"},{"poiid":"B2094757D06AA7F9479C","title":"兰花教师公寓","lon":"121.542","lat":"31.3098","category":"47","category_name":"住宅区","address":"上海市杨浦区安波路265弄"},{"poiid":"B2094757D064A7F94093","title":"兰岭园","lon":"121.55632433","lat":"31.317643353","category":"500","category_name":"未知分类","address":"上海曹杨三村"},{"poiid":"B2094757D168A5FD469F","title":"毛胡子饭店","lon":"121.54608","lat":"31.31464","category":"76","category_name":"上海菜","address":"杨浦区嫩江路854号(近白城路)"},{"poiid":"B2094757D16CAAF9459E","title":"张记汤馆","lon":"121.54159","lat":"31.31441","category":"68","category_name":"快餐厅","address":"杨浦区嫩江路938号(近包头路)"},{"poiid":"B2094655D26AABF44099","title":"泓庄茶室","lon":"121.55085","lat":"31.32009","category":"66","category_name":"茶艺馆","address":"杨浦区军工路2000号共青森林公园内(近嫩江路)"},{"poiid":"B2094757D165A5F94492","title":"中石化上海高桥分公司化工厂","lon":"121.56556333","lat":"31.306434095","category":"500","category_name":"未知分类","address":"上海东塘路451号"},{"poiid":"B2094654DB6BA2F4499D","title":"杨浦区校园绿化发展基地","lon":"121.55039","lat":"31.30715","category":"45","category_name":"产业园区","address":"翔殷路119"},{"poiid":"B2094757D165A6F9479E","title":"上海起重机械厂","lon":"121.550414103","lat":"31.3112242754","category":"500","category_name":"未知分类","address":"上海民星路"},{"poiid":"B2094757D66BA3F4479F","title":"喜相约饭店","lon":"121.546","lat":"31.31471","category":"71","category_name":"四川菜","address":"杨浦区军工路1486号(近民星路)"},{"poiid":"B2094655D26BA1FD429D","title":"配电所","lon":"121.56656","lat":"31.31446","category":"38","category_name":"公交车站","address":""},{"poiid":"B2094654D568A2FB4593","title":"长白经济园区民星工业园","lon":"121.54779","lat":"31.31133","category":"45","category_name":"产业园区","address":"民星路199"},{"poiid":"B2094655D26FA0FB449C","title":"共青国家森林公园","lon":"121.55085","lat":"31.32009","category":"240","category_name":"国家级景点","address":"军工路2000号"},{"poiid":"B2094757D068A3F8429C","title":"五维空间创意园区","lon":"121.5463861","lat":"31.308660221","category":"500","category_name":"未知分类","address":"上海市杨浦区民星路"},{"poiid":"B2094655D36DA2F4499A","title":"翔殷路隧道","lon":"121.56697","lat":"31.30256","category":"250","category_name":"公园户外","address":"上海市杨浦区南翔殷路-浦东新区五洲大道"},{"poiid":"B2094757D068A0FD4693","title":"烧烤","lon":"121.545813","lat":"31.321156","category":"247","category_name":"餐饮美食","address":"上海共青森林公园"},{"poiid":"B2094750D768ABFF499C","title":"共青森林公园烧烤区","lon":"121.546","lat":"31.3206","category":"68","category_name":"快餐厅","address":"杨浦区军工路2000号共青森林公园内"},{"poiid":"B2094757D06FA7F84893","title":"唯一视觉","lon":"121.5459671","lat":"31.308347702","category":"500","category_name":"未知分类","address":"上海五维空间创意产业园"},{"poiid":"B2094757D06FABFF4598","title":"蔚蓝海岸Studio(杨浦店)","lon":"121.5461873","lat":"31.3150192","category":"249","category_name":"购物服务","address":"上海杨浦区军工路1436号五维创业园内(近翔殷路)"},{"poiid":"B2094757D06FA1F5489D","title":"翔殷路隧道(军工路出口)","lon":"121.545063","lat":"31.305381","category":"260","category_name":"其他","address":"上海市杨浦区军工路"},{"poiid":"B2094654DB65A6FE409E","title":"上海城市管理学院(一号路)","lon":"121.55381","lat":"31.32524","category":"52","category_name":"高等院校","address":"军工路2360"},{"poiid":"B2094757D068A4FE419D","title":"龙阳海鲜酒家","lon":"121.5551583","lat":"31.327923639","category":"88","category_name":"海鲜酒楼","address":"杨浦区军工路2600号水产批发市场内(近港水路)"},{"poiid":"B2094757D06FA1FD4799","title":"上海城市管理职业技术学院","lon":"121.54669","lat":"31.32383","category":"671","category_name":"高校中心点","address":"杨浦区军工路2360号(近森林公园)"},{"poiid":"B2094757D06FA2FE4093","title":"市光二村","lon":"121.54085","lat":"31.31772","category":"47","category_name":"住宅区","address":"上海国和路包头路"},{"poiid":"B2094654D568A2F4489A","title":"理工大学科技园","lon":"121.558","lat":"31.3153","category":"45","category_name":"产业园区","address":"翔殷路128号"},{"poiid":"B2094757D06FA2FA469B","title":"星云苑","lon":"121.54228","lat":"31.30961","category":"47","category_name":"住宅区","address":"杨浦区翔殷路258弄(近白城南路)"},{"poiid":"B2094655D36CA0FC409B","title":"军工路翔殷路","lon":"121.54555","lat":"31.30524","category":"38","category_name":"公交车站","address":""},{"poiid":"B2094654D568A2FA439D","title":"上海理工大学第三学生公寓","lon":"121.55713","lat":"31.29555","category":"47","category_name":"住宅区","address":"上海理工大学第三学生公寓"},{"poiid":"B2094757D065AAF44993","title":"格林威福特4S汽车","lon":"121.544248769","lat":"31.3121138941","category":"500","category_name":"未知分类","address":"杨浦区军工路1488号(近民星路)"},{"poiid":"B2094757D068A5F84098","title":"民星路","lon":"121.540491","lat":"31.311405","category":"500","category_name":"未知分类","address":null},{"poiid":"B2094757D66EA4FC4298","title":"共青森林公园海盗船","lon":"121.5472672","lat":"31.320308965","category":"500","category_name":"未知分类","address":"上海军工路"},{"poiid":"B2094750DB6FA2FF4399","title":"上海帝国皇家理工大学","lon":"121.556884","lat":"31.29532","category":"253","category_name":"校园生活","address":"杨浦区军工路516号"},{"poiid":"B2094654D568A2FF499C","title":"嫩江路轮渡站","lon":"121.55838","lat":"31.31606","category":"34","category_name":"港口码头","address":"殷行"},{"poiid":"B2094757D068A0FC4992","title":"市光一村","lon":"121.542811","lat":"31.322146","category":"47","category_name":"住宅区","address":"上海国和路包头路"},{"poiid":"B2094757D068A4F5449B","title":"东塘轮渡站","lon":"121.56574244","lat":"31.3165062","category":"35","category_name":"长途汽车站","address":"上海东塘路604号"},{"poiid":"B2094654DB65A6FB489B","title":"万竹园","lon":"121.55342","lat":"31.31517","category":"196","category_name":"公园","address":"嫩江路"},{"poiid":"B2094655D36DA6FC469F","title":"虬江码头","lon":"121.55533","lat":"31.30673","category":"38","category_name":"公交车站","address":"上海虬江码头路"},{"poiid":"B2094750D365A7FE479D","title":"OPC汽车俱乐部","lon":"121.547981","lat":"31.309179","category":"260","category_name":"其他","address":"杨浦区军工路1436号五维空间45栋(近民星路)"},{"poiid":"B2094757D06AA2F84693","title":"大桶大足浴(包头路店)","lon":"121.5403531","lat":"31.312187295","category":"500","category_name":"未知分类","address":"杨浦区民星路376弄3楼(近包头路)"},{"poiid":"B2094654D568A2FB409A","title":"东嫩线轮渡站","lon":"121.55821","lat":"31.31583","category":"34","category_name":"港口码头","address":""},{"poiid":"B2094757DA69A2F44398","title":"上海蔚蓝海岸婚纱摄影","lon":"121.5462","lat":"31.30844","category":"611","category_name":"照相馆","address":"拍摄基地：军工路1436号"},{"poiid":"B2094655D26BA1FE4499","title":"嫩江码头","lon":"121.55713","lat":"31.31586","category":"38","category_name":"公交车站","address":""},{"poiid":"B2094654DB6AA6FE429F","title":"共青森林度假村","lon":"121.54578","lat":"31.32221","category":"207","category_name":"度假疗养场所","address":"杨浦区军工路2180号"},{"poiid":"B2094654D568A2FB4293","title":"光明便利(虬江码头路)","lon":"121.55524","lat":"31.30874","category":"117","category_name":"便民商店/便利店","address":""},{"poiid":"B2094757D168A5FA459C","title":"古摄影婚纱摄影","lon":"121.5500901","lat":"31.306350173","category":"500","category_name":"未知分类","address":"上海市杨浦区翔殷路81号"},{"poiid":"B2094757D06FABF84199","title":"翔殷路491弄小区","lon":"121.545","lat":"31.314","category":"47","category_name":"住宅区","address":"翔殷路491弄1-86号"},{"poiid":"B2094757D168ABF4489B","title":"美聚汇民间瓦罐煨汤","lon":"121.546028103","lat":"31.3104892601","category":"72","category_name":"广东菜","address":"杨浦区军工路1468号(近民星路)"},{"poiid":"B2094757D56DA2FD4598","title":"洋胖海鲜","lon":"121.54579","lat":"31.31068","category":"247","category_name":"餐饮美食","address":"杨浦区军工路2855号东方国际水产城内(殷行路口)"},{"poiid":"B2094655D26BA1F94198","title":"民星路军工路","lon":"121.54639","lat":"31.31156","category":"38","category_name":"公交车站","address":""},{"poiid":"B2094655D36DA6FF449F","title":"东塘路","lon":"121.56585","lat":"31.31655","category":"38","category_name":"公交车站","address":""},{"poiid":"B2094757D169A1FB449C","title":"乌镇","lon":"121.56420773","lat":"31.312576766","category":"500","category_name":"未知分类","address":"上海乌镇"},{"poiid":"B2094757D06AA7F9479C","title":"兰花教师公寓","lon":"121.542","lat":"31.3098","category":"47","category_name":"住宅区","address":"上海市杨浦区安波路265弄"},{"poiid":"B2094757D064A7F94093","title":"兰岭园","lon":"121.55632433","lat":"31.317643353","category":"500","category_name":"未知分类","address":"上海曹杨三村"},{"poiid":"B2094757D168A5FD469F","title":"毛胡子饭店","lon":"121.54608","lat":"31.31464","category":"76","category_name":"上海菜","address":"杨浦区嫩江路854号(近白城路)"},{"poiid":"B2094757D16CAAF9459E","title":"张记汤馆","lon":"121.54159","lat":"31.31441","category":"68","category_name":"快餐厅","address":"杨浦区嫩江路938号(近包头路)"},{"poiid":"B2094655D26AABF44099","title":"泓庄茶室","lon":"121.55085","lat":"31.32009","category":"66","category_name":"茶艺馆","address":"杨浦区军工路2000号共青森林公园内(近嫩江路)"},{"poiid":"B2094757D165A5F94492","title":"中石化上海高桥分公司化工厂","lon":"121.56556333","lat":"31.306434095","category":"500","category_name":"未知分类","address":"上海东塘路451号"},{"poiid":"B2094654DB6BA2F4499D","title":"杨浦区校园绿化发展基地","lon":"121.55039","lat":"31.30715","category":"45","category_name":"产业园区","address":"翔殷路119"},{"poiid":"B2094757D165A6F9479E","title":"上海起重机械厂","lon":"121.550414103","lat":"31.3112242754","category":"500","category_name":"未知分类","address":"上海民星路"},{"poiid":"B2094757D66BA3F4479F","title":"喜相约饭店","lon":"121.546","lat":"31.31471","category":"71","category_name":"四川菜","address":"杨浦区军工路1486号(近民星路)"},{"poiid":"B2094655D26BA1FD429D","title":"配电所","lon":"121.56656","lat":"31.31446","category":"38","category_name":"公交车站","address":""},{"poiid":"B2094654D568A2FB4593","title":"长白经济园区民星工业园","lon":"121.54779","lat":"31.31133","category":"45","category_name":"产业园区","address":"民星路199"},{"poiid":"B2094655D26FA0FB449C","title":"共青国家森林公园","lon":"121.55085","lat":"31.32009","category":"240","category_name":"国家级景点","address":"军工路2000号"},{"poiid":"B2094757D068A3F8429C","title":"五维空间创意园区","lon":"121.5463861","lat":"31.308660221","category":"500","category_name":"未知分类","address":"上海市杨浦区民星路"},{"poiid":"B2094655D36DA2F4499A","title":"翔殷路隧道","lon":"121.56697","lat":"31.30256","category":"250","category_name":"公园户外","address":"上海市杨浦区南翔殷路-浦东新区五洲大道"},{"poiid":"B2094757D068A0FD4693","title":"烧烤","lon":"121.545813","lat":"31.321156","category":"247","category_name":"餐饮美食","address":"上海共青森林公园"},{"poiid":"B2094750D768ABFF499C","title":"共青森林公园烧烤区","lon":"121.546","lat":"31.3206","category":"68","category_name":"快餐厅","address":"杨浦区军工路2000号共青森林公园内"},{"poiid":"B2094757D06FA7F84893","title":"唯一视觉","lon":"121.5459671","lat":"31.308347702","category":"500","category_name":"未知分类","address":"上海五维空间创意产业园"},{"poiid":"B2094757D06FABFF4598","title":"蔚蓝海岸Studio(杨浦店)","lon":"121.5461873","lat":"31.3150192","category":"249","category_name":"购物服务","address":"上海杨浦区军工路1436号五维创业园内(近翔殷路)"},{"poiid":"B2094757D06FA1F5489D","title":"翔殷路隧道(军工路出口)","lon":"121.545063","lat":"31.305381","category":"260","category_name":"其他","address":"上海市杨浦区军工路"},{"poiid":"B2094654DB65A6FE409E","title":"上海城市管理学院(一号路)","lon":"121.55381","lat":"31.32524","category":"52","category_name":"高等院校","address":"军工路2360"},{"poiid":"B2094757D068A4FE419D","title":"龙阳海鲜酒家","lon":"121.5551583","lat":"31.327923639","category":"88","category_name":"海鲜酒楼","address":"杨浦区军工路2600号水产批发市场内(近港水路)"},{"poiid":"B2094757D06FA1FD4799","title":"上海城市管理职业技术学院","lon":"121.54669","lat":"31.32383","category":"671","category_name":"高校中心点","address":"杨浦区军工路2360号(近森林公园)"},{"poiid":"B2094757D06FA2FE4093","title":"市光二村","lon":"121.54085","lat":"31.31772","category":"47","category_name":"住宅区","address":"上海国和路包头路"},{"poiid":"B2094654D568A2F4489A","title":"理工大学科技园","lon":"121.558","lat":"31.3153","category":"45","category_name":"产业园区","address":"翔殷路128号"},{"poiid":"B2094757D06FA2FA469B","title":"星云苑","lon":"121.54228","lat":"31.30961","category":"47","category_name":"住宅区","address":"杨浦区翔殷路258弄(近白城南路)"},{"poiid":"B2094655D36CA0FC409B","title":"军工路翔殷路","lon":"121.54555","lat":"31.30524","category":"38","category_name":"公交车站","address":""},{"poiid":"B2094654D568A2FA439D","title":"上海理工大学第三学生公寓","lon":"121.55713","lat":"31.29555","category":"47","category_name":"住宅区","address":"上海理工大学第三学生公寓"},{"poiid":"B2094757D065AAF44993","title":"格林威福特4S汽车","lon":"121.544248769","lat":"31.3121138941","category":"500","category_name":"未知分类","address":"杨浦区军工路1488号(近民星路)"},{"poiid":"B2094757D068A5F84098","title":"民星路","lon":"121.540491","lat":"31.311405","category":"500","category_name":"未知分类","address":null},{"poiid":"B2094757D66EA4FC4298","title":"共青森林公园海盗船","lon":"121.5472672","lat":"31.320308965","category":"500","category_name":"未知分类","address":"上海军工路"},{"poiid":"B2094750DB6FA2FF4399","title":"上海帝国皇家理工大学","lon":"121.556884","lat":"31.29532","category":"253","category_name":"校园生活","address":"杨浦区军工路516号"},{"poiid":"B2094654D568A2FF499C","title":"嫩江路轮渡站","lon":"121.55838","lat":"31.31606","category":"34","category_name":"港口码头","address":"殷行"},{"poiid":"B2094757D068A0FC4992","title":"市光一村","lon":"121.542811","lat":"31.322146","category":"47","category_name":"住宅区","address":"上海国和路包头路"},{"poiid":"B2094757D068A4F5449B","title":"东塘轮渡站","lon":"121.56574244","lat":"31.3165062","category":"35","category_name":"长途汽车站","address":"上海东塘路604号"},{"poiid":"B2094654DB65A6FB489B","title":"万竹园","lon":"121.55342","lat":"31.31517","category":"196","category_name":"公园","address":"嫩江路"},{"poiid":"B2094655D36DA6FC469F","title":"虬江码头","lon":"121.55533","lat":"31.30673","category":"38","category_name":"公交车站","address":"上海虬江码头路"},{"poiid":"B2094750D365A7FE479D","title":"OPC汽车俱乐部","lon":"121.547981","lat":"31.309179","category":"260","category_name":"其他","address":"杨浦区军工路1436号五维空间45栋(近民星路)"},{"poiid":"B2094757D06AA2F84693","title":"大桶大足浴(包头路店)","lon":"121.5403531","lat":"31.312187295","category":"500","category_name":"未知分类","address":"杨浦区民星路376弄3楼(近包头路)"},{"poiid":"B2094654D568A2FB409A","title":"东嫩线轮渡站","lon":"121.55821","lat":"31.31583","category":"34","category_name":"港口码头","address":""},{"poiid":"B2094757DA69A2F44398","title":"上海蔚蓝海岸婚纱摄影","lon":"121.5462","lat":"31.30844","category":"611","category_name":"照相馆","address":"拍摄基地：军工路1436号"},{"poiid":"B2094655D26BA1FE4499","title":"嫩江码头","lon":"121.55713","lat":"31.31586","category":"38","category_name":"公交车站","address":""},{"poiid":"B2094654DB6AA6FE429F","title":"共青森林度假村","lon":"121.54578","lat":"31.32221","category":"207","category_name":"度假疗养场所","address":"杨浦区军工路2180号"},{"poiid":"B2094654D568A2FB4293","title":"光明便利(虬江码头路)","lon":"121.55524","lat":"31.30874","category":"117","category_name":"便民商店/便利店","address":""},{"poiid":"B2094757D168A5FA459C","title":"古摄影婚纱摄影","lon":"121.5500901","lat":"31.306350173","category":"500","category_name":"未知分类","address":"上海市杨浦区翔殷路81号"},{"poiid":"B2094757D06FABF84199","title":"翔殷路491弄小区","lon":"121.545","lat":"31.314","category":"47","category_name":"住宅区","address":"翔殷路491弄1-86号"},{"poiid":"B2094757D168ABF4489B","title":"美聚汇民间瓦罐煨汤","lon":"121.546028103","lat":"31.3104892601","category":"72","category_name":"广东菜","address":"杨浦区军工路1468号(近民星路)"},{"poiid":"B2094757D56DA2FD4598","title":"洋胖海鲜","lon":"121.54579","lat":"31.31068","category":"247","category_name":"餐饮美食","address":"杨浦区军工路2855号东方国际水产城内(殷行路口)"},{"poiid":"B2094655D26BA1F94198","title":"民星路军工路","lon":"121.54639","lat":"31.31156","category":"38","category_name":"公交车站","address":""},{"poiid":"B2094655D36DA6FF449F","title":"东塘路","lon":"121.56585","lat":"31.31655","category":"38","category_name":"公交车站","address":""},{"poiid":"B2094757D169A1FB449C","title":"乌镇","lon":"121.56420773","lat":"31.312576766","category":"500","category_name":"未知分类","address":"上海乌镇"},{"poiid":"B2094757D06AA7F9479C","title":"兰花教师公寓","lon":"121.542","lat":"31.3098","category":"47","category_name":"住宅区","address":"上海市杨浦区安波路265弄"},{"poiid":"B2094757D064A7F94093","title":"兰岭园","lon":"121.55632433","lat":"31.317643353","category":"500","category_name":"未知分类","address":"上海曹杨三村"},{"poiid":"B2094757D168A5FD469F","title":"毛胡子饭店","lon":"121.54608","lat":"31.31464","category":"76","category_name":"上海菜","address":"杨浦区嫩江路854号(近白城路)"},{"poiid":"B2094757D16CAAF9459E","title":"张记汤馆","lon":"121.54159","lat":"31.31441","category":"68","category_name":"快餐厅","address":"杨浦区嫩江路938号(近包头路)"},{"poiid":"B2094655D26AABF44099","title":"泓庄茶室","lon":"121.55085","lat":"31.32009","category":"66","category_name":"茶艺馆","address":"杨浦区军工路2000号共青森林公园内(近嫩江路)"},{"poiid":"B2094757D165A5F94492","title":"中石化上海高桥分公司化工厂","lon":"121.56556333","lat":"31.306434095","category":"500","category_name":"未知分类","address":"上海东塘路451号"},{"poiid":"B2094654DB6BA2F4499D","title":"杨浦区校园绿化发展基地","lon":"121.55039","lat":"31.30715","category":"45","category_name":"产业园区","address":"翔殷路119"},{"poiid":"B2094757D165A6F9479E","title":"上海起重机械厂","lon":"121.550414103","lat":"31.3112242754","category":"500","category_name":"未知分类","address":"上海民星路"},{"poiid":"B2094757D66BA3F4479F","title":"喜相约饭店","lon":"121.546","lat":"31.31471","category":"71","category_name":"四川菜","address":"杨浦区军工路1486号(近民星路)"},{"poiid":"B2094655D26BA1FD429D","title":"配电所","lon":"121.56656","lat":"31.31446","category":"38","category_name":"公交车站","address":""},{"poiid":"B2094654D568A2FB4593","title":"长白经济园区民星工业园","lon":"121.54779","lat":"31.31133","category":"45","category_name":"产业园区","address":"民星路199"},{"poiid":"B2094655D26FA0FB449C","title":"共青国家森林公园","lon":"121.55085","lat":"31.32009","category":"240","category_name":"国家级景点","address":"军工路2000号"},{"poiid":"B2094757D068A3F8429C","title":"五维空间创意园区","lon":"121.5463861","lat":"31.308660221","category":"500","category_name":"未知分类","address":"上海市杨浦区民星路"},{"poiid":"B2094655D36DA2F4499A","title":"翔殷路隧道","lon":"121.56697","lat":"31.30256","category":"250","category_name":"公园户外","address":"上海市杨浦区南翔殷路-浦东新区五洲大道"},{"poiid":"B2094757D068A0FD4693","title":"烧烤","lon":"121.545813","lat":"31.321156","category":"247","category_name":"餐饮美食","address":"上海共青森林公园"},{"poiid":"B2094750D768ABFF499C","title":"共青森林公园烧烤区","lon":"121.546","lat":"31.3206","category":"68","category_name":"快餐厅","address":"杨浦区军工路2000号共青森林公园内"},{"poiid":"B2094757D06FA7F84893","title":"唯一视觉","lon":"121.5459671","lat":"31.308347702","category":"500","category_name":"未知分类","address":"上海五维空间创意产业园"},{"poiid":"B2094757D06FABFF4598","title":"蔚蓝海岸Studio(杨浦店)","lon":"121.5461873","lat":"31.3150192","category":"249","category_name":"购物服务","address":"上海杨浦区军工路1436号五维创业园内(近翔殷路)"},{"poiid":"B2094757D06FA1F5489D","title":"翔殷路隧道(军工路出口)","lon":"121.545063","lat":"31.305381","category":"260","category_name":"其他","address":"上海市杨浦区军工路"},{"poiid":"B2094654DB65A6FE409E","title":"上海城市管理学院(一号路)","lon":"121.55381","lat":"31.32524","category":"52","category_name":"高等院校","address":"军工路2360"},{"poiid":"B2094757D068A4FE419D","title":"龙阳海鲜酒家","lon":"121.5551583","lat":"31.327923639","category":"88","category_name":"海鲜酒楼","address":"杨浦区军工路2600号水产批发市场内(近港水路)"},{"poiid":"B2094757D06FA1FD4799","title":"上海城市管理职业技术学院","lon":"121.54669","lat":"31.32383","category":"671","category_name":"高校中心点","address":"杨浦区军工路2360号(近森林公园)"},{"poiid":"B2094757D06FA2FE4093","title":"市光二村","lon":"121.54085","lat":"31.31772","category":"47","category_name":"住宅区","address":"上海国和路包头路"},{"poiid":"B2094654D568A2F4489A","title":"理工大学科技园","lon":"121.558","lat":"31.3153","category":"45","category_name":"产业园区","address":"翔殷路128号"},{"poiid":"B2094757D06FA2FA469B","title":"星云苑","lon":"121.54228","lat":"31.30961","category":"47","category_name":"住宅区","address":"杨浦区翔殷路258弄(近白城南路)"},{"poiid":"B2094655D36CA0FC409B","title":"军工路翔殷路","lon":"121.54555","lat":"31.30524","category":"38","category_name":"公交车站","address":""},{"poiid":"B2094654D568A2FA439D","title":"上海理工大学第三学生公寓","lon":"121.55713","lat":"31.29555","category":"47","category_name":"住宅区","address":"上海理工大学第三学生公寓"},{"poiid":"B2094757D065AAF44993","title":"格林威福特4S汽车","lon":"121.544248769","lat":"31.3121138941","category":"500","category_name":"未知分类","address":"杨浦区军工路1488号(近民星路)"},{"poiid":"B2094757D068A5F84098","title":"民星路","lon":"121.540491","lat":"31.311405","category":"500","category_name":"未知分类","address":null},{"poiid":"B2094757D66EA4FC4298","title":"共青森林公园海盗船","lon":"121.5472672","lat":"31.320308965","category":"500","category_name":"未知分类","address":"上海军工路"},{"poiid":"B2094750DB6FA2FF4399","title":"上海帝国皇家理工大学","lon":"121.556884","lat":"31.29532","category":"253","category_name":"校园生活","address":"杨浦区军工路516号"},{"poiid":"B2094654D568A2FF499C","title":"嫩江路轮渡站","lon":"121.55838","lat":"31.31606","category":"34","category_name":"港口码头","address":"殷行"},{"poiid":"B2094757D068A0FC4992","title":"市光一村","lon":"121.542811","lat":"31.322146","category":"47","category_name":"住宅区","address":"上海国和路包头路"},{"poiid":"B2094757D068A4F5449B","title":"东塘轮渡站","lon":"121.56574244","lat":"31.3165062","category":"35","category_name":"长途汽车站","address":"上海东塘路604号"},{"poiid":"B2094654DB65A6FB489B","title":"万竹园","lon":"121.55342","lat":"31.31517","category":"196","category_name":"公园","address":"嫩江路"},{"poiid":"B2094655D36DA6FC469F","title":"虬江码头","lon":"121.55533","lat":"31.30673","category":"38","category_name":"公交车站","address":"上海虬江码头路"},{"poiid":"B2094750D365A7FE479D","title":"OPC汽车俱乐部","lon":"121.547981","lat":"31.309179","category":"260","category_name":"其他","address":"杨浦区军工路1436号五维空间45栋(近民星路)"},{"poiid":"B2094757D06AA2F84693","title":"大桶大足浴(包头路店)","lon":"121.5403531","lat":"31.312187295","category":"500","category_name":"未知分类","address":"杨浦区民星路376弄3楼(近包头路)"},{"poiid":"B2094654D568A2FB409A","title":"东嫩线轮渡站","lon":"121.55821","lat":"31.31583","category":"34","category_name":"港口码头","address":""},{"poiid":"B2094757DA69A2F44398","title":"上海蔚蓝海岸婚纱摄影","lon":"121.5462","lat":"31.30844","category":"611","category_name":"照相馆","address":"拍摄基地：军工路1436号"},{"poiid":"B2094655D26BA1FE4499","title":"嫩江码头","lon":"121.55713","lat":"31.31586","category":"38","category_name":"公交车站","address":""},{"poiid":"B2094654DB6AA6FE429F","title":"共青森林度假村","lon":"121.54578","lat":"31.32221","category":"207","category_name":"度假疗养场所","address":"杨浦区军工路2180号"},{"poiid":"B2094654D568A2FB4293","title":"光明便利(虬江码头路)","lon":"121.55524","lat":"31.30874","category":"117","category_name":"便民商店/便利店","address":""},{"poiid":"B2094757D168A5FA459C","title":"古摄影婚纱摄影","lon":"121.5500901","lat":"31.306350173","category":"500","category_name":"未知分类","address":"上海市杨浦区翔殷路81号"},{"poiid":"B2094757D06FABF84199","title":"翔殷路491弄小区","lon":"121.545","lat":"31.314","category":"47","category_name":"住宅区","address":"翔殷路491弄1-86号"},{"poiid":"B2094757D168ABF4489B","title":"美聚汇民间瓦罐煨汤","lon":"121.546028103","lat":"31.3104892601","category":"72","category_name":"广东菜","address":"杨浦区军工路1468号(近民星路)"},{"poiid":"B2094757D56DA2FD4598","title":"洋胖海鲜","lon":"121.54579","lat":"31.31068","category":"247","category_name":"餐饮美食","address":"杨浦区军工路2855号东方国际水产城内(殷行路口)"},{"poiid":"B2094655D26BA1F94198","title":"民星路军工路","lon":"121.54639","lat":"31.31156","category":"38","category_name":"公交车站","address":""},{"poiid":"B2094655D36DA6FF449F","title":"东塘路","lon":"121.56585","lat":"31.31655","category":"38","category_name":"公交车站","address":""},{"poiid":"B2094757D169A1FB449C","title":"乌镇","lon":"121.56420773","lat":"31.312576766","category":"500","category_name":"未知分类","address":"上海乌镇"},{"poiid":"B2094757D06AA7F9479C","title":"兰花教师公寓","lon":"121.542","lat":"31.3098","category":"47","category_name":"住宅区","address":"上海市杨浦区安波路265弄"},{"poiid":"B2094757D064A7F94093","title":"兰岭园","lon":"121.55632433","lat":"31.317643353","category":"500","category_name":"未知分类","address":"上海曹杨三村"},{"poiid":"B2094757D168A5FD469F","title":"毛胡子饭店","lon":"121.54608","lat":"31.31464","category":"76","category_name":"上海菜","address":"杨浦区嫩江路854号(近白城路)"},{"poiid":"B2094757D16CAAF9459E","title":"张记汤馆","lon":"121.54159","lat":"31.31441","category":"68","category_name":"快餐厅","address":"杨浦区嫩江路938号(近包头路)"},{"poiid":"B2094655D26AABF44099","title":"泓庄茶室","lon":"121.55085","lat":"31.32009","category":"66","category_name":"茶艺馆","address":"杨浦区军工路2000号共青森林公园内(近嫩江路)"},{"poiid":"B2094757D165A5F94492","title":"中石化上海高桥分公司化工厂","lon":"121.56556333","lat":"31.306434095","category":"500","category_name":"未知分类","address":"上海东塘路451号"},{"poiid":"B2094654DB6BA2F4499D","title":"杨浦区校园绿化发展基地","lon":"121.55039","lat":"31.30715","category":"45","category_name":"产业园区","address":"翔殷路119"},{"poiid":"B2094757D165A6F9479E","title":"上海起重机械厂","lon":"121.550414103","lat":"31.3112242754","category":"500","category_name":"未知分类","address":"上海民星路"},{"poiid":"B2094757D66BA3F4479F","title":"喜相约饭店","lon":"121.546","lat":"31.31471","category":"71","category_name":"四川菜","address":"杨浦区军工路1486号(近民星路)"},{"poiid":"B2094655D26BA1FD429D","title":"配电所","lon":"121.56656","lat":"31.31446","category":"38","category_name":"公交车站","address":""},{"poiid":"B2094654D568A2FB4593","title":"长白经济园区民星工业园","lon":"121.54779","lat":"31.31133","category":"45","category_name":"产业园区","address":"民星路199"}]