[{"poiid":"B2094757D06EAAFB489A","title":"西藏南路地铁站","lon":"121.48955049","lat":"31.201815904","category":"36","category_name":"地铁站","address":"黄浦区西藏南路"},{"poiid":"B2094757D068A3FF4999","title":"上海第九人民医院一号楼(牙科)","lon":"121.4861226","lat":"31.201654541","category":"162","category_name":"医院","address":"上海市黄浦区制造局路639号"},{"poiid":"B2094655D36DA1FB4193","title":"西藏南路","lon":"121.48925","lat":"31.20238","category":"38","category_name":"公交车站","address":"上海八号线西藏南路站"},{"poiid":"B2094753D76FAAFA449C","title":"上海滩国泰旗舰店","lon":"121.466011","lat":"31.216125","category":"249","category_name":"购物服务","address":"淮海中路868号"},{"poiid":"B209475CD564A7F84292","title":"上海滩新天地店","lon":"121.47463","lat":"31.22164","category":"119","category_name":"商场","address":"\"太仓路181弄新天地北里15号\r\n\""},{"poiid":"B2094654DA68A0FC489F","title":"耀江花园","lon":"121.49187","lat":"31.199152","category":"47","category_name":"住宅区","address":"上海西藏南路1739弄"},{"poiid":"B2094757D06FA4FB409F","title":"世博园二号门","lon":"121.49101012","lat":"31.200848717","category":"260","category_name":"其他","address":"上海世博园二号门西藏南路出入口"},{"poiid":"B2094655D268A5FB499B","title":"上海交通大学口腔医学院九院临床医学院","lon":"121.4868","lat":"31.1995","category":"52","category_name":"高等院校","address":""},{"poiid":"B2094757D569A3FF459F","title":"天水雅居(瞿溪店)","lon":"121.48796","lat":"31.20321611","category":"74","category_name":"江苏菜","address":"黄浦区瞿溪路479号(近西藏南路)"},{"poiid":"B2094654DA68A7F4499B","title":"卢湾都市花园","lon":"121.4851008675","lat":"31.200123503758","category":"47","category_name":"住宅区","address":"上海市卢湾区鲁班路509号"},{"poiid":"B2094757D16CABF9469B","title":"黄浦江江面","lon":"121.493064","lat":"31.197621","category":"247","category_name":"餐饮美食","address":"上海黄浦江江面"},{"poiid":"B2094750D56DA6FF439B","title":"x先生密室","lon":"121.486541","lat":"31.200435","category":"500","category_name":"未知分类","address":"卢湾区局门路550号八号桥三期1号楼"},{"poiid":"B2094655D269AAFA4892","title":"世和酒店","lon":"121.48844","lat":"31.20322","category":"247","category_name":"餐饮美食","address":"黄浦区西藏南路1528号(瞿溪路口)"},{"poiid":"B2094655D36DA7F84792","title":"中山南一路西藏南路","lon":"121.48866","lat":"31.20129","category":"38","category_name":"公交车站","address":""},{"poiid":"B2094757D06FABFD4999","title":"全家便利店(西藏南路店)","lon":"121.48975","lat":"31.20234","category":"117","category_name":"便民商店/便利店","address":"黄浦区西藏南路1521号(近中山南一路)"},{"poiid":"B2094757D06AA4F94292","title":"coffee bean","lon":"121.48605346","lat":"31.199184417","category":"65","category_name":"咖啡厅","address":"上海8号桥三期"},{"poiid":"B2094757DB6DABFA4793","title":"莫泰168（上海西藏南路店）—原千岛湖酒店","lon":"121.4901403","lat":"31.19946134","category":"215","category_name":"三星级宾馆","address":"上海市黄浦区西藏南路1735号（近中山南路路口）"},{"poiid":"B2094655D26FA5FC4799","title":"望江苑","lon":"121.4892","lat":"31.198946","category":"47","category_name":"住宅区","address":"高雄路185,189"},{"poiid":"B2094751DA6BA0FA419D","title":"世博源巴国布衣","lon":"121.486386","lat":"31.198458","category":"247","category_name":"餐饮美食","address":"世博大道1368号世博源"},{"poiid":"B2094757D068A4FE4799","title":"蔡先生苏州汤包馆(制造局路店)","lon":"121.48496","lat":"31.20279","category":"68","category_name":"快餐厅","address":"卢湾区制造局路592号(近第九人民医院)"},{"poiid":"B2094654DA68A7F94699","title":"黄金岛大酒店","lon":"121.48628","lat":"31.19932","category":"250","category_name":"公园户外","address":"卢湾区制造局路833弄口(近市第九人民医院)"},{"poiid":"B2094753D165A3FE4298","title":"上海儿童艺术剧场","lon":"121.490011","lat":"31.198779","category":"500","category_name":"未知分类","address":"上海市 上海市黄浦区苗江路"},{"poiid":"B2094654DA68A7FA419E","title":"望江苑(南门)","lon":"121.48947","lat":"31.1987","category":"47","category_name":"住宅区","address":""},{"poiid":"B2094753D36EA4F44699","title":"上汽荣威儿童艺术中心","lon":"121.489086","lat":"31.199906","category":"500","category_name":"未知分类","address":"上海市 上海市苗江路800号"},{"poiid":"B2094654DA68A0FC479B","title":"金中苑商务楼","lon":"121.49163","lat":"31.20221","category":"46","category_name":"楼宇","address":"黄浦区南京东路311号"},{"poiid":"B2094654DA68A0FC489B","title":"白玉兰家园","lon":"121.49213","lat":"31.200241","category":"47","category_name":"住宅区","address":"白玉兰家园位于黄浦西藏南路1717号(近高雄路口)"},{"poiid":"B2094654DA68A7FE459B","title":"瞿四小区(瞿溪路)","lon":"121.48677","lat":"31.20107","category":"47","category_name":"住宅区","address":"中山南一路247弄1-24号"},{"poiid":"B2094655D268A4F84098","title":"上海交通大学口腔医学院九院临床医学院(南门)","lon":"121.48694","lat":"31.19947","category":"52","category_name":"高等院校","address":""},{"poiid":"B2094655D268A4F8409C","title":"惠祥公寓","lon":"121.48793","lat":"31.199553","category":"47","category_name":"住宅区","address":"制造局路833弄19号"},{"poiid":"B2094757D16CA0F5439A","title":"香港新世界花园一期","lon":"121.48666023","lat":"31.197706047","category":"47","category_name":"住宅区","address":"上海市卢湾区中山南一路500弄"},{"poiid":"B2094654DB6BABF84399","title":"千岛湖鱼味馆(西藏南路)","lon":"121.49118","lat":"31.19951","category":"260","category_name":"其他","address":"黄浦区西藏南路1735号千岛湖酒店副楼2楼(近高雄路)"},{"poiid":"B2094753D164A4F5479A","title":"上海儿童艺术剧场","lon":"121.488466","lat":"31.199832","category":"500","category_name":"未知分类","address":"上海市 苗江路800号"},{"poiid":"B2094752D565ABFB429C","title":"IKEA宜家","lon":"121.490448","lat":"31.199768","category":"249","category_name":"购物服务","address":"徐家匯"},{"poiid":"B2094654DB64ABF8479A","title":"中国船舶工业集团公司第七〇八研究所","lon":"121.49001","lat":"31.20003","category":"191","category_name":"科研机构","address":"西藏南路1688"},{"poiid":"B2094654DB6BABF84398","title":"上海千岛湖酒店(黄浦店)","lon":"121.49118","lat":"31.19951","category":"215","category_name":"三星级宾馆","address":"黄浦区西藏南路1735号(清流北街西藏南路)"},{"poiid":"B2094757D66CA6FA4692","title":"西藏南路隧道北入口","lon":"121.489557138","lat":"31.2012451826","category":"500","category_name":"未知分类","address":"上海西藏南路中山南路"},{"poiid":"B2094757D569A3FA4799","title":"耀江花园一期","lon":"121.4918669","lat":"31.19915306","category":"47","category_name":"住宅区","address":"上海市黄浦区西藏南路1739号"},{"poiid":"B2094654DA68A7F9469E","title":"黄金岛食府","lon":"121.4861","lat":"31.19926","category":"76","category_name":"上海菜","address":"黄浦区制造局路789号(近中山南一路口)"},{"poiid":"B2094757D069ABFB409F","title":"吴越人家面馆(制造局路店)","lon":"121.4855","lat":"31.20157","category":"68","category_name":"快餐厅","address":"卢湾区制造局路640号(近中山南一路)"},{"poiid":"B2094655D26BA6FB4192","title":"上海交通大学口腔医学院(西门)","lon":"121.48699","lat":"31.1995","category":"52","category_name":"高等院校","address":"制造局路833弄12"},{"poiid":"B2094757D069ABF5489C","title":"上海市荷花池幼儿园","lon":"121.488098145","lat":"31.2027244568","category":"500","category_name":"未知分类","address":"黄浦区瞿溪路468号(瞿溪路西藏南路)"},{"poiid":"B2094757D06BA3F4449B","title":"上海市第九人民医院临床医学院宿舍楼","lon":"121.486989","lat":"31.199509","category":"253","category_name":"校园生活","address":"上海制造局路833弄12号"},{"poiid":"B2094757D168A0F84498","title":"上海永利工业制带有限公司","lon":"121.488741738","lat":"31.1983056201","category":"263","category_name":"公司","address":"上海制造局路861号"},{"poiid":"B2094654DA68A7FA409E","title":"晟光商务","lon":"121.48671","lat":"31.19829","category":"46","category_name":"楼宇","address":"制造局路893"},{"poiid":"B2094655D268A5FB489D","title":"嘉登公寓","lon":"121.48667","lat":"31.19915","category":"47","category_name":"住宅区","address":"制造局路833弄8号-11号"},{"poiid":"B2094655D268A4FB409F","title":"惠祥公寓(西门)","lon":"121.48741","lat":"31.19955","category":"47","category_name":"住宅区","address":"制造局路833弄19号"},{"poiid":"B2094654DB64AAF54999","title":"上海市黄浦区科技工业大楼","lon":"121.48626","lat":"31.19946","category":"46","category_name":"楼宇","address":"制造局路787号"},{"poiid":"B2094750DA6BA1F44899","title":"9号线陆家浜路","lon":"121.492103","lat":"31.198028","category":"627","category_name":"一般地点标志","address":null},{"poiid":"B2094654DA68A7F9419F","title":"黄浦科技孵化大楼","lon":"121.48626","lat":"31.19945","category":"46","category_name":"楼宇","address":"制造局路787号"},{"poiid":"B209475DD76FA4FC4299","title":"上海外滩","lon":"121.489639","lat":"31.200765","category":"627","category_name":"一般地点标志","address":"上海市 外滩"},{"poiid":"B2094757D06EAAFB489A","title":"西藏南路地铁站","lon":"121.48955049","lat":"31.201815904","category":"36","category_name":"地铁站","address":"黄浦区西藏南路"},{"poiid":"B2094757D068A3FF4999","title":"上海第九人民医院一号楼(牙科)","lon":"121.4861226","lat":"31.201654541","category":"162","category_name":"医院","address":"上海市黄浦区制造局路639号"},{"poiid":"B2094655D36DA1FB4193","title":"西藏南路","lon":"121.48925","lat":"31.20238","category":"38","category_name":"公交车站","address":"上海八号线西藏南路站"},{"poiid":"B2094753D76FAAFA449C","title":"上海滩国泰旗舰店","lon":"121.466011","lat":"31.216125","category":"249","category_name":"购物服务","address":"淮海中路868号"},{"poiid":"B209475CD564A7F84292","title":"上海滩新天地店","lon":"121.47463","lat":"31.22164","category":"119","category_name":"商场","address":"\"太仓路181弄新天地北里15号\r\n\""},{"poiid":"B2094654DA68A0FC489F","title":"耀江花园","lon":"121.49187","lat":"31.199152","category":"47","category_name":"住宅区","address":"上海西藏南路1739弄"},{"poiid":"B2094757D06FA4FB409F","title":"世博园二号门","lon":"121.49101012","lat":"31.200848717","category":"260","category_name":"其他","address":"上海世博园二号门西藏南路出入口"},{"poiid":"B2094655D268A5FB499B","title":"上海交通大学口腔医学院九院临床医学院","lon":"121.4868","lat":"31.1995","category":"52","category_name":"高等院校","address":""},{"poiid":"B2094757D569A3FF459F","title":"天水雅居(瞿溪店)","lon":"121.48796","lat":"31.20321611","category":"74","category_name":"江苏菜","address":"黄浦区瞿溪路479号(近西藏南路)"},{"poiid":"B2094654DA68A7F4499B","title":"卢湾都市花园","lon":"121.4851008675","lat":"31.200123503758","category":"47","category_name":"住宅区","address":"上海市卢湾区鲁班路509号"},{"poiid":"B2094757D16CABF9469B","title":"黄浦江江面","lon":"121.493064","lat":"31.197621","category":"247","category_name":"餐饮美食","address":"上海黄浦江江面"},{"poiid":"B2094750D56DA6FF439B","title":"x先生密室","lon":"121.486541","lat":"31.200435","category":"500","category_name":"未知分类","address":"卢湾区局门路550号八号桥三期1号楼"},{"poiid":"B2094655D269AAFA4892","title":"世和酒店","lon":"121.48844","lat":"31.20322","category":"247","category_name":"餐饮美食","address":"黄浦区西藏南路1528号(瞿溪路口)"},{"poiid":"B2094655D36DA7F84792","title":"中山南一路西藏南路","lon":"121.48866","lat":"31.20129","category":"38","category_name":"公交车站","address":""},{"poiid":"B2094757D06FABFD4999","title":"全家便利店(西藏南路店)","lon":"121.48975","lat":"31.20234","category":"117","category_name":"便民商店/便利店","address":"黄浦区西藏南路1521号(近中山南一路)"},{"poiid":"B2094757D06AA4F94292","title":"coffee bean","lon":"121.48605346","lat":"31.199184417","category":"65","category_name":"咖啡厅","address":"上海8号桥三期"},{"poiid":"B2094757DB6DABFA4793","title":"莫泰168（上海西藏南路店）—原千岛湖酒店","lon":"121.4901403","lat":"31.19946134","category":"215","category_name":"三星级宾馆","address":"上海市黄浦区西藏南路1735号（近中山南路路口）"},{"poiid":"B2094655D26FA5FC4799","title":"望江苑","lon":"121.4892","lat":"31.198946","category":"47","category_name":"住宅区","address":"高雄路185,189"},{"poiid":"B2094751DA6BA0FA419D","title":"世博源巴国布衣","lon":"121.486386","lat":"31.198458","category":"247","category_name":"餐饮美食","address":"世博大道1368号世博源"},{"poiid":"B2094757D068A4FE4799","title":"蔡先生苏州汤包馆(制造局路店)","lon":"121.48496","lat":"31.20279","category":"68","category_name":"快餐厅","address":"卢湾区制造局路592号(近第九人民医院)"},{"poiid":"B2094654DA68A7F94699","title":"黄金岛大酒店","lon":"121.48628","lat":"31.19932","category":"250","category_name":"公园户外","address":"卢湾区制造局路833弄口(近市第九人民医院)"},{"poiid":"B2094753D165A3FE4298","title":"上海儿童艺术剧场","lon":"121.490011","lat":"31.198779","category":"500","category_name":"未知分类","address":"上海市 上海市黄浦区苗江路"},{"poiid":"B2094654DA68A7FA419E","title":"望江苑(南门)","lon":"121.48947","lat":"31.1987","category":"47","category_name":"住宅区","address":""},{"poiid":"B2094753D36EA4F44699","title":"上汽荣威儿童艺术中心","lon":"121.489086","lat":"31.199906","category":"500","category_name":"未知分类","address":"上海市 上海市苗江路800号"},{"poiid":"B2094654DA68A0FC479B","title":"金中苑商务楼","lon":"121.49163","lat":"31.20221","category":"46","category_name":"楼宇","address":"黄浦区南京东路311号"},{"poiid":"B2094654DA68A0FC489B","title":"白玉兰家园","lon":"121.49213","lat":"31.200241","category":"47","category_name":"住宅区","address":"白玉兰家园位于黄浦西藏南路1717号(近高雄路口)"},{"poiid":"B2094654DA68A7FE459B","title":"瞿四小区(瞿溪路)","lon":"121.48677","lat":"31.20107","category":"47","category_name":"住宅区","address":"中山南一路247弄1-24号"},{"poiid":"B2094655D268A4F84098","title":"上海交通大学口腔医学院九院临床医学院(南门)","lon":"121.48694","lat":"31.19947","category":"52","category_name":"高等院校","address":""},{"poiid":"B2094655D268A4F8409C","title":"惠祥公寓","lon":"121.48793","lat":"31.199553","category":"47","category_name":"住宅区","address":"制造局路833弄19号"},{"poiid":"B2094757D16CA0F5439A","title":"香港新世界花园一期","lon":"121.48666023","lat":"31.197706047","category":"47","category_name":"住宅区","address":"上海市卢湾区中山南一路500弄"},{"poiid":"B2094654DB6BABF84399","title":"千岛湖鱼味馆(西藏南路)","lon":"121.49118","lat":"31.19951","category":"260","category_name":"其他","address":"黄浦区西藏南路1735号千岛湖酒店副楼2楼(近高雄路)"},{"poiid":"B2094753D164A4F5479A","title":"上海儿童艺术剧场","lon":"121.488466","lat":"31.199832","category":"500","category_name":"未知分类","address":"上海市 苗江路800号"},{"poiid":"B2094752D565ABFB429C","title":"IKEA宜家","lon":"121.490448","lat":"31.199768","category":"249","category_name":"购物服务","address":"徐家匯"},{"poiid":"B2094654DB64ABF8479A","title":"中国船舶工业集团公司第七〇八研究所","lon":"121.49001","lat":"31.20003","category":"191","category_name":"科研机构","address":"西藏南路1688"},{"poiid":"B2094654DB6BABF84398","title":"上海千岛湖酒店(黄浦店)","lon":"121.49118","lat":"31.19951","category":"215","category_name":"三星级宾馆","address":"黄浦区西藏南路1735号(清流北街西藏南路)"},{"poiid":"B2094757D66CA6FA4692","title":"西藏南路隧道北入口","lon":"121.489557138","lat":"31.2012451826","category":"500","category_name":"未知分类","address":"上海西藏南路中山南路"},{"poiid":"B2094757D569A3FA4799","title":"耀江花园一期","lon":"121.4918669","lat":"31.19915306","category":"47","category_name":"住宅区","address":"上海市黄浦区西藏南路1739号"},{"poiid":"B2094654DA68A7F9469E","title":"黄金岛食府","lon":"121.4861","lat":"31.19926","category":"76","category_name":"上海菜","address":"黄浦区制造局路789号(近中山南一路口)"},{"poiid":"B2094757D069ABFB409F","title":"吴越人家面馆(制造局路店)","lon":"121.4855","lat":"31.20157","category":"68","category_name":"快餐厅","address":"卢湾区制造局路640号(近中山南一路)"},{"poiid":"B2094655D26BA6FB4192","title":"上海交通大学口腔医学院(西门)","lon":"121.48699","lat":"31.1995","category":"52","category_name":"高等院校","address":"制造局路833弄12"},{"poiid":"B2094757D069ABF5489C","title":"上海市荷花池幼儿园","lon":"121.488098145","lat":"31.2027244568","category":"500","category_name":"未知分类","address":"黄浦区瞿溪路468号(瞿溪路西藏南路)"},{"poiid":"B2094757D06BA3F4449B","title":"上海市第九人民医院临床医学院宿舍楼","lon":"121.486989","lat":"31.199509","category":"253","category_name":"校园生活","address":"上海制造局路833弄12号"},{"poiid":"B2094757D168A0F84498","title":"上海永利工业制带有限公司","lon":"121.488741738","lat":"31.1983056201","category":"263","category_name":"公司","address":"上海制造局路861号"},{"poiid":"B2094654DA68A7FA409E","title":"晟光商务","lon":"121.48671","lat":"31.19829","category":"46","category_name":"楼宇","address":"制造局路893"},{"poiid":"B2094655D268A5FB489D","title":"嘉登公寓","lon":"121.48667","lat":"31.19915","category":"47","category_name":"住宅区","address":"制造局路833弄8号-11号"},{"poiid":"B2094655D268A4FB409F","title":"惠祥公寓(西门)","lon":"121.48741","lat":"31.19955","category":"47","category_name":"住宅区","address":"制造局路833弄19号"},{"poiid":"B2094654DB64AAF54999","title":"上海市黄浦区科技工业大楼","lon":"121.48626","lat":"31.19946","category":"46","category_name":"楼宇","address":"制造局路787号"},{"poiid":"B2094750DA6BA1F44899","title":"9号线陆家浜路","lon":"121.492103","lat":"31.198028","category":"627","category_name":"一般地点标志","address":null},{"poiid":"B2094654DA68A7F9419F","title":"黄浦科技孵化大楼","lon":"121.48626","lat":"31.19945","category":"46","category_name":"楼宇","address":"制造局路787号"},{"poiid":"B209475DD76FA4FC4299","title":"上海外滩","lon":"121.489639","lat":"31.200765","category":"627","category_name":"一般地点标志","address":"上海市 外滩"},{"poiid":"B2094757D06EAAFB489A","title":"西藏南路地铁站","lon":"121.48955049","lat":"31.201815904","category":"36","category_name":"地铁站","address":"黄浦区西藏南路"},{"poiid":"B2094757D068A3FF4999","title":"上海第九人民医院一号楼(牙科)","lon":"121.4861226","lat":"31.201654541","category":"162","category_name":"医院","address":"上海市黄浦区制造局路639号"},{"poiid":"B2094655D36DA1FB4193","title":"西藏南路","lon":"121.48925","lat":"31.20238","category":"38","category_name":"公交车站","address":"上海八号线西藏南路站"},{"poiid":"B2094753D76FAAFA449C","title":"上海滩国泰旗舰店","lon":"121.466011","lat":"31.216125","category":"249","category_name":"购物服务","address":"淮海中路868号"},{"poiid":"B209475CD564A7F84292","title":"上海滩新天地店","lon":"121.47463","lat":"31.22164","category":"119","category_name":"商场","address":"\"太仓路181弄新天地北里15号\r\n\""},{"poiid":"B2094654DA68A0FC489F","title":"耀江花园","lon":"121.49187","lat":"31.199152","category":"47","category_name":"住宅区","address":"上海西藏南路1739弄"},{"poiid":"B2094757D06FA4FB409F","title":"世博园二号门","lon":"121.49101012","lat":"31.200848717","category":"260","category_name":"其他","address":"上海世博园二号门西藏南路出入口"},{"poiid":"B2094655D268A5FB499B","title":"上海交通大学口腔医学院九院临床医学院","lon":"121.4868","lat":"31.1995","category":"52","category_name":"高等院校","address":""},{"poiid":"B2094757D569A3FF459F","title":"天水雅居(瞿溪店)","lon":"121.48796","lat":"31.20321611","category":"74","category_name":"江苏菜","address":"黄浦区瞿溪路479号(近西藏南路)"},{"poiid":"B2094654DA68A7F4499B","title":"卢湾都市花园","lon":"121.4851008675","lat":"31.200123503758","category":"47","category_name":"住宅区","address":"上海市卢湾区鲁班路509号"},{"poiid":"B2094757D16CABF9469B","title":"黄浦江江面","lon":"121.493064","lat":"31.197621","category":"247","category_name":"餐饮美食","address":"上海黄浦江江面"},{"poiid":"B2094750D56DA6FF439B","title":"x先生密室","lon":"121.486541","lat":"31.200435","category":"500","category_name":"未知分类","address":"卢湾区局门路550号八号桥三期1号楼"},{"poiid":"B2094655D269AAFA4892","title":"世和酒店","lon":"121.48844","lat":"31.20322","category":"247","category_name":"餐饮美食","address":"黄浦区西藏南路1528号(瞿溪路口)"},{"poiid":"B2094655D36DA7F84792","title":"中山南一路西藏南路","lon":"121.48866","lat":"31.20129","category":"38","category_name":"公交车站","address":""},{"poiid":"B2094757D06FABFD4999","title":"全家便利店(西藏南路店)","lon":"121.48975","lat":"31.20234","category":"117","category_name":"便民商店/便利店","address":"黄浦区西藏南路1521号(近中山南一路)"},{"poiid":"B2094757D06AA4F94292","title":"coffee bean","lon":"121.48605346","lat":"31.199184417","category":"65","category_name":"咖啡厅","address":"上海8号桥三期"},{"poiid":"B2094757DB6DABFA4793","title":"莫泰168（上海西藏南路店）—原千岛湖酒店","lon":"121.4901403","lat":"31.19946134","category":"215","category_name":"三星级宾馆","address":"上海市黄浦区西藏南路1735号（近中山南路路口）"},{"poiid":"B2094655D26FA5FC4799","title":"望江苑","lon":"121.4892","lat":"31.198946","category":"47","category_name":"住宅区","address":"高雄路185,189"},{"poiid":"B2094751DA6BA0FA419D","title":"世博源巴国布衣","lon":"121.486386","lat":"31.198458","category":"247","category_name":"餐饮美食","address":"世博大道1368号世博源"},{"poiid":"B2094757D068A4FE4799","title":"蔡先生苏州汤包馆(制造局路店)","lon":"121.48496","lat":"31.20279","category":"68","category_name":"快餐厅","address":"卢湾区制造局路592号(近第九人民医院)"},{"poiid":"B2094654DA68A7F94699","title":"黄金岛大酒店","lon":"121.48628","lat":"31.19932","category":"250","category_name":"公园户外","address":"卢湾区制造局路833弄口(近市第九人民医院)"},{"poiid":"B2094753D165A3FE4298","title":"上海儿童艺术剧场","lon":"121.490011","lat":"31.198779","category":"500","category_name":"未知分类","address":"上海市 上海市黄浦区苗江路"},{"poiid":"B2094654DA68A7FA419E","title":"望江苑(南门)","lon":"121.48947","lat":"31.1987","category":"47","category_name":"住宅区","address":""},{"poiid":"B2094753D36EA4F44699","title":"上汽荣威儿童艺术中心","lon":"121.489086","lat":"31.199906","category":"500","category_name":"未知分类","address":"上海市 上海市苗江路800号"},{"poiid":"B2094654DA68A0FC479B","title":"金中苑商务楼","lon":"121.49163","lat":"31.20221","category":"46","category_name":"楼宇","address":"黄浦区南京东路311号"},{"poiid":"B2094654DA68A0FC489B","title":"白玉兰家园","lon":"121.49213","lat":"31.200241","category":"47","category_name":"住宅区","address":"白玉兰家园位于黄浦西藏南路1717号(近高雄路口)"},{"poiid":"B2094654DA68A7FE459B","title":"瞿四小区(瞿溪路)","lon":"121.48677","lat":"31.20107","category":"47","category_name":"住宅区","address":"中山南一路247弄1-24号"},{"poiid":"B2094655D268A4F84098","title":"上海交通大学口腔医学院九院临床医学院(南门)","lon":"121.48694","lat":"31.19947","category":"52","category_name":"高等院校","address":""},{"poiid":"B2094655D268A4F8409C","title":"惠祥公寓","lon":"121.48793","lat":"31.199553","category":"47","category_name":"住宅区","address":"制造局路833弄19号"},{"poiid":"B2094757D16CA0F5439A","title":"香港新世界花园一期","lon":"121.48666023","lat":"31.197706047","category":"47","category_name":"住宅区","address":"上海市卢湾区中山南一路500弄"},{"poiid":"B2094654DB6BABF84399","title":"千岛湖鱼味馆(西藏南路)","lon":"121.49118","lat":"31.19951","category":"260","category_name":"其他","address":"黄浦区西藏南路1735号千岛湖酒店副楼2楼(近高雄路)"},{"poiid":"B2094753D164A4F5479A","title":"上海儿童艺术剧场","lon":"121.488466","lat":"31.199832","category":"500","category_name":"未知分类","address":"上海市 苗江路800号"},{"poiid":"B2094752D565ABFB429C","title":"IKEA宜家","lon":"121.490448","lat":"31.199768","category":"249","category_name":"购物服务","address":"徐家匯"},{"poiid":"B2094654DB64ABF8479A","title":"中国船舶工业集团公司第七〇八研究所","lon":"121.49001","lat":"31.20003","category":"191","category_name":"科研机构","address":"西藏南路1688"},{"poiid":"B2094654DB6BABF84398","title":"上海千岛湖酒店(黄浦店)","lon":"121.49118","lat":"31.19951","category":"215","category_name":"三星级宾馆","address":"黄浦区西藏南路1735号(清流北街西藏南路)"},{"poiid":"B2094757D66CA6FA4692","title":"西藏南路隧道北入口","lon":"121.489557138","lat":"31.2012451826","category":"500","category_name":"未知分类","address":"上海西藏南路中山南路"},{"poiid":"B2094757D569A3FA4799","title":"耀江花园一期","lon":"121.4918669","lat":"31.19915306","category":"47","category_name":"住宅区","address":"上海市黄浦区西藏南路1739号"},{"poiid":"B2094654DA68A7F9469E","title":"黄金岛食府","lon":"121.4861","lat":"31.19926","category":"76","category_name":"上海菜","address":"黄浦区制造局路789号(近中山南一路口)"},{"poiid":"B2094757D069ABFB409F","title":"吴越人家面馆(制造局路店)","lon":"121.4855","lat":"31.20157","category":"68","category_name":"快餐厅","address":"卢湾区制造局路640号(近中山南一路)"},{"poiid":"B2094655D26BA6FB4192","title":"上海交通大学口腔医学院(西门)","lon":"121.48699","lat":"31.1995","category":"52","category_name":"高等院校","address":"制造局路833弄12"},{"poiid":"B2094757D069ABF5489C","title":"上海市荷花池幼儿园","lon":"121.488098145","lat":"31.2027244568","category":"500","category_name":"未知分类","address":"黄浦区瞿溪路468号(瞿溪路西藏南路)"},{"poiid":"B2094757D06BA3F4449B","title":"上海市第九人民医院临床医学院宿舍楼","lon":"121.486989","lat":"31.199509","category":"253","category_name":"校园生活","address":"上海制造局路833弄12号"},{"poiid":"B2094757D168A0F84498","title":"上海永利工业制带有限公司","lon":"121.488741738","lat":"31.1983056201","category":"263","category_name":"公司","address":"上海制造局路861号"},{"poiid":"B2094654DA68A7FA409E","title":"晟光商务","lon":"121.48671","lat":"31.19829","category":"46","category_name":"楼宇","address":"制造局路893"},{"poiid":"B2094655D268A5FB489D","title":"嘉登公寓","lon":"121.48667","lat":"31.19915","category":"47","category_name":"住宅区","address":"制造局路833弄8号-11号"},{"poiid":"B2094655D268A4FB409F","title":"惠祥公寓(西门)","lon":"121.48741","lat":"31.19955","category":"47","category_name":"住宅区","address":"制造局路833弄19号"},{"poiid":"B2094654DB64AAF54999","title":"上海市黄浦区科技工业大楼","lon":"121.48626","lat":"31.19946","category":"46","category_name":"楼宇","address":"制造局路787号"},{"poiid":"B2094750DA6BA1F44899","title":"9号线陆家浜路","lon":"121.492103","lat":"31.198028","category":"627","category_name":"一般地点标志","address":null},{"poiid":"B2094654DA68A7F9419F","title":"黄浦科技孵化大楼","lon":"121.48626","lat":"31.19945","category":"46","category_name":"楼宇","address":"制造局路787号"},{"poiid":"B209475DD76FA4FC4299","title":"上海外滩","lon":"121.489639","lat":"31.200765","category":"627","category_name":"一般地点标志","address":"上海市 外滩"},{"poiid":"B2094757D06EAAFB489A","title":"西藏南路地铁站","lon":"121.48955049","lat":"31.201815904","category":"36","category_name":"地铁站","address":"黄浦区西藏南路"},{"poiid":"B2094757D068A3FF4999","title":"上海第九人民医院一号楼(牙科)","lon":"121.4861226","lat":"31.201654541","category":"162","category_name":"医院","address":"上海市黄浦区制造局路639号"},{"poiid":"B2094655D36DA1FB4193","title":"西藏南路","lon":"121.48925","lat":"31.20238","category":"38","category_name":"公交车站","address":"上海八号线西藏南路站"},{"poiid":"B2094753D76FAAFA449C","title":"上海滩国泰旗舰店","lon":"121.466011","lat":"31.216125","category":"249","category_name":"购物服务","address":"淮海中路868号"},{"poiid":"B209475CD564A7F84292","title":"上海滩新天地店","lon":"121.47463","lat":"31.22164","category":"119","category_name":"商场","address":"\"太仓路181弄新天地北里15号\r\n\""},{"poiid":"B2094654DA68A0FC489F","title":"耀江花园","lon":"121.49187","lat":"31.199152","category":"47","category_name":"住宅区","address":"上海西藏南路1739弄"},{"poiid":"B2094757D06FA4FB409F","title":"世博园二号门","lon":"121.49101012","lat":"31.200848717","category":"260","category_name":"其他","address":"上海世博园二号门西藏南路出入口"},{"poiid":"B2094655D268A5FB499B","title":"上海交通大学口腔医学院九院临床医学院","lon":"121.4868","lat":"31.1995","category":"52","category_name":"高等院校","address":""},{"poiid":"B2094757D569A3FF459F","title":"天水雅居(瞿溪店)","lon":"121.48796","lat":"31.20321611","category":"74","category_name":"江苏菜","address":"黄浦区瞿溪路479号(近西藏南路)"},{"poiid":"B2094654DA68A7F4499B","title":"卢湾都市花园","lon":"121.4851008675","lat":"31.200123503758","category":"47","category_name":"住宅区","address":"上海市卢湾区鲁班路509号"},{"poiid":"B2094757D16CABF9469B","title":"黄浦江江面","lon":"121.493064","lat":"31.197621","category":"247","category_name":"餐饮美食","address":"上海黄浦江江面"},{"poiid":"B2094750D56DA6FF439B","title":"x先生密室","lon":"121.486541","lat":"31.200435","category":"500","category_name":"未知分类","address":"卢湾区局门路550号八号桥三期1号楼"},{"poiid":"B2094655D269AAFA4892","title":"世和酒店","lon":"121.48844","lat":"31.20322","category":"247","category_name":"餐饮美食","address":"黄浦区西藏南路1528号(瞿溪路口)"},{"poiid":"B2094655D36DA7F84792","title":"中山南一路西藏南路","lon":"121.48866","lat":"31.20129","category":"38","category_name":"公交车站","address":""},{"poiid":"B2094757D06FABFD4999","title":"全家便利店(西藏南路店)","lon":"121.48975","lat":"31.20234","category":"117","category_name":"便民商店/便利店","address":"黄浦区西藏南路1521号(近中山南一路)"},{"poiid":"B2094757D06AA4F94292","title":"coffee bean","lon":"121.48605346","lat":"31.199184417","category":"65","category_name":"咖啡厅","address":"上海8号桥三期"},{"poiid":"B2094757DB6DABFA4793","title":"莫泰168（上海西藏南路店）—原千岛湖酒店","lon":"121.4901403","lat":"31.19946134","category":"215","category_name":"三星级宾馆","address":"上海市黄浦区西藏南路1735号（近中山南路路口）"},{"poiid":"B2094655D26FA5FC4799","title":"望江苑","lon":"121.4892","lat":"31.198946","category":"47","category_name":"住宅区","address":"高雄路185,189"},{"poiid":"B2094751DA6BA0FA419D","title":"世博源巴国布衣","lon":"121.486386","lat":"31.198458","category":"247","category_name":"餐饮美食","address":"世博大道1368号世博源"},{"poiid":"B2094757D068A4FE4799","title":"蔡先生苏州汤包馆(制造局路店)","lon":"121.48496","lat":"31.20279","category":"68","category_name":"快餐厅","address":"卢湾区制造局路592号(近第九人民医院)"},{"poiid":"B2094654DA68A7F94699","title":"黄金岛大酒店","lon":"121.48628","lat":"31.19932","category":"250","category_name":"公园户外","address":"卢湾区制造局路833弄口(近市第九人民医院)"},{"poiid":"B2094753D165A3FE4298","title":"上海儿童艺术剧场","lon":"121.490011","lat":"31.198779","category":"500","category_name":"未知分类","address":"上海市 上海市黄浦区苗江路"},{"poiid":"B2094654DA68A7FA419E","title":"望江苑(南门)","lon":"121.48947","lat":"31.1987","category":"47","category_name":"住宅区","address":""},{"poiid":"B2094753D36EA4F44699","title":"上汽荣威儿童艺术中心","lon":"121.489086","lat":"31.199906","category":"500","category_name":"未知分类","address":"上海市 上海市苗江路800号"},{"poiid":"B2094654DA68A0FC479B","title":"金中苑商务楼","lon":"121.49163","lat":"31.20221","category":"46","category_name":"楼宇","address":"黄浦区南京东路311号"},{"poiid":"B2094654DA68A0FC489B","title":"白玉兰家园","lon":"121.49213","lat":"31.200241","category":"47","category_name":"住宅区","address":"白玉兰家园位于黄浦西藏南路1717号(近高雄路口)"},{"poiid":"B2094654DA68A7FE459B","title":"瞿四小区(瞿溪路)","lon":"121.48677","lat":"31.20107","category":"47","category_name":"住宅区","address":"中山南一路247弄1-24号"},{"poiid":"B2094655D268A4F84098","title":"上海交通大学口腔医学院九院临床医学院(南门)","lon":"121.48694","lat":"31.19947","category":"52","category_name":"高等院校","address":""},{"poiid":"B2094655D268A4F8409C","title":"惠祥公寓","lon":"121.48793","lat":"31.199553","category":"47","category_name":"住宅区","address":"制造局路833弄19号"},{"poiid":"B2094757D16CA0F5439A","title":"香港新世界花园一期","lon":"121.48666023","lat":"31.197706047","category":"47","category_name":"住宅区","address":"上海市卢湾区中山南一路500弄"},{"poiid":"B2094654DB6BABF84399","title":"千岛湖鱼味馆(西藏南路)","lon":"121.49118","lat":"31.19951","category":"260","category_name":"其他","address":"黄浦区西藏南路1735号千岛湖酒店副楼2楼(近高雄路)"},{"poiid":"B2094753D164A4F5479A","title":"上海儿童艺术剧场","lon":"121.488466","lat":"31.199832","category":"500","category_name":"未知分类","address":"上海市 苗江路800号"},{"poiid":"B2094752D565ABFB429C","title":"IKEA宜家","lon":"121.490448","lat":"31.199768","category":"249","category_name":"购物服务","address":"徐家匯"},{"poiid":"B2094654DB64ABF8479A","title":"中国船舶工业集团公司第七〇八研究所","lon":"121.49001","lat":"31.20003","category":"191","category_name":"科研机构","address":"西藏南路1688"},{"poiid":"B2094654DB6BABF84398","title":"上海千岛湖酒店(黄浦店)","lon":"121.49118","lat":"31.19951","category":"215","category_name":"三星级宾馆","address":"黄浦区西藏南路1735号(清流北街西藏南路)"},{"poiid":"B2094757D66CA6FA4692","title":"西藏南路隧道北入口","lon":"121.489557138","lat":"31.2012451826","category":"500","category_name":"未知分类","address":"上海西藏南路中山南路"},{"poiid":"B2094757D569A3FA4799","title":"耀江花园一期","lon":"121.4918669","lat":"31.19915306","category":"47","category_name":"住宅区","address":"上海市黄浦区西藏南路1739号"},{"poiid":"B2094654DA68A7F9469E","title":"黄金岛食府","lon":"121.4861","lat":"31.19926","category":"76","category_name":"上海菜","address":"黄浦区制造局路789号(近中山南一路口)"},{"poiid":"B2094757D069ABFB409F","title":"吴越人家面馆(制造局路店)","lon":"121.4855","lat":"31.20157","category":"68","category_name":"快餐厅","address":"卢湾区制造局路640号(近中山南一路)"},{"poiid":"B2094655D26BA6FB4192","title":"上海交通大学口腔医学院(西门)","lon":"121.48699","lat":"31.1995","category":"52","category_name":"高等院校","address":"制造局路833弄12"},{"poiid":"B2094757D069ABF5489C","title":"上海市荷花池幼儿园","lon":"121.488098145","lat":"31.2027244568","category":"500","category_name":"未知分类","address":"黄浦区瞿溪路468号(瞿溪路西藏南路)"},{"poiid":"B2094757D06BA3F4449B","title":"上海市第九人民医院临床医学院宿舍楼","lon":"121.486989","lat":"31.199509","category":"253","category_name":"校园生活","address":"上海制造局路833弄12号"},{"poiid":"B2094757D168A0F84498","title":"上海永利工业制带有限公司","lon":"121.488741738","lat":"31.1983056201","category":"263","category_name":"公司","address":"上海制造局路861号"},{"poiid":"B2094654DA68A7FA409E","title":"晟光商务","lon":"121.48671","lat":"31.19829","category":"46","category_name":"楼宇","address":"制造局路893"},{"poiid":"B2094655D268A5FB489D","title":"嘉登公寓","lon":"121.48667","lat":"31.19915","category":"47","category_name":"住宅区","address":"制造局路833弄8号-11号"},{"poiid":"B2094655D268A4FB409F","title":"惠祥公寓(西门)","lon":"121.48741","lat":"31.19955","category":"47","category_name":"住宅区","address":"制造局路833弄19号"},{"poiid":"B2094654DB64AAF54999","title":"上海市黄浦区科技工业大楼","lon":"121.48626","lat":"31.19946","category":"46","category_name":"楼宇","address":"制造局路787号"},{"poiid":"B2094750DA6BA1F44899","title":"9号线陆家浜路","lon":"121.492103","lat":"31.198028","category":"627","category_name":"一般地点标志","address":null},{"poiid":"B2094654DA68A7F9419F","title":"黄浦科技孵化大楼","lon":"121.48626","lat":"31.19945","category":"46","category_name":"楼宇","address":"制造局路787号"},{"poiid":"B209475DD76FA4FC4299","title":"上海外滩","lon":"121.489639","lat":"31.200765","category":"627","category_name":"一般地点标志","address":"上海市 外滩"}]