[{"poiid":"B2094654DB6BABF94393","title":"大眼面馆(鲁班路)","lon":"121.47441","lat":"31.20645","category":"68","category_name":"快餐厅","address":"卢湾区鲁班路105号(近丽园路)"},{"poiid":"B2094757D06FA0F44898","title":"英国签证申请中心","lon":"121.47317","lat":"31.2076","category":"500","category_name":"未知分类","address":"卢湾区徐家汇路555弄广东发展银行大厦1楼(重庆南路口)"},{"poiid":"B2094753D76FAAFA449C","title":"上海滩国泰旗舰店","lon":"121.466011","lat":"31.216125","category":"249","category_name":"购物服务","address":"淮海中路868号"},{"poiid":"B209475CD564A7F84292","title":"上海滩新天地店","lon":"121.47463","lat":"31.22164","category":"119","category_name":"商场","address":"\"太仓路181弄新天地北里15号\r\n\""},{"poiid":"B2094757D06FA1F94298","title":"ME &amp; JOE","lon":"121.473350467","lat":"31.20664897","category":"94","category_name":"西餐厅","address":"上海卢湾区鲁班路100号大同花园170室(近丽园路)"},{"poiid":"B2094654DB64A6FF429F","title":"星巴克(大同店)","lon":"121.472754","lat":"31.206316","category":"260","category_name":"其他","address":"卢湾区斜徐路593号(近鲁班路)"},{"poiid":"B2094757D169A1FA4399","title":"徐家汇路","lon":"121.47504773","lat":"31.2067918","category":"500","category_name":"未知分类","address":"上海市卢湾区"},{"poiid":"B2094757D06FA7F94299","title":"翠丽汤馆","lon":"121.46813","lat":"31.20648","category":"72","category_name":"广东菜","address":"卢湾区徐家汇路618号日月光中心广场4楼F09号商铺(近瑞金二路)"},{"poiid":"B2094757D06FA6F44398","title":"大班休闲SPA(斜徐路店)","lon":"121.47339","lat":"31.20613","category":"149","category_name":"洗浴推拿场所","address":"上海卢湾区斜徐路595号(近丽园路)"},{"poiid":"B2094757D06FA3F5469F","title":"威尔士健身会所(鲁班路店)","lon":"121.47405","lat":"31.20535","category":"221","category_name":"健身中心","address":"卢湾区鲁班路166号4楼(近南溏浜路)"},{"poiid":"B2094757D06FA2FC4699","title":"大同花园","lon":"121.47351521","lat":"31.204857882","category":"47","category_name":"住宅区","address":"上海卢湾区鲁班路88弄(近丽园路)"},{"poiid":"B209475CD46CA3FD489A","title":"年代秀飯堂(日月光店)","lon":"121.472831","lat":"31.205135","category":"247","category_name":"餐饮美食","address":"上海市 徐家汇路618号日月光中心广场5F-TK02-03号铺(近泰康路)"},{"poiid":"B2094757D068A2FB4492","title":"潮泰清迈泰国餐厅","lon":"121.4729","lat":"31.20606","category":"99","category_name":"泰国／越南菜品餐厅","address":"卢湾区斜徐路591号(近丽园路)"},{"poiid":"B2094757D068A2F4499E","title":"艺林盲人按摩院(卢湾店)","lon":"121.47425","lat":"31.2081","category":"149","category_name":"洗浴推拿场所","address":"卢湾区徐家汇路521号(近鲁班路)"},{"poiid":"B209475DD268A6F54299","title":"南小馆（日月光店）","lon":"121.473121","lat":"31.205419","category":"247","category_name":"餐饮美食","address":"卢湾区徐家汇路618号日月光中心广场1楼TK-03号商铺"},{"poiid":"B2094757D069A0FE4992","title":"印度签证申请中心","lon":"121.47296","lat":"31.20742","category":"500","category_name":"未知分类","address":"卢湾区徐家汇路555号广东发展银行大厦1楼(近鲁班路)"},{"poiid":"B2094655D26EA6F5449E","title":"锦江大厨(卢湾店)","lon":"121.47694","lat":"31.2071","category":"76","category_name":"上海菜","address":"卢湾区蒙自路118号(近丽园路)"},{"poiid":"B2094757D16AA2F5479B","title":"翔鹰龙虾","lon":"121.47532573","lat":"31.206978804","category":"68","category_name":"快餐厅","address":"黄浦区大兴街3号(近黄家厥路)"},{"poiid":"B2094757D66DA5FE409B","title":"一哥火锅","lon":"121.472383738","lat":"31.2058777813","category":"247","category_name":"餐饮美食","address":"上海市卢湾区打浦路"},{"poiid":"B2094654DA6EA3F5409B","title":"行运港式茶餐厅 斜徐路店","lon":"121.47282235576","lat":"31.205848725097","category":"72","category_name":"广东菜","address":"卢湾区斜徐路583号(近丽园路)"},{"poiid":"B2094757D66DA3FB479D","title":"拜尔齿科(新天地旗舰门诊部)","lon":"121.474041838","lat":"31.2073237121","category":"162","category_name":"医院","address":"卢湾区徐家汇路338号4楼(近蒙自路)"},{"poiid":"B2094655D26AA3FF409C","title":"弘兴面馆","lon":"121.47484","lat":"31.20528","category":"68","category_name":"快餐厅","address":"卢湾区鲁班路193号丙(近丽园路)"},{"poiid":"B2094757D064ABFB4299","title":"鲁班路","lon":"121.47529273","lat":"31.204056742","category":"500","category_name":"未知分类","address":"上海上班路上，心情很不错"},{"poiid":"B2094752DA69A1F44098","title":"香港龙凤楼","lon":"121.476228","lat":"31.207401","category":"247","category_name":"餐饮美食","address":"上海市 蒙自东路"},{"poiid":"B2094751D26CA2FC409D","title":"台北纯K（日月光店¥","lon":"121.473396","lat":"31.205162","category":"500","category_name":"未知分类","address":"日月光"},{"poiid":"B2094757D068A5FD4792","title":"卢湾房地产交易中心","lon":"121.473618","lat":"31.205945","category":"500","category_name":"未知分类","address":"上海鲁班路158号"},{"poiid":"B2094757D16DA7FF419F","title":"Mr Bean","lon":"121.473925138","lat":"31.2072941115","category":"67","category_name":"甜品店","address":"上海卢湾区瑞金二路450号日月光广场B2 F-10"},{"poiid":"B2094757D06AAAFC499C","title":"棒约翰比萨(大同店)","lon":"121.47373","lat":"31.20654","category":"94","category_name":"西餐厅","address":"卢湾区鲁班路100号大同花园(近丽园路)"},{"poiid":"B2094753D76BA0F54698","title":"燕庭下午茶","lon":"121.472953","lat":"31.204437","category":"247","category_name":"餐饮美食","address":"上海市 日月光广场（徐家汇路618号）"},{"poiid":"B2094757D06BA6FF489D","title":"叶的Diy烘焙小屋","lon":"121.473167593","lat":"31.2052290275","category":"500","category_name":"未知分类","address":"上海鲁班路168弄大同花园3号103室"},{"poiid":"B2094654DB69A4F5439A","title":"可颂坊 蒙自店 Croissants de France","lon":"121.476530054","lat":"31.207481793","category":"112","category_name":"糕饼店","address":"卢湾区蒙自路116号(近丽园路)"},{"poiid":"B2094757D06AA4FA4999","title":"北蒙三小区","lon":"121.47663","lat":"31.205873","category":"47","category_name":"住宅区","address":"丽园路482弄20-51号"},{"poiid":"B2094751D26DAAF94598","title":"卢浦大桥","lon":"121.474182","lat":"31.204605","category":"500","category_name":"未知分类","address":null},{"poiid":"B2094655D26AA0FF4499","title":"依达台球俱乐部","lon":"121.47611","lat":"31.20644","category":"247","category_name":"餐饮美食","address":"卢湾区丽园路826号(近蒙自路)"},{"poiid":"B2094757D069A6F8499C","title":"开城新苑","lon":"121.47711","lat":"31.206291","category":"47","category_name":"住宅区","address":"上海卢湾区丽园路818弄(近蒙自路)"},{"poiid":"B2094654DB6BABF9469F","title":"大眼包子 鲁班路店","lon":"121.47628","lat":"31.19896","category":"68","category_name":"快餐厅","address":"卢湾区鲁班路103号(近丽园路)"},{"poiid":"B2094654DA68A6FC4099","title":"老狼烧烤No.11","lon":"121.47476","lat":"31.2053","category":"68","category_name":"快餐厅","address":"卢湾区鲁班路193号(近丽园路)"},{"poiid":"B2094753D76CA4FA4499","title":"上海斯格威铂尔曼大酒店","lon":"121.47319","lat":"31.207389","category":"500","category_name":"未知分类","address":"上海市 上海市卢湾区打浦路15号"},{"poiid":"B2094757D06FABF44599","title":"申荣华 香港茶餐厅","lon":"121.474147","lat":"31.204817","category":"72","category_name":"广东菜","address":"上海卢湾区斜徐路589号(近丽园路)"},{"poiid":"B2094751D564A3FB449B","title":"上海加拿大签证申请中心","lon":"121.474408","lat":"31.207479","category":"500","category_name":"未知分类","address":"上海市徐家汇路555号"},{"poiid":"B209475DD46AA5FD469C","title":"辣尚瘾","lon":"121.473609","lat":"31.204452","category":"247","category_name":"餐饮美食","address":"上海市 卢湾区徐家汇路550号宝鼎大厦2楼"},{"poiid":"B2094654DB6AA3F4429B","title":"东北四季饺子王 鲁班路店","lon":"121.47366921841","lat":"31.207223232226","category":"247","category_name":"餐饮美食","address":"卢湾区鲁班路69号(近蒙自西路)"},{"poiid":"B2094757D06AA3F8469E","title":"鲁班游泳馆","lon":"121.47517","lat":"31.20495","category":"220","category_name":"运动场所","address":"卢湾区鲁班路183弄7号(近丽园路)"},{"poiid":"B2094753D765A3FC479E","title":"香港龍鳳樓","lon":"121.474227","lat":"31.207828","category":"247","category_name":"餐饮美食","address":"上海市 蒙自东路75号"},{"poiid":"B209475DD369A0FE489C","title":"宋记香辣蟹","lon":"121.473175","lat":"31.205047","category":"247","category_name":"餐饮美食","address":"上海市 上海市卢湾区徐家汇路618号日月光广场4楼"},{"poiid":"B2094654DB64A6FD4292","title":"上海新锦江假日酒店","lon":"121.47693","lat":"31.2071","category":"250","category_name":"公园户外","address":"蒙自路118号"},{"poiid":"B2094757D164ABF94898","title":"SUBWAY赛百味永业店","lon":"121.47663","lat":"31.20912","category":"94","category_name":"西餐厅","address":"卢湾区徐家汇路201号(蒙自路口)"},{"poiid":"B2094751D26BA3FB429B","title":"上海MAO LIVE house","lon":"121.47464","lat":"31.207382","category":"500","category_name":"未知分类","address":null},{"poiid":"B2094750D26BAAFD459D","title":"上海老相机制造博物馆","lon":"121.474777","lat":"31.207374","category":"627","category_name":"一般地点标志","address":null},{"poiid":"B2094654DB6BABF94393","title":"大眼面馆(鲁班路)","lon":"121.47441","lat":"31.20645","category":"68","category_name":"快餐厅","address":"卢湾区鲁班路105号(近丽园路)"},{"poiid":"B2094757D06FA0F44898","title":"英国签证申请中心","lon":"121.47317","lat":"31.2076","category":"500","category_name":"未知分类","address":"卢湾区徐家汇路555弄广东发展银行大厦1楼(重庆南路口)"},{"poiid":"B2094753D76FAAFA449C","title":"上海滩国泰旗舰店","lon":"121.466011","lat":"31.216125","category":"249","category_name":"购物服务","address":"淮海中路868号"},{"poiid":"B209475CD564A7F84292","title":"上海滩新天地店","lon":"121.47463","lat":"31.22164","category":"119","category_name":"商场","address":"\"太仓路181弄新天地北里15号\r\n\""},{"poiid":"B2094757D06FA1F94298","title":"ME &amp; JOE","lon":"121.473350467","lat":"31.20664897","category":"94","category_name":"西餐厅","address":"上海卢湾区鲁班路100号大同花园170室(近丽园路)"},{"poiid":"B2094654DB64A6FF429F","title":"星巴克(大同店)","lon":"121.472754","lat":"31.206316","category":"260","category_name":"其他","address":"卢湾区斜徐路593号(近鲁班路)"},{"poiid":"B2094757D169A1FA4399","title":"徐家汇路","lon":"121.47504773","lat":"31.2067918","category":"500","category_name":"未知分类","address":"上海市卢湾区"},{"poiid":"B2094757D06FA7F94299","title":"翠丽汤馆","lon":"121.46813","lat":"31.20648","category":"72","category_name":"广东菜","address":"卢湾区徐家汇路618号日月光中心广场4楼F09号商铺(近瑞金二路)"},{"poiid":"B2094757D06FA6F44398","title":"大班休闲SPA(斜徐路店)","lon":"121.47339","lat":"31.20613","category":"149","category_name":"洗浴推拿场所","address":"上海卢湾区斜徐路595号(近丽园路)"},{"poiid":"B2094757D06FA3F5469F","title":"威尔士健身会所(鲁班路店)","lon":"121.47405","lat":"31.20535","category":"221","category_name":"健身中心","address":"卢湾区鲁班路166号4楼(近南溏浜路)"},{"poiid":"B2094757D06FA2FC4699","title":"大同花园","lon":"121.47351521","lat":"31.204857882","category":"47","category_name":"住宅区","address":"上海卢湾区鲁班路88弄(近丽园路)"},{"poiid":"B209475CD46CA3FD489A","title":"年代秀飯堂(日月光店)","lon":"121.472831","lat":"31.205135","category":"247","category_name":"餐饮美食","address":"上海市 徐家汇路618号日月光中心广场5F-TK02-03号铺(近泰康路)"},{"poiid":"B2094757D068A2FB4492","title":"潮泰清迈泰国餐厅","lon":"121.4729","lat":"31.20606","category":"99","category_name":"泰国／越南菜品餐厅","address":"卢湾区斜徐路591号(近丽园路)"},{"poiid":"B2094757D068A2F4499E","title":"艺林盲人按摩院(卢湾店)","lon":"121.47425","lat":"31.2081","category":"149","category_name":"洗浴推拿场所","address":"卢湾区徐家汇路521号(近鲁班路)"},{"poiid":"B209475DD268A6F54299","title":"南小馆（日月光店）","lon":"121.473121","lat":"31.205419","category":"247","category_name":"餐饮美食","address":"卢湾区徐家汇路618号日月光中心广场1楼TK-03号商铺"},{"poiid":"B2094757D069A0FE4992","title":"印度签证申请中心","lon":"121.47296","lat":"31.20742","category":"500","category_name":"未知分类","address":"卢湾区徐家汇路555号广东发展银行大厦1楼(近鲁班路)"},{"poiid":"B2094655D26EA6F5449E","title":"锦江大厨(卢湾店)","lon":"121.47694","lat":"31.2071","category":"76","category_name":"上海菜","address":"卢湾区蒙自路118号(近丽园路)"},{"poiid":"B2094757D16AA2F5479B","title":"翔鹰龙虾","lon":"121.47532573","lat":"31.206978804","category":"68","category_name":"快餐厅","address":"黄浦区大兴街3号(近黄家厥路)"},{"poiid":"B2094757D66DA5FE409B","title":"一哥火锅","lon":"121.472383738","lat":"31.2058777813","category":"247","category_name":"餐饮美食","address":"上海市卢湾区打浦路"},{"poiid":"B2094654DA6EA3F5409B","title":"行运港式茶餐厅 斜徐路店","lon":"121.47282235576","lat":"31.205848725097","category":"72","category_name":"广东菜","address":"卢湾区斜徐路583号(近丽园路)"},{"poiid":"B2094757D66DA3FB479D","title":"拜尔齿科(新天地旗舰门诊部)","lon":"121.474041838","lat":"31.2073237121","category":"162","category_name":"医院","address":"卢湾区徐家汇路338号4楼(近蒙自路)"},{"poiid":"B2094655D26AA3FF409C","title":"弘兴面馆","lon":"121.47484","lat":"31.20528","category":"68","category_name":"快餐厅","address":"卢湾区鲁班路193号丙(近丽园路)"},{"poiid":"B2094757D064ABFB4299","title":"鲁班路","lon":"121.47529273","lat":"31.204056742","category":"500","category_name":"未知分类","address":"上海上班路上，心情很不错"},{"poiid":"B2094752DA69A1F44098","title":"香港龙凤楼","lon":"121.476228","lat":"31.207401","category":"247","category_name":"餐饮美食","address":"上海市 蒙自东路"},{"poiid":"B2094751D26CA2FC409D","title":"台北纯K（日月光店¥","lon":"121.473396","lat":"31.205162","category":"500","category_name":"未知分类","address":"日月光"},{"poiid":"B2094757D068A5FD4792","title":"卢湾房地产交易中心","lon":"121.473618","lat":"31.205945","category":"500","category_name":"未知分类","address":"上海鲁班路158号"},{"poiid":"B2094757D16DA7FF419F","title":"Mr Bean","lon":"121.473925138","lat":"31.2072941115","category":"67","category_name":"甜品店","address":"上海卢湾区瑞金二路450号日月光广场B2 F-10"},{"poiid":"B2094757D06AAAFC499C","title":"棒约翰比萨(大同店)","lon":"121.47373","lat":"31.20654","category":"94","category_name":"西餐厅","address":"卢湾区鲁班路100号大同花园(近丽园路)"},{"poiid":"B2094753D76BA0F54698","title":"燕庭下午茶","lon":"121.472953","lat":"31.204437","category":"247","category_name":"餐饮美食","address":"上海市 日月光广场（徐家汇路618号）"},{"poiid":"B2094757D06BA6FF489D","title":"叶的Diy烘焙小屋","lon":"121.473167593","lat":"31.2052290275","category":"500","category_name":"未知分类","address":"上海鲁班路168弄大同花园3号103室"},{"poiid":"B2094654DB69A4F5439A","title":"可颂坊 蒙自店 Croissants de France","lon":"121.476530054","lat":"31.207481793","category":"112","category_name":"糕饼店","address":"卢湾区蒙自路116号(近丽园路)"},{"poiid":"B2094757D06AA4FA4999","title":"北蒙三小区","lon":"121.47663","lat":"31.205873","category":"47","category_name":"住宅区","address":"丽园路482弄20-51号"},{"poiid":"B2094751D26DAAF94598","title":"卢浦大桥","lon":"121.474182","lat":"31.204605","category":"500","category_name":"未知分类","address":null},{"poiid":"B2094655D26AA0FF4499","title":"依达台球俱乐部","lon":"121.47611","lat":"31.20644","category":"247","category_name":"餐饮美食","address":"卢湾区丽园路826号(近蒙自路)"},{"poiid":"B2094757D069A6F8499C","title":"开城新苑","lon":"121.47711","lat":"31.206291","category":"47","category_name":"住宅区","address":"上海卢湾区丽园路818弄(近蒙自路)"},{"poiid":"B2094654DB6BABF9469F","title":"大眼包子 鲁班路店","lon":"121.47628","lat":"31.19896","category":"68","category_name":"快餐厅","address":"卢湾区鲁班路103号(近丽园路)"},{"poiid":"B2094654DA68A6FC4099","title":"老狼烧烤No.11","lon":"121.47476","lat":"31.2053","category":"68","category_name":"快餐厅","address":"卢湾区鲁班路193号(近丽园路)"},{"poiid":"B2094753D76CA4FA4499","title":"上海斯格威铂尔曼大酒店","lon":"121.47319","lat":"31.207389","category":"500","category_name":"未知分类","address":"上海市 上海市卢湾区打浦路15号"},{"poiid":"B2094757D06FABF44599","title":"申荣华 香港茶餐厅","lon":"121.474147","lat":"31.204817","category":"72","category_name":"广东菜","address":"上海卢湾区斜徐路589号(近丽园路)"},{"poiid":"B2094751D564A3FB449B","title":"上海加拿大签证申请中心","lon":"121.474408","lat":"31.207479","category":"500","category_name":"未知分类","address":"上海市徐家汇路555号"},{"poiid":"B209475DD46AA5FD469C","title":"辣尚瘾","lon":"121.473609","lat":"31.204452","category":"247","category_name":"餐饮美食","address":"上海市 卢湾区徐家汇路550号宝鼎大厦2楼"},{"poiid":"B2094654DB6AA3F4429B","title":"东北四季饺子王 鲁班路店","lon":"121.47366921841","lat":"31.207223232226","category":"247","category_name":"餐饮美食","address":"卢湾区鲁班路69号(近蒙自西路)"},{"poiid":"B2094757D06AA3F8469E","title":"鲁班游泳馆","lon":"121.47517","lat":"31.20495","category":"220","category_name":"运动场所","address":"卢湾区鲁班路183弄7号(近丽园路)"},{"poiid":"B2094753D765A3FC479E","title":"香港龍鳳樓","lon":"121.474227","lat":"31.207828","category":"247","category_name":"餐饮美食","address":"上海市 蒙自东路75号"},{"poiid":"B209475DD369A0FE489C","title":"宋记香辣蟹","lon":"121.473175","lat":"31.205047","category":"247","category_name":"餐饮美食","address":"上海市 上海市卢湾区徐家汇路618号日月光广场4楼"},{"poiid":"B2094654DB64A6FD4292","title":"上海新锦江假日酒店","lon":"121.47693","lat":"31.2071","category":"250","category_name":"公园户外","address":"蒙自路118号"},{"poiid":"B2094757D164ABF94898","title":"SUBWAY赛百味永业店","lon":"121.47663","lat":"31.20912","category":"94","category_name":"西餐厅","address":"卢湾区徐家汇路201号(蒙自路口)"},{"poiid":"B2094751D26BA3FB429B","title":"上海MAO LIVE house","lon":"121.47464","lat":"31.207382","category":"500","category_name":"未知分类","address":null},{"poiid":"B2094750D26BAAFD459D","title":"上海老相机制造博物馆","lon":"121.474777","lat":"31.207374","category":"627","category_name":"一般地点标志","address":null},{"poiid":"B2094654DB6BABF94393","title":"大眼面馆(鲁班路)","lon":"121.47441","lat":"31.20645","category":"68","category_name":"快餐厅","address":"卢湾区鲁班路105号(近丽园路)"},{"poiid":"B2094757D06FA0F44898","title":"英国签证申请中心","lon":"121.47317","lat":"31.2076","category":"500","category_name":"未知分类","address":"卢湾区徐家汇路555弄广东发展银行大厦1楼(重庆南路口)"},{"poiid":"B2094753D76FAAFA449C","title":"上海滩国泰旗舰店","lon":"121.466011","lat":"31.216125","category":"249","category_name":"购物服务","address":"淮海中路868号"},{"poiid":"B209475CD564A7F84292","title":"上海滩新天地店","lon":"121.47463","lat":"31.22164","category":"119","category_name":"商场","address":"\"太仓路181弄新天地北里15号\r\n\""},{"poiid":"B2094757D06FA1F94298","title":"ME &amp; JOE","lon":"121.473350467","lat":"31.20664897","category":"94","category_name":"西餐厅","address":"上海卢湾区鲁班路100号大同花园170室(近丽园路)"},{"poiid":"B2094654DB64A6FF429F","title":"星巴克(大同店)","lon":"121.472754","lat":"31.206316","category":"260","category_name":"其他","address":"卢湾区斜徐路593号(近鲁班路)"},{"poiid":"B2094757D169A1FA4399","title":"徐家汇路","lon":"121.47504773","lat":"31.2067918","category":"500","category_name":"未知分类","address":"上海市卢湾区"},{"poiid":"B2094757D06FA7F94299","title":"翠丽汤馆","lon":"121.46813","lat":"31.20648","category":"72","category_name":"广东菜","address":"卢湾区徐家汇路618号日月光中心广场4楼F09号商铺(近瑞金二路)"},{"poiid":"B2094757D06FA6F44398","title":"大班休闲SPA(斜徐路店)","lon":"121.47339","lat":"31.20613","category":"149","category_name":"洗浴推拿场所","address":"上海卢湾区斜徐路595号(近丽园路)"},{"poiid":"B2094757D06FA3F5469F","title":"威尔士健身会所(鲁班路店)","lon":"121.47405","lat":"31.20535","category":"221","category_name":"健身中心","address":"卢湾区鲁班路166号4楼(近南溏浜路)"},{"poiid":"B2094757D06FA2FC4699","title":"大同花园","lon":"121.47351521","lat":"31.204857882","category":"47","category_name":"住宅区","address":"上海卢湾区鲁班路88弄(近丽园路)"},{"poiid":"B209475CD46CA3FD489A","title":"年代秀飯堂(日月光店)","lon":"121.472831","lat":"31.205135","category":"247","category_name":"餐饮美食","address":"上海市 徐家汇路618号日月光中心广场5F-TK02-03号铺(近泰康路)"},{"poiid":"B2094757D068A2FB4492","title":"潮泰清迈泰国餐厅","lon":"121.4729","lat":"31.20606","category":"99","category_name":"泰国／越南菜品餐厅","address":"卢湾区斜徐路591号(近丽园路)"},{"poiid":"B2094757D068A2F4499E","title":"艺林盲人按摩院(卢湾店)","lon":"121.47425","lat":"31.2081","category":"149","category_name":"洗浴推拿场所","address":"卢湾区徐家汇路521号(近鲁班路)"},{"poiid":"B209475DD268A6F54299","title":"南小馆（日月光店）","lon":"121.473121","lat":"31.205419","category":"247","category_name":"餐饮美食","address":"卢湾区徐家汇路618号日月光中心广场1楼TK-03号商铺"},{"poiid":"B2094757D069A0FE4992","title":"印度签证申请中心","lon":"121.47296","lat":"31.20742","category":"500","category_name":"未知分类","address":"卢湾区徐家汇路555号广东发展银行大厦1楼(近鲁班路)"},{"poiid":"B2094655D26EA6F5449E","title":"锦江大厨(卢湾店)","lon":"121.47694","lat":"31.2071","category":"76","category_name":"上海菜","address":"卢湾区蒙自路118号(近丽园路)"},{"poiid":"B2094757D16AA2F5479B","title":"翔鹰龙虾","lon":"121.47532573","lat":"31.206978804","category":"68","category_name":"快餐厅","address":"黄浦区大兴街3号(近黄家厥路)"},{"poiid":"B2094757D66DA5FE409B","title":"一哥火锅","lon":"121.472383738","lat":"31.2058777813","category":"247","category_name":"餐饮美食","address":"上海市卢湾区打浦路"},{"poiid":"B2094654DA6EA3F5409B","title":"行运港式茶餐厅 斜徐路店","lon":"121.47282235576","lat":"31.205848725097","category":"72","category_name":"广东菜","address":"卢湾区斜徐路583号(近丽园路)"},{"poiid":"B2094757D66DA3FB479D","title":"拜尔齿科(新天地旗舰门诊部)","lon":"121.474041838","lat":"31.2073237121","category":"162","category_name":"医院","address":"卢湾区徐家汇路338号4楼(近蒙自路)"},{"poiid":"B2094655D26AA3FF409C","title":"弘兴面馆","lon":"121.47484","lat":"31.20528","category":"68","category_name":"快餐厅","address":"卢湾区鲁班路193号丙(近丽园路)"},{"poiid":"B2094757D064ABFB4299","title":"鲁班路","lon":"121.47529273","lat":"31.204056742","category":"500","category_name":"未知分类","address":"上海上班路上，心情很不错"},{"poiid":"B2094752DA69A1F44098","title":"香港龙凤楼","lon":"121.476228","lat":"31.207401","category":"247","category_name":"餐饮美食","address":"上海市 蒙自东路"},{"poiid":"B2094751D26CA2FC409D","title":"台北纯K（日月光店¥","lon":"121.473396","lat":"31.205162","category":"500","category_name":"未知分类","address":"日月光"},{"poiid":"B2094757D068A5FD4792","title":"卢湾房地产交易中心","lon":"121.473618","lat":"31.205945","category":"500","category_name":"未知分类","address":"上海鲁班路158号"},{"poiid":"B2094757D16DA7FF419F","title":"Mr Bean","lon":"121.473925138","lat":"31.2072941115","category":"67","category_name":"甜品店","address":"上海卢湾区瑞金二路450号日月光广场B2 F-10"},{"poiid":"B2094757D06AAAFC499C","title":"棒约翰比萨(大同店)","lon":"121.47373","lat":"31.20654","category":"94","category_name":"西餐厅","address":"卢湾区鲁班路100号大同花园(近丽园路)"},{"poiid":"B2094753D76BA0F54698","title":"燕庭下午茶","lon":"121.472953","lat":"31.204437","category":"247","category_name":"餐饮美食","address":"上海市 日月光广场（徐家汇路618号）"},{"poiid":"B2094757D06BA6FF489D","title":"叶的Diy烘焙小屋","lon":"121.473167593","lat":"31.2052290275","category":"500","category_name":"未知分类","address":"上海鲁班路168弄大同花园3号103室"},{"poiid":"B2094654DB69A4F5439A","title":"可颂坊 蒙自店 Croissants de France","lon":"121.476530054","lat":"31.207481793","category":"112","category_name":"糕饼店","address":"卢湾区蒙自路116号(近丽园路)"},{"poiid":"B2094757D06AA4FA4999","title":"北蒙三小区","lon":"121.47663","lat":"31.205873","category":"47","category_name":"住宅区","address":"丽园路482弄20-51号"},{"poiid":"B2094751D26DAAF94598","title":"卢浦大桥","lon":"121.474182","lat":"31.204605","category":"500","category_name":"未知分类","address":null},{"poiid":"B2094655D26AA0FF4499","title":"依达台球俱乐部","lon":"121.47611","lat":"31.20644","category":"247","category_name":"餐饮美食","address":"卢湾区丽园路826号(近蒙自路)"},{"poiid":"B2094757D069A6F8499C","title":"开城新苑","lon":"121.47711","lat":"31.206291","category":"47","category_name":"住宅区","address":"上海卢湾区丽园路818弄(近蒙自路)"},{"poiid":"B2094654DB6BABF9469F","title":"大眼包子 鲁班路店","lon":"121.47628","lat":"31.19896","category":"68","category_name":"快餐厅","address":"卢湾区鲁班路103号(近丽园路)"},{"poiid":"B2094654DA68A6FC4099","title":"老狼烧烤No.11","lon":"121.47476","lat":"31.2053","category":"68","category_name":"快餐厅","address":"卢湾区鲁班路193号(近丽园路)"},{"poiid":"B2094753D76CA4FA4499","title":"上海斯格威铂尔曼大酒店","lon":"121.47319","lat":"31.207389","category":"500","category_name":"未知分类","address":"上海市 上海市卢湾区打浦路15号"},{"poiid":"B2094757D06FABF44599","title":"申荣华 香港茶餐厅","lon":"121.474147","lat":"31.204817","category":"72","category_name":"广东菜","address":"上海卢湾区斜徐路589号(近丽园路)"},{"poiid":"B2094751D564A3FB449B","title":"上海加拿大签证申请中心","lon":"121.474408","lat":"31.207479","category":"500","category_name":"未知分类","address":"上海市徐家汇路555号"},{"poiid":"B209475DD46AA5FD469C","title":"辣尚瘾","lon":"121.473609","lat":"31.204452","category":"247","category_name":"餐饮美食","address":"上海市 卢湾区徐家汇路550号宝鼎大厦2楼"},{"poiid":"B2094654DB6AA3F4429B","title":"东北四季饺子王 鲁班路店","lon":"121.47366921841","lat":"31.207223232226","category":"247","category_name":"餐饮美食","address":"卢湾区鲁班路69号(近蒙自西路)"},{"poiid":"B2094757D06AA3F8469E","title":"鲁班游泳馆","lon":"121.47517","lat":"31.20495","category":"220","category_name":"运动场所","address":"卢湾区鲁班路183弄7号(近丽园路)"},{"poiid":"B2094753D765A3FC479E","title":"香港龍鳳樓","lon":"121.474227","lat":"31.207828","category":"247","category_name":"餐饮美食","address":"上海市 蒙自东路75号"},{"poiid":"B209475DD369A0FE489C","title":"宋记香辣蟹","lon":"121.473175","lat":"31.205047","category":"247","category_name":"餐饮美食","address":"上海市 上海市卢湾区徐家汇路618号日月光广场4楼"},{"poiid":"B2094654DB64A6FD4292","title":"上海新锦江假日酒店","lon":"121.47693","lat":"31.2071","category":"250","category_name":"公园户外","address":"蒙自路118号"},{"poiid":"B2094757D164ABF94898","title":"SUBWAY赛百味永业店","lon":"121.47663","lat":"31.20912","category":"94","category_name":"西餐厅","address":"卢湾区徐家汇路201号(蒙自路口)"},{"poiid":"B2094751D26BA3FB429B","title":"上海MAO LIVE house","lon":"121.47464","lat":"31.207382","category":"500","category_name":"未知分类","address":null},{"poiid":"B2094750D26BAAFD459D","title":"上海老相机制造博物馆","lon":"121.474777","lat":"31.207374","category":"627","category_name":"一般地点标志","address":null},{"poiid":"B2094654DB6BABF94393","title":"大眼面馆(鲁班路)","lon":"121.47441","lat":"31.20645","category":"68","category_name":"快餐厅","address":"卢湾区鲁班路105号(近丽园路)"},{"poiid":"B2094757D06FA0F44898","title":"英国签证申请中心","lon":"121.47317","lat":"31.2076","category":"500","category_name":"未知分类","address":"卢湾区徐家汇路555弄广东发展银行大厦1楼(重庆南路口)"},{"poiid":"B2094753D76FAAFA449C","title":"上海滩国泰旗舰店","lon":"121.466011","lat":"31.216125","category":"249","category_name":"购物服务","address":"淮海中路868号"},{"poiid":"B209475CD564A7F84292","title":"上海滩新天地店","lon":"121.47463","lat":"31.22164","category":"119","category_name":"商场","address":"\"太仓路181弄新天地北里15号\r\n\""},{"poiid":"B2094757D06FA1F94298","title":"ME &amp; JOE","lon":"121.473350467","lat":"31.20664897","category":"94","category_name":"西餐厅","address":"上海卢湾区鲁班路100号大同花园170室(近丽园路)"},{"poiid":"B2094654DB64A6FF429F","title":"星巴克(大同店)","lon":"121.472754","lat":"31.206316","category":"260","category_name":"其他","address":"卢湾区斜徐路593号(近鲁班路)"},{"poiid":"B2094757D169A1FA4399","title":"徐家汇路","lon":"121.47504773","lat":"31.2067918","category":"500","category_name":"未知分类","address":"上海市卢湾区"},{"poiid":"B2094757D06FA7F94299","title":"翠丽汤馆","lon":"121.46813","lat":"31.20648","category":"72","category_name":"广东菜","address":"卢湾区徐家汇路618号日月光中心广场4楼F09号商铺(近瑞金二路)"},{"poiid":"B2094757D06FA6F44398","title":"大班休闲SPA(斜徐路店)","lon":"121.47339","lat":"31.20613","category":"149","category_name":"洗浴推拿场所","address":"上海卢湾区斜徐路595号(近丽园路)"},{"poiid":"B2094757D06FA3F5469F","title":"威尔士健身会所(鲁班路店)","lon":"121.47405","lat":"31.20535","category":"221","category_name":"健身中心","address":"卢湾区鲁班路166号4楼(近南溏浜路)"},{"poiid":"B2094757D06FA2FC4699","title":"大同花园","lon":"121.47351521","lat":"31.204857882","category":"47","category_name":"住宅区","address":"上海卢湾区鲁班路88弄(近丽园路)"},{"poiid":"B209475CD46CA3FD489A","title":"年代秀飯堂(日月光店)","lon":"121.472831","lat":"31.205135","category":"247","category_name":"餐饮美食","address":"上海市 徐家汇路618号日月光中心广场5F-TK02-03号铺(近泰康路)"},{"poiid":"B2094757D068A2FB4492","title":"潮泰清迈泰国餐厅","lon":"121.4729","lat":"31.20606","category":"99","category_name":"泰国／越南菜品餐厅","address":"卢湾区斜徐路591号(近丽园路)"},{"poiid":"B2094757D068A2F4499E","title":"艺林盲人按摩院(卢湾店)","lon":"121.47425","lat":"31.2081","category":"149","category_name":"洗浴推拿场所","address":"卢湾区徐家汇路521号(近鲁班路)"},{"poiid":"B209475DD268A6F54299","title":"南小馆（日月光店）","lon":"121.473121","lat":"31.205419","category":"247","category_name":"餐饮美食","address":"卢湾区徐家汇路618号日月光中心广场1楼TK-03号商铺"},{"poiid":"B2094757D069A0FE4992","title":"印度签证申请中心","lon":"121.47296","lat":"31.20742","category":"500","category_name":"未知分类","address":"卢湾区徐家汇路555号广东发展银行大厦1楼(近鲁班路)"},{"poiid":"B2094655D26EA6F5449E","title":"锦江大厨(卢湾店)","lon":"121.47694","lat":"31.2071","category":"76","category_name":"上海菜","address":"卢湾区蒙自路118号(近丽园路)"},{"poiid":"B2094757D16AA2F5479B","title":"翔鹰龙虾","lon":"121.47532573","lat":"31.206978804","category":"68","category_name":"快餐厅","address":"黄浦区大兴街3号(近黄家厥路)"},{"poiid":"B2094757D66DA5FE409B","title":"一哥火锅","lon":"121.472383738","lat":"31.2058777813","category":"247","category_name":"餐饮美食","address":"上海市卢湾区打浦路"},{"poiid":"B2094654DA6EA3F5409B","title":"行运港式茶餐厅 斜徐路店","lon":"121.47282235576","lat":"31.205848725097","category":"72","category_name":"广东菜","address":"卢湾区斜徐路583号(近丽园路)"},{"poiid":"B2094757D66DA3FB479D","title":"拜尔齿科(新天地旗舰门诊部)","lon":"121.474041838","lat":"31.2073237121","category":"162","category_name":"医院","address":"卢湾区徐家汇路338号4楼(近蒙自路)"},{"poiid":"B2094655D26AA3FF409C","title":"弘兴面馆","lon":"121.47484","lat":"31.20528","category":"68","category_name":"快餐厅","address":"卢湾区鲁班路193号丙(近丽园路)"},{"poiid":"B2094757D064ABFB4299","title":"鲁班路","lon":"121.47529273","lat":"31.204056742","category":"500","category_name":"未知分类","address":"上海上班路上，心情很不错"},{"poiid":"B2094752DA69A1F44098","title":"香港龙凤楼","lon":"121.476228","lat":"31.207401","category":"247","category_name":"餐饮美食","address":"上海市 蒙自东路"},{"poiid":"B2094751D26CA2FC409D","title":"台北纯K（日月光店¥","lon":"121.473396","lat":"31.205162","category":"500","category_name":"未知分类","address":"日月光"},{"poiid":"B2094757D068A5FD4792","title":"卢湾房地产交易中心","lon":"121.473618","lat":"31.205945","category":"500","category_name":"未知分类","address":"上海鲁班路158号"},{"poiid":"B2094757D16DA7FF419F","title":"Mr Bean","lon":"121.473925138","lat":"31.2072941115","category":"67","category_name":"甜品店","address":"上海卢湾区瑞金二路450号日月光广场B2 F-10"},{"poiid":"B2094757D06AAAFC499C","title":"棒约翰比萨(大同店)","lon":"121.47373","lat":"31.20654","category":"94","category_name":"西餐厅","address":"卢湾区鲁班路100号大同花园(近丽园路)"},{"poiid":"B2094753D76BA0F54698","title":"燕庭下午茶","lon":"121.472953","lat":"31.204437","category":"247","category_name":"餐饮美食","address":"上海市 日月光广场（徐家汇路618号）"},{"poiid":"B2094757D06BA6FF489D","title":"叶的Diy烘焙小屋","lon":"121.473167593","lat":"31.2052290275","category":"500","category_name":"未知分类","address":"上海鲁班路168弄大同花园3号103室"},{"poiid":"B2094654DB69A4F5439A","title":"可颂坊 蒙自店 Croissants de France","lon":"121.476530054","lat":"31.207481793","category":"112","category_name":"糕饼店","address":"卢湾区蒙自路116号(近丽园路)"},{"poiid":"B2094757D06AA4FA4999","title":"北蒙三小区","lon":"121.47663","lat":"31.205873","category":"47","category_name":"住宅区","address":"丽园路482弄20-51号"},{"poiid":"B2094751D26DAAF94598","title":"卢浦大桥","lon":"121.474182","lat":"31.204605","category":"500","category_name":"未知分类","address":null},{"poiid":"B2094655D26AA0FF4499","title":"依达台球俱乐部","lon":"121.47611","lat":"31.20644","category":"247","category_name":"餐饮美食","address":"卢湾区丽园路826号(近蒙自路)"},{"poiid":"B2094757D069A6F8499C","title":"开城新苑","lon":"121.47711","lat":"31.206291","category":"47","category_name":"住宅区","address":"上海卢湾区丽园路818弄(近蒙自路)"},{"poiid":"B2094654DB6BABF9469F","title":"大眼包子 鲁班路店","lon":"121.47628","lat":"31.19896","category":"68","category_name":"快餐厅","address":"卢湾区鲁班路103号(近丽园路)"},{"poiid":"B2094654DA68A6FC4099","title":"老狼烧烤No.11","lon":"121.47476","lat":"31.2053","category":"68","category_name":"快餐厅","address":"卢湾区鲁班路193号(近丽园路)"},{"poiid":"B2094753D76CA4FA4499","title":"上海斯格威铂尔曼大酒店","lon":"121.47319","lat":"31.207389","category":"500","category_name":"未知分类","address":"上海市 上海市卢湾区打浦路15号"},{"poiid":"B2094757D06FABF44599","title":"申荣华 香港茶餐厅","lon":"121.474147","lat":"31.204817","category":"72","category_name":"广东菜","address":"上海卢湾区斜徐路589号(近丽园路)"},{"poiid":"B2094751D564A3FB449B","title":"上海加拿大签证申请中心","lon":"121.474408","lat":"31.207479","category":"500","category_name":"未知分类","address":"上海市徐家汇路555号"},{"poiid":"B209475DD46AA5FD469C","title":"辣尚瘾","lon":"121.473609","lat":"31.204452","category":"247","category_name":"餐饮美食","address":"上海市 卢湾区徐家汇路550号宝鼎大厦2楼"},{"poiid":"B2094654DB6AA3F4429B","title":"东北四季饺子王 鲁班路店","lon":"121.47366921841","lat":"31.207223232226","category":"247","category_name":"餐饮美食","address":"卢湾区鲁班路69号(近蒙自西路)"},{"poiid":"B2094757D06AA3F8469E","title":"鲁班游泳馆","lon":"121.47517","lat":"31.20495","category":"220","category_name":"运动场所","address":"卢湾区鲁班路183弄7号(近丽园路)"},{"poiid":"B2094753D765A3FC479E","title":"香港龍鳳樓","lon":"121.474227","lat":"31.207828","category":"247","category_name":"餐饮美食","address":"上海市 蒙自东路75号"},{"poiid":"B209475DD369A0FE489C","title":"宋记香辣蟹","lon":"121.473175","lat":"31.205047","category":"247","category_name":"餐饮美食","address":"上海市 上海市卢湾区徐家汇路618号日月光广场4楼"},{"poiid":"B2094654DB64A6FD4292","title":"上海新锦江假日酒店","lon":"121.47693","lat":"31.2071","category":"250","category_name":"公园户外","address":"蒙自路118号"},{"poiid":"B2094757D164ABF94898","title":"SUBWAY赛百味永业店","lon":"121.47663","lat":"31.20912","category":"94","category_name":"西餐厅","address":"卢湾区徐家汇路201号(蒙自路口)"},{"poiid":"B2094751D26BA3FB429B","title":"上海MAO LIVE house","lon":"121.47464","lat":"31.207382","category":"500","category_name":"未知分类","address":null},{"poiid":"B2094750D26BAAFD459D","title":"上海老相机制造博物馆","lon":"121.474777","lat":"31.207374","category":"627","category_name":"一般地点标志","address":null}]