[{"poiid":"B2094655D26AA0F5429D","title":"虹口体育馆","lon":"121.48912","lat":"31.28503","category":"247","category_name":"餐饮美食","address":"虹口区东体育会路715号(近中山北二路)"},{"poiid":"B2094757D06FA3FF499E","title":"曲阳路800号上海商务中心","lon":"121.491356","lat":"31.2865155564","category":"46","category_name":"楼宇","address":"上海曲阳路800号"},{"poiid":"B2094757D06FA3F94193","title":"曲阳图书馆","lon":"121.49217","lat":"31.28077","category":"181","category_name":"图书馆","address":"虹口区曲阳路574号(近玉田路)"},{"poiid":"B2094757D064A3FA4698","title":"拉菲酒窖餐厅","lon":"121.492033103","lat":"31.2857107418","category":"72","category_name":"广东菜","address":"虹口区曲阳路666号"},{"poiid":"B2094654D56DA0FA4798","title":"上海商务中心(伊敏河路)","lon":"121.49298","lat":"31.28647","category":"119","category_name":"商场","address":"杨浦曲阳路800-1"},{"poiid":"B2094757D068A2FD419A","title":"艾尼巴亿","lon":"121.49073","lat":"31.28714","category":"90","category_name":"清真餐馆","address":"虹口区曲阳路759号天山宾馆1楼(近中山北二路)"},{"poiid":"B2094757D06FA2F4409C","title":"易买得(曲阳店)","lon":"121.49134485","lat":"31.285770526","category":"118","category_name":"超级市场","address":"虹口区曲阳路800号上海商务中心内(近中山北二路)"},{"poiid":"B2094757D06FA2FD499C","title":"85度C(赤峰店)","lon":"121.493393","lat":"31.282058","category":"112","category_name":"糕饼店","address":"虹口区赤峰路329号(近密云路)"},{"poiid":"B2094655D26CA1FD449E","title":"赤峰小区","lon":"121.49227","lat":"31.283272","category":"47","category_name":"住宅区","address":"赤峰路370弄1-32号"},{"poiid":"B2094654D56DA7FC419E","title":"上海荣臣机动车驾驶员培训有限公司","lon":"121.48899","lat":"31.28274","category":"192","category_name":"驾校","address":"赤峰路384"},{"poiid":"B2094757D469A1F5489C","title":"品味火锅","lon":"121.49081183602","lat":"31.280525728658","category":"86","category_name":"火锅店","address":"虹口区曲阳路570号(近曲阳文化宫)"},{"poiid":"B2094757D068A2FC419B","title":"乐凯迪KTV","lon":"121.49103","lat":"31.28092","category":"170","category_name":"KTV","address":"虹口区曲阳路566号6楼(近玉田路)"},{"poiid":"B2094655D36CA2F9409E","title":"曲阳路中山北二路","lon":"121.49078","lat":"31.28541","category":"38","category_name":"公交车站","address":""},{"poiid":"B2094655D26CA1F44292","title":"曲阳小区(中山北二路)","lon":"121.49318","lat":"31.28434","category":"47","category_name":"住宅区","address":"东体育会路408弄1-5号"},{"poiid":"B2094752D16CAAF84793","title":"五角场万达广场","lon":"121.4900371","lat":"31.2832655","category":"500","category_name":"未知分类","address":"五角场"},{"poiid":"B2094757D06AA6FF4692","title":"和平眼科医院","lon":"121.49337","lat":"31.28735","category":"162","category_name":"医院","address":"虹口区伊敏河路61号(近中山北二路)"},{"poiid":"B2094757D069A2FF429D","title":"宴月小厨","lon":"121.49058","lat":"31.28081","category":"76","category_name":"上海菜","address":"虹口区曲阳路567号(近玉田路)"},{"poiid":"B2094757D069A1FC499A","title":"中国移动(曲阳路营业厅)","lon":"121.490539551","lat":"31.2866725922","category":"151","category_name":"电讯营业厅","address":"上海虹口区曲阳路721号"},{"poiid":"B2094757D06BA1FE419F","title":"蜀国川菜(虹口店)","lon":"121.49366","lat":"31.28623","category":"71","category_name":"四川菜","address":"虹口区伊敏河路32号(近中山北二路)"},{"poiid":"B2094757D06AA3FC4993","title":"东北人家","lon":"121.49083","lat":"31.28566","category":"82","category_name":"东北菜","address":"虹口区密云路536号(近赤峰路)"},{"poiid":"B2094654D56CA0F9429C","title":"中原证券大厦","lon":"121.494","lat":"31.2818","category":"46","category_name":"楼宇","address":"浦东区崂山东路410号"},{"poiid":"B2094757D569A1FA409C","title":"同济研究生公寓","lon":"121.49202","lat":"31.28511","category":"47","category_name":"住宅区","address":"赤峰路96号"},{"poiid":"B2094654D56DA0FA479A","title":"上海商务中心家电城","lon":"121.49224","lat":"31.28646","category":"138","category_name":"家电电子卖场","address":"虹口区曲阳路800号(近中山北二路)"},{"poiid":"B2094757D168A2FC479E","title":"虹口区青少年活动中心运光分部","lon":"121.492145103","lat":"31.2836436986","category":"500","category_name":"未知分类","address":"虹口区运光路40号(近腾克路)"},{"poiid":"B2094757D068A2FA459D","title":"工商银行(虹口支行)","lon":"121.492248","lat":"31.286457","category":"150","category_name":"银行","address":"上海虹口区曲阳路800号商务中心内"},{"poiid":"B2094655D26EAAFD4993","title":"虹口体育俱乐部网球场","lon":"121.49375","lat":"31.28361","category":"226","category_name":"网球场","address":"密云路471弄"},{"poiid":"B2094655D26DA6F8479E","title":"赤峰小区(西二门)","lon":"121.49105","lat":"31.28423","category":"656","category_name":"大门","address":"曲阳路630弄1-13号"},{"poiid":"B2094655D36CA2F9409F","title":"曲阳路中山北路","lon":"121.49082","lat":"31.2851","category":"38","category_name":"公交车站","address":""},{"poiid":"B2094750D665A7FA4593","title":"永和大王(易买得店)","lon":"121.491","lat":"31.2865","category":"68","category_name":"快餐厅","address":"虹口区曲阳路800号易买得内"},{"poiid":"B2094655D26CA1F44293","title":"曲阳小区(北门)","lon":"121.4931","lat":"31.28514","category":"47","category_name":"住宅区","address":""},{"poiid":"B2094655D26AAAFB4992","title":"大佬馆 赤峰店","lon":"121.491621","lat":"31.281819","category":"76","category_name":"上海菜","address":"虹口区赤峰路329号(近曲阳路)"},{"poiid":"B2094757D065A2FA4798","title":"苹果花园","lon":"121.49305031","lat":"31.282175487","category":"47","category_name":"住宅区","address":"虹口区赤峰路366号(近玉田路)"},{"poiid":"B2094654D56DA7FC409E","title":"虹口区第四中心小学","lon":"121.48909","lat":"31.28395","category":"56","category_name":"小学","address":"虹口区东体育会路667号(近赤峰路)"},{"poiid":"B2094757D16EA0FB499F","title":"上海工会管理干部学院图书馆","lon":"121.49233","lat":"31.28556","category":"181","category_name":"图书馆","address":"虹口区中山北二路1800号"},{"poiid":"B2094655D36DA7F8419B","title":"中山北二路曲阳路","lon":"121.49276","lat":"31.28579","category":"38","category_name":"公交车站","address":""},{"poiid":"B2094654D56CA1FF4798","title":"密三小区","lon":"121.49153","lat":"31.281328","category":"47","category_name":"住宅区","address":"曲阳路590号"},{"poiid":"B2094655D36CA5FE489A","title":"赤峰路曲阳路","lon":"121.49071","lat":"31.28273","category":"38","category_name":"公交车站","address":""},{"poiid":"B2094757D069A0FC449E","title":"吉盛伟邦(虹口店)","lon":"121.491561865","lat":"31.2864359407","category":"123","category_name":"家具建材市场","address":"虹口区曲阳路800号上海商务中心内(近中山北二路)"},{"poiid":"B2094654DB6AAAFF4992","title":"赤峰小区(南二门)","lon":"121.49382","lat":"31.28235","category":"656","category_name":"大门","address":"密云路471弄"},{"poiid":"B2094654DB69A5FB4493","title":"重庆鸡公煲 赤峰路店","lon":"121.49338","lat":"31.28204","category":"71","category_name":"四川菜","address":"虹口区赤峰路327号(近曲阳路)"},{"poiid":"B2094757D66EABF44099","title":"100路大柏树站","lon":"121.492771","lat":"31.283648","category":"500","category_name":"未知分类","address":"上海曲阳路东体育会路"},{"poiid":"B2094757D064A7F54999","title":"723中山北二路曲阳路","lon":"121.49377765","lat":"31.285577511","category":"38","category_name":"公交车站","address":"上海中山北二路伊敏河路"},{"poiid":"B2094757D06AA5FF4193","title":"壹品牛蛙","lon":"121.493416","lat":"31.282042","category":"247","category_name":"餐饮美食","address":"上海赤峰路329号"},{"poiid":"B2094654D56DA7FC4098","title":"上房小区","lon":"121.49002","lat":"31.2845","category":"47","category_name":"住宅区","address":"曲阳路621、651、641"},{"poiid":"B2094654D56CA1FF4692","title":"西域烧烤","lon":"121.49244","lat":"31.28055","category":"68","category_name":"快餐厅","address":"虹口区玉田支路19号曲阳浴室附近(近家乐福)"},{"poiid":"B2094750D76DABF84698","title":"吉祥馄饨(伊敏河路店)","lon":"121.493","lat":"31.287","category":"68","category_name":"快餐厅","address":"虹口区伊敏河路66号(近巴林路)"},{"poiid":"B2094655D264A4FB409C","title":"多普达苏宁曲阳店","lon":"121.4925","lat":"31.28594","category":"138","category_name":"家电电子卖场","address":"中山北二路1705号"},{"poiid":"B2094750DB6BA2FF499D","title":"网鱼网咖","lon":"121.491134","lat":"31.280557","category":"248","category_name":"生活娱乐","address":"杨浦区四平路901号四平电影院2楼(近八号线大连路站2号口)"},{"poiid":"B2094654D56DA0F44993","title":"上海和平眼科医院","lon":"121.4931","lat":"31.28758","category":"162","category_name":"医院","address":"虹口区伊敏河路61号和平眼科医院内"},{"poiid":"B2094655D36CA2FD499B","title":"曲阳路820弄小区","lon":"121.49235","lat":"31.28806","category":"47","category_name":"住宅区","address":"曲阳路820弄1-59号"},{"poiid":"B2094655D26AA0F5429D","title":"虹口体育馆","lon":"121.48912","lat":"31.28503","category":"247","category_name":"餐饮美食","address":"虹口区东体育会路715号(近中山北二路)"},{"poiid":"B2094757D06FA3FF499E","title":"曲阳路800号上海商务中心","lon":"121.491356","lat":"31.2865155564","category":"46","category_name":"楼宇","address":"上海曲阳路800号"},{"poiid":"B2094757D06FA3F94193","title":"曲阳图书馆","lon":"121.49217","lat":"31.28077","category":"181","category_name":"图书馆","address":"虹口区曲阳路574号(近玉田路)"},{"poiid":"B2094757D064A3FA4698","title":"拉菲酒窖餐厅","lon":"121.492033103","lat":"31.2857107418","category":"72","category_name":"广东菜","address":"虹口区曲阳路666号"},{"poiid":"B2094654D56DA0FA4798","title":"上海商务中心(伊敏河路)","lon":"121.49298","lat":"31.28647","category":"119","category_name":"商场","address":"杨浦曲阳路800-1"},{"poiid":"B2094757D068A2FD419A","title":"艾尼巴亿","lon":"121.49073","lat":"31.28714","category":"90","category_name":"清真餐馆","address":"虹口区曲阳路759号天山宾馆1楼(近中山北二路)"},{"poiid":"B2094757D06FA2F4409C","title":"易买得(曲阳店)","lon":"121.49134485","lat":"31.285770526","category":"118","category_name":"超级市场","address":"虹口区曲阳路800号上海商务中心内(近中山北二路)"},{"poiid":"B2094757D06FA2FD499C","title":"85度C(赤峰店)","lon":"121.493393","lat":"31.282058","category":"112","category_name":"糕饼店","address":"虹口区赤峰路329号(近密云路)"},{"poiid":"B2094655D26CA1FD449E","title":"赤峰小区","lon":"121.49227","lat":"31.283272","category":"47","category_name":"住宅区","address":"赤峰路370弄1-32号"},{"poiid":"B2094654D56DA7FC419E","title":"上海荣臣机动车驾驶员培训有限公司","lon":"121.48899","lat":"31.28274","category":"192","category_name":"驾校","address":"赤峰路384"},{"poiid":"B2094757D469A1F5489C","title":"品味火锅","lon":"121.49081183602","lat":"31.280525728658","category":"86","category_name":"火锅店","address":"虹口区曲阳路570号(近曲阳文化宫)"},{"poiid":"B2094757D068A2FC419B","title":"乐凯迪KTV","lon":"121.49103","lat":"31.28092","category":"170","category_name":"KTV","address":"虹口区曲阳路566号6楼(近玉田路)"},{"poiid":"B2094655D36CA2F9409E","title":"曲阳路中山北二路","lon":"121.49078","lat":"31.28541","category":"38","category_name":"公交车站","address":""},{"poiid":"B2094655D26CA1F44292","title":"曲阳小区(中山北二路)","lon":"121.49318","lat":"31.28434","category":"47","category_name":"住宅区","address":"东体育会路408弄1-5号"},{"poiid":"B2094752D16CAAF84793","title":"五角场万达广场","lon":"121.4900371","lat":"31.2832655","category":"500","category_name":"未知分类","address":"五角场"},{"poiid":"B2094757D06AA6FF4692","title":"和平眼科医院","lon":"121.49337","lat":"31.28735","category":"162","category_name":"医院","address":"虹口区伊敏河路61号(近中山北二路)"},{"poiid":"B2094757D069A2FF429D","title":"宴月小厨","lon":"121.49058","lat":"31.28081","category":"76","category_name":"上海菜","address":"虹口区曲阳路567号(近玉田路)"},{"poiid":"B2094757D069A1FC499A","title":"中国移动(曲阳路营业厅)","lon":"121.490539551","lat":"31.2866725922","category":"151","category_name":"电讯营业厅","address":"上海虹口区曲阳路721号"},{"poiid":"B2094757D06BA1FE419F","title":"蜀国川菜(虹口店)","lon":"121.49366","lat":"31.28623","category":"71","category_name":"四川菜","address":"虹口区伊敏河路32号(近中山北二路)"},{"poiid":"B2094757D06AA3FC4993","title":"东北人家","lon":"121.49083","lat":"31.28566","category":"82","category_name":"东北菜","address":"虹口区密云路536号(近赤峰路)"},{"poiid":"B2094654D56CA0F9429C","title":"中原证券大厦","lon":"121.494","lat":"31.2818","category":"46","category_name":"楼宇","address":"浦东区崂山东路410号"},{"poiid":"B2094757D569A1FA409C","title":"同济研究生公寓","lon":"121.49202","lat":"31.28511","category":"47","category_name":"住宅区","address":"赤峰路96号"},{"poiid":"B2094654D56DA0FA479A","title":"上海商务中心家电城","lon":"121.49224","lat":"31.28646","category":"138","category_name":"家电电子卖场","address":"虹口区曲阳路800号(近中山北二路)"},{"poiid":"B2094757D168A2FC479E","title":"虹口区青少年活动中心运光分部","lon":"121.492145103","lat":"31.2836436986","category":"500","category_name":"未知分类","address":"虹口区运光路40号(近腾克路)"},{"poiid":"B2094757D068A2FA459D","title":"工商银行(虹口支行)","lon":"121.492248","lat":"31.286457","category":"150","category_name":"银行","address":"上海虹口区曲阳路800号商务中心内"},{"poiid":"B2094655D26EAAFD4993","title":"虹口体育俱乐部网球场","lon":"121.49375","lat":"31.28361","category":"226","category_name":"网球场","address":"密云路471弄"},{"poiid":"B2094655D26DA6F8479E","title":"赤峰小区(西二门)","lon":"121.49105","lat":"31.28423","category":"656","category_name":"大门","address":"曲阳路630弄1-13号"},{"poiid":"B2094655D36CA2F9409F","title":"曲阳路中山北路","lon":"121.49082","lat":"31.2851","category":"38","category_name":"公交车站","address":""},{"poiid":"B2094750D665A7FA4593","title":"永和大王(易买得店)","lon":"121.491","lat":"31.2865","category":"68","category_name":"快餐厅","address":"虹口区曲阳路800号易买得内"},{"poiid":"B2094655D26CA1F44293","title":"曲阳小区(北门)","lon":"121.4931","lat":"31.28514","category":"47","category_name":"住宅区","address":""},{"poiid":"B2094655D26AAAFB4992","title":"大佬馆 赤峰店","lon":"121.491621","lat":"31.281819","category":"76","category_name":"上海菜","address":"虹口区赤峰路329号(近曲阳路)"},{"poiid":"B2094757D065A2FA4798","title":"苹果花园","lon":"121.49305031","lat":"31.282175487","category":"47","category_name":"住宅区","address":"虹口区赤峰路366号(近玉田路)"},{"poiid":"B2094654D56DA7FC409E","title":"虹口区第四中心小学","lon":"121.48909","lat":"31.28395","category":"56","category_name":"小学","address":"虹口区东体育会路667号(近赤峰路)"},{"poiid":"B2094757D16EA0FB499F","title":"上海工会管理干部学院图书馆","lon":"121.49233","lat":"31.28556","category":"181","category_name":"图书馆","address":"虹口区中山北二路1800号"},{"poiid":"B2094655D36DA7F8419B","title":"中山北二路曲阳路","lon":"121.49276","lat":"31.28579","category":"38","category_name":"公交车站","address":""},{"poiid":"B2094654D56CA1FF4798","title":"密三小区","lon":"121.49153","lat":"31.281328","category":"47","category_name":"住宅区","address":"曲阳路590号"},{"poiid":"B2094655D36CA5FE489A","title":"赤峰路曲阳路","lon":"121.49071","lat":"31.28273","category":"38","category_name":"公交车站","address":""},{"poiid":"B2094757D069A0FC449E","title":"吉盛伟邦(虹口店)","lon":"121.491561865","lat":"31.2864359407","category":"123","category_name":"家具建材市场","address":"虹口区曲阳路800号上海商务中心内(近中山北二路)"},{"poiid":"B2094654DB6AAAFF4992","title":"赤峰小区(南二门)","lon":"121.49382","lat":"31.28235","category":"656","category_name":"大门","address":"密云路471弄"},{"poiid":"B2094654DB69A5FB4493","title":"重庆鸡公煲 赤峰路店","lon":"121.49338","lat":"31.28204","category":"71","category_name":"四川菜","address":"虹口区赤峰路327号(近曲阳路)"},{"poiid":"B2094757D66EABF44099","title":"100路大柏树站","lon":"121.492771","lat":"31.283648","category":"500","category_name":"未知分类","address":"上海曲阳路东体育会路"},{"poiid":"B2094757D064A7F54999","title":"723中山北二路曲阳路","lon":"121.49377765","lat":"31.285577511","category":"38","category_name":"公交车站","address":"上海中山北二路伊敏河路"},{"poiid":"B2094757D06AA5FF4193","title":"壹品牛蛙","lon":"121.493416","lat":"31.282042","category":"247","category_name":"餐饮美食","address":"上海赤峰路329号"},{"poiid":"B2094654D56DA7FC4098","title":"上房小区","lon":"121.49002","lat":"31.2845","category":"47","category_name":"住宅区","address":"曲阳路621、651、641"},{"poiid":"B2094654D56CA1FF4692","title":"西域烧烤","lon":"121.49244","lat":"31.28055","category":"68","category_name":"快餐厅","address":"虹口区玉田支路19号曲阳浴室附近(近家乐福)"},{"poiid":"B2094750D76DABF84698","title":"吉祥馄饨(伊敏河路店)","lon":"121.493","lat":"31.287","category":"68","category_name":"快餐厅","address":"虹口区伊敏河路66号(近巴林路)"},{"poiid":"B2094655D264A4FB409C","title":"多普达苏宁曲阳店","lon":"121.4925","lat":"31.28594","category":"138","category_name":"家电电子卖场","address":"中山北二路1705号"},{"poiid":"B2094750DB6BA2FF499D","title":"网鱼网咖","lon":"121.491134","lat":"31.280557","category":"248","category_name":"生活娱乐","address":"杨浦区四平路901号四平电影院2楼(近八号线大连路站2号口)"},{"poiid":"B2094654D56DA0F44993","title":"上海和平眼科医院","lon":"121.4931","lat":"31.28758","category":"162","category_name":"医院","address":"虹口区伊敏河路61号和平眼科医院内"},{"poiid":"B2094655D36CA2FD499B","title":"曲阳路820弄小区","lon":"121.49235","lat":"31.28806","category":"47","category_name":"住宅区","address":"曲阳路820弄1-59号"},{"poiid":"B2094655D26AA0F5429D","title":"虹口体育馆","lon":"121.48912","lat":"31.28503","category":"247","category_name":"餐饮美食","address":"虹口区东体育会路715号(近中山北二路)"},{"poiid":"B2094757D06FA3FF499E","title":"曲阳路800号上海商务中心","lon":"121.491356","lat":"31.2865155564","category":"46","category_name":"楼宇","address":"上海曲阳路800号"},{"poiid":"B2094757D06FA3F94193","title":"曲阳图书馆","lon":"121.49217","lat":"31.28077","category":"181","category_name":"图书馆","address":"虹口区曲阳路574号(近玉田路)"},{"poiid":"B2094757D064A3FA4698","title":"拉菲酒窖餐厅","lon":"121.492033103","lat":"31.2857107418","category":"72","category_name":"广东菜","address":"虹口区曲阳路666号"},{"poiid":"B2094654D56DA0FA4798","title":"上海商务中心(伊敏河路)","lon":"121.49298","lat":"31.28647","category":"119","category_name":"商场","address":"杨浦曲阳路800-1"},{"poiid":"B2094757D068A2FD419A","title":"艾尼巴亿","lon":"121.49073","lat":"31.28714","category":"90","category_name":"清真餐馆","address":"虹口区曲阳路759号天山宾馆1楼(近中山北二路)"},{"poiid":"B2094757D06FA2F4409C","title":"易买得(曲阳店)","lon":"121.49134485","lat":"31.285770526","category":"118","category_name":"超级市场","address":"虹口区曲阳路800号上海商务中心内(近中山北二路)"},{"poiid":"B2094757D06FA2FD499C","title":"85度C(赤峰店)","lon":"121.493393","lat":"31.282058","category":"112","category_name":"糕饼店","address":"虹口区赤峰路329号(近密云路)"},{"poiid":"B2094655D26CA1FD449E","title":"赤峰小区","lon":"121.49227","lat":"31.283272","category":"47","category_name":"住宅区","address":"赤峰路370弄1-32号"},{"poiid":"B2094654D56DA7FC419E","title":"上海荣臣机动车驾驶员培训有限公司","lon":"121.48899","lat":"31.28274","category":"192","category_name":"驾校","address":"赤峰路384"},{"poiid":"B2094757D469A1F5489C","title":"品味火锅","lon":"121.49081183602","lat":"31.280525728658","category":"86","category_name":"火锅店","address":"虹口区曲阳路570号(近曲阳文化宫)"},{"poiid":"B2094757D068A2FC419B","title":"乐凯迪KTV","lon":"121.49103","lat":"31.28092","category":"170","category_name":"KTV","address":"虹口区曲阳路566号6楼(近玉田路)"},{"poiid":"B2094655D36CA2F9409E","title":"曲阳路中山北二路","lon":"121.49078","lat":"31.28541","category":"38","category_name":"公交车站","address":""},{"poiid":"B2094655D26CA1F44292","title":"曲阳小区(中山北二路)","lon":"121.49318","lat":"31.28434","category":"47","category_name":"住宅区","address":"东体育会路408弄1-5号"},{"poiid":"B2094752D16CAAF84793","title":"五角场万达广场","lon":"121.4900371","lat":"31.2832655","category":"500","category_name":"未知分类","address":"五角场"},{"poiid":"B2094757D06AA6FF4692","title":"和平眼科医院","lon":"121.49337","lat":"31.28735","category":"162","category_name":"医院","address":"虹口区伊敏河路61号(近中山北二路)"},{"poiid":"B2094757D069A2FF429D","title":"宴月小厨","lon":"121.49058","lat":"31.28081","category":"76","category_name":"上海菜","address":"虹口区曲阳路567号(近玉田路)"},{"poiid":"B2094757D069A1FC499A","title":"中国移动(曲阳路营业厅)","lon":"121.490539551","lat":"31.2866725922","category":"151","category_name":"电讯营业厅","address":"上海虹口区曲阳路721号"},{"poiid":"B2094757D06BA1FE419F","title":"蜀国川菜(虹口店)","lon":"121.49366","lat":"31.28623","category":"71","category_name":"四川菜","address":"虹口区伊敏河路32号(近中山北二路)"},{"poiid":"B2094757D06AA3FC4993","title":"东北人家","lon":"121.49083","lat":"31.28566","category":"82","category_name":"东北菜","address":"虹口区密云路536号(近赤峰路)"},{"poiid":"B2094654D56CA0F9429C","title":"中原证券大厦","lon":"121.494","lat":"31.2818","category":"46","category_name":"楼宇","address":"浦东区崂山东路410号"},{"poiid":"B2094757D569A1FA409C","title":"同济研究生公寓","lon":"121.49202","lat":"31.28511","category":"47","category_name":"住宅区","address":"赤峰路96号"},{"poiid":"B2094654D56DA0FA479A","title":"上海商务中心家电城","lon":"121.49224","lat":"31.28646","category":"138","category_name":"家电电子卖场","address":"虹口区曲阳路800号(近中山北二路)"},{"poiid":"B2094757D168A2FC479E","title":"虹口区青少年活动中心运光分部","lon":"121.492145103","lat":"31.2836436986","category":"500","category_name":"未知分类","address":"虹口区运光路40号(近腾克路)"},{"poiid":"B2094757D068A2FA459D","title":"工商银行(虹口支行)","lon":"121.492248","lat":"31.286457","category":"150","category_name":"银行","address":"上海虹口区曲阳路800号商务中心内"},{"poiid":"B2094655D26EAAFD4993","title":"虹口体育俱乐部网球场","lon":"121.49375","lat":"31.28361","category":"226","category_name":"网球场","address":"密云路471弄"},{"poiid":"B2094655D26DA6F8479E","title":"赤峰小区(西二门)","lon":"121.49105","lat":"31.28423","category":"656","category_name":"大门","address":"曲阳路630弄1-13号"},{"poiid":"B2094655D36CA2F9409F","title":"曲阳路中山北路","lon":"121.49082","lat":"31.2851","category":"38","category_name":"公交车站","address":""},{"poiid":"B2094750D665A7FA4593","title":"永和大王(易买得店)","lon":"121.491","lat":"31.2865","category":"68","category_name":"快餐厅","address":"虹口区曲阳路800号易买得内"},{"poiid":"B2094655D26CA1F44293","title":"曲阳小区(北门)","lon":"121.4931","lat":"31.28514","category":"47","category_name":"住宅区","address":""},{"poiid":"B2094655D26AAAFB4992","title":"大佬馆 赤峰店","lon":"121.491621","lat":"31.281819","category":"76","category_name":"上海菜","address":"虹口区赤峰路329号(近曲阳路)"},{"poiid":"B2094757D065A2FA4798","title":"苹果花园","lon":"121.49305031","lat":"31.282175487","category":"47","category_name":"住宅区","address":"虹口区赤峰路366号(近玉田路)"},{"poiid":"B2094654D56DA7FC409E","title":"虹口区第四中心小学","lon":"121.48909","lat":"31.28395","category":"56","category_name":"小学","address":"虹口区东体育会路667号(近赤峰路)"},{"poiid":"B2094757D16EA0FB499F","title":"上海工会管理干部学院图书馆","lon":"121.49233","lat":"31.28556","category":"181","category_name":"图书馆","address":"虹口区中山北二路1800号"},{"poiid":"B2094655D36DA7F8419B","title":"中山北二路曲阳路","lon":"121.49276","lat":"31.28579","category":"38","category_name":"公交车站","address":""},{"poiid":"B2094654D56CA1FF4798","title":"密三小区","lon":"121.49153","lat":"31.281328","category":"47","category_name":"住宅区","address":"曲阳路590号"},{"poiid":"B2094655D36CA5FE489A","title":"赤峰路曲阳路","lon":"121.49071","lat":"31.28273","category":"38","category_name":"公交车站","address":""},{"poiid":"B2094757D069A0FC449E","title":"吉盛伟邦(虹口店)","lon":"121.491561865","lat":"31.2864359407","category":"123","category_name":"家具建材市场","address":"虹口区曲阳路800号上海商务中心内(近中山北二路)"},{"poiid":"B2094654DB6AAAFF4992","title":"赤峰小区(南二门)","lon":"121.49382","lat":"31.28235","category":"656","category_name":"大门","address":"密云路471弄"},{"poiid":"B2094654DB69A5FB4493","title":"重庆鸡公煲 赤峰路店","lon":"121.49338","lat":"31.28204","category":"71","category_name":"四川菜","address":"虹口区赤峰路327号(近曲阳路)"},{"poiid":"B2094757D66EABF44099","title":"100路大柏树站","lon":"121.492771","lat":"31.283648","category":"500","category_name":"未知分类","address":"上海曲阳路东体育会路"},{"poiid":"B2094757D064A7F54999","title":"723中山北二路曲阳路","lon":"121.49377765","lat":"31.285577511","category":"38","category_name":"公交车站","address":"上海中山北二路伊敏河路"},{"poiid":"B2094757D06AA5FF4193","title":"壹品牛蛙","lon":"121.493416","lat":"31.282042","category":"247","category_name":"餐饮美食","address":"上海赤峰路329号"},{"poiid":"B2094654D56DA7FC4098","title":"上房小区","lon":"121.49002","lat":"31.2845","category":"47","category_name":"住宅区","address":"曲阳路621、651、641"},{"poiid":"B2094654D56CA1FF4692","title":"西域烧烤","lon":"121.49244","lat":"31.28055","category":"68","category_name":"快餐厅","address":"虹口区玉田支路19号曲阳浴室附近(近家乐福)"},{"poiid":"B2094750D76DABF84698","title":"吉祥馄饨(伊敏河路店)","lon":"121.493","lat":"31.287","category":"68","category_name":"快餐厅","address":"虹口区伊敏河路66号(近巴林路)"},{"poiid":"B2094655D264A4FB409C","title":"多普达苏宁曲阳店","lon":"121.4925","lat":"31.28594","category":"138","category_name":"家电电子卖场","address":"中山北二路1705号"},{"poiid":"B2094750DB6BA2FF499D","title":"网鱼网咖","lon":"121.491134","lat":"31.280557","category":"248","category_name":"生活娱乐","address":"杨浦区四平路901号四平电影院2楼(近八号线大连路站2号口)"},{"poiid":"B2094654D56DA0F44993","title":"上海和平眼科医院","lon":"121.4931","lat":"31.28758","category":"162","category_name":"医院","address":"虹口区伊敏河路61号和平眼科医院内"},{"poiid":"B2094655D36CA2FD499B","title":"曲阳路820弄小区","lon":"121.49235","lat":"31.28806","category":"47","category_name":"住宅区","address":"曲阳路820弄1-59号"},{"poiid":"B2094655D26AA0F5429D","title":"虹口体育馆","lon":"121.48912","lat":"31.28503","category":"247","category_name":"餐饮美食","address":"虹口区东体育会路715号(近中山北二路)"},{"poiid":"B2094757D06FA3FF499E","title":"曲阳路800号上海商务中心","lon":"121.491356","lat":"31.2865155564","category":"46","category_name":"楼宇","address":"上海曲阳路800号"},{"poiid":"B2094757D06FA3F94193","title":"曲阳图书馆","lon":"121.49217","lat":"31.28077","category":"181","category_name":"图书馆","address":"虹口区曲阳路574号(近玉田路)"},{"poiid":"B2094757D064A3FA4698","title":"拉菲酒窖餐厅","lon":"121.492033103","lat":"31.2857107418","category":"72","category_name":"广东菜","address":"虹口区曲阳路666号"},{"poiid":"B2094654D56DA0FA4798","title":"上海商务中心(伊敏河路)","lon":"121.49298","lat":"31.28647","category":"119","category_name":"商场","address":"杨浦曲阳路800-1"},{"poiid":"B2094757D068A2FD419A","title":"艾尼巴亿","lon":"121.49073","lat":"31.28714","category":"90","category_name":"清真餐馆","address":"虹口区曲阳路759号天山宾馆1楼(近中山北二路)"},{"poiid":"B2094757D06FA2F4409C","title":"易买得(曲阳店)","lon":"121.49134485","lat":"31.285770526","category":"118","category_name":"超级市场","address":"虹口区曲阳路800号上海商务中心内(近中山北二路)"},{"poiid":"B2094757D06FA2FD499C","title":"85度C(赤峰店)","lon":"121.493393","lat":"31.282058","category":"112","category_name":"糕饼店","address":"虹口区赤峰路329号(近密云路)"},{"poiid":"B2094655D26CA1FD449E","title":"赤峰小区","lon":"121.49227","lat":"31.283272","category":"47","category_name":"住宅区","address":"赤峰路370弄1-32号"},{"poiid":"B2094654D56DA7FC419E","title":"上海荣臣机动车驾驶员培训有限公司","lon":"121.48899","lat":"31.28274","category":"192","category_name":"驾校","address":"赤峰路384"},{"poiid":"B2094757D469A1F5489C","title":"品味火锅","lon":"121.49081183602","lat":"31.280525728658","category":"86","category_name":"火锅店","address":"虹口区曲阳路570号(近曲阳文化宫)"},{"poiid":"B2094757D068A2FC419B","title":"乐凯迪KTV","lon":"121.49103","lat":"31.28092","category":"170","category_name":"KTV","address":"虹口区曲阳路566号6楼(近玉田路)"},{"poiid":"B2094655D36CA2F9409E","title":"曲阳路中山北二路","lon":"121.49078","lat":"31.28541","category":"38","category_name":"公交车站","address":""},{"poiid":"B2094655D26CA1F44292","title":"曲阳小区(中山北二路)","lon":"121.49318","lat":"31.28434","category":"47","category_name":"住宅区","address":"东体育会路408弄1-5号"},{"poiid":"B2094752D16CAAF84793","title":"五角场万达广场","lon":"121.4900371","lat":"31.2832655","category":"500","category_name":"未知分类","address":"五角场"},{"poiid":"B2094757D06AA6FF4692","title":"和平眼科医院","lon":"121.49337","lat":"31.28735","category":"162","category_name":"医院","address":"虹口区伊敏河路61号(近中山北二路)"},{"poiid":"B2094757D069A2FF429D","title":"宴月小厨","lon":"121.49058","lat":"31.28081","category":"76","category_name":"上海菜","address":"虹口区曲阳路567号(近玉田路)"},{"poiid":"B2094757D069A1FC499A","title":"中国移动(曲阳路营业厅)","lon":"121.490539551","lat":"31.2866725922","category":"151","category_name":"电讯营业厅","address":"上海虹口区曲阳路721号"},{"poiid":"B2094757D06BA1FE419F","title":"蜀国川菜(虹口店)","lon":"121.49366","lat":"31.28623","category":"71","category_name":"四川菜","address":"虹口区伊敏河路32号(近中山北二路)"},{"poiid":"B2094757D06AA3FC4993","title":"东北人家","lon":"121.49083","lat":"31.28566","category":"82","category_name":"东北菜","address":"虹口区密云路536号(近赤峰路)"},{"poiid":"B2094654D56CA0F9429C","title":"中原证券大厦","lon":"121.494","lat":"31.2818","category":"46","category_name":"楼宇","address":"浦东区崂山东路410号"},{"poiid":"B2094757D569A1FA409C","title":"同济研究生公寓","lon":"121.49202","lat":"31.28511","category":"47","category_name":"住宅区","address":"赤峰路96号"},{"poiid":"B2094654D56DA0FA479A","title":"上海商务中心家电城","lon":"121.49224","lat":"31.28646","category":"138","category_name":"家电电子卖场","address":"虹口区曲阳路800号(近中山北二路)"},{"poiid":"B2094757D168A2FC479E","title":"虹口区青少年活动中心运光分部","lon":"121.492145103","lat":"31.2836436986","category":"500","category_name":"未知分类","address":"虹口区运光路40号(近腾克路)"},{"poiid":"B2094757D068A2FA459D","title":"工商银行(虹口支行)","lon":"121.492248","lat":"31.286457","category":"150","category_name":"银行","address":"上海虹口区曲阳路800号商务中心内"},{"poiid":"B2094655D26EAAFD4993","title":"虹口体育俱乐部网球场","lon":"121.49375","lat":"31.28361","category":"226","category_name":"网球场","address":"密云路471弄"},{"poiid":"B2094655D26DA6F8479E","title":"赤峰小区(西二门)","lon":"121.49105","lat":"31.28423","category":"656","category_name":"大门","address":"曲阳路630弄1-13号"},{"poiid":"B2094655D36CA2F9409F","title":"曲阳路中山北路","lon":"121.49082","lat":"31.2851","category":"38","category_name":"公交车站","address":""},{"poiid":"B2094750D665A7FA4593","title":"永和大王(易买得店)","lon":"121.491","lat":"31.2865","category":"68","category_name":"快餐厅","address":"虹口区曲阳路800号易买得内"},{"poiid":"B2094655D26CA1F44293","title":"曲阳小区(北门)","lon":"121.4931","lat":"31.28514","category":"47","category_name":"住宅区","address":""},{"poiid":"B2094655D26AAAFB4992","title":"大佬馆 赤峰店","lon":"121.491621","lat":"31.281819","category":"76","category_name":"上海菜","address":"虹口区赤峰路329号(近曲阳路)"},{"poiid":"B2094757D065A2FA4798","title":"苹果花园","lon":"121.49305031","lat":"31.282175487","category":"47","category_name":"住宅区","address":"虹口区赤峰路366号(近玉田路)"},{"poiid":"B2094654D56DA7FC409E","title":"虹口区第四中心小学","lon":"121.48909","lat":"31.28395","category":"56","category_name":"小学","address":"虹口区东体育会路667号(近赤峰路)"},{"poiid":"B2094757D16EA0FB499F","title":"上海工会管理干部学院图书馆","lon":"121.49233","lat":"31.28556","category":"181","category_name":"图书馆","address":"虹口区中山北二路1800号"},{"poiid":"B2094655D36DA7F8419B","title":"中山北二路曲阳路","lon":"121.49276","lat":"31.28579","category":"38","category_name":"公交车站","address":""},{"poiid":"B2094654D56CA1FF4798","title":"密三小区","lon":"121.49153","lat":"31.281328","category":"47","category_name":"住宅区","address":"曲阳路590号"},{"poiid":"B2094655D36CA5FE489A","title":"赤峰路曲阳路","lon":"121.49071","lat":"31.28273","category":"38","category_name":"公交车站","address":""},{"poiid":"B2094757D069A0FC449E","title":"吉盛伟邦(虹口店)","lon":"121.491561865","lat":"31.2864359407","category":"123","category_name":"家具建材市场","address":"虹口区曲阳路800号上海商务中心内(近中山北二路)"},{"poiid":"B2094654DB6AAAFF4992","title":"赤峰小区(南二门)","lon":"121.49382","lat":"31.28235","category":"656","category_name":"大门","address":"密云路471弄"},{"poiid":"B2094654DB69A5FB4493","title":"重庆鸡公煲 赤峰路店","lon":"121.49338","lat":"31.28204","category":"71","category_name":"四川菜","address":"虹口区赤峰路327号(近曲阳路)"},{"poiid":"B2094757D66EABF44099","title":"100路大柏树站","lon":"121.492771","lat":"31.283648","category":"500","category_name":"未知分类","address":"上海曲阳路东体育会路"},{"poiid":"B2094757D064A7F54999","title":"723中山北二路曲阳路","lon":"121.49377765","lat":"31.285577511","category":"38","category_name":"公交车站","address":"上海中山北二路伊敏河路"},{"poiid":"B2094757D06AA5FF4193","title":"壹品牛蛙","lon":"121.493416","lat":"31.282042","category":"247","category_name":"餐饮美食","address":"上海赤峰路329号"},{"poiid":"B2094654D56DA7FC4098","title":"上房小区","lon":"121.49002","lat":"31.2845","category":"47","category_name":"住宅区","address":"曲阳路621、651、641"},{"poiid":"B2094654D56CA1FF4692","title":"西域烧烤","lon":"121.49244","lat":"31.28055","category":"68","category_name":"快餐厅","address":"虹口区玉田支路19号曲阳浴室附近(近家乐福)"},{"poiid":"B2094750D76DABF84698","title":"吉祥馄饨(伊敏河路店)","lon":"121.493","lat":"31.287","category":"68","category_name":"快餐厅","address":"虹口区伊敏河路66号(近巴林路)"},{"poiid":"B2094655D264A4FB409C","title":"多普达苏宁曲阳店","lon":"121.4925","lat":"31.28594","category":"138","category_name":"家电电子卖场","address":"中山北二路1705号"},{"poiid":"B2094750DB6BA2FF499D","title":"网鱼网咖","lon":"121.491134","lat":"31.280557","category":"248","category_name":"生活娱乐","address":"杨浦区四平路901号四平电影院2楼(近八号线大连路站2号口)"},{"poiid":"B2094654D56DA0F44993","title":"上海和平眼科医院","lon":"121.4931","lat":"31.28758","category":"162","category_name":"医院","address":"虹口区伊敏河路61号和平眼科医院内"},{"poiid":"B2094655D36CA2FD499B","title":"曲阳路820弄小区","lon":"121.49235","lat":"31.28806","category":"47","category_name":"住宅区","address":"曲阳路820弄1-59号"}]