[{"poiid":"B2094654DB65A6FA429A","title":"上海市第八人民医院","lon":"121.43375046511653","lat":"31.167588930222983","category":"162","category_name":"医院","address":"徐汇区漕宝路8号(近漕溪路)"},{"poiid":"B2094654D564A3F8459C","title":"辛香汇(漕溪路)","lon":"121.43425","lat":"31.16899","category":"71","category_name":"四川菜","address":"徐汇区漕溪路280号(近漕宝路)"},{"poiid":"B2094757D06EABF5429D","title":"漕宝路地铁站","lon":"121.43500667","lat":"31.168222633","category":"36","category_name":"地铁站","address":"上海轨道交通,一号线,轨交漕宝路站,1"},{"poiid":"B2094757D66EA2FE449B","title":"上海大饭堂","lon":"121.43188458","lat":"31.165935174","category":"76","category_name":"上海菜","address":"徐汇区康健路28号(近钦州路)"},{"poiid":"B2094757D068A2FC4598","title":"西雅图","lon":"121.4369812","lat":"31.166835784","category":"500","category_name":"未知分类","address":"上海徐匯區三江路88號"},{"poiid":"B2094757D16CA6F84693","title":"沪闵高架南站上匝道","lon":"121.43315058","lat":"31.164494146","category":"500","category_name":"未知分类","address":"上海市徐汇区漕宝路"},{"poiid":"B2094654D564A0F4429A","title":"上海市第八人民医院门诊部","lon":"121.4341","lat":"31.16753","category":"162","category_name":"医院","address":"沪闵路9802"},{"poiid":"B2094750DA6EABFC469C","title":"徐家汇美罗城","lon":"121.4346","lat":"31.165288","category":"500","category_name":"未知分类","address":null},{"poiid":"B2094655D36CA7F5449E","title":"冠生园路沪闵路","lon":"121.43067","lat":"31.16351","category":"38","category_name":"公交车站","address":""},{"poiid":"B2094757D16EABFE469D","title":"一号线漕宝路站","lon":"121.434171986","lat":"31.1680311153","category":"500","category_name":"未知分类","address":"上海漕宝路"},{"poiid":"B2094757D16AA1FC4092","title":"玲珑面馆","lon":"121.432861086","lat":"31.1654510983","category":"68","category_name":"快餐厅","address":"徐汇区康健路11号(近沪闵路)"},{"poiid":"B2094654DB64A6F4409A","title":"汉庭快捷(光大店)","lon":"121.43547","lat":"31.16827","category":"216","category_name":"经济型连锁酒店","address":"徐汇区龙漕路2号(地铁1号线漕宝路站4号口)"},{"poiid":"B2094654DA65AAFF4592","title":"保利星苑","lon":"121.43556","lat":"31.164545","category":"47","category_name":"住宅区","address":"上海市徐汇区宾阳路28弄"},{"poiid":"B2094757D16AA4FF4093","title":"八五医院","lon":"121.435044586","lat":"31.1669841949","category":"162","category_name":"医院","address":"上海漕溪路"},{"poiid":"B2094757D465ABFC4499","title":"兴达餐厅","lon":"121.433852054","lat":"31.165282793","category":"76","category_name":"上海菜","address":"徐汇区康健路5号(沪闵路口)"},{"poiid":"B2094757D06BA1F94493","title":"漕河景苑","lon":"121.42992","lat":"31.164713","category":"47","category_name":"住宅区","address":"上海市徐汇区康健路58弄"},{"poiid":"B2094655D26FA6F5499C","title":"南天公寓","lon":"121.43349","lat":"31.165295","category":"47","category_name":"住宅区","address":"南天公寓位于徐汇康健路8号"},{"poiid":"B2094655D26FA6F5499F","title":"康惠苑","lon":"121.43216","lat":"31.16518","category":"47","category_name":"住宅区","address":"都林嘉园位于浦东浦东新区上南路3759弄1号"},{"poiid":"B2094654D564A0F4459A","title":"好德No.988","lon":"121.43366","lat":"31.1654","category":"117","category_name":"便民商店/便利店","address":"沪闵路9500-1识别"},{"poiid":"B2094654D564A0F4419A","title":"上海市第八人民医院(北门)","lon":"121.43288","lat":"31.16809","category":"656","category_name":"大门","address":"漕宝路8号"},{"poiid":"B2094654D564A0F4429D","title":"泰成商务楼","lon":"121.43392","lat":"31.16632","category":"46","category_name":"楼宇","address":"上海,上海市,沪闵路9510号"},{"poiid":"B2094757D16EA5F9439D","title":"卡好日本料理","lon":"121.42932","lat":"31.16821","category":"95","category_name":"日本料理","address":"徐汇区漕宝路59号(近光大会展中心)"},{"poiid":"B2094654D564A0F4459F","title":"文峰美发美容(康健路)","lon":"121.43273","lat":"31.16542","category":"148","category_name":"美容美发店","address":"康健路12"},{"poiid":"B2094757D568ABFE4098","title":"好德便利康闵店","lon":"121.433395","lat":"31.16542806","category":"117","category_name":"便民商店/便利店","address":"徐汇区康健路2号(沪闵路康健路)"},{"poiid":"B2094655D265A1FB489B","title":"公天南","lon":"121.43318","lat":"31.16548","category":"47","category_name":"住宅区","address":"康健路8号"},{"poiid":"B2094654DB6CA6F9459A","title":"闵行农资大楼","lon":"121.4336","lat":"31.16407","category":"46","category_name":"楼宇","address":"沪闵路9450"},{"poiid":"B2094757D16CA4F8419A","title":"MoTaTa’S  Paradise","lon":"121.43350058","lat":"31.164977155","category":"500","category_name":"未知分类","address":"上海闵行区漕宝路"},{"poiid":"B2094757D064A0FC479D","title":"河滨国际公寓","lon":"121.43147","lat":"31.164143","category":"47","category_name":"住宅区","address":"徐汇区钦州路211号(近康健路)"},{"poiid":"B2094655D265ABFA449A","title":"钦州路烧烤摊","lon":"121.43185","lat":"31.16248","category":"68","category_name":"快餐厅","address":"徐汇区钦州路111弄门口(近冠生园路)"},{"poiid":"B2094757D065A4F9439A","title":"霓","lon":"121.43356958","lat":"31.164964155","category":"500","category_name":"未知分类","address":null},{"poiid":"B2094654DA6DA2FA409E","title":"金湖世纪华联沪闵店","lon":"121.43473","lat":"31.16546","category":"117","category_name":"便民商店/便利店","address":"漕河泾镇"},{"poiid":"B2094757D06FA5F44498","title":"宜芝多(漕宝路店)","lon":"121.434270467","lat":"31.1685158217","category":"112","category_name":"糕饼店","address":"徐汇区漕宝路36号(漕溪路口)"},{"poiid":"B2094757D069A4FE4998","title":"浪漫满屋礼服馆","lon":"121.436008172","lat":"31.1681104698","category":"141","category_name":"服装鞋帽皮具店","address":"徐汇区华石路95号(近宜家家居)查看地图"},{"poiid":"B2094757D465A4FE4299","title":"重庆鸡公煲 康健路店","lon":"121.430665054","lat":"31.165526793","category":"71","category_name":"四川菜","address":"徐汇区康健路45号农工商超市附近(钦州路口)"},{"poiid":"B2094654D564A0FB4098","title":"光彩美容美发有限公司康健店","lon":"121.43255","lat":"31.16567","category":"148","category_name":"美容美发店","address":"徐汇区康健路19号(沪闵路口)"},{"poiid":"B2094757D168A7F5419D","title":"泰成花苑","lon":"121.4334","lat":"31.166222","category":"47","category_name":"住宅区","address":"上海沪闵路9512弄"},{"poiid":"B2094654D564A0F4449A","title":"上海真福餐厅","lon":"121.43392","lat":"31.16622","category":"90","category_name":"清真餐馆","address":"沪闵路9506-2识别"},{"poiid":"B2094654D564A0FB409F","title":"九弄小区(南门)","lon":"121.4323","lat":"31.16571","category":"47","category_name":"住宅区","address":"康健路25弄1-35号"},{"poiid":"B2094757D66AA0F9469D","title":"漕龙沈记酒楼","lon":"121.43443832498","lat":"31.168168938409","category":"76","category_name":"上海菜","address":"徐汇区漕溪路121号(近宜家)"},{"poiid":"B2094655D264A4F54099","title":"上海赛荣电器服务有限公司","lon":"121.43275","lat":"31.16542","category":"138","category_name":"家电电子卖场","address":"康健路12"},{"poiid":"B2094654D564A0F4429E","title":"市八医院发热门诊","lon":"121.43397","lat":"31.16693","category":"162","category_name":"医院","address":""},{"poiid":"B2094654DB6CA6F9429E","title":"闵冠商务中心","lon":"121.43319","lat":"31.16357","category":"46","category_name":"楼宇","address":"冠生园路8"},{"poiid":"B2094655D26FA6F5499E","title":"九弄小区","lon":"121.43225","lat":"31.166279","category":"47","category_name":"住宅区","address":"康健路25弄1-35号"},{"poiid":"B2094757D464AAF9469B","title":"集集小镇 龙漕店 Jijitown","lon":"121.434757054","lat":"31.168068793","category":"68","category_name":"快餐厅","address":"徐汇区龙漕路2号(近漕宝路)"},{"poiid":"B2094655D265A2FE469B","title":"望德幼儿园","lon":"121.43249","lat":"31.16348","category":"57","category_name":"幼儿园","address":"徐汇区冠生园路28号(近沪闵路)"},{"poiid":"B2094757D465A3FE489C","title":"四季草堂 漕溪路店","lon":"121.434560054","lat":"31.168550793","category":"76","category_name":"上海菜","address":"徐汇区漕溪路251弄望族城内(近漕宝路)"},{"poiid":"B2094654D564A0F4429C","title":"上海市第八人民医院中医门诊部","lon":"121.43398","lat":"31.16671","category":"162","category_name":"医院","address":"沪闵路9768"},{"poiid":"B2094655D36DA6FC419F","title":"漕河泾","lon":"121.4326","lat":"31.16836","category":"38","category_name":"公交车站","address":""},{"poiid":"B2094654DB6CA6F94193","title":"滬华公寓(南门)","lon":"121.43312","lat":"31.16364","category":"47","category_name":"住宅区","address":"冠生园路20号"},{"poiid":"B2094757D165A5FE4592","title":"沪华公寓","lon":"121.43333","lat":"31.163887","category":"252","category_name":"楼宇机构","address":"沪华公寓位于徐汇冠生园路20号"},{"poiid":"B2094654DB65A6FA429A","title":"上海市第八人民医院","lon":"121.43375046511653","lat":"31.167588930222983","category":"162","category_name":"医院","address":"徐汇区漕宝路8号(近漕溪路)"},{"poiid":"B2094654D564A3F8459C","title":"辛香汇(漕溪路)","lon":"121.43425","lat":"31.16899","category":"71","category_name":"四川菜","address":"徐汇区漕溪路280号(近漕宝路)"},{"poiid":"B2094757D06EABF5429D","title":"漕宝路地铁站","lon":"121.43500667","lat":"31.168222633","category":"36","category_name":"地铁站","address":"上海轨道交通,一号线,轨交漕宝路站,1"},{"poiid":"B2094757D66EA2FE449B","title":"上海大饭堂","lon":"121.43188458","lat":"31.165935174","category":"76","category_name":"上海菜","address":"徐汇区康健路28号(近钦州路)"},{"poiid":"B2094757D068A2FC4598","title":"西雅图","lon":"121.4369812","lat":"31.166835784","category":"500","category_name":"未知分类","address":"上海徐匯區三江路88號"},{"poiid":"B2094757D16CA6F84693","title":"沪闵高架南站上匝道","lon":"121.43315058","lat":"31.164494146","category":"500","category_name":"未知分类","address":"上海市徐汇区漕宝路"},{"poiid":"B2094654D564A0F4429A","title":"上海市第八人民医院门诊部","lon":"121.4341","lat":"31.16753","category":"162","category_name":"医院","address":"沪闵路9802"},{"poiid":"B2094750DA6EABFC469C","title":"徐家汇美罗城","lon":"121.4346","lat":"31.165288","category":"500","category_name":"未知分类","address":null},{"poiid":"B2094655D36CA7F5449E","title":"冠生园路沪闵路","lon":"121.43067","lat":"31.16351","category":"38","category_name":"公交车站","address":""},{"poiid":"B2094757D16EABFE469D","title":"一号线漕宝路站","lon":"121.434171986","lat":"31.1680311153","category":"500","category_name":"未知分类","address":"上海漕宝路"},{"poiid":"B2094757D16AA1FC4092","title":"玲珑面馆","lon":"121.432861086","lat":"31.1654510983","category":"68","category_name":"快餐厅","address":"徐汇区康健路11号(近沪闵路)"},{"poiid":"B2094654DB64A6F4409A","title":"汉庭快捷(光大店)","lon":"121.43547","lat":"31.16827","category":"216","category_name":"经济型连锁酒店","address":"徐汇区龙漕路2号(地铁1号线漕宝路站4号口)"},{"poiid":"B2094654DA65AAFF4592","title":"保利星苑","lon":"121.43556","lat":"31.164545","category":"47","category_name":"住宅区","address":"上海市徐汇区宾阳路28弄"},{"poiid":"B2094757D16AA4FF4093","title":"八五医院","lon":"121.435044586","lat":"31.1669841949","category":"162","category_name":"医院","address":"上海漕溪路"},{"poiid":"B2094757D465ABFC4499","title":"兴达餐厅","lon":"121.433852054","lat":"31.165282793","category":"76","category_name":"上海菜","address":"徐汇区康健路5号(沪闵路口)"},{"poiid":"B2094757D06BA1F94493","title":"漕河景苑","lon":"121.42992","lat":"31.164713","category":"47","category_name":"住宅区","address":"上海市徐汇区康健路58弄"},{"poiid":"B2094655D26FA6F5499C","title":"南天公寓","lon":"121.43349","lat":"31.165295","category":"47","category_name":"住宅区","address":"南天公寓位于徐汇康健路8号"},{"poiid":"B2094655D26FA6F5499F","title":"康惠苑","lon":"121.43216","lat":"31.16518","category":"47","category_name":"住宅区","address":"都林嘉园位于浦东浦东新区上南路3759弄1号"},{"poiid":"B2094654D564A0F4459A","title":"好德No.988","lon":"121.43366","lat":"31.1654","category":"117","category_name":"便民商店/便利店","address":"沪闵路9500-1识别"},{"poiid":"B2094654D564A0F4419A","title":"上海市第八人民医院(北门)","lon":"121.43288","lat":"31.16809","category":"656","category_name":"大门","address":"漕宝路8号"},{"poiid":"B2094654D564A0F4429D","title":"泰成商务楼","lon":"121.43392","lat":"31.16632","category":"46","category_name":"楼宇","address":"上海,上海市,沪闵路9510号"},{"poiid":"B2094757D16EA5F9439D","title":"卡好日本料理","lon":"121.42932","lat":"31.16821","category":"95","category_name":"日本料理","address":"徐汇区漕宝路59号(近光大会展中心)"},{"poiid":"B2094654D564A0F4459F","title":"文峰美发美容(康健路)","lon":"121.43273","lat":"31.16542","category":"148","category_name":"美容美发店","address":"康健路12"},{"poiid":"B2094757D568ABFE4098","title":"好德便利康闵店","lon":"121.433395","lat":"31.16542806","category":"117","category_name":"便民商店/便利店","address":"徐汇区康健路2号(沪闵路康健路)"},{"poiid":"B2094655D265A1FB489B","title":"公天南","lon":"121.43318","lat":"31.16548","category":"47","category_name":"住宅区","address":"康健路8号"},{"poiid":"B2094654DB6CA6F9459A","title":"闵行农资大楼","lon":"121.4336","lat":"31.16407","category":"46","category_name":"楼宇","address":"沪闵路9450"},{"poiid":"B2094757D16CA4F8419A","title":"MoTaTa’S  Paradise","lon":"121.43350058","lat":"31.164977155","category":"500","category_name":"未知分类","address":"上海闵行区漕宝路"},{"poiid":"B2094757D064A0FC479D","title":"河滨国际公寓","lon":"121.43147","lat":"31.164143","category":"47","category_name":"住宅区","address":"徐汇区钦州路211号(近康健路)"},{"poiid":"B2094655D265ABFA449A","title":"钦州路烧烤摊","lon":"121.43185","lat":"31.16248","category":"68","category_name":"快餐厅","address":"徐汇区钦州路111弄门口(近冠生园路)"},{"poiid":"B2094757D065A4F9439A","title":"霓","lon":"121.43356958","lat":"31.164964155","category":"500","category_name":"未知分类","address":null},{"poiid":"B2094654DA6DA2FA409E","title":"金湖世纪华联沪闵店","lon":"121.43473","lat":"31.16546","category":"117","category_name":"便民商店/便利店","address":"漕河泾镇"},{"poiid":"B2094757D06FA5F44498","title":"宜芝多(漕宝路店)","lon":"121.434270467","lat":"31.1685158217","category":"112","category_name":"糕饼店","address":"徐汇区漕宝路36号(漕溪路口)"},{"poiid":"B2094757D069A4FE4998","title":"浪漫满屋礼服馆","lon":"121.436008172","lat":"31.1681104698","category":"141","category_name":"服装鞋帽皮具店","address":"徐汇区华石路95号(近宜家家居)查看地图"},{"poiid":"B2094757D465A4FE4299","title":"重庆鸡公煲 康健路店","lon":"121.430665054","lat":"31.165526793","category":"71","category_name":"四川菜","address":"徐汇区康健路45号农工商超市附近(钦州路口)"},{"poiid":"B2094654D564A0FB4098","title":"光彩美容美发有限公司康健店","lon":"121.43255","lat":"31.16567","category":"148","category_name":"美容美发店","address":"徐汇区康健路19号(沪闵路口)"},{"poiid":"B2094757D168A7F5419D","title":"泰成花苑","lon":"121.4334","lat":"31.166222","category":"47","category_name":"住宅区","address":"上海沪闵路9512弄"},{"poiid":"B2094654D564A0F4449A","title":"上海真福餐厅","lon":"121.43392","lat":"31.16622","category":"90","category_name":"清真餐馆","address":"沪闵路9506-2识别"},{"poiid":"B2094654D564A0FB409F","title":"九弄小区(南门)","lon":"121.4323","lat":"31.16571","category":"47","category_name":"住宅区","address":"康健路25弄1-35号"},{"poiid":"B2094757D66AA0F9469D","title":"漕龙沈记酒楼","lon":"121.43443832498","lat":"31.168168938409","category":"76","category_name":"上海菜","address":"徐汇区漕溪路121号(近宜家)"},{"poiid":"B2094655D264A4F54099","title":"上海赛荣电器服务有限公司","lon":"121.43275","lat":"31.16542","category":"138","category_name":"家电电子卖场","address":"康健路12"},{"poiid":"B2094654D564A0F4429E","title":"市八医院发热门诊","lon":"121.43397","lat":"31.16693","category":"162","category_name":"医院","address":""},{"poiid":"B2094654DB6CA6F9429E","title":"闵冠商务中心","lon":"121.43319","lat":"31.16357","category":"46","category_name":"楼宇","address":"冠生园路8"},{"poiid":"B2094655D26FA6F5499E","title":"九弄小区","lon":"121.43225","lat":"31.166279","category":"47","category_name":"住宅区","address":"康健路25弄1-35号"},{"poiid":"B2094757D464AAF9469B","title":"集集小镇 龙漕店 Jijitown","lon":"121.434757054","lat":"31.168068793","category":"68","category_name":"快餐厅","address":"徐汇区龙漕路2号(近漕宝路)"},{"poiid":"B2094655D265A2FE469B","title":"望德幼儿园","lon":"121.43249","lat":"31.16348","category":"57","category_name":"幼儿园","address":"徐汇区冠生园路28号(近沪闵路)"},{"poiid":"B2094757D465A3FE489C","title":"四季草堂 漕溪路店","lon":"121.434560054","lat":"31.168550793","category":"76","category_name":"上海菜","address":"徐汇区漕溪路251弄望族城内(近漕宝路)"},{"poiid":"B2094654D564A0F4429C","title":"上海市第八人民医院中医门诊部","lon":"121.43398","lat":"31.16671","category":"162","category_name":"医院","address":"沪闵路9768"},{"poiid":"B2094655D36DA6FC419F","title":"漕河泾","lon":"121.4326","lat":"31.16836","category":"38","category_name":"公交车站","address":""},{"poiid":"B2094654DB6CA6F94193","title":"滬华公寓(南门)","lon":"121.43312","lat":"31.16364","category":"47","category_name":"住宅区","address":"冠生园路20号"},{"poiid":"B2094757D165A5FE4592","title":"沪华公寓","lon":"121.43333","lat":"31.163887","category":"252","category_name":"楼宇机构","address":"沪华公寓位于徐汇冠生园路20号"},{"poiid":"B2094654DB65A6FA429A","title":"上海市第八人民医院","lon":"121.43375046511653","lat":"31.167588930222983","category":"162","category_name":"医院","address":"徐汇区漕宝路8号(近漕溪路)"},{"poiid":"B2094654D564A3F8459C","title":"辛香汇(漕溪路)","lon":"121.43425","lat":"31.16899","category":"71","category_name":"四川菜","address":"徐汇区漕溪路280号(近漕宝路)"},{"poiid":"B2094757D06EABF5429D","title":"漕宝路地铁站","lon":"121.43500667","lat":"31.168222633","category":"36","category_name":"地铁站","address":"上海轨道交通,一号线,轨交漕宝路站,1"},{"poiid":"B2094757D66EA2FE449B","title":"上海大饭堂","lon":"121.43188458","lat":"31.165935174","category":"76","category_name":"上海菜","address":"徐汇区康健路28号(近钦州路)"},{"poiid":"B2094757D068A2FC4598","title":"西雅图","lon":"121.4369812","lat":"31.166835784","category":"500","category_name":"未知分类","address":"上海徐匯區三江路88號"},{"poiid":"B2094757D16CA6F84693","title":"沪闵高架南站上匝道","lon":"121.43315058","lat":"31.164494146","category":"500","category_name":"未知分类","address":"上海市徐汇区漕宝路"},{"poiid":"B2094654D564A0F4429A","title":"上海市第八人民医院门诊部","lon":"121.4341","lat":"31.16753","category":"162","category_name":"医院","address":"沪闵路9802"},{"poiid":"B2094750DA6EABFC469C","title":"徐家汇美罗城","lon":"121.4346","lat":"31.165288","category":"500","category_name":"未知分类","address":null},{"poiid":"B2094655D36CA7F5449E","title":"冠生园路沪闵路","lon":"121.43067","lat":"31.16351","category":"38","category_name":"公交车站","address":""},{"poiid":"B2094757D16EABFE469D","title":"一号线漕宝路站","lon":"121.434171986","lat":"31.1680311153","category":"500","category_name":"未知分类","address":"上海漕宝路"},{"poiid":"B2094757D16AA1FC4092","title":"玲珑面馆","lon":"121.432861086","lat":"31.1654510983","category":"68","category_name":"快餐厅","address":"徐汇区康健路11号(近沪闵路)"},{"poiid":"B2094654DB64A6F4409A","title":"汉庭快捷(光大店)","lon":"121.43547","lat":"31.16827","category":"216","category_name":"经济型连锁酒店","address":"徐汇区龙漕路2号(地铁1号线漕宝路站4号口)"},{"poiid":"B2094654DA65AAFF4592","title":"保利星苑","lon":"121.43556","lat":"31.164545","category":"47","category_name":"住宅区","address":"上海市徐汇区宾阳路28弄"},{"poiid":"B2094757D16AA4FF4093","title":"八五医院","lon":"121.435044586","lat":"31.1669841949","category":"162","category_name":"医院","address":"上海漕溪路"},{"poiid":"B2094757D465ABFC4499","title":"兴达餐厅","lon":"121.433852054","lat":"31.165282793","category":"76","category_name":"上海菜","address":"徐汇区康健路5号(沪闵路口)"},{"poiid":"B2094757D06BA1F94493","title":"漕河景苑","lon":"121.42992","lat":"31.164713","category":"47","category_name":"住宅区","address":"上海市徐汇区康健路58弄"},{"poiid":"B2094655D26FA6F5499C","title":"南天公寓","lon":"121.43349","lat":"31.165295","category":"47","category_name":"住宅区","address":"南天公寓位于徐汇康健路8号"},{"poiid":"B2094655D26FA6F5499F","title":"康惠苑","lon":"121.43216","lat":"31.16518","category":"47","category_name":"住宅区","address":"都林嘉园位于浦东浦东新区上南路3759弄1号"},{"poiid":"B2094654D564A0F4459A","title":"好德No.988","lon":"121.43366","lat":"31.1654","category":"117","category_name":"便民商店/便利店","address":"沪闵路9500-1识别"},{"poiid":"B2094654D564A0F4419A","title":"上海市第八人民医院(北门)","lon":"121.43288","lat":"31.16809","category":"656","category_name":"大门","address":"漕宝路8号"},{"poiid":"B2094654D564A0F4429D","title":"泰成商务楼","lon":"121.43392","lat":"31.16632","category":"46","category_name":"楼宇","address":"上海,上海市,沪闵路9510号"},{"poiid":"B2094757D16EA5F9439D","title":"卡好日本料理","lon":"121.42932","lat":"31.16821","category":"95","category_name":"日本料理","address":"徐汇区漕宝路59号(近光大会展中心)"},{"poiid":"B2094654D564A0F4459F","title":"文峰美发美容(康健路)","lon":"121.43273","lat":"31.16542","category":"148","category_name":"美容美发店","address":"康健路12"},{"poiid":"B2094757D568ABFE4098","title":"好德便利康闵店","lon":"121.433395","lat":"31.16542806","category":"117","category_name":"便民商店/便利店","address":"徐汇区康健路2号(沪闵路康健路)"},{"poiid":"B2094655D265A1FB489B","title":"公天南","lon":"121.43318","lat":"31.16548","category":"47","category_name":"住宅区","address":"康健路8号"},{"poiid":"B2094654DB6CA6F9459A","title":"闵行农资大楼","lon":"121.4336","lat":"31.16407","category":"46","category_name":"楼宇","address":"沪闵路9450"},{"poiid":"B2094757D16CA4F8419A","title":"MoTaTa’S  Paradise","lon":"121.43350058","lat":"31.164977155","category":"500","category_name":"未知分类","address":"上海闵行区漕宝路"},{"poiid":"B2094757D064A0FC479D","title":"河滨国际公寓","lon":"121.43147","lat":"31.164143","category":"47","category_name":"住宅区","address":"徐汇区钦州路211号(近康健路)"},{"poiid":"B2094655D265ABFA449A","title":"钦州路烧烤摊","lon":"121.43185","lat":"31.16248","category":"68","category_name":"快餐厅","address":"徐汇区钦州路111弄门口(近冠生园路)"},{"poiid":"B2094757D065A4F9439A","title":"霓","lon":"121.43356958","lat":"31.164964155","category":"500","category_name":"未知分类","address":null},{"poiid":"B2094654DA6DA2FA409E","title":"金湖世纪华联沪闵店","lon":"121.43473","lat":"31.16546","category":"117","category_name":"便民商店/便利店","address":"漕河泾镇"},{"poiid":"B2094757D06FA5F44498","title":"宜芝多(漕宝路店)","lon":"121.434270467","lat":"31.1685158217","category":"112","category_name":"糕饼店","address":"徐汇区漕宝路36号(漕溪路口)"},{"poiid":"B2094757D069A4FE4998","title":"浪漫满屋礼服馆","lon":"121.436008172","lat":"31.1681104698","category":"141","category_name":"服装鞋帽皮具店","address":"徐汇区华石路95号(近宜家家居)查看地图"},{"poiid":"B2094757D465A4FE4299","title":"重庆鸡公煲 康健路店","lon":"121.430665054","lat":"31.165526793","category":"71","category_name":"四川菜","address":"徐汇区康健路45号农工商超市附近(钦州路口)"},{"poiid":"B2094654D564A0FB4098","title":"光彩美容美发有限公司康健店","lon":"121.43255","lat":"31.16567","category":"148","category_name":"美容美发店","address":"徐汇区康健路19号(沪闵路口)"},{"poiid":"B2094757D168A7F5419D","title":"泰成花苑","lon":"121.4334","lat":"31.166222","category":"47","category_name":"住宅区","address":"上海沪闵路9512弄"},{"poiid":"B2094654D564A0F4449A","title":"上海真福餐厅","lon":"121.43392","lat":"31.16622","category":"90","category_name":"清真餐馆","address":"沪闵路9506-2识别"},{"poiid":"B2094654D564A0FB409F","title":"九弄小区(南门)","lon":"121.4323","lat":"31.16571","category":"47","category_name":"住宅区","address":"康健路25弄1-35号"},{"poiid":"B2094757D66AA0F9469D","title":"漕龙沈记酒楼","lon":"121.43443832498","lat":"31.168168938409","category":"76","category_name":"上海菜","address":"徐汇区漕溪路121号(近宜家)"},{"poiid":"B2094655D264A4F54099","title":"上海赛荣电器服务有限公司","lon":"121.43275","lat":"31.16542","category":"138","category_name":"家电电子卖场","address":"康健路12"},{"poiid":"B2094654D564A0F4429E","title":"市八医院发热门诊","lon":"121.43397","lat":"31.16693","category":"162","category_name":"医院","address":""},{"poiid":"B2094654DB6CA6F9429E","title":"闵冠商务中心","lon":"121.43319","lat":"31.16357","category":"46","category_name":"楼宇","address":"冠生园路8"},{"poiid":"B2094655D26FA6F5499E","title":"九弄小区","lon":"121.43225","lat":"31.166279","category":"47","category_name":"住宅区","address":"康健路25弄1-35号"},{"poiid":"B2094757D464AAF9469B","title":"集集小镇 龙漕店 Jijitown","lon":"121.434757054","lat":"31.168068793","category":"68","category_name":"快餐厅","address":"徐汇区龙漕路2号(近漕宝路)"},{"poiid":"B2094655D265A2FE469B","title":"望德幼儿园","lon":"121.43249","lat":"31.16348","category":"57","category_name":"幼儿园","address":"徐汇区冠生园路28号(近沪闵路)"},{"poiid":"B2094757D465A3FE489C","title":"四季草堂 漕溪路店","lon":"121.434560054","lat":"31.168550793","category":"76","category_name":"上海菜","address":"徐汇区漕溪路251弄望族城内(近漕宝路)"},{"poiid":"B2094654D564A0F4429C","title":"上海市第八人民医院中医门诊部","lon":"121.43398","lat":"31.16671","category":"162","category_name":"医院","address":"沪闵路9768"},{"poiid":"B2094655D36DA6FC419F","title":"漕河泾","lon":"121.4326","lat":"31.16836","category":"38","category_name":"公交车站","address":""},{"poiid":"B2094654DB6CA6F94193","title":"滬华公寓(南门)","lon":"121.43312","lat":"31.16364","category":"47","category_name":"住宅区","address":"冠生园路20号"},{"poiid":"B2094757D165A5FE4592","title":"沪华公寓","lon":"121.43333","lat":"31.163887","category":"252","category_name":"楼宇机构","address":"沪华公寓位于徐汇冠生园路20号"},{"poiid":"B2094654DB65A6FA429A","title":"上海市第八人民医院","lon":"121.43375046511653","lat":"31.167588930222983","category":"162","category_name":"医院","address":"徐汇区漕宝路8号(近漕溪路)"},{"poiid":"B2094654D564A3F8459C","title":"辛香汇(漕溪路)","lon":"121.43425","lat":"31.16899","category":"71","category_name":"四川菜","address":"徐汇区漕溪路280号(近漕宝路)"},{"poiid":"B2094757D06EABF5429D","title":"漕宝路地铁站","lon":"121.43500667","lat":"31.168222633","category":"36","category_name":"地铁站","address":"上海轨道交通,一号线,轨交漕宝路站,1"},{"poiid":"B2094757D66EA2FE449B","title":"上海大饭堂","lon":"121.43188458","lat":"31.165935174","category":"76","category_name":"上海菜","address":"徐汇区康健路28号(近钦州路)"},{"poiid":"B2094757D068A2FC4598","title":"西雅图","lon":"121.4369812","lat":"31.166835784","category":"500","category_name":"未知分类","address":"上海徐匯區三江路88號"},{"poiid":"B2094757D16CA6F84693","title":"沪闵高架南站上匝道","lon":"121.43315058","lat":"31.164494146","category":"500","category_name":"未知分类","address":"上海市徐汇区漕宝路"},{"poiid":"B2094654D564A0F4429A","title":"上海市第八人民医院门诊部","lon":"121.4341","lat":"31.16753","category":"162","category_name":"医院","address":"沪闵路9802"},{"poiid":"B2094750DA6EABFC469C","title":"徐家汇美罗城","lon":"121.4346","lat":"31.165288","category":"500","category_name":"未知分类","address":null},{"poiid":"B2094655D36CA7F5449E","title":"冠生园路沪闵路","lon":"121.43067","lat":"31.16351","category":"38","category_name":"公交车站","address":""},{"poiid":"B2094757D16EABFE469D","title":"一号线漕宝路站","lon":"121.434171986","lat":"31.1680311153","category":"500","category_name":"未知分类","address":"上海漕宝路"},{"poiid":"B2094757D16AA1FC4092","title":"玲珑面馆","lon":"121.432861086","lat":"31.1654510983","category":"68","category_name":"快餐厅","address":"徐汇区康健路11号(近沪闵路)"},{"poiid":"B2094654DB64A6F4409A","title":"汉庭快捷(光大店)","lon":"121.43547","lat":"31.16827","category":"216","category_name":"经济型连锁酒店","address":"徐汇区龙漕路2号(地铁1号线漕宝路站4号口)"},{"poiid":"B2094654DA65AAFF4592","title":"保利星苑","lon":"121.43556","lat":"31.164545","category":"47","category_name":"住宅区","address":"上海市徐汇区宾阳路28弄"},{"poiid":"B2094757D16AA4FF4093","title":"八五医院","lon":"121.435044586","lat":"31.1669841949","category":"162","category_name":"医院","address":"上海漕溪路"},{"poiid":"B2094757D465ABFC4499","title":"兴达餐厅","lon":"121.433852054","lat":"31.165282793","category":"76","category_name":"上海菜","address":"徐汇区康健路5号(沪闵路口)"},{"poiid":"B2094757D06BA1F94493","title":"漕河景苑","lon":"121.42992","lat":"31.164713","category":"47","category_name":"住宅区","address":"上海市徐汇区康健路58弄"},{"poiid":"B2094655D26FA6F5499C","title":"南天公寓","lon":"121.43349","lat":"31.165295","category":"47","category_name":"住宅区","address":"南天公寓位于徐汇康健路8号"},{"poiid":"B2094655D26FA6F5499F","title":"康惠苑","lon":"121.43216","lat":"31.16518","category":"47","category_name":"住宅区","address":"都林嘉园位于浦东浦东新区上南路3759弄1号"},{"poiid":"B2094654D564A0F4459A","title":"好德No.988","lon":"121.43366","lat":"31.1654","category":"117","category_name":"便民商店/便利店","address":"沪闵路9500-1识别"},{"poiid":"B2094654D564A0F4419A","title":"上海市第八人民医院(北门)","lon":"121.43288","lat":"31.16809","category":"656","category_name":"大门","address":"漕宝路8号"},{"poiid":"B2094654D564A0F4429D","title":"泰成商务楼","lon":"121.43392","lat":"31.16632","category":"46","category_name":"楼宇","address":"上海,上海市,沪闵路9510号"},{"poiid":"B2094757D16EA5F9439D","title":"卡好日本料理","lon":"121.42932","lat":"31.16821","category":"95","category_name":"日本料理","address":"徐汇区漕宝路59号(近光大会展中心)"},{"poiid":"B2094654D564A0F4459F","title":"文峰美发美容(康健路)","lon":"121.43273","lat":"31.16542","category":"148","category_name":"美容美发店","address":"康健路12"},{"poiid":"B2094757D568ABFE4098","title":"好德便利康闵店","lon":"121.433395","lat":"31.16542806","category":"117","category_name":"便民商店/便利店","address":"徐汇区康健路2号(沪闵路康健路)"},{"poiid":"B2094655D265A1FB489B","title":"公天南","lon":"121.43318","lat":"31.16548","category":"47","category_name":"住宅区","address":"康健路8号"},{"poiid":"B2094654DB6CA6F9459A","title":"闵行农资大楼","lon":"121.4336","lat":"31.16407","category":"46","category_name":"楼宇","address":"沪闵路9450"},{"poiid":"B2094757D16CA4F8419A","title":"MoTaTa’S  Paradise","lon":"121.43350058","lat":"31.164977155","category":"500","category_name":"未知分类","address":"上海闵行区漕宝路"},{"poiid":"B2094757D064A0FC479D","title":"河滨国际公寓","lon":"121.43147","lat":"31.164143","category":"47","category_name":"住宅区","address":"徐汇区钦州路211号(近康健路)"},{"poiid":"B2094655D265ABFA449A","title":"钦州路烧烤摊","lon":"121.43185","lat":"31.16248","category":"68","category_name":"快餐厅","address":"徐汇区钦州路111弄门口(近冠生园路)"},{"poiid":"B2094757D065A4F9439A","title":"霓","lon":"121.43356958","lat":"31.164964155","category":"500","category_name":"未知分类","address":null},{"poiid":"B2094654DA6DA2FA409E","title":"金湖世纪华联沪闵店","lon":"121.43473","lat":"31.16546","category":"117","category_name":"便民商店/便利店","address":"漕河泾镇"},{"poiid":"B2094757D06FA5F44498","title":"宜芝多(漕宝路店)","lon":"121.434270467","lat":"31.1685158217","category":"112","category_name":"糕饼店","address":"徐汇区漕宝路36号(漕溪路口)"},{"poiid":"B2094757D069A4FE4998","title":"浪漫满屋礼服馆","lon":"121.436008172","lat":"31.1681104698","category":"141","category_name":"服装鞋帽皮具店","address":"徐汇区华石路95号(近宜家家居)查看地图"},{"poiid":"B2094757D465A4FE4299","title":"重庆鸡公煲 康健路店","lon":"121.430665054","lat":"31.165526793","category":"71","category_name":"四川菜","address":"徐汇区康健路45号农工商超市附近(钦州路口)"},{"poiid":"B2094654D564A0FB4098","title":"光彩美容美发有限公司康健店","lon":"121.43255","lat":"31.16567","category":"148","category_name":"美容美发店","address":"徐汇区康健路19号(沪闵路口)"},{"poiid":"B2094757D168A7F5419D","title":"泰成花苑","lon":"121.4334","lat":"31.166222","category":"47","category_name":"住宅区","address":"上海沪闵路9512弄"},{"poiid":"B2094654D564A0F4449A","title":"上海真福餐厅","lon":"121.43392","lat":"31.16622","category":"90","category_name":"清真餐馆","address":"沪闵路9506-2识别"},{"poiid":"B2094654D564A0FB409F","title":"九弄小区(南门)","lon":"121.4323","lat":"31.16571","category":"47","category_name":"住宅区","address":"康健路25弄1-35号"},{"poiid":"B2094757D66AA0F9469D","title":"漕龙沈记酒楼","lon":"121.43443832498","lat":"31.168168938409","category":"76","category_name":"上海菜","address":"徐汇区漕溪路121号(近宜家)"},{"poiid":"B2094655D264A4F54099","title":"上海赛荣电器服务有限公司","lon":"121.43275","lat":"31.16542","category":"138","category_name":"家电电子卖场","address":"康健路12"},{"poiid":"B2094654D564A0F4429E","title":"市八医院发热门诊","lon":"121.43397","lat":"31.16693","category":"162","category_name":"医院","address":""},{"poiid":"B2094654DB6CA6F9429E","title":"闵冠商务中心","lon":"121.43319","lat":"31.16357","category":"46","category_name":"楼宇","address":"冠生园路8"},{"poiid":"B2094655D26FA6F5499E","title":"九弄小区","lon":"121.43225","lat":"31.166279","category":"47","category_name":"住宅区","address":"康健路25弄1-35号"},{"poiid":"B2094757D464AAF9469B","title":"集集小镇 龙漕店 Jijitown","lon":"121.434757054","lat":"31.168068793","category":"68","category_name":"快餐厅","address":"徐汇区龙漕路2号(近漕宝路)"},{"poiid":"B2094655D265A2FE469B","title":"望德幼儿园","lon":"121.43249","lat":"31.16348","category":"57","category_name":"幼儿园","address":"徐汇区冠生园路28号(近沪闵路)"},{"poiid":"B2094757D465A3FE489C","title":"四季草堂 漕溪路店","lon":"121.434560054","lat":"31.168550793","category":"76","category_name":"上海菜","address":"徐汇区漕溪路251弄望族城内(近漕宝路)"},{"poiid":"B2094654D564A0F4429C","title":"上海市第八人民医院中医门诊部","lon":"121.43398","lat":"31.16671","category":"162","category_name":"医院","address":"沪闵路9768"},{"poiid":"B2094655D36DA6FC419F","title":"漕河泾","lon":"121.4326","lat":"31.16836","category":"38","category_name":"公交车站","address":""},{"poiid":"B2094654DB6CA6F94193","title":"滬华公寓(南门)","lon":"121.43312","lat":"31.16364","category":"47","category_name":"住宅区","address":"冠生园路20号"},{"poiid":"B2094757D165A5FE4592","title":"沪华公寓","lon":"121.43333","lat":"31.163887","category":"252","category_name":"楼宇机构","address":"沪华公寓位于徐汇冠生园路20号"}]