[{"poiid":"B2094654D56CA1FF439D","title":"曲阳影都","lon":"121.49093","lat":"31.28035","category":"178","category_name":"电影院","address":"虹口区曲阳路570号曲阳花鸟市场内(近玉田路)"},{"poiid":"B2094757DA6FA3F4409B","title":"唐苑寿喜烧","lon":"121.491050999997","lat":"31.279684","category":"71","category_name":"四川菜","address":"虹口区曲阳路566号(近玉田路)"},{"poiid":"B2094654DB6AAAFF489D","title":"麦当劳(曲阳路店)","lon":"121.49094","lat":"31.28005","category":"68","category_name":"快餐厅","address":"虹口区曲阳路570号(近玉田路)"},{"poiid":"B2094757D06FA3F94193","title":"曲阳图书馆","lon":"121.49217","lat":"31.28077","category":"181","category_name":"图书馆","address":"虹口区曲阳路574号(近玉田路)"},{"poiid":"B2094654DB65A6FD499C","title":"同济大学(南二门)","lon":"121.49676","lat":"31.28203","category":"52","category_name":"高等院校","address":"杨浦区赤峰路200"},{"poiid":"B2094757D06FA1FB469D","title":"必胜客(曲阳店)","lon":"121.490361","lat":"31.279427","category":"94","category_name":"西餐厅","address":"虹口区曲阳路555号(近玉田路)"},{"poiid":"B2094757D06FA1FF4698","title":"玉田路曲阳路","lon":"121.49210357","lat":"31.279180526","category":"500","category_name":"未知分类","address":"上海玉田路曲阳路"},{"poiid":"B2094655D26EA0FD4299","title":"家乐福(曲阳店)","lon":"121.49092","lat":"31.27969","category":"118","category_name":"超级市场","address":"虹口区曲阳路560号(近玉田路)"},{"poiid":"B2094757D06FA2F5499E","title":"玉田新村","lon":"121.494806","lat":"31.277934","category":"47","category_name":"住宅区","address":"上海虹口区大连西路96号,玉田路311弄"},{"poiid":"B2094757D064A1F4449A","title":"cat eyes 猫咪咖啡屋","lon":"121.49189","lat":"31.27938","category":"260","category_name":"其他","address":"杨浦区国顺路66弄怡福苑1号楼18楼1804室(近黄兴路)"},{"poiid":"B2094757D06BA7FF4693","title":"同济大学第三教学楼","lon":"121.4954971","lat":"31.280194715","category":"52","category_name":"高等院校","address":"上海赤峰路67号"},{"poiid":"B2094757D06FA2FD499C","title":"85度C(赤峰店)","lon":"121.493393","lat":"31.282058","category":"112","category_name":"糕饼店","address":"虹口区赤峰路329号(近密云路)"},{"poiid":"B2094757D06FA6F84499","title":"肯德基 KFC (玉田店)","lon":"121.491051","lat":"31.279684","category":"68","category_name":"快餐厅","address":"虹口区曲阳路566号家乐福B1楼(近玉田路)"},{"poiid":"B2094654DB69A4FF409E","title":"味千拉面(曲阳店)","lon":"121.49133","lat":"31.27996","category":"95","category_name":"日本料理","address":"虹口区曲阳路570号东楼5单元曲阳家乐福旁(近玉田路)"},{"poiid":"B2094757D068A2FC419B","title":"乐凯迪KTV","lon":"121.49103","lat":"31.28092","category":"170","category_name":"KTV","address":"虹口区曲阳路566号6楼(近玉田路)"},{"poiid":"B2094757D06FA7F4459B","title":"伶达港骨头皇火锅(曲阳店)","lon":"121.49248","lat":"31.27901","category":"86","category_name":"火锅店","address":"虹口区玉田路278号(近曲阳路)"},{"poiid":"B2094655D26FA0F94892","title":"庐迅大厦","lon":"121.493","lat":"31.2794","category":"46","category_name":"楼宇","address":"庐迅大厦位于虹口欧阳路568号"},{"poiid":"B2094757D068A2F5429B","title":"振鼎鸡(玉田路店)","lon":"121.49364","lat":"31.27837","category":"68","category_name":"快餐厅","address":"虹口区玉田路260号(近曲阳路)"},{"poiid":"B2094757D06BA4F94098","title":"交行上分培训中心","lon":"121.498069","lat":"31.281133","category":"253","category_name":"校园生活","address":"上海赤峰路89弄"},{"poiid":"B2094757D06FA4F94392","title":"康美健身中心(曲阳店)","lon":"121.49111","lat":"31.27934","category":"221","category_name":"健身中心","address":"上海虹口区曲阳路560号家乐福4楼(近玉田路)"},{"poiid":"B2094654D56CA0F9429C","title":"中原证券大厦","lon":"121.494","lat":"31.2818","category":"46","category_name":"楼宇","address":"浦东区崂山东路410号"},{"poiid":"B2094655D26AA3FA4098","title":"婚姻登记处虹口区登记处","lon":"121.4943","lat":"31.27896","category":"247","category_name":"餐饮美食","address":"虹口区玉田路195号(近密云路)"},{"poiid":"B2094655D26FA5FF459F","title":"欧阳大厦","lon":"121.493","lat":"31.2799","category":"46","category_name":"楼宇","address":"欧阳路561号11楼G室"},{"poiid":"B2094757D16FA0F9479C","title":"黄记烤鸭","lon":"121.49384","lat":"31.27901","category":"68","category_name":"快餐厅","address":"虹口区玉田路260号(近曲阳路)"},{"poiid":"B2094757D06AA7F54992","title":"老顺昌苏州汤包馆","lon":"121.494729136","lat":"31.2780579315","category":"68","category_name":"快餐厅","address":"虹口区玉田路226号"},{"poiid":"B2094654D56CA1FF4592","title":"新亚大包 玉田支路","lon":"121.4925952836","lat":"31.281719267972","category":"68","category_name":"快餐厅","address":"虹口区玉田支路9号(近家乐福)"},{"poiid":"B2094757D06BA1FE459F","title":"曲阳第二中学","lon":"121.49568","lat":"31.27895","category":"55","category_name":"中学","address":"上海虹口区玉田路180号(近密云路)"},{"poiid":"B2094654D56CA1FF4692","title":"西域烧烤","lon":"121.49244","lat":"31.28055","category":"68","category_name":"快餐厅","address":"虹口区玉田支路19号曲阳浴室附近(近家乐福)"},{"poiid":"B2094757D46AA7FE4393","title":"宋氏龙虾","lon":"121.49633","lat":"31.28002","category":"68","category_name":"快餐厅","address":"虹口区广灵四路240-1号(近水电路)"},{"poiid":"B2094750D76DAAF94099","title":"米舞寿司","lon":"121.494","lat":"31.279","category":"95","category_name":"日本料理","address":"虹口区玉田路6号(近密云路)"},{"poiid":"B2094655D269AAF5409B","title":"高艺职业技能培训学校","lon":"121.49471","lat":"31.27926","category":"247","category_name":"餐饮美食","address":"虹口区玉田路222号(近曲阳路)"},{"poiid":"B2094655D26CA1F8459F","title":"玉田大楼(南门)","lon":"121.49485","lat":"31.27983","category":"47","category_name":"住宅区","address":"玉田路216号"},{"poiid":"B2094654DB65A7FE4598","title":"元祖 玉田路店 Ganso","lon":"121.491706054","lat":"31.279486793","category":"112","category_name":"糕饼店","address":"玉田路206-208号近曲阳路"},{"poiid":"B2094753D76CA2F94693","title":"甜猫港式甜品","lon":"121.493003","lat":"31.281005","category":"247","category_name":"餐饮美食","address":"上海市 虹口区玉田之路19号"},{"poiid":"B2094654D56CA1F9499B","title":"上海市迅行中学","lon":"121.49359","lat":"31.27886","category":"55","category_name":"中学","address":"虹口区玉田路211号(近曲阳路)"},{"poiid":"B2094654D56CA1F94292","title":"永琪美容美发(玉田路)","lon":"121.49365","lat":"31.27927","category":"148","category_name":"美容美发店","address":"虹口区玉田路260号(近曲阳路)"},{"poiid":"B2094757D06BA3F5409F","title":"朱记美食","lon":"121.495479103","lat":"31.2823556717","category":"76","category_name":"上海菜","address":"虹口区赤峰路(近密云路)"},{"poiid":"B2094655D36CA2F9409C","title":"曲阳新村","lon":"121.49267","lat":"31.28051","category":"47","category_name":"住宅区","address":"玉田路432弄1-11号"},{"poiid":"B2094753D26DA5FB459D","title":"地铁站","lon":"121.497302","lat":"31.277283","category":"36","category_name":"地铁站","address":"上海市 10号线"},{"poiid":"B2094654DB6AAAF8429F","title":"密云小区(西一门)","lon":"121.4966","lat":"31.27913","category":"47","category_name":"住宅区","address":"密云路444弄"},{"poiid":"B2094750D76DA4FD4093","title":"宫の寿司","lon":"121.495","lat":"31.2823","category":"95","category_name":"日本料理","address":"虹口区赤峰路322号(近同济大学)"},{"poiid":"B2094655D26AAAFB4992","title":"大佬馆 赤峰店","lon":"121.491621","lat":"31.281819","category":"76","category_name":"上海菜","address":"虹口区赤峰路329号(近曲阳路)"},{"poiid":"B2094757D065A0F9479C","title":"晨兴食府","lon":"121.49651013","lat":"31.278420289","category":"76","category_name":"上海菜","address":"虹口区密云路420号(近玉田路)"},{"poiid":"B2094654D56CA1F5479A","title":"大秦富贵(密云路店)","lon":"121.49629","lat":"31.28345","category":"68","category_name":"快餐厅","address":"虹口区密云路540号(近赤峰路)"},{"poiid":"B2094654D56CA1F94498","title":"上海市食品药品监督管理局虹口分局","lon":"121.49471","lat":"31.27926","category":"250","category_name":"公园户外","address":"玉田路222号"},{"poiid":"B2094752D268AAF8449B","title":"上海肺科医院","lon":"121.495453","lat":"31.281235","category":"162","category_name":"医院","address":"政民路507号"},{"poiid":"B2094654D56CA1FA4799","title":"美国西海岸大学","lon":"121.49609","lat":"31.27933","category":"52","category_name":"高等院校","address":"虹口区密云路375-377"},{"poiid":"B2094654D56CA1FA4798","title":"东北人家饺子王","lon":"121.49623","lat":"31.27874","category":"82","category_name":"东北菜","address":"虹口区密云路353号(近玉田路)"},{"poiid":"B2094750D76FA7FE4293","title":"顺记广东菜","lon":"121.491","lat":"31.2803","category":"72","category_name":"广东菜","address":"虹口区曲阳路570号"},{"poiid":"B2094654DB6AAAF8429C","title":"密云小区(西二门)","lon":"121.49636","lat":"31.28068","category":"47","category_name":"住宅区","address":"密云路454弄"},{"poiid":"B2094654D56CA1FF439D","title":"曲阳影都","lon":"121.49093","lat":"31.28035","category":"178","category_name":"电影院","address":"虹口区曲阳路570号曲阳花鸟市场内(近玉田路)"},{"poiid":"B2094757DA6FA3F4409B","title":"唐苑寿喜烧","lon":"121.491050999997","lat":"31.279684","category":"71","category_name":"四川菜","address":"虹口区曲阳路566号(近玉田路)"},{"poiid":"B2094654DB6AAAFF489D","title":"麦当劳(曲阳路店)","lon":"121.49094","lat":"31.28005","category":"68","category_name":"快餐厅","address":"虹口区曲阳路570号(近玉田路)"},{"poiid":"B2094757D06FA3F94193","title":"曲阳图书馆","lon":"121.49217","lat":"31.28077","category":"181","category_name":"图书馆","address":"虹口区曲阳路574号(近玉田路)"},{"poiid":"B2094654DB65A6FD499C","title":"同济大学(南二门)","lon":"121.49676","lat":"31.28203","category":"52","category_name":"高等院校","address":"杨浦区赤峰路200"},{"poiid":"B2094757D06FA1FB469D","title":"必胜客(曲阳店)","lon":"121.490361","lat":"31.279427","category":"94","category_name":"西餐厅","address":"虹口区曲阳路555号(近玉田路)"},{"poiid":"B2094757D06FA1FF4698","title":"玉田路曲阳路","lon":"121.49210357","lat":"31.279180526","category":"500","category_name":"未知分类","address":"上海玉田路曲阳路"},{"poiid":"B2094655D26EA0FD4299","title":"家乐福(曲阳店)","lon":"121.49092","lat":"31.27969","category":"118","category_name":"超级市场","address":"虹口区曲阳路560号(近玉田路)"},{"poiid":"B2094757D06FA2F5499E","title":"玉田新村","lon":"121.494806","lat":"31.277934","category":"47","category_name":"住宅区","address":"上海虹口区大连西路96号,玉田路311弄"},{"poiid":"B2094757D064A1F4449A","title":"cat eyes 猫咪咖啡屋","lon":"121.49189","lat":"31.27938","category":"260","category_name":"其他","address":"杨浦区国顺路66弄怡福苑1号楼18楼1804室(近黄兴路)"},{"poiid":"B2094757D06BA7FF4693","title":"同济大学第三教学楼","lon":"121.4954971","lat":"31.280194715","category":"52","category_name":"高等院校","address":"上海赤峰路67号"},{"poiid":"B2094757D06FA2FD499C","title":"85度C(赤峰店)","lon":"121.493393","lat":"31.282058","category":"112","category_name":"糕饼店","address":"虹口区赤峰路329号(近密云路)"},{"poiid":"B2094757D06FA6F84499","title":"肯德基 KFC (玉田店)","lon":"121.491051","lat":"31.279684","category":"68","category_name":"快餐厅","address":"虹口区曲阳路566号家乐福B1楼(近玉田路)"},{"poiid":"B2094654DB69A4FF409E","title":"味千拉面(曲阳店)","lon":"121.49133","lat":"31.27996","category":"95","category_name":"日本料理","address":"虹口区曲阳路570号东楼5单元曲阳家乐福旁(近玉田路)"},{"poiid":"B2094757D068A2FC419B","title":"乐凯迪KTV","lon":"121.49103","lat":"31.28092","category":"170","category_name":"KTV","address":"虹口区曲阳路566号6楼(近玉田路)"},{"poiid":"B2094757D06FA7F4459B","title":"伶达港骨头皇火锅(曲阳店)","lon":"121.49248","lat":"31.27901","category":"86","category_name":"火锅店","address":"虹口区玉田路278号(近曲阳路)"},{"poiid":"B2094655D26FA0F94892","title":"庐迅大厦","lon":"121.493","lat":"31.2794","category":"46","category_name":"楼宇","address":"庐迅大厦位于虹口欧阳路568号"},{"poiid":"B2094757D068A2F5429B","title":"振鼎鸡(玉田路店)","lon":"121.49364","lat":"31.27837","category":"68","category_name":"快餐厅","address":"虹口区玉田路260号(近曲阳路)"},{"poiid":"B2094757D06BA4F94098","title":"交行上分培训中心","lon":"121.498069","lat":"31.281133","category":"253","category_name":"校园生活","address":"上海赤峰路89弄"},{"poiid":"B2094757D06FA4F94392","title":"康美健身中心(曲阳店)","lon":"121.49111","lat":"31.27934","category":"221","category_name":"健身中心","address":"上海虹口区曲阳路560号家乐福4楼(近玉田路)"},{"poiid":"B2094654D56CA0F9429C","title":"中原证券大厦","lon":"121.494","lat":"31.2818","category":"46","category_name":"楼宇","address":"浦东区崂山东路410号"},{"poiid":"B2094655D26AA3FA4098","title":"婚姻登记处虹口区登记处","lon":"121.4943","lat":"31.27896","category":"247","category_name":"餐饮美食","address":"虹口区玉田路195号(近密云路)"},{"poiid":"B2094655D26FA5FF459F","title":"欧阳大厦","lon":"121.493","lat":"31.2799","category":"46","category_name":"楼宇","address":"欧阳路561号11楼G室"},{"poiid":"B2094757D16FA0F9479C","title":"黄记烤鸭","lon":"121.49384","lat":"31.27901","category":"68","category_name":"快餐厅","address":"虹口区玉田路260号(近曲阳路)"},{"poiid":"B2094757D06AA7F54992","title":"老顺昌苏州汤包馆","lon":"121.494729136","lat":"31.2780579315","category":"68","category_name":"快餐厅","address":"虹口区玉田路226号"},{"poiid":"B2094654D56CA1FF4592","title":"新亚大包 玉田支路","lon":"121.4925952836","lat":"31.281719267972","category":"68","category_name":"快餐厅","address":"虹口区玉田支路9号(近家乐福)"},{"poiid":"B2094757D06BA1FE459F","title":"曲阳第二中学","lon":"121.49568","lat":"31.27895","category":"55","category_name":"中学","address":"上海虹口区玉田路180号(近密云路)"},{"poiid":"B2094654D56CA1FF4692","title":"西域烧烤","lon":"121.49244","lat":"31.28055","category":"68","category_name":"快餐厅","address":"虹口区玉田支路19号曲阳浴室附近(近家乐福)"},{"poiid":"B2094757D46AA7FE4393","title":"宋氏龙虾","lon":"121.49633","lat":"31.28002","category":"68","category_name":"快餐厅","address":"虹口区广灵四路240-1号(近水电路)"},{"poiid":"B2094750D76DAAF94099","title":"米舞寿司","lon":"121.494","lat":"31.279","category":"95","category_name":"日本料理","address":"虹口区玉田路6号(近密云路)"},{"poiid":"B2094655D269AAF5409B","title":"高艺职业技能培训学校","lon":"121.49471","lat":"31.27926","category":"247","category_name":"餐饮美食","address":"虹口区玉田路222号(近曲阳路)"},{"poiid":"B2094655D26CA1F8459F","title":"玉田大楼(南门)","lon":"121.49485","lat":"31.27983","category":"47","category_name":"住宅区","address":"玉田路216号"},{"poiid":"B2094654DB65A7FE4598","title":"元祖 玉田路店 Ganso","lon":"121.491706054","lat":"31.279486793","category":"112","category_name":"糕饼店","address":"玉田路206-208号近曲阳路"},{"poiid":"B2094753D76CA2F94693","title":"甜猫港式甜品","lon":"121.493003","lat":"31.281005","category":"247","category_name":"餐饮美食","address":"上海市 虹口区玉田之路19号"},{"poiid":"B2094654D56CA1F9499B","title":"上海市迅行中学","lon":"121.49359","lat":"31.27886","category":"55","category_name":"中学","address":"虹口区玉田路211号(近曲阳路)"},{"poiid":"B2094654D56CA1F94292","title":"永琪美容美发(玉田路)","lon":"121.49365","lat":"31.27927","category":"148","category_name":"美容美发店","address":"虹口区玉田路260号(近曲阳路)"},{"poiid":"B2094757D06BA3F5409F","title":"朱记美食","lon":"121.495479103","lat":"31.2823556717","category":"76","category_name":"上海菜","address":"虹口区赤峰路(近密云路)"},{"poiid":"B2094655D36CA2F9409C","title":"曲阳新村","lon":"121.49267","lat":"31.28051","category":"47","category_name":"住宅区","address":"玉田路432弄1-11号"},{"poiid":"B2094753D26DA5FB459D","title":"地铁站","lon":"121.497302","lat":"31.277283","category":"36","category_name":"地铁站","address":"上海市 10号线"},{"poiid":"B2094654DB6AAAF8429F","title":"密云小区(西一门)","lon":"121.4966","lat":"31.27913","category":"47","category_name":"住宅区","address":"密云路444弄"},{"poiid":"B2094750D76DA4FD4093","title":"宫の寿司","lon":"121.495","lat":"31.2823","category":"95","category_name":"日本料理","address":"虹口区赤峰路322号(近同济大学)"},{"poiid":"B2094655D26AAAFB4992","title":"大佬馆 赤峰店","lon":"121.491621","lat":"31.281819","category":"76","category_name":"上海菜","address":"虹口区赤峰路329号(近曲阳路)"},{"poiid":"B2094757D065A0F9479C","title":"晨兴食府","lon":"121.49651013","lat":"31.278420289","category":"76","category_name":"上海菜","address":"虹口区密云路420号(近玉田路)"},{"poiid":"B2094654D56CA1F5479A","title":"大秦富贵(密云路店)","lon":"121.49629","lat":"31.28345","category":"68","category_name":"快餐厅","address":"虹口区密云路540号(近赤峰路)"},{"poiid":"B2094654D56CA1F94498","title":"上海市食品药品监督管理局虹口分局","lon":"121.49471","lat":"31.27926","category":"250","category_name":"公园户外","address":"玉田路222号"},{"poiid":"B2094752D268AAF8449B","title":"上海肺科医院","lon":"121.495453","lat":"31.281235","category":"162","category_name":"医院","address":"政民路507号"},{"poiid":"B2094654D56CA1FA4799","title":"美国西海岸大学","lon":"121.49609","lat":"31.27933","category":"52","category_name":"高等院校","address":"虹口区密云路375-377"},{"poiid":"B2094654D56CA1FA4798","title":"东北人家饺子王","lon":"121.49623","lat":"31.27874","category":"82","category_name":"东北菜","address":"虹口区密云路353号(近玉田路)"},{"poiid":"B2094750D76FA7FE4293","title":"顺记广东菜","lon":"121.491","lat":"31.2803","category":"72","category_name":"广东菜","address":"虹口区曲阳路570号"},{"poiid":"B2094654DB6AAAF8429C","title":"密云小区(西二门)","lon":"121.49636","lat":"31.28068","category":"47","category_name":"住宅区","address":"密云路454弄"},{"poiid":"B2094654D56CA1FF439D","title":"曲阳影都","lon":"121.49093","lat":"31.28035","category":"178","category_name":"电影院","address":"虹口区曲阳路570号曲阳花鸟市场内(近玉田路)"},{"poiid":"B2094757DA6FA3F4409B","title":"唐苑寿喜烧","lon":"121.491050999997","lat":"31.279684","category":"71","category_name":"四川菜","address":"虹口区曲阳路566号(近玉田路)"},{"poiid":"B2094654DB6AAAFF489D","title":"麦当劳(曲阳路店)","lon":"121.49094","lat":"31.28005","category":"68","category_name":"快餐厅","address":"虹口区曲阳路570号(近玉田路)"},{"poiid":"B2094757D06FA3F94193","title":"曲阳图书馆","lon":"121.49217","lat":"31.28077","category":"181","category_name":"图书馆","address":"虹口区曲阳路574号(近玉田路)"},{"poiid":"B2094654DB65A6FD499C","title":"同济大学(南二门)","lon":"121.49676","lat":"31.28203","category":"52","category_name":"高等院校","address":"杨浦区赤峰路200"},{"poiid":"B2094757D06FA1FB469D","title":"必胜客(曲阳店)","lon":"121.490361","lat":"31.279427","category":"94","category_name":"西餐厅","address":"虹口区曲阳路555号(近玉田路)"},{"poiid":"B2094757D06FA1FF4698","title":"玉田路曲阳路","lon":"121.49210357","lat":"31.279180526","category":"500","category_name":"未知分类","address":"上海玉田路曲阳路"},{"poiid":"B2094655D26EA0FD4299","title":"家乐福(曲阳店)","lon":"121.49092","lat":"31.27969","category":"118","category_name":"超级市场","address":"虹口区曲阳路560号(近玉田路)"},{"poiid":"B2094757D06FA2F5499E","title":"玉田新村","lon":"121.494806","lat":"31.277934","category":"47","category_name":"住宅区","address":"上海虹口区大连西路96号,玉田路311弄"},{"poiid":"B2094757D064A1F4449A","title":"cat eyes 猫咪咖啡屋","lon":"121.49189","lat":"31.27938","category":"260","category_name":"其他","address":"杨浦区国顺路66弄怡福苑1号楼18楼1804室(近黄兴路)"},{"poiid":"B2094757D06BA7FF4693","title":"同济大学第三教学楼","lon":"121.4954971","lat":"31.280194715","category":"52","category_name":"高等院校","address":"上海赤峰路67号"},{"poiid":"B2094757D06FA2FD499C","title":"85度C(赤峰店)","lon":"121.493393","lat":"31.282058","category":"112","category_name":"糕饼店","address":"虹口区赤峰路329号(近密云路)"},{"poiid":"B2094757D06FA6F84499","title":"肯德基 KFC (玉田店)","lon":"121.491051","lat":"31.279684","category":"68","category_name":"快餐厅","address":"虹口区曲阳路566号家乐福B1楼(近玉田路)"},{"poiid":"B2094654DB69A4FF409E","title":"味千拉面(曲阳店)","lon":"121.49133","lat":"31.27996","category":"95","category_name":"日本料理","address":"虹口区曲阳路570号东楼5单元曲阳家乐福旁(近玉田路)"},{"poiid":"B2094757D068A2FC419B","title":"乐凯迪KTV","lon":"121.49103","lat":"31.28092","category":"170","category_name":"KTV","address":"虹口区曲阳路566号6楼(近玉田路)"},{"poiid":"B2094757D06FA7F4459B","title":"伶达港骨头皇火锅(曲阳店)","lon":"121.49248","lat":"31.27901","category":"86","category_name":"火锅店","address":"虹口区玉田路278号(近曲阳路)"},{"poiid":"B2094655D26FA0F94892","title":"庐迅大厦","lon":"121.493","lat":"31.2794","category":"46","category_name":"楼宇","address":"庐迅大厦位于虹口欧阳路568号"},{"poiid":"B2094757D068A2F5429B","title":"振鼎鸡(玉田路店)","lon":"121.49364","lat":"31.27837","category":"68","category_name":"快餐厅","address":"虹口区玉田路260号(近曲阳路)"},{"poiid":"B2094757D06BA4F94098","title":"交行上分培训中心","lon":"121.498069","lat":"31.281133","category":"253","category_name":"校园生活","address":"上海赤峰路89弄"},{"poiid":"B2094757D06FA4F94392","title":"康美健身中心(曲阳店)","lon":"121.49111","lat":"31.27934","category":"221","category_name":"健身中心","address":"上海虹口区曲阳路560号家乐福4楼(近玉田路)"},{"poiid":"B2094654D56CA0F9429C","title":"中原证券大厦","lon":"121.494","lat":"31.2818","category":"46","category_name":"楼宇","address":"浦东区崂山东路410号"},{"poiid":"B2094655D26AA3FA4098","title":"婚姻登记处虹口区登记处","lon":"121.4943","lat":"31.27896","category":"247","category_name":"餐饮美食","address":"虹口区玉田路195号(近密云路)"},{"poiid":"B2094655D26FA5FF459F","title":"欧阳大厦","lon":"121.493","lat":"31.2799","category":"46","category_name":"楼宇","address":"欧阳路561号11楼G室"},{"poiid":"B2094757D16FA0F9479C","title":"黄记烤鸭","lon":"121.49384","lat":"31.27901","category":"68","category_name":"快餐厅","address":"虹口区玉田路260号(近曲阳路)"},{"poiid":"B2094757D06AA7F54992","title":"老顺昌苏州汤包馆","lon":"121.494729136","lat":"31.2780579315","category":"68","category_name":"快餐厅","address":"虹口区玉田路226号"},{"poiid":"B2094654D56CA1FF4592","title":"新亚大包 玉田支路","lon":"121.4925952836","lat":"31.281719267972","category":"68","category_name":"快餐厅","address":"虹口区玉田支路9号(近家乐福)"},{"poiid":"B2094757D06BA1FE459F","title":"曲阳第二中学","lon":"121.49568","lat":"31.27895","category":"55","category_name":"中学","address":"上海虹口区玉田路180号(近密云路)"},{"poiid":"B2094654D56CA1FF4692","title":"西域烧烤","lon":"121.49244","lat":"31.28055","category":"68","category_name":"快餐厅","address":"虹口区玉田支路19号曲阳浴室附近(近家乐福)"},{"poiid":"B2094757D46AA7FE4393","title":"宋氏龙虾","lon":"121.49633","lat":"31.28002","category":"68","category_name":"快餐厅","address":"虹口区广灵四路240-1号(近水电路)"},{"poiid":"B2094750D76DAAF94099","title":"米舞寿司","lon":"121.494","lat":"31.279","category":"95","category_name":"日本料理","address":"虹口区玉田路6号(近密云路)"},{"poiid":"B2094655D269AAF5409B","title":"高艺职业技能培训学校","lon":"121.49471","lat":"31.27926","category":"247","category_name":"餐饮美食","address":"虹口区玉田路222号(近曲阳路)"},{"poiid":"B2094655D26CA1F8459F","title":"玉田大楼(南门)","lon":"121.49485","lat":"31.27983","category":"47","category_name":"住宅区","address":"玉田路216号"},{"poiid":"B2094654DB65A7FE4598","title":"元祖 玉田路店 Ganso","lon":"121.491706054","lat":"31.279486793","category":"112","category_name":"糕饼店","address":"玉田路206-208号近曲阳路"},{"poiid":"B2094753D76CA2F94693","title":"甜猫港式甜品","lon":"121.493003","lat":"31.281005","category":"247","category_name":"餐饮美食","address":"上海市 虹口区玉田之路19号"},{"poiid":"B2094654D56CA1F9499B","title":"上海市迅行中学","lon":"121.49359","lat":"31.27886","category":"55","category_name":"中学","address":"虹口区玉田路211号(近曲阳路)"},{"poiid":"B2094654D56CA1F94292","title":"永琪美容美发(玉田路)","lon":"121.49365","lat":"31.27927","category":"148","category_name":"美容美发店","address":"虹口区玉田路260号(近曲阳路)"},{"poiid":"B2094757D06BA3F5409F","title":"朱记美食","lon":"121.495479103","lat":"31.2823556717","category":"76","category_name":"上海菜","address":"虹口区赤峰路(近密云路)"},{"poiid":"B2094655D36CA2F9409C","title":"曲阳新村","lon":"121.49267","lat":"31.28051","category":"47","category_name":"住宅区","address":"玉田路432弄1-11号"},{"poiid":"B2094753D26DA5FB459D","title":"地铁站","lon":"121.497302","lat":"31.277283","category":"36","category_name":"地铁站","address":"上海市 10号线"},{"poiid":"B2094654DB6AAAF8429F","title":"密云小区(西一门)","lon":"121.4966","lat":"31.27913","category":"47","category_name":"住宅区","address":"密云路444弄"},{"poiid":"B2094750D76DA4FD4093","title":"宫の寿司","lon":"121.495","lat":"31.2823","category":"95","category_name":"日本料理","address":"虹口区赤峰路322号(近同济大学)"},{"poiid":"B2094655D26AAAFB4992","title":"大佬馆 赤峰店","lon":"121.491621","lat":"31.281819","category":"76","category_name":"上海菜","address":"虹口区赤峰路329号(近曲阳路)"},{"poiid":"B2094757D065A0F9479C","title":"晨兴食府","lon":"121.49651013","lat":"31.278420289","category":"76","category_name":"上海菜","address":"虹口区密云路420号(近玉田路)"},{"poiid":"B2094654D56CA1F5479A","title":"大秦富贵(密云路店)","lon":"121.49629","lat":"31.28345","category":"68","category_name":"快餐厅","address":"虹口区密云路540号(近赤峰路)"},{"poiid":"B2094654D56CA1F94498","title":"上海市食品药品监督管理局虹口分局","lon":"121.49471","lat":"31.27926","category":"250","category_name":"公园户外","address":"玉田路222号"},{"poiid":"B2094752D268AAF8449B","title":"上海肺科医院","lon":"121.495453","lat":"31.281235","category":"162","category_name":"医院","address":"政民路507号"},{"poiid":"B2094654D56CA1FA4799","title":"美国西海岸大学","lon":"121.49609","lat":"31.27933","category":"52","category_name":"高等院校","address":"虹口区密云路375-377"},{"poiid":"B2094654D56CA1FA4798","title":"东北人家饺子王","lon":"121.49623","lat":"31.27874","category":"82","category_name":"东北菜","address":"虹口区密云路353号(近玉田路)"},{"poiid":"B2094750D76FA7FE4293","title":"顺记广东菜","lon":"121.491","lat":"31.2803","category":"72","category_name":"广东菜","address":"虹口区曲阳路570号"},{"poiid":"B2094654DB6AAAF8429C","title":"密云小区(西二门)","lon":"121.49636","lat":"31.28068","category":"47","category_name":"住宅区","address":"密云路454弄"},{"poiid":"B2094654D56CA1FF439D","title":"曲阳影都","lon":"121.49093","lat":"31.28035","category":"178","category_name":"电影院","address":"虹口区曲阳路570号曲阳花鸟市场内(近玉田路)"},{"poiid":"B2094757DA6FA3F4409B","title":"唐苑寿喜烧","lon":"121.491050999997","lat":"31.279684","category":"71","category_name":"四川菜","address":"虹口区曲阳路566号(近玉田路)"},{"poiid":"B2094654DB6AAAFF489D","title":"麦当劳(曲阳路店)","lon":"121.49094","lat":"31.28005","category":"68","category_name":"快餐厅","address":"虹口区曲阳路570号(近玉田路)"},{"poiid":"B2094757D06FA3F94193","title":"曲阳图书馆","lon":"121.49217","lat":"31.28077","category":"181","category_name":"图书馆","address":"虹口区曲阳路574号(近玉田路)"},{"poiid":"B2094654DB65A6FD499C","title":"同济大学(南二门)","lon":"121.49676","lat":"31.28203","category":"52","category_name":"高等院校","address":"杨浦区赤峰路200"},{"poiid":"B2094757D06FA1FB469D","title":"必胜客(曲阳店)","lon":"121.490361","lat":"31.279427","category":"94","category_name":"西餐厅","address":"虹口区曲阳路555号(近玉田路)"},{"poiid":"B2094757D06FA1FF4698","title":"玉田路曲阳路","lon":"121.49210357","lat":"31.279180526","category":"500","category_name":"未知分类","address":"上海玉田路曲阳路"},{"poiid":"B2094655D26EA0FD4299","title":"家乐福(曲阳店)","lon":"121.49092","lat":"31.27969","category":"118","category_name":"超级市场","address":"虹口区曲阳路560号(近玉田路)"},{"poiid":"B2094757D06FA2F5499E","title":"玉田新村","lon":"121.494806","lat":"31.277934","category":"47","category_name":"住宅区","address":"上海虹口区大连西路96号,玉田路311弄"},{"poiid":"B2094757D064A1F4449A","title":"cat eyes 猫咪咖啡屋","lon":"121.49189","lat":"31.27938","category":"260","category_name":"其他","address":"杨浦区国顺路66弄怡福苑1号楼18楼1804室(近黄兴路)"},{"poiid":"B2094757D06BA7FF4693","title":"同济大学第三教学楼","lon":"121.4954971","lat":"31.280194715","category":"52","category_name":"高等院校","address":"上海赤峰路67号"},{"poiid":"B2094757D06FA2FD499C","title":"85度C(赤峰店)","lon":"121.493393","lat":"31.282058","category":"112","category_name":"糕饼店","address":"虹口区赤峰路329号(近密云路)"},{"poiid":"B2094757D06FA6F84499","title":"肯德基 KFC (玉田店)","lon":"121.491051","lat":"31.279684","category":"68","category_name":"快餐厅","address":"虹口区曲阳路566号家乐福B1楼(近玉田路)"},{"poiid":"B2094654DB69A4FF409E","title":"味千拉面(曲阳店)","lon":"121.49133","lat":"31.27996","category":"95","category_name":"日本料理","address":"虹口区曲阳路570号东楼5单元曲阳家乐福旁(近玉田路)"},{"poiid":"B2094757D068A2FC419B","title":"乐凯迪KTV","lon":"121.49103","lat":"31.28092","category":"170","category_name":"KTV","address":"虹口区曲阳路566号6楼(近玉田路)"},{"poiid":"B2094757D06FA7F4459B","title":"伶达港骨头皇火锅(曲阳店)","lon":"121.49248","lat":"31.27901","category":"86","category_name":"火锅店","address":"虹口区玉田路278号(近曲阳路)"},{"poiid":"B2094655D26FA0F94892","title":"庐迅大厦","lon":"121.493","lat":"31.2794","category":"46","category_name":"楼宇","address":"庐迅大厦位于虹口欧阳路568号"},{"poiid":"B2094757D068A2F5429B","title":"振鼎鸡(玉田路店)","lon":"121.49364","lat":"31.27837","category":"68","category_name":"快餐厅","address":"虹口区玉田路260号(近曲阳路)"},{"poiid":"B2094757D06BA4F94098","title":"交行上分培训中心","lon":"121.498069","lat":"31.281133","category":"253","category_name":"校园生活","address":"上海赤峰路89弄"},{"poiid":"B2094757D06FA4F94392","title":"康美健身中心(曲阳店)","lon":"121.49111","lat":"31.27934","category":"221","category_name":"健身中心","address":"上海虹口区曲阳路560号家乐福4楼(近玉田路)"},{"poiid":"B2094654D56CA0F9429C","title":"中原证券大厦","lon":"121.494","lat":"31.2818","category":"46","category_name":"楼宇","address":"浦东区崂山东路410号"},{"poiid":"B2094655D26AA3FA4098","title":"婚姻登记处虹口区登记处","lon":"121.4943","lat":"31.27896","category":"247","category_name":"餐饮美食","address":"虹口区玉田路195号(近密云路)"},{"poiid":"B2094655D26FA5FF459F","title":"欧阳大厦","lon":"121.493","lat":"31.2799","category":"46","category_name":"楼宇","address":"欧阳路561号11楼G室"},{"poiid":"B2094757D16FA0F9479C","title":"黄记烤鸭","lon":"121.49384","lat":"31.27901","category":"68","category_name":"快餐厅","address":"虹口区玉田路260号(近曲阳路)"},{"poiid":"B2094757D06AA7F54992","title":"老顺昌苏州汤包馆","lon":"121.494729136","lat":"31.2780579315","category":"68","category_name":"快餐厅","address":"虹口区玉田路226号"},{"poiid":"B2094654D56CA1FF4592","title":"新亚大包 玉田支路","lon":"121.4925952836","lat":"31.281719267972","category":"68","category_name":"快餐厅","address":"虹口区玉田支路9号(近家乐福)"},{"poiid":"B2094757D06BA1FE459F","title":"曲阳第二中学","lon":"121.49568","lat":"31.27895","category":"55","category_name":"中学","address":"上海虹口区玉田路180号(近密云路)"},{"poiid":"B2094654D56CA1FF4692","title":"西域烧烤","lon":"121.49244","lat":"31.28055","category":"68","category_name":"快餐厅","address":"虹口区玉田支路19号曲阳浴室附近(近家乐福)"},{"poiid":"B2094757D46AA7FE4393","title":"宋氏龙虾","lon":"121.49633","lat":"31.28002","category":"68","category_name":"快餐厅","address":"虹口区广灵四路240-1号(近水电路)"},{"poiid":"B2094750D76DAAF94099","title":"米舞寿司","lon":"121.494","lat":"31.279","category":"95","category_name":"日本料理","address":"虹口区玉田路6号(近密云路)"},{"poiid":"B2094655D269AAF5409B","title":"高艺职业技能培训学校","lon":"121.49471","lat":"31.27926","category":"247","category_name":"餐饮美食","address":"虹口区玉田路222号(近曲阳路)"},{"poiid":"B2094655D26CA1F8459F","title":"玉田大楼(南门)","lon":"121.49485","lat":"31.27983","category":"47","category_name":"住宅区","address":"玉田路216号"},{"poiid":"B2094654DB65A7FE4598","title":"元祖 玉田路店 Ganso","lon":"121.491706054","lat":"31.279486793","category":"112","category_name":"糕饼店","address":"玉田路206-208号近曲阳路"},{"poiid":"B2094753D76CA2F94693","title":"甜猫港式甜品","lon":"121.493003","lat":"31.281005","category":"247","category_name":"餐饮美食","address":"上海市 虹口区玉田之路19号"},{"poiid":"B2094654D56CA1F9499B","title":"上海市迅行中学","lon":"121.49359","lat":"31.27886","category":"55","category_name":"中学","address":"虹口区玉田路211号(近曲阳路)"},{"poiid":"B2094654D56CA1F94292","title":"永琪美容美发(玉田路)","lon":"121.49365","lat":"31.27927","category":"148","category_name":"美容美发店","address":"虹口区玉田路260号(近曲阳路)"},{"poiid":"B2094757D06BA3F5409F","title":"朱记美食","lon":"121.495479103","lat":"31.2823556717","category":"76","category_name":"上海菜","address":"虹口区赤峰路(近密云路)"},{"poiid":"B2094655D36CA2F9409C","title":"曲阳新村","lon":"121.49267","lat":"31.28051","category":"47","category_name":"住宅区","address":"玉田路432弄1-11号"},{"poiid":"B2094753D26DA5FB459D","title":"地铁站","lon":"121.497302","lat":"31.277283","category":"36","category_name":"地铁站","address":"上海市 10号线"},{"poiid":"B2094654DB6AAAF8429F","title":"密云小区(西一门)","lon":"121.4966","lat":"31.27913","category":"47","category_name":"住宅区","address":"密云路444弄"},{"poiid":"B2094750D76DA4FD4093","title":"宫の寿司","lon":"121.495","lat":"31.2823","category":"95","category_name":"日本料理","address":"虹口区赤峰路322号(近同济大学)"},{"poiid":"B2094655D26AAAFB4992","title":"大佬馆 赤峰店","lon":"121.491621","lat":"31.281819","category":"76","category_name":"上海菜","address":"虹口区赤峰路329号(近曲阳路)"},{"poiid":"B2094757D065A0F9479C","title":"晨兴食府","lon":"121.49651013","lat":"31.278420289","category":"76","category_name":"上海菜","address":"虹口区密云路420号(近玉田路)"},{"poiid":"B2094654D56CA1F5479A","title":"大秦富贵(密云路店)","lon":"121.49629","lat":"31.28345","category":"68","category_name":"快餐厅","address":"虹口区密云路540号(近赤峰路)"},{"poiid":"B2094654D56CA1F94498","title":"上海市食品药品监督管理局虹口分局","lon":"121.49471","lat":"31.27926","category":"250","category_name":"公园户外","address":"玉田路222号"},{"poiid":"B2094752D268AAF8449B","title":"上海肺科医院","lon":"121.495453","lat":"31.281235","category":"162","category_name":"医院","address":"政民路507号"},{"poiid":"B2094654D56CA1FA4799","title":"美国西海岸大学","lon":"121.49609","lat":"31.27933","category":"52","category_name":"高等院校","address":"虹口区密云路375-377"},{"poiid":"B2094654D56CA1FA4798","title":"东北人家饺子王","lon":"121.49623","lat":"31.27874","category":"82","category_name":"东北菜","address":"虹口区密云路353号(近玉田路)"},{"poiid":"B2094750D76FA7FE4293","title":"顺记广东菜","lon":"121.491","lat":"31.2803","category":"72","category_name":"广东菜","address":"虹口区曲阳路570号"},{"poiid":"B2094654DB6AAAF8429C","title":"密云小区(西二门)","lon":"121.49636","lat":"31.28068","category":"47","category_name":"住宅区","address":"密云路454弄"}]