[{"poiid":"B2094654DB68A2F44892","title":"上海电子信息职业技术学院","lon":"121.69371","lat":"30.92383","category":"671","category_name":"高校中心点","address":"奉贤区奉城镇洪庙洪福大道"},{"poiid":"B2094757D069A6FE4493","title":"四团镇","lon":"121.72186934","lat":"30.940912503","category":"500","category_name":"未知分类","address":"上海奉贤区四团镇"},{"poiid":"B2094757D06BA5FB4099","title":"永福园陵","lon":"121.70438773","lat":"30.919562321","category":"245","category_name":"教堂","address":"上海洪庙路"},{"poiid":"B2094654DB68A2F44893","title":"洪福寺","lon":"121.69995","lat":"30.92894","category":"244","category_name":"寺庙道观","address":"洪庙路"},{"poiid":"B2094655D26BA2FB4898","title":"四团","lon":"121.72069","lat":"30.93869","category":"38","category_name":"公交车站","address":""},{"poiid":"B2094655D26BA2FF419B","title":"瓦洪公路","lon":"121.71367","lat":"30.9379","category":"38","category_name":"公交车站","address":""},{"poiid":"B2094757D768A5F4409E","title":"来伊份 四团店","lon":"121.71997","lat":"30.93847","category":"68","category_name":"快餐厅","address":"近郊奉贤四团川南奉公路8223号"},{"poiid":"B2094757D169AAFE499B","title":"楼外楼","lon":"121.71414231","lat":"30.939114961","category":"500","category_name":"未知分类","address":"上海奉贤四新街"},{"poiid":"B2094654DB68A2F5499D","title":"浩盟车料(上海)有限公司","lon":"121.70942","lat":"30.93609","category":"263","category_name":"公司","address":""},{"poiid":"B2094654DB68A2FB479B","title":"上海奉贤四团汽车修理厂","lon":"121.71184","lat":"30.93755","category":"159","category_name":"汽车维修","address":""},{"poiid":"B2094654DB64AAFC449E","title":"星星KTV","lon":"121.7177","lat":"30.94017","category":"170","category_name":"KTV","address":"四团镇"},{"poiid":"B2094654DB64A7F4459C","title":"奉贤区四团中心幼儿园","lon":"121.7201","lat":"30.93896","category":"57","category_name":"幼儿园","address":""},{"poiid":"B2094654DB64ABFE4592","title":"中国农业银行奉贤区四团支行","lon":"121.72016","lat":"30.93877","category":"150","category_name":"银行","address":"川南奉公路8208"},{"poiid":"B2094757D16DA2F4429E","title":"电子信息技术学院食堂","lon":"121.69285","lat":"30.92663","category":"68","category_name":"快餐厅","address":"近郊奉贤区洪庙瓦洪公路1号(近柴场中心路)"},{"poiid":"B2094655D26BA2FB489A","title":"四团加油站","lon":"121.72387","lat":"30.94011","category":"38","category_name":"公交车站","address":""},{"poiid":"B2094654DB69ABFF479B","title":"农工商超市(四团二店)","lon":"121.72334","lat":"30.93819","category":"118","category_name":"超级市场","address":"奉贤区四团镇天鹏街148-152号"},{"poiid":"B2094654DB68A2F4449D","title":"欣乐别墅","lon":"121.69413114018","lat":"30.930849805242","category":"47","category_name":"住宅区","address":"洪中路98号"},{"poiid":"B2094750D669AAFF4093","title":"上海消防综合训练基地","lon":"121.700218","lat":"30.926042","category":"627","category_name":"一般地点标志","address":"奉贤区洪庙镇洪南路258号"},{"poiid":"B2094750DA6AA7F4429E","title":"上海消防总队训练基地","lon":"121.695243","lat":"30.926071","category":"252","category_name":"楼宇机构","address":"洪南路"},{"poiid":"B2094655D36CA2FA469F","title":"三坎","lon":"121.72607","lat":"30.92967","category":"38","category_name":"公交车站","address":""},{"poiid":"B2094654DB69A7F4449F","title":"奉贤四团征收所征收厅","lon":"121.72281","lat":"30.93972","category":"250","category_name":"公园户外","address":"奉贤区四团镇南奉公路8123号"},{"poiid":"B2094655D26BA2FF4099","title":"瓦洪公路(招呼站)","lon":"121.6923","lat":"30.93068","category":"38","category_name":"公交车站","address":""},{"poiid":"B2094655D26FA3F84798","title":"那不勒斯中餐厅","lon":"121.69306","lat":"30.92626","category":"257","category_name":"中餐厅","address":""},{"poiid":"B2094757D568A1FC469D","title":"上海万盛饲料有限公司鸵鸟养殖基地","lon":"121.700447","lat":"30.9262","category":"260","category_name":"其他","address":"中国上海市奉贤区洪东路"},{"poiid":"B2094655D36DA3F4419E","title":"四团港桥","lon":"121.72267","lat":"30.94242","category":"250","category_name":"公园户外","address":""},{"poiid":"B2094654DB68A2F44298","title":"新华书店(天鹏街)","lon":"121.72532","lat":"30.94058","category":"125","category_name":"书店","address":""},{"poiid":"B2094757D66CA0FF469B","title":"滨河新苑","lon":"121.728271029","lat":"30.9369810489","category":"47","category_name":"住宅区","address":"上海奉贤区四团镇四新南街98弄"},{"poiid":"B2094757D56EA5F44792","title":"来伊份洪庙路店","lon":"121.6913138","lat":"30.9265872","category":"68","category_name":"快餐厅","address":"近郊奉贤洪庙镇洪庙路48号"},{"poiid":"B2094654DB64AAFD4593","title":"四团图书馆","lon":"121.72818","lat":"30.93703","category":"181","category_name":"图书馆","address":"四团镇"},{"poiid":"B2094654DB68A2F5499E","title":"上海佳惠液压机械设备有限公司","lon":"121.69505","lat":"30.93065","category":"263","category_name":"公司","address":""},{"poiid":"B2094757D16DA5F4479C","title":"新世纪花苑二期","lon":"121.72469316","lat":"30.942423049","category":"47","category_name":"住宅区","address":"上海市浦东新区耀华路579弄"},{"poiid":"B2094757D66DA4FC4293","title":"四合加苑","lon":"121.69294738","lat":"30.92918396","category":"500","category_name":"未知分类","address":"上海市奉贤区四合加苑13-16号"},{"poiid":"B2094655D36DA3F4429B","title":"浦东运河桥","lon":"121.69367","lat":"30.92219","category":"250","category_name":"公园户外","address":""}]