[{"poiid":"B2094757D06FA1FB449A","title":"可当代艺术中心","lon":"121.4174","lat":"31.21177","category":"179","category_name":"音乐厅","address":"长宁区凯旋路613号B座(近延安西路)"},{"poiid":"B2094654D565A5F9429F","title":"上海市长宁区妇幼保健院(上海妇孺医院)","lon":"121.41479","lat":"31.21307","category":"162","category_name":"医院","address":"长宁区武夷路773号(近中山西路)"},{"poiid":"B2094750D668A7FB439D","title":"纽斯桑拿会所","lon":"121.414176","lat":"31.209903","category":"248","category_name":"生活娱乐","address":"长宁区天山路1900号(近延安西路)"},{"poiid":"B2094757D06EAAF84593","title":"延安西路地铁站","lon":"121.417123","lat":"31.210023","category":"36","category_name":"地铁站","address":"上海轨道交通 三号线 四号线 轨交延安西路站 轻轨 3 4"},{"poiid":"B2094654DB65A5F84793","title":"育音堂","lon":"121.41618","lat":"31.20858","category":"248","category_name":"生活娱乐","address":"长宁区凯旋路851号(凯旋路延安西路)"},{"poiid":"B2094757D16FA7FC4798","title":"中山公园龙之梦购物广场 m)phosis","lon":"121.418535586","lat":"31.2143351202","category":"500","category_name":"未知分类","address":"上海中山公园"},{"poiid":"B2094654D565A5F94293","title":"上海国际体操中心游泳馆","lon":"121.41432","lat":"31.21341","category":"231","category_name":"游泳馆","address":"上海长宁区武夷路777号上海国际体操中心内(近中山西路)"},{"poiid":"B2094750DB6BA2FA479E","title":"纽斯","lon":"121.414527","lat":"31.208843","category":"248","category_name":"生活娱乐","address":"天山路1900号"},{"poiid":"B2094757D06FA4FD489A","title":"天山公园","lon":"121.415716881","lat":"31.2089318765","category":"196","category_name":"公园","address":"长宁区延安西路1731号(近凯旋路)"},{"poiid":"B2094757D06FA6FE419E","title":"延安路高架 凯旋路口","lon":"121.4167824","lat":"31.208085769","category":"500","category_name":"未知分类","address":"上海延安西路凯旋路"},{"poiid":"B2094750D565A6FA459A","title":"New star","lon":"121.414184","lat":"31.209081","category":"248","category_name":"生活娱乐","address":"天山路延安西路"},{"poiid":"B2094757D06FA7FE429B","title":"呷哺呷哺(延安西路餐厅)","lon":"121.417244","lat":"31.210322","category":"86","category_name":"火锅店","address":"长宁区轨道交通三号线延安西路站1楼3-108商铺(近凯旋路)"},{"poiid":"B2094757D06FAAFD4493","title":"可当代艺术中心小剧场","lon":"121.41721344","lat":"31.2120456696","category":"260","category_name":"其他","address":"上海凯旋路613号B座一层"},{"poiid":"B2094757D06FA6F54598","title":"仲盛金融中心","lon":"121.415","lat":"31.2102","category":"500","category_name":"未知分类","address":"延安西路2067号"},{"poiid":"B2094654D565A6FA449E","title":"凯桥绿地","lon":"121.41822","lat":"31.21026","category":"196","category_name":"公园","address":"长宁区延安西路凯旋路口(法华镇路延安西路)"},{"poiid":"B2094750D565A6FB499D","title":"纽斯汗蒸","lon":"121.414192","lat":"31.209089","category":"249","category_name":"购物服务","address":"天山路77号"},{"poiid":"B2094757D16EA2F8409F","title":"日本领事馆","lon":"121.41750036","lat":"31.208487673","category":"500","category_name":"未知分类","address":"上海万山路"},{"poiid":"B2094750DA6AA2F94692","title":"龙之梦雅仕大厦","lon":"121.416572","lat":"31.214466","category":"252","category_name":"楼宇机构","address":"长宁区凯旋路369号"},{"poiid":"B2094757D465ABFE409D","title":"仙醉居酒屋","lon":"121.418236","lat":"31.212887","category":"95","category_name":"日本料理","address":"长宁区武夷路581号(近武夷路加油站)"},{"poiid":"B2094757DA69A1F94499","title":"虹桥上海城","lon":"121.414","lat":"31.2127","category":"119","category_name":"商场","address":"上海市长宁区遵义路100号"},{"poiid":"B2094752D16BA4FF409D","title":"K11藝術購物中心","lon":"121.418365","lat":"31.212255","category":"249","category_name":"购物服务","address":"上海市淮海中路300號"},{"poiid":"B2094757D069A0FC4893","title":"大桶大足浴(武夷店)","lon":"121.41617","lat":"31.2124","category":"149","category_name":"洗浴推拿场所","address":"长宁区武夷路716号(凯旋路口)"},{"poiid":"B2094757D068A7F94592","title":"丰裕生煎(武夷店)","lon":"121.41837","lat":"31.21254","category":"68","category_name":"快餐厅","address":"长宁区武夷路703号(近凯旋路)"},{"poiid":"B2094655D26AA0F94198","title":"地铁延安西路站","lon":"121.41714","lat":"31.21002","category":"36","category_name":"地铁站","address":""},{"poiid":"B2094757D16EA4FD499F","title":"大风车私家菜馆(绿洲大厦店)","lon":"121.415989986","lat":"31.2079916961","category":"76","category_name":"上海菜","address":"上海长宁区中山西路555号绿洲大厦2楼，62861737，人均:60元"},{"poiid":"B2094655D268A0FD4599","title":"真功夫 延安西路店","lon":"121.416143054","lat":"31.208666793","category":"68","category_name":"快餐厅","address":"凯旋路812号地铁三,四号线延安西路站站厅一楼"},{"poiid":"B2094757D06AA3FC489D","title":"武夷花园","lon":"121.41572","lat":"31.211561","category":"47","category_name":"住宅区","address":"上海市长宁区武夷路718号"},{"poiid":"B2094654D56BA0FA439F","title":"紫云大厦","lon":"121.416854","lat":"31.212368","category":"46","category_name":"楼宇","address":"上海市中山西路800弄55号"},{"poiid":"B2094757D068AAFC439E","title":"红宝石 武夷店 Ruby","lon":"121.416065054","lat":"31.213060793","category":"67","category_name":"甜品店","address":"长宁区武夷路725号(近凯旋路)"},{"poiid":"B2094750DA69A3F44099","title":"纽斯spa会所","lon":"121.414466","lat":"31.209598","category":"148","category_name":"美容美发店","address":null},{"poiid":"B2094757D069A1F54593","title":"中石化武夷路加油站","lon":"121.418613263","lat":"31.2127801869","category":"154","category_name":"加油加气站","address":"上海武夷路凯旋路"},{"poiid":"B2094655D264A7FC499E","title":"北京同仁堂老字号延安西路店","lon":"121.41816","lat":"31.20816","category":"255","category_name":"专卖店","address":"长宁区延安西路1672号(近凯旋路)"},{"poiid":"B2094750D164A3FF4793","title":"上海老木国际青年旅舍","lon":"121.42021545808","lat":"31.211859430532","category":"215","category_name":"三星级宾馆","address":"上海市长宁区昭化路615弄278号"},{"poiid":"B2094757D16FAAFE429A","title":"上海市长宁区妇幼保健医院9楼佳佳母婴天地！","lon":"121.414710586","lat":"31.2133331006","category":"162","category_name":"医院","address":"上海市长宁区武夷路773号9楼。"},{"poiid":"B2094654D565A5F8439F","title":"精益公寓","lon":"121.41705","lat":"31.212355","category":"47","category_name":"住宅区","address":"武夷路700弄"},{"poiid":"B2094752DB6BA3F4469B","title":"Mr.X","lon":"121.418917","lat":"31.210823","category":"500","category_name":"未知分类","address":"上海市 长宁区定西路825号"},{"poiid":"B2094655D26BA2FC419A","title":"武夷路中山西路","lon":"121.41431","lat":"31.21268","category":"38","category_name":"公交车站","address":""},{"poiid":"B2094757D068A1FC4592","title":"CoCo都可茶饮(龙之梦店)","lon":"121.41904903","lat":"31.210319948","category":"113","category_name":"冷饮店","address":"上海市长宁区长宁路1018号龙之梦购物中心B2楼"},{"poiid":"B2094750DA6FA2F94899","title":"纽斯（天山店）","lon":"121.414314","lat":"31.209098","category":"247","category_name":"餐饮美食","address":null},{"poiid":"B2094757D069A5F5429D","title":"天山路","lon":"121.414787292","lat":"31.2130813599","category":"260","category_name":"其他","address":"上海长宁区天山路"},{"poiid":"B2094757DA64A4F5419B","title":"创邑源","lon":"121.417122","lat":"31.211939","category":"252","category_name":"楼宇机构","address":"长宁区凯旋路613号(近武夷路)"},{"poiid":"B2094750DA6AA2F9489B","title":"newstar","lon":"121.414466","lat":"31.209535","category":"248","category_name":"生活娱乐","address":"天山路1900号"},{"poiid":"B2094654D565A6F54598","title":"上海市开元学校","lon":"121.41963","lat":"31.21232","category":"55","category_name":"中学","address":"武夷路528"},{"poiid":"B2094757D66CAAFF4293","title":"上海飞酷数码科技有限公司","lon":"121.416736586","lat":"31.2111830585","category":"263","category_name":"公司","address":"上海凯旋路613号D-F座"},{"poiid":"B2094751D269A5FC459E","title":"哈哈少儿创意美术学校","lon":"121.417152","lat":"31.212162","category":"253","category_name":"校园生活","address":"上海市长宁区1188号6楼"},{"poiid":"B2094752D16BA6FA4192","title":"盛兴源","lon":"121.416344","lat":"31.209548","category":"247","category_name":"餐饮美食","address":"定西路739号"},{"poiid":"B2094757D06AABF4419B","title":"74路终点站","lon":"121.417172696","lat":"31.2121125267","category":"500","category_name":"未知分类","address":"上海靠近延安西路地铁站"},{"poiid":"B2094654D565A5F94192","title":"三泾南宅","lon":"121.41549","lat":"31.21356","category":"47","category_name":"住宅区","address":"武夷路727弄1-21号"},{"poiid":"B2094757D16BA1FC4393","title":"味家(长宁店)","lon":"121.41775","lat":"31.21223","category":"247","category_name":"餐饮美食","address":"定西路(定西路昭化路)"},{"poiid":"B2094753D26FABF4419E","title":"Mr.X密室长宁店","lon":"121.418904","lat":"31.210844","category":"500","category_name":"未知分类","address":"上海市 定西路825号"},{"poiid":"B2094757D06FA1FB449A","title":"可当代艺术中心","lon":"121.4174","lat":"31.21177","category":"179","category_name":"音乐厅","address":"长宁区凯旋路613号B座(近延安西路)"},{"poiid":"B2094654D565A5F9429F","title":"上海市长宁区妇幼保健院(上海妇孺医院)","lon":"121.41479","lat":"31.21307","category":"162","category_name":"医院","address":"长宁区武夷路773号(近中山西路)"},{"poiid":"B2094750D668A7FB439D","title":"纽斯桑拿会所","lon":"121.414176","lat":"31.209903","category":"248","category_name":"生活娱乐","address":"长宁区天山路1900号(近延安西路)"},{"poiid":"B2094757D06EAAF84593","title":"延安西路地铁站","lon":"121.417123","lat":"31.210023","category":"36","category_name":"地铁站","address":"上海轨道交通 三号线 四号线 轨交延安西路站 轻轨 3 4"},{"poiid":"B2094654DB65A5F84793","title":"育音堂","lon":"121.41618","lat":"31.20858","category":"248","category_name":"生活娱乐","address":"长宁区凯旋路851号(凯旋路延安西路)"},{"poiid":"B2094757D16FA7FC4798","title":"中山公园龙之梦购物广场 m)phosis","lon":"121.418535586","lat":"31.2143351202","category":"500","category_name":"未知分类","address":"上海中山公园"},{"poiid":"B2094654D565A5F94293","title":"上海国际体操中心游泳馆","lon":"121.41432","lat":"31.21341","category":"231","category_name":"游泳馆","address":"上海长宁区武夷路777号上海国际体操中心内(近中山西路)"},{"poiid":"B2094750DB6BA2FA479E","title":"纽斯","lon":"121.414527","lat":"31.208843","category":"248","category_name":"生活娱乐","address":"天山路1900号"},{"poiid":"B2094757D06FA4FD489A","title":"天山公园","lon":"121.415716881","lat":"31.2089318765","category":"196","category_name":"公园","address":"长宁区延安西路1731号(近凯旋路)"},{"poiid":"B2094757D06FA6FE419E","title":"延安路高架 凯旋路口","lon":"121.4167824","lat":"31.208085769","category":"500","category_name":"未知分类","address":"上海延安西路凯旋路"},{"poiid":"B2094750D565A6FA459A","title":"New star","lon":"121.414184","lat":"31.209081","category":"248","category_name":"生活娱乐","address":"天山路延安西路"},{"poiid":"B2094757D06FA7FE429B","title":"呷哺呷哺(延安西路餐厅)","lon":"121.417244","lat":"31.210322","category":"86","category_name":"火锅店","address":"长宁区轨道交通三号线延安西路站1楼3-108商铺(近凯旋路)"},{"poiid":"B2094757D06FAAFD4493","title":"可当代艺术中心小剧场","lon":"121.41721344","lat":"31.2120456696","category":"260","category_name":"其他","address":"上海凯旋路613号B座一层"},{"poiid":"B2094757D06FA6F54598","title":"仲盛金融中心","lon":"121.415","lat":"31.2102","category":"500","category_name":"未知分类","address":"延安西路2067号"},{"poiid":"B2094654D565A6FA449E","title":"凯桥绿地","lon":"121.41822","lat":"31.21026","category":"196","category_name":"公园","address":"长宁区延安西路凯旋路口(法华镇路延安西路)"},{"poiid":"B2094750D565A6FB499D","title":"纽斯汗蒸","lon":"121.414192","lat":"31.209089","category":"249","category_name":"购物服务","address":"天山路77号"},{"poiid":"B2094757D16EA2F8409F","title":"日本领事馆","lon":"121.41750036","lat":"31.208487673","category":"500","category_name":"未知分类","address":"上海万山路"},{"poiid":"B2094750DA6AA2F94692","title":"龙之梦雅仕大厦","lon":"121.416572","lat":"31.214466","category":"252","category_name":"楼宇机构","address":"长宁区凯旋路369号"},{"poiid":"B2094757D465ABFE409D","title":"仙醉居酒屋","lon":"121.418236","lat":"31.212887","category":"95","category_name":"日本料理","address":"长宁区武夷路581号(近武夷路加油站)"},{"poiid":"B2094757DA69A1F94499","title":"虹桥上海城","lon":"121.414","lat":"31.2127","category":"119","category_name":"商场","address":"上海市长宁区遵义路100号"},{"poiid":"B2094752D16BA4FF409D","title":"K11藝術購物中心","lon":"121.418365","lat":"31.212255","category":"249","category_name":"购物服务","address":"上海市淮海中路300號"},{"poiid":"B2094757D069A0FC4893","title":"大桶大足浴(武夷店)","lon":"121.41617","lat":"31.2124","category":"149","category_name":"洗浴推拿场所","address":"长宁区武夷路716号(凯旋路口)"},{"poiid":"B2094757D068A7F94592","title":"丰裕生煎(武夷店)","lon":"121.41837","lat":"31.21254","category":"68","category_name":"快餐厅","address":"长宁区武夷路703号(近凯旋路)"},{"poiid":"B2094655D26AA0F94198","title":"地铁延安西路站","lon":"121.41714","lat":"31.21002","category":"36","category_name":"地铁站","address":""},{"poiid":"B2094757D16EA4FD499F","title":"大风车私家菜馆(绿洲大厦店)","lon":"121.415989986","lat":"31.2079916961","category":"76","category_name":"上海菜","address":"上海长宁区中山西路555号绿洲大厦2楼，62861737，人均:60元"},{"poiid":"B2094655D268A0FD4599","title":"真功夫 延安西路店","lon":"121.416143054","lat":"31.208666793","category":"68","category_name":"快餐厅","address":"凯旋路812号地铁三,四号线延安西路站站厅一楼"},{"poiid":"B2094757D06AA3FC489D","title":"武夷花园","lon":"121.41572","lat":"31.211561","category":"47","category_name":"住宅区","address":"上海市长宁区武夷路718号"},{"poiid":"B2094654D56BA0FA439F","title":"紫云大厦","lon":"121.416854","lat":"31.212368","category":"46","category_name":"楼宇","address":"上海市中山西路800弄55号"},{"poiid":"B2094757D068AAFC439E","title":"红宝石 武夷店 Ruby","lon":"121.416065054","lat":"31.213060793","category":"67","category_name":"甜品店","address":"长宁区武夷路725号(近凯旋路)"},{"poiid":"B2094750DA69A3F44099","title":"纽斯spa会所","lon":"121.414466","lat":"31.209598","category":"148","category_name":"美容美发店","address":null},{"poiid":"B2094757D069A1F54593","title":"中石化武夷路加油站","lon":"121.418613263","lat":"31.2127801869","category":"154","category_name":"加油加气站","address":"上海武夷路凯旋路"},{"poiid":"B2094655D264A7FC499E","title":"北京同仁堂老字号延安西路店","lon":"121.41816","lat":"31.20816","category":"255","category_name":"专卖店","address":"长宁区延安西路1672号(近凯旋路)"},{"poiid":"B2094750D164A3FF4793","title":"上海老木国际青年旅舍","lon":"121.42021545808","lat":"31.211859430532","category":"215","category_name":"三星级宾馆","address":"上海市长宁区昭化路615弄278号"},{"poiid":"B2094757D16FAAFE429A","title":"上海市长宁区妇幼保健医院9楼佳佳母婴天地！","lon":"121.414710586","lat":"31.2133331006","category":"162","category_name":"医院","address":"上海市长宁区武夷路773号9楼。"},{"poiid":"B2094654D565A5F8439F","title":"精益公寓","lon":"121.41705","lat":"31.212355","category":"47","category_name":"住宅区","address":"武夷路700弄"},{"poiid":"B2094752DB6BA3F4469B","title":"Mr.X","lon":"121.418917","lat":"31.210823","category":"500","category_name":"未知分类","address":"上海市 长宁区定西路825号"},{"poiid":"B2094655D26BA2FC419A","title":"武夷路中山西路","lon":"121.41431","lat":"31.21268","category":"38","category_name":"公交车站","address":""},{"poiid":"B2094757D068A1FC4592","title":"CoCo都可茶饮(龙之梦店)","lon":"121.41904903","lat":"31.210319948","category":"113","category_name":"冷饮店","address":"上海市长宁区长宁路1018号龙之梦购物中心B2楼"},{"poiid":"B2094750DA6FA2F94899","title":"纽斯（天山店）","lon":"121.414314","lat":"31.209098","category":"247","category_name":"餐饮美食","address":null},{"poiid":"B2094757D069A5F5429D","title":"天山路","lon":"121.414787292","lat":"31.2130813599","category":"260","category_name":"其他","address":"上海长宁区天山路"},{"poiid":"B2094757DA64A4F5419B","title":"创邑源","lon":"121.417122","lat":"31.211939","category":"252","category_name":"楼宇机构","address":"长宁区凯旋路613号(近武夷路)"},{"poiid":"B2094750DA6AA2F9489B","title":"newstar","lon":"121.414466","lat":"31.209535","category":"248","category_name":"生活娱乐","address":"天山路1900号"},{"poiid":"B2094654D565A6F54598","title":"上海市开元学校","lon":"121.41963","lat":"31.21232","category":"55","category_name":"中学","address":"武夷路528"},{"poiid":"B2094757D66CAAFF4293","title":"上海飞酷数码科技有限公司","lon":"121.416736586","lat":"31.2111830585","category":"263","category_name":"公司","address":"上海凯旋路613号D-F座"},{"poiid":"B2094751D269A5FC459E","title":"哈哈少儿创意美术学校","lon":"121.417152","lat":"31.212162","category":"253","category_name":"校园生活","address":"上海市长宁区1188号6楼"},{"poiid":"B2094752D16BA6FA4192","title":"盛兴源","lon":"121.416344","lat":"31.209548","category":"247","category_name":"餐饮美食","address":"定西路739号"},{"poiid":"B2094757D06AABF4419B","title":"74路终点站","lon":"121.417172696","lat":"31.2121125267","category":"500","category_name":"未知分类","address":"上海靠近延安西路地铁站"},{"poiid":"B2094654D565A5F94192","title":"三泾南宅","lon":"121.41549","lat":"31.21356","category":"47","category_name":"住宅区","address":"武夷路727弄1-21号"},{"poiid":"B2094757D16BA1FC4393","title":"味家(长宁店)","lon":"121.41775","lat":"31.21223","category":"247","category_name":"餐饮美食","address":"定西路(定西路昭化路)"},{"poiid":"B2094753D26FABF4419E","title":"Mr.X密室长宁店","lon":"121.418904","lat":"31.210844","category":"500","category_name":"未知分类","address":"上海市 定西路825号"},{"poiid":"B2094757D06FA1FB449A","title":"可当代艺术中心","lon":"121.4174","lat":"31.21177","category":"179","category_name":"音乐厅","address":"长宁区凯旋路613号B座(近延安西路)"},{"poiid":"B2094654D565A5F9429F","title":"上海市长宁区妇幼保健院(上海妇孺医院)","lon":"121.41479","lat":"31.21307","category":"162","category_name":"医院","address":"长宁区武夷路773号(近中山西路)"},{"poiid":"B2094750D668A7FB439D","title":"纽斯桑拿会所","lon":"121.414176","lat":"31.209903","category":"248","category_name":"生活娱乐","address":"长宁区天山路1900号(近延安西路)"},{"poiid":"B2094757D06EAAF84593","title":"延安西路地铁站","lon":"121.417123","lat":"31.210023","category":"36","category_name":"地铁站","address":"上海轨道交通 三号线 四号线 轨交延安西路站 轻轨 3 4"},{"poiid":"B2094654DB65A5F84793","title":"育音堂","lon":"121.41618","lat":"31.20858","category":"248","category_name":"生活娱乐","address":"长宁区凯旋路851号(凯旋路延安西路)"},{"poiid":"B2094757D16FA7FC4798","title":"中山公园龙之梦购物广场 m)phosis","lon":"121.418535586","lat":"31.2143351202","category":"500","category_name":"未知分类","address":"上海中山公园"},{"poiid":"B2094654D565A5F94293","title":"上海国际体操中心游泳馆","lon":"121.41432","lat":"31.21341","category":"231","category_name":"游泳馆","address":"上海长宁区武夷路777号上海国际体操中心内(近中山西路)"},{"poiid":"B2094750DB6BA2FA479E","title":"纽斯","lon":"121.414527","lat":"31.208843","category":"248","category_name":"生活娱乐","address":"天山路1900号"},{"poiid":"B2094757D06FA4FD489A","title":"天山公园","lon":"121.415716881","lat":"31.2089318765","category":"196","category_name":"公园","address":"长宁区延安西路1731号(近凯旋路)"},{"poiid":"B2094757D06FA6FE419E","title":"延安路高架 凯旋路口","lon":"121.4167824","lat":"31.208085769","category":"500","category_name":"未知分类","address":"上海延安西路凯旋路"},{"poiid":"B2094750D565A6FA459A","title":"New star","lon":"121.414184","lat":"31.209081","category":"248","category_name":"生活娱乐","address":"天山路延安西路"},{"poiid":"B2094757D06FA7FE429B","title":"呷哺呷哺(延安西路餐厅)","lon":"121.417244","lat":"31.210322","category":"86","category_name":"火锅店","address":"长宁区轨道交通三号线延安西路站1楼3-108商铺(近凯旋路)"},{"poiid":"B2094757D06FAAFD4493","title":"可当代艺术中心小剧场","lon":"121.41721344","lat":"31.2120456696","category":"260","category_name":"其他","address":"上海凯旋路613号B座一层"},{"poiid":"B2094757D06FA6F54598","title":"仲盛金融中心","lon":"121.415","lat":"31.2102","category":"500","category_name":"未知分类","address":"延安西路2067号"},{"poiid":"B2094654D565A6FA449E","title":"凯桥绿地","lon":"121.41822","lat":"31.21026","category":"196","category_name":"公园","address":"长宁区延安西路凯旋路口(法华镇路延安西路)"},{"poiid":"B2094750D565A6FB499D","title":"纽斯汗蒸","lon":"121.414192","lat":"31.209089","category":"249","category_name":"购物服务","address":"天山路77号"},{"poiid":"B2094757D16EA2F8409F","title":"日本领事馆","lon":"121.41750036","lat":"31.208487673","category":"500","category_name":"未知分类","address":"上海万山路"},{"poiid":"B2094750DA6AA2F94692","title":"龙之梦雅仕大厦","lon":"121.416572","lat":"31.214466","category":"252","category_name":"楼宇机构","address":"长宁区凯旋路369号"},{"poiid":"B2094757D465ABFE409D","title":"仙醉居酒屋","lon":"121.418236","lat":"31.212887","category":"95","category_name":"日本料理","address":"长宁区武夷路581号(近武夷路加油站)"},{"poiid":"B2094757DA69A1F94499","title":"虹桥上海城","lon":"121.414","lat":"31.2127","category":"119","category_name":"商场","address":"上海市长宁区遵义路100号"},{"poiid":"B2094752D16BA4FF409D","title":"K11藝術購物中心","lon":"121.418365","lat":"31.212255","category":"249","category_name":"购物服务","address":"上海市淮海中路300號"},{"poiid":"B2094757D069A0FC4893","title":"大桶大足浴(武夷店)","lon":"121.41617","lat":"31.2124","category":"149","category_name":"洗浴推拿场所","address":"长宁区武夷路716号(凯旋路口)"},{"poiid":"B2094757D068A7F94592","title":"丰裕生煎(武夷店)","lon":"121.41837","lat":"31.21254","category":"68","category_name":"快餐厅","address":"长宁区武夷路703号(近凯旋路)"},{"poiid":"B2094655D26AA0F94198","title":"地铁延安西路站","lon":"121.41714","lat":"31.21002","category":"36","category_name":"地铁站","address":""},{"poiid":"B2094757D16EA4FD499F","title":"大风车私家菜馆(绿洲大厦店)","lon":"121.415989986","lat":"31.2079916961","category":"76","category_name":"上海菜","address":"上海长宁区中山西路555号绿洲大厦2楼，62861737，人均:60元"},{"poiid":"B2094655D268A0FD4599","title":"真功夫 延安西路店","lon":"121.416143054","lat":"31.208666793","category":"68","category_name":"快餐厅","address":"凯旋路812号地铁三,四号线延安西路站站厅一楼"},{"poiid":"B2094757D06AA3FC489D","title":"武夷花园","lon":"121.41572","lat":"31.211561","category":"47","category_name":"住宅区","address":"上海市长宁区武夷路718号"},{"poiid":"B2094654D56BA0FA439F","title":"紫云大厦","lon":"121.416854","lat":"31.212368","category":"46","category_name":"楼宇","address":"上海市中山西路800弄55号"},{"poiid":"B2094757D068AAFC439E","title":"红宝石 武夷店 Ruby","lon":"121.416065054","lat":"31.213060793","category":"67","category_name":"甜品店","address":"长宁区武夷路725号(近凯旋路)"},{"poiid":"B2094750DA69A3F44099","title":"纽斯spa会所","lon":"121.414466","lat":"31.209598","category":"148","category_name":"美容美发店","address":null},{"poiid":"B2094757D069A1F54593","title":"中石化武夷路加油站","lon":"121.418613263","lat":"31.2127801869","category":"154","category_name":"加油加气站","address":"上海武夷路凯旋路"},{"poiid":"B2094655D264A7FC499E","title":"北京同仁堂老字号延安西路店","lon":"121.41816","lat":"31.20816","category":"255","category_name":"专卖店","address":"长宁区延安西路1672号(近凯旋路)"},{"poiid":"B2094750D164A3FF4793","title":"上海老木国际青年旅舍","lon":"121.42021545808","lat":"31.211859430532","category":"215","category_name":"三星级宾馆","address":"上海市长宁区昭化路615弄278号"},{"poiid":"B2094757D16FAAFE429A","title":"上海市长宁区妇幼保健医院9楼佳佳母婴天地！","lon":"121.414710586","lat":"31.2133331006","category":"162","category_name":"医院","address":"上海市长宁区武夷路773号9楼。"},{"poiid":"B2094654D565A5F8439F","title":"精益公寓","lon":"121.41705","lat":"31.212355","category":"47","category_name":"住宅区","address":"武夷路700弄"},{"poiid":"B2094752DB6BA3F4469B","title":"Mr.X","lon":"121.418917","lat":"31.210823","category":"500","category_name":"未知分类","address":"上海市 长宁区定西路825号"},{"poiid":"B2094655D26BA2FC419A","title":"武夷路中山西路","lon":"121.41431","lat":"31.21268","category":"38","category_name":"公交车站","address":""},{"poiid":"B2094757D068A1FC4592","title":"CoCo都可茶饮(龙之梦店)","lon":"121.41904903","lat":"31.210319948","category":"113","category_name":"冷饮店","address":"上海市长宁区长宁路1018号龙之梦购物中心B2楼"},{"poiid":"B2094750DA6FA2F94899","title":"纽斯（天山店）","lon":"121.414314","lat":"31.209098","category":"247","category_name":"餐饮美食","address":null},{"poiid":"B2094757D069A5F5429D","title":"天山路","lon":"121.414787292","lat":"31.2130813599","category":"260","category_name":"其他","address":"上海长宁区天山路"},{"poiid":"B2094757DA64A4F5419B","title":"创邑源","lon":"121.417122","lat":"31.211939","category":"252","category_name":"楼宇机构","address":"长宁区凯旋路613号(近武夷路)"},{"poiid":"B2094750DA6AA2F9489B","title":"newstar","lon":"121.414466","lat":"31.209535","category":"248","category_name":"生活娱乐","address":"天山路1900号"},{"poiid":"B2094654D565A6F54598","title":"上海市开元学校","lon":"121.41963","lat":"31.21232","category":"55","category_name":"中学","address":"武夷路528"},{"poiid":"B2094757D66CAAFF4293","title":"上海飞酷数码科技有限公司","lon":"121.416736586","lat":"31.2111830585","category":"263","category_name":"公司","address":"上海凯旋路613号D-F座"},{"poiid":"B2094751D269A5FC459E","title":"哈哈少儿创意美术学校","lon":"121.417152","lat":"31.212162","category":"253","category_name":"校园生活","address":"上海市长宁区1188号6楼"},{"poiid":"B2094752D16BA6FA4192","title":"盛兴源","lon":"121.416344","lat":"31.209548","category":"247","category_name":"餐饮美食","address":"定西路739号"},{"poiid":"B2094757D06AABF4419B","title":"74路终点站","lon":"121.417172696","lat":"31.2121125267","category":"500","category_name":"未知分类","address":"上海靠近延安西路地铁站"},{"poiid":"B2094654D565A5F94192","title":"三泾南宅","lon":"121.41549","lat":"31.21356","category":"47","category_name":"住宅区","address":"武夷路727弄1-21号"},{"poiid":"B2094757D16BA1FC4393","title":"味家(长宁店)","lon":"121.41775","lat":"31.21223","category":"247","category_name":"餐饮美食","address":"定西路(定西路昭化路)"},{"poiid":"B2094753D26FABF4419E","title":"Mr.X密室长宁店","lon":"121.418904","lat":"31.210844","category":"500","category_name":"未知分类","address":"上海市 定西路825号"},{"poiid":"B2094757D06FA1FB449A","title":"可当代艺术中心","lon":"121.4174","lat":"31.21177","category":"179","category_name":"音乐厅","address":"长宁区凯旋路613号B座(近延安西路)"},{"poiid":"B2094654D565A5F9429F","title":"上海市长宁区妇幼保健院(上海妇孺医院)","lon":"121.41479","lat":"31.21307","category":"162","category_name":"医院","address":"长宁区武夷路773号(近中山西路)"},{"poiid":"B2094750D668A7FB439D","title":"纽斯桑拿会所","lon":"121.414176","lat":"31.209903","category":"248","category_name":"生活娱乐","address":"长宁区天山路1900号(近延安西路)"},{"poiid":"B2094757D06EAAF84593","title":"延安西路地铁站","lon":"121.417123","lat":"31.210023","category":"36","category_name":"地铁站","address":"上海轨道交通 三号线 四号线 轨交延安西路站 轻轨 3 4"},{"poiid":"B2094654DB65A5F84793","title":"育音堂","lon":"121.41618","lat":"31.20858","category":"248","category_name":"生活娱乐","address":"长宁区凯旋路851号(凯旋路延安西路)"},{"poiid":"B2094757D16FA7FC4798","title":"中山公园龙之梦购物广场 m)phosis","lon":"121.418535586","lat":"31.2143351202","category":"500","category_name":"未知分类","address":"上海中山公园"},{"poiid":"B2094654D565A5F94293","title":"上海国际体操中心游泳馆","lon":"121.41432","lat":"31.21341","category":"231","category_name":"游泳馆","address":"上海长宁区武夷路777号上海国际体操中心内(近中山西路)"},{"poiid":"B2094750DB6BA2FA479E","title":"纽斯","lon":"121.414527","lat":"31.208843","category":"248","category_name":"生活娱乐","address":"天山路1900号"},{"poiid":"B2094757D06FA4FD489A","title":"天山公园","lon":"121.415716881","lat":"31.2089318765","category":"196","category_name":"公园","address":"长宁区延安西路1731号(近凯旋路)"},{"poiid":"B2094757D06FA6FE419E","title":"延安路高架 凯旋路口","lon":"121.4167824","lat":"31.208085769","category":"500","category_name":"未知分类","address":"上海延安西路凯旋路"},{"poiid":"B2094750D565A6FA459A","title":"New star","lon":"121.414184","lat":"31.209081","category":"248","category_name":"生活娱乐","address":"天山路延安西路"},{"poiid":"B2094757D06FA7FE429B","title":"呷哺呷哺(延安西路餐厅)","lon":"121.417244","lat":"31.210322","category":"86","category_name":"火锅店","address":"长宁区轨道交通三号线延安西路站1楼3-108商铺(近凯旋路)"},{"poiid":"B2094757D06FAAFD4493","title":"可当代艺术中心小剧场","lon":"121.41721344","lat":"31.2120456696","category":"260","category_name":"其他","address":"上海凯旋路613号B座一层"},{"poiid":"B2094757D06FA6F54598","title":"仲盛金融中心","lon":"121.415","lat":"31.2102","category":"500","category_name":"未知分类","address":"延安西路2067号"},{"poiid":"B2094654D565A6FA449E","title":"凯桥绿地","lon":"121.41822","lat":"31.21026","category":"196","category_name":"公园","address":"长宁区延安西路凯旋路口(法华镇路延安西路)"},{"poiid":"B2094750D565A6FB499D","title":"纽斯汗蒸","lon":"121.414192","lat":"31.209089","category":"249","category_name":"购物服务","address":"天山路77号"},{"poiid":"B2094757D16EA2F8409F","title":"日本领事馆","lon":"121.41750036","lat":"31.208487673","category":"500","category_name":"未知分类","address":"上海万山路"},{"poiid":"B2094750DA6AA2F94692","title":"龙之梦雅仕大厦","lon":"121.416572","lat":"31.214466","category":"252","category_name":"楼宇机构","address":"长宁区凯旋路369号"},{"poiid":"B2094757D465ABFE409D","title":"仙醉居酒屋","lon":"121.418236","lat":"31.212887","category":"95","category_name":"日本料理","address":"长宁区武夷路581号(近武夷路加油站)"},{"poiid":"B2094757DA69A1F94499","title":"虹桥上海城","lon":"121.414","lat":"31.2127","category":"119","category_name":"商场","address":"上海市长宁区遵义路100号"},{"poiid":"B2094752D16BA4FF409D","title":"K11藝術購物中心","lon":"121.418365","lat":"31.212255","category":"249","category_name":"购物服务","address":"上海市淮海中路300號"},{"poiid":"B2094757D069A0FC4893","title":"大桶大足浴(武夷店)","lon":"121.41617","lat":"31.2124","category":"149","category_name":"洗浴推拿场所","address":"长宁区武夷路716号(凯旋路口)"},{"poiid":"B2094757D068A7F94592","title":"丰裕生煎(武夷店)","lon":"121.41837","lat":"31.21254","category":"68","category_name":"快餐厅","address":"长宁区武夷路703号(近凯旋路)"},{"poiid":"B2094655D26AA0F94198","title":"地铁延安西路站","lon":"121.41714","lat":"31.21002","category":"36","category_name":"地铁站","address":""},{"poiid":"B2094757D16EA4FD499F","title":"大风车私家菜馆(绿洲大厦店)","lon":"121.415989986","lat":"31.2079916961","category":"76","category_name":"上海菜","address":"上海长宁区中山西路555号绿洲大厦2楼，62861737，人均:60元"},{"poiid":"B2094655D268A0FD4599","title":"真功夫 延安西路店","lon":"121.416143054","lat":"31.208666793","category":"68","category_name":"快餐厅","address":"凯旋路812号地铁三,四号线延安西路站站厅一楼"},{"poiid":"B2094757D06AA3FC489D","title":"武夷花园","lon":"121.41572","lat":"31.211561","category":"47","category_name":"住宅区","address":"上海市长宁区武夷路718号"},{"poiid":"B2094654D56BA0FA439F","title":"紫云大厦","lon":"121.416854","lat":"31.212368","category":"46","category_name":"楼宇","address":"上海市中山西路800弄55号"},{"poiid":"B2094757D068AAFC439E","title":"红宝石 武夷店 Ruby","lon":"121.416065054","lat":"31.213060793","category":"67","category_name":"甜品店","address":"长宁区武夷路725号(近凯旋路)"},{"poiid":"B2094750DA69A3F44099","title":"纽斯spa会所","lon":"121.414466","lat":"31.209598","category":"148","category_name":"美容美发店","address":null},{"poiid":"B2094757D069A1F54593","title":"中石化武夷路加油站","lon":"121.418613263","lat":"31.2127801869","category":"154","category_name":"加油加气站","address":"上海武夷路凯旋路"},{"poiid":"B2094655D264A7FC499E","title":"北京同仁堂老字号延安西路店","lon":"121.41816","lat":"31.20816","category":"255","category_name":"专卖店","address":"长宁区延安西路1672号(近凯旋路)"},{"poiid":"B2094750D164A3FF4793","title":"上海老木国际青年旅舍","lon":"121.42021545808","lat":"31.211859430532","category":"215","category_name":"三星级宾馆","address":"上海市长宁区昭化路615弄278号"},{"poiid":"B2094757D16FAAFE429A","title":"上海市长宁区妇幼保健医院9楼佳佳母婴天地！","lon":"121.414710586","lat":"31.2133331006","category":"162","category_name":"医院","address":"上海市长宁区武夷路773号9楼。"},{"poiid":"B2094654D565A5F8439F","title":"精益公寓","lon":"121.41705","lat":"31.212355","category":"47","category_name":"住宅区","address":"武夷路700弄"},{"poiid":"B2094752DB6BA3F4469B","title":"Mr.X","lon":"121.418917","lat":"31.210823","category":"500","category_name":"未知分类","address":"上海市 长宁区定西路825号"},{"poiid":"B2094655D26BA2FC419A","title":"武夷路中山西路","lon":"121.41431","lat":"31.21268","category":"38","category_name":"公交车站","address":""},{"poiid":"B2094757D068A1FC4592","title":"CoCo都可茶饮(龙之梦店)","lon":"121.41904903","lat":"31.210319948","category":"113","category_name":"冷饮店","address":"上海市长宁区长宁路1018号龙之梦购物中心B2楼"},{"poiid":"B2094750DA6FA2F94899","title":"纽斯（天山店）","lon":"121.414314","lat":"31.209098","category":"247","category_name":"餐饮美食","address":null},{"poiid":"B2094757D069A5F5429D","title":"天山路","lon":"121.414787292","lat":"31.2130813599","category":"260","category_name":"其他","address":"上海长宁区天山路"},{"poiid":"B2094757DA64A4F5419B","title":"创邑源","lon":"121.417122","lat":"31.211939","category":"252","category_name":"楼宇机构","address":"长宁区凯旋路613号(近武夷路)"},{"poiid":"B2094750DA6AA2F9489B","title":"newstar","lon":"121.414466","lat":"31.209535","category":"248","category_name":"生活娱乐","address":"天山路1900号"},{"poiid":"B2094654D565A6F54598","title":"上海市开元学校","lon":"121.41963","lat":"31.21232","category":"55","category_name":"中学","address":"武夷路528"},{"poiid":"B2094757D66CAAFF4293","title":"上海飞酷数码科技有限公司","lon":"121.416736586","lat":"31.2111830585","category":"263","category_name":"公司","address":"上海凯旋路613号D-F座"},{"poiid":"B2094751D269A5FC459E","title":"哈哈少儿创意美术学校","lon":"121.417152","lat":"31.212162","category":"253","category_name":"校园生活","address":"上海市长宁区1188号6楼"},{"poiid":"B2094752D16BA6FA4192","title":"盛兴源","lon":"121.416344","lat":"31.209548","category":"247","category_name":"餐饮美食","address":"定西路739号"},{"poiid":"B2094757D06AABF4419B","title":"74路终点站","lon":"121.417172696","lat":"31.2121125267","category":"500","category_name":"未知分类","address":"上海靠近延安西路地铁站"},{"poiid":"B2094654D565A5F94192","title":"三泾南宅","lon":"121.41549","lat":"31.21356","category":"47","category_name":"住宅区","address":"武夷路727弄1-21号"},{"poiid":"B2094757D16BA1FC4393","title":"味家(长宁店)","lon":"121.41775","lat":"31.21223","category":"247","category_name":"餐饮美食","address":"定西路(定西路昭化路)"},{"poiid":"B2094753D26FABF4419E","title":"Mr.X密室长宁店","lon":"121.418904","lat":"31.210844","category":"500","category_name":"未知分类","address":"上海市 定西路825号"}]