[{"poiid":"B2094757D469A1F5499E","title":"海底捞火锅店 新华园店","lon":"121.444061","lat":"31.266212","category":"86","category_name":"火锅店","address":"闸北区沪太路785号新华园(近延长中路)"},{"poiid":"B2094757D068A3FD439C","title":"宜川路","lon":"121.438645","lat":"31.260913","category":"500","category_name":"未知分类","address":"上海普陀区宜川路新村路"},{"poiid":"B2094655D265A3F4449D","title":"香溢花城","lon":"121.43961958287","lat":"31.262893373345","category":"47","category_name":"住宅区","address":"普陀区石泉东路168弄19号"},{"poiid":"B2094750DA6FA0FD4899","title":"炫音KTV（上海新华园店）","lon":"121.444068","lat":"31.266311","category":"170","category_name":"KTV","address":"闸北区沪太路785号新华园14幢5楼西侧"},{"poiid":"B2094655D26AAAFD479F","title":"向天歌烧鹅老铺 宜川路店","lon":"121.437554054","lat":"31.262404793","category":"72","category_name":"广东菜","address":"普陀区宜川路305号(近延长西路)"},{"poiid":"B2094757D068A4F9449E","title":"小绍兴(延长西路店)","lon":"121.44363","lat":"31.26494","category":"68","category_name":"快餐厅","address":"普陀区延长西路25号(近沪太路)"},{"poiid":"B2094654D464A4F44492","title":"宜川四村","lon":"121.44421","lat":"31.263229","category":"47","category_name":"住宅区","address":"沪太路765弄"},{"poiid":"B2094757D66FA6FA479C","title":"JEANS潮人店(京世宜川店)","lon":"121.43708706","lat":"31.263524998","category":"148","category_name":"美容美发店","address":"上海普陀区宜川路326号(近延长西路)"},{"poiid":"B2094757D06FA1F44892","title":"85度C(宜川店)","lon":"121.43786","lat":"31.26206","category":"112","category_name":"糕饼店","address":"普陀区宜川路310号美华商城1楼(近延长西路)"},{"poiid":"B2094655D264AAFA4298","title":"鑫亮酒家私房菜 延长西路店","lon":"121.44152","lat":"31.263833","category":"76","category_name":"上海菜","address":"普陀区延长西路66号(近骊山路)"},{"poiid":"B2094757D068A0FD439F","title":"新华文化创意科技园","lon":"121.444803","lat":"31.266059","category":"46","category_name":"楼宇","address":"上海延长中路801号"},{"poiid":"B2094750D76EA5FE4093","title":"旺角家常菜","lon":"121.441","lat":"31.264","category":"260","category_name":"其他","address":"普陀区延长西路88号"},{"poiid":"B2094757D06FA4FD4998","title":"和晟桌球","lon":"121.43774","lat":"31.26372","category":"171","category_name":"台球厅","address":"普陀区宜川路310号美华商城内(近延长西路)"},{"poiid":"B2094757D168A2FB4799","title":"培佳双语学校","lon":"121.43975","lat":"31.26485","category":"253","category_name":"校园生活","address":"普陀区宜川路351弄70号(近宜川路步行街)"},{"poiid":"B2094654D464A4FE4798","title":"合阳小区","lon":"121.43895","lat":"31.263123","category":"47","category_name":"住宅区","address":"延长西路150弄"},{"poiid":"B2094757D068A3FD459E","title":"金海马家具(沪太路店)","lon":"121.44479","lat":"31.26417","category":"123","category_name":"家具建材市场","address":"上海普陀区沪太路751号(延长路口)  "},{"poiid":"B2094655D26AA4FF449C","title":"久久丫鸭颈王 延长西路店","lon":"121.44215","lat":"31.2644","category":"68","category_name":"快餐厅","address":"普陀区延长西路66号(近宜川路)"},{"poiid":"B2094757D16AA5FC4899","title":"游子老鸭粉丝馆 延长西路店","lon":"121.442163054","lat":"31.264560793","category":"68","category_name":"快餐厅","address":"普陀区延长西路72号合阳菜市场旁(骊山路口)"},{"poiid":"B2094757D66EA6FD409F","title":"大宁烧烤","lon":"121.44163595","lat":"31.264056946","category":"247","category_name":"餐饮美食","address":"上海市普陀区延长西路86号"},{"poiid":"B2094757D06EAAFC489E","title":"新慧谷大厦","lon":"121.444366455","lat":"31.2666835785","category":"46","category_name":"楼宇","address":"上海沪太路799号"},{"poiid":"B2094757D068AAF9409D","title":"雪佛兰北美强生4S店","lon":"121.44156205","lat":"31.266580304","category":"158","category_name":"汽车销售","address":"上海沪太路宜川路"},{"poiid":"B2094757D06FA5F8419F","title":"新上海影都","lon":"121.437626","lat":"31.262073","category":"178","category_name":"电影院","address":"普陀区宜川路300号新上海影都内(近延长西路)"},{"poiid":"B2094654D464A4FE4998","title":"川湘阁(合阳小区西南)","lon":"121.43981","lat":"31.26307","category":"71","category_name":"四川菜","address":"普陀区延长西路(近宜川二村车站)"},{"poiid":"B2094655D36DA0F84392","title":"延长西路宜川路","lon":"121.4394","lat":"31.26256","category":"38","category_name":"公交车站","address":"上海市普陀区延长西路宜川路"},{"poiid":"B2094757D168A2F4439F","title":"泳申小吃部麻辣烫","lon":"121.44144995","lat":"31.263779941","category":"247","category_name":"餐饮美食","address":"上海市普陀区宜川路"},{"poiid":"B2094757D068A2FD4099","title":"传奇台球(普陀店)","lon":"121.43834695","lat":"31.262748921","category":"171","category_name":"台球厅","address":"普陀区宜川路305号2楼(近延长西路)"},{"poiid":"B2094655D36DA0F8439C","title":"延长西路沪太路","lon":"121.44264","lat":"31.26456","category":"38","category_name":"公交车站","address":""},{"poiid":"B2094750D26CA7FD469B","title":"大胡子烧烤","lon":"121.43812","lat":"31.26188","category":"68","category_name":"快餐厅","address":"普陀区宜川路(延长西路口)"},{"poiid":"B2094757D168A7FB459F","title":"延長西路","lon":"121.44253095","lat":"31.264466954","category":"500","category_name":"未知分类","address":"上海市普陀区延長西路"},{"poiid":"B2094654D464A4F44992","title":"上海市华阴小学","lon":"121.44129","lat":"31.26299","category":"56","category_name":"小学","address":"延长西路189"},{"poiid":"B2094654DB6AABFE439B","title":"可的","lon":"121.44067","lat":"31.26349","category":"117","category_name":"便民商店/便利店","address":"普陀区延长西路126-128号(合阳路延长西路)"},{"poiid":"B2094654D464A4F54293","title":"良友金伴No.634","lon":"121.44236","lat":"31.2634","category":"117","category_name":"便民商店/便利店","address":"骊山路274乙"},{"poiid":"B2094655D26FA7FC469C","title":"合阳小区(南二门)","lon":"121.44055","lat":"31.26347","category":"656","category_name":"大门","address":"延长西路150弄"},{"poiid":"B2094757D16DA3FD429A","title":"联想客户服务中心","lon":"121.44069795","lat":"31.263457935","category":"500","category_name":"未知分类","address":"上海市普陀区延长西路120号"},{"poiid":"B2094751DA6CA1F44392","title":"上海海洋水族馆","lon":"121.441201","lat":"31.265303","category":"248","category_name":"生活娱乐","address":"浦东新区陆家嘴环路1388号"},{"poiid":"B2094654D464A4FE449A","title":"中国银行上海市延长西路支行","lon":"121.44226","lat":"31.26448","category":"150","category_name":"银行","address":"普陀区延长西路60号(骊山路延长西路)"},{"poiid":"B2094654D464A4FE489F","title":"光明便利No.211","lon":"121.43999","lat":"31.26307","category":"117","category_name":"便民商店/便利店","address":"延长西路180"},{"poiid":"B2094757D165A3FF4893","title":"迪亚天天","lon":"121.441302","lat":"31.263812","category":"249","category_name":"购物服务","address":"上海延长西路店"},{"poiid":"B2094655D26AA6F54793","title":"溢湘轩","lon":"121.438038054","lat":"31.261862793","category":"77","category_name":"湖南菜","address":"普陀区宜川路291号(近延长西路)"},{"poiid":"B2094654D464A4F5439E","title":"上海市普陀区宜川新村幼儿园","lon":"121.4429","lat":"31.26438","category":"57","category_name":"幼儿园","address":"普陀区延长西路35号(近沪太路)"},{"poiid":"B2094757DA6FA3FA499A","title":"合阳市场","lon":"121.441967","lat":"31.2641299999997","category":"249","category_name":"购物服务","address":"普陀区延长西路78号"},{"poiid":"B2094654D464ABF84399","title":"凤中凰","lon":"121.43706056357","lat":"31.26334975322","category":"257","category_name":"中餐厅","address":"普陀区宜川路328号(近延长西路)"},{"poiid":"B2094654D464A4FE4692","title":"铃木&豪爵摩托车上海技术服务中心","lon":"121.44081","lat":"31.26357","category":"159","category_name":"汽车维修","address":"延长西路108"},{"poiid":"B2094655D26FA0F4449A","title":"延长小区(南门)","lon":"121.44274","lat":"31.26478","category":"47","category_name":"住宅区","address":""},{"poiid":"B2094757D16DA4FC489A","title":"国药大学","lon":"121.44348195","lat":"31.266903","category":"671","category_name":"高校中心点","address":"普陀区沪太路801号(近延长中路)"},{"poiid":"B2094757D16BA7FC4398","title":"上海电影艺术学院北校","lon":"121.44048255","lat":"31.2649436634","category":"500","category_name":"未知分类","address":"上海张江高科园区松涛路"},{"poiid":"B2094757D06FA7F54099","title":"宜川一村","lon":"121.437305","lat":"31.263651","category":"47","category_name":"住宅区","address":"上海延长西路宜川路"},{"poiid":"B2094752D46DA4FD4892","title":"华山医院","lon":"121.442409","lat":"31.261769","category":"162","category_name":"医院","address":"上海市乌鲁木齐中路12号"},{"poiid":"B2094654DB6AABFE4599","title":"上海市宜川中学(北门)","lon":"121.44403","lat":"31.26258","category":"678","category_name":"学校大门","address":"洛川路50"},{"poiid":"B2094654D464A4FF449E","title":"展宏小区","lon":"121.43943","lat":"31.26497","category":"47","category_name":"住宅区","address":"宜川路351弄60-66(双)"},{"poiid":"B2094757D469A1F5499E","title":"海底捞火锅店 新华园店","lon":"121.444061","lat":"31.266212","category":"86","category_name":"火锅店","address":"闸北区沪太路785号新华园(近延长中路)"},{"poiid":"B2094757D068A3FD439C","title":"宜川路","lon":"121.438645","lat":"31.260913","category":"500","category_name":"未知分类","address":"上海普陀区宜川路新村路"},{"poiid":"B2094655D265A3F4449D","title":"香溢花城","lon":"121.43961958287","lat":"31.262893373345","category":"47","category_name":"住宅区","address":"普陀区石泉东路168弄19号"},{"poiid":"B2094750DA6FA0FD4899","title":"炫音KTV（上海新华园店）","lon":"121.444068","lat":"31.266311","category":"170","category_name":"KTV","address":"闸北区沪太路785号新华园14幢5楼西侧"},{"poiid":"B2094655D26AAAFD479F","title":"向天歌烧鹅老铺 宜川路店","lon":"121.437554054","lat":"31.262404793","category":"72","category_name":"广东菜","address":"普陀区宜川路305号(近延长西路)"},{"poiid":"B2094757D068A4F9449E","title":"小绍兴(延长西路店)","lon":"121.44363","lat":"31.26494","category":"68","category_name":"快餐厅","address":"普陀区延长西路25号(近沪太路)"},{"poiid":"B2094654D464A4F44492","title":"宜川四村","lon":"121.44421","lat":"31.263229","category":"47","category_name":"住宅区","address":"沪太路765弄"},{"poiid":"B2094757D66FA6FA479C","title":"JEANS潮人店(京世宜川店)","lon":"121.43708706","lat":"31.263524998","category":"148","category_name":"美容美发店","address":"上海普陀区宜川路326号(近延长西路)"},{"poiid":"B2094757D06FA1F44892","title":"85度C(宜川店)","lon":"121.43786","lat":"31.26206","category":"112","category_name":"糕饼店","address":"普陀区宜川路310号美华商城1楼(近延长西路)"},{"poiid":"B2094655D264AAFA4298","title":"鑫亮酒家私房菜 延长西路店","lon":"121.44152","lat":"31.263833","category":"76","category_name":"上海菜","address":"普陀区延长西路66号(近骊山路)"},{"poiid":"B2094757D068A0FD439F","title":"新华文化创意科技园","lon":"121.444803","lat":"31.266059","category":"46","category_name":"楼宇","address":"上海延长中路801号"},{"poiid":"B2094750D76EA5FE4093","title":"旺角家常菜","lon":"121.441","lat":"31.264","category":"260","category_name":"其他","address":"普陀区延长西路88号"},{"poiid":"B2094757D06FA4FD4998","title":"和晟桌球","lon":"121.43774","lat":"31.26372","category":"171","category_name":"台球厅","address":"普陀区宜川路310号美华商城内(近延长西路)"},{"poiid":"B2094757D168A2FB4799","title":"培佳双语学校","lon":"121.43975","lat":"31.26485","category":"253","category_name":"校园生活","address":"普陀区宜川路351弄70号(近宜川路步行街)"},{"poiid":"B2094654D464A4FE4798","title":"合阳小区","lon":"121.43895","lat":"31.263123","category":"47","category_name":"住宅区","address":"延长西路150弄"},{"poiid":"B2094757D068A3FD459E","title":"金海马家具(沪太路店)","lon":"121.44479","lat":"31.26417","category":"123","category_name":"家具建材市场","address":"上海普陀区沪太路751号(延长路口)  "},{"poiid":"B2094655D26AA4FF449C","title":"久久丫鸭颈王 延长西路店","lon":"121.44215","lat":"31.2644","category":"68","category_name":"快餐厅","address":"普陀区延长西路66号(近宜川路)"},{"poiid":"B2094757D16AA5FC4899","title":"游子老鸭粉丝馆 延长西路店","lon":"121.442163054","lat":"31.264560793","category":"68","category_name":"快餐厅","address":"普陀区延长西路72号合阳菜市场旁(骊山路口)"},{"poiid":"B2094757D66EA6FD409F","title":"大宁烧烤","lon":"121.44163595","lat":"31.264056946","category":"247","category_name":"餐饮美食","address":"上海市普陀区延长西路86号"},{"poiid":"B2094757D06EAAFC489E","title":"新慧谷大厦","lon":"121.444366455","lat":"31.2666835785","category":"46","category_name":"楼宇","address":"上海沪太路799号"},{"poiid":"B2094757D068AAF9409D","title":"雪佛兰北美强生4S店","lon":"121.44156205","lat":"31.266580304","category":"158","category_name":"汽车销售","address":"上海沪太路宜川路"},{"poiid":"B2094757D06FA5F8419F","title":"新上海影都","lon":"121.437626","lat":"31.262073","category":"178","category_name":"电影院","address":"普陀区宜川路300号新上海影都内(近延长西路)"},{"poiid":"B2094654D464A4FE4998","title":"川湘阁(合阳小区西南)","lon":"121.43981","lat":"31.26307","category":"71","category_name":"四川菜","address":"普陀区延长西路(近宜川二村车站)"},{"poiid":"B2094655D36DA0F84392","title":"延长西路宜川路","lon":"121.4394","lat":"31.26256","category":"38","category_name":"公交车站","address":"上海市普陀区延长西路宜川路"},{"poiid":"B2094757D168A2F4439F","title":"泳申小吃部麻辣烫","lon":"121.44144995","lat":"31.263779941","category":"247","category_name":"餐饮美食","address":"上海市普陀区宜川路"},{"poiid":"B2094757D068A2FD4099","title":"传奇台球(普陀店)","lon":"121.43834695","lat":"31.262748921","category":"171","category_name":"台球厅","address":"普陀区宜川路305号2楼(近延长西路)"},{"poiid":"B2094655D36DA0F8439C","title":"延长西路沪太路","lon":"121.44264","lat":"31.26456","category":"38","category_name":"公交车站","address":""},{"poiid":"B2094750D26CA7FD469B","title":"大胡子烧烤","lon":"121.43812","lat":"31.26188","category":"68","category_name":"快餐厅","address":"普陀区宜川路(延长西路口)"},{"poiid":"B2094757D168A7FB459F","title":"延長西路","lon":"121.44253095","lat":"31.264466954","category":"500","category_name":"未知分类","address":"上海市普陀区延長西路"},{"poiid":"B2094654D464A4F44992","title":"上海市华阴小学","lon":"121.44129","lat":"31.26299","category":"56","category_name":"小学","address":"延长西路189"},{"poiid":"B2094654DB6AABFE439B","title":"可的","lon":"121.44067","lat":"31.26349","category":"117","category_name":"便民商店/便利店","address":"普陀区延长西路126-128号(合阳路延长西路)"},{"poiid":"B2094654D464A4F54293","title":"良友金伴No.634","lon":"121.44236","lat":"31.2634","category":"117","category_name":"便民商店/便利店","address":"骊山路274乙"},{"poiid":"B2094655D26FA7FC469C","title":"合阳小区(南二门)","lon":"121.44055","lat":"31.26347","category":"656","category_name":"大门","address":"延长西路150弄"},{"poiid":"B2094757D16DA3FD429A","title":"联想客户服务中心","lon":"121.44069795","lat":"31.263457935","category":"500","category_name":"未知分类","address":"上海市普陀区延长西路120号"},{"poiid":"B2094751DA6CA1F44392","title":"上海海洋水族馆","lon":"121.441201","lat":"31.265303","category":"248","category_name":"生活娱乐","address":"浦东新区陆家嘴环路1388号"},{"poiid":"B2094654D464A4FE449A","title":"中国银行上海市延长西路支行","lon":"121.44226","lat":"31.26448","category":"150","category_name":"银行","address":"普陀区延长西路60号(骊山路延长西路)"},{"poiid":"B2094654D464A4FE489F","title":"光明便利No.211","lon":"121.43999","lat":"31.26307","category":"117","category_name":"便民商店/便利店","address":"延长西路180"},{"poiid":"B2094757D165A3FF4893","title":"迪亚天天","lon":"121.441302","lat":"31.263812","category":"249","category_name":"购物服务","address":"上海延长西路店"},{"poiid":"B2094655D26AA6F54793","title":"溢湘轩","lon":"121.438038054","lat":"31.261862793","category":"77","category_name":"湖南菜","address":"普陀区宜川路291号(近延长西路)"},{"poiid":"B2094654D464A4F5439E","title":"上海市普陀区宜川新村幼儿园","lon":"121.4429","lat":"31.26438","category":"57","category_name":"幼儿园","address":"普陀区延长西路35号(近沪太路)"},{"poiid":"B2094757DA6FA3FA499A","title":"合阳市场","lon":"121.441967","lat":"31.2641299999997","category":"249","category_name":"购物服务","address":"普陀区延长西路78号"},{"poiid":"B2094654D464ABF84399","title":"凤中凰","lon":"121.43706056357","lat":"31.26334975322","category":"257","category_name":"中餐厅","address":"普陀区宜川路328号(近延长西路)"},{"poiid":"B2094654D464A4FE4692","title":"铃木&豪爵摩托车上海技术服务中心","lon":"121.44081","lat":"31.26357","category":"159","category_name":"汽车维修","address":"延长西路108"},{"poiid":"B2094655D26FA0F4449A","title":"延长小区(南门)","lon":"121.44274","lat":"31.26478","category":"47","category_name":"住宅区","address":""},{"poiid":"B2094757D16DA4FC489A","title":"国药大学","lon":"121.44348195","lat":"31.266903","category":"671","category_name":"高校中心点","address":"普陀区沪太路801号(近延长中路)"},{"poiid":"B2094757D16BA7FC4398","title":"上海电影艺术学院北校","lon":"121.44048255","lat":"31.2649436634","category":"500","category_name":"未知分类","address":"上海张江高科园区松涛路"},{"poiid":"B2094757D06FA7F54099","title":"宜川一村","lon":"121.437305","lat":"31.263651","category":"47","category_name":"住宅区","address":"上海延长西路宜川路"},{"poiid":"B2094752D46DA4FD4892","title":"华山医院","lon":"121.442409","lat":"31.261769","category":"162","category_name":"医院","address":"上海市乌鲁木齐中路12号"},{"poiid":"B2094654DB6AABFE4599","title":"上海市宜川中学(北门)","lon":"121.44403","lat":"31.26258","category":"678","category_name":"学校大门","address":"洛川路50"},{"poiid":"B2094654D464A4FF449E","title":"展宏小区","lon":"121.43943","lat":"31.26497","category":"47","category_name":"住宅区","address":"宜川路351弄60-66(双)"},{"poiid":"B2094757D469A1F5499E","title":"海底捞火锅店 新华园店","lon":"121.444061","lat":"31.266212","category":"86","category_name":"火锅店","address":"闸北区沪太路785号新华园(近延长中路)"},{"poiid":"B2094757D068A3FD439C","title":"宜川路","lon":"121.438645","lat":"31.260913","category":"500","category_name":"未知分类","address":"上海普陀区宜川路新村路"},{"poiid":"B2094655D265A3F4449D","title":"香溢花城","lon":"121.43961958287","lat":"31.262893373345","category":"47","category_name":"住宅区","address":"普陀区石泉东路168弄19号"},{"poiid":"B2094750DA6FA0FD4899","title":"炫音KTV（上海新华园店）","lon":"121.444068","lat":"31.266311","category":"170","category_name":"KTV","address":"闸北区沪太路785号新华园14幢5楼西侧"},{"poiid":"B2094655D26AAAFD479F","title":"向天歌烧鹅老铺 宜川路店","lon":"121.437554054","lat":"31.262404793","category":"72","category_name":"广东菜","address":"普陀区宜川路305号(近延长西路)"},{"poiid":"B2094757D068A4F9449E","title":"小绍兴(延长西路店)","lon":"121.44363","lat":"31.26494","category":"68","category_name":"快餐厅","address":"普陀区延长西路25号(近沪太路)"},{"poiid":"B2094654D464A4F44492","title":"宜川四村","lon":"121.44421","lat":"31.263229","category":"47","category_name":"住宅区","address":"沪太路765弄"},{"poiid":"B2094757D66FA6FA479C","title":"JEANS潮人店(京世宜川店)","lon":"121.43708706","lat":"31.263524998","category":"148","category_name":"美容美发店","address":"上海普陀区宜川路326号(近延长西路)"},{"poiid":"B2094757D06FA1F44892","title":"85度C(宜川店)","lon":"121.43786","lat":"31.26206","category":"112","category_name":"糕饼店","address":"普陀区宜川路310号美华商城1楼(近延长西路)"},{"poiid":"B2094655D264AAFA4298","title":"鑫亮酒家私房菜 延长西路店","lon":"121.44152","lat":"31.263833","category":"76","category_name":"上海菜","address":"普陀区延长西路66号(近骊山路)"},{"poiid":"B2094757D068A0FD439F","title":"新华文化创意科技园","lon":"121.444803","lat":"31.266059","category":"46","category_name":"楼宇","address":"上海延长中路801号"},{"poiid":"B2094750D76EA5FE4093","title":"旺角家常菜","lon":"121.441","lat":"31.264","category":"260","category_name":"其他","address":"普陀区延长西路88号"},{"poiid":"B2094757D06FA4FD4998","title":"和晟桌球","lon":"121.43774","lat":"31.26372","category":"171","category_name":"台球厅","address":"普陀区宜川路310号美华商城内(近延长西路)"},{"poiid":"B2094757D168A2FB4799","title":"培佳双语学校","lon":"121.43975","lat":"31.26485","category":"253","category_name":"校园生活","address":"普陀区宜川路351弄70号(近宜川路步行街)"},{"poiid":"B2094654D464A4FE4798","title":"合阳小区","lon":"121.43895","lat":"31.263123","category":"47","category_name":"住宅区","address":"延长西路150弄"},{"poiid":"B2094757D068A3FD459E","title":"金海马家具(沪太路店)","lon":"121.44479","lat":"31.26417","category":"123","category_name":"家具建材市场","address":"上海普陀区沪太路751号(延长路口)  "},{"poiid":"B2094655D26AA4FF449C","title":"久久丫鸭颈王 延长西路店","lon":"121.44215","lat":"31.2644","category":"68","category_name":"快餐厅","address":"普陀区延长西路66号(近宜川路)"},{"poiid":"B2094757D16AA5FC4899","title":"游子老鸭粉丝馆 延长西路店","lon":"121.442163054","lat":"31.264560793","category":"68","category_name":"快餐厅","address":"普陀区延长西路72号合阳菜市场旁(骊山路口)"},{"poiid":"B2094757D66EA6FD409F","title":"大宁烧烤","lon":"121.44163595","lat":"31.264056946","category":"247","category_name":"餐饮美食","address":"上海市普陀区延长西路86号"},{"poiid":"B2094757D06EAAFC489E","title":"新慧谷大厦","lon":"121.444366455","lat":"31.2666835785","category":"46","category_name":"楼宇","address":"上海沪太路799号"},{"poiid":"B2094757D068AAF9409D","title":"雪佛兰北美强生4S店","lon":"121.44156205","lat":"31.266580304","category":"158","category_name":"汽车销售","address":"上海沪太路宜川路"},{"poiid":"B2094757D06FA5F8419F","title":"新上海影都","lon":"121.437626","lat":"31.262073","category":"178","category_name":"电影院","address":"普陀区宜川路300号新上海影都内(近延长西路)"},{"poiid":"B2094654D464A4FE4998","title":"川湘阁(合阳小区西南)","lon":"121.43981","lat":"31.26307","category":"71","category_name":"四川菜","address":"普陀区延长西路(近宜川二村车站)"},{"poiid":"B2094655D36DA0F84392","title":"延长西路宜川路","lon":"121.4394","lat":"31.26256","category":"38","category_name":"公交车站","address":"上海市普陀区延长西路宜川路"},{"poiid":"B2094757D168A2F4439F","title":"泳申小吃部麻辣烫","lon":"121.44144995","lat":"31.263779941","category":"247","category_name":"餐饮美食","address":"上海市普陀区宜川路"},{"poiid":"B2094757D068A2FD4099","title":"传奇台球(普陀店)","lon":"121.43834695","lat":"31.262748921","category":"171","category_name":"台球厅","address":"普陀区宜川路305号2楼(近延长西路)"},{"poiid":"B2094655D36DA0F8439C","title":"延长西路沪太路","lon":"121.44264","lat":"31.26456","category":"38","category_name":"公交车站","address":""},{"poiid":"B2094750D26CA7FD469B","title":"大胡子烧烤","lon":"121.43812","lat":"31.26188","category":"68","category_name":"快餐厅","address":"普陀区宜川路(延长西路口)"},{"poiid":"B2094757D168A7FB459F","title":"延長西路","lon":"121.44253095","lat":"31.264466954","category":"500","category_name":"未知分类","address":"上海市普陀区延長西路"},{"poiid":"B2094654D464A4F44992","title":"上海市华阴小学","lon":"121.44129","lat":"31.26299","category":"56","category_name":"小学","address":"延长西路189"},{"poiid":"B2094654DB6AABFE439B","title":"可的","lon":"121.44067","lat":"31.26349","category":"117","category_name":"便民商店/便利店","address":"普陀区延长西路126-128号(合阳路延长西路)"},{"poiid":"B2094654D464A4F54293","title":"良友金伴No.634","lon":"121.44236","lat":"31.2634","category":"117","category_name":"便民商店/便利店","address":"骊山路274乙"},{"poiid":"B2094655D26FA7FC469C","title":"合阳小区(南二门)","lon":"121.44055","lat":"31.26347","category":"656","category_name":"大门","address":"延长西路150弄"},{"poiid":"B2094757D16DA3FD429A","title":"联想客户服务中心","lon":"121.44069795","lat":"31.263457935","category":"500","category_name":"未知分类","address":"上海市普陀区延长西路120号"},{"poiid":"B2094751DA6CA1F44392","title":"上海海洋水族馆","lon":"121.441201","lat":"31.265303","category":"248","category_name":"生活娱乐","address":"浦东新区陆家嘴环路1388号"},{"poiid":"B2094654D464A4FE449A","title":"中国银行上海市延长西路支行","lon":"121.44226","lat":"31.26448","category":"150","category_name":"银行","address":"普陀区延长西路60号(骊山路延长西路)"},{"poiid":"B2094654D464A4FE489F","title":"光明便利No.211","lon":"121.43999","lat":"31.26307","category":"117","category_name":"便民商店/便利店","address":"延长西路180"},{"poiid":"B2094757D165A3FF4893","title":"迪亚天天","lon":"121.441302","lat":"31.263812","category":"249","category_name":"购物服务","address":"上海延长西路店"},{"poiid":"B2094655D26AA6F54793","title":"溢湘轩","lon":"121.438038054","lat":"31.261862793","category":"77","category_name":"湖南菜","address":"普陀区宜川路291号(近延长西路)"},{"poiid":"B2094654D464A4F5439E","title":"上海市普陀区宜川新村幼儿园","lon":"121.4429","lat":"31.26438","category":"57","category_name":"幼儿园","address":"普陀区延长西路35号(近沪太路)"},{"poiid":"B2094757DA6FA3FA499A","title":"合阳市场","lon":"121.441967","lat":"31.2641299999997","category":"249","category_name":"购物服务","address":"普陀区延长西路78号"},{"poiid":"B2094654D464ABF84399","title":"凤中凰","lon":"121.43706056357","lat":"31.26334975322","category":"257","category_name":"中餐厅","address":"普陀区宜川路328号(近延长西路)"},{"poiid":"B2094654D464A4FE4692","title":"铃木&豪爵摩托车上海技术服务中心","lon":"121.44081","lat":"31.26357","category":"159","category_name":"汽车维修","address":"延长西路108"},{"poiid":"B2094655D26FA0F4449A","title":"延长小区(南门)","lon":"121.44274","lat":"31.26478","category":"47","category_name":"住宅区","address":""},{"poiid":"B2094757D16DA4FC489A","title":"国药大学","lon":"121.44348195","lat":"31.266903","category":"671","category_name":"高校中心点","address":"普陀区沪太路801号(近延长中路)"},{"poiid":"B2094757D16BA7FC4398","title":"上海电影艺术学院北校","lon":"121.44048255","lat":"31.2649436634","category":"500","category_name":"未知分类","address":"上海张江高科园区松涛路"},{"poiid":"B2094757D06FA7F54099","title":"宜川一村","lon":"121.437305","lat":"31.263651","category":"47","category_name":"住宅区","address":"上海延长西路宜川路"},{"poiid":"B2094752D46DA4FD4892","title":"华山医院","lon":"121.442409","lat":"31.261769","category":"162","category_name":"医院","address":"上海市乌鲁木齐中路12号"},{"poiid":"B2094654DB6AABFE4599","title":"上海市宜川中学(北门)","lon":"121.44403","lat":"31.26258","category":"678","category_name":"学校大门","address":"洛川路50"},{"poiid":"B2094654D464A4FF449E","title":"展宏小区","lon":"121.43943","lat":"31.26497","category":"47","category_name":"住宅区","address":"宜川路351弄60-66(双)"},{"poiid":"B2094757D469A1F5499E","title":"海底捞火锅店 新华园店","lon":"121.444061","lat":"31.266212","category":"86","category_name":"火锅店","address":"闸北区沪太路785号新华园(近延长中路)"},{"poiid":"B2094757D068A3FD439C","title":"宜川路","lon":"121.438645","lat":"31.260913","category":"500","category_name":"未知分类","address":"上海普陀区宜川路新村路"},{"poiid":"B2094655D265A3F4449D","title":"香溢花城","lon":"121.43961958287","lat":"31.262893373345","category":"47","category_name":"住宅区","address":"普陀区石泉东路168弄19号"},{"poiid":"B2094750DA6FA0FD4899","title":"炫音KTV（上海新华园店）","lon":"121.444068","lat":"31.266311","category":"170","category_name":"KTV","address":"闸北区沪太路785号新华园14幢5楼西侧"},{"poiid":"B2094655D26AAAFD479F","title":"向天歌烧鹅老铺 宜川路店","lon":"121.437554054","lat":"31.262404793","category":"72","category_name":"广东菜","address":"普陀区宜川路305号(近延长西路)"},{"poiid":"B2094757D068A4F9449E","title":"小绍兴(延长西路店)","lon":"121.44363","lat":"31.26494","category":"68","category_name":"快餐厅","address":"普陀区延长西路25号(近沪太路)"},{"poiid":"B2094654D464A4F44492","title":"宜川四村","lon":"121.44421","lat":"31.263229","category":"47","category_name":"住宅区","address":"沪太路765弄"},{"poiid":"B2094757D66FA6FA479C","title":"JEANS潮人店(京世宜川店)","lon":"121.43708706","lat":"31.263524998","category":"148","category_name":"美容美发店","address":"上海普陀区宜川路326号(近延长西路)"},{"poiid":"B2094757D06FA1F44892","title":"85度C(宜川店)","lon":"121.43786","lat":"31.26206","category":"112","category_name":"糕饼店","address":"普陀区宜川路310号美华商城1楼(近延长西路)"},{"poiid":"B2094655D264AAFA4298","title":"鑫亮酒家私房菜 延长西路店","lon":"121.44152","lat":"31.263833","category":"76","category_name":"上海菜","address":"普陀区延长西路66号(近骊山路)"},{"poiid":"B2094757D068A0FD439F","title":"新华文化创意科技园","lon":"121.444803","lat":"31.266059","category":"46","category_name":"楼宇","address":"上海延长中路801号"},{"poiid":"B2094750D76EA5FE4093","title":"旺角家常菜","lon":"121.441","lat":"31.264","category":"260","category_name":"其他","address":"普陀区延长西路88号"},{"poiid":"B2094757D06FA4FD4998","title":"和晟桌球","lon":"121.43774","lat":"31.26372","category":"171","category_name":"台球厅","address":"普陀区宜川路310号美华商城内(近延长西路)"},{"poiid":"B2094757D168A2FB4799","title":"培佳双语学校","lon":"121.43975","lat":"31.26485","category":"253","category_name":"校园生活","address":"普陀区宜川路351弄70号(近宜川路步行街)"},{"poiid":"B2094654D464A4FE4798","title":"合阳小区","lon":"121.43895","lat":"31.263123","category":"47","category_name":"住宅区","address":"延长西路150弄"},{"poiid":"B2094757D068A3FD459E","title":"金海马家具(沪太路店)","lon":"121.44479","lat":"31.26417","category":"123","category_name":"家具建材市场","address":"上海普陀区沪太路751号(延长路口)  "},{"poiid":"B2094655D26AA4FF449C","title":"久久丫鸭颈王 延长西路店","lon":"121.44215","lat":"31.2644","category":"68","category_name":"快餐厅","address":"普陀区延长西路66号(近宜川路)"},{"poiid":"B2094757D16AA5FC4899","title":"游子老鸭粉丝馆 延长西路店","lon":"121.442163054","lat":"31.264560793","category":"68","category_name":"快餐厅","address":"普陀区延长西路72号合阳菜市场旁(骊山路口)"},{"poiid":"B2094757D66EA6FD409F","title":"大宁烧烤","lon":"121.44163595","lat":"31.264056946","category":"247","category_name":"餐饮美食","address":"上海市普陀区延长西路86号"},{"poiid":"B2094757D06EAAFC489E","title":"新慧谷大厦","lon":"121.444366455","lat":"31.2666835785","category":"46","category_name":"楼宇","address":"上海沪太路799号"},{"poiid":"B2094757D068AAF9409D","title":"雪佛兰北美强生4S店","lon":"121.44156205","lat":"31.266580304","category":"158","category_name":"汽车销售","address":"上海沪太路宜川路"},{"poiid":"B2094757D06FA5F8419F","title":"新上海影都","lon":"121.437626","lat":"31.262073","category":"178","category_name":"电影院","address":"普陀区宜川路300号新上海影都内(近延长西路)"},{"poiid":"B2094654D464A4FE4998","title":"川湘阁(合阳小区西南)","lon":"121.43981","lat":"31.26307","category":"71","category_name":"四川菜","address":"普陀区延长西路(近宜川二村车站)"},{"poiid":"B2094655D36DA0F84392","title":"延长西路宜川路","lon":"121.4394","lat":"31.26256","category":"38","category_name":"公交车站","address":"上海市普陀区延长西路宜川路"},{"poiid":"B2094757D168A2F4439F","title":"泳申小吃部麻辣烫","lon":"121.44144995","lat":"31.263779941","category":"247","category_name":"餐饮美食","address":"上海市普陀区宜川路"},{"poiid":"B2094757D068A2FD4099","title":"传奇台球(普陀店)","lon":"121.43834695","lat":"31.262748921","category":"171","category_name":"台球厅","address":"普陀区宜川路305号2楼(近延长西路)"},{"poiid":"B2094655D36DA0F8439C","title":"延长西路沪太路","lon":"121.44264","lat":"31.26456","category":"38","category_name":"公交车站","address":""},{"poiid":"B2094750D26CA7FD469B","title":"大胡子烧烤","lon":"121.43812","lat":"31.26188","category":"68","category_name":"快餐厅","address":"普陀区宜川路(延长西路口)"},{"poiid":"B2094757D168A7FB459F","title":"延長西路","lon":"121.44253095","lat":"31.264466954","category":"500","category_name":"未知分类","address":"上海市普陀区延長西路"},{"poiid":"B2094654D464A4F44992","title":"上海市华阴小学","lon":"121.44129","lat":"31.26299","category":"56","category_name":"小学","address":"延长西路189"},{"poiid":"B2094654DB6AABFE439B","title":"可的","lon":"121.44067","lat":"31.26349","category":"117","category_name":"便民商店/便利店","address":"普陀区延长西路126-128号(合阳路延长西路)"},{"poiid":"B2094654D464A4F54293","title":"良友金伴No.634","lon":"121.44236","lat":"31.2634","category":"117","category_name":"便民商店/便利店","address":"骊山路274乙"},{"poiid":"B2094655D26FA7FC469C","title":"合阳小区(南二门)","lon":"121.44055","lat":"31.26347","category":"656","category_name":"大门","address":"延长西路150弄"},{"poiid":"B2094757D16DA3FD429A","title":"联想客户服务中心","lon":"121.44069795","lat":"31.263457935","category":"500","category_name":"未知分类","address":"上海市普陀区延长西路120号"},{"poiid":"B2094751DA6CA1F44392","title":"上海海洋水族馆","lon":"121.441201","lat":"31.265303","category":"248","category_name":"生活娱乐","address":"浦东新区陆家嘴环路1388号"},{"poiid":"B2094654D464A4FE449A","title":"中国银行上海市延长西路支行","lon":"121.44226","lat":"31.26448","category":"150","category_name":"银行","address":"普陀区延长西路60号(骊山路延长西路)"},{"poiid":"B2094654D464A4FE489F","title":"光明便利No.211","lon":"121.43999","lat":"31.26307","category":"117","category_name":"便民商店/便利店","address":"延长西路180"},{"poiid":"B2094757D165A3FF4893","title":"迪亚天天","lon":"121.441302","lat":"31.263812","category":"249","category_name":"购物服务","address":"上海延长西路店"},{"poiid":"B2094655D26AA6F54793","title":"溢湘轩","lon":"121.438038054","lat":"31.261862793","category":"77","category_name":"湖南菜","address":"普陀区宜川路291号(近延长西路)"},{"poiid":"B2094654D464A4F5439E","title":"上海市普陀区宜川新村幼儿园","lon":"121.4429","lat":"31.26438","category":"57","category_name":"幼儿园","address":"普陀区延长西路35号(近沪太路)"},{"poiid":"B2094757DA6FA3FA499A","title":"合阳市场","lon":"121.441967","lat":"31.2641299999997","category":"249","category_name":"购物服务","address":"普陀区延长西路78号"},{"poiid":"B2094654D464ABF84399","title":"凤中凰","lon":"121.43706056357","lat":"31.26334975322","category":"257","category_name":"中餐厅","address":"普陀区宜川路328号(近延长西路)"},{"poiid":"B2094654D464A4FE4692","title":"铃木&豪爵摩托车上海技术服务中心","lon":"121.44081","lat":"31.26357","category":"159","category_name":"汽车维修","address":"延长西路108"},{"poiid":"B2094655D26FA0F4449A","title":"延长小区(南门)","lon":"121.44274","lat":"31.26478","category":"47","category_name":"住宅区","address":""},{"poiid":"B2094757D16DA4FC489A","title":"国药大学","lon":"121.44348195","lat":"31.266903","category":"671","category_name":"高校中心点","address":"普陀区沪太路801号(近延长中路)"},{"poiid":"B2094757D16BA7FC4398","title":"上海电影艺术学院北校","lon":"121.44048255","lat":"31.2649436634","category":"500","category_name":"未知分类","address":"上海张江高科园区松涛路"},{"poiid":"B2094757D06FA7F54099","title":"宜川一村","lon":"121.437305","lat":"31.263651","category":"47","category_name":"住宅区","address":"上海延长西路宜川路"},{"poiid":"B2094752D46DA4FD4892","title":"华山医院","lon":"121.442409","lat":"31.261769","category":"162","category_name":"医院","address":"上海市乌鲁木齐中路12号"},{"poiid":"B2094654DB6AABFE4599","title":"上海市宜川中学(北门)","lon":"121.44403","lat":"31.26258","category":"678","category_name":"学校大门","address":"洛川路50"},{"poiid":"B2094654D464A4FF449E","title":"展宏小区","lon":"121.43943","lat":"31.26497","category":"47","category_name":"住宅区","address":"宜川路351弄60-66(双)"}]