[{"poiid":"B2094757D06FA2FF409B","title":"老西门","lon":"121.483696","lat":"31.219066","category":"250","category_name":"公园户外","address":"上海老西门"},{"poiid":"B2094757D06EAAFB489E","title":"老西门地铁站","lon":"121.483699","lat":"31.219058","category":"36","category_name":"地铁站","address":"上海轨道交通 八号线 十号线 轨交老西门站 8 10"},{"poiid":"B2094655D36CA1F4439B","title":"老西门","lon":"121.4842","lat":"31.22057","category":"38","category_name":"公交车站","address":"西藏南路方浜西路"},{"poiid":"B2094753D76FAAFA449C","title":"上海滩国泰旗舰店","lon":"121.466011","lat":"31.216125","category":"249","category_name":"购物服务","address":"淮海中路868号"},{"poiid":"B209475CD564A7F84292","title":"上海滩新天地店","lon":"121.47463","lat":"31.22164","category":"119","category_name":"商场","address":"\"太仓路181弄新天地北里15号\r\n\""},{"poiid":"B209475CD564A7F8439E","title":"上海滩中信泰富店","lon":"121.45602","lat":"31.22851","category":"119","category_name":"商场","address":"\"南京西路1168号中信泰富广场，店铺号221.\r\n\""},{"poiid":"B209475CD564A7F84392","title":"上海滩浦东香格里拉店","lon":"121.50058","lat":"31.23634","category":"119","category_name":"商场","address":"浦东富成路33号香格里拉酒店内大堂层"},{"poiid":"B2094757D06FA3FE499D","title":"松屋 西藏南路店","lon":"121.481204","lat":"31.224029","category":"95","category_name":"日本料理","address":"黄浦区西藏南路279号弘基西门町(近淮海中路)"},{"poiid":"B2094757D068A2FB409F","title":"寿宁路烧烤摊","lon":"121.48309","lat":"31.22394","category":"68","category_name":"快餐厅","address":"黄浦区寿宁路(人民路口)"},{"poiid":"B2094757D06FA6F84999","title":"黄浦中心","lon":"121.48331828","lat":"31.220969198","category":"46","category_name":"楼宇","address":"上海市黄浦区中华路1600号"},{"poiid":"B2094757D068A2FB4299","title":"老西门(人民路方浜中路)站","lon":"121.484038664","lat":"31.2210625482","category":"38","category_name":"公交车站","address":"上海黄浦区人民路(11,220,135,736,920,911路)"},{"poiid":"B2094757D068A0FC429F","title":"金天地国际大厦","lon":"121.482581","lat":"31.223014","category":"46","category_name":"楼宇","address":"黄浦区人民路998号"},{"poiid":"B2094757D064A7F54093","title":"usher OMG world tour","lon":"121.48348473","lat":"31.219800077","category":"500","category_name":"未知分类","address":"上海梅赛德斯•奔驰文化演艺中心"},{"poiid":"B2094753D76DA0FA4292","title":"K歌之王","lon":"121.487571","lat":"31.223407","category":"247","category_name":"餐饮美食","address":"上海市 金陵东路569号5楼"},{"poiid":"B2094654DA6EA5FF4199","title":"纯香园","lon":"121.48476","lat":"31.22209","category":"76","category_name":"上海菜","address":"黄浦区方浜中路772号(近人民路)"},{"poiid":"B2094757D165A7F4499A","title":"大方美食","lon":"121.48523173","lat":"31.221756119","category":"76","category_name":"上海菜","address":"黄浦区大方弄"},{"poiid":"B2094757D06AAAFD409F","title":"方浜路夜排档","lon":"121.48544973","lat":"31.223300152","category":"247","category_name":"餐饮美食","address":"上海市人民路方浜路"},{"poiid":"B2094753D665A6F4409A","title":"星怡會","lon":"121.48281","lat":"31.223274","category":"500","category_name":"未知分类","address":"上海市 上海無限度廣場2樓"},{"poiid":"B2094750DA64A5FF449F","title":"上海东方艺术中心","lon":"121.487915","lat":"31.222635","category":"500","category_name":"未知分类","address":null},{"poiid":"B2094655D265ABFC469B","title":"方中排档","lon":"121.48421","lat":"31.22172","category":"257","category_name":"中餐厅","address":"方浜中路776-780"},{"poiid":"B2094757D06FA5FA469D","title":"85度C(中华店)","lon":"121.485302479","lat":"31.2188424225","category":"112","category_name":"糕饼店","address":"黄浦区中华路1463号(近老西门)"},{"poiid":"B2094757D064A2FC499A","title":"红灯笼馄饨店","lon":"121.48712","lat":"31.22022","category":"68","category_name":"快餐厅","address":"黄浦区复兴东路959弄1-5号(近公交24路老西门站)"},{"poiid":"B209475CD26BA2FC4998","title":"80后烤吧","lon":"121.484519","lat":"31.224714","category":"247","category_name":"餐饮美食","address":"上海市 亚龙广场"},{"poiid":"B2094757D069A2F84099","title":"黄浦众鑫城","lon":"121.48293","lat":"31.219999","category":"47","category_name":"住宅区","address":"上海黄浦区西藏南路555弄"},{"poiid":"B209475CD56EA1F4499F","title":"连卡佛LaneCrawford","lon":"121.482719","lat":"31.223199","category":"249","category_name":"购物服务","address":"上海市 淮海中路93号"},{"poiid":"B2094757D06AA2F5459D","title":"豫园派出所","lon":"121.48399825","lat":"31.222190165","category":"609","category_name":"警察局","address":"上海方浜中路718号"},{"poiid":"B2094654DB65A4FF4793","title":"豫园地段医院","lon":"121.48516","lat":"31.22229","category":"162","category_name":"医院","address":"黄浦区方浜中路722号"},{"poiid":"B2094750DA6BA4F5459E","title":"老西门","lon":"121.483703","lat":"31.224035","category":"627","category_name":"一般地点标志","address":"地铁老西门站"},{"poiid":"B2094655D26FAAF54693","title":"肇方弄15弄小区","lon":"121.48447","lat":"31.22154","category":"47","category_name":"住宅区","address":"肇方弄15弄1-12号"},{"poiid":"B2094757D168A5F4499F","title":"上海文汇工程咨询有限公司","lon":"121.484296038","lat":"31.2222114292","category":"46","category_name":"楼宇","address":"上海市黄浦区人民路998号金天地国际大厦3A"},{"poiid":"B2094753D36FA2FB489C","title":"辣肉丝面馆","lon":"121.484818","lat":"31.222581","category":"247","category_name":"餐饮美食","address":"上海市 老西门肇周路"},{"poiid":"B2094757D168A0FA439D","title":"YOBA Frozen yogurt Bar","lon":"121.48523771","lat":"31.222019863","category":"500","category_name":"未知分类","address":"上海西藏南路279号109铺(近寿宁路)"},{"poiid":"B2094757D064A6FF439B","title":"豫园方浜中路","lon":"121.48439403","lat":"31.22228863","category":"500","category_name":"未知分类","address":"上海松雪街"},{"poiid":"B2094655D26FAAF5479A","title":"肇方弄15弄小区(西门)","lon":"121.48426","lat":"31.22151","category":"47","category_name":"住宅区","address":"肇方弄15弄1-12号"},{"poiid":"B2094757D169A7FA409E","title":"和平饭店华懋阁","lon":"121.48424073","lat":"31.219877079","category":"247","category_name":"餐饮美食","address":"上海黄浦区南京东路20号和平饭店9F"},{"poiid":"B2094757D069A3FB459A","title":"中华路复兴东路","lon":"121.4847201","lat":"31.219632484","category":"500","category_name":"未知分类","address":"上海中华路复兴东路"},{"poiid":"B2094757D06BA6FA4799","title":"肯德基常熟店","lon":"121.48379748","lat":"31.221551265","category":"500","category_name":"未知分类","address":"上海常熟路地铁站"},{"poiid":"B2094753D569ABFC419E","title":"99渡巫山烤全鱼","lon":"121.485588","lat":"31.223115","category":"247","category_name":"餐饮美食","address":"上海市 黄浦区淮海东路99号"},{"poiid":"B2094753D268A4FC419B","title":"东方明珠","lon":"121.48706","lat":"31.220684","category":"500","category_name":"未知分类","address":"上海市 浦东区"},{"poiid":"B2094752D06EA2FC429F","title":"新天地时尚","lon":"121.485703","lat":"31.223812","category":"248","category_name":"生活娱乐","address":"新天地"},{"poiid":"B209475CDB6FA7F94499","title":"梅賽德斯奔馳文化中心","lon":"121.485687","lat":"31.223163","category":"500","category_name":"未知分类","address":"上海市 世博園區"},{"poiid":"B2094655D26EABFC409E","title":"海国酒家","lon":"121.48520333007","lat":"31.219041314901","category":"257","category_name":"中餐厅","address":"中华路1616号"},{"poiid":"B2094757D16DAAF5479A","title":"老王汤圆","lon":"121.48316","lat":"31.2231","category":"68","category_name":"快餐厅","address":"黄浦区人民路958弄(近寿宁路)"},{"poiid":"B2094757D16DAAFC4598","title":"黄浦区妇幼保健所","lon":"121.4852","lat":"31.21922","category":"162","category_name":"医院","address":"上海黄浦区中华路1525号4楼(复兴东路口)  "},{"poiid":"B2094757D169A2F9429D","title":"泰和养生会所","lon":"121.485390138","lat":"31.2210536046","category":"148","category_name":"美容美发店","address":"黄浦区人民路998号金天地国际大厦1楼(近老西门)"},{"poiid":"B2094750DB6EA6F54999","title":"美罗城","lon":"121.486221","lat":"31.223758","category":"249","category_name":"购物服务","address":"徐汇区肇嘉浜路1111号"},{"poiid":"B2094655D265A0F8459E","title":"老西门茶商场","lon":"121.48403","lat":"31.21944","category":"119","category_name":"商场","address":"复兴东路1121"},{"poiid":"B2094757D16AA1FB449F","title":"味千拉面淮海东路店","lon":"121.48451995","lat":"31.223451614","category":"500","category_name":"未知分类","address":"上海淮海东路99号"},{"poiid":"B2094757D66EA2F8429D","title":"黄浦区豫园卫生服务中心","lon":"121.48427073","lat":"31.219771077","category":"500","category_name":"未知分类","address":"上海中华路1525号"},{"poiid":"B209475DD46EA1FB4392","title":"滩悦","lon":"121.483413","lat":"31.223274","category":"247","category_name":"餐饮美食","address":"上海市 连卡佛大上海时代广场5F"},{"poiid":"B2094757D06FA2FF409B","title":"老西门","lon":"121.483696","lat":"31.219066","category":"250","category_name":"公园户外","address":"上海老西门"},{"poiid":"B2094757D06EAAFB489E","title":"老西门地铁站","lon":"121.483699","lat":"31.219058","category":"36","category_name":"地铁站","address":"上海轨道交通 八号线 十号线 轨交老西门站 8 10"},{"poiid":"B2094655D36CA1F4439B","title":"老西门","lon":"121.4842","lat":"31.22057","category":"38","category_name":"公交车站","address":"西藏南路方浜西路"},{"poiid":"B2094753D76FAAFA449C","title":"上海滩国泰旗舰店","lon":"121.466011","lat":"31.216125","category":"249","category_name":"购物服务","address":"淮海中路868号"},{"poiid":"B209475CD564A7F84292","title":"上海滩新天地店","lon":"121.47463","lat":"31.22164","category":"119","category_name":"商场","address":"\"太仓路181弄新天地北里15号\r\n\""},{"poiid":"B209475CD564A7F8439E","title":"上海滩中信泰富店","lon":"121.45602","lat":"31.22851","category":"119","category_name":"商场","address":"\"南京西路1168号中信泰富广场，店铺号221.\r\n\""},{"poiid":"B209475CD564A7F84392","title":"上海滩浦东香格里拉店","lon":"121.50058","lat":"31.23634","category":"119","category_name":"商场","address":"浦东富成路33号香格里拉酒店内大堂层"},{"poiid":"B2094757D06FA3FE499D","title":"松屋 西藏南路店","lon":"121.481204","lat":"31.224029","category":"95","category_name":"日本料理","address":"黄浦区西藏南路279号弘基西门町(近淮海中路)"},{"poiid":"B2094757D068A2FB409F","title":"寿宁路烧烤摊","lon":"121.48309","lat":"31.22394","category":"68","category_name":"快餐厅","address":"黄浦区寿宁路(人民路口)"},{"poiid":"B2094757D06FA6F84999","title":"黄浦中心","lon":"121.48331828","lat":"31.220969198","category":"46","category_name":"楼宇","address":"上海市黄浦区中华路1600号"},{"poiid":"B2094757D068A2FB4299","title":"老西门(人民路方浜中路)站","lon":"121.484038664","lat":"31.2210625482","category":"38","category_name":"公交车站","address":"上海黄浦区人民路(11,220,135,736,920,911路)"},{"poiid":"B2094757D068A0FC429F","title":"金天地国际大厦","lon":"121.482581","lat":"31.223014","category":"46","category_name":"楼宇","address":"黄浦区人民路998号"},{"poiid":"B2094757D064A7F54093","title":"usher OMG world tour","lon":"121.48348473","lat":"31.219800077","category":"500","category_name":"未知分类","address":"上海梅赛德斯•奔驰文化演艺中心"},{"poiid":"B2094753D76DA0FA4292","title":"K歌之王","lon":"121.487571","lat":"31.223407","category":"247","category_name":"餐饮美食","address":"上海市 金陵东路569号5楼"},{"poiid":"B2094654DA6EA5FF4199","title":"纯香园","lon":"121.48476","lat":"31.22209","category":"76","category_name":"上海菜","address":"黄浦区方浜中路772号(近人民路)"},{"poiid":"B2094757D165A7F4499A","title":"大方美食","lon":"121.48523173","lat":"31.221756119","category":"76","category_name":"上海菜","address":"黄浦区大方弄"},{"poiid":"B2094757D06AAAFD409F","title":"方浜路夜排档","lon":"121.48544973","lat":"31.223300152","category":"247","category_name":"餐饮美食","address":"上海市人民路方浜路"},{"poiid":"B2094753D665A6F4409A","title":"星怡會","lon":"121.48281","lat":"31.223274","category":"500","category_name":"未知分类","address":"上海市 上海無限度廣場2樓"},{"poiid":"B2094750DA64A5FF449F","title":"上海东方艺术中心","lon":"121.487915","lat":"31.222635","category":"500","category_name":"未知分类","address":null},{"poiid":"B2094655D265ABFC469B","title":"方中排档","lon":"121.48421","lat":"31.22172","category":"257","category_name":"中餐厅","address":"方浜中路776-780"},{"poiid":"B2094757D06FA5FA469D","title":"85度C(中华店)","lon":"121.485302479","lat":"31.2188424225","category":"112","category_name":"糕饼店","address":"黄浦区中华路1463号(近老西门)"},{"poiid":"B2094757D064A2FC499A","title":"红灯笼馄饨店","lon":"121.48712","lat":"31.22022","category":"68","category_name":"快餐厅","address":"黄浦区复兴东路959弄1-5号(近公交24路老西门站)"},{"poiid":"B209475CD26BA2FC4998","title":"80后烤吧","lon":"121.484519","lat":"31.224714","category":"247","category_name":"餐饮美食","address":"上海市 亚龙广场"},{"poiid":"B2094757D069A2F84099","title":"黄浦众鑫城","lon":"121.48293","lat":"31.219999","category":"47","category_name":"住宅区","address":"上海黄浦区西藏南路555弄"},{"poiid":"B209475CD56EA1F4499F","title":"连卡佛LaneCrawford","lon":"121.482719","lat":"31.223199","category":"249","category_name":"购物服务","address":"上海市 淮海中路93号"},{"poiid":"B2094757D06AA2F5459D","title":"豫园派出所","lon":"121.48399825","lat":"31.222190165","category":"609","category_name":"警察局","address":"上海方浜中路718号"},{"poiid":"B2094654DB65A4FF4793","title":"豫园地段医院","lon":"121.48516","lat":"31.22229","category":"162","category_name":"医院","address":"黄浦区方浜中路722号"},{"poiid":"B2094750DA6BA4F5459E","title":"老西门","lon":"121.483703","lat":"31.224035","category":"627","category_name":"一般地点标志","address":"地铁老西门站"},{"poiid":"B2094655D26FAAF54693","title":"肇方弄15弄小区","lon":"121.48447","lat":"31.22154","category":"47","category_name":"住宅区","address":"肇方弄15弄1-12号"},{"poiid":"B2094757D168A5F4499F","title":"上海文汇工程咨询有限公司","lon":"121.484296038","lat":"31.2222114292","category":"46","category_name":"楼宇","address":"上海市黄浦区人民路998号金天地国际大厦3A"},{"poiid":"B2094753D36FA2FB489C","title":"辣肉丝面馆","lon":"121.484818","lat":"31.222581","category":"247","category_name":"餐饮美食","address":"上海市 老西门肇周路"},{"poiid":"B2094757D168A0FA439D","title":"YOBA Frozen yogurt Bar","lon":"121.48523771","lat":"31.222019863","category":"500","category_name":"未知分类","address":"上海西藏南路279号109铺(近寿宁路)"},{"poiid":"B2094757D064A6FF439B","title":"豫园方浜中路","lon":"121.48439403","lat":"31.22228863","category":"500","category_name":"未知分类","address":"上海松雪街"},{"poiid":"B2094655D26FAAF5479A","title":"肇方弄15弄小区(西门)","lon":"121.48426","lat":"31.22151","category":"47","category_name":"住宅区","address":"肇方弄15弄1-12号"},{"poiid":"B2094757D169A7FA409E","title":"和平饭店华懋阁","lon":"121.48424073","lat":"31.219877079","category":"247","category_name":"餐饮美食","address":"上海黄浦区南京东路20号和平饭店9F"},{"poiid":"B2094757D069A3FB459A","title":"中华路复兴东路","lon":"121.4847201","lat":"31.219632484","category":"500","category_name":"未知分类","address":"上海中华路复兴东路"},{"poiid":"B2094757D06BA6FA4799","title":"肯德基常熟店","lon":"121.48379748","lat":"31.221551265","category":"500","category_name":"未知分类","address":"上海常熟路地铁站"},{"poiid":"B2094753D569ABFC419E","title":"99渡巫山烤全鱼","lon":"121.485588","lat":"31.223115","category":"247","category_name":"餐饮美食","address":"上海市 黄浦区淮海东路99号"},{"poiid":"B2094753D268A4FC419B","title":"东方明珠","lon":"121.48706","lat":"31.220684","category":"500","category_name":"未知分类","address":"上海市 浦东区"},{"poiid":"B2094752D06EA2FC429F","title":"新天地时尚","lon":"121.485703","lat":"31.223812","category":"248","category_name":"生活娱乐","address":"新天地"},{"poiid":"B209475CDB6FA7F94499","title":"梅賽德斯奔馳文化中心","lon":"121.485687","lat":"31.223163","category":"500","category_name":"未知分类","address":"上海市 世博園區"},{"poiid":"B2094655D26EABFC409E","title":"海国酒家","lon":"121.48520333007","lat":"31.219041314901","category":"257","category_name":"中餐厅","address":"中华路1616号"},{"poiid":"B2094757D16DAAF5479A","title":"老王汤圆","lon":"121.48316","lat":"31.2231","category":"68","category_name":"快餐厅","address":"黄浦区人民路958弄(近寿宁路)"},{"poiid":"B2094757D16DAAFC4598","title":"黄浦区妇幼保健所","lon":"121.4852","lat":"31.21922","category":"162","category_name":"医院","address":"上海黄浦区中华路1525号4楼(复兴东路口)  "},{"poiid":"B2094757D169A2F9429D","title":"泰和养生会所","lon":"121.485390138","lat":"31.2210536046","category":"148","category_name":"美容美发店","address":"黄浦区人民路998号金天地国际大厦1楼(近老西门)"},{"poiid":"B2094750DB6EA6F54999","title":"美罗城","lon":"121.486221","lat":"31.223758","category":"249","category_name":"购物服务","address":"徐汇区肇嘉浜路1111号"},{"poiid":"B2094655D265A0F8459E","title":"老西门茶商场","lon":"121.48403","lat":"31.21944","category":"119","category_name":"商场","address":"复兴东路1121"},{"poiid":"B2094757D16AA1FB449F","title":"味千拉面淮海东路店","lon":"121.48451995","lat":"31.223451614","category":"500","category_name":"未知分类","address":"上海淮海东路99号"},{"poiid":"B2094757D66EA2F8429D","title":"黄浦区豫园卫生服务中心","lon":"121.48427073","lat":"31.219771077","category":"500","category_name":"未知分类","address":"上海中华路1525号"},{"poiid":"B209475DD46EA1FB4392","title":"滩悦","lon":"121.483413","lat":"31.223274","category":"247","category_name":"餐饮美食","address":"上海市 连卡佛大上海时代广场5F"},{"poiid":"B2094757D06FA2FF409B","title":"老西门","lon":"121.483696","lat":"31.219066","category":"250","category_name":"公园户外","address":"上海老西门"},{"poiid":"B2094757D06EAAFB489E","title":"老西门地铁站","lon":"121.483699","lat":"31.219058","category":"36","category_name":"地铁站","address":"上海轨道交通 八号线 十号线 轨交老西门站 8 10"},{"poiid":"B2094655D36CA1F4439B","title":"老西门","lon":"121.4842","lat":"31.22057","category":"38","category_name":"公交车站","address":"西藏南路方浜西路"},{"poiid":"B2094753D76FAAFA449C","title":"上海滩国泰旗舰店","lon":"121.466011","lat":"31.216125","category":"249","category_name":"购物服务","address":"淮海中路868号"},{"poiid":"B209475CD564A7F84292","title":"上海滩新天地店","lon":"121.47463","lat":"31.22164","category":"119","category_name":"商场","address":"\"太仓路181弄新天地北里15号\r\n\""},{"poiid":"B209475CD564A7F8439E","title":"上海滩中信泰富店","lon":"121.45602","lat":"31.22851","category":"119","category_name":"商场","address":"\"南京西路1168号中信泰富广场，店铺号221.\r\n\""},{"poiid":"B209475CD564A7F84392","title":"上海滩浦东香格里拉店","lon":"121.50058","lat":"31.23634","category":"119","category_name":"商场","address":"浦东富成路33号香格里拉酒店内大堂层"},{"poiid":"B2094757D06FA3FE499D","title":"松屋 西藏南路店","lon":"121.481204","lat":"31.224029","category":"95","category_name":"日本料理","address":"黄浦区西藏南路279号弘基西门町(近淮海中路)"},{"poiid":"B2094757D068A2FB409F","title":"寿宁路烧烤摊","lon":"121.48309","lat":"31.22394","category":"68","category_name":"快餐厅","address":"黄浦区寿宁路(人民路口)"},{"poiid":"B2094757D06FA6F84999","title":"黄浦中心","lon":"121.48331828","lat":"31.220969198","category":"46","category_name":"楼宇","address":"上海市黄浦区中华路1600号"},{"poiid":"B2094757D068A2FB4299","title":"老西门(人民路方浜中路)站","lon":"121.484038664","lat":"31.2210625482","category":"38","category_name":"公交车站","address":"上海黄浦区人民路(11,220,135,736,920,911路)"},{"poiid":"B2094757D068A0FC429F","title":"金天地国际大厦","lon":"121.482581","lat":"31.223014","category":"46","category_name":"楼宇","address":"黄浦区人民路998号"},{"poiid":"B2094757D064A7F54093","title":"usher OMG world tour","lon":"121.48348473","lat":"31.219800077","category":"500","category_name":"未知分类","address":"上海梅赛德斯•奔驰文化演艺中心"},{"poiid":"B2094753D76DA0FA4292","title":"K歌之王","lon":"121.487571","lat":"31.223407","category":"247","category_name":"餐饮美食","address":"上海市 金陵东路569号5楼"},{"poiid":"B2094654DA6EA5FF4199","title":"纯香园","lon":"121.48476","lat":"31.22209","category":"76","category_name":"上海菜","address":"黄浦区方浜中路772号(近人民路)"},{"poiid":"B2094757D165A7F4499A","title":"大方美食","lon":"121.48523173","lat":"31.221756119","category":"76","category_name":"上海菜","address":"黄浦区大方弄"},{"poiid":"B2094757D06AAAFD409F","title":"方浜路夜排档","lon":"121.48544973","lat":"31.223300152","category":"247","category_name":"餐饮美食","address":"上海市人民路方浜路"},{"poiid":"B2094753D665A6F4409A","title":"星怡會","lon":"121.48281","lat":"31.223274","category":"500","category_name":"未知分类","address":"上海市 上海無限度廣場2樓"},{"poiid":"B2094750DA64A5FF449F","title":"上海东方艺术中心","lon":"121.487915","lat":"31.222635","category":"500","category_name":"未知分类","address":null},{"poiid":"B2094655D265ABFC469B","title":"方中排档","lon":"121.48421","lat":"31.22172","category":"257","category_name":"中餐厅","address":"方浜中路776-780"},{"poiid":"B2094757D06FA5FA469D","title":"85度C(中华店)","lon":"121.485302479","lat":"31.2188424225","category":"112","category_name":"糕饼店","address":"黄浦区中华路1463号(近老西门)"},{"poiid":"B2094757D064A2FC499A","title":"红灯笼馄饨店","lon":"121.48712","lat":"31.22022","category":"68","category_name":"快餐厅","address":"黄浦区复兴东路959弄1-5号(近公交24路老西门站)"},{"poiid":"B209475CD26BA2FC4998","title":"80后烤吧","lon":"121.484519","lat":"31.224714","category":"247","category_name":"餐饮美食","address":"上海市 亚龙广场"},{"poiid":"B2094757D069A2F84099","title":"黄浦众鑫城","lon":"121.48293","lat":"31.219999","category":"47","category_name":"住宅区","address":"上海黄浦区西藏南路555弄"},{"poiid":"B209475CD56EA1F4499F","title":"连卡佛LaneCrawford","lon":"121.482719","lat":"31.223199","category":"249","category_name":"购物服务","address":"上海市 淮海中路93号"},{"poiid":"B2094757D06AA2F5459D","title":"豫园派出所","lon":"121.48399825","lat":"31.222190165","category":"609","category_name":"警察局","address":"上海方浜中路718号"},{"poiid":"B2094654DB65A4FF4793","title":"豫园地段医院","lon":"121.48516","lat":"31.22229","category":"162","category_name":"医院","address":"黄浦区方浜中路722号"},{"poiid":"B2094750DA6BA4F5459E","title":"老西门","lon":"121.483703","lat":"31.224035","category":"627","category_name":"一般地点标志","address":"地铁老西门站"},{"poiid":"B2094655D26FAAF54693","title":"肇方弄15弄小区","lon":"121.48447","lat":"31.22154","category":"47","category_name":"住宅区","address":"肇方弄15弄1-12号"},{"poiid":"B2094757D168A5F4499F","title":"上海文汇工程咨询有限公司","lon":"121.484296038","lat":"31.2222114292","category":"46","category_name":"楼宇","address":"上海市黄浦区人民路998号金天地国际大厦3A"},{"poiid":"B2094753D36FA2FB489C","title":"辣肉丝面馆","lon":"121.484818","lat":"31.222581","category":"247","category_name":"餐饮美食","address":"上海市 老西门肇周路"},{"poiid":"B2094757D168A0FA439D","title":"YOBA Frozen yogurt Bar","lon":"121.48523771","lat":"31.222019863","category":"500","category_name":"未知分类","address":"上海西藏南路279号109铺(近寿宁路)"},{"poiid":"B2094757D064A6FF439B","title":"豫园方浜中路","lon":"121.48439403","lat":"31.22228863","category":"500","category_name":"未知分类","address":"上海松雪街"},{"poiid":"B2094655D26FAAF5479A","title":"肇方弄15弄小区(西门)","lon":"121.48426","lat":"31.22151","category":"47","category_name":"住宅区","address":"肇方弄15弄1-12号"},{"poiid":"B2094757D169A7FA409E","title":"和平饭店华懋阁","lon":"121.48424073","lat":"31.219877079","category":"247","category_name":"餐饮美食","address":"上海黄浦区南京东路20号和平饭店9F"},{"poiid":"B2094757D069A3FB459A","title":"中华路复兴东路","lon":"121.4847201","lat":"31.219632484","category":"500","category_name":"未知分类","address":"上海中华路复兴东路"},{"poiid":"B2094757D06BA6FA4799","title":"肯德基常熟店","lon":"121.48379748","lat":"31.221551265","category":"500","category_name":"未知分类","address":"上海常熟路地铁站"},{"poiid":"B2094753D569ABFC419E","title":"99渡巫山烤全鱼","lon":"121.485588","lat":"31.223115","category":"247","category_name":"餐饮美食","address":"上海市 黄浦区淮海东路99号"},{"poiid":"B2094753D268A4FC419B","title":"东方明珠","lon":"121.48706","lat":"31.220684","category":"500","category_name":"未知分类","address":"上海市 浦东区"},{"poiid":"B2094752D06EA2FC429F","title":"新天地时尚","lon":"121.485703","lat":"31.223812","category":"248","category_name":"生活娱乐","address":"新天地"},{"poiid":"B209475CDB6FA7F94499","title":"梅賽德斯奔馳文化中心","lon":"121.485687","lat":"31.223163","category":"500","category_name":"未知分类","address":"上海市 世博園區"},{"poiid":"B2094655D26EABFC409E","title":"海国酒家","lon":"121.48520333007","lat":"31.219041314901","category":"257","category_name":"中餐厅","address":"中华路1616号"},{"poiid":"B2094757D16DAAF5479A","title":"老王汤圆","lon":"121.48316","lat":"31.2231","category":"68","category_name":"快餐厅","address":"黄浦区人民路958弄(近寿宁路)"},{"poiid":"B2094757D16DAAFC4598","title":"黄浦区妇幼保健所","lon":"121.4852","lat":"31.21922","category":"162","category_name":"医院","address":"上海黄浦区中华路1525号4楼(复兴东路口)  "},{"poiid":"B2094757D169A2F9429D","title":"泰和养生会所","lon":"121.485390138","lat":"31.2210536046","category":"148","category_name":"美容美发店","address":"黄浦区人民路998号金天地国际大厦1楼(近老西门)"},{"poiid":"B2094750DB6EA6F54999","title":"美罗城","lon":"121.486221","lat":"31.223758","category":"249","category_name":"购物服务","address":"徐汇区肇嘉浜路1111号"},{"poiid":"B2094655D265A0F8459E","title":"老西门茶商场","lon":"121.48403","lat":"31.21944","category":"119","category_name":"商场","address":"复兴东路1121"},{"poiid":"B2094757D16AA1FB449F","title":"味千拉面淮海东路店","lon":"121.48451995","lat":"31.223451614","category":"500","category_name":"未知分类","address":"上海淮海东路99号"},{"poiid":"B2094757D66EA2F8429D","title":"黄浦区豫园卫生服务中心","lon":"121.48427073","lat":"31.219771077","category":"500","category_name":"未知分类","address":"上海中华路1525号"},{"poiid":"B209475DD46EA1FB4392","title":"滩悦","lon":"121.483413","lat":"31.223274","category":"247","category_name":"餐饮美食","address":"上海市 连卡佛大上海时代广场5F"},{"poiid":"B2094757D06FA2FF409B","title":"老西门","lon":"121.483696","lat":"31.219066","category":"250","category_name":"公园户外","address":"上海老西门"},{"poiid":"B2094757D06EAAFB489E","title":"老西门地铁站","lon":"121.483699","lat":"31.219058","category":"36","category_name":"地铁站","address":"上海轨道交通 八号线 十号线 轨交老西门站 8 10"},{"poiid":"B2094655D36CA1F4439B","title":"老西门","lon":"121.4842","lat":"31.22057","category":"38","category_name":"公交车站","address":"西藏南路方浜西路"},{"poiid":"B2094753D76FAAFA449C","title":"上海滩国泰旗舰店","lon":"121.466011","lat":"31.216125","category":"249","category_name":"购物服务","address":"淮海中路868号"},{"poiid":"B209475CD564A7F84292","title":"上海滩新天地店","lon":"121.47463","lat":"31.22164","category":"119","category_name":"商场","address":"\"太仓路181弄新天地北里15号\r\n\""},{"poiid":"B209475CD564A7F8439E","title":"上海滩中信泰富店","lon":"121.45602","lat":"31.22851","category":"119","category_name":"商场","address":"\"南京西路1168号中信泰富广场，店铺号221.\r\n\""},{"poiid":"B209475CD564A7F84392","title":"上海滩浦东香格里拉店","lon":"121.50058","lat":"31.23634","category":"119","category_name":"商场","address":"浦东富成路33号香格里拉酒店内大堂层"},{"poiid":"B2094757D06FA3FE499D","title":"松屋 西藏南路店","lon":"121.481204","lat":"31.224029","category":"95","category_name":"日本料理","address":"黄浦区西藏南路279号弘基西门町(近淮海中路)"},{"poiid":"B2094757D068A2FB409F","title":"寿宁路烧烤摊","lon":"121.48309","lat":"31.22394","category":"68","category_name":"快餐厅","address":"黄浦区寿宁路(人民路口)"},{"poiid":"B2094757D06FA6F84999","title":"黄浦中心","lon":"121.48331828","lat":"31.220969198","category":"46","category_name":"楼宇","address":"上海市黄浦区中华路1600号"},{"poiid":"B2094757D068A2FB4299","title":"老西门(人民路方浜中路)站","lon":"121.484038664","lat":"31.2210625482","category":"38","category_name":"公交车站","address":"上海黄浦区人民路(11,220,135,736,920,911路)"},{"poiid":"B2094757D068A0FC429F","title":"金天地国际大厦","lon":"121.482581","lat":"31.223014","category":"46","category_name":"楼宇","address":"黄浦区人民路998号"},{"poiid":"B2094757D064A7F54093","title":"usher OMG world tour","lon":"121.48348473","lat":"31.219800077","category":"500","category_name":"未知分类","address":"上海梅赛德斯•奔驰文化演艺中心"},{"poiid":"B2094753D76DA0FA4292","title":"K歌之王","lon":"121.487571","lat":"31.223407","category":"247","category_name":"餐饮美食","address":"上海市 金陵东路569号5楼"},{"poiid":"B2094654DA6EA5FF4199","title":"纯香园","lon":"121.48476","lat":"31.22209","category":"76","category_name":"上海菜","address":"黄浦区方浜中路772号(近人民路)"},{"poiid":"B2094757D165A7F4499A","title":"大方美食","lon":"121.48523173","lat":"31.221756119","category":"76","category_name":"上海菜","address":"黄浦区大方弄"},{"poiid":"B2094757D06AAAFD409F","title":"方浜路夜排档","lon":"121.48544973","lat":"31.223300152","category":"247","category_name":"餐饮美食","address":"上海市人民路方浜路"},{"poiid":"B2094753D665A6F4409A","title":"星怡會","lon":"121.48281","lat":"31.223274","category":"500","category_name":"未知分类","address":"上海市 上海無限度廣場2樓"},{"poiid":"B2094750DA64A5FF449F","title":"上海东方艺术中心","lon":"121.487915","lat":"31.222635","category":"500","category_name":"未知分类","address":null},{"poiid":"B2094655D265ABFC469B","title":"方中排档","lon":"121.48421","lat":"31.22172","category":"257","category_name":"中餐厅","address":"方浜中路776-780"},{"poiid":"B2094757D06FA5FA469D","title":"85度C(中华店)","lon":"121.485302479","lat":"31.2188424225","category":"112","category_name":"糕饼店","address":"黄浦区中华路1463号(近老西门)"},{"poiid":"B2094757D064A2FC499A","title":"红灯笼馄饨店","lon":"121.48712","lat":"31.22022","category":"68","category_name":"快餐厅","address":"黄浦区复兴东路959弄1-5号(近公交24路老西门站)"},{"poiid":"B209475CD26BA2FC4998","title":"80后烤吧","lon":"121.484519","lat":"31.224714","category":"247","category_name":"餐饮美食","address":"上海市 亚龙广场"},{"poiid":"B2094757D069A2F84099","title":"黄浦众鑫城","lon":"121.48293","lat":"31.219999","category":"47","category_name":"住宅区","address":"上海黄浦区西藏南路555弄"},{"poiid":"B209475CD56EA1F4499F","title":"连卡佛LaneCrawford","lon":"121.482719","lat":"31.223199","category":"249","category_name":"购物服务","address":"上海市 淮海中路93号"},{"poiid":"B2094757D06AA2F5459D","title":"豫园派出所","lon":"121.48399825","lat":"31.222190165","category":"609","category_name":"警察局","address":"上海方浜中路718号"},{"poiid":"B2094654DB65A4FF4793","title":"豫园地段医院","lon":"121.48516","lat":"31.22229","category":"162","category_name":"医院","address":"黄浦区方浜中路722号"},{"poiid":"B2094750DA6BA4F5459E","title":"老西门","lon":"121.483703","lat":"31.224035","category":"627","category_name":"一般地点标志","address":"地铁老西门站"},{"poiid":"B2094655D26FAAF54693","title":"肇方弄15弄小区","lon":"121.48447","lat":"31.22154","category":"47","category_name":"住宅区","address":"肇方弄15弄1-12号"},{"poiid":"B2094757D168A5F4499F","title":"上海文汇工程咨询有限公司","lon":"121.484296038","lat":"31.2222114292","category":"46","category_name":"楼宇","address":"上海市黄浦区人民路998号金天地国际大厦3A"},{"poiid":"B2094753D36FA2FB489C","title":"辣肉丝面馆","lon":"121.484818","lat":"31.222581","category":"247","category_name":"餐饮美食","address":"上海市 老西门肇周路"},{"poiid":"B2094757D168A0FA439D","title":"YOBA Frozen yogurt Bar","lon":"121.48523771","lat":"31.222019863","category":"500","category_name":"未知分类","address":"上海西藏南路279号109铺(近寿宁路)"},{"poiid":"B2094757D064A6FF439B","title":"豫园方浜中路","lon":"121.48439403","lat":"31.22228863","category":"500","category_name":"未知分类","address":"上海松雪街"},{"poiid":"B2094655D26FAAF5479A","title":"肇方弄15弄小区(西门)","lon":"121.48426","lat":"31.22151","category":"47","category_name":"住宅区","address":"肇方弄15弄1-12号"},{"poiid":"B2094757D169A7FA409E","title":"和平饭店华懋阁","lon":"121.48424073","lat":"31.219877079","category":"247","category_name":"餐饮美食","address":"上海黄浦区南京东路20号和平饭店9F"},{"poiid":"B2094757D069A3FB459A","title":"中华路复兴东路","lon":"121.4847201","lat":"31.219632484","category":"500","category_name":"未知分类","address":"上海中华路复兴东路"},{"poiid":"B2094757D06BA6FA4799","title":"肯德基常熟店","lon":"121.48379748","lat":"31.221551265","category":"500","category_name":"未知分类","address":"上海常熟路地铁站"},{"poiid":"B2094753D569ABFC419E","title":"99渡巫山烤全鱼","lon":"121.485588","lat":"31.223115","category":"247","category_name":"餐饮美食","address":"上海市 黄浦区淮海东路99号"},{"poiid":"B2094753D268A4FC419B","title":"东方明珠","lon":"121.48706","lat":"31.220684","category":"500","category_name":"未知分类","address":"上海市 浦东区"},{"poiid":"B2094752D06EA2FC429F","title":"新天地时尚","lon":"121.485703","lat":"31.223812","category":"248","category_name":"生活娱乐","address":"新天地"},{"poiid":"B209475CDB6FA7F94499","title":"梅賽德斯奔馳文化中心","lon":"121.485687","lat":"31.223163","category":"500","category_name":"未知分类","address":"上海市 世博園區"},{"poiid":"B2094655D26EABFC409E","title":"海国酒家","lon":"121.48520333007","lat":"31.219041314901","category":"257","category_name":"中餐厅","address":"中华路1616号"},{"poiid":"B2094757D16DAAF5479A","title":"老王汤圆","lon":"121.48316","lat":"31.2231","category":"68","category_name":"快餐厅","address":"黄浦区人民路958弄(近寿宁路)"},{"poiid":"B2094757D16DAAFC4598","title":"黄浦区妇幼保健所","lon":"121.4852","lat":"31.21922","category":"162","category_name":"医院","address":"上海黄浦区中华路1525号4楼(复兴东路口)  "},{"poiid":"B2094757D169A2F9429D","title":"泰和养生会所","lon":"121.485390138","lat":"31.2210536046","category":"148","category_name":"美容美发店","address":"黄浦区人民路998号金天地国际大厦1楼(近老西门)"},{"poiid":"B2094750DB6EA6F54999","title":"美罗城","lon":"121.486221","lat":"31.223758","category":"249","category_name":"购物服务","address":"徐汇区肇嘉浜路1111号"},{"poiid":"B2094655D265A0F8459E","title":"老西门茶商场","lon":"121.48403","lat":"31.21944","category":"119","category_name":"商场","address":"复兴东路1121"},{"poiid":"B2094757D16AA1FB449F","title":"味千拉面淮海东路店","lon":"121.48451995","lat":"31.223451614","category":"500","category_name":"未知分类","address":"上海淮海东路99号"},{"poiid":"B2094757D66EA2F8429D","title":"黄浦区豫园卫生服务中心","lon":"121.48427073","lat":"31.219771077","category":"500","category_name":"未知分类","address":"上海中华路1525号"},{"poiid":"B209475DD46EA1FB4392","title":"滩悦","lon":"121.483413","lat":"31.223274","category":"247","category_name":"餐饮美食","address":"上海市 连卡佛大上海时代广场5F"}]