[{"poiid":"B2094757D165A3FA489E","title":"七宝老街","lon":"121.358113586","lat":"31.1531869255","category":"500","category_name":"未知分类","address":"闵行区七宝镇富强街(七莘路新镇路间)"},{"poiid":"B2094757D06EAAFD409D","title":"闵行体育公园","lon":"121.36664128","lat":"31.146892955","category":"500","category_name":"未知分类","address":"闵行区新镇路456号(近农南路)"},{"poiid":"B2094654DA64ABF5409E","title":"七宝镇步行街","lon":"121.35808437301637","lat":"31.153243179298574","category":"116","category_name":"特色商业街","address":"闵行区富强街"},{"poiid":"B2094757D06FA1FD4193","title":"七宝老街汤团店(七宝二店)","lon":"121.35493","lat":"31.15205","category":"68","category_name":"快餐厅","address":"闵行区七宝镇南大街14号(近富强街)"},{"poiid":"B2094757D06FA7FB4998","title":"七宝老饭店","lon":"121.3549","lat":"31.15256","category":"76","category_name":"上海菜","address":"闵行区七宝古镇北大街8号(近蒲汇塘桥)"},{"poiid":"B2094757D068A1FF4198","title":"七宝中学","lon":"121.36772541","lat":"31.149760126","category":"55","category_name":"中学","address":"闵行区七中路1号(近农南路)"},{"poiid":"B2094757D06FA5F54398","title":"龙袍蟹粉小笼馆(北大街店)","lon":"121.3568","lat":"31.15109","category":"257","category_name":"中餐厅","address":"闵行区七宝老街北大街15号(富强街竹行弄)"},{"poiid":"B2094757D069A2F84293","title":"七宝教寺","lon":"121.3578","lat":"31.15457","category":"244","category_name":"寺庙道观","address":"闵行区七宝镇新镇路1205号"},{"poiid":"B2094757D068A5FE499F","title":"上海交通大学农学院","lon":"121.35488128","lat":"31.147779464","category":"52","category_name":"高等院校","address":"上海闵行区七莘路2678号"},{"poiid":"B2094654DA6BABF4409D","title":"茂盛城市花园","lon":"121.36122","lat":"31.15213","category":"47","category_name":"住宅区","address":"新镇路1036弄"},{"poiid":"B2094757D065A4FD479F","title":"宝燕一号","lon":"121.359536857","lat":"31.1426382162","category":"500","category_name":"未知分类","address":"上海市闵行区七莘路中谊路口"},{"poiid":"B2094757D06FABF94093","title":"锡缘无锡小笼馆 七宝店","lon":"121.356020054","lat":"31.152483793","category":"68","category_name":"快餐厅","address":"闵行区七宝镇南大街54号(近富强街)"},{"poiid":"B2094757D068ABFC459F","title":"天香楼","lon":"121.35229762319","lat":"31.151826034328","category":"76","category_name":"上海菜","address":"闵行区七宝古镇北大街17号"},{"poiid":"B2094654DB69A6FE429B","title":"明强小学","lon":"121.3612","lat":"31.15171","category":"56","category_name":"小学","address":"闵行区七宝镇新镇路1050号"},{"poiid":"B2094757D068A6F54893","title":"七宝中学游泳馆","lon":"121.36752","lat":"31.15183","category":"253","category_name":"校园生活","address":"上海闵行区农南路22号七宝中学内"},{"poiid":"B2094654DA64ABFB499E","title":"七宝茶馆","lon":"121.35478","lat":"31.15227","category":"66","category_name":"茶艺馆","address":"闵行区七宝老街南大街9号(近富强街)"},{"poiid":"B2094757D06AA3FD409A","title":"塘桥老饭店","lon":"121.35437","lat":"31.15208","category":"75","category_name":"浙江菜","address":"闵行区七宝古镇南大街(近蒲汇塘桥)"},{"poiid":"B2094655D36CA2FE469B","title":"七莘路中谊路","lon":"121.35889","lat":"31.14229","category":"38","category_name":"公交车站","address":""},{"poiid":"B2094757D068A4FC499C","title":"老街臭豆腐","lon":"121.35285","lat":"31.14983","category":"68","category_name":"快餐厅","address":"闵行区七宝镇富强街29号(富强街竹行弄)"},{"poiid":"B2094654DA64ABFB479D","title":"龙袍蟹黄汤包","lon":"121.3554","lat":"31.15167","category":"68","category_name":"快餐厅","address":"闵行区七宝老街南大街43号(近富强街)"},{"poiid":"B2094757D069A3FA4492","title":"七宝古镇羊肉店","lon":"121.354374054","lat":"31.152532793","category":"68","category_name":"快餐厅","address":"闵行区七宝古镇南西街9号(近蒲汇塘桥)"},{"poiid":"B2094751DA6BA1F8469D","title":"上海虹桥机场","lon":"121.367375","lat":"31.152502","category":"500","category_name":"未知分类","address":null},{"poiid":"B2094750DA65A2FC4092","title":"徐家汇","lon":"121.363052","lat":"31.15085","category":"500","category_name":"未知分类","address":null},{"poiid":"B2094757D069A1FB409D","title":"牛杂第一家","lon":"121.3554","lat":"31.15153","category":"68","category_name":"快餐厅","address":"闵行区七宝古镇南大街36号(近富强街)"},{"poiid":"B2094654DA6BAAF8449A","title":"小浦东鸡粥店","lon":"121.36159","lat":"31.15087","category":"68","category_name":"快餐厅","address":"闵行区新镇路979号(近宝南路)"},{"poiid":"B2094654DA6BAAF84498","title":"东方花园二期","lon":"121.36456","lat":"31.14593","category":"47","category_name":"住宅区","address":"上海新镇路603弄"},{"poiid":"B2094654DA64A3FA4492","title":"华夏茗苑","lon":"121.356901","lat":"31.150532","category":"47","category_name":"住宅区","address":"闵行宝南路508弄"},{"poiid":"B2094757D165A7F5449B","title":"七宝皮影艺术馆","lon":"121.36349","lat":"31.14923","category":"179","category_name":"音乐厅","address":"闵行区七宝古镇北西街95号(近七宝老街)"},{"poiid":"B2094654DA6BABFB489D","title":"宝仪花苑","lon":"121.36406","lat":"31.149136","category":"47","category_name":"住宅区","address":"宝仪花苑位于闵行新镇路876弄"},{"poiid":"B2094757D568A4FF479A","title":"舒友海鲜大酒楼(宝南小区东南)","lon":"121.35485731","lat":"31.14685655","category":"260","category_name":"其他","address":"闵行区七莘路2409号(交通大学对面)"},{"poiid":"B2094757D16CA7F5489A","title":"启英幼儿园","lon":"121.36079","lat":"31.151989","category":"57","category_name":"幼儿园","address":"闵行区新镇路1085号"},{"poiid":"B2094757D568AAFC4499","title":"茂盛城市花园三期","lon":"121.3616331","lat":"31.15159","category":"47","category_name":"住宅区","address":"上海市闵行区新镇路1036号"},{"poiid":"B2094757D065AAFE419D","title":"水景书香园","lon":"121.36394","lat":"31.149473","category":"500","category_name":"未知分类","address":"上海新镇路888弄"},{"poiid":"B2094757D06FA0FB499A","title":"外环线","lon":"121.37167739","lat":"31.147986525","category":"500","category_name":"未知分类","address":"上海外环线"},{"poiid":"B2094654DB69A6F84993","title":"亿豪名邸","lon":"121.365","lat":"31.1498","category":"47","category_name":"住宅区","address":"上海市闵行区七莘路2368号"},{"poiid":"B2094654DA6BAAFF409C","title":"闵行体育公园(农南路)","lon":"121.36664","lat":"31.14692","category":"196","category_name":"公园","address":"农南路55"},{"poiid":"B2094655D36CA5F54799","title":"宝仪花园","lon":"121.36292","lat":"31.14909","category":"47","category_name":"住宅区","address":"上海新镇路876弄51号"},{"poiid":"B2094654DA64A3F94993","title":"三佳花苑","lon":"121.36186","lat":"31.156012","category":"47","category_name":"住宅区","address":"上海新镇路1060弄"},{"poiid":"B2094757D06AA3F4489E","title":"碧林湾三期摩登堂","lon":"121.361528","lat":"31.14566","category":"47","category_name":"住宅区","address":"上海市闵行区中谊路909弄"},{"poiid":"B2094757D165A3F8409F","title":"桂花藕粉圆","lon":"121.357509086","lat":"31.1513757901","category":"68","category_name":"快餐厅","address":"闵行区七宝老街南大街15号"},{"poiid":"B2094750D56DA3FB489B","title":"七宝三中","lon":"121.363418","lat":"31.153989","category":"55","category_name":"中学","address":"闵行区宝南路88号(近七宝老街)"},{"poiid":"B2094757D168A3FC429E","title":"老宅角","lon":"121.36076","lat":"31.150486","category":"500","category_name":"未知分类","address":"新镇路983弄"},{"poiid":"B2094654DA6BAAF5479C","title":"原墅香洲","lon":"121.36338949989","lat":"31.147184718032","category":"47","category_name":"住宅区","address":"中谊路666弄"},{"poiid":"B2094654DA64A3FE469D","title":"上海市公安局闵行分局交通警察支队二中队","lon":"121.36434","lat":"31.15729","category":"248","category_name":"生活娱乐","address":""},{"poiid":"B2094654DA6BAAFF4499","title":"上海交通大学农学院教学实验实习场","lon":"121.3608","lat":"31.14799","category":"52","category_name":"高等院校","address":""},{"poiid":"B2094655D26BA4F4449C","title":"绿野香舟苑二期","lon":"121.365","lat":"31.148","category":"47","category_name":"住宅区","address":"上海市闵行区中谊路888弄"},{"poiid":"B2094757D66BA4F8469E","title":"妯娌老鸭粉丝汤 七宝店","lon":"121.35589594023","lat":"31.153406686535","category":"68","category_name":"快餐厅","address":"闵行区七宝老街南大街41号(近富强街)"},{"poiid":"B2094757D568A5FB439F","title":"中欧国际工商学院","lon":"121.3619","lat":"31.14384","category":"671","category_name":"高校中心点","address":"红枫路699号"},{"poiid":"B2094757D165A6FF459F","title":"东方花园三期","lon":"121.36506","lat":"31.142696","category":"47","category_name":"住宅区","address":"上海市闵行区新镇路603弄"},{"poiid":"B2094654DA6BAAF8449B","title":"新村学院","lon":"121.36381","lat":"31.14744","category":"52","category_name":"高等院校","address":"闵行区新镇路701弄"},{"poiid":"B2094757D165A3FA489E","title":"七宝老街","lon":"121.358113586","lat":"31.1531869255","category":"500","category_name":"未知分类","address":"闵行区七宝镇富强街(七莘路新镇路间)"},{"poiid":"B2094757D06EAAFD409D","title":"闵行体育公园","lon":"121.36664128","lat":"31.146892955","category":"500","category_name":"未知分类","address":"闵行区新镇路456号(近农南路)"},{"poiid":"B2094654DA64ABF5409E","title":"七宝镇步行街","lon":"121.35808437301637","lat":"31.153243179298574","category":"116","category_name":"特色商业街","address":"闵行区富强街"},{"poiid":"B2094757D06FA1FD4193","title":"七宝老街汤团店(七宝二店)","lon":"121.35493","lat":"31.15205","category":"68","category_name":"快餐厅","address":"闵行区七宝镇南大街14号(近富强街)"},{"poiid":"B2094757D06FA7FB4998","title":"七宝老饭店","lon":"121.3549","lat":"31.15256","category":"76","category_name":"上海菜","address":"闵行区七宝古镇北大街8号(近蒲汇塘桥)"},{"poiid":"B2094757D068A1FF4198","title":"七宝中学","lon":"121.36772541","lat":"31.149760126","category":"55","category_name":"中学","address":"闵行区七中路1号(近农南路)"},{"poiid":"B2094757D06FA5F54398","title":"龙袍蟹粉小笼馆(北大街店)","lon":"121.3568","lat":"31.15109","category":"257","category_name":"中餐厅","address":"闵行区七宝老街北大街15号(富强街竹行弄)"},{"poiid":"B2094757D069A2F84293","title":"七宝教寺","lon":"121.3578","lat":"31.15457","category":"244","category_name":"寺庙道观","address":"闵行区七宝镇新镇路1205号"},{"poiid":"B2094757D068A5FE499F","title":"上海交通大学农学院","lon":"121.35488128","lat":"31.147779464","category":"52","category_name":"高等院校","address":"上海闵行区七莘路2678号"},{"poiid":"B2094654DA6BABF4409D","title":"茂盛城市花园","lon":"121.36122","lat":"31.15213","category":"47","category_name":"住宅区","address":"新镇路1036弄"},{"poiid":"B2094757D065A4FD479F","title":"宝燕一号","lon":"121.359536857","lat":"31.1426382162","category":"500","category_name":"未知分类","address":"上海市闵行区七莘路中谊路口"},{"poiid":"B2094757D06FABF94093","title":"锡缘无锡小笼馆 七宝店","lon":"121.356020054","lat":"31.152483793","category":"68","category_name":"快餐厅","address":"闵行区七宝镇南大街54号(近富强街)"},{"poiid":"B2094757D068ABFC459F","title":"天香楼","lon":"121.35229762319","lat":"31.151826034328","category":"76","category_name":"上海菜","address":"闵行区七宝古镇北大街17号"},{"poiid":"B2094654DB69A6FE429B","title":"明强小学","lon":"121.3612","lat":"31.15171","category":"56","category_name":"小学","address":"闵行区七宝镇新镇路1050号"},{"poiid":"B2094757D068A6F54893","title":"七宝中学游泳馆","lon":"121.36752","lat":"31.15183","category":"253","category_name":"校园生活","address":"上海闵行区农南路22号七宝中学内"},{"poiid":"B2094654DA64ABFB499E","title":"七宝茶馆","lon":"121.35478","lat":"31.15227","category":"66","category_name":"茶艺馆","address":"闵行区七宝老街南大街9号(近富强街)"},{"poiid":"B2094757D06AA3FD409A","title":"塘桥老饭店","lon":"121.35437","lat":"31.15208","category":"75","category_name":"浙江菜","address":"闵行区七宝古镇南大街(近蒲汇塘桥)"},{"poiid":"B2094655D36CA2FE469B","title":"七莘路中谊路","lon":"121.35889","lat":"31.14229","category":"38","category_name":"公交车站","address":""},{"poiid":"B2094757D068A4FC499C","title":"老街臭豆腐","lon":"121.35285","lat":"31.14983","category":"68","category_name":"快餐厅","address":"闵行区七宝镇富强街29号(富强街竹行弄)"},{"poiid":"B2094654DA64ABFB479D","title":"龙袍蟹黄汤包","lon":"121.3554","lat":"31.15167","category":"68","category_name":"快餐厅","address":"闵行区七宝老街南大街43号(近富强街)"},{"poiid":"B2094757D069A3FA4492","title":"七宝古镇羊肉店","lon":"121.354374054","lat":"31.152532793","category":"68","category_name":"快餐厅","address":"闵行区七宝古镇南西街9号(近蒲汇塘桥)"},{"poiid":"B2094751DA6BA1F8469D","title":"上海虹桥机场","lon":"121.367375","lat":"31.152502","category":"500","category_name":"未知分类","address":null},{"poiid":"B2094750DA65A2FC4092","title":"徐家汇","lon":"121.363052","lat":"31.15085","category":"500","category_name":"未知分类","address":null},{"poiid":"B2094757D069A1FB409D","title":"牛杂第一家","lon":"121.3554","lat":"31.15153","category":"68","category_name":"快餐厅","address":"闵行区七宝古镇南大街36号(近富强街)"},{"poiid":"B2094654DA6BAAF8449A","title":"小浦东鸡粥店","lon":"121.36159","lat":"31.15087","category":"68","category_name":"快餐厅","address":"闵行区新镇路979号(近宝南路)"},{"poiid":"B2094654DA6BAAF84498","title":"东方花园二期","lon":"121.36456","lat":"31.14593","category":"47","category_name":"住宅区","address":"上海新镇路603弄"},{"poiid":"B2094654DA64A3FA4492","title":"华夏茗苑","lon":"121.356901","lat":"31.150532","category":"47","category_name":"住宅区","address":"闵行宝南路508弄"},{"poiid":"B2094757D165A7F5449B","title":"七宝皮影艺术馆","lon":"121.36349","lat":"31.14923","category":"179","category_name":"音乐厅","address":"闵行区七宝古镇北西街95号(近七宝老街)"},{"poiid":"B2094654DA6BABFB489D","title":"宝仪花苑","lon":"121.36406","lat":"31.149136","category":"47","category_name":"住宅区","address":"宝仪花苑位于闵行新镇路876弄"},{"poiid":"B2094757D568A4FF479A","title":"舒友海鲜大酒楼(宝南小区东南)","lon":"121.35485731","lat":"31.14685655","category":"260","category_name":"其他","address":"闵行区七莘路2409号(交通大学对面)"},{"poiid":"B2094757D16CA7F5489A","title":"启英幼儿园","lon":"121.36079","lat":"31.151989","category":"57","category_name":"幼儿园","address":"闵行区新镇路1085号"},{"poiid":"B2094757D568AAFC4499","title":"茂盛城市花园三期","lon":"121.3616331","lat":"31.15159","category":"47","category_name":"住宅区","address":"上海市闵行区新镇路1036号"},{"poiid":"B2094757D065AAFE419D","title":"水景书香园","lon":"121.36394","lat":"31.149473","category":"500","category_name":"未知分类","address":"上海新镇路888弄"},{"poiid":"B2094757D06FA0FB499A","title":"外环线","lon":"121.37167739","lat":"31.147986525","category":"500","category_name":"未知分类","address":"上海外环线"},{"poiid":"B2094654DB69A6F84993","title":"亿豪名邸","lon":"121.365","lat":"31.1498","category":"47","category_name":"住宅区","address":"上海市闵行区七莘路2368号"},{"poiid":"B2094654DA6BAAFF409C","title":"闵行体育公园(农南路)","lon":"121.36664","lat":"31.14692","category":"196","category_name":"公园","address":"农南路55"},{"poiid":"B2094655D36CA5F54799","title":"宝仪花园","lon":"121.36292","lat":"31.14909","category":"47","category_name":"住宅区","address":"上海新镇路876弄51号"},{"poiid":"B2094654DA64A3F94993","title":"三佳花苑","lon":"121.36186","lat":"31.156012","category":"47","category_name":"住宅区","address":"上海新镇路1060弄"},{"poiid":"B2094757D06AA3F4489E","title":"碧林湾三期摩登堂","lon":"121.361528","lat":"31.14566","category":"47","category_name":"住宅区","address":"上海市闵行区中谊路909弄"},{"poiid":"B2094757D165A3F8409F","title":"桂花藕粉圆","lon":"121.357509086","lat":"31.1513757901","category":"68","category_name":"快餐厅","address":"闵行区七宝老街南大街15号"},{"poiid":"B2094750D56DA3FB489B","title":"七宝三中","lon":"121.363418","lat":"31.153989","category":"55","category_name":"中学","address":"闵行区宝南路88号(近七宝老街)"},{"poiid":"B2094757D168A3FC429E","title":"老宅角","lon":"121.36076","lat":"31.150486","category":"500","category_name":"未知分类","address":"新镇路983弄"},{"poiid":"B2094654DA6BAAF5479C","title":"原墅香洲","lon":"121.36338949989","lat":"31.147184718032","category":"47","category_name":"住宅区","address":"中谊路666弄"},{"poiid":"B2094654DA64A3FE469D","title":"上海市公安局闵行分局交通警察支队二中队","lon":"121.36434","lat":"31.15729","category":"248","category_name":"生活娱乐","address":""},{"poiid":"B2094654DA6BAAFF4499","title":"上海交通大学农学院教学实验实习场","lon":"121.3608","lat":"31.14799","category":"52","category_name":"高等院校","address":""},{"poiid":"B2094655D26BA4F4449C","title":"绿野香舟苑二期","lon":"121.365","lat":"31.148","category":"47","category_name":"住宅区","address":"上海市闵行区中谊路888弄"},{"poiid":"B2094757D66BA4F8469E","title":"妯娌老鸭粉丝汤 七宝店","lon":"121.35589594023","lat":"31.153406686535","category":"68","category_name":"快餐厅","address":"闵行区七宝老街南大街41号(近富强街)"},{"poiid":"B2094757D568A5FB439F","title":"中欧国际工商学院","lon":"121.3619","lat":"31.14384","category":"671","category_name":"高校中心点","address":"红枫路699号"},{"poiid":"B2094757D165A6FF459F","title":"东方花园三期","lon":"121.36506","lat":"31.142696","category":"47","category_name":"住宅区","address":"上海市闵行区新镇路603弄"},{"poiid":"B2094654DA6BAAF8449B","title":"新村学院","lon":"121.36381","lat":"31.14744","category":"52","category_name":"高等院校","address":"闵行区新镇路701弄"},{"poiid":"B2094757D165A3FA489E","title":"七宝老街","lon":"121.358113586","lat":"31.1531869255","category":"500","category_name":"未知分类","address":"闵行区七宝镇富强街(七莘路新镇路间)"},{"poiid":"B2094757D06EAAFD409D","title":"闵行体育公园","lon":"121.36664128","lat":"31.146892955","category":"500","category_name":"未知分类","address":"闵行区新镇路456号(近农南路)"},{"poiid":"B2094654DA64ABF5409E","title":"七宝镇步行街","lon":"121.35808437301637","lat":"31.153243179298574","category":"116","category_name":"特色商业街","address":"闵行区富强街"},{"poiid":"B2094757D06FA1FD4193","title":"七宝老街汤团店(七宝二店)","lon":"121.35493","lat":"31.15205","category":"68","category_name":"快餐厅","address":"闵行区七宝镇南大街14号(近富强街)"},{"poiid":"B2094757D06FA7FB4998","title":"七宝老饭店","lon":"121.3549","lat":"31.15256","category":"76","category_name":"上海菜","address":"闵行区七宝古镇北大街8号(近蒲汇塘桥)"},{"poiid":"B2094757D068A1FF4198","title":"七宝中学","lon":"121.36772541","lat":"31.149760126","category":"55","category_name":"中学","address":"闵行区七中路1号(近农南路)"},{"poiid":"B2094757D06FA5F54398","title":"龙袍蟹粉小笼馆(北大街店)","lon":"121.3568","lat":"31.15109","category":"257","category_name":"中餐厅","address":"闵行区七宝老街北大街15号(富强街竹行弄)"},{"poiid":"B2094757D069A2F84293","title":"七宝教寺","lon":"121.3578","lat":"31.15457","category":"244","category_name":"寺庙道观","address":"闵行区七宝镇新镇路1205号"},{"poiid":"B2094757D068A5FE499F","title":"上海交通大学农学院","lon":"121.35488128","lat":"31.147779464","category":"52","category_name":"高等院校","address":"上海闵行区七莘路2678号"},{"poiid":"B2094654DA6BABF4409D","title":"茂盛城市花园","lon":"121.36122","lat":"31.15213","category":"47","category_name":"住宅区","address":"新镇路1036弄"},{"poiid":"B2094757D065A4FD479F","title":"宝燕一号","lon":"121.359536857","lat":"31.1426382162","category":"500","category_name":"未知分类","address":"上海市闵行区七莘路中谊路口"},{"poiid":"B2094757D06FABF94093","title":"锡缘无锡小笼馆 七宝店","lon":"121.356020054","lat":"31.152483793","category":"68","category_name":"快餐厅","address":"闵行区七宝镇南大街54号(近富强街)"},{"poiid":"B2094757D068ABFC459F","title":"天香楼","lon":"121.35229762319","lat":"31.151826034328","category":"76","category_name":"上海菜","address":"闵行区七宝古镇北大街17号"},{"poiid":"B2094654DB69A6FE429B","title":"明强小学","lon":"121.3612","lat":"31.15171","category":"56","category_name":"小学","address":"闵行区七宝镇新镇路1050号"},{"poiid":"B2094757D068A6F54893","title":"七宝中学游泳馆","lon":"121.36752","lat":"31.15183","category":"253","category_name":"校园生活","address":"上海闵行区农南路22号七宝中学内"},{"poiid":"B2094654DA64ABFB499E","title":"七宝茶馆","lon":"121.35478","lat":"31.15227","category":"66","category_name":"茶艺馆","address":"闵行区七宝老街南大街9号(近富强街)"},{"poiid":"B2094757D06AA3FD409A","title":"塘桥老饭店","lon":"121.35437","lat":"31.15208","category":"75","category_name":"浙江菜","address":"闵行区七宝古镇南大街(近蒲汇塘桥)"},{"poiid":"B2094655D36CA2FE469B","title":"七莘路中谊路","lon":"121.35889","lat":"31.14229","category":"38","category_name":"公交车站","address":""},{"poiid":"B2094757D068A4FC499C","title":"老街臭豆腐","lon":"121.35285","lat":"31.14983","category":"68","category_name":"快餐厅","address":"闵行区七宝镇富强街29号(富强街竹行弄)"},{"poiid":"B2094654DA64ABFB479D","title":"龙袍蟹黄汤包","lon":"121.3554","lat":"31.15167","category":"68","category_name":"快餐厅","address":"闵行区七宝老街南大街43号(近富强街)"},{"poiid":"B2094757D069A3FA4492","title":"七宝古镇羊肉店","lon":"121.354374054","lat":"31.152532793","category":"68","category_name":"快餐厅","address":"闵行区七宝古镇南西街9号(近蒲汇塘桥)"},{"poiid":"B2094751DA6BA1F8469D","title":"上海虹桥机场","lon":"121.367375","lat":"31.152502","category":"500","category_name":"未知分类","address":null},{"poiid":"B2094750DA65A2FC4092","title":"徐家汇","lon":"121.363052","lat":"31.15085","category":"500","category_name":"未知分类","address":null},{"poiid":"B2094757D069A1FB409D","title":"牛杂第一家","lon":"121.3554","lat":"31.15153","category":"68","category_name":"快餐厅","address":"闵行区七宝古镇南大街36号(近富强街)"},{"poiid":"B2094654DA6BAAF8449A","title":"小浦东鸡粥店","lon":"121.36159","lat":"31.15087","category":"68","category_name":"快餐厅","address":"闵行区新镇路979号(近宝南路)"},{"poiid":"B2094654DA6BAAF84498","title":"东方花园二期","lon":"121.36456","lat":"31.14593","category":"47","category_name":"住宅区","address":"上海新镇路603弄"},{"poiid":"B2094654DA64A3FA4492","title":"华夏茗苑","lon":"121.356901","lat":"31.150532","category":"47","category_name":"住宅区","address":"闵行宝南路508弄"},{"poiid":"B2094757D165A7F5449B","title":"七宝皮影艺术馆","lon":"121.36349","lat":"31.14923","category":"179","category_name":"音乐厅","address":"闵行区七宝古镇北西街95号(近七宝老街)"},{"poiid":"B2094654DA6BABFB489D","title":"宝仪花苑","lon":"121.36406","lat":"31.149136","category":"47","category_name":"住宅区","address":"宝仪花苑位于闵行新镇路876弄"},{"poiid":"B2094757D568A4FF479A","title":"舒友海鲜大酒楼(宝南小区东南)","lon":"121.35485731","lat":"31.14685655","category":"260","category_name":"其他","address":"闵行区七莘路2409号(交通大学对面)"},{"poiid":"B2094757D16CA7F5489A","title":"启英幼儿园","lon":"121.36079","lat":"31.151989","category":"57","category_name":"幼儿园","address":"闵行区新镇路1085号"},{"poiid":"B2094757D568AAFC4499","title":"茂盛城市花园三期","lon":"121.3616331","lat":"31.15159","category":"47","category_name":"住宅区","address":"上海市闵行区新镇路1036号"},{"poiid":"B2094757D065AAFE419D","title":"水景书香园","lon":"121.36394","lat":"31.149473","category":"500","category_name":"未知分类","address":"上海新镇路888弄"},{"poiid":"B2094757D06FA0FB499A","title":"外环线","lon":"121.37167739","lat":"31.147986525","category":"500","category_name":"未知分类","address":"上海外环线"},{"poiid":"B2094654DB69A6F84993","title":"亿豪名邸","lon":"121.365","lat":"31.1498","category":"47","category_name":"住宅区","address":"上海市闵行区七莘路2368号"},{"poiid":"B2094654DA6BAAFF409C","title":"闵行体育公园(农南路)","lon":"121.36664","lat":"31.14692","category":"196","category_name":"公园","address":"农南路55"},{"poiid":"B2094655D36CA5F54799","title":"宝仪花园","lon":"121.36292","lat":"31.14909","category":"47","category_name":"住宅区","address":"上海新镇路876弄51号"},{"poiid":"B2094654DA64A3F94993","title":"三佳花苑","lon":"121.36186","lat":"31.156012","category":"47","category_name":"住宅区","address":"上海新镇路1060弄"},{"poiid":"B2094757D06AA3F4489E","title":"碧林湾三期摩登堂","lon":"121.361528","lat":"31.14566","category":"47","category_name":"住宅区","address":"上海市闵行区中谊路909弄"},{"poiid":"B2094757D165A3F8409F","title":"桂花藕粉圆","lon":"121.357509086","lat":"31.1513757901","category":"68","category_name":"快餐厅","address":"闵行区七宝老街南大街15号"},{"poiid":"B2094750D56DA3FB489B","title":"七宝三中","lon":"121.363418","lat":"31.153989","category":"55","category_name":"中学","address":"闵行区宝南路88号(近七宝老街)"},{"poiid":"B2094757D168A3FC429E","title":"老宅角","lon":"121.36076","lat":"31.150486","category":"500","category_name":"未知分类","address":"新镇路983弄"},{"poiid":"B2094654DA6BAAF5479C","title":"原墅香洲","lon":"121.36338949989","lat":"31.147184718032","category":"47","category_name":"住宅区","address":"中谊路666弄"},{"poiid":"B2094654DA64A3FE469D","title":"上海市公安局闵行分局交通警察支队二中队","lon":"121.36434","lat":"31.15729","category":"248","category_name":"生活娱乐","address":""},{"poiid":"B2094654DA6BAAFF4499","title":"上海交通大学农学院教学实验实习场","lon":"121.3608","lat":"31.14799","category":"52","category_name":"高等院校","address":""},{"poiid":"B2094655D26BA4F4449C","title":"绿野香舟苑二期","lon":"121.365","lat":"31.148","category":"47","category_name":"住宅区","address":"上海市闵行区中谊路888弄"},{"poiid":"B2094757D66BA4F8469E","title":"妯娌老鸭粉丝汤 七宝店","lon":"121.35589594023","lat":"31.153406686535","category":"68","category_name":"快餐厅","address":"闵行区七宝老街南大街41号(近富强街)"},{"poiid":"B2094757D568A5FB439F","title":"中欧国际工商学院","lon":"121.3619","lat":"31.14384","category":"671","category_name":"高校中心点","address":"红枫路699号"},{"poiid":"B2094757D165A6FF459F","title":"东方花园三期","lon":"121.36506","lat":"31.142696","category":"47","category_name":"住宅区","address":"上海市闵行区新镇路603弄"},{"poiid":"B2094654DA6BAAF8449B","title":"新村学院","lon":"121.36381","lat":"31.14744","category":"52","category_name":"高等院校","address":"闵行区新镇路701弄"},{"poiid":"B2094757D165A3FA489E","title":"七宝老街","lon":"121.358113586","lat":"31.1531869255","category":"500","category_name":"未知分类","address":"闵行区七宝镇富强街(七莘路新镇路间)"},{"poiid":"B2094757D06EAAFD409D","title":"闵行体育公园","lon":"121.36664128","lat":"31.146892955","category":"500","category_name":"未知分类","address":"闵行区新镇路456号(近农南路)"},{"poiid":"B2094654DA64ABF5409E","title":"七宝镇步行街","lon":"121.35808437301637","lat":"31.153243179298574","category":"116","category_name":"特色商业街","address":"闵行区富强街"},{"poiid":"B2094757D06FA1FD4193","title":"七宝老街汤团店(七宝二店)","lon":"121.35493","lat":"31.15205","category":"68","category_name":"快餐厅","address":"闵行区七宝镇南大街14号(近富强街)"},{"poiid":"B2094757D06FA7FB4998","title":"七宝老饭店","lon":"121.3549","lat":"31.15256","category":"76","category_name":"上海菜","address":"闵行区七宝古镇北大街8号(近蒲汇塘桥)"},{"poiid":"B2094757D068A1FF4198","title":"七宝中学","lon":"121.36772541","lat":"31.149760126","category":"55","category_name":"中学","address":"闵行区七中路1号(近农南路)"},{"poiid":"B2094757D06FA5F54398","title":"龙袍蟹粉小笼馆(北大街店)","lon":"121.3568","lat":"31.15109","category":"257","category_name":"中餐厅","address":"闵行区七宝老街北大街15号(富强街竹行弄)"},{"poiid":"B2094757D069A2F84293","title":"七宝教寺","lon":"121.3578","lat":"31.15457","category":"244","category_name":"寺庙道观","address":"闵行区七宝镇新镇路1205号"},{"poiid":"B2094757D068A5FE499F","title":"上海交通大学农学院","lon":"121.35488128","lat":"31.147779464","category":"52","category_name":"高等院校","address":"上海闵行区七莘路2678号"},{"poiid":"B2094654DA6BABF4409D","title":"茂盛城市花园","lon":"121.36122","lat":"31.15213","category":"47","category_name":"住宅区","address":"新镇路1036弄"},{"poiid":"B2094757D065A4FD479F","title":"宝燕一号","lon":"121.359536857","lat":"31.1426382162","category":"500","category_name":"未知分类","address":"上海市闵行区七莘路中谊路口"},{"poiid":"B2094757D06FABF94093","title":"锡缘无锡小笼馆 七宝店","lon":"121.356020054","lat":"31.152483793","category":"68","category_name":"快餐厅","address":"闵行区七宝镇南大街54号(近富强街)"},{"poiid":"B2094757D068ABFC459F","title":"天香楼","lon":"121.35229762319","lat":"31.151826034328","category":"76","category_name":"上海菜","address":"闵行区七宝古镇北大街17号"},{"poiid":"B2094654DB69A6FE429B","title":"明强小学","lon":"121.3612","lat":"31.15171","category":"56","category_name":"小学","address":"闵行区七宝镇新镇路1050号"},{"poiid":"B2094757D068A6F54893","title":"七宝中学游泳馆","lon":"121.36752","lat":"31.15183","category":"253","category_name":"校园生活","address":"上海闵行区农南路22号七宝中学内"},{"poiid":"B2094654DA64ABFB499E","title":"七宝茶馆","lon":"121.35478","lat":"31.15227","category":"66","category_name":"茶艺馆","address":"闵行区七宝老街南大街9号(近富强街)"},{"poiid":"B2094757D06AA3FD409A","title":"塘桥老饭店","lon":"121.35437","lat":"31.15208","category":"75","category_name":"浙江菜","address":"闵行区七宝古镇南大街(近蒲汇塘桥)"},{"poiid":"B2094655D36CA2FE469B","title":"七莘路中谊路","lon":"121.35889","lat":"31.14229","category":"38","category_name":"公交车站","address":""},{"poiid":"B2094757D068A4FC499C","title":"老街臭豆腐","lon":"121.35285","lat":"31.14983","category":"68","category_name":"快餐厅","address":"闵行区七宝镇富强街29号(富强街竹行弄)"},{"poiid":"B2094654DA64ABFB479D","title":"龙袍蟹黄汤包","lon":"121.3554","lat":"31.15167","category":"68","category_name":"快餐厅","address":"闵行区七宝老街南大街43号(近富强街)"},{"poiid":"B2094757D069A3FA4492","title":"七宝古镇羊肉店","lon":"121.354374054","lat":"31.152532793","category":"68","category_name":"快餐厅","address":"闵行区七宝古镇南西街9号(近蒲汇塘桥)"},{"poiid":"B2094751DA6BA1F8469D","title":"上海虹桥机场","lon":"121.367375","lat":"31.152502","category":"500","category_name":"未知分类","address":null},{"poiid":"B2094750DA65A2FC4092","title":"徐家汇","lon":"121.363052","lat":"31.15085","category":"500","category_name":"未知分类","address":null},{"poiid":"B2094757D069A1FB409D","title":"牛杂第一家","lon":"121.3554","lat":"31.15153","category":"68","category_name":"快餐厅","address":"闵行区七宝古镇南大街36号(近富强街)"},{"poiid":"B2094654DA6BAAF8449A","title":"小浦东鸡粥店","lon":"121.36159","lat":"31.15087","category":"68","category_name":"快餐厅","address":"闵行区新镇路979号(近宝南路)"},{"poiid":"B2094654DA6BAAF84498","title":"东方花园二期","lon":"121.36456","lat":"31.14593","category":"47","category_name":"住宅区","address":"上海新镇路603弄"},{"poiid":"B2094654DA64A3FA4492","title":"华夏茗苑","lon":"121.356901","lat":"31.150532","category":"47","category_name":"住宅区","address":"闵行宝南路508弄"},{"poiid":"B2094757D165A7F5449B","title":"七宝皮影艺术馆","lon":"121.36349","lat":"31.14923","category":"179","category_name":"音乐厅","address":"闵行区七宝古镇北西街95号(近七宝老街)"},{"poiid":"B2094654DA6BABFB489D","title":"宝仪花苑","lon":"121.36406","lat":"31.149136","category":"47","category_name":"住宅区","address":"宝仪花苑位于闵行新镇路876弄"},{"poiid":"B2094757D568A4FF479A","title":"舒友海鲜大酒楼(宝南小区东南)","lon":"121.35485731","lat":"31.14685655","category":"260","category_name":"其他","address":"闵行区七莘路2409号(交通大学对面)"},{"poiid":"B2094757D16CA7F5489A","title":"启英幼儿园","lon":"121.36079","lat":"31.151989","category":"57","category_name":"幼儿园","address":"闵行区新镇路1085号"},{"poiid":"B2094757D568AAFC4499","title":"茂盛城市花园三期","lon":"121.3616331","lat":"31.15159","category":"47","category_name":"住宅区","address":"上海市闵行区新镇路1036号"},{"poiid":"B2094757D065AAFE419D","title":"水景书香园","lon":"121.36394","lat":"31.149473","category":"500","category_name":"未知分类","address":"上海新镇路888弄"},{"poiid":"B2094757D06FA0FB499A","title":"外环线","lon":"121.37167739","lat":"31.147986525","category":"500","category_name":"未知分类","address":"上海外环线"},{"poiid":"B2094654DB69A6F84993","title":"亿豪名邸","lon":"121.365","lat":"31.1498","category":"47","category_name":"住宅区","address":"上海市闵行区七莘路2368号"},{"poiid":"B2094654DA6BAAFF409C","title":"闵行体育公园(农南路)","lon":"121.36664","lat":"31.14692","category":"196","category_name":"公园","address":"农南路55"},{"poiid":"B2094655D36CA5F54799","title":"宝仪花园","lon":"121.36292","lat":"31.14909","category":"47","category_name":"住宅区","address":"上海新镇路876弄51号"},{"poiid":"B2094654DA64A3F94993","title":"三佳花苑","lon":"121.36186","lat":"31.156012","category":"47","category_name":"住宅区","address":"上海新镇路1060弄"},{"poiid":"B2094757D06AA3F4489E","title":"碧林湾三期摩登堂","lon":"121.361528","lat":"31.14566","category":"47","category_name":"住宅区","address":"上海市闵行区中谊路909弄"},{"poiid":"B2094757D165A3F8409F","title":"桂花藕粉圆","lon":"121.357509086","lat":"31.1513757901","category":"68","category_name":"快餐厅","address":"闵行区七宝老街南大街15号"},{"poiid":"B2094750D56DA3FB489B","title":"七宝三中","lon":"121.363418","lat":"31.153989","category":"55","category_name":"中学","address":"闵行区宝南路88号(近七宝老街)"},{"poiid":"B2094757D168A3FC429E","title":"老宅角","lon":"121.36076","lat":"31.150486","category":"500","category_name":"未知分类","address":"新镇路983弄"},{"poiid":"B2094654DA6BAAF5479C","title":"原墅香洲","lon":"121.36338949989","lat":"31.147184718032","category":"47","category_name":"住宅区","address":"中谊路666弄"},{"poiid":"B2094654DA64A3FE469D","title":"上海市公安局闵行分局交通警察支队二中队","lon":"121.36434","lat":"31.15729","category":"248","category_name":"生活娱乐","address":""},{"poiid":"B2094654DA6BAAFF4499","title":"上海交通大学农学院教学实验实习场","lon":"121.3608","lat":"31.14799","category":"52","category_name":"高等院校","address":""},{"poiid":"B2094655D26BA4F4449C","title":"绿野香舟苑二期","lon":"121.365","lat":"31.148","category":"47","category_name":"住宅区","address":"上海市闵行区中谊路888弄"},{"poiid":"B2094757D66BA4F8469E","title":"妯娌老鸭粉丝汤 七宝店","lon":"121.35589594023","lat":"31.153406686535","category":"68","category_name":"快餐厅","address":"闵行区七宝老街南大街41号(近富强街)"},{"poiid":"B2094757D568A5FB439F","title":"中欧国际工商学院","lon":"121.3619","lat":"31.14384","category":"671","category_name":"高校中心点","address":"红枫路699号"},{"poiid":"B2094757D165A6FF459F","title":"东方花园三期","lon":"121.36506","lat":"31.142696","category":"47","category_name":"住宅区","address":"上海市闵行区新镇路603弄"},{"poiid":"B2094654DA6BAAF8449B","title":"新村学院","lon":"121.36381","lat":"31.14744","category":"52","category_name":"高等院校","address":"闵行区新镇路701弄"}]