[{"poiid":"B2094757D06FA1F54092","title":"复旦大学上海视觉艺术学院(松江文翔路校区)","lon":"121.20691781406879","lat":"31.0461274825704","category":"52","category_name":"高等院校","address":"上海松江区文翔路2200号"},{"poiid":"B2094655D26BA2FB449D","title":"松江大学城","lon":"121.21218","lat":"31.04941","category":"38","category_name":"公交车站","address":""},{"poiid":"B2094757D06FA3FB4499","title":"王小姐的店","lon":"121.20830277","lat":"31.049656643","category":"260","category_name":"其他","address":"松江区松江大学城一期文汇路652弄203室(近龙腾路)"},{"poiid":"B2094655D268A2FF489C","title":"上海大学生体育中心","lon":"121.21205","lat":"31.0459","category":"224","category_name":"综合体育馆","address":"松江区文翔路2000号"},{"poiid":"B2094757D068A7FE4193","title":"后街量贩KTV","lon":"121.21332301","lat":"31.043086086","category":"170","category_name":"KTV","address":"松江区新松江路1926弄68号(近喜来登)"},{"poiid":"B2094757D068A7F4459C","title":"RouRou Coffee","lon":"121.208647","lat":"31.049337","category":"260","category_name":"其他","address":"松江区文汇路652弄201室(近龙腾路)"},{"poiid":"B2094757D16FA7FE439A","title":"8898","lon":"121.21052","lat":"31.03914","category":"260","category_name":"其他","address":"松江区新松江路1296号(近江学路)"},{"poiid":"B2094757D06FABFA4099","title":"上海大学生体育中心游泳馆","lon":"121.21238","lat":"31.04781","category":"220","category_name":"运动场所","address":"松江区文翔路2000号(近上海外贸学院)"},{"poiid":"B2094750D664AAF44592","title":"御澜轩精菜馆","lon":"121.211","lat":"31.0395","category":"76","category_name":"上海菜","address":"松江区新松江路1290号(江学路瑛皇附近)"},{"poiid":"B2094757D069A2FB4992","title":"紫东新苑","lon":"121.20824","lat":"31.043177","category":"47","category_name":"住宅区","address":"中艺花园位于宝山海江路9号"},{"poiid":"B2094757D068A7FC489B","title":"Tomato   Korean   Restaurant","lon":"121.21267","lat":"31.04947","category":"96","category_name":"韩国料理","address":"松江区松江大学城文汇路珍奶会所后侧2楼(外贸学院对面)"},{"poiid":"B2094757D064A5FC409C","title":"宝都大酒店","lon":"121.21257779","lat":"31.040709537","category":"76","category_name":"上海菜","address":"松江区松江新松江路1234号(近大学城)"},{"poiid":"B2094757D068A7FD4098","title":"复旦大学上海视觉艺术学院逸飞楼","lon":"121.207051","lat":"31.046188","category":"253","category_name":"校园生活","address":"上海松江區文翔路2200號"},{"poiid":"B2094757D068A0FA429B","title":"檀香花苑","lon":"121.21349611","lat":"31.040920209","category":"500","category_name":"未知分类","address":"上海市长宁区天山路209弄"},{"poiid":"B2094750DB6FA0FF4899","title":"华东政法大学","lon":"121.211563","lat":"31.046117","category":"671","category_name":"高校中心点","address":null},{"poiid":"B2094757D068A6FF459B","title":"樱花广场","lon":"121.209078","lat":"31.049391","category":"119","category_name":"商场","address":"松江区松江大学城文汇路718号(近1期)"},{"poiid":"B209475CD768A0FE4099","title":"肥猫餐厅","lon":"121.211997","lat":"31.040697","category":"500","category_name":"未知分类","address":"上海市 新松江路1229号云豹广场3F"},{"poiid":"B2094655D26FAAFA479A","title":"上海大学生体育中心体育馆","lon":"121.21205","lat":"31.0459","category":"224","category_name":"综合体育馆","address":""},{"poiid":"B2094655D26FAAFC499F","title":"上海对外贸易学院餐厅","lon":"121.21511","lat":"31.04906","category":"257","category_name":"中餐厅","address":""},{"poiid":"B2094750D76EA3FD499B","title":"富湘情","lon":"121.212","lat":"31.0435","category":"77","category_name":"湖南菜","address":"松江区江学路891号(近新松江路)"},{"poiid":"B2094750D26CA0FB4298","title":"松江鲜芋仙","lon":"121.214174","lat":"31.040599","category":"247","category_name":"餐饮美食","address":"松江区新松江路925号开元地中海商业广场2楼(近松江大学城)"},{"poiid":"B2094750D164A2FB499C","title":"如家快捷上海松江大学城欢乐谷店","lon":"121.21091630274","lat":"31.042704775056","category":"216","category_name":"经济型连锁酒店","address":"上海市松江区新松江路1292弄88号"},{"poiid":"B2094757D164A0F54193","title":"Two hours cafe","lon":"121.211312467","lat":"31.0463748585","category":"260","category_name":"其他","address":"松江区龙腾路58弄5号(近松江大学城体育馆)"},{"poiid":"B2094757D068ABF8429C","title":"COFFEE PLEASE_211","lon":"121.2081509","lat":"31.0494087","category":"65","category_name":"咖啡厅","address":"松江区文汇路652弄211号(近昂立教育)"},{"poiid":"B2094757DA6FA3FC499D","title":"菲芘酒吧","lon":"121.207674999999","lat":"31.0440599999999","category":"248","category_name":"生活娱乐","address":"松江区东明国际商城17幢(近江学路,文翔路)"},{"poiid":"B2094757D16FA7FA4298","title":"皇家咖啡","lon":"121.211518467","lat":"31.0460688517","category":"65","category_name":"咖啡厅","address":"上海新松江路415号"},{"poiid":"B2094750DA6EAAFB429F","title":"云豹KTV","lon":"121.214179","lat":"31.041309","category":"170","category_name":"KTV","address":"新松江路"},{"poiid":"B2094757D069A1F5409D","title":"复旦大学上海视觉艺术学院时尚楼","lon":"121.21122094","lat":"31.048251823","category":"500","category_name":"未知分类","address":"上海松江区文翔路2200号"},{"poiid":"B2094757D16EA1FE479A","title":"八月咖啡馆","lon":"121.211138567","lat":"31.0464777607","category":"260","category_name":"其他","address":"松江区龙腾路58弄9号(大学生体育馆西侧)"},{"poiid":"B2094757D66EABFE459E","title":"复旦大学上海视觉艺术学院艺术大棚","lon":"121.210484467","lat":"31.0424587724","category":"500","category_name":"未知分类","address":"上海松江区文汇路2200号"},{"poiid":"B2094655D268A4FE449A","title":"上海视觉艺术学院(东门)","lon":"121.21088","lat":"31.04464","category":"52","category_name":"高等院校","address":""},{"poiid":"B2094757D16EABFE409D","title":"赛维娜","lon":"121.210973257","lat":"31.0473925908","category":"249","category_name":"购物服务","address":"上海松江区龙腾路58弄11号"},{"poiid":"B2094757D569A1FE489C","title":"复旦上海视觉艺术学院图文楼","lon":"121.2069161","lat":"31.04613306","category":"52","category_name":"高等院校","address":"文翔路2200号"},{"poiid":"B2094757D16BA7F9479B","title":"上海对外贸易学院教学楼D1","lon":"121.21187446","lat":"31.044977827","category":"500","category_name":"未知分类","address":"上海松江区文翔路1900号"},{"poiid":"B2094750D26FA5F9449C","title":"地中海巴必隆","lon":"121.210449","lat":"31.044551","category":"47","category_name":"住宅区","address":"新松江路"},{"poiid":"B209475CD66FA6F44699","title":"泰晤士小镇","lon":"121.210929","lat":"31.042554","category":"500","category_name":"未知分类","address":"上海市 松江区"},{"poiid":"B2094757D065ABFD4699","title":"汤士家汤馆(松江一店)","lon":"121.212066","lat":"31.039097","category":"68","category_name":"快餐厅","address":"上海市松江区江学路877号(近松江大学城大学生体育中心)"},{"poiid":"B2094752D06AA0FA4598","title":"皇家海港大酒楼","lon":"121.210826","lat":"31.043071","category":"247","category_name":"餐饮美食","address":"江学路899号。"},{"poiid":"B2094757D064A1FE449D","title":"华东政法大学富田体育馆","lon":"121.21102905","lat":"31.049386978","category":"500","category_name":"未知分类","address":"上海松江大学城"},{"poiid":"B2094757D065ABFF439C","title":"御牛台湾牛肉面","lon":"121.21156","lat":"31.03913","category":"91","category_name":"台湾菜","address":"松江区江学路869号(近喜来登)"},{"poiid":"B2094750D76DA7FC469E","title":"Constellation星座咖啡","lon":"121.214","lat":"31.0497","category":"260","category_name":"其他","address":"松江区文汇路338弄松江大学城二期219室"},{"poiid":"B2094757DA6EA6F4499E","title":"唱享量贩式歌城(新松江路店)","lon":"121.210441589354","lat":"31.0406536187574","category":"170","category_name":"KTV","address":"松江区新松江路1292弄79号2-3楼(近文翔路)"},{"poiid":"B2094750D66FA2FE449E","title":"菲比酒吧","lon":"121.212638","lat":"31.045127","category":"247","category_name":"餐饮美食","address":null},{"poiid":"B2094757D664A1F84592","title":"生仕鱼林港 松江店","lon":"121.211967","lat":"31.040232","category":"86","category_name":"火锅店","address":"松江区江学路867号2楼(新松江路口)"},{"poiid":"B2094750DB65A6FD439E","title":"Mini Park","lon":"121.208183","lat":"31.049587","category":"67","category_name":"甜品店","address":"松江区文汇路652弄207号(近龙腾路)"},{"poiid":"B2094757D569A3F54199","title":"快客便利店(紫东新苑东)","lon":"121.21100369","lat":"31.04314209","category":"117","category_name":"便民商店/便利店","address":"新松江路1292弄35号"},{"poiid":"B2094751D46BA4FC4998","title":"皇家海港大酒楼","lon":"121.2066558","lat":"31.0447566","category":"247","category_name":"餐饮美食","address":"松江区江学路899号(近新松江路)"},{"poiid":"B2094757D569A6FC4292","title":"紫东新宛(北门)","lon":"121.20823947","lat":"31.04327881","category":"47","category_name":"住宅区","address":"中国上海市松江区文翔路"},{"poiid":"B2094757D46EA3FB4299","title":"糖皇甜品 开元地中海店","lon":"121.214352054","lat":"31.042229793","category":"67","category_name":"甜品店","address":"松江区新松江路925号开元地中海商业广场2楼2154B号(人民北路口)"},{"poiid":"B2094757D16DABFE4099","title":"女儿红大酒店","lon":"121.2127059","lat":"31.041197578","category":"76","category_name":"上海菜","address":"松江区江学路929号(近文祥路)"},{"poiid":"B2094757D06FA1F54092","title":"复旦大学上海视觉艺术学院(松江文翔路校区)","lon":"121.20691781406879","lat":"31.0461274825704","category":"52","category_name":"高等院校","address":"上海松江区文翔路2200号"},{"poiid":"B2094655D26BA2FB449D","title":"松江大学城","lon":"121.21218","lat":"31.04941","category":"38","category_name":"公交车站","address":""},{"poiid":"B2094757D06FA3FB4499","title":"王小姐的店","lon":"121.20830277","lat":"31.049656643","category":"260","category_name":"其他","address":"松江区松江大学城一期文汇路652弄203室(近龙腾路)"},{"poiid":"B2094655D268A2FF489C","title":"上海大学生体育中心","lon":"121.21205","lat":"31.0459","category":"224","category_name":"综合体育馆","address":"松江区文翔路2000号"},{"poiid":"B2094757D068A7FE4193","title":"后街量贩KTV","lon":"121.21332301","lat":"31.043086086","category":"170","category_name":"KTV","address":"松江区新松江路1926弄68号(近喜来登)"},{"poiid":"B2094757D068A7F4459C","title":"RouRou Coffee","lon":"121.208647","lat":"31.049337","category":"260","category_name":"其他","address":"松江区文汇路652弄201室(近龙腾路)"},{"poiid":"B2094757D16FA7FE439A","title":"8898","lon":"121.21052","lat":"31.03914","category":"260","category_name":"其他","address":"松江区新松江路1296号(近江学路)"},{"poiid":"B2094757D06FABFA4099","title":"上海大学生体育中心游泳馆","lon":"121.21238","lat":"31.04781","category":"220","category_name":"运动场所","address":"松江区文翔路2000号(近上海外贸学院)"},{"poiid":"B2094750D664AAF44592","title":"御澜轩精菜馆","lon":"121.211","lat":"31.0395","category":"76","category_name":"上海菜","address":"松江区新松江路1290号(江学路瑛皇附近)"},{"poiid":"B2094757D069A2FB4992","title":"紫东新苑","lon":"121.20824","lat":"31.043177","category":"47","category_name":"住宅区","address":"中艺花园位于宝山海江路9号"},{"poiid":"B2094757D068A7FC489B","title":"Tomato   Korean   Restaurant","lon":"121.21267","lat":"31.04947","category":"96","category_name":"韩国料理","address":"松江区松江大学城文汇路珍奶会所后侧2楼(外贸学院对面)"},{"poiid":"B2094757D064A5FC409C","title":"宝都大酒店","lon":"121.21257779","lat":"31.040709537","category":"76","category_name":"上海菜","address":"松江区松江新松江路1234号(近大学城)"},{"poiid":"B2094757D068A7FD4098","title":"复旦大学上海视觉艺术学院逸飞楼","lon":"121.207051","lat":"31.046188","category":"253","category_name":"校园生活","address":"上海松江區文翔路2200號"},{"poiid":"B2094757D068A0FA429B","title":"檀香花苑","lon":"121.21349611","lat":"31.040920209","category":"500","category_name":"未知分类","address":"上海市长宁区天山路209弄"},{"poiid":"B2094750DB6FA0FF4899","title":"华东政法大学","lon":"121.211563","lat":"31.046117","category":"671","category_name":"高校中心点","address":null},{"poiid":"B2094757D068A6FF459B","title":"樱花广场","lon":"121.209078","lat":"31.049391","category":"119","category_name":"商场","address":"松江区松江大学城文汇路718号(近1期)"},{"poiid":"B209475CD768A0FE4099","title":"肥猫餐厅","lon":"121.211997","lat":"31.040697","category":"500","category_name":"未知分类","address":"上海市 新松江路1229号云豹广场3F"},{"poiid":"B2094655D26FAAFA479A","title":"上海大学生体育中心体育馆","lon":"121.21205","lat":"31.0459","category":"224","category_name":"综合体育馆","address":""},{"poiid":"B2094655D26FAAFC499F","title":"上海对外贸易学院餐厅","lon":"121.21511","lat":"31.04906","category":"257","category_name":"中餐厅","address":""},{"poiid":"B2094750D76EA3FD499B","title":"富湘情","lon":"121.212","lat":"31.0435","category":"77","category_name":"湖南菜","address":"松江区江学路891号(近新松江路)"},{"poiid":"B2094750D26CA0FB4298","title":"松江鲜芋仙","lon":"121.214174","lat":"31.040599","category":"247","category_name":"餐饮美食","address":"松江区新松江路925号开元地中海商业广场2楼(近松江大学城)"},{"poiid":"B2094750D164A2FB499C","title":"如家快捷上海松江大学城欢乐谷店","lon":"121.21091630274","lat":"31.042704775056","category":"216","category_name":"经济型连锁酒店","address":"上海市松江区新松江路1292弄88号"},{"poiid":"B2094757D164A0F54193","title":"Two hours cafe","lon":"121.211312467","lat":"31.0463748585","category":"260","category_name":"其他","address":"松江区龙腾路58弄5号(近松江大学城体育馆)"},{"poiid":"B2094757D068ABF8429C","title":"COFFEE PLEASE_211","lon":"121.2081509","lat":"31.0494087","category":"65","category_name":"咖啡厅","address":"松江区文汇路652弄211号(近昂立教育)"},{"poiid":"B2094757DA6FA3FC499D","title":"菲芘酒吧","lon":"121.207674999999","lat":"31.0440599999999","category":"248","category_name":"生活娱乐","address":"松江区东明国际商城17幢(近江学路,文翔路)"},{"poiid":"B2094757D16FA7FA4298","title":"皇家咖啡","lon":"121.211518467","lat":"31.0460688517","category":"65","category_name":"咖啡厅","address":"上海新松江路415号"},{"poiid":"B2094750DA6EAAFB429F","title":"云豹KTV","lon":"121.214179","lat":"31.041309","category":"170","category_name":"KTV","address":"新松江路"},{"poiid":"B2094757D069A1F5409D","title":"复旦大学上海视觉艺术学院时尚楼","lon":"121.21122094","lat":"31.048251823","category":"500","category_name":"未知分类","address":"上海松江区文翔路2200号"},{"poiid":"B2094757D16EA1FE479A","title":"八月咖啡馆","lon":"121.211138567","lat":"31.0464777607","category":"260","category_name":"其他","address":"松江区龙腾路58弄9号(大学生体育馆西侧)"},{"poiid":"B2094757D66EABFE459E","title":"复旦大学上海视觉艺术学院艺术大棚","lon":"121.210484467","lat":"31.0424587724","category":"500","category_name":"未知分类","address":"上海松江区文汇路2200号"},{"poiid":"B2094655D268A4FE449A","title":"上海视觉艺术学院(东门)","lon":"121.21088","lat":"31.04464","category":"52","category_name":"高等院校","address":""},{"poiid":"B2094757D16EABFE409D","title":"赛维娜","lon":"121.210973257","lat":"31.0473925908","category":"249","category_name":"购物服务","address":"上海松江区龙腾路58弄11号"},{"poiid":"B2094757D569A1FE489C","title":"复旦上海视觉艺术学院图文楼","lon":"121.2069161","lat":"31.04613306","category":"52","category_name":"高等院校","address":"文翔路2200号"},{"poiid":"B2094757D16BA7F9479B","title":"上海对外贸易学院教学楼D1","lon":"121.21187446","lat":"31.044977827","category":"500","category_name":"未知分类","address":"上海松江区文翔路1900号"},{"poiid":"B2094750D26FA5F9449C","title":"地中海巴必隆","lon":"121.210449","lat":"31.044551","category":"47","category_name":"住宅区","address":"新松江路"},{"poiid":"B209475CD66FA6F44699","title":"泰晤士小镇","lon":"121.210929","lat":"31.042554","category":"500","category_name":"未知分类","address":"上海市 松江区"},{"poiid":"B2094757D065ABFD4699","title":"汤士家汤馆(松江一店)","lon":"121.212066","lat":"31.039097","category":"68","category_name":"快餐厅","address":"上海市松江区江学路877号(近松江大学城大学生体育中心)"},{"poiid":"B2094752D06AA0FA4598","title":"皇家海港大酒楼","lon":"121.210826","lat":"31.043071","category":"247","category_name":"餐饮美食","address":"江学路899号。"},{"poiid":"B2094757D064A1FE449D","title":"华东政法大学富田体育馆","lon":"121.21102905","lat":"31.049386978","category":"500","category_name":"未知分类","address":"上海松江大学城"},{"poiid":"B2094757D065ABFF439C","title":"御牛台湾牛肉面","lon":"121.21156","lat":"31.03913","category":"91","category_name":"台湾菜","address":"松江区江学路869号(近喜来登)"},{"poiid":"B2094750D76DA7FC469E","title":"Constellation星座咖啡","lon":"121.214","lat":"31.0497","category":"260","category_name":"其他","address":"松江区文汇路338弄松江大学城二期219室"},{"poiid":"B2094757DA6EA6F4499E","title":"唱享量贩式歌城(新松江路店)","lon":"121.210441589354","lat":"31.0406536187574","category":"170","category_name":"KTV","address":"松江区新松江路1292弄79号2-3楼(近文翔路)"},{"poiid":"B2094750D66FA2FE449E","title":"菲比酒吧","lon":"121.212638","lat":"31.045127","category":"247","category_name":"餐饮美食","address":null},{"poiid":"B2094757D664A1F84592","title":"生仕鱼林港 松江店","lon":"121.211967","lat":"31.040232","category":"86","category_name":"火锅店","address":"松江区江学路867号2楼(新松江路口)"},{"poiid":"B2094750DB65A6FD439E","title":"Mini Park","lon":"121.208183","lat":"31.049587","category":"67","category_name":"甜品店","address":"松江区文汇路652弄207号(近龙腾路)"},{"poiid":"B2094757D569A3F54199","title":"快客便利店(紫东新苑东)","lon":"121.21100369","lat":"31.04314209","category":"117","category_name":"便民商店/便利店","address":"新松江路1292弄35号"},{"poiid":"B2094751D46BA4FC4998","title":"皇家海港大酒楼","lon":"121.2066558","lat":"31.0447566","category":"247","category_name":"餐饮美食","address":"松江区江学路899号(近新松江路)"},{"poiid":"B2094757D569A6FC4292","title":"紫东新宛(北门)","lon":"121.20823947","lat":"31.04327881","category":"47","category_name":"住宅区","address":"中国上海市松江区文翔路"},{"poiid":"B2094757D46EA3FB4299","title":"糖皇甜品 开元地中海店","lon":"121.214352054","lat":"31.042229793","category":"67","category_name":"甜品店","address":"松江区新松江路925号开元地中海商业广场2楼2154B号(人民北路口)"},{"poiid":"B2094757D16DABFE4099","title":"女儿红大酒店","lon":"121.2127059","lat":"31.041197578","category":"76","category_name":"上海菜","address":"松江区江学路929号(近文祥路)"},{"poiid":"B2094757D06FA1F54092","title":"复旦大学上海视觉艺术学院(松江文翔路校区)","lon":"121.20691781406879","lat":"31.0461274825704","category":"52","category_name":"高等院校","address":"上海松江区文翔路2200号"},{"poiid":"B2094655D26BA2FB449D","title":"松江大学城","lon":"121.21218","lat":"31.04941","category":"38","category_name":"公交车站","address":""},{"poiid":"B2094757D06FA3FB4499","title":"王小姐的店","lon":"121.20830277","lat":"31.049656643","category":"260","category_name":"其他","address":"松江区松江大学城一期文汇路652弄203室(近龙腾路)"},{"poiid":"B2094655D268A2FF489C","title":"上海大学生体育中心","lon":"121.21205","lat":"31.0459","category":"224","category_name":"综合体育馆","address":"松江区文翔路2000号"},{"poiid":"B2094757D068A7FE4193","title":"后街量贩KTV","lon":"121.21332301","lat":"31.043086086","category":"170","category_name":"KTV","address":"松江区新松江路1926弄68号(近喜来登)"},{"poiid":"B2094757D068A7F4459C","title":"RouRou Coffee","lon":"121.208647","lat":"31.049337","category":"260","category_name":"其他","address":"松江区文汇路652弄201室(近龙腾路)"},{"poiid":"B2094757D16FA7FE439A","title":"8898","lon":"121.21052","lat":"31.03914","category":"260","category_name":"其他","address":"松江区新松江路1296号(近江学路)"},{"poiid":"B2094757D06FABFA4099","title":"上海大学生体育中心游泳馆","lon":"121.21238","lat":"31.04781","category":"220","category_name":"运动场所","address":"松江区文翔路2000号(近上海外贸学院)"},{"poiid":"B2094750D664AAF44592","title":"御澜轩精菜馆","lon":"121.211","lat":"31.0395","category":"76","category_name":"上海菜","address":"松江区新松江路1290号(江学路瑛皇附近)"},{"poiid":"B2094757D069A2FB4992","title":"紫东新苑","lon":"121.20824","lat":"31.043177","category":"47","category_name":"住宅区","address":"中艺花园位于宝山海江路9号"},{"poiid":"B2094757D068A7FC489B","title":"Tomato   Korean   Restaurant","lon":"121.21267","lat":"31.04947","category":"96","category_name":"韩国料理","address":"松江区松江大学城文汇路珍奶会所后侧2楼(外贸学院对面)"},{"poiid":"B2094757D064A5FC409C","title":"宝都大酒店","lon":"121.21257779","lat":"31.040709537","category":"76","category_name":"上海菜","address":"松江区松江新松江路1234号(近大学城)"},{"poiid":"B2094757D068A7FD4098","title":"复旦大学上海视觉艺术学院逸飞楼","lon":"121.207051","lat":"31.046188","category":"253","category_name":"校园生活","address":"上海松江區文翔路2200號"},{"poiid":"B2094757D068A0FA429B","title":"檀香花苑","lon":"121.21349611","lat":"31.040920209","category":"500","category_name":"未知分类","address":"上海市长宁区天山路209弄"},{"poiid":"B2094750DB6FA0FF4899","title":"华东政法大学","lon":"121.211563","lat":"31.046117","category":"671","category_name":"高校中心点","address":null},{"poiid":"B2094757D068A6FF459B","title":"樱花广场","lon":"121.209078","lat":"31.049391","category":"119","category_name":"商场","address":"松江区松江大学城文汇路718号(近1期)"},{"poiid":"B209475CD768A0FE4099","title":"肥猫餐厅","lon":"121.211997","lat":"31.040697","category":"500","category_name":"未知分类","address":"上海市 新松江路1229号云豹广场3F"},{"poiid":"B2094655D26FAAFA479A","title":"上海大学生体育中心体育馆","lon":"121.21205","lat":"31.0459","category":"224","category_name":"综合体育馆","address":""},{"poiid":"B2094655D26FAAFC499F","title":"上海对外贸易学院餐厅","lon":"121.21511","lat":"31.04906","category":"257","category_name":"中餐厅","address":""},{"poiid":"B2094750D76EA3FD499B","title":"富湘情","lon":"121.212","lat":"31.0435","category":"77","category_name":"湖南菜","address":"松江区江学路891号(近新松江路)"},{"poiid":"B2094750D26CA0FB4298","title":"松江鲜芋仙","lon":"121.214174","lat":"31.040599","category":"247","category_name":"餐饮美食","address":"松江区新松江路925号开元地中海商业广场2楼(近松江大学城)"},{"poiid":"B2094750D164A2FB499C","title":"如家快捷上海松江大学城欢乐谷店","lon":"121.21091630274","lat":"31.042704775056","category":"216","category_name":"经济型连锁酒店","address":"上海市松江区新松江路1292弄88号"},{"poiid":"B2094757D164A0F54193","title":"Two hours cafe","lon":"121.211312467","lat":"31.0463748585","category":"260","category_name":"其他","address":"松江区龙腾路58弄5号(近松江大学城体育馆)"},{"poiid":"B2094757D068ABF8429C","title":"COFFEE PLEASE_211","lon":"121.2081509","lat":"31.0494087","category":"65","category_name":"咖啡厅","address":"松江区文汇路652弄211号(近昂立教育)"},{"poiid":"B2094757DA6FA3FC499D","title":"菲芘酒吧","lon":"121.207674999999","lat":"31.0440599999999","category":"248","category_name":"生活娱乐","address":"松江区东明国际商城17幢(近江学路,文翔路)"},{"poiid":"B2094757D16FA7FA4298","title":"皇家咖啡","lon":"121.211518467","lat":"31.0460688517","category":"65","category_name":"咖啡厅","address":"上海新松江路415号"},{"poiid":"B2094750DA6EAAFB429F","title":"云豹KTV","lon":"121.214179","lat":"31.041309","category":"170","category_name":"KTV","address":"新松江路"},{"poiid":"B2094757D069A1F5409D","title":"复旦大学上海视觉艺术学院时尚楼","lon":"121.21122094","lat":"31.048251823","category":"500","category_name":"未知分类","address":"上海松江区文翔路2200号"},{"poiid":"B2094757D16EA1FE479A","title":"八月咖啡馆","lon":"121.211138567","lat":"31.0464777607","category":"260","category_name":"其他","address":"松江区龙腾路58弄9号(大学生体育馆西侧)"},{"poiid":"B2094757D66EABFE459E","title":"复旦大学上海视觉艺术学院艺术大棚","lon":"121.210484467","lat":"31.0424587724","category":"500","category_name":"未知分类","address":"上海松江区文汇路2200号"},{"poiid":"B2094655D268A4FE449A","title":"上海视觉艺术学院(东门)","lon":"121.21088","lat":"31.04464","category":"52","category_name":"高等院校","address":""},{"poiid":"B2094757D16EABFE409D","title":"赛维娜","lon":"121.210973257","lat":"31.0473925908","category":"249","category_name":"购物服务","address":"上海松江区龙腾路58弄11号"},{"poiid":"B2094757D569A1FE489C","title":"复旦上海视觉艺术学院图文楼","lon":"121.2069161","lat":"31.04613306","category":"52","category_name":"高等院校","address":"文翔路2200号"},{"poiid":"B2094757D16BA7F9479B","title":"上海对外贸易学院教学楼D1","lon":"121.21187446","lat":"31.044977827","category":"500","category_name":"未知分类","address":"上海松江区文翔路1900号"},{"poiid":"B2094750D26FA5F9449C","title":"地中海巴必隆","lon":"121.210449","lat":"31.044551","category":"47","category_name":"住宅区","address":"新松江路"},{"poiid":"B209475CD66FA6F44699","title":"泰晤士小镇","lon":"121.210929","lat":"31.042554","category":"500","category_name":"未知分类","address":"上海市 松江区"},{"poiid":"B2094757D065ABFD4699","title":"汤士家汤馆(松江一店)","lon":"121.212066","lat":"31.039097","category":"68","category_name":"快餐厅","address":"上海市松江区江学路877号(近松江大学城大学生体育中心)"},{"poiid":"B2094752D06AA0FA4598","title":"皇家海港大酒楼","lon":"121.210826","lat":"31.043071","category":"247","category_name":"餐饮美食","address":"江学路899号。"},{"poiid":"B2094757D064A1FE449D","title":"华东政法大学富田体育馆","lon":"121.21102905","lat":"31.049386978","category":"500","category_name":"未知分类","address":"上海松江大学城"},{"poiid":"B2094757D065ABFF439C","title":"御牛台湾牛肉面","lon":"121.21156","lat":"31.03913","category":"91","category_name":"台湾菜","address":"松江区江学路869号(近喜来登)"},{"poiid":"B2094750D76DA7FC469E","title":"Constellation星座咖啡","lon":"121.214","lat":"31.0497","category":"260","category_name":"其他","address":"松江区文汇路338弄松江大学城二期219室"},{"poiid":"B2094757DA6EA6F4499E","title":"唱享量贩式歌城(新松江路店)","lon":"121.210441589354","lat":"31.0406536187574","category":"170","category_name":"KTV","address":"松江区新松江路1292弄79号2-3楼(近文翔路)"},{"poiid":"B2094750D66FA2FE449E","title":"菲比酒吧","lon":"121.212638","lat":"31.045127","category":"247","category_name":"餐饮美食","address":null},{"poiid":"B2094757D664A1F84592","title":"生仕鱼林港 松江店","lon":"121.211967","lat":"31.040232","category":"86","category_name":"火锅店","address":"松江区江学路867号2楼(新松江路口)"},{"poiid":"B2094750DB65A6FD439E","title":"Mini Park","lon":"121.208183","lat":"31.049587","category":"67","category_name":"甜品店","address":"松江区文汇路652弄207号(近龙腾路)"},{"poiid":"B2094757D569A3F54199","title":"快客便利店(紫东新苑东)","lon":"121.21100369","lat":"31.04314209","category":"117","category_name":"便民商店/便利店","address":"新松江路1292弄35号"},{"poiid":"B2094751D46BA4FC4998","title":"皇家海港大酒楼","lon":"121.2066558","lat":"31.0447566","category":"247","category_name":"餐饮美食","address":"松江区江学路899号(近新松江路)"},{"poiid":"B2094757D569A6FC4292","title":"紫东新宛(北门)","lon":"121.20823947","lat":"31.04327881","category":"47","category_name":"住宅区","address":"中国上海市松江区文翔路"},{"poiid":"B2094757D46EA3FB4299","title":"糖皇甜品 开元地中海店","lon":"121.214352054","lat":"31.042229793","category":"67","category_name":"甜品店","address":"松江区新松江路925号开元地中海商业广场2楼2154B号(人民北路口)"},{"poiid":"B2094757D16DABFE4099","title":"女儿红大酒店","lon":"121.2127059","lat":"31.041197578","category":"76","category_name":"上海菜","address":"松江区江学路929号(近文祥路)"},{"poiid":"B2094757D06FA1F54092","title":"复旦大学上海视觉艺术学院(松江文翔路校区)","lon":"121.20691781406879","lat":"31.0461274825704","category":"52","category_name":"高等院校","address":"上海松江区文翔路2200号"},{"poiid":"B2094655D26BA2FB449D","title":"松江大学城","lon":"121.21218","lat":"31.04941","category":"38","category_name":"公交车站","address":""},{"poiid":"B2094757D06FA3FB4499","title":"王小姐的店","lon":"121.20830277","lat":"31.049656643","category":"260","category_name":"其他","address":"松江区松江大学城一期文汇路652弄203室(近龙腾路)"},{"poiid":"B2094655D268A2FF489C","title":"上海大学生体育中心","lon":"121.21205","lat":"31.0459","category":"224","category_name":"综合体育馆","address":"松江区文翔路2000号"},{"poiid":"B2094757D068A7FE4193","title":"后街量贩KTV","lon":"121.21332301","lat":"31.043086086","category":"170","category_name":"KTV","address":"松江区新松江路1926弄68号(近喜来登)"},{"poiid":"B2094757D068A7F4459C","title":"RouRou Coffee","lon":"121.208647","lat":"31.049337","category":"260","category_name":"其他","address":"松江区文汇路652弄201室(近龙腾路)"},{"poiid":"B2094757D16FA7FE439A","title":"8898","lon":"121.21052","lat":"31.03914","category":"260","category_name":"其他","address":"松江区新松江路1296号(近江学路)"},{"poiid":"B2094757D06FABFA4099","title":"上海大学生体育中心游泳馆","lon":"121.21238","lat":"31.04781","category":"220","category_name":"运动场所","address":"松江区文翔路2000号(近上海外贸学院)"},{"poiid":"B2094750D664AAF44592","title":"御澜轩精菜馆","lon":"121.211","lat":"31.0395","category":"76","category_name":"上海菜","address":"松江区新松江路1290号(江学路瑛皇附近)"},{"poiid":"B2094757D069A2FB4992","title":"紫东新苑","lon":"121.20824","lat":"31.043177","category":"47","category_name":"住宅区","address":"中艺花园位于宝山海江路9号"},{"poiid":"B2094757D068A7FC489B","title":"Tomato   Korean   Restaurant","lon":"121.21267","lat":"31.04947","category":"96","category_name":"韩国料理","address":"松江区松江大学城文汇路珍奶会所后侧2楼(外贸学院对面)"},{"poiid":"B2094757D064A5FC409C","title":"宝都大酒店","lon":"121.21257779","lat":"31.040709537","category":"76","category_name":"上海菜","address":"松江区松江新松江路1234号(近大学城)"},{"poiid":"B2094757D068A7FD4098","title":"复旦大学上海视觉艺术学院逸飞楼","lon":"121.207051","lat":"31.046188","category":"253","category_name":"校园生活","address":"上海松江區文翔路2200號"},{"poiid":"B2094757D068A0FA429B","title":"檀香花苑","lon":"121.21349611","lat":"31.040920209","category":"500","category_name":"未知分类","address":"上海市长宁区天山路209弄"},{"poiid":"B2094750DB6FA0FF4899","title":"华东政法大学","lon":"121.211563","lat":"31.046117","category":"671","category_name":"高校中心点","address":null},{"poiid":"B2094757D068A6FF459B","title":"樱花广场","lon":"121.209078","lat":"31.049391","category":"119","category_name":"商场","address":"松江区松江大学城文汇路718号(近1期)"},{"poiid":"B209475CD768A0FE4099","title":"肥猫餐厅","lon":"121.211997","lat":"31.040697","category":"500","category_name":"未知分类","address":"上海市 新松江路1229号云豹广场3F"},{"poiid":"B2094655D26FAAFA479A","title":"上海大学生体育中心体育馆","lon":"121.21205","lat":"31.0459","category":"224","category_name":"综合体育馆","address":""},{"poiid":"B2094655D26FAAFC499F","title":"上海对外贸易学院餐厅","lon":"121.21511","lat":"31.04906","category":"257","category_name":"中餐厅","address":""},{"poiid":"B2094750D76EA3FD499B","title":"富湘情","lon":"121.212","lat":"31.0435","category":"77","category_name":"湖南菜","address":"松江区江学路891号(近新松江路)"},{"poiid":"B2094750D26CA0FB4298","title":"松江鲜芋仙","lon":"121.214174","lat":"31.040599","category":"247","category_name":"餐饮美食","address":"松江区新松江路925号开元地中海商业广场2楼(近松江大学城)"},{"poiid":"B2094750D164A2FB499C","title":"如家快捷上海松江大学城欢乐谷店","lon":"121.21091630274","lat":"31.042704775056","category":"216","category_name":"经济型连锁酒店","address":"上海市松江区新松江路1292弄88号"},{"poiid":"B2094757D164A0F54193","title":"Two hours cafe","lon":"121.211312467","lat":"31.0463748585","category":"260","category_name":"其他","address":"松江区龙腾路58弄5号(近松江大学城体育馆)"},{"poiid":"B2094757D068ABF8429C","title":"COFFEE PLEASE_211","lon":"121.2081509","lat":"31.0494087","category":"65","category_name":"咖啡厅","address":"松江区文汇路652弄211号(近昂立教育)"},{"poiid":"B2094757DA6FA3FC499D","title":"菲芘酒吧","lon":"121.207674999999","lat":"31.0440599999999","category":"248","category_name":"生活娱乐","address":"松江区东明国际商城17幢(近江学路,文翔路)"},{"poiid":"B2094757D16FA7FA4298","title":"皇家咖啡","lon":"121.211518467","lat":"31.0460688517","category":"65","category_name":"咖啡厅","address":"上海新松江路415号"},{"poiid":"B2094750DA6EAAFB429F","title":"云豹KTV","lon":"121.214179","lat":"31.041309","category":"170","category_name":"KTV","address":"新松江路"},{"poiid":"B2094757D069A1F5409D","title":"复旦大学上海视觉艺术学院时尚楼","lon":"121.21122094","lat":"31.048251823","category":"500","category_name":"未知分类","address":"上海松江区文翔路2200号"},{"poiid":"B2094757D16EA1FE479A","title":"八月咖啡馆","lon":"121.211138567","lat":"31.0464777607","category":"260","category_name":"其他","address":"松江区龙腾路58弄9号(大学生体育馆西侧)"},{"poiid":"B2094757D66EABFE459E","title":"复旦大学上海视觉艺术学院艺术大棚","lon":"121.210484467","lat":"31.0424587724","category":"500","category_name":"未知分类","address":"上海松江区文汇路2200号"},{"poiid":"B2094655D268A4FE449A","title":"上海视觉艺术学院(东门)","lon":"121.21088","lat":"31.04464","category":"52","category_name":"高等院校","address":""},{"poiid":"B2094757D16EABFE409D","title":"赛维娜","lon":"121.210973257","lat":"31.0473925908","category":"249","category_name":"购物服务","address":"上海松江区龙腾路58弄11号"},{"poiid":"B2094757D569A1FE489C","title":"复旦上海视觉艺术学院图文楼","lon":"121.2069161","lat":"31.04613306","category":"52","category_name":"高等院校","address":"文翔路2200号"},{"poiid":"B2094757D16BA7F9479B","title":"上海对外贸易学院教学楼D1","lon":"121.21187446","lat":"31.044977827","category":"500","category_name":"未知分类","address":"上海松江区文翔路1900号"},{"poiid":"B2094750D26FA5F9449C","title":"地中海巴必隆","lon":"121.210449","lat":"31.044551","category":"47","category_name":"住宅区","address":"新松江路"},{"poiid":"B209475CD66FA6F44699","title":"泰晤士小镇","lon":"121.210929","lat":"31.042554","category":"500","category_name":"未知分类","address":"上海市 松江区"},{"poiid":"B2094757D065ABFD4699","title":"汤士家汤馆(松江一店)","lon":"121.212066","lat":"31.039097","category":"68","category_name":"快餐厅","address":"上海市松江区江学路877号(近松江大学城大学生体育中心)"},{"poiid":"B2094752D06AA0FA4598","title":"皇家海港大酒楼","lon":"121.210826","lat":"31.043071","category":"247","category_name":"餐饮美食","address":"江学路899号。"},{"poiid":"B2094757D064A1FE449D","title":"华东政法大学富田体育馆","lon":"121.21102905","lat":"31.049386978","category":"500","category_name":"未知分类","address":"上海松江大学城"},{"poiid":"B2094757D065ABFF439C","title":"御牛台湾牛肉面","lon":"121.21156","lat":"31.03913","category":"91","category_name":"台湾菜","address":"松江区江学路869号(近喜来登)"},{"poiid":"B2094750D76DA7FC469E","title":"Constellation星座咖啡","lon":"121.214","lat":"31.0497","category":"260","category_name":"其他","address":"松江区文汇路338弄松江大学城二期219室"},{"poiid":"B2094757DA6EA6F4499E","title":"唱享量贩式歌城(新松江路店)","lon":"121.210441589354","lat":"31.0406536187574","category":"170","category_name":"KTV","address":"松江区新松江路1292弄79号2-3楼(近文翔路)"},{"poiid":"B2094750D66FA2FE449E","title":"菲比酒吧","lon":"121.212638","lat":"31.045127","category":"247","category_name":"餐饮美食","address":null},{"poiid":"B2094757D664A1F84592","title":"生仕鱼林港 松江店","lon":"121.211967","lat":"31.040232","category":"86","category_name":"火锅店","address":"松江区江学路867号2楼(新松江路口)"},{"poiid":"B2094750DB65A6FD439E","title":"Mini Park","lon":"121.208183","lat":"31.049587","category":"67","category_name":"甜品店","address":"松江区文汇路652弄207号(近龙腾路)"},{"poiid":"B2094757D569A3F54199","title":"快客便利店(紫东新苑东)","lon":"121.21100369","lat":"31.04314209","category":"117","category_name":"便民商店/便利店","address":"新松江路1292弄35号"},{"poiid":"B2094751D46BA4FC4998","title":"皇家海港大酒楼","lon":"121.2066558","lat":"31.0447566","category":"247","category_name":"餐饮美食","address":"松江区江学路899号(近新松江路)"},{"poiid":"B2094757D569A6FC4292","title":"紫东新宛(北门)","lon":"121.20823947","lat":"31.04327881","category":"47","category_name":"住宅区","address":"中国上海市松江区文翔路"},{"poiid":"B2094757D46EA3FB4299","title":"糖皇甜品 开元地中海店","lon":"121.214352054","lat":"31.042229793","category":"67","category_name":"甜品店","address":"松江区新松江路925号开元地中海商业广场2楼2154B号(人民北路口)"},{"poiid":"B2094757D16DABFE4099","title":"女儿红大酒店","lon":"121.2127059","lat":"31.041197578","category":"76","category_name":"上海菜","address":"松江区江学路929号(近文祥路)"}]