[{"poiid":"B2094654DA6DA5FE419C","title":"田子坊","lon":"121.4688","lat":"31.20866","category":"47","category_name":"住宅区","address":"上海市卢湾区泰康路二四八弄29号"},{"poiid":"B2094654DB65A1F9459C","title":"田子坊石库门","lon":"121.46894","lat":"31.20874","category":"116","category_name":"特色商业街","address":"上海卢湾区泰康路274-210弄"},{"poiid":"B2094757D06FA2FF4192","title":"小三堂","lon":"121.47002777","lat":"31.2076806496","category":"91","category_name":"台湾菜","address":"卢湾区泰康路25号上海琉璃艺术博物馆1楼(思南路泰康路)"},{"poiid":"B2094753D76FAAFA449C","title":"上海滩国泰旗舰店","lon":"121.466011","lat":"31.216125","category":"249","category_name":"购物服务","address":"淮海中路868号"},{"poiid":"B209475CD564A7F84292","title":"上海滩新天地店","lon":"121.47463","lat":"31.22164","category":"119","category_name":"商场","address":"\"太仓路181弄新天地北里15号\r\n\""},{"poiid":"B209475CD564A7F8439E","title":"上海滩中信泰富店","lon":"121.45602","lat":"31.22851","category":"119","category_name":"商场","address":"\"南京西路1168号中信泰富广场，店铺号221.\r\n\""},{"poiid":"B2094757D16DA2F4479A","title":"山茶花韩国料理","lon":"121.4702382","lat":"31.207302181","category":"247","category_name":"餐饮美食","address":"上海卢湾徐家汇路618号日月光广场F4"},{"poiid":"B2094757D06FA2FE4499","title":"上海琉璃艺术博物馆","lon":"121.47013","lat":"31.20762","category":"182","category_name":"博物馆","address":"卢湾区泰康路25号(田子坊对面)"},{"poiid":"B2094757D06FA2FF4993","title":"公社 kommune","lon":"121.468662054","lat":"31.207939793","category":"65","category_name":"咖啡厅","address":"卢湾区泰康路210弄7号(近瑞金二路)"},{"poiid":"B2094757D66CABFF489E","title":"海底捞火锅","lon":"121.47142473","lat":"31.207495815","category":"247","category_name":"餐饮美食","address":"上海金玉兰广场"},{"poiid":"B2094757D068A3FF469B","title":"Mr.Choi PATISSERIE","lon":"121.47026773","lat":"31.207296811","category":"67","category_name":"甜品店","address":"上海徐家汇路618号日月光中心广场1楼F05室(近瑞金二路)"},{"poiid":"B2094757D06FAAFB489C","title":"思南路","lon":"121.471117","lat":"31.208571","category":"500","category_name":"未知分类","address":"上海思南路"},{"poiid":"B2094654DB6AA7F54192","title":"UPs","lon":"121.46897","lat":"31.20856","category":"247","category_name":"餐饮美食","address":"卢湾区泰康路210号田子坊7号1室(近瑞金二路)"},{"poiid":"B2094757D06FA2F9409D","title":"UP\\'s(田子坊店)","lon":"121.469356","lat":"31.20838","category":"94","category_name":"西餐厅","address":"上海卢湾区泰康路210弄7号1室(近思南路)"},{"poiid":"B2094751DA6DABF8419B","title":"米子咖啡MizziCafe","lon":"121.469881","lat":"31.207422","category":"247","category_name":"餐饮美食","address":"上海市徐家汇路618号1F-E-04室"},{"poiid":"B2094757D06FA2FE4198","title":"健康煮(日月光店)","lon":"121.47079246","lat":"31.207681244","category":"86","category_name":"火锅店","address":"卢湾区徐家汇路618号日月光中心广场B2楼F27号商铺(近9号线泰康路出口)"},{"poiid":"B2094757D168A1FE4398","title":"海底撈打浦路店","lon":"121.470297738","lat":"31.2072998116","category":"500","category_name":"未知分类","address":"上海卢湾区瑞金二路"},{"poiid":"B2094757D56CA0F94999","title":"云朵 THE CLOUDS","lon":"121.469788","lat":"31.2078814","category":"110","category_name":"其他亚洲菜","address":"卢湾区泰康路200号(近思南路)"},{"poiid":"B2094751D56CA4FB4699","title":"猫屎咖啡(泰康路店)","lon":"121.4696","lat":"31.20782","category":"247","category_name":"餐饮美食","address":"徐汇区泰康路210号"},{"poiid":"B2094757D06FA7FC499E","title":"上海壹号美术馆","lon":"121.47197","lat":"31.20997","category":"179","category_name":"音乐厅","address":"卢湾区建国中路1号(近重庆南路)"},{"poiid":"B2094753D76DABFF419C","title":"镰仓pasta","lon":"121.469009","lat":"31.207704","category":"500","category_name":"未知分类","address":"上海市 泰康路"},{"poiid":"B2094750D565A6FE449A","title":"Acqua Pazza","lon":"121.47149","lat":"31.21056","category":"94","category_name":"西餐厅","address":"卢湾区建国中路6号(近南北高架)"},{"poiid":"B2094757D068A2FC4499","title":"DQ冰雪皇后(日月光广场店)","lon":"121.46887373","lat":"31.208485836","category":"113","category_name":"冷饮店","address":"卢湾区徐家汇路618号日月光中心广场1楼F06号商铺(近瑞金二路)"},{"poiid":"B2094757D06AA2FD459C","title":"食其家(日月光中心店)","lon":"121.46846","lat":"31.20648","category":"95","category_name":"日本料理","address":"卢湾区徐家汇路618号日月光中心广场(近瑞金二路)"},{"poiid":"B2094757D06EAAFC409F","title":"气味图书馆","lon":"121.46882704","lat":"31.208104284","category":"122","category_name":"个人用品/化妆品店","address":"泰康路274弄16号"},{"poiid":"B2094757D06FA2FC479E","title":"八号桥","lon":"121.46923451","lat":"31.208618989","category":"179","category_name":"音乐厅","address":"上海卢湾区建国中路10号(近重庆南路)  "},{"poiid":"B2094757D165A5F84398","title":"顺丰大酒店","lon":"121.470898738","lat":"31.2072998116","category":"247","category_name":"餐饮美食","address":"上海打浦路1号"},{"poiid":"B2094757D068A0FB4998","title":"空红罗","lon":"121.468662054","lat":"31.207939793","category":"95","category_name":"日本料理","address":"卢湾区泰康路258号田子坊47号1-2楼(近瑞金二路)"},{"poiid":"B2094757D068A3FC4293","title":"Longbar Asia","lon":"121.46878973","lat":"31.208360834","category":"99","category_name":"泰国／越南菜品餐厅","address":"卢湾区泰康路258号田子坊3号(近瑞金二路)"},{"poiid":"B2094751DA68A5F44599","title":"黛丽咖啡馆","lon":"121.468969","lat":"31.207791","category":"247","category_name":"餐饮美食","address":"泰康路248弄田子坊00号"},{"poiid":"B2094757D06FA0FD4692","title":"多金多港式美食餐厅 日月光广场店","lon":"121.46812","lat":"31.20555","category":"72","category_name":"广东菜","address":"卢湾区徐家汇路618号日月光中心广场B2楼(近7-11超市)"},{"poiid":"B2094654DA6EA3F5429A","title":"友谊时代大厦","lon":"121.471","lat":"31.2091","category":"46","category_name":"楼宇","address":"浦东临港新城主城区申港大道200号"},{"poiid":"B2094655D26EA7FD4498","title":"上海电力大楼","lon":"121.47249","lat":"31.2087","category":"46","category_name":"楼宇","address":"广益路与江海东路交汇处(五洲·中华美食城)"},{"poiid":"B2094757D06FA7FB479E","title":"上海交通大学医学院新教学楼","lon":"121.47087573","lat":"31.208594739","category":"253","category_name":"校园生活","address":"上海卢湾区重庆南路227号(近思南路)"},{"poiid":"B2094757D464A0F94999","title":"吴越人家 泰康店","lon":"121.47163531204","lat":"31.20814108047","category":"68","category_name":"快餐厅","address":"卢湾区泰康路5号(近思南路)"},{"poiid":"B2094751D264A5FF4598","title":"顺风大酒店","lon":"121.4695","lat":"31.20923","category":"247","category_name":"餐饮美食","address":null},{"poiid":"B2094757D068A7F44492","title":"星尚 Star Memory","lon":"121.469318","lat":"31.207846","category":"67","category_name":"甜品店","address":"上海泰康路田子坊248弄43号"},{"poiid":"B2094654DB6BA5FB489E","title":"思南新苑","lon":"121.47042","lat":"31.208597","category":"47","category_name":"住宅区","address":"上海市卢湾区思南路88号"},{"poiid":"B2094757D165ABFB479E","title":"新旺","lon":"121.47008573","lat":"31.207144808","category":"500","category_name":"未知分类","address":"上海市卢湾区瑞金二路"},{"poiid":"B2094757D068AAFA429D","title":"国信商务大厦","lon":"121.47108873","lat":"31.209255853","category":"46","category_name":"楼宇","address":"上海市卢湾区建国中路29号"},{"poiid":"B2094750D76FA0FC419E","title":"MAOLIVEHOUSESHANGHAI","lon":"121.472","lat":"31.2097","category":"269","category_name":"烧烤","address":"重庆南路308号(近建国中路)"},{"poiid":"B2094757D06FA7FB4298","title":"瑞金医院心内科","lon":"121.46961175","lat":"31.210129366","category":"162","category_name":"医院","address":"上海卢湾区瑞金二路197号瑞金医院内"},{"poiid":"B2094757D06FAAFD489F","title":"香啡缤(建国中路店)","lon":"121.4712","lat":"31.21005","category":"260","category_name":"其他","address":"卢湾区建国中路25号9号楼9101A室(近南北高架)"},{"poiid":"B2094654DB69A5FF429C","title":"莫泰168连锁旅店(思南路店)","lon":"121.47112","lat":"31.20883","category":"216","category_name":"经济型连锁酒店","address":"上海市黄浦区思南路113号（近泰康路）"},{"poiid":"B2094757D66AA6FF4599","title":"Casa13","lon":"121.46896","lat":"31.20831","category":"100","category_name":"地中海风格菜品","address":"建国中路155弄田子坊7号楼近瑞金二路"},{"poiid":"B209475CD36AA5F54398","title":"PURO","lon":"121.4707","lat":"31.20867","category":"94","category_name":"西餐厅","address":"思南路88弄5-6号1楼(近泰康路)"},{"poiid":"B2094757D76AA2FB409D","title":"陆路面点","lon":"121.46961","lat":"31.20969","category":"68","category_name":"快餐厅","address":"卢湾区建国中路61弄7号(近思南路)"},{"poiid":"B2094654DA6DA5FC469C","title":"汇泰大楼","lon":"121.47209","lat":"31.20846","category":"46","category_name":"楼宇","address":"上海徐家汇路430号"},{"poiid":"B2094757D66CA0F9499D","title":"金师傅馄饨(思南路店)","lon":"121.4706","lat":"31.20923","category":"68","category_name":"快餐厅","address":"卢湾区思南路78号(近建国中路)"},{"poiid":"B2094757D568ABF84192","title":"公馆·艺术·生活","lon":"121.4704281","lat":"31.20859694","category":"47","category_name":"住宅区","address":"公馆*艺术*生活位于卢湾卢湾思南路88号"},{"poiid":"B2094654DA6DA5FE419C","title":"田子坊","lon":"121.4688","lat":"31.20866","category":"47","category_name":"住宅区","address":"上海市卢湾区泰康路二四八弄29号"},{"poiid":"B2094654DB65A1F9459C","title":"田子坊石库门","lon":"121.46894","lat":"31.20874","category":"116","category_name":"特色商业街","address":"上海卢湾区泰康路274-210弄"},{"poiid":"B2094757D06FA2FF4192","title":"小三堂","lon":"121.47002777","lat":"31.2076806496","category":"91","category_name":"台湾菜","address":"卢湾区泰康路25号上海琉璃艺术博物馆1楼(思南路泰康路)"},{"poiid":"B2094753D76FAAFA449C","title":"上海滩国泰旗舰店","lon":"121.466011","lat":"31.216125","category":"249","category_name":"购物服务","address":"淮海中路868号"},{"poiid":"B209475CD564A7F84292","title":"上海滩新天地店","lon":"121.47463","lat":"31.22164","category":"119","category_name":"商场","address":"\"太仓路181弄新天地北里15号\r\n\""},{"poiid":"B209475CD564A7F8439E","title":"上海滩中信泰富店","lon":"121.45602","lat":"31.22851","category":"119","category_name":"商场","address":"\"南京西路1168号中信泰富广场，店铺号221.\r\n\""},{"poiid":"B2094757D16DA2F4479A","title":"山茶花韩国料理","lon":"121.4702382","lat":"31.207302181","category":"247","category_name":"餐饮美食","address":"上海卢湾徐家汇路618号日月光广场F4"},{"poiid":"B2094757D06FA2FE4499","title":"上海琉璃艺术博物馆","lon":"121.47013","lat":"31.20762","category":"182","category_name":"博物馆","address":"卢湾区泰康路25号(田子坊对面)"},{"poiid":"B2094757D06FA2FF4993","title":"公社 kommune","lon":"121.468662054","lat":"31.207939793","category":"65","category_name":"咖啡厅","address":"卢湾区泰康路210弄7号(近瑞金二路)"},{"poiid":"B2094757D66CABFF489E","title":"海底捞火锅","lon":"121.47142473","lat":"31.207495815","category":"247","category_name":"餐饮美食","address":"上海金玉兰广场"},{"poiid":"B2094757D068A3FF469B","title":"Mr.Choi PATISSERIE","lon":"121.47026773","lat":"31.207296811","category":"67","category_name":"甜品店","address":"上海徐家汇路618号日月光中心广场1楼F05室(近瑞金二路)"},{"poiid":"B2094757D06FAAFB489C","title":"思南路","lon":"121.471117","lat":"31.208571","category":"500","category_name":"未知分类","address":"上海思南路"},{"poiid":"B2094654DB6AA7F54192","title":"UPs","lon":"121.46897","lat":"31.20856","category":"247","category_name":"餐饮美食","address":"卢湾区泰康路210号田子坊7号1室(近瑞金二路)"},{"poiid":"B2094757D06FA2F9409D","title":"UP\\'s(田子坊店)","lon":"121.469356","lat":"31.20838","category":"94","category_name":"西餐厅","address":"上海卢湾区泰康路210弄7号1室(近思南路)"},{"poiid":"B2094751DA6DABF8419B","title":"米子咖啡MizziCafe","lon":"121.469881","lat":"31.207422","category":"247","category_name":"餐饮美食","address":"上海市徐家汇路618号1F-E-04室"},{"poiid":"B2094757D06FA2FE4198","title":"健康煮(日月光店)","lon":"121.47079246","lat":"31.207681244","category":"86","category_name":"火锅店","address":"卢湾区徐家汇路618号日月光中心广场B2楼F27号商铺(近9号线泰康路出口)"},{"poiid":"B2094757D168A1FE4398","title":"海底撈打浦路店","lon":"121.470297738","lat":"31.2072998116","category":"500","category_name":"未知分类","address":"上海卢湾区瑞金二路"},{"poiid":"B2094757D56CA0F94999","title":"云朵 THE CLOUDS","lon":"121.469788","lat":"31.2078814","category":"110","category_name":"其他亚洲菜","address":"卢湾区泰康路200号(近思南路)"},{"poiid":"B2094751D56CA4FB4699","title":"猫屎咖啡(泰康路店)","lon":"121.4696","lat":"31.20782","category":"247","category_name":"餐饮美食","address":"徐汇区泰康路210号"},{"poiid":"B2094757D06FA7FC499E","title":"上海壹号美术馆","lon":"121.47197","lat":"31.20997","category":"179","category_name":"音乐厅","address":"卢湾区建国中路1号(近重庆南路)"},{"poiid":"B2094753D76DABFF419C","title":"镰仓pasta","lon":"121.469009","lat":"31.207704","category":"500","category_name":"未知分类","address":"上海市 泰康路"},{"poiid":"B2094750D565A6FE449A","title":"Acqua Pazza","lon":"121.47149","lat":"31.21056","category":"94","category_name":"西餐厅","address":"卢湾区建国中路6号(近南北高架)"},{"poiid":"B2094757D068A2FC4499","title":"DQ冰雪皇后(日月光广场店)","lon":"121.46887373","lat":"31.208485836","category":"113","category_name":"冷饮店","address":"卢湾区徐家汇路618号日月光中心广场1楼F06号商铺(近瑞金二路)"},{"poiid":"B2094757D06AA2FD459C","title":"食其家(日月光中心店)","lon":"121.46846","lat":"31.20648","category":"95","category_name":"日本料理","address":"卢湾区徐家汇路618号日月光中心广场(近瑞金二路)"},{"poiid":"B2094757D06EAAFC409F","title":"气味图书馆","lon":"121.46882704","lat":"31.208104284","category":"122","category_name":"个人用品/化妆品店","address":"泰康路274弄16号"},{"poiid":"B2094757D06FA2FC479E","title":"八号桥","lon":"121.46923451","lat":"31.208618989","category":"179","category_name":"音乐厅","address":"上海卢湾区建国中路10号(近重庆南路)  "},{"poiid":"B2094757D165A5F84398","title":"顺丰大酒店","lon":"121.470898738","lat":"31.2072998116","category":"247","category_name":"餐饮美食","address":"上海打浦路1号"},{"poiid":"B2094757D068A0FB4998","title":"空红罗","lon":"121.468662054","lat":"31.207939793","category":"95","category_name":"日本料理","address":"卢湾区泰康路258号田子坊47号1-2楼(近瑞金二路)"},{"poiid":"B2094757D068A3FC4293","title":"Longbar Asia","lon":"121.46878973","lat":"31.208360834","category":"99","category_name":"泰国／越南菜品餐厅","address":"卢湾区泰康路258号田子坊3号(近瑞金二路)"},{"poiid":"B2094751DA68A5F44599","title":"黛丽咖啡馆","lon":"121.468969","lat":"31.207791","category":"247","category_name":"餐饮美食","address":"泰康路248弄田子坊00号"},{"poiid":"B2094757D06FA0FD4692","title":"多金多港式美食餐厅 日月光广场店","lon":"121.46812","lat":"31.20555","category":"72","category_name":"广东菜","address":"卢湾区徐家汇路618号日月光中心广场B2楼(近7-11超市)"},{"poiid":"B2094654DA6EA3F5429A","title":"友谊时代大厦","lon":"121.471","lat":"31.2091","category":"46","category_name":"楼宇","address":"浦东临港新城主城区申港大道200号"},{"poiid":"B2094655D26EA7FD4498","title":"上海电力大楼","lon":"121.47249","lat":"31.2087","category":"46","category_name":"楼宇","address":"广益路与江海东路交汇处(五洲·中华美食城)"},{"poiid":"B2094757D06FA7FB479E","title":"上海交通大学医学院新教学楼","lon":"121.47087573","lat":"31.208594739","category":"253","category_name":"校园生活","address":"上海卢湾区重庆南路227号(近思南路)"},{"poiid":"B2094757D464A0F94999","title":"吴越人家 泰康店","lon":"121.47163531204","lat":"31.20814108047","category":"68","category_name":"快餐厅","address":"卢湾区泰康路5号(近思南路)"},{"poiid":"B2094751D264A5FF4598","title":"顺风大酒店","lon":"121.4695","lat":"31.20923","category":"247","category_name":"餐饮美食","address":null},{"poiid":"B2094757D068A7F44492","title":"星尚 Star Memory","lon":"121.469318","lat":"31.207846","category":"67","category_name":"甜品店","address":"上海泰康路田子坊248弄43号"},{"poiid":"B2094654DB6BA5FB489E","title":"思南新苑","lon":"121.47042","lat":"31.208597","category":"47","category_name":"住宅区","address":"上海市卢湾区思南路88号"},{"poiid":"B2094757D165ABFB479E","title":"新旺","lon":"121.47008573","lat":"31.207144808","category":"500","category_name":"未知分类","address":"上海市卢湾区瑞金二路"},{"poiid":"B2094757D068AAFA429D","title":"国信商务大厦","lon":"121.47108873","lat":"31.209255853","category":"46","category_name":"楼宇","address":"上海市卢湾区建国中路29号"},{"poiid":"B2094750D76FA0FC419E","title":"MAOLIVEHOUSESHANGHAI","lon":"121.472","lat":"31.2097","category":"269","category_name":"烧烤","address":"重庆南路308号(近建国中路)"},{"poiid":"B2094757D06FA7FB4298","title":"瑞金医院心内科","lon":"121.46961175","lat":"31.210129366","category":"162","category_name":"医院","address":"上海卢湾区瑞金二路197号瑞金医院内"},{"poiid":"B2094757D06FAAFD489F","title":"香啡缤(建国中路店)","lon":"121.4712","lat":"31.21005","category":"260","category_name":"其他","address":"卢湾区建国中路25号9号楼9101A室(近南北高架)"},{"poiid":"B2094654DB69A5FF429C","title":"莫泰168连锁旅店(思南路店)","lon":"121.47112","lat":"31.20883","category":"216","category_name":"经济型连锁酒店","address":"上海市黄浦区思南路113号（近泰康路）"},{"poiid":"B2094757D66AA6FF4599","title":"Casa13","lon":"121.46896","lat":"31.20831","category":"100","category_name":"地中海风格菜品","address":"建国中路155弄田子坊7号楼近瑞金二路"},{"poiid":"B209475CD36AA5F54398","title":"PURO","lon":"121.4707","lat":"31.20867","category":"94","category_name":"西餐厅","address":"思南路88弄5-6号1楼(近泰康路)"},{"poiid":"B2094757D76AA2FB409D","title":"陆路面点","lon":"121.46961","lat":"31.20969","category":"68","category_name":"快餐厅","address":"卢湾区建国中路61弄7号(近思南路)"},{"poiid":"B2094654DA6DA5FC469C","title":"汇泰大楼","lon":"121.47209","lat":"31.20846","category":"46","category_name":"楼宇","address":"上海徐家汇路430号"},{"poiid":"B2094757D66CA0F9499D","title":"金师傅馄饨(思南路店)","lon":"121.4706","lat":"31.20923","category":"68","category_name":"快餐厅","address":"卢湾区思南路78号(近建国中路)"},{"poiid":"B2094757D568ABF84192","title":"公馆·艺术·生活","lon":"121.4704281","lat":"31.20859694","category":"47","category_name":"住宅区","address":"公馆*艺术*生活位于卢湾卢湾思南路88号"},{"poiid":"B2094654DA6DA5FE419C","title":"田子坊","lon":"121.4688","lat":"31.20866","category":"47","category_name":"住宅区","address":"上海市卢湾区泰康路二四八弄29号"},{"poiid":"B2094654DB65A1F9459C","title":"田子坊石库门","lon":"121.46894","lat":"31.20874","category":"116","category_name":"特色商业街","address":"上海卢湾区泰康路274-210弄"},{"poiid":"B2094757D06FA2FF4192","title":"小三堂","lon":"121.47002777","lat":"31.2076806496","category":"91","category_name":"台湾菜","address":"卢湾区泰康路25号上海琉璃艺术博物馆1楼(思南路泰康路)"},{"poiid":"B2094753D76FAAFA449C","title":"上海滩国泰旗舰店","lon":"121.466011","lat":"31.216125","category":"249","category_name":"购物服务","address":"淮海中路868号"},{"poiid":"B209475CD564A7F84292","title":"上海滩新天地店","lon":"121.47463","lat":"31.22164","category":"119","category_name":"商场","address":"\"太仓路181弄新天地北里15号\r\n\""},{"poiid":"B209475CD564A7F8439E","title":"上海滩中信泰富店","lon":"121.45602","lat":"31.22851","category":"119","category_name":"商场","address":"\"南京西路1168号中信泰富广场，店铺号221.\r\n\""},{"poiid":"B2094757D16DA2F4479A","title":"山茶花韩国料理","lon":"121.4702382","lat":"31.207302181","category":"247","category_name":"餐饮美食","address":"上海卢湾徐家汇路618号日月光广场F4"},{"poiid":"B2094757D06FA2FE4499","title":"上海琉璃艺术博物馆","lon":"121.47013","lat":"31.20762","category":"182","category_name":"博物馆","address":"卢湾区泰康路25号(田子坊对面)"},{"poiid":"B2094757D06FA2FF4993","title":"公社 kommune","lon":"121.468662054","lat":"31.207939793","category":"65","category_name":"咖啡厅","address":"卢湾区泰康路210弄7号(近瑞金二路)"},{"poiid":"B2094757D66CABFF489E","title":"海底捞火锅","lon":"121.47142473","lat":"31.207495815","category":"247","category_name":"餐饮美食","address":"上海金玉兰广场"},{"poiid":"B2094757D068A3FF469B","title":"Mr.Choi PATISSERIE","lon":"121.47026773","lat":"31.207296811","category":"67","category_name":"甜品店","address":"上海徐家汇路618号日月光中心广场1楼F05室(近瑞金二路)"},{"poiid":"B2094757D06FAAFB489C","title":"思南路","lon":"121.471117","lat":"31.208571","category":"500","category_name":"未知分类","address":"上海思南路"},{"poiid":"B2094654DB6AA7F54192","title":"UPs","lon":"121.46897","lat":"31.20856","category":"247","category_name":"餐饮美食","address":"卢湾区泰康路210号田子坊7号1室(近瑞金二路)"},{"poiid":"B2094757D06FA2F9409D","title":"UP\\'s(田子坊店)","lon":"121.469356","lat":"31.20838","category":"94","category_name":"西餐厅","address":"上海卢湾区泰康路210弄7号1室(近思南路)"},{"poiid":"B2094751DA6DABF8419B","title":"米子咖啡MizziCafe","lon":"121.469881","lat":"31.207422","category":"247","category_name":"餐饮美食","address":"上海市徐家汇路618号1F-E-04室"},{"poiid":"B2094757D06FA2FE4198","title":"健康煮(日月光店)","lon":"121.47079246","lat":"31.207681244","category":"86","category_name":"火锅店","address":"卢湾区徐家汇路618号日月光中心广场B2楼F27号商铺(近9号线泰康路出口)"},{"poiid":"B2094757D168A1FE4398","title":"海底撈打浦路店","lon":"121.470297738","lat":"31.2072998116","category":"500","category_name":"未知分类","address":"上海卢湾区瑞金二路"},{"poiid":"B2094757D56CA0F94999","title":"云朵 THE CLOUDS","lon":"121.469788","lat":"31.2078814","category":"110","category_name":"其他亚洲菜","address":"卢湾区泰康路200号(近思南路)"},{"poiid":"B2094751D56CA4FB4699","title":"猫屎咖啡(泰康路店)","lon":"121.4696","lat":"31.20782","category":"247","category_name":"餐饮美食","address":"徐汇区泰康路210号"},{"poiid":"B2094757D06FA7FC499E","title":"上海壹号美术馆","lon":"121.47197","lat":"31.20997","category":"179","category_name":"音乐厅","address":"卢湾区建国中路1号(近重庆南路)"},{"poiid":"B2094753D76DABFF419C","title":"镰仓pasta","lon":"121.469009","lat":"31.207704","category":"500","category_name":"未知分类","address":"上海市 泰康路"},{"poiid":"B2094750D565A6FE449A","title":"Acqua Pazza","lon":"121.47149","lat":"31.21056","category":"94","category_name":"西餐厅","address":"卢湾区建国中路6号(近南北高架)"},{"poiid":"B2094757D068A2FC4499","title":"DQ冰雪皇后(日月光广场店)","lon":"121.46887373","lat":"31.208485836","category":"113","category_name":"冷饮店","address":"卢湾区徐家汇路618号日月光中心广场1楼F06号商铺(近瑞金二路)"},{"poiid":"B2094757D06AA2FD459C","title":"食其家(日月光中心店)","lon":"121.46846","lat":"31.20648","category":"95","category_name":"日本料理","address":"卢湾区徐家汇路618号日月光中心广场(近瑞金二路)"},{"poiid":"B2094757D06EAAFC409F","title":"气味图书馆","lon":"121.46882704","lat":"31.208104284","category":"122","category_name":"个人用品/化妆品店","address":"泰康路274弄16号"},{"poiid":"B2094757D06FA2FC479E","title":"八号桥","lon":"121.46923451","lat":"31.208618989","category":"179","category_name":"音乐厅","address":"上海卢湾区建国中路10号(近重庆南路)  "},{"poiid":"B2094757D165A5F84398","title":"顺丰大酒店","lon":"121.470898738","lat":"31.2072998116","category":"247","category_name":"餐饮美食","address":"上海打浦路1号"},{"poiid":"B2094757D068A0FB4998","title":"空红罗","lon":"121.468662054","lat":"31.207939793","category":"95","category_name":"日本料理","address":"卢湾区泰康路258号田子坊47号1-2楼(近瑞金二路)"},{"poiid":"B2094757D068A3FC4293","title":"Longbar Asia","lon":"121.46878973","lat":"31.208360834","category":"99","category_name":"泰国／越南菜品餐厅","address":"卢湾区泰康路258号田子坊3号(近瑞金二路)"},{"poiid":"B2094751DA68A5F44599","title":"黛丽咖啡馆","lon":"121.468969","lat":"31.207791","category":"247","category_name":"餐饮美食","address":"泰康路248弄田子坊00号"},{"poiid":"B2094757D06FA0FD4692","title":"多金多港式美食餐厅 日月光广场店","lon":"121.46812","lat":"31.20555","category":"72","category_name":"广东菜","address":"卢湾区徐家汇路618号日月光中心广场B2楼(近7-11超市)"},{"poiid":"B2094654DA6EA3F5429A","title":"友谊时代大厦","lon":"121.471","lat":"31.2091","category":"46","category_name":"楼宇","address":"浦东临港新城主城区申港大道200号"},{"poiid":"B2094655D26EA7FD4498","title":"上海电力大楼","lon":"121.47249","lat":"31.2087","category":"46","category_name":"楼宇","address":"广益路与江海东路交汇处(五洲·中华美食城)"},{"poiid":"B2094757D06FA7FB479E","title":"上海交通大学医学院新教学楼","lon":"121.47087573","lat":"31.208594739","category":"253","category_name":"校园生活","address":"上海卢湾区重庆南路227号(近思南路)"},{"poiid":"B2094757D464A0F94999","title":"吴越人家 泰康店","lon":"121.47163531204","lat":"31.20814108047","category":"68","category_name":"快餐厅","address":"卢湾区泰康路5号(近思南路)"},{"poiid":"B2094751D264A5FF4598","title":"顺风大酒店","lon":"121.4695","lat":"31.20923","category":"247","category_name":"餐饮美食","address":null},{"poiid":"B2094757D068A7F44492","title":"星尚 Star Memory","lon":"121.469318","lat":"31.207846","category":"67","category_name":"甜品店","address":"上海泰康路田子坊248弄43号"},{"poiid":"B2094654DB6BA5FB489E","title":"思南新苑","lon":"121.47042","lat":"31.208597","category":"47","category_name":"住宅区","address":"上海市卢湾区思南路88号"},{"poiid":"B2094757D165ABFB479E","title":"新旺","lon":"121.47008573","lat":"31.207144808","category":"500","category_name":"未知分类","address":"上海市卢湾区瑞金二路"},{"poiid":"B2094757D068AAFA429D","title":"国信商务大厦","lon":"121.47108873","lat":"31.209255853","category":"46","category_name":"楼宇","address":"上海市卢湾区建国中路29号"},{"poiid":"B2094750D76FA0FC419E","title":"MAOLIVEHOUSESHANGHAI","lon":"121.472","lat":"31.2097","category":"269","category_name":"烧烤","address":"重庆南路308号(近建国中路)"},{"poiid":"B2094757D06FA7FB4298","title":"瑞金医院心内科","lon":"121.46961175","lat":"31.210129366","category":"162","category_name":"医院","address":"上海卢湾区瑞金二路197号瑞金医院内"},{"poiid":"B2094757D06FAAFD489F","title":"香啡缤(建国中路店)","lon":"121.4712","lat":"31.21005","category":"260","category_name":"其他","address":"卢湾区建国中路25号9号楼9101A室(近南北高架)"},{"poiid":"B2094654DB69A5FF429C","title":"莫泰168连锁旅店(思南路店)","lon":"121.47112","lat":"31.20883","category":"216","category_name":"经济型连锁酒店","address":"上海市黄浦区思南路113号（近泰康路）"},{"poiid":"B2094757D66AA6FF4599","title":"Casa13","lon":"121.46896","lat":"31.20831","category":"100","category_name":"地中海风格菜品","address":"建国中路155弄田子坊7号楼近瑞金二路"},{"poiid":"B209475CD36AA5F54398","title":"PURO","lon":"121.4707","lat":"31.20867","category":"94","category_name":"西餐厅","address":"思南路88弄5-6号1楼(近泰康路)"},{"poiid":"B2094757D76AA2FB409D","title":"陆路面点","lon":"121.46961","lat":"31.20969","category":"68","category_name":"快餐厅","address":"卢湾区建国中路61弄7号(近思南路)"},{"poiid":"B2094654DA6DA5FC469C","title":"汇泰大楼","lon":"121.47209","lat":"31.20846","category":"46","category_name":"楼宇","address":"上海徐家汇路430号"},{"poiid":"B2094757D66CA0F9499D","title":"金师傅馄饨(思南路店)","lon":"121.4706","lat":"31.20923","category":"68","category_name":"快餐厅","address":"卢湾区思南路78号(近建国中路)"},{"poiid":"B2094757D568ABF84192","title":"公馆·艺术·生活","lon":"121.4704281","lat":"31.20859694","category":"47","category_name":"住宅区","address":"公馆*艺术*生活位于卢湾卢湾思南路88号"},{"poiid":"B2094654DA6DA5FE419C","title":"田子坊","lon":"121.4688","lat":"31.20866","category":"47","category_name":"住宅区","address":"上海市卢湾区泰康路二四八弄29号"},{"poiid":"B2094654DB65A1F9459C","title":"田子坊石库门","lon":"121.46894","lat":"31.20874","category":"116","category_name":"特色商业街","address":"上海卢湾区泰康路274-210弄"},{"poiid":"B2094757D06FA2FF4192","title":"小三堂","lon":"121.47002777","lat":"31.2076806496","category":"91","category_name":"台湾菜","address":"卢湾区泰康路25号上海琉璃艺术博物馆1楼(思南路泰康路)"},{"poiid":"B2094753D76FAAFA449C","title":"上海滩国泰旗舰店","lon":"121.466011","lat":"31.216125","category":"249","category_name":"购物服务","address":"淮海中路868号"},{"poiid":"B209475CD564A7F84292","title":"上海滩新天地店","lon":"121.47463","lat":"31.22164","category":"119","category_name":"商场","address":"\"太仓路181弄新天地北里15号\r\n\""},{"poiid":"B209475CD564A7F8439E","title":"上海滩中信泰富店","lon":"121.45602","lat":"31.22851","category":"119","category_name":"商场","address":"\"南京西路1168号中信泰富广场，店铺号221.\r\n\""},{"poiid":"B2094757D16DA2F4479A","title":"山茶花韩国料理","lon":"121.4702382","lat":"31.207302181","category":"247","category_name":"餐饮美食","address":"上海卢湾徐家汇路618号日月光广场F4"},{"poiid":"B2094757D06FA2FE4499","title":"上海琉璃艺术博物馆","lon":"121.47013","lat":"31.20762","category":"182","category_name":"博物馆","address":"卢湾区泰康路25号(田子坊对面)"},{"poiid":"B2094757D06FA2FF4993","title":"公社 kommune","lon":"121.468662054","lat":"31.207939793","category":"65","category_name":"咖啡厅","address":"卢湾区泰康路210弄7号(近瑞金二路)"},{"poiid":"B2094757D66CABFF489E","title":"海底捞火锅","lon":"121.47142473","lat":"31.207495815","category":"247","category_name":"餐饮美食","address":"上海金玉兰广场"},{"poiid":"B2094757D068A3FF469B","title":"Mr.Choi PATISSERIE","lon":"121.47026773","lat":"31.207296811","category":"67","category_name":"甜品店","address":"上海徐家汇路618号日月光中心广场1楼F05室(近瑞金二路)"},{"poiid":"B2094757D06FAAFB489C","title":"思南路","lon":"121.471117","lat":"31.208571","category":"500","category_name":"未知分类","address":"上海思南路"},{"poiid":"B2094654DB6AA7F54192","title":"UPs","lon":"121.46897","lat":"31.20856","category":"247","category_name":"餐饮美食","address":"卢湾区泰康路210号田子坊7号1室(近瑞金二路)"},{"poiid":"B2094757D06FA2F9409D","title":"UP\\'s(田子坊店)","lon":"121.469356","lat":"31.20838","category":"94","category_name":"西餐厅","address":"上海卢湾区泰康路210弄7号1室(近思南路)"},{"poiid":"B2094751DA6DABF8419B","title":"米子咖啡MizziCafe","lon":"121.469881","lat":"31.207422","category":"247","category_name":"餐饮美食","address":"上海市徐家汇路618号1F-E-04室"},{"poiid":"B2094757D06FA2FE4198","title":"健康煮(日月光店)","lon":"121.47079246","lat":"31.207681244","category":"86","category_name":"火锅店","address":"卢湾区徐家汇路618号日月光中心广场B2楼F27号商铺(近9号线泰康路出口)"},{"poiid":"B2094757D168A1FE4398","title":"海底撈打浦路店","lon":"121.470297738","lat":"31.2072998116","category":"500","category_name":"未知分类","address":"上海卢湾区瑞金二路"},{"poiid":"B2094757D56CA0F94999","title":"云朵 THE CLOUDS","lon":"121.469788","lat":"31.2078814","category":"110","category_name":"其他亚洲菜","address":"卢湾区泰康路200号(近思南路)"},{"poiid":"B2094751D56CA4FB4699","title":"猫屎咖啡(泰康路店)","lon":"121.4696","lat":"31.20782","category":"247","category_name":"餐饮美食","address":"徐汇区泰康路210号"},{"poiid":"B2094757D06FA7FC499E","title":"上海壹号美术馆","lon":"121.47197","lat":"31.20997","category":"179","category_name":"音乐厅","address":"卢湾区建国中路1号(近重庆南路)"},{"poiid":"B2094753D76DABFF419C","title":"镰仓pasta","lon":"121.469009","lat":"31.207704","category":"500","category_name":"未知分类","address":"上海市 泰康路"},{"poiid":"B2094750D565A6FE449A","title":"Acqua Pazza","lon":"121.47149","lat":"31.21056","category":"94","category_name":"西餐厅","address":"卢湾区建国中路6号(近南北高架)"},{"poiid":"B2094757D068A2FC4499","title":"DQ冰雪皇后(日月光广场店)","lon":"121.46887373","lat":"31.208485836","category":"113","category_name":"冷饮店","address":"卢湾区徐家汇路618号日月光中心广场1楼F06号商铺(近瑞金二路)"},{"poiid":"B2094757D06AA2FD459C","title":"食其家(日月光中心店)","lon":"121.46846","lat":"31.20648","category":"95","category_name":"日本料理","address":"卢湾区徐家汇路618号日月光中心广场(近瑞金二路)"},{"poiid":"B2094757D06EAAFC409F","title":"气味图书馆","lon":"121.46882704","lat":"31.208104284","category":"122","category_name":"个人用品/化妆品店","address":"泰康路274弄16号"},{"poiid":"B2094757D06FA2FC479E","title":"八号桥","lon":"121.46923451","lat":"31.208618989","category":"179","category_name":"音乐厅","address":"上海卢湾区建国中路10号(近重庆南路)  "},{"poiid":"B2094757D165A5F84398","title":"顺丰大酒店","lon":"121.470898738","lat":"31.2072998116","category":"247","category_name":"餐饮美食","address":"上海打浦路1号"},{"poiid":"B2094757D068A0FB4998","title":"空红罗","lon":"121.468662054","lat":"31.207939793","category":"95","category_name":"日本料理","address":"卢湾区泰康路258号田子坊47号1-2楼(近瑞金二路)"},{"poiid":"B2094757D068A3FC4293","title":"Longbar Asia","lon":"121.46878973","lat":"31.208360834","category":"99","category_name":"泰国／越南菜品餐厅","address":"卢湾区泰康路258号田子坊3号(近瑞金二路)"},{"poiid":"B2094751DA68A5F44599","title":"黛丽咖啡馆","lon":"121.468969","lat":"31.207791","category":"247","category_name":"餐饮美食","address":"泰康路248弄田子坊00号"},{"poiid":"B2094757D06FA0FD4692","title":"多金多港式美食餐厅 日月光广场店","lon":"121.46812","lat":"31.20555","category":"72","category_name":"广东菜","address":"卢湾区徐家汇路618号日月光中心广场B2楼(近7-11超市)"},{"poiid":"B2094654DA6EA3F5429A","title":"友谊时代大厦","lon":"121.471","lat":"31.2091","category":"46","category_name":"楼宇","address":"浦东临港新城主城区申港大道200号"},{"poiid":"B2094655D26EA7FD4498","title":"上海电力大楼","lon":"121.47249","lat":"31.2087","category":"46","category_name":"楼宇","address":"广益路与江海东路交汇处(五洲·中华美食城)"},{"poiid":"B2094757D06FA7FB479E","title":"上海交通大学医学院新教学楼","lon":"121.47087573","lat":"31.208594739","category":"253","category_name":"校园生活","address":"上海卢湾区重庆南路227号(近思南路)"},{"poiid":"B2094757D464A0F94999","title":"吴越人家 泰康店","lon":"121.47163531204","lat":"31.20814108047","category":"68","category_name":"快餐厅","address":"卢湾区泰康路5号(近思南路)"},{"poiid":"B2094751D264A5FF4598","title":"顺风大酒店","lon":"121.4695","lat":"31.20923","category":"247","category_name":"餐饮美食","address":null},{"poiid":"B2094757D068A7F44492","title":"星尚 Star Memory","lon":"121.469318","lat":"31.207846","category":"67","category_name":"甜品店","address":"上海泰康路田子坊248弄43号"},{"poiid":"B2094654DB6BA5FB489E","title":"思南新苑","lon":"121.47042","lat":"31.208597","category":"47","category_name":"住宅区","address":"上海市卢湾区思南路88号"},{"poiid":"B2094757D165ABFB479E","title":"新旺","lon":"121.47008573","lat":"31.207144808","category":"500","category_name":"未知分类","address":"上海市卢湾区瑞金二路"},{"poiid":"B2094757D068AAFA429D","title":"国信商务大厦","lon":"121.47108873","lat":"31.209255853","category":"46","category_name":"楼宇","address":"上海市卢湾区建国中路29号"},{"poiid":"B2094750D76FA0FC419E","title":"MAOLIVEHOUSESHANGHAI","lon":"121.472","lat":"31.2097","category":"269","category_name":"烧烤","address":"重庆南路308号(近建国中路)"},{"poiid":"B2094757D06FA7FB4298","title":"瑞金医院心内科","lon":"121.46961175","lat":"31.210129366","category":"162","category_name":"医院","address":"上海卢湾区瑞金二路197号瑞金医院内"},{"poiid":"B2094757D06FAAFD489F","title":"香啡缤(建国中路店)","lon":"121.4712","lat":"31.21005","category":"260","category_name":"其他","address":"卢湾区建国中路25号9号楼9101A室(近南北高架)"},{"poiid":"B2094654DB69A5FF429C","title":"莫泰168连锁旅店(思南路店)","lon":"121.47112","lat":"31.20883","category":"216","category_name":"经济型连锁酒店","address":"上海市黄浦区思南路113号（近泰康路）"},{"poiid":"B2094757D66AA6FF4599","title":"Casa13","lon":"121.46896","lat":"31.20831","category":"100","category_name":"地中海风格菜品","address":"建国中路155弄田子坊7号楼近瑞金二路"},{"poiid":"B209475CD36AA5F54398","title":"PURO","lon":"121.4707","lat":"31.20867","category":"94","category_name":"西餐厅","address":"思南路88弄5-6号1楼(近泰康路)"},{"poiid":"B2094757D76AA2FB409D","title":"陆路面点","lon":"121.46961","lat":"31.20969","category":"68","category_name":"快餐厅","address":"卢湾区建国中路61弄7号(近思南路)"},{"poiid":"B2094654DA6DA5FC469C","title":"汇泰大楼","lon":"121.47209","lat":"31.20846","category":"46","category_name":"楼宇","address":"上海徐家汇路430号"},{"poiid":"B2094757D66CA0F9499D","title":"金师傅馄饨(思南路店)","lon":"121.4706","lat":"31.20923","category":"68","category_name":"快餐厅","address":"卢湾区思南路78号(近建国中路)"},{"poiid":"B2094757D568ABF84192","title":"公馆·艺术·生活","lon":"121.4704281","lat":"31.20859694","category":"47","category_name":"住宅区","address":"公馆*艺术*生活位于卢湾卢湾思南路88号"},{"poiid":"B2094654DA6DA5FE419C","title":"田子坊","lon":"121.4688","lat":"31.20866","category":"47","category_name":"住宅区","address":"上海市卢湾区泰康路二四八弄29号"},{"poiid":"B2094654DB65A1F9459C","title":"田子坊石库门","lon":"121.46894","lat":"31.20874","category":"116","category_name":"特色商业街","address":"上海卢湾区泰康路274-210弄"},{"poiid":"B2094757D06FA2FF4192","title":"小三堂","lon":"121.47002777","lat":"31.2076806496","category":"91","category_name":"台湾菜","address":"卢湾区泰康路25号上海琉璃艺术博物馆1楼(思南路泰康路)"},{"poiid":"B2094753D76FAAFA449C","title":"上海滩国泰旗舰店","lon":"121.466011","lat":"31.216125","category":"249","category_name":"购物服务","address":"淮海中路868号"},{"poiid":"B209475CD564A7F84292","title":"上海滩新天地店","lon":"121.47463","lat":"31.22164","category":"119","category_name":"商场","address":"\"太仓路181弄新天地北里15号\r\n\""},{"poiid":"B209475CD564A7F8439E","title":"上海滩中信泰富店","lon":"121.45602","lat":"31.22851","category":"119","category_name":"商场","address":"\"南京西路1168号中信泰富广场，店铺号221.\r\n\""},{"poiid":"B2094757D16DA2F4479A","title":"山茶花韩国料理","lon":"121.4702382","lat":"31.207302181","category":"247","category_name":"餐饮美食","address":"上海卢湾徐家汇路618号日月光广场F4"},{"poiid":"B2094757D06FA2FE4499","title":"上海琉璃艺术博物馆","lon":"121.47013","lat":"31.20762","category":"182","category_name":"博物馆","address":"卢湾区泰康路25号(田子坊对面)"},{"poiid":"B2094757D06FA2FF4993","title":"公社 kommune","lon":"121.468662054","lat":"31.207939793","category":"65","category_name":"咖啡厅","address":"卢湾区泰康路210弄7号(近瑞金二路)"},{"poiid":"B2094757D66CABFF489E","title":"海底捞火锅","lon":"121.47142473","lat":"31.207495815","category":"247","category_name":"餐饮美食","address":"上海金玉兰广场"},{"poiid":"B2094757D068A3FF469B","title":"Mr.Choi PATISSERIE","lon":"121.47026773","lat":"31.207296811","category":"67","category_name":"甜品店","address":"上海徐家汇路618号日月光中心广场1楼F05室(近瑞金二路)"},{"poiid":"B2094757D06FAAFB489C","title":"思南路","lon":"121.471117","lat":"31.208571","category":"500","category_name":"未知分类","address":"上海思南路"},{"poiid":"B2094654DB6AA7F54192","title":"UPs","lon":"121.46897","lat":"31.20856","category":"247","category_name":"餐饮美食","address":"卢湾区泰康路210号田子坊7号1室(近瑞金二路)"},{"poiid":"B2094757D06FA2F9409D","title":"UP\\'s(田子坊店)","lon":"121.469356","lat":"31.20838","category":"94","category_name":"西餐厅","address":"上海卢湾区泰康路210弄7号1室(近思南路)"},{"poiid":"B2094751DA6DABF8419B","title":"米子咖啡MizziCafe","lon":"121.469881","lat":"31.207422","category":"247","category_name":"餐饮美食","address":"上海市徐家汇路618号1F-E-04室"},{"poiid":"B2094757D06FA2FE4198","title":"健康煮(日月光店)","lon":"121.47079246","lat":"31.207681244","category":"86","category_name":"火锅店","address":"卢湾区徐家汇路618号日月光中心广场B2楼F27号商铺(近9号线泰康路出口)"},{"poiid":"B2094757D168A1FE4398","title":"海底撈打浦路店","lon":"121.470297738","lat":"31.2072998116","category":"500","category_name":"未知分类","address":"上海卢湾区瑞金二路"},{"poiid":"B2094757D56CA0F94999","title":"云朵 THE CLOUDS","lon":"121.469788","lat":"31.2078814","category":"110","category_name":"其他亚洲菜","address":"卢湾区泰康路200号(近思南路)"},{"poiid":"B2094751D56CA4FB4699","title":"猫屎咖啡(泰康路店)","lon":"121.4696","lat":"31.20782","category":"247","category_name":"餐饮美食","address":"徐汇区泰康路210号"},{"poiid":"B2094757D06FA7FC499E","title":"上海壹号美术馆","lon":"121.47197","lat":"31.20997","category":"179","category_name":"音乐厅","address":"卢湾区建国中路1号(近重庆南路)"},{"poiid":"B2094753D76DABFF419C","title":"镰仓pasta","lon":"121.469009","lat":"31.207704","category":"500","category_name":"未知分类","address":"上海市 泰康路"},{"poiid":"B2094750D565A6FE449A","title":"Acqua Pazza","lon":"121.47149","lat":"31.21056","category":"94","category_name":"西餐厅","address":"卢湾区建国中路6号(近南北高架)"},{"poiid":"B2094757D068A2FC4499","title":"DQ冰雪皇后(日月光广场店)","lon":"121.46887373","lat":"31.208485836","category":"113","category_name":"冷饮店","address":"卢湾区徐家汇路618号日月光中心广场1楼F06号商铺(近瑞金二路)"},{"poiid":"B2094757D06AA2FD459C","title":"食其家(日月光中心店)","lon":"121.46846","lat":"31.20648","category":"95","category_name":"日本料理","address":"卢湾区徐家汇路618号日月光中心广场(近瑞金二路)"},{"poiid":"B2094757D06EAAFC409F","title":"气味图书馆","lon":"121.46882704","lat":"31.208104284","category":"122","category_name":"个人用品/化妆品店","address":"泰康路274弄16号"},{"poiid":"B2094757D06FA2FC479E","title":"八号桥","lon":"121.46923451","lat":"31.208618989","category":"179","category_name":"音乐厅","address":"上海卢湾区建国中路10号(近重庆南路)  "},{"poiid":"B2094757D165A5F84398","title":"顺丰大酒店","lon":"121.470898738","lat":"31.2072998116","category":"247","category_name":"餐饮美食","address":"上海打浦路1号"},{"poiid":"B2094757D068A0FB4998","title":"空红罗","lon":"121.468662054","lat":"31.207939793","category":"95","category_name":"日本料理","address":"卢湾区泰康路258号田子坊47号1-2楼(近瑞金二路)"},{"poiid":"B2094757D068A3FC4293","title":"Longbar Asia","lon":"121.46878973","lat":"31.208360834","category":"99","category_name":"泰国／越南菜品餐厅","address":"卢湾区泰康路258号田子坊3号(近瑞金二路)"},{"poiid":"B2094751DA68A5F44599","title":"黛丽咖啡馆","lon":"121.468969","lat":"31.207791","category":"247","category_name":"餐饮美食","address":"泰康路248弄田子坊00号"},{"poiid":"B2094757D06FA0FD4692","title":"多金多港式美食餐厅 日月光广场店","lon":"121.46812","lat":"31.20555","category":"72","category_name":"广东菜","address":"卢湾区徐家汇路618号日月光中心广场B2楼(近7-11超市)"},{"poiid":"B2094654DA6EA3F5429A","title":"友谊时代大厦","lon":"121.471","lat":"31.2091","category":"46","category_name":"楼宇","address":"浦东临港新城主城区申港大道200号"},{"poiid":"B2094655D26EA7FD4498","title":"上海电力大楼","lon":"121.47249","lat":"31.2087","category":"46","category_name":"楼宇","address":"广益路与江海东路交汇处(五洲·中华美食城)"},{"poiid":"B2094757D06FA7FB479E","title":"上海交通大学医学院新教学楼","lon":"121.47087573","lat":"31.208594739","category":"253","category_name":"校园生活","address":"上海卢湾区重庆南路227号(近思南路)"},{"poiid":"B2094757D464A0F94999","title":"吴越人家 泰康店","lon":"121.47163531204","lat":"31.20814108047","category":"68","category_name":"快餐厅","address":"卢湾区泰康路5号(近思南路)"},{"poiid":"B2094751D264A5FF4598","title":"顺风大酒店","lon":"121.4695","lat":"31.20923","category":"247","category_name":"餐饮美食","address":null},{"poiid":"B2094757D068A7F44492","title":"星尚 Star Memory","lon":"121.469318","lat":"31.207846","category":"67","category_name":"甜品店","address":"上海泰康路田子坊248弄43号"},{"poiid":"B2094654DB6BA5FB489E","title":"思南新苑","lon":"121.47042","lat":"31.208597","category":"47","category_name":"住宅区","address":"上海市卢湾区思南路88号"},{"poiid":"B2094757D165ABFB479E","title":"新旺","lon":"121.47008573","lat":"31.207144808","category":"500","category_name":"未知分类","address":"上海市卢湾区瑞金二路"},{"poiid":"B2094757D068AAFA429D","title":"国信商务大厦","lon":"121.47108873","lat":"31.209255853","category":"46","category_name":"楼宇","address":"上海市卢湾区建国中路29号"},{"poiid":"B2094750D76FA0FC419E","title":"MAOLIVEHOUSESHANGHAI","lon":"121.472","lat":"31.2097","category":"269","category_name":"烧烤","address":"重庆南路308号(近建国中路)"},{"poiid":"B2094757D06FA7FB4298","title":"瑞金医院心内科","lon":"121.46961175","lat":"31.210129366","category":"162","category_name":"医院","address":"上海卢湾区瑞金二路197号瑞金医院内"},{"poiid":"B2094757D06FAAFD489F","title":"香啡缤(建国中路店)","lon":"121.4712","lat":"31.21005","category":"260","category_name":"其他","address":"卢湾区建国中路25号9号楼9101A室(近南北高架)"},{"poiid":"B2094654DB69A5FF429C","title":"莫泰168连锁旅店(思南路店)","lon":"121.47112","lat":"31.20883","category":"216","category_name":"经济型连锁酒店","address":"上海市黄浦区思南路113号（近泰康路）"},{"poiid":"B2094757D66AA6FF4599","title":"Casa13","lon":"121.46896","lat":"31.20831","category":"100","category_name":"地中海风格菜品","address":"建国中路155弄田子坊7号楼近瑞金二路"},{"poiid":"B209475CD36AA5F54398","title":"PURO","lon":"121.4707","lat":"31.20867","category":"94","category_name":"西餐厅","address":"思南路88弄5-6号1楼(近泰康路)"},{"poiid":"B2094757D76AA2FB409D","title":"陆路面点","lon":"121.46961","lat":"31.20969","category":"68","category_name":"快餐厅","address":"卢湾区建国中路61弄7号(近思南路)"},{"poiid":"B2094654DA6DA5FC469C","title":"汇泰大楼","lon":"121.47209","lat":"31.20846","category":"46","category_name":"楼宇","address":"上海徐家汇路430号"},{"poiid":"B2094757D66CA0F9499D","title":"金师傅馄饨(思南路店)","lon":"121.4706","lat":"31.20923","category":"68","category_name":"快餐厅","address":"卢湾区思南路78号(近建国中路)"},{"poiid":"B2094757D568ABF84192","title":"公馆·艺术·生活","lon":"121.4704281","lat":"31.20859694","category":"47","category_name":"住宅区","address":"公馆*艺术*生活位于卢湾卢湾思南路88号"}]