[{"poiid":"B2094750DA6BA4FA429E","title":"西岸音乐节","lon":"121.456642","lat":"31.185581","category":"248","category_name":"生活娱乐","address":"徐汇滨江龙腾大道"},{"poiid":"B2094752D06CA0F44198","title":"上海华士达东方影城","lon":"121.4572","lat":"31.18539","category":"178","category_name":"电影院","address":"上海市徐汇区东安路599号绿地中心正大乐城1号楼301"},{"poiid":"B209475CD76CA3F8459F","title":"maan coffee漫咖啡","lon":"121.458557","lat":"31.186952","category":"500","category_name":"未知分类","address":"上海市 中山南二路699号正大乐城2楼(近东安路)"},{"poiid":"B2094753D664A3FA4792","title":"TOUCH正大乐城","lon":"121.457603","lat":"31.186313","category":"500","category_name":"未知分类","address":"上海市 东安路599号"},{"poiid":"B2094753D165A3F8459E","title":"查理布朗咖啡馆正大乐城店","lon":"121.458608","lat":"31.186094","category":"65","category_name":"咖啡厅","address":"上海市 东安路599号 正大乐城6-101-1号"},{"poiid":"B2094757D06AA5FC4199","title":"上海田子坊","lon":"121.45459158","lat":"31.189467634","category":"500","category_name":"未知分类","address":"上海市徐汇区斜土路"},{"poiid":"B2094753D164A5FC439D","title":"费尼汉堡","lon":"121.457205","lat":"31.186739","category":"247","category_name":"餐饮美食","address":"上海市 中山南二路699号正大乐城2-104室"},{"poiid":"B2094757D069A5FD489C","title":"光头烧烤","lon":"121.45085","lat":"31.18479","category":"68","category_name":"快餐厅","address":"徐汇区宛平南路808号(近中山南二路)"},{"poiid":"B2094752D06EAAF94293","title":"正大乐城","lon":"121.456084","lat":"31.185717","category":"170","category_name":"KTV","address":"东安路500号"},{"poiid":"B2094753D664A3FD469E","title":"正大乐城","lon":"121.458213","lat":"31.186937","category":"170","category_name":"KTV","address":"上海市 东安路中山南二路"},{"poiid":"B2094757D068A5FF4599","title":"东安公园","lon":"121.454267372","lat":"31.1850510404","category":"196","category_name":"公园","address":"徐汇区中山南二路811号(龙华西路)"},{"poiid":"B2094757D064A0FC4798","title":"徐汇区教育学院","lon":"121.45531","lat":"31.1868","category":"52","category_name":"高等院校","address":"徐汇区中山南二路800号(近东安路)"},{"poiid":"B2094757D068A2FE499A","title":"东安二村","lon":"121.45557","lat":"31.187586","category":"252","category_name":"楼宇机构","address":"上海中山南二路东安路"},{"poiid":"B2094757D069A6FF489A","title":"零陵中学","lon":"121.45628","lat":"31.1884","category":"55","category_name":"中学","address":"徐汇区东安路451号(近零陵路)"},{"poiid":"B209475CD364A0FE4199","title":"Fani Burger","lon":"121.4574","lat":"31.1862","category":"94","category_name":"西餐厅","address":"东安路500号正大乐城(近中山南二路)"},{"poiid":"B209475CD16DAAFC449D","title":"小辉哥火锅 正大乐城店","lon":"121.4529021","lat":"31.1861009","category":"86","category_name":"火锅店","address":"中山南二路669号2栋304-305正大乐城"},{"poiid":"B2094753D56BABFC439D","title":"大众书局(正大乐城店)","lon":"121.457672","lat":"31.185836","category":"249","category_name":"购物服务","address":"上海市 徐汇区中山南二路699号正大乐城2层(近东安路)"},{"poiid":"B2094753D764A1F84899","title":"正大乐城华士达影城","lon":"121.457672","lat":"31.186075","category":"500","category_name":"未知分类","address":"上海市 徐汇区东安路598号绿地中心正大乐城3楼"},{"poiid":"B2094655D36DA7F8469C","title":"中山南二路东安路","lon":"121.45702","lat":"31.18704","category":"38","category_name":"公交车站","address":""},{"poiid":"B2094753DB64A0F94598","title":"一麻一辣","lon":"121.457527","lat":"31.187007","category":"500","category_name":"未知分类","address":"上海市 上海市中山南二路699号2楼"},{"poiid":"B2094753DB65A6FE499C","title":"Dazzling Cafe Shanghai No.2","lon":"121.457717","lat":"31.18633","category":"500","category_name":"未知分类","address":"上海市 上海市徐汇区龙华中路602号 7-105铺位"},{"poiid":"B2094757DA6BA6FE449C","title":"上海绿地中心一期","lon":"121.456362","lat":"31.187987","category":"252","category_name":"楼宇机构","address":"徐汇钦州北路188号"},{"poiid":"B2094655D26AA6FB459F","title":"红叶餐厅","lon":"121.45632","lat":"31.18579","category":"86","category_name":"火锅店","address":"徐汇区龙华路1833号(近中山南二路东安路)"},{"poiid":"B2094757D068A4F84398","title":"东安花苑","lon":"121.456009894","lat":"31.1864502125","category":"47","category_name":"住宅区","address":"上海中山南二路777弄"},{"poiid":"B2094655D268A5F5499C","title":"东安新村","lon":"121.45395","lat":"31.18977","category":"47","category_name":"住宅区","address":""},{"poiid":"B2094454D36DAAF44293","title":"啡你啡思","lon":"121.457443","lat":"31.186225","category":"247","category_name":"餐饮美食","address":"上海市 东安路599号1-105室"},{"poiid":"B209475CD26BA2FD469D","title":"吉亨面馆（正大乐城店）","lon":"121.456085","lat":"31.185747","category":"247","category_name":"餐饮美食","address":"上海市 上海中山南二路699号正大乐城2楼"},{"poiid":"B2094753D66BA0F44993","title":"正大乐城","lon":"121.455238","lat":"31.187892","category":"170","category_name":"KTV","address":"上海市 徐汇区中山南二路东安路"},{"poiid":"B2094750DA6BA2FC489F","title":"上海市精神病总医院","lon":"121.454185","lat":"31.186395","category":"162","category_name":"医院","address":null},{"poiid":"B209475CD16FA1FF459D","title":"小辉哥火锅","lon":"121.458099","lat":"31.186601","category":"247","category_name":"餐饮美食","address":"上海市 正大乐城"},{"poiid":"B2094654DA6DA5FA409D","title":"奥灶菜馆","lon":"121.456076054","lat":"31.187141793","category":"68","category_name":"快餐厅","address":"徐汇区东安路501号(近中山南二路)"},{"poiid":"B2094753D76DA5FB4192","title":"乐新皇朝","lon":"121.457908","lat":"31.186717","category":"500","category_name":"未知分类","address":"上海市 上海市徐汇区东安路600号正大乐城"},{"poiid":"B2094654DA6DA4FF469B","title":"东安苍苑","lon":"121.45542","lat":"31.18636","category":"47","category_name":"住宅区","address":"中山南二路777弄3-22号"},{"poiid":"B209475DD56CA0FE469D","title":"泰亭","lon":"121.457504","lat":"31.186347","category":"247","category_name":"餐饮美食","address":"上海市 正大乐城"},{"poiid":"B2094753D769A1F54499","title":"茶马颐苑","lon":"121.45903","lat":"31.186122","category":"47","category_name":"住宅区","address":"上海市 上海市徐汇区东安路598号绿地中心正大乐城2楼"},{"poiid":"B2094654DB65A3FE419D","title":"上海电视大学物资分校北校区","lon":"121.45619","lat":"31.18636","category":"52","category_name":"高等院校","address":"龙华路1831"},{"poiid":"B2094654DA6DA7FF429E","title":"中煌大厦","lon":"121.452345","lat":"31.187456","category":"46","category_name":"楼宇","address":"沈河北站路与北京街的交汇处"},{"poiid":"B2094654DA6EA2F4479A","title":"东安二村阅览室","lon":"121.45512","lat":"31.18688","category":"181","category_name":"图书馆","address":"中山南二路790号203"},{"poiid":"B2094753DA64A6F54992","title":"玳思琳蜜糖土司","lon":"121.458007","lat":"31.186092","category":"247","category_name":"餐饮美食","address":"上海市 中山南二路699号 正大乐城"},{"poiid":"B2094654DA6DA4FF459B","title":"快客No.6902(中山南二路)","lon":"121.45612","lat":"31.18652","category":"117","category_name":"便民商店/便利店","address":"中山南二路777弄23号-2识别"},{"poiid":"B2094655D36DA7F9449D","title":"肿瘤医院","lon":"121.45531","lat":"31.18997","category":"162","category_name":"医院","address":"徐汇区东安路270号"},{"poiid":"B2094655D265A7FA4292","title":"艺流造型SPA中心东安店","lon":"121.45632","lat":"31.18764","category":"148","category_name":"美容美发店","address":"东安路509号"},{"poiid":"B2094654DA6DA4F8479E","title":"上海市第三十二国家职业技能鉴定所","lon":"121.45577","lat":"31.18645","category":"250","category_name":"公园户外","address":"中山南二路777弄1-2号东安花苑(1号楼)4层"},{"poiid":"B2094753D664AAF9469C","title":"正大乐城","lon":"121.456886","lat":"31.189115","category":"170","category_name":"KTV","address":"上海市 中山南二路679号"},{"poiid":"B2094757D569A2FC4799","title":"东安商务楼","lon":"121.4542006","lat":"31.186665","category":"46","category_name":"楼宇","address":"北一环与亳州路交叉口(庐阳区政府对面)"},{"poiid":"B2094753D76DA1FE449B","title":"正大乐城","lon":"121.458435","lat":"31.186231","category":"170","category_name":"KTV","address":"上海市 上海市徐汇区龙华中路602号"},{"poiid":"B2094654DA6DA4F84999","title":"上海市建设工程检测行业协会","lon":"121.45598","lat":"31.18645","category":"250","category_name":"公园户外","address":"中山南二路777弄东安花苑(1号楼)1701-1702、1706"},{"poiid":"B2094655D26FABFF419B","title":"上海徐汇区教院进修学校","lon":"121.45487","lat":"31.18714","category":"53","category_name":"成人教育","address":"中山南二路800号"},{"poiid":"B2094654DA6DA4FF469A","title":"东安苍苑(东门)","lon":"121.45625","lat":"31.18618","category":"47","category_name":"住宅区","address":"中山南二路777弄3-22号"},{"poiid":"B2094753D165A3F8449F","title":"正大乐城-大众书局","lon":"121.453336","lat":"31.188074","category":"500","category_name":"未知分类","address":"上海市 徐汇区龙华中路"},{"poiid":"B2094750DA6BA4FA429E","title":"西岸音乐节","lon":"121.456642","lat":"31.185581","category":"248","category_name":"生活娱乐","address":"徐汇滨江龙腾大道"},{"poiid":"B2094752D06CA0F44198","title":"上海华士达东方影城","lon":"121.4572","lat":"31.18539","category":"178","category_name":"电影院","address":"上海市徐汇区东安路599号绿地中心正大乐城1号楼301"},{"poiid":"B209475CD76CA3F8459F","title":"maan coffee漫咖啡","lon":"121.458557","lat":"31.186952","category":"500","category_name":"未知分类","address":"上海市 中山南二路699号正大乐城2楼(近东安路)"},{"poiid":"B2094753D664A3FA4792","title":"TOUCH正大乐城","lon":"121.457603","lat":"31.186313","category":"500","category_name":"未知分类","address":"上海市 东安路599号"},{"poiid":"B2094753D165A3F8459E","title":"查理布朗咖啡馆正大乐城店","lon":"121.458608","lat":"31.186094","category":"65","category_name":"咖啡厅","address":"上海市 东安路599号 正大乐城6-101-1号"},{"poiid":"B2094757D06AA5FC4199","title":"上海田子坊","lon":"121.45459158","lat":"31.189467634","category":"500","category_name":"未知分类","address":"上海市徐汇区斜土路"},{"poiid":"B2094753D164A5FC439D","title":"费尼汉堡","lon":"121.457205","lat":"31.186739","category":"247","category_name":"餐饮美食","address":"上海市 中山南二路699号正大乐城2-104室"},{"poiid":"B2094757D069A5FD489C","title":"光头烧烤","lon":"121.45085","lat":"31.18479","category":"68","category_name":"快餐厅","address":"徐汇区宛平南路808号(近中山南二路)"},{"poiid":"B2094752D06EAAF94293","title":"正大乐城","lon":"121.456084","lat":"31.185717","category":"170","category_name":"KTV","address":"东安路500号"},{"poiid":"B2094753D664A3FD469E","title":"正大乐城","lon":"121.458213","lat":"31.186937","category":"170","category_name":"KTV","address":"上海市 东安路中山南二路"},{"poiid":"B2094757D068A5FF4599","title":"东安公园","lon":"121.454267372","lat":"31.1850510404","category":"196","category_name":"公园","address":"徐汇区中山南二路811号(龙华西路)"},{"poiid":"B2094757D064A0FC4798","title":"徐汇区教育学院","lon":"121.45531","lat":"31.1868","category":"52","category_name":"高等院校","address":"徐汇区中山南二路800号(近东安路)"},{"poiid":"B2094757D068A2FE499A","title":"东安二村","lon":"121.45557","lat":"31.187586","category":"252","category_name":"楼宇机构","address":"上海中山南二路东安路"},{"poiid":"B2094757D069A6FF489A","title":"零陵中学","lon":"121.45628","lat":"31.1884","category":"55","category_name":"中学","address":"徐汇区东安路451号(近零陵路)"},{"poiid":"B209475CD364A0FE4199","title":"Fani Burger","lon":"121.4574","lat":"31.1862","category":"94","category_name":"西餐厅","address":"东安路500号正大乐城(近中山南二路)"},{"poiid":"B209475CD16DAAFC449D","title":"小辉哥火锅 正大乐城店","lon":"121.4529021","lat":"31.1861009","category":"86","category_name":"火锅店","address":"中山南二路669号2栋304-305正大乐城"},{"poiid":"B2094753D56BABFC439D","title":"大众书局(正大乐城店)","lon":"121.457672","lat":"31.185836","category":"249","category_name":"购物服务","address":"上海市 徐汇区中山南二路699号正大乐城2层(近东安路)"},{"poiid":"B2094753D764A1F84899","title":"正大乐城华士达影城","lon":"121.457672","lat":"31.186075","category":"500","category_name":"未知分类","address":"上海市 徐汇区东安路598号绿地中心正大乐城3楼"},{"poiid":"B2094655D36DA7F8469C","title":"中山南二路东安路","lon":"121.45702","lat":"31.18704","category":"38","category_name":"公交车站","address":""},{"poiid":"B2094753DB64A0F94598","title":"一麻一辣","lon":"121.457527","lat":"31.187007","category":"500","category_name":"未知分类","address":"上海市 上海市中山南二路699号2楼"},{"poiid":"B2094753DB65A6FE499C","title":"Dazzling Cafe Shanghai No.2","lon":"121.457717","lat":"31.18633","category":"500","category_name":"未知分类","address":"上海市 上海市徐汇区龙华中路602号 7-105铺位"},{"poiid":"B2094757DA6BA6FE449C","title":"上海绿地中心一期","lon":"121.456362","lat":"31.187987","category":"252","category_name":"楼宇机构","address":"徐汇钦州北路188号"},{"poiid":"B2094655D26AA6FB459F","title":"红叶餐厅","lon":"121.45632","lat":"31.18579","category":"86","category_name":"火锅店","address":"徐汇区龙华路1833号(近中山南二路东安路)"},{"poiid":"B2094757D068A4F84398","title":"东安花苑","lon":"121.456009894","lat":"31.1864502125","category":"47","category_name":"住宅区","address":"上海中山南二路777弄"},{"poiid":"B2094655D268A5F5499C","title":"东安新村","lon":"121.45395","lat":"31.18977","category":"47","category_name":"住宅区","address":""},{"poiid":"B2094454D36DAAF44293","title":"啡你啡思","lon":"121.457443","lat":"31.186225","category":"247","category_name":"餐饮美食","address":"上海市 东安路599号1-105室"},{"poiid":"B209475CD26BA2FD469D","title":"吉亨面馆（正大乐城店）","lon":"121.456085","lat":"31.185747","category":"247","category_name":"餐饮美食","address":"上海市 上海中山南二路699号正大乐城2楼"},{"poiid":"B2094753D66BA0F44993","title":"正大乐城","lon":"121.455238","lat":"31.187892","category":"170","category_name":"KTV","address":"上海市 徐汇区中山南二路东安路"},{"poiid":"B2094750DA6BA2FC489F","title":"上海市精神病总医院","lon":"121.454185","lat":"31.186395","category":"162","category_name":"医院","address":null},{"poiid":"B209475CD16FA1FF459D","title":"小辉哥火锅","lon":"121.458099","lat":"31.186601","category":"247","category_name":"餐饮美食","address":"上海市 正大乐城"},{"poiid":"B2094654DA6DA5FA409D","title":"奥灶菜馆","lon":"121.456076054","lat":"31.187141793","category":"68","category_name":"快餐厅","address":"徐汇区东安路501号(近中山南二路)"},{"poiid":"B2094753D76DA5FB4192","title":"乐新皇朝","lon":"121.457908","lat":"31.186717","category":"500","category_name":"未知分类","address":"上海市 上海市徐汇区东安路600号正大乐城"},{"poiid":"B2094654DA6DA4FF469B","title":"东安苍苑","lon":"121.45542","lat":"31.18636","category":"47","category_name":"住宅区","address":"中山南二路777弄3-22号"},{"poiid":"B209475DD56CA0FE469D","title":"泰亭","lon":"121.457504","lat":"31.186347","category":"247","category_name":"餐饮美食","address":"上海市 正大乐城"},{"poiid":"B2094753D769A1F54499","title":"茶马颐苑","lon":"121.45903","lat":"31.186122","category":"47","category_name":"住宅区","address":"上海市 上海市徐汇区东安路598号绿地中心正大乐城2楼"},{"poiid":"B2094654DB65A3FE419D","title":"上海电视大学物资分校北校区","lon":"121.45619","lat":"31.18636","category":"52","category_name":"高等院校","address":"龙华路1831"},{"poiid":"B2094654DA6DA7FF429E","title":"中煌大厦","lon":"121.452345","lat":"31.187456","category":"46","category_name":"楼宇","address":"沈河北站路与北京街的交汇处"},{"poiid":"B2094654DA6EA2F4479A","title":"东安二村阅览室","lon":"121.45512","lat":"31.18688","category":"181","category_name":"图书馆","address":"中山南二路790号203"},{"poiid":"B2094753DA64A6F54992","title":"玳思琳蜜糖土司","lon":"121.458007","lat":"31.186092","category":"247","category_name":"餐饮美食","address":"上海市 中山南二路699号 正大乐城"},{"poiid":"B2094654DA6DA4FF459B","title":"快客No.6902(中山南二路)","lon":"121.45612","lat":"31.18652","category":"117","category_name":"便民商店/便利店","address":"中山南二路777弄23号-2识别"},{"poiid":"B2094655D36DA7F9449D","title":"肿瘤医院","lon":"121.45531","lat":"31.18997","category":"162","category_name":"医院","address":"徐汇区东安路270号"},{"poiid":"B2094655D265A7FA4292","title":"艺流造型SPA中心东安店","lon":"121.45632","lat":"31.18764","category":"148","category_name":"美容美发店","address":"东安路509号"},{"poiid":"B2094654DA6DA4F8479E","title":"上海市第三十二国家职业技能鉴定所","lon":"121.45577","lat":"31.18645","category":"250","category_name":"公园户外","address":"中山南二路777弄1-2号东安花苑(1号楼)4层"},{"poiid":"B2094753D664AAF9469C","title":"正大乐城","lon":"121.456886","lat":"31.189115","category":"170","category_name":"KTV","address":"上海市 中山南二路679号"},{"poiid":"B2094757D569A2FC4799","title":"东安商务楼","lon":"121.4542006","lat":"31.186665","category":"46","category_name":"楼宇","address":"北一环与亳州路交叉口(庐阳区政府对面)"},{"poiid":"B2094753D76DA1FE449B","title":"正大乐城","lon":"121.458435","lat":"31.186231","category":"170","category_name":"KTV","address":"上海市 上海市徐汇区龙华中路602号"},{"poiid":"B2094654DA6DA4F84999","title":"上海市建设工程检测行业协会","lon":"121.45598","lat":"31.18645","category":"250","category_name":"公园户外","address":"中山南二路777弄东安花苑(1号楼)1701-1702、1706"},{"poiid":"B2094655D26FABFF419B","title":"上海徐汇区教院进修学校","lon":"121.45487","lat":"31.18714","category":"53","category_name":"成人教育","address":"中山南二路800号"},{"poiid":"B2094654DA6DA4FF469A","title":"东安苍苑(东门)","lon":"121.45625","lat":"31.18618","category":"47","category_name":"住宅区","address":"中山南二路777弄3-22号"},{"poiid":"B2094753D165A3F8449F","title":"正大乐城-大众书局","lon":"121.453336","lat":"31.188074","category":"500","category_name":"未知分类","address":"上海市 徐汇区龙华中路"},{"poiid":"B2094750DA6BA4FA429E","title":"西岸音乐节","lon":"121.456642","lat":"31.185581","category":"248","category_name":"生活娱乐","address":"徐汇滨江龙腾大道"},{"poiid":"B2094752D06CA0F44198","title":"上海华士达东方影城","lon":"121.4572","lat":"31.18539","category":"178","category_name":"电影院","address":"上海市徐汇区东安路599号绿地中心正大乐城1号楼301"},{"poiid":"B209475CD76CA3F8459F","title":"maan coffee漫咖啡","lon":"121.458557","lat":"31.186952","category":"500","category_name":"未知分类","address":"上海市 中山南二路699号正大乐城2楼(近东安路)"},{"poiid":"B2094753D664A3FA4792","title":"TOUCH正大乐城","lon":"121.457603","lat":"31.186313","category":"500","category_name":"未知分类","address":"上海市 东安路599号"},{"poiid":"B2094753D165A3F8459E","title":"查理布朗咖啡馆正大乐城店","lon":"121.458608","lat":"31.186094","category":"65","category_name":"咖啡厅","address":"上海市 东安路599号 正大乐城6-101-1号"},{"poiid":"B2094757D06AA5FC4199","title":"上海田子坊","lon":"121.45459158","lat":"31.189467634","category":"500","category_name":"未知分类","address":"上海市徐汇区斜土路"},{"poiid":"B2094753D164A5FC439D","title":"费尼汉堡","lon":"121.457205","lat":"31.186739","category":"247","category_name":"餐饮美食","address":"上海市 中山南二路699号正大乐城2-104室"},{"poiid":"B2094757D069A5FD489C","title":"光头烧烤","lon":"121.45085","lat":"31.18479","category":"68","category_name":"快餐厅","address":"徐汇区宛平南路808号(近中山南二路)"},{"poiid":"B2094752D06EAAF94293","title":"正大乐城","lon":"121.456084","lat":"31.185717","category":"170","category_name":"KTV","address":"东安路500号"},{"poiid":"B2094753D664A3FD469E","title":"正大乐城","lon":"121.458213","lat":"31.186937","category":"170","category_name":"KTV","address":"上海市 东安路中山南二路"},{"poiid":"B2094757D068A5FF4599","title":"东安公园","lon":"121.454267372","lat":"31.1850510404","category":"196","category_name":"公园","address":"徐汇区中山南二路811号(龙华西路)"},{"poiid":"B2094757D064A0FC4798","title":"徐汇区教育学院","lon":"121.45531","lat":"31.1868","category":"52","category_name":"高等院校","address":"徐汇区中山南二路800号(近东安路)"},{"poiid":"B2094757D068A2FE499A","title":"东安二村","lon":"121.45557","lat":"31.187586","category":"252","category_name":"楼宇机构","address":"上海中山南二路东安路"},{"poiid":"B2094757D069A6FF489A","title":"零陵中学","lon":"121.45628","lat":"31.1884","category":"55","category_name":"中学","address":"徐汇区东安路451号(近零陵路)"},{"poiid":"B209475CD364A0FE4199","title":"Fani Burger","lon":"121.4574","lat":"31.1862","category":"94","category_name":"西餐厅","address":"东安路500号正大乐城(近中山南二路)"},{"poiid":"B209475CD16DAAFC449D","title":"小辉哥火锅 正大乐城店","lon":"121.4529021","lat":"31.1861009","category":"86","category_name":"火锅店","address":"中山南二路669号2栋304-305正大乐城"},{"poiid":"B2094753D56BABFC439D","title":"大众书局(正大乐城店)","lon":"121.457672","lat":"31.185836","category":"249","category_name":"购物服务","address":"上海市 徐汇区中山南二路699号正大乐城2层(近东安路)"},{"poiid":"B2094753D764A1F84899","title":"正大乐城华士达影城","lon":"121.457672","lat":"31.186075","category":"500","category_name":"未知分类","address":"上海市 徐汇区东安路598号绿地中心正大乐城3楼"},{"poiid":"B2094655D36DA7F8469C","title":"中山南二路东安路","lon":"121.45702","lat":"31.18704","category":"38","category_name":"公交车站","address":""},{"poiid":"B2094753DB64A0F94598","title":"一麻一辣","lon":"121.457527","lat":"31.187007","category":"500","category_name":"未知分类","address":"上海市 上海市中山南二路699号2楼"},{"poiid":"B2094753DB65A6FE499C","title":"Dazzling Cafe Shanghai No.2","lon":"121.457717","lat":"31.18633","category":"500","category_name":"未知分类","address":"上海市 上海市徐汇区龙华中路602号 7-105铺位"},{"poiid":"B2094757DA6BA6FE449C","title":"上海绿地中心一期","lon":"121.456362","lat":"31.187987","category":"252","category_name":"楼宇机构","address":"徐汇钦州北路188号"},{"poiid":"B2094655D26AA6FB459F","title":"红叶餐厅","lon":"121.45632","lat":"31.18579","category":"86","category_name":"火锅店","address":"徐汇区龙华路1833号(近中山南二路东安路)"},{"poiid":"B2094757D068A4F84398","title":"东安花苑","lon":"121.456009894","lat":"31.1864502125","category":"47","category_name":"住宅区","address":"上海中山南二路777弄"},{"poiid":"B2094655D268A5F5499C","title":"东安新村","lon":"121.45395","lat":"31.18977","category":"47","category_name":"住宅区","address":""},{"poiid":"B2094454D36DAAF44293","title":"啡你啡思","lon":"121.457443","lat":"31.186225","category":"247","category_name":"餐饮美食","address":"上海市 东安路599号1-105室"},{"poiid":"B209475CD26BA2FD469D","title":"吉亨面馆（正大乐城店）","lon":"121.456085","lat":"31.185747","category":"247","category_name":"餐饮美食","address":"上海市 上海中山南二路699号正大乐城2楼"},{"poiid":"B2094753D66BA0F44993","title":"正大乐城","lon":"121.455238","lat":"31.187892","category":"170","category_name":"KTV","address":"上海市 徐汇区中山南二路东安路"},{"poiid":"B2094750DA6BA2FC489F","title":"上海市精神病总医院","lon":"121.454185","lat":"31.186395","category":"162","category_name":"医院","address":null},{"poiid":"B209475CD16FA1FF459D","title":"小辉哥火锅","lon":"121.458099","lat":"31.186601","category":"247","category_name":"餐饮美食","address":"上海市 正大乐城"},{"poiid":"B2094654DA6DA5FA409D","title":"奥灶菜馆","lon":"121.456076054","lat":"31.187141793","category":"68","category_name":"快餐厅","address":"徐汇区东安路501号(近中山南二路)"},{"poiid":"B2094753D76DA5FB4192","title":"乐新皇朝","lon":"121.457908","lat":"31.186717","category":"500","category_name":"未知分类","address":"上海市 上海市徐汇区东安路600号正大乐城"},{"poiid":"B2094654DA6DA4FF469B","title":"东安苍苑","lon":"121.45542","lat":"31.18636","category":"47","category_name":"住宅区","address":"中山南二路777弄3-22号"},{"poiid":"B209475DD56CA0FE469D","title":"泰亭","lon":"121.457504","lat":"31.186347","category":"247","category_name":"餐饮美食","address":"上海市 正大乐城"},{"poiid":"B2094753D769A1F54499","title":"茶马颐苑","lon":"121.45903","lat":"31.186122","category":"47","category_name":"住宅区","address":"上海市 上海市徐汇区东安路598号绿地中心正大乐城2楼"},{"poiid":"B2094654DB65A3FE419D","title":"上海电视大学物资分校北校区","lon":"121.45619","lat":"31.18636","category":"52","category_name":"高等院校","address":"龙华路1831"},{"poiid":"B2094654DA6DA7FF429E","title":"中煌大厦","lon":"121.452345","lat":"31.187456","category":"46","category_name":"楼宇","address":"沈河北站路与北京街的交汇处"},{"poiid":"B2094654DA6EA2F4479A","title":"东安二村阅览室","lon":"121.45512","lat":"31.18688","category":"181","category_name":"图书馆","address":"中山南二路790号203"},{"poiid":"B2094753DA64A6F54992","title":"玳思琳蜜糖土司","lon":"121.458007","lat":"31.186092","category":"247","category_name":"餐饮美食","address":"上海市 中山南二路699号 正大乐城"},{"poiid":"B2094654DA6DA4FF459B","title":"快客No.6902(中山南二路)","lon":"121.45612","lat":"31.18652","category":"117","category_name":"便民商店/便利店","address":"中山南二路777弄23号-2识别"},{"poiid":"B2094655D36DA7F9449D","title":"肿瘤医院","lon":"121.45531","lat":"31.18997","category":"162","category_name":"医院","address":"徐汇区东安路270号"},{"poiid":"B2094655D265A7FA4292","title":"艺流造型SPA中心东安店","lon":"121.45632","lat":"31.18764","category":"148","category_name":"美容美发店","address":"东安路509号"},{"poiid":"B2094654DA6DA4F8479E","title":"上海市第三十二国家职业技能鉴定所","lon":"121.45577","lat":"31.18645","category":"250","category_name":"公园户外","address":"中山南二路777弄1-2号东安花苑(1号楼)4层"},{"poiid":"B2094753D664AAF9469C","title":"正大乐城","lon":"121.456886","lat":"31.189115","category":"170","category_name":"KTV","address":"上海市 中山南二路679号"},{"poiid":"B2094757D569A2FC4799","title":"东安商务楼","lon":"121.4542006","lat":"31.186665","category":"46","category_name":"楼宇","address":"北一环与亳州路交叉口(庐阳区政府对面)"},{"poiid":"B2094753D76DA1FE449B","title":"正大乐城","lon":"121.458435","lat":"31.186231","category":"170","category_name":"KTV","address":"上海市 上海市徐汇区龙华中路602号"},{"poiid":"B2094654DA6DA4F84999","title":"上海市建设工程检测行业协会","lon":"121.45598","lat":"31.18645","category":"250","category_name":"公园户外","address":"中山南二路777弄东安花苑(1号楼)1701-1702、1706"},{"poiid":"B2094655D26FABFF419B","title":"上海徐汇区教院进修学校","lon":"121.45487","lat":"31.18714","category":"53","category_name":"成人教育","address":"中山南二路800号"},{"poiid":"B2094654DA6DA4FF469A","title":"东安苍苑(东门)","lon":"121.45625","lat":"31.18618","category":"47","category_name":"住宅区","address":"中山南二路777弄3-22号"},{"poiid":"B2094753D165A3F8449F","title":"正大乐城-大众书局","lon":"121.453336","lat":"31.188074","category":"500","category_name":"未知分类","address":"上海市 徐汇区龙华中路"},{"poiid":"B2094750DA6BA4FA429E","title":"西岸音乐节","lon":"121.456642","lat":"31.185581","category":"248","category_name":"生活娱乐","address":"徐汇滨江龙腾大道"},{"poiid":"B2094752D06CA0F44198","title":"上海华士达东方影城","lon":"121.4572","lat":"31.18539","category":"178","category_name":"电影院","address":"上海市徐汇区东安路599号绿地中心正大乐城1号楼301"},{"poiid":"B209475CD76CA3F8459F","title":"maan coffee漫咖啡","lon":"121.458557","lat":"31.186952","category":"500","category_name":"未知分类","address":"上海市 中山南二路699号正大乐城2楼(近东安路)"},{"poiid":"B2094753D664A3FA4792","title":"TOUCH正大乐城","lon":"121.457603","lat":"31.186313","category":"500","category_name":"未知分类","address":"上海市 东安路599号"},{"poiid":"B2094753D165A3F8459E","title":"查理布朗咖啡馆正大乐城店","lon":"121.458608","lat":"31.186094","category":"65","category_name":"咖啡厅","address":"上海市 东安路599号 正大乐城6-101-1号"},{"poiid":"B2094757D06AA5FC4199","title":"上海田子坊","lon":"121.45459158","lat":"31.189467634","category":"500","category_name":"未知分类","address":"上海市徐汇区斜土路"},{"poiid":"B2094753D164A5FC439D","title":"费尼汉堡","lon":"121.457205","lat":"31.186739","category":"247","category_name":"餐饮美食","address":"上海市 中山南二路699号正大乐城2-104室"},{"poiid":"B2094757D069A5FD489C","title":"光头烧烤","lon":"121.45085","lat":"31.18479","category":"68","category_name":"快餐厅","address":"徐汇区宛平南路808号(近中山南二路)"},{"poiid":"B2094752D06EAAF94293","title":"正大乐城","lon":"121.456084","lat":"31.185717","category":"170","category_name":"KTV","address":"东安路500号"},{"poiid":"B2094753D664A3FD469E","title":"正大乐城","lon":"121.458213","lat":"31.186937","category":"170","category_name":"KTV","address":"上海市 东安路中山南二路"},{"poiid":"B2094757D068A5FF4599","title":"东安公园","lon":"121.454267372","lat":"31.1850510404","category":"196","category_name":"公园","address":"徐汇区中山南二路811号(龙华西路)"},{"poiid":"B2094757D064A0FC4798","title":"徐汇区教育学院","lon":"121.45531","lat":"31.1868","category":"52","category_name":"高等院校","address":"徐汇区中山南二路800号(近东安路)"},{"poiid":"B2094757D068A2FE499A","title":"东安二村","lon":"121.45557","lat":"31.187586","category":"252","category_name":"楼宇机构","address":"上海中山南二路东安路"},{"poiid":"B2094757D069A6FF489A","title":"零陵中学","lon":"121.45628","lat":"31.1884","category":"55","category_name":"中学","address":"徐汇区东安路451号(近零陵路)"},{"poiid":"B209475CD364A0FE4199","title":"Fani Burger","lon":"121.4574","lat":"31.1862","category":"94","category_name":"西餐厅","address":"东安路500号正大乐城(近中山南二路)"},{"poiid":"B209475CD16DAAFC449D","title":"小辉哥火锅 正大乐城店","lon":"121.4529021","lat":"31.1861009","category":"86","category_name":"火锅店","address":"中山南二路669号2栋304-305正大乐城"},{"poiid":"B2094753D56BABFC439D","title":"大众书局(正大乐城店)","lon":"121.457672","lat":"31.185836","category":"249","category_name":"购物服务","address":"上海市 徐汇区中山南二路699号正大乐城2层(近东安路)"},{"poiid":"B2094753D764A1F84899","title":"正大乐城华士达影城","lon":"121.457672","lat":"31.186075","category":"500","category_name":"未知分类","address":"上海市 徐汇区东安路598号绿地中心正大乐城3楼"},{"poiid":"B2094655D36DA7F8469C","title":"中山南二路东安路","lon":"121.45702","lat":"31.18704","category":"38","category_name":"公交车站","address":""},{"poiid":"B2094753DB64A0F94598","title":"一麻一辣","lon":"121.457527","lat":"31.187007","category":"500","category_name":"未知分类","address":"上海市 上海市中山南二路699号2楼"},{"poiid":"B2094753DB65A6FE499C","title":"Dazzling Cafe Shanghai No.2","lon":"121.457717","lat":"31.18633","category":"500","category_name":"未知分类","address":"上海市 上海市徐汇区龙华中路602号 7-105铺位"},{"poiid":"B2094757DA6BA6FE449C","title":"上海绿地中心一期","lon":"121.456362","lat":"31.187987","category":"252","category_name":"楼宇机构","address":"徐汇钦州北路188号"},{"poiid":"B2094655D26AA6FB459F","title":"红叶餐厅","lon":"121.45632","lat":"31.18579","category":"86","category_name":"火锅店","address":"徐汇区龙华路1833号(近中山南二路东安路)"},{"poiid":"B2094757D068A4F84398","title":"东安花苑","lon":"121.456009894","lat":"31.1864502125","category":"47","category_name":"住宅区","address":"上海中山南二路777弄"},{"poiid":"B2094655D268A5F5499C","title":"东安新村","lon":"121.45395","lat":"31.18977","category":"47","category_name":"住宅区","address":""},{"poiid":"B2094454D36DAAF44293","title":"啡你啡思","lon":"121.457443","lat":"31.186225","category":"247","category_name":"餐饮美食","address":"上海市 东安路599号1-105室"},{"poiid":"B209475CD26BA2FD469D","title":"吉亨面馆（正大乐城店）","lon":"121.456085","lat":"31.185747","category":"247","category_name":"餐饮美食","address":"上海市 上海中山南二路699号正大乐城2楼"},{"poiid":"B2094753D66BA0F44993","title":"正大乐城","lon":"121.455238","lat":"31.187892","category":"170","category_name":"KTV","address":"上海市 徐汇区中山南二路东安路"},{"poiid":"B2094750DA6BA2FC489F","title":"上海市精神病总医院","lon":"121.454185","lat":"31.186395","category":"162","category_name":"医院","address":null},{"poiid":"B209475CD16FA1FF459D","title":"小辉哥火锅","lon":"121.458099","lat":"31.186601","category":"247","category_name":"餐饮美食","address":"上海市 正大乐城"},{"poiid":"B2094654DA6DA5FA409D","title":"奥灶菜馆","lon":"121.456076054","lat":"31.187141793","category":"68","category_name":"快餐厅","address":"徐汇区东安路501号(近中山南二路)"},{"poiid":"B2094753D76DA5FB4192","title":"乐新皇朝","lon":"121.457908","lat":"31.186717","category":"500","category_name":"未知分类","address":"上海市 上海市徐汇区东安路600号正大乐城"},{"poiid":"B2094654DA6DA4FF469B","title":"东安苍苑","lon":"121.45542","lat":"31.18636","category":"47","category_name":"住宅区","address":"中山南二路777弄3-22号"},{"poiid":"B209475DD56CA0FE469D","title":"泰亭","lon":"121.457504","lat":"31.186347","category":"247","category_name":"餐饮美食","address":"上海市 正大乐城"},{"poiid":"B2094753D769A1F54499","title":"茶马颐苑","lon":"121.45903","lat":"31.186122","category":"47","category_name":"住宅区","address":"上海市 上海市徐汇区东安路598号绿地中心正大乐城2楼"},{"poiid":"B2094654DB65A3FE419D","title":"上海电视大学物资分校北校区","lon":"121.45619","lat":"31.18636","category":"52","category_name":"高等院校","address":"龙华路1831"},{"poiid":"B2094654DA6DA7FF429E","title":"中煌大厦","lon":"121.452345","lat":"31.187456","category":"46","category_name":"楼宇","address":"沈河北站路与北京街的交汇处"},{"poiid":"B2094654DA6EA2F4479A","title":"东安二村阅览室","lon":"121.45512","lat":"31.18688","category":"181","category_name":"图书馆","address":"中山南二路790号203"},{"poiid":"B2094753DA64A6F54992","title":"玳思琳蜜糖土司","lon":"121.458007","lat":"31.186092","category":"247","category_name":"餐饮美食","address":"上海市 中山南二路699号 正大乐城"},{"poiid":"B2094654DA6DA4FF459B","title":"快客No.6902(中山南二路)","lon":"121.45612","lat":"31.18652","category":"117","category_name":"便民商店/便利店","address":"中山南二路777弄23号-2识别"},{"poiid":"B2094655D36DA7F9449D","title":"肿瘤医院","lon":"121.45531","lat":"31.18997","category":"162","category_name":"医院","address":"徐汇区东安路270号"},{"poiid":"B2094655D265A7FA4292","title":"艺流造型SPA中心东安店","lon":"121.45632","lat":"31.18764","category":"148","category_name":"美容美发店","address":"东安路509号"},{"poiid":"B2094654DA6DA4F8479E","title":"上海市第三十二国家职业技能鉴定所","lon":"121.45577","lat":"31.18645","category":"250","category_name":"公园户外","address":"中山南二路777弄1-2号东安花苑(1号楼)4层"},{"poiid":"B2094753D664AAF9469C","title":"正大乐城","lon":"121.456886","lat":"31.189115","category":"170","category_name":"KTV","address":"上海市 中山南二路679号"},{"poiid":"B2094757D569A2FC4799","title":"东安商务楼","lon":"121.4542006","lat":"31.186665","category":"46","category_name":"楼宇","address":"北一环与亳州路交叉口(庐阳区政府对面)"},{"poiid":"B2094753D76DA1FE449B","title":"正大乐城","lon":"121.458435","lat":"31.186231","category":"170","category_name":"KTV","address":"上海市 上海市徐汇区龙华中路602号"},{"poiid":"B2094654DA6DA4F84999","title":"上海市建设工程检测行业协会","lon":"121.45598","lat":"31.18645","category":"250","category_name":"公园户外","address":"中山南二路777弄东安花苑(1号楼)1701-1702、1706"},{"poiid":"B2094655D26FABFF419B","title":"上海徐汇区教院进修学校","lon":"121.45487","lat":"31.18714","category":"53","category_name":"成人教育","address":"中山南二路800号"},{"poiid":"B2094654DA6DA4FF469A","title":"东安苍苑(东门)","lon":"121.45625","lat":"31.18618","category":"47","category_name":"住宅区","address":"中山南二路777弄3-22号"},{"poiid":"B2094753D165A3F8449F","title":"正大乐城-大众书局","lon":"121.453336","lat":"31.188074","category":"500","category_name":"未知分类","address":"上海市 徐汇区龙华中路"}]