[{"poiid":"B2094757D06FA2FF409E","title":"绿地东海岸","lon":"121.70085","lat":"31.18274","category":"119","category_name":"商场","address":"浦东新区川沙路5558号(近绣川路)"},{"poiid":"B2094757D06FA3FF4792","title":"中影国际影城(川沙店)","lon":"121.70053","lat":"31.184015","category":"248","category_name":"生活娱乐","address":"浦东新区川沙路5558号绿地东海岸国际广场6号楼3楼(近绣川路)"},{"poiid":"B2094757D06FA5FC409E","title":"浦东新区中医医院(川沙总院)","lon":"121.69538398","lat":"31.181028254","category":"162","category_name":"医院","address":"浦东新区绣川路340号(近妙境路)"},{"poiid":"B2094757D068A0FC4793","title":"上海皇廷国际大酒店","lon":"121.70615172","lat":"31.1834992075","category":"217","category_name":"旅馆招待所","address":"浦东新区绣川路998号(近华夏二路)"},{"poiid":"B2094757DB6EA6FF409E","title":"浦东绿地铂骊酒店(原绿地东海岸豪生酒店)","lon":"121.6999394","lat":"31.18400335","category":"213","category_name":"五星级宾馆","address":"上海市浦东新区川沙路5500号"},{"poiid":"B2094757D06FA3FB469E","title":"川沙地铁站","lon":"121.69810347","lat":"31.186687034","category":"36","category_name":"地铁站","address":"上海轨道交通 二号线 轨交川沙站 2"},{"poiid":"B2094757D06FA0F4409B","title":"家乐福(川沙店)","lon":"121.69251728","lat":"31.181137462","category":"118","category_name":"超级市场","address":"上海浦东新区川沙镇妙境路1118号(近川沙长途汽车站)"},{"poiid":"B2094757D068A2F4409F","title":"汤豪仕汤馆（川沙店）","lon":"121.69877026","lat":"31.183654507","category":"76","category_name":"上海菜","address":"浦东新区川沙路5558号绿地东海岸国际广场1号118室(近绣川路)"},{"poiid":"B2094757D068A6FA429A","title":"紫来轩(东海岸店)","lon":"121.70043","lat":"31.18328","category":"76","category_name":"上海菜","address":"浦东新区川沙路5558号绿地东海岸国际广场内(近绣川路)"},{"poiid":"B2094751D56BA1F9499B","title":"泰味阁","lon":"121.698608","lat":"31.181992","category":"247","category_name":"餐饮美食","address":"浦东新区川沙路5558弄绿地东海岸国际广场3号楼112-117室"},{"poiid":"B2094757D06BAAFB429C","title":"川沙经济园区","lon":"121.7053833","lat":"31.163993835","category":"500","category_name":"未知分类","address":"上海川沙路川展路"},{"poiid":"B2094757D068ABFD499B","title":"DQ冰雪皇后(川沙店)","lon":"121.70068","lat":"31.185839","category":"113","category_name":"冷饮店","address":"浦东新区川沙路5558号绿地东海岸国际广场(川沙路绣川路)"},{"poiid":"B2094757D064A4FE4492","title":"川流不息(川沙店)","lon":"121.69369","lat":"31.1824","category":"500","category_name":"未知分类","address":"浦东新区川沙镇妙境路701号(近南桥路)"},{"poiid":"B2094757D469A4F8449B","title":"星巴克 绿地东海岸店 STARBUCKS COFFEE","lon":"121.70043","lat":"31.18328","category":"65","category_name":"咖啡厅","address":"川沙路5558号绿地东海岸国际广场近绣川路"},{"poiid":"B2094750D76CA7FB4099","title":"厨观餐厅","lon":"121.701","lat":"31.1835","category":"72","category_name":"广东菜","address":"浦东新区川沙路5558号绿地东海岸国际广场2号202铺(近绣川路)"},{"poiid":"B2094757D169A7FB4692","title":"绿地豪生酒店","lon":"121.699080085","lat":"31.1841170692","category":"500","category_name":"未知分类","address":"上海绿地东海岸"},{"poiid":"B2094750DA65A6FB4393","title":"盈田盈粥庄(川沙店)","lon":"121.70041","lat":"31.18345","category":"72","category_name":"广东菜","address":"浦东新区川沙路5558弄绿地东海岸国际广场内(近川环南路)"},{"poiid":"B2094757D068A4FE429F","title":"倪记餐厅","lon":"121.69853423","lat":"31.184150152","category":"72","category_name":"广东菜","address":"浦东新区川沙路5558号绿地东海岸国际广场1号楼2楼(近绣川路)"},{"poiid":"B2094655D36CA5FD479E","title":"川沙路迎宾大道","lon":"121.70435","lat":"31.16904","category":"38","category_name":"公交车站","address":""},{"poiid":"B2094757D165A2FE449D","title":"呷哺呷哺(川沙绿地店)","lon":"121.699332085","lat":"31.1837330608","category":"247","category_name":"餐饮美食","address":"上海川沙绿地"},{"poiid":"B2094757D06AABFC489C","title":"韩林炭烤（浦东川沙店）","lon":"121.70042","lat":"31.1833","category":"96","category_name":"韩国料理","address":"浦东新区川沙路5558号绿地东海岸国际广场2号1楼(翔川路)"},{"poiid":"B2094757D66DA2F9409F","title":"上海三一科技有限公司","lon":"121.70029908","lat":"31.165610662","category":"263","category_name":"公司","address":"上海浦东新区川沙经济园区川大路319号"},{"poiid":"B2094655D265A4FB4898","title":"三一集团-上海三一科技有限公司-上海分公司","lon":"121.70434","lat":"31.16612","category":"263","category_name":"公司","address":"川大路319号"},{"poiid":"B2094655D36CA5FE409F","title":"川沙路川展路","lon":"121.70623","lat":"31.16476","category":"38","category_name":"公交车站","address":""},{"poiid":"B2094655D36DA1F5499D","title":"新陈行","lon":"121.70621","lat":"31.16484","category":"38","category_name":"公交车站","address":""},{"poiid":"B2094757D069AAF4459E","title":"禾绿回转寿司川沙店","lon":"121.70046867","lat":"31.182932576","category":"95","category_name":"日本料理","address":"浦东新区川沙路5558号绿地东海岸国际广场内(近绣川路)"},{"poiid":"B2094655D36CA5FE409C","title":"川沙路川周公路","lon":"121.70254","lat":"31.17515","category":"38","category_name":"公交车站","address":""},{"poiid":"B2094654DB6DA6FA459D","title":"上海浦东川沙经济园区","lon":"121.71005","lat":"31.15657","category":"45","category_name":"产业园区","address":""},{"poiid":"B2094757DA65A0FD419A","title":"浦东国际机场T2候机大厅","lon":"121.7188421207945","lat":"31.16404433246973","category":"251","category_name":"出行住宿","address":"浦东国际机场"},{"poiid":"B2094757D169A3F8419E","title":"秀麦ktv","lon":"121.693481","lat":"31.18068","category":"170","category_name":"KTV","address":"上海浦东新区川沙镇妙境路1136弄2号4楼"},{"poiid":"B2094757D569A2FF4198","title":"贝越水岸名邸","lon":"121.69653","lat":"31.178165","category":"47","category_name":"住宅区","address":"上海市浦东新区秒境路1139弄"},{"poiid":"B2094654DA6AABFA419E","title":"上海长江川沙汽车销售服务有限公司","lon":"121.70558","lat":"31.16805","category":"159","category_name":"汽车维修","address":"浦东新区川沙路6299号"},{"poiid":"B2094655D26FA1FF4792","title":"合园","lon":"121.70774","lat":"31.16458","category":"196","category_name":"公园","address":""},{"poiid":"B2094757D06AA7F9449D","title":"重庆德庄火锅(川沙店)","lon":"121.70043","lat":"31.18328","category":"86","category_name":"火锅店","address":"浦东新区川沙路5558号绿地东海岸国际广场2号楼3楼(近绣川路)"},{"poiid":"B2094750D26FA7FE409F","title":"呀咪咖喱屋 川沙店 Yummie House","lon":"121.7004101","lat":"31.1834596","category":"94","category_name":"西餐厅","address":"浦东新区川沙路5558号绿地东海岸国际广场内"},{"poiid":"B2094654DA6AABFA419F","title":"开能","lon":"121.70713","lat":"31.16796","category":"263","category_name":"公司","address":"川大路518"},{"poiid":"B2094757DB6CA4FD489B","title":"川流不息","lon":"121.695801","lat":"31.18448","category":"500","category_name":"未知分类","address":"川沙绿地东海岸"},{"poiid":"B2094655D265A4FF4599","title":"三一上海工业园","lon":"121.7031","lat":"31.16389","category":"263","category_name":"公司","address":"川沙路三一工业园"},{"poiid":"B2094654DA6AA4FC4792","title":"唐家花园","lon":"121.69708","lat":"31.16979","category":"47","category_name":"住宅区","address":"川周公路"},{"poiid":"B2094655D36DA0FC4199","title":"新春村绿化队","lon":"121.69959","lat":"31.16224","category":"38","category_name":"公交车站","address":""},{"poiid":"B2094757D064A1FE499C","title":"恒记甜品(绿地东海岸店)","lon":"121.70049","lat":"31.18301","category":"67","category_name":"甜品店","address":"川沙路5558号绿地东海岸国际广场近绣川路"},{"poiid":"B2094655D36CA5FD4592","title":"川沙中医院","lon":"121.69594","lat":"31.18122","category":"162","category_name":"医院","address":""},{"poiid":"B2094655D36CA2FA459D","title":"三号桥","lon":"121.7024","lat":"31.17556","category":"38","category_name":"公交车站","address":""},{"poiid":"B2094757D068A7FE439D","title":"新新潘晓婷撞球俱乐部(川沙店)","lon":"121.69455635","lat":"31.1844656357","category":"171","category_name":"台球厅","address":"浦东新区川沙路5558号绿地东海岸国际广场地下室2-8号(近绣川路)"},{"poiid":"B2094757D069A1F94399","title":"Jepson Bread(绿地东海岸店)","lon":"121.69964466","lat":"31.185806875","category":"67","category_name":"甜品店","address":"浦东新区川沙路5558号绿地东海岸国际广场5号楼1楼105室(近绣川路)"},{"poiid":"B2094753D36FA5FC4892","title":"上海浦东国际机场2号航站楼","lon":"121.699197","lat":"31.171418","category":"500","category_name":"未知分类","address":"上海市 启航路98号"},{"poiid":"B2094757D66AAAFA4392","title":"一番屋","lon":"121.7005879","lat":"31.1830104","category":"95","category_name":"日本料理","address":"浦东新区绣川路998号皇廷国际大酒店1楼(近川沙站)"},{"poiid":"B2094751D26DA0FC449E","title":"心圆西苑","lon":"121.688842","lat":"31.169088","category":"47","category_name":"住宅区","address":"浦东新区华夏二路1500弄"},{"poiid":"B2094752D76AA6F9419A","title":"浦东机场T1航站楼","lon":"121.701664","lat":"31.182811","category":"500","category_name":"未知分类","address":null},{"poiid":"B2094654DA6AABFA419D","title":"上海浦东川沙建筑工程有限公司开能环保设备二期工程项目经理部","lon":"121.70878","lat":"31.16752","category":"263","category_name":"公司","address":""},{"poiid":"B2094757D06FA2FF409E","title":"绿地东海岸","lon":"121.70085","lat":"31.18274","category":"119","category_name":"商场","address":"浦东新区川沙路5558号(近绣川路)"},{"poiid":"B2094757D06FA3FF4792","title":"中影国际影城(川沙店)","lon":"121.70053","lat":"31.184015","category":"248","category_name":"生活娱乐","address":"浦东新区川沙路5558号绿地东海岸国际广场6号楼3楼(近绣川路)"},{"poiid":"B2094757D06FA5FC409E","title":"浦东新区中医医院(川沙总院)","lon":"121.69538398","lat":"31.181028254","category":"162","category_name":"医院","address":"浦东新区绣川路340号(近妙境路)"},{"poiid":"B2094757D068A0FC4793","title":"上海皇廷国际大酒店","lon":"121.70615172","lat":"31.1834992075","category":"217","category_name":"旅馆招待所","address":"浦东新区绣川路998号(近华夏二路)"},{"poiid":"B2094757DB6EA6FF409E","title":"浦东绿地铂骊酒店(原绿地东海岸豪生酒店)","lon":"121.6999394","lat":"31.18400335","category":"213","category_name":"五星级宾馆","address":"上海市浦东新区川沙路5500号"},{"poiid":"B2094757D06FA3FB469E","title":"川沙地铁站","lon":"121.69810347","lat":"31.186687034","category":"36","category_name":"地铁站","address":"上海轨道交通 二号线 轨交川沙站 2"},{"poiid":"B2094757D06FA0F4409B","title":"家乐福(川沙店)","lon":"121.69251728","lat":"31.181137462","category":"118","category_name":"超级市场","address":"上海浦东新区川沙镇妙境路1118号(近川沙长途汽车站)"},{"poiid":"B2094757D068A2F4409F","title":"汤豪仕汤馆（川沙店）","lon":"121.69877026","lat":"31.183654507","category":"76","category_name":"上海菜","address":"浦东新区川沙路5558号绿地东海岸国际广场1号118室(近绣川路)"},{"poiid":"B2094757D068A6FA429A","title":"紫来轩(东海岸店)","lon":"121.70043","lat":"31.18328","category":"76","category_name":"上海菜","address":"浦东新区川沙路5558号绿地东海岸国际广场内(近绣川路)"},{"poiid":"B2094751D56BA1F9499B","title":"泰味阁","lon":"121.698608","lat":"31.181992","category":"247","category_name":"餐饮美食","address":"浦东新区川沙路5558弄绿地东海岸国际广场3号楼112-117室"},{"poiid":"B2094757D06BAAFB429C","title":"川沙经济园区","lon":"121.7053833","lat":"31.163993835","category":"500","category_name":"未知分类","address":"上海川沙路川展路"},{"poiid":"B2094757D068ABFD499B","title":"DQ冰雪皇后(川沙店)","lon":"121.70068","lat":"31.185839","category":"113","category_name":"冷饮店","address":"浦东新区川沙路5558号绿地东海岸国际广场(川沙路绣川路)"},{"poiid":"B2094757D064A4FE4492","title":"川流不息(川沙店)","lon":"121.69369","lat":"31.1824","category":"500","category_name":"未知分类","address":"浦东新区川沙镇妙境路701号(近南桥路)"},{"poiid":"B2094757D469A4F8449B","title":"星巴克 绿地东海岸店 STARBUCKS COFFEE","lon":"121.70043","lat":"31.18328","category":"65","category_name":"咖啡厅","address":"川沙路5558号绿地东海岸国际广场近绣川路"},{"poiid":"B2094750D76CA7FB4099","title":"厨观餐厅","lon":"121.701","lat":"31.1835","category":"72","category_name":"广东菜","address":"浦东新区川沙路5558号绿地东海岸国际广场2号202铺(近绣川路)"},{"poiid":"B2094757D169A7FB4692","title":"绿地豪生酒店","lon":"121.699080085","lat":"31.1841170692","category":"500","category_name":"未知分类","address":"上海绿地东海岸"},{"poiid":"B2094750DA65A6FB4393","title":"盈田盈粥庄(川沙店)","lon":"121.70041","lat":"31.18345","category":"72","category_name":"广东菜","address":"浦东新区川沙路5558弄绿地东海岸国际广场内(近川环南路)"},{"poiid":"B2094757D068A4FE429F","title":"倪记餐厅","lon":"121.69853423","lat":"31.184150152","category":"72","category_name":"广东菜","address":"浦东新区川沙路5558号绿地东海岸国际广场1号楼2楼(近绣川路)"},{"poiid":"B2094655D36CA5FD479E","title":"川沙路迎宾大道","lon":"121.70435","lat":"31.16904","category":"38","category_name":"公交车站","address":""},{"poiid":"B2094757D165A2FE449D","title":"呷哺呷哺(川沙绿地店)","lon":"121.699332085","lat":"31.1837330608","category":"247","category_name":"餐饮美食","address":"上海川沙绿地"},{"poiid":"B2094757D06AABFC489C","title":"韩林炭烤（浦东川沙店）","lon":"121.70042","lat":"31.1833","category":"96","category_name":"韩国料理","address":"浦东新区川沙路5558号绿地东海岸国际广场2号1楼(翔川路)"},{"poiid":"B2094757D66DA2F9409F","title":"上海三一科技有限公司","lon":"121.70029908","lat":"31.165610662","category":"263","category_name":"公司","address":"上海浦东新区川沙经济园区川大路319号"},{"poiid":"B2094655D265A4FB4898","title":"三一集团-上海三一科技有限公司-上海分公司","lon":"121.70434","lat":"31.16612","category":"263","category_name":"公司","address":"川大路319号"},{"poiid":"B2094655D36CA5FE409F","title":"川沙路川展路","lon":"121.70623","lat":"31.16476","category":"38","category_name":"公交车站","address":""},{"poiid":"B2094655D36DA1F5499D","title":"新陈行","lon":"121.70621","lat":"31.16484","category":"38","category_name":"公交车站","address":""},{"poiid":"B2094757D069AAF4459E","title":"禾绿回转寿司川沙店","lon":"121.70046867","lat":"31.182932576","category":"95","category_name":"日本料理","address":"浦东新区川沙路5558号绿地东海岸国际广场内(近绣川路)"},{"poiid":"B2094655D36CA5FE409C","title":"川沙路川周公路","lon":"121.70254","lat":"31.17515","category":"38","category_name":"公交车站","address":""},{"poiid":"B2094654DB6DA6FA459D","title":"上海浦东川沙经济园区","lon":"121.71005","lat":"31.15657","category":"45","category_name":"产业园区","address":""},{"poiid":"B2094757DA65A0FD419A","title":"浦东国际机场T2候机大厅","lon":"121.7188421207945","lat":"31.16404433246973","category":"251","category_name":"出行住宿","address":"浦东国际机场"},{"poiid":"B2094757D169A3F8419E","title":"秀麦ktv","lon":"121.693481","lat":"31.18068","category":"170","category_name":"KTV","address":"上海浦东新区川沙镇妙境路1136弄2号4楼"},{"poiid":"B2094757D569A2FF4198","title":"贝越水岸名邸","lon":"121.69653","lat":"31.178165","category":"47","category_name":"住宅区","address":"上海市浦东新区秒境路1139弄"},{"poiid":"B2094654DA6AABFA419E","title":"上海长江川沙汽车销售服务有限公司","lon":"121.70558","lat":"31.16805","category":"159","category_name":"汽车维修","address":"浦东新区川沙路6299号"},{"poiid":"B2094655D26FA1FF4792","title":"合园","lon":"121.70774","lat":"31.16458","category":"196","category_name":"公园","address":""},{"poiid":"B2094757D06AA7F9449D","title":"重庆德庄火锅(川沙店)","lon":"121.70043","lat":"31.18328","category":"86","category_name":"火锅店","address":"浦东新区川沙路5558号绿地东海岸国际广场2号楼3楼(近绣川路)"},{"poiid":"B2094750D26FA7FE409F","title":"呀咪咖喱屋 川沙店 Yummie House","lon":"121.7004101","lat":"31.1834596","category":"94","category_name":"西餐厅","address":"浦东新区川沙路5558号绿地东海岸国际广场内"},{"poiid":"B2094654DA6AABFA419F","title":"开能","lon":"121.70713","lat":"31.16796","category":"263","category_name":"公司","address":"川大路518"},{"poiid":"B2094757DB6CA4FD489B","title":"川流不息","lon":"121.695801","lat":"31.18448","category":"500","category_name":"未知分类","address":"川沙绿地东海岸"},{"poiid":"B2094655D265A4FF4599","title":"三一上海工业园","lon":"121.7031","lat":"31.16389","category":"263","category_name":"公司","address":"川沙路三一工业园"},{"poiid":"B2094654DA6AA4FC4792","title":"唐家花园","lon":"121.69708","lat":"31.16979","category":"47","category_name":"住宅区","address":"川周公路"},{"poiid":"B2094655D36DA0FC4199","title":"新春村绿化队","lon":"121.69959","lat":"31.16224","category":"38","category_name":"公交车站","address":""},{"poiid":"B2094757D064A1FE499C","title":"恒记甜品(绿地东海岸店)","lon":"121.70049","lat":"31.18301","category":"67","category_name":"甜品店","address":"川沙路5558号绿地东海岸国际广场近绣川路"},{"poiid":"B2094655D36CA5FD4592","title":"川沙中医院","lon":"121.69594","lat":"31.18122","category":"162","category_name":"医院","address":""},{"poiid":"B2094655D36CA2FA459D","title":"三号桥","lon":"121.7024","lat":"31.17556","category":"38","category_name":"公交车站","address":""},{"poiid":"B2094757D068A7FE439D","title":"新新潘晓婷撞球俱乐部(川沙店)","lon":"121.69455635","lat":"31.1844656357","category":"171","category_name":"台球厅","address":"浦东新区川沙路5558号绿地东海岸国际广场地下室2-8号(近绣川路)"},{"poiid":"B2094757D069A1F94399","title":"Jepson Bread(绿地东海岸店)","lon":"121.69964466","lat":"31.185806875","category":"67","category_name":"甜品店","address":"浦东新区川沙路5558号绿地东海岸国际广场5号楼1楼105室(近绣川路)"},{"poiid":"B2094753D36FA5FC4892","title":"上海浦东国际机场2号航站楼","lon":"121.699197","lat":"31.171418","category":"500","category_name":"未知分类","address":"上海市 启航路98号"},{"poiid":"B2094757D66AAAFA4392","title":"一番屋","lon":"121.7005879","lat":"31.1830104","category":"95","category_name":"日本料理","address":"浦东新区绣川路998号皇廷国际大酒店1楼(近川沙站)"},{"poiid":"B2094751D26DA0FC449E","title":"心圆西苑","lon":"121.688842","lat":"31.169088","category":"47","category_name":"住宅区","address":"浦东新区华夏二路1500弄"},{"poiid":"B2094752D76AA6F9419A","title":"浦东机场T1航站楼","lon":"121.701664","lat":"31.182811","category":"500","category_name":"未知分类","address":null},{"poiid":"B2094654DA6AABFA419D","title":"上海浦东川沙建筑工程有限公司开能环保设备二期工程项目经理部","lon":"121.70878","lat":"31.16752","category":"263","category_name":"公司","address":""},{"poiid":"B2094757D06FA2FF409E","title":"绿地东海岸","lon":"121.70085","lat":"31.18274","category":"119","category_name":"商场","address":"浦东新区川沙路5558号(近绣川路)"},{"poiid":"B2094757D06FA3FF4792","title":"中影国际影城(川沙店)","lon":"121.70053","lat":"31.184015","category":"248","category_name":"生活娱乐","address":"浦东新区川沙路5558号绿地东海岸国际广场6号楼3楼(近绣川路)"},{"poiid":"B2094757D06FA5FC409E","title":"浦东新区中医医院(川沙总院)","lon":"121.69538398","lat":"31.181028254","category":"162","category_name":"医院","address":"浦东新区绣川路340号(近妙境路)"},{"poiid":"B2094757D068A0FC4793","title":"上海皇廷国际大酒店","lon":"121.70615172","lat":"31.1834992075","category":"217","category_name":"旅馆招待所","address":"浦东新区绣川路998号(近华夏二路)"},{"poiid":"B2094757DB6EA6FF409E","title":"浦东绿地铂骊酒店(原绿地东海岸豪生酒店)","lon":"121.6999394","lat":"31.18400335","category":"213","category_name":"五星级宾馆","address":"上海市浦东新区川沙路5500号"},{"poiid":"B2094757D06FA3FB469E","title":"川沙地铁站","lon":"121.69810347","lat":"31.186687034","category":"36","category_name":"地铁站","address":"上海轨道交通 二号线 轨交川沙站 2"},{"poiid":"B2094757D06FA0F4409B","title":"家乐福(川沙店)","lon":"121.69251728","lat":"31.181137462","category":"118","category_name":"超级市场","address":"上海浦东新区川沙镇妙境路1118号(近川沙长途汽车站)"},{"poiid":"B2094757D068A2F4409F","title":"汤豪仕汤馆（川沙店）","lon":"121.69877026","lat":"31.183654507","category":"76","category_name":"上海菜","address":"浦东新区川沙路5558号绿地东海岸国际广场1号118室(近绣川路)"},{"poiid":"B2094757D068A6FA429A","title":"紫来轩(东海岸店)","lon":"121.70043","lat":"31.18328","category":"76","category_name":"上海菜","address":"浦东新区川沙路5558号绿地东海岸国际广场内(近绣川路)"},{"poiid":"B2094751D56BA1F9499B","title":"泰味阁","lon":"121.698608","lat":"31.181992","category":"247","category_name":"餐饮美食","address":"浦东新区川沙路5558弄绿地东海岸国际广场3号楼112-117室"},{"poiid":"B2094757D06BAAFB429C","title":"川沙经济园区","lon":"121.7053833","lat":"31.163993835","category":"500","category_name":"未知分类","address":"上海川沙路川展路"},{"poiid":"B2094757D068ABFD499B","title":"DQ冰雪皇后(川沙店)","lon":"121.70068","lat":"31.185839","category":"113","category_name":"冷饮店","address":"浦东新区川沙路5558号绿地东海岸国际广场(川沙路绣川路)"},{"poiid":"B2094757D064A4FE4492","title":"川流不息(川沙店)","lon":"121.69369","lat":"31.1824","category":"500","category_name":"未知分类","address":"浦东新区川沙镇妙境路701号(近南桥路)"},{"poiid":"B2094757D469A4F8449B","title":"星巴克 绿地东海岸店 STARBUCKS COFFEE","lon":"121.70043","lat":"31.18328","category":"65","category_name":"咖啡厅","address":"川沙路5558号绿地东海岸国际广场近绣川路"},{"poiid":"B2094750D76CA7FB4099","title":"厨观餐厅","lon":"121.701","lat":"31.1835","category":"72","category_name":"广东菜","address":"浦东新区川沙路5558号绿地东海岸国际广场2号202铺(近绣川路)"},{"poiid":"B2094757D169A7FB4692","title":"绿地豪生酒店","lon":"121.699080085","lat":"31.1841170692","category":"500","category_name":"未知分类","address":"上海绿地东海岸"},{"poiid":"B2094750DA65A6FB4393","title":"盈田盈粥庄(川沙店)","lon":"121.70041","lat":"31.18345","category":"72","category_name":"广东菜","address":"浦东新区川沙路5558弄绿地东海岸国际广场内(近川环南路)"},{"poiid":"B2094757D068A4FE429F","title":"倪记餐厅","lon":"121.69853423","lat":"31.184150152","category":"72","category_name":"广东菜","address":"浦东新区川沙路5558号绿地东海岸国际广场1号楼2楼(近绣川路)"},{"poiid":"B2094655D36CA5FD479E","title":"川沙路迎宾大道","lon":"121.70435","lat":"31.16904","category":"38","category_name":"公交车站","address":""},{"poiid":"B2094757D165A2FE449D","title":"呷哺呷哺(川沙绿地店)","lon":"121.699332085","lat":"31.1837330608","category":"247","category_name":"餐饮美食","address":"上海川沙绿地"},{"poiid":"B2094757D06AABFC489C","title":"韩林炭烤（浦东川沙店）","lon":"121.70042","lat":"31.1833","category":"96","category_name":"韩国料理","address":"浦东新区川沙路5558号绿地东海岸国际广场2号1楼(翔川路)"},{"poiid":"B2094757D66DA2F9409F","title":"上海三一科技有限公司","lon":"121.70029908","lat":"31.165610662","category":"263","category_name":"公司","address":"上海浦东新区川沙经济园区川大路319号"},{"poiid":"B2094655D265A4FB4898","title":"三一集团-上海三一科技有限公司-上海分公司","lon":"121.70434","lat":"31.16612","category":"263","category_name":"公司","address":"川大路319号"},{"poiid":"B2094655D36CA5FE409F","title":"川沙路川展路","lon":"121.70623","lat":"31.16476","category":"38","category_name":"公交车站","address":""},{"poiid":"B2094655D36DA1F5499D","title":"新陈行","lon":"121.70621","lat":"31.16484","category":"38","category_name":"公交车站","address":""},{"poiid":"B2094757D069AAF4459E","title":"禾绿回转寿司川沙店","lon":"121.70046867","lat":"31.182932576","category":"95","category_name":"日本料理","address":"浦东新区川沙路5558号绿地东海岸国际广场内(近绣川路)"},{"poiid":"B2094655D36CA5FE409C","title":"川沙路川周公路","lon":"121.70254","lat":"31.17515","category":"38","category_name":"公交车站","address":""},{"poiid":"B2094654DB6DA6FA459D","title":"上海浦东川沙经济园区","lon":"121.71005","lat":"31.15657","category":"45","category_name":"产业园区","address":""},{"poiid":"B2094757DA65A0FD419A","title":"浦东国际机场T2候机大厅","lon":"121.7188421207945","lat":"31.16404433246973","category":"251","category_name":"出行住宿","address":"浦东国际机场"},{"poiid":"B2094757D169A3F8419E","title":"秀麦ktv","lon":"121.693481","lat":"31.18068","category":"170","category_name":"KTV","address":"上海浦东新区川沙镇妙境路1136弄2号4楼"},{"poiid":"B2094757D569A2FF4198","title":"贝越水岸名邸","lon":"121.69653","lat":"31.178165","category":"47","category_name":"住宅区","address":"上海市浦东新区秒境路1139弄"},{"poiid":"B2094654DA6AABFA419E","title":"上海长江川沙汽车销售服务有限公司","lon":"121.70558","lat":"31.16805","category":"159","category_name":"汽车维修","address":"浦东新区川沙路6299号"},{"poiid":"B2094655D26FA1FF4792","title":"合园","lon":"121.70774","lat":"31.16458","category":"196","category_name":"公园","address":""},{"poiid":"B2094757D06AA7F9449D","title":"重庆德庄火锅(川沙店)","lon":"121.70043","lat":"31.18328","category":"86","category_name":"火锅店","address":"浦东新区川沙路5558号绿地东海岸国际广场2号楼3楼(近绣川路)"},{"poiid":"B2094750D26FA7FE409F","title":"呀咪咖喱屋 川沙店 Yummie House","lon":"121.7004101","lat":"31.1834596","category":"94","category_name":"西餐厅","address":"浦东新区川沙路5558号绿地东海岸国际广场内"},{"poiid":"B2094654DA6AABFA419F","title":"开能","lon":"121.70713","lat":"31.16796","category":"263","category_name":"公司","address":"川大路518"},{"poiid":"B2094757DB6CA4FD489B","title":"川流不息","lon":"121.695801","lat":"31.18448","category":"500","category_name":"未知分类","address":"川沙绿地东海岸"},{"poiid":"B2094655D265A4FF4599","title":"三一上海工业园","lon":"121.7031","lat":"31.16389","category":"263","category_name":"公司","address":"川沙路三一工业园"},{"poiid":"B2094654DA6AA4FC4792","title":"唐家花园","lon":"121.69708","lat":"31.16979","category":"47","category_name":"住宅区","address":"川周公路"},{"poiid":"B2094655D36DA0FC4199","title":"新春村绿化队","lon":"121.69959","lat":"31.16224","category":"38","category_name":"公交车站","address":""},{"poiid":"B2094757D064A1FE499C","title":"恒记甜品(绿地东海岸店)","lon":"121.70049","lat":"31.18301","category":"67","category_name":"甜品店","address":"川沙路5558号绿地东海岸国际广场近绣川路"},{"poiid":"B2094655D36CA5FD4592","title":"川沙中医院","lon":"121.69594","lat":"31.18122","category":"162","category_name":"医院","address":""},{"poiid":"B2094655D36CA2FA459D","title":"三号桥","lon":"121.7024","lat":"31.17556","category":"38","category_name":"公交车站","address":""},{"poiid":"B2094757D068A7FE439D","title":"新新潘晓婷撞球俱乐部(川沙店)","lon":"121.69455635","lat":"31.1844656357","category":"171","category_name":"台球厅","address":"浦东新区川沙路5558号绿地东海岸国际广场地下室2-8号(近绣川路)"},{"poiid":"B2094757D069A1F94399","title":"Jepson Bread(绿地东海岸店)","lon":"121.69964466","lat":"31.185806875","category":"67","category_name":"甜品店","address":"浦东新区川沙路5558号绿地东海岸国际广场5号楼1楼105室(近绣川路)"},{"poiid":"B2094753D36FA5FC4892","title":"上海浦东国际机场2号航站楼","lon":"121.699197","lat":"31.171418","category":"500","category_name":"未知分类","address":"上海市 启航路98号"},{"poiid":"B2094757D66AAAFA4392","title":"一番屋","lon":"121.7005879","lat":"31.1830104","category":"95","category_name":"日本料理","address":"浦东新区绣川路998号皇廷国际大酒店1楼(近川沙站)"},{"poiid":"B2094751D26DA0FC449E","title":"心圆西苑","lon":"121.688842","lat":"31.169088","category":"47","category_name":"住宅区","address":"浦东新区华夏二路1500弄"},{"poiid":"B2094752D76AA6F9419A","title":"浦东机场T1航站楼","lon":"121.701664","lat":"31.182811","category":"500","category_name":"未知分类","address":null},{"poiid":"B2094654DA6AABFA419D","title":"上海浦东川沙建筑工程有限公司开能环保设备二期工程项目经理部","lon":"121.70878","lat":"31.16752","category":"263","category_name":"公司","address":""},{"poiid":"B2094757D06FA2FF409E","title":"绿地东海岸","lon":"121.70085","lat":"31.18274","category":"119","category_name":"商场","address":"浦东新区川沙路5558号(近绣川路)"},{"poiid":"B2094757D06FA3FF4792","title":"中影国际影城(川沙店)","lon":"121.70053","lat":"31.184015","category":"248","category_name":"生活娱乐","address":"浦东新区川沙路5558号绿地东海岸国际广场6号楼3楼(近绣川路)"},{"poiid":"B2094757D06FA5FC409E","title":"浦东新区中医医院(川沙总院)","lon":"121.69538398","lat":"31.181028254","category":"162","category_name":"医院","address":"浦东新区绣川路340号(近妙境路)"},{"poiid":"B2094757D068A0FC4793","title":"上海皇廷国际大酒店","lon":"121.70615172","lat":"31.1834992075","category":"217","category_name":"旅馆招待所","address":"浦东新区绣川路998号(近华夏二路)"},{"poiid":"B2094757DB6EA6FF409E","title":"浦东绿地铂骊酒店(原绿地东海岸豪生酒店)","lon":"121.6999394","lat":"31.18400335","category":"213","category_name":"五星级宾馆","address":"上海市浦东新区川沙路5500号"},{"poiid":"B2094757D06FA3FB469E","title":"川沙地铁站","lon":"121.69810347","lat":"31.186687034","category":"36","category_name":"地铁站","address":"上海轨道交通 二号线 轨交川沙站 2"},{"poiid":"B2094757D06FA0F4409B","title":"家乐福(川沙店)","lon":"121.69251728","lat":"31.181137462","category":"118","category_name":"超级市场","address":"上海浦东新区川沙镇妙境路1118号(近川沙长途汽车站)"},{"poiid":"B2094757D068A2F4409F","title":"汤豪仕汤馆（川沙店）","lon":"121.69877026","lat":"31.183654507","category":"76","category_name":"上海菜","address":"浦东新区川沙路5558号绿地东海岸国际广场1号118室(近绣川路)"},{"poiid":"B2094757D068A6FA429A","title":"紫来轩(东海岸店)","lon":"121.70043","lat":"31.18328","category":"76","category_name":"上海菜","address":"浦东新区川沙路5558号绿地东海岸国际广场内(近绣川路)"},{"poiid":"B2094751D56BA1F9499B","title":"泰味阁","lon":"121.698608","lat":"31.181992","category":"247","category_name":"餐饮美食","address":"浦东新区川沙路5558弄绿地东海岸国际广场3号楼112-117室"},{"poiid":"B2094757D06BAAFB429C","title":"川沙经济园区","lon":"121.7053833","lat":"31.163993835","category":"500","category_name":"未知分类","address":"上海川沙路川展路"},{"poiid":"B2094757D068ABFD499B","title":"DQ冰雪皇后(川沙店)","lon":"121.70068","lat":"31.185839","category":"113","category_name":"冷饮店","address":"浦东新区川沙路5558号绿地东海岸国际广场(川沙路绣川路)"},{"poiid":"B2094757D064A4FE4492","title":"川流不息(川沙店)","lon":"121.69369","lat":"31.1824","category":"500","category_name":"未知分类","address":"浦东新区川沙镇妙境路701号(近南桥路)"},{"poiid":"B2094757D469A4F8449B","title":"星巴克 绿地东海岸店 STARBUCKS COFFEE","lon":"121.70043","lat":"31.18328","category":"65","category_name":"咖啡厅","address":"川沙路5558号绿地东海岸国际广场近绣川路"},{"poiid":"B2094750D76CA7FB4099","title":"厨观餐厅","lon":"121.701","lat":"31.1835","category":"72","category_name":"广东菜","address":"浦东新区川沙路5558号绿地东海岸国际广场2号202铺(近绣川路)"},{"poiid":"B2094757D169A7FB4692","title":"绿地豪生酒店","lon":"121.699080085","lat":"31.1841170692","category":"500","category_name":"未知分类","address":"上海绿地东海岸"},{"poiid":"B2094750DA65A6FB4393","title":"盈田盈粥庄(川沙店)","lon":"121.70041","lat":"31.18345","category":"72","category_name":"广东菜","address":"浦东新区川沙路5558弄绿地东海岸国际广场内(近川环南路)"},{"poiid":"B2094757D068A4FE429F","title":"倪记餐厅","lon":"121.69853423","lat":"31.184150152","category":"72","category_name":"广东菜","address":"浦东新区川沙路5558号绿地东海岸国际广场1号楼2楼(近绣川路)"},{"poiid":"B2094655D36CA5FD479E","title":"川沙路迎宾大道","lon":"121.70435","lat":"31.16904","category":"38","category_name":"公交车站","address":""},{"poiid":"B2094757D165A2FE449D","title":"呷哺呷哺(川沙绿地店)","lon":"121.699332085","lat":"31.1837330608","category":"247","category_name":"餐饮美食","address":"上海川沙绿地"},{"poiid":"B2094757D06AABFC489C","title":"韩林炭烤（浦东川沙店）","lon":"121.70042","lat":"31.1833","category":"96","category_name":"韩国料理","address":"浦东新区川沙路5558号绿地东海岸国际广场2号1楼(翔川路)"},{"poiid":"B2094757D66DA2F9409F","title":"上海三一科技有限公司","lon":"121.70029908","lat":"31.165610662","category":"263","category_name":"公司","address":"上海浦东新区川沙经济园区川大路319号"},{"poiid":"B2094655D265A4FB4898","title":"三一集团-上海三一科技有限公司-上海分公司","lon":"121.70434","lat":"31.16612","category":"263","category_name":"公司","address":"川大路319号"},{"poiid":"B2094655D36CA5FE409F","title":"川沙路川展路","lon":"121.70623","lat":"31.16476","category":"38","category_name":"公交车站","address":""},{"poiid":"B2094655D36DA1F5499D","title":"新陈行","lon":"121.70621","lat":"31.16484","category":"38","category_name":"公交车站","address":""},{"poiid":"B2094757D069AAF4459E","title":"禾绿回转寿司川沙店","lon":"121.70046867","lat":"31.182932576","category":"95","category_name":"日本料理","address":"浦东新区川沙路5558号绿地东海岸国际广场内(近绣川路)"},{"poiid":"B2094655D36CA5FE409C","title":"川沙路川周公路","lon":"121.70254","lat":"31.17515","category":"38","category_name":"公交车站","address":""},{"poiid":"B2094654DB6DA6FA459D","title":"上海浦东川沙经济园区","lon":"121.71005","lat":"31.15657","category":"45","category_name":"产业园区","address":""},{"poiid":"B2094757DA65A0FD419A","title":"浦东国际机场T2候机大厅","lon":"121.7188421207945","lat":"31.16404433246973","category":"251","category_name":"出行住宿","address":"浦东国际机场"},{"poiid":"B2094757D169A3F8419E","title":"秀麦ktv","lon":"121.693481","lat":"31.18068","category":"170","category_name":"KTV","address":"上海浦东新区川沙镇妙境路1136弄2号4楼"},{"poiid":"B2094757D569A2FF4198","title":"贝越水岸名邸","lon":"121.69653","lat":"31.178165","category":"47","category_name":"住宅区","address":"上海市浦东新区秒境路1139弄"},{"poiid":"B2094654DA6AABFA419E","title":"上海长江川沙汽车销售服务有限公司","lon":"121.70558","lat":"31.16805","category":"159","category_name":"汽车维修","address":"浦东新区川沙路6299号"},{"poiid":"B2094655D26FA1FF4792","title":"合园","lon":"121.70774","lat":"31.16458","category":"196","category_name":"公园","address":""},{"poiid":"B2094757D06AA7F9449D","title":"重庆德庄火锅(川沙店)","lon":"121.70043","lat":"31.18328","category":"86","category_name":"火锅店","address":"浦东新区川沙路5558号绿地东海岸国际广场2号楼3楼(近绣川路)"},{"poiid":"B2094750D26FA7FE409F","title":"呀咪咖喱屋 川沙店 Yummie House","lon":"121.7004101","lat":"31.1834596","category":"94","category_name":"西餐厅","address":"浦东新区川沙路5558号绿地东海岸国际广场内"},{"poiid":"B2094654DA6AABFA419F","title":"开能","lon":"121.70713","lat":"31.16796","category":"263","category_name":"公司","address":"川大路518"},{"poiid":"B2094757DB6CA4FD489B","title":"川流不息","lon":"121.695801","lat":"31.18448","category":"500","category_name":"未知分类","address":"川沙绿地东海岸"},{"poiid":"B2094655D265A4FF4599","title":"三一上海工业园","lon":"121.7031","lat":"31.16389","category":"263","category_name":"公司","address":"川沙路三一工业园"},{"poiid":"B2094654DA6AA4FC4792","title":"唐家花园","lon":"121.69708","lat":"31.16979","category":"47","category_name":"住宅区","address":"川周公路"},{"poiid":"B2094655D36DA0FC4199","title":"新春村绿化队","lon":"121.69959","lat":"31.16224","category":"38","category_name":"公交车站","address":""},{"poiid":"B2094757D064A1FE499C","title":"恒记甜品(绿地东海岸店)","lon":"121.70049","lat":"31.18301","category":"67","category_name":"甜品店","address":"川沙路5558号绿地东海岸国际广场近绣川路"},{"poiid":"B2094655D36CA5FD4592","title":"川沙中医院","lon":"121.69594","lat":"31.18122","category":"162","category_name":"医院","address":""},{"poiid":"B2094655D36CA2FA459D","title":"三号桥","lon":"121.7024","lat":"31.17556","category":"38","category_name":"公交车站","address":""},{"poiid":"B2094757D068A7FE439D","title":"新新潘晓婷撞球俱乐部(川沙店)","lon":"121.69455635","lat":"31.1844656357","category":"171","category_name":"台球厅","address":"浦东新区川沙路5558号绿地东海岸国际广场地下室2-8号(近绣川路)"},{"poiid":"B2094757D069A1F94399","title":"Jepson Bread(绿地东海岸店)","lon":"121.69964466","lat":"31.185806875","category":"67","category_name":"甜品店","address":"浦东新区川沙路5558号绿地东海岸国际广场5号楼1楼105室(近绣川路)"},{"poiid":"B2094753D36FA5FC4892","title":"上海浦东国际机场2号航站楼","lon":"121.699197","lat":"31.171418","category":"500","category_name":"未知分类","address":"上海市 启航路98号"},{"poiid":"B2094757D66AAAFA4392","title":"一番屋","lon":"121.7005879","lat":"31.1830104","category":"95","category_name":"日本料理","address":"浦东新区绣川路998号皇廷国际大酒店1楼(近川沙站)"},{"poiid":"B2094751D26DA0FC449E","title":"心圆西苑","lon":"121.688842","lat":"31.169088","category":"47","category_name":"住宅区","address":"浦东新区华夏二路1500弄"},{"poiid":"B2094752D76AA6F9419A","title":"浦东机场T1航站楼","lon":"121.701664","lat":"31.182811","category":"500","category_name":"未知分类","address":null},{"poiid":"B2094654DA6AABFA419D","title":"上海浦东川沙建筑工程有限公司开能环保设备二期工程项目经理部","lon":"121.70878","lat":"31.16752","category":"263","category_name":"公司","address":""}]