[{"poiid":"B2094757D068A3FB469F","title":"金色西郊城","lon":"121.33219585036659","lat":"31.223784683592665","category":"47","category_name":"住宅区","address":"闵行区北翟路2000弄70支弄"},{"poiid":"B2094757D06BA3FE499E","title":"虹桥机场航站楼摆渡巴士","lon":"121.33571936","lat":"31.2153037328","category":"260","category_name":"其他","address":"上海虹桥机场"},{"poiid":"B2094757D06FA6FD469E","title":"虹桥临空经济园区","lon":"121.348955","lat":"31.230453","category":"500","category_name":"未知分类","address":"上海临虹路280弄"},{"poiid":"B2094757D06BA6FF4893","title":"华漕","lon":"121.33239356","lat":"31.220920451","category":"500","category_name":"未知分类","address":"上海闵行区北翟路七莘路"},{"poiid":"B2094757D16EAAFE499D","title":"一汽沪奥奥迪4s","lon":"121.33582056","lat":"31.2242945226","category":"500","category_name":"未知分类","address":"闵行区北翟路1800号(近北沈路)"},{"poiid":"B2094757D069ABF8409E","title":"万博家园","lon":"121.334806","lat":"31.226895","category":"500","category_name":"未知分类","address":"上海北华路168弄"},{"poiid":"B2094655D265A7FB499D","title":"莫泰168旅店上海华漕店","lon":"121.33481","lat":"31.2269","category":"216","category_name":"经济型连锁酒店","address":"闵行区北沈路168号(近北翟路)"},{"poiid":"B2094757D068A5F44692","title":"北新泾监狱","lon":"121.34015983","lat":"31.222733249","category":"608","category_name":"法院","address":"上海北瞿路1551号"},{"poiid":"B2094757D069ABFB499C","title":"虹桥1号","lon":"121.331484","lat":"31.223735","category":"252","category_name":"楼宇机构","address":"闵行区虹秀路8弄"},{"poiid":"B2094655D26FA1FE479D","title":"许浦村","lon":"121.33717","lat":"31.224735","category":"47","category_name":"住宅区","address":"北翟路1556弄2号"},{"poiid":"B2094750D76EA1F94793","title":"君淙会所","lon":"121.334","lat":"31.2238","category":"72","category_name":"广东菜","address":"闵行区北翟路2869号(近七莘路)"},{"poiid":"B2094757D16BA4FC4193","title":"翟业汽车销售服务","lon":"121.33716656","lat":"31.224153519","category":"163","category_name":"4S店","address":"闵行区北翟路1556号(近北沈路)"},{"poiid":"B2094757D66DABF94199","title":"虹桥国际商务花园","lon":"121.34893556","lat":"31.2321786891","category":"500","category_name":"未知分类","address":"上海市长宁区临虹路"},{"poiid":"B2094751D66FA4FD4392","title":"上海虹桥机场","lon":"121.336583","lat":"31.221818","category":"627","category_name":"一般地点标志","address":null},{"poiid":"B2094757D16CA7FE469E","title":"华漕新村","lon":"121.3279","lat":"31.225761","category":"252","category_name":"楼宇机构","address":"华漕新村1-58号,60-77号"},{"poiid":"B2094757D16BAAFA429C","title":"北翟路高架机场方向","lon":"121.32807156","lat":"31.224895535","category":"260","category_name":"其他","address":"上海市闵行区华江公路"},{"poiid":"B2094757D16CA0F54692","title":"贝菲特健身中心(虹桥店)","lon":"121.32864806","lat":"31.221756569","category":"220","category_name":"运动场所","address":"闵行区北翟路1992号金色西郊休闲广场(近华江路)"},{"poiid":"B2094654D56AA2FA429D","title":"西郊东苑","lon":"121.33407","lat":"31.228157","category":"47","category_name":"住宅区","address":"北沈路260弄1-162号"},{"poiid":"B2094655D26BAAFE419A","title":"金色西郊城二期","lon":"121.33854989726","lat":"31.230137003253","category":"47","category_name":"住宅区","address":"上海市闵行区北翟路1700弄"},{"poiid":"B2094654D56AA0F8409C","title":"江西饭店(许浦村北)","lon":"121.33678","lat":"31.2263","category":"257","category_name":"中餐厅","address":""},{"poiid":"B2094654D56AA0F8489C","title":"光明烟杂店","lon":"121.33695","lat":"31.22511","category":"117","category_name":"便民商店/便利店","address":""},{"poiid":"B2094654DB6BA0FF439C","title":"华漕苑","lon":"121.33511","lat":"31.220428","category":"47","category_name":"住宅区","address":"东美路108弄"},{"poiid":"B2094757D16FA0F9479F","title":"猎农山庄","lon":"121.33445","lat":"31.22677","category":"260","category_name":"其他","address":"闵行区北沈路98号(近北翟路)"},{"poiid":"B2094655D36CA5F5439C","title":"北翟路外环线","lon":"121.34992","lat":"31.22355","category":"38","category_name":"公交车站","address":""},{"poiid":"B2094655D265A3F5479D","title":"君腾鼎汇大酒楼","lon":"121.334582054","lat":"31.223914793","category":"76","category_name":"上海菜","address":"闵行区北翟路1551(近吴北路)"},{"poiid":"B2094757D16FA3FA4993","title":"上海市机动车物损交通事故理赔服务中心","lon":"121.33572656","lat":"31.2242885225","category":"500","category_name":"未知分类","address":"上海市闵行区北翟路1556弄2号"},{"poiid":"B2094757D16FABF94998","title":"翟业别克维修站","lon":"121.338707","lat":"31.22363","category":"163","category_name":"4S店","address":"上海北翟路1571号"},{"poiid":"B2094654D56AA0FF4899","title":"开心饭店(西郊东苑东)","lon":"121.33803","lat":"31.22868","category":"257","category_name":"中餐厅","address":""},{"poiid":"B2094655D36CA5F5429E","title":"北华路(华漕)","lon":"121.3318","lat":"31.22845","category":"38","category_name":"公交车站","address":""},{"poiid":"B2094757D465A3F9429B","title":"江南丝雨咖啡","lon":"121.33411","lat":"31.22367","category":"260","category_name":"其他","address":"长宁区华漕镇北翟路2000弄金色西郊城步行街100号(近北翟路)"},{"poiid":"B2094654D56AA3FA449B","title":"北翟购物中心","lon":"121.33319","lat":"31.22332","category":"119","category_name":"商场","address":"北翟路"},{"poiid":"B2094757D468A0FD469E","title":"蜀香火锅","lon":"121.332232","lat":"31.222661","category":"86","category_name":"火锅店","address":"闵行区华漕镇东华美路167号(近北翟路)"},{"poiid":"B2094757D069A5FD4998","title":"北翟路地铁车库","lon":"121.347985427","lat":"31.2325931867","category":"36","category_name":"地铁站","address":"上海市长宁区北翟路（泾力西路），外环旁边"},{"poiid":"B209475CD76BA1F54292","title":"上海虹桥机场","lon":"121.341972","lat":"31.223468","category":"500","category_name":"未知分类","address":"上海市 上海市虹桥机场"},{"poiid":"B2094654D56AA3F94792","title":"东沈巷小区","lon":"121.34072","lat":"31.22438","category":"47","category_name":"住宅区","address":"上海北翟路1550号"},{"poiid":"B2094654D56AA2FC479D","title":"快客No.6511","lon":"121.33381","lat":"31.22288","category":"117","category_name":"便民商店/便利店","address":"东美路"},{"poiid":"B2094757D065A4F5449B","title":"宝大祥青少年购物中心","lon":"121.33390956","lat":"31.2239615156","category":"500","category_name":"未知分类","address":"上海江桥万达三楼"},{"poiid":"B2094757D66CAAF94492","title":"上海第二十八机动车安全检测站","lon":"121.339871","lat":"31.223724","category":"500","category_name":"未知分类","address":"上海市长宁区北翟1551号"},{"poiid":"B2094654D56AA3FA459F","title":"上海翟业","lon":"121.33856","lat":"31.22356","category":"159","category_name":"汽车维修","address":"北翟路1571号"},{"poiid":"B2094655D265A3F54792","title":"君腾鼎汇快捷酒店","lon":"121.34028","lat":"31.22356","category":"216","category_name":"经济型连锁酒店","address":""},{"poiid":"B2094654D56AABFA469F","title":"鑫电公司职工宿舍","lon":"121.34151","lat":"31.22587","category":"47","category_name":"住宅区","address":"北翟路1550弄58号"},{"poiid":"B2094654D56AA0FE459F","title":"小区(东华美路)","lon":"121.33221","lat":"31.22162","category":"47","category_name":"住宅区","address":"东华美路26号-67号"},{"poiid":"B2094654D56AA2FC4792","title":"丝迪文形象设计","lon":"121.33382","lat":"31.22269","category":"148","category_name":"美容美发店","address":"东美路"},{"poiid":"B2094753DB65A4FF4398","title":"新天地","lon":"121.332962","lat":"31.223169","category":"500","category_name":"未知分类","address":"上海市 南京路"},{"poiid":"B2094757D56EA0F9419F","title":"行政管理学校食堂","lon":"121.3356256","lat":"31.21975647","category":"247","category_name":"餐饮美食","address":"嘉定区华江路100号行政管理学校内"},{"poiid":"B2094750D56DA7F8499F","title":"长宁区中心医院","lon":"121.330108","lat":"31.227499","category":"162","category_name":"医院","address":null},{"poiid":"B2094757D069A6FA489B","title":"上海国际赛车场主看台","lon":"121.34329565","lat":"31.22072098","category":"220","category_name":"运动场所","address":"嘉定区伊宁路2000号上海国际赛车场内(近嘉定汽车城)"},{"poiid":"B2094655D265A3FB4093","title":"联华","lon":"121.33159","lat":"31.22273","category":"119","category_name":"商场","address":""},{"poiid":"B2094654D56AA3F94693","title":"懂你餐厅","lon":"121.34278","lat":"31.22474","category":"257","category_name":"中餐厅","address":"北松路"},{"poiid":"B2094757D568AAF54898","title":"格林联盟(虹桥枢纽店)","lon":"121.339855","lat":"31.22381916","category":"251","category_name":"出行住宿","address":"闵行区北翟路1551号(近淞虹路)"},{"poiid":"B2094757D068A3FB469F","title":"金色西郊城","lon":"121.33219585036659","lat":"31.223784683592665","category":"47","category_name":"住宅区","address":"闵行区北翟路2000弄70支弄"},{"poiid":"B2094757D06BA3FE499E","title":"虹桥机场航站楼摆渡巴士","lon":"121.33571936","lat":"31.2153037328","category":"260","category_name":"其他","address":"上海虹桥机场"},{"poiid":"B2094757D06FA6FD469E","title":"虹桥临空经济园区","lon":"121.348955","lat":"31.230453","category":"500","category_name":"未知分类","address":"上海临虹路280弄"},{"poiid":"B2094757D06BA6FF4893","title":"华漕","lon":"121.33239356","lat":"31.220920451","category":"500","category_name":"未知分类","address":"上海闵行区北翟路七莘路"},{"poiid":"B2094757D16EAAFE499D","title":"一汽沪奥奥迪4s","lon":"121.33582056","lat":"31.2242945226","category":"500","category_name":"未知分类","address":"闵行区北翟路1800号(近北沈路)"},{"poiid":"B2094757D069ABF8409E","title":"万博家园","lon":"121.334806","lat":"31.226895","category":"500","category_name":"未知分类","address":"上海北华路168弄"},{"poiid":"B2094655D265A7FB499D","title":"莫泰168旅店上海华漕店","lon":"121.33481","lat":"31.2269","category":"216","category_name":"经济型连锁酒店","address":"闵行区北沈路168号(近北翟路)"},{"poiid":"B2094757D068A5F44692","title":"北新泾监狱","lon":"121.34015983","lat":"31.222733249","category":"608","category_name":"法院","address":"上海北瞿路1551号"},{"poiid":"B2094757D069ABFB499C","title":"虹桥1号","lon":"121.331484","lat":"31.223735","category":"252","category_name":"楼宇机构","address":"闵行区虹秀路8弄"},{"poiid":"B2094655D26FA1FE479D","title":"许浦村","lon":"121.33717","lat":"31.224735","category":"47","category_name":"住宅区","address":"北翟路1556弄2号"},{"poiid":"B2094750D76EA1F94793","title":"君淙会所","lon":"121.334","lat":"31.2238","category":"72","category_name":"广东菜","address":"闵行区北翟路2869号(近七莘路)"},{"poiid":"B2094757D16BA4FC4193","title":"翟业汽车销售服务","lon":"121.33716656","lat":"31.224153519","category":"163","category_name":"4S店","address":"闵行区北翟路1556号(近北沈路)"},{"poiid":"B2094757D66DABF94199","title":"虹桥国际商务花园","lon":"121.34893556","lat":"31.2321786891","category":"500","category_name":"未知分类","address":"上海市长宁区临虹路"},{"poiid":"B2094751D66FA4FD4392","title":"上海虹桥机场","lon":"121.336583","lat":"31.221818","category":"627","category_name":"一般地点标志","address":null},{"poiid":"B2094757D16CA7FE469E","title":"华漕新村","lon":"121.3279","lat":"31.225761","category":"252","category_name":"楼宇机构","address":"华漕新村1-58号,60-77号"},{"poiid":"B2094757D16BAAFA429C","title":"北翟路高架机场方向","lon":"121.32807156","lat":"31.224895535","category":"260","category_name":"其他","address":"上海市闵行区华江公路"},{"poiid":"B2094757D16CA0F54692","title":"贝菲特健身中心(虹桥店)","lon":"121.32864806","lat":"31.221756569","category":"220","category_name":"运动场所","address":"闵行区北翟路1992号金色西郊休闲广场(近华江路)"},{"poiid":"B2094654D56AA2FA429D","title":"西郊东苑","lon":"121.33407","lat":"31.228157","category":"47","category_name":"住宅区","address":"北沈路260弄1-162号"},{"poiid":"B2094655D26BAAFE419A","title":"金色西郊城二期","lon":"121.33854989726","lat":"31.230137003253","category":"47","category_name":"住宅区","address":"上海市闵行区北翟路1700弄"},{"poiid":"B2094654D56AA0F8409C","title":"江西饭店(许浦村北)","lon":"121.33678","lat":"31.2263","category":"257","category_name":"中餐厅","address":""},{"poiid":"B2094654D56AA0F8489C","title":"光明烟杂店","lon":"121.33695","lat":"31.22511","category":"117","category_name":"便民商店/便利店","address":""},{"poiid":"B2094654DB6BA0FF439C","title":"华漕苑","lon":"121.33511","lat":"31.220428","category":"47","category_name":"住宅区","address":"东美路108弄"},{"poiid":"B2094757D16FA0F9479F","title":"猎农山庄","lon":"121.33445","lat":"31.22677","category":"260","category_name":"其他","address":"闵行区北沈路98号(近北翟路)"},{"poiid":"B2094655D36CA5F5439C","title":"北翟路外环线","lon":"121.34992","lat":"31.22355","category":"38","category_name":"公交车站","address":""},{"poiid":"B2094655D265A3F5479D","title":"君腾鼎汇大酒楼","lon":"121.334582054","lat":"31.223914793","category":"76","category_name":"上海菜","address":"闵行区北翟路1551(近吴北路)"},{"poiid":"B2094757D16FA3FA4993","title":"上海市机动车物损交通事故理赔服务中心","lon":"121.33572656","lat":"31.2242885225","category":"500","category_name":"未知分类","address":"上海市闵行区北翟路1556弄2号"},{"poiid":"B2094757D16FABF94998","title":"翟业别克维修站","lon":"121.338707","lat":"31.22363","category":"163","category_name":"4S店","address":"上海北翟路1571号"},{"poiid":"B2094654D56AA0FF4899","title":"开心饭店(西郊东苑东)","lon":"121.33803","lat":"31.22868","category":"257","category_name":"中餐厅","address":""},{"poiid":"B2094655D36CA5F5429E","title":"北华路(华漕)","lon":"121.3318","lat":"31.22845","category":"38","category_name":"公交车站","address":""},{"poiid":"B2094757D465A3F9429B","title":"江南丝雨咖啡","lon":"121.33411","lat":"31.22367","category":"260","category_name":"其他","address":"长宁区华漕镇北翟路2000弄金色西郊城步行街100号(近北翟路)"},{"poiid":"B2094654D56AA3FA449B","title":"北翟购物中心","lon":"121.33319","lat":"31.22332","category":"119","category_name":"商场","address":"北翟路"},{"poiid":"B2094757D468A0FD469E","title":"蜀香火锅","lon":"121.332232","lat":"31.222661","category":"86","category_name":"火锅店","address":"闵行区华漕镇东华美路167号(近北翟路)"},{"poiid":"B2094757D069A5FD4998","title":"北翟路地铁车库","lon":"121.347985427","lat":"31.2325931867","category":"36","category_name":"地铁站","address":"上海市长宁区北翟路（泾力西路），外环旁边"},{"poiid":"B209475CD76BA1F54292","title":"上海虹桥机场","lon":"121.341972","lat":"31.223468","category":"500","category_name":"未知分类","address":"上海市 上海市虹桥机场"},{"poiid":"B2094654D56AA3F94792","title":"东沈巷小区","lon":"121.34072","lat":"31.22438","category":"47","category_name":"住宅区","address":"上海北翟路1550号"},{"poiid":"B2094654D56AA2FC479D","title":"快客No.6511","lon":"121.33381","lat":"31.22288","category":"117","category_name":"便民商店/便利店","address":"东美路"},{"poiid":"B2094757D065A4F5449B","title":"宝大祥青少年购物中心","lon":"121.33390956","lat":"31.2239615156","category":"500","category_name":"未知分类","address":"上海江桥万达三楼"},{"poiid":"B2094757D66CAAF94492","title":"上海第二十八机动车安全检测站","lon":"121.339871","lat":"31.223724","category":"500","category_name":"未知分类","address":"上海市长宁区北翟1551号"},{"poiid":"B2094654D56AA3FA459F","title":"上海翟业","lon":"121.33856","lat":"31.22356","category":"159","category_name":"汽车维修","address":"北翟路1571号"},{"poiid":"B2094655D265A3F54792","title":"君腾鼎汇快捷酒店","lon":"121.34028","lat":"31.22356","category":"216","category_name":"经济型连锁酒店","address":""},{"poiid":"B2094654D56AABFA469F","title":"鑫电公司职工宿舍","lon":"121.34151","lat":"31.22587","category":"47","category_name":"住宅区","address":"北翟路1550弄58号"},{"poiid":"B2094654D56AA0FE459F","title":"小区(东华美路)","lon":"121.33221","lat":"31.22162","category":"47","category_name":"住宅区","address":"东华美路26号-67号"},{"poiid":"B2094654D56AA2FC4792","title":"丝迪文形象设计","lon":"121.33382","lat":"31.22269","category":"148","category_name":"美容美发店","address":"东美路"},{"poiid":"B2094753DB65A4FF4398","title":"新天地","lon":"121.332962","lat":"31.223169","category":"500","category_name":"未知分类","address":"上海市 南京路"},{"poiid":"B2094757D56EA0F9419F","title":"行政管理学校食堂","lon":"121.3356256","lat":"31.21975647","category":"247","category_name":"餐饮美食","address":"嘉定区华江路100号行政管理学校内"},{"poiid":"B2094750D56DA7F8499F","title":"长宁区中心医院","lon":"121.330108","lat":"31.227499","category":"162","category_name":"医院","address":null},{"poiid":"B2094757D069A6FA489B","title":"上海国际赛车场主看台","lon":"121.34329565","lat":"31.22072098","category":"220","category_name":"运动场所","address":"嘉定区伊宁路2000号上海国际赛车场内(近嘉定汽车城)"},{"poiid":"B2094655D265A3FB4093","title":"联华","lon":"121.33159","lat":"31.22273","category":"119","category_name":"商场","address":""},{"poiid":"B2094654D56AA3F94693","title":"懂你餐厅","lon":"121.34278","lat":"31.22474","category":"257","category_name":"中餐厅","address":"北松路"},{"poiid":"B2094757D568AAF54898","title":"格林联盟(虹桥枢纽店)","lon":"121.339855","lat":"31.22381916","category":"251","category_name":"出行住宿","address":"闵行区北翟路1551号(近淞虹路)"},{"poiid":"B2094757D068A3FB469F","title":"金色西郊城","lon":"121.33219585036659","lat":"31.223784683592665","category":"47","category_name":"住宅区","address":"闵行区北翟路2000弄70支弄"},{"poiid":"B2094757D06BA3FE499E","title":"虹桥机场航站楼摆渡巴士","lon":"121.33571936","lat":"31.2153037328","category":"260","category_name":"其他","address":"上海虹桥机场"},{"poiid":"B2094757D06FA6FD469E","title":"虹桥临空经济园区","lon":"121.348955","lat":"31.230453","category":"500","category_name":"未知分类","address":"上海临虹路280弄"},{"poiid":"B2094757D06BA6FF4893","title":"华漕","lon":"121.33239356","lat":"31.220920451","category":"500","category_name":"未知分类","address":"上海闵行区北翟路七莘路"},{"poiid":"B2094757D16EAAFE499D","title":"一汽沪奥奥迪4s","lon":"121.33582056","lat":"31.2242945226","category":"500","category_name":"未知分类","address":"闵行区北翟路1800号(近北沈路)"},{"poiid":"B2094757D069ABF8409E","title":"万博家园","lon":"121.334806","lat":"31.226895","category":"500","category_name":"未知分类","address":"上海北华路168弄"},{"poiid":"B2094655D265A7FB499D","title":"莫泰168旅店上海华漕店","lon":"121.33481","lat":"31.2269","category":"216","category_name":"经济型连锁酒店","address":"闵行区北沈路168号(近北翟路)"},{"poiid":"B2094757D068A5F44692","title":"北新泾监狱","lon":"121.34015983","lat":"31.222733249","category":"608","category_name":"法院","address":"上海北瞿路1551号"},{"poiid":"B2094757D069ABFB499C","title":"虹桥1号","lon":"121.331484","lat":"31.223735","category":"252","category_name":"楼宇机构","address":"闵行区虹秀路8弄"},{"poiid":"B2094655D26FA1FE479D","title":"许浦村","lon":"121.33717","lat":"31.224735","category":"47","category_name":"住宅区","address":"北翟路1556弄2号"},{"poiid":"B2094750D76EA1F94793","title":"君淙会所","lon":"121.334","lat":"31.2238","category":"72","category_name":"广东菜","address":"闵行区北翟路2869号(近七莘路)"},{"poiid":"B2094757D16BA4FC4193","title":"翟业汽车销售服务","lon":"121.33716656","lat":"31.224153519","category":"163","category_name":"4S店","address":"闵行区北翟路1556号(近北沈路)"},{"poiid":"B2094757D66DABF94199","title":"虹桥国际商务花园","lon":"121.34893556","lat":"31.2321786891","category":"500","category_name":"未知分类","address":"上海市长宁区临虹路"},{"poiid":"B2094751D66FA4FD4392","title":"上海虹桥机场","lon":"121.336583","lat":"31.221818","category":"627","category_name":"一般地点标志","address":null},{"poiid":"B2094757D16CA7FE469E","title":"华漕新村","lon":"121.3279","lat":"31.225761","category":"252","category_name":"楼宇机构","address":"华漕新村1-58号,60-77号"},{"poiid":"B2094757D16BAAFA429C","title":"北翟路高架机场方向","lon":"121.32807156","lat":"31.224895535","category":"260","category_name":"其他","address":"上海市闵行区华江公路"},{"poiid":"B2094757D16CA0F54692","title":"贝菲特健身中心(虹桥店)","lon":"121.32864806","lat":"31.221756569","category":"220","category_name":"运动场所","address":"闵行区北翟路1992号金色西郊休闲广场(近华江路)"},{"poiid":"B2094654D56AA2FA429D","title":"西郊东苑","lon":"121.33407","lat":"31.228157","category":"47","category_name":"住宅区","address":"北沈路260弄1-162号"},{"poiid":"B2094655D26BAAFE419A","title":"金色西郊城二期","lon":"121.33854989726","lat":"31.230137003253","category":"47","category_name":"住宅区","address":"上海市闵行区北翟路1700弄"},{"poiid":"B2094654D56AA0F8409C","title":"江西饭店(许浦村北)","lon":"121.33678","lat":"31.2263","category":"257","category_name":"中餐厅","address":""},{"poiid":"B2094654D56AA0F8489C","title":"光明烟杂店","lon":"121.33695","lat":"31.22511","category":"117","category_name":"便民商店/便利店","address":""},{"poiid":"B2094654DB6BA0FF439C","title":"华漕苑","lon":"121.33511","lat":"31.220428","category":"47","category_name":"住宅区","address":"东美路108弄"},{"poiid":"B2094757D16FA0F9479F","title":"猎农山庄","lon":"121.33445","lat":"31.22677","category":"260","category_name":"其他","address":"闵行区北沈路98号(近北翟路)"},{"poiid":"B2094655D36CA5F5439C","title":"北翟路外环线","lon":"121.34992","lat":"31.22355","category":"38","category_name":"公交车站","address":""},{"poiid":"B2094655D265A3F5479D","title":"君腾鼎汇大酒楼","lon":"121.334582054","lat":"31.223914793","category":"76","category_name":"上海菜","address":"闵行区北翟路1551(近吴北路)"},{"poiid":"B2094757D16FA3FA4993","title":"上海市机动车物损交通事故理赔服务中心","lon":"121.33572656","lat":"31.2242885225","category":"500","category_name":"未知分类","address":"上海市闵行区北翟路1556弄2号"},{"poiid":"B2094757D16FABF94998","title":"翟业别克维修站","lon":"121.338707","lat":"31.22363","category":"163","category_name":"4S店","address":"上海北翟路1571号"},{"poiid":"B2094654D56AA0FF4899","title":"开心饭店(西郊东苑东)","lon":"121.33803","lat":"31.22868","category":"257","category_name":"中餐厅","address":""},{"poiid":"B2094655D36CA5F5429E","title":"北华路(华漕)","lon":"121.3318","lat":"31.22845","category":"38","category_name":"公交车站","address":""},{"poiid":"B2094757D465A3F9429B","title":"江南丝雨咖啡","lon":"121.33411","lat":"31.22367","category":"260","category_name":"其他","address":"长宁区华漕镇北翟路2000弄金色西郊城步行街100号(近北翟路)"},{"poiid":"B2094654D56AA3FA449B","title":"北翟购物中心","lon":"121.33319","lat":"31.22332","category":"119","category_name":"商场","address":"北翟路"},{"poiid":"B2094757D468A0FD469E","title":"蜀香火锅","lon":"121.332232","lat":"31.222661","category":"86","category_name":"火锅店","address":"闵行区华漕镇东华美路167号(近北翟路)"},{"poiid":"B2094757D069A5FD4998","title":"北翟路地铁车库","lon":"121.347985427","lat":"31.2325931867","category":"36","category_name":"地铁站","address":"上海市长宁区北翟路（泾力西路），外环旁边"},{"poiid":"B209475CD76BA1F54292","title":"上海虹桥机场","lon":"121.341972","lat":"31.223468","category":"500","category_name":"未知分类","address":"上海市 上海市虹桥机场"},{"poiid":"B2094654D56AA3F94792","title":"东沈巷小区","lon":"121.34072","lat":"31.22438","category":"47","category_name":"住宅区","address":"上海北翟路1550号"},{"poiid":"B2094654D56AA2FC479D","title":"快客No.6511","lon":"121.33381","lat":"31.22288","category":"117","category_name":"便民商店/便利店","address":"东美路"},{"poiid":"B2094757D065A4F5449B","title":"宝大祥青少年购物中心","lon":"121.33390956","lat":"31.2239615156","category":"500","category_name":"未知分类","address":"上海江桥万达三楼"},{"poiid":"B2094757D66CAAF94492","title":"上海第二十八机动车安全检测站","lon":"121.339871","lat":"31.223724","category":"500","category_name":"未知分类","address":"上海市长宁区北翟1551号"},{"poiid":"B2094654D56AA3FA459F","title":"上海翟业","lon":"121.33856","lat":"31.22356","category":"159","category_name":"汽车维修","address":"北翟路1571号"},{"poiid":"B2094655D265A3F54792","title":"君腾鼎汇快捷酒店","lon":"121.34028","lat":"31.22356","category":"216","category_name":"经济型连锁酒店","address":""},{"poiid":"B2094654D56AABFA469F","title":"鑫电公司职工宿舍","lon":"121.34151","lat":"31.22587","category":"47","category_name":"住宅区","address":"北翟路1550弄58号"},{"poiid":"B2094654D56AA0FE459F","title":"小区(东华美路)","lon":"121.33221","lat":"31.22162","category":"47","category_name":"住宅区","address":"东华美路26号-67号"},{"poiid":"B2094654D56AA2FC4792","title":"丝迪文形象设计","lon":"121.33382","lat":"31.22269","category":"148","category_name":"美容美发店","address":"东美路"},{"poiid":"B2094753DB65A4FF4398","title":"新天地","lon":"121.332962","lat":"31.223169","category":"500","category_name":"未知分类","address":"上海市 南京路"},{"poiid":"B2094757D56EA0F9419F","title":"行政管理学校食堂","lon":"121.3356256","lat":"31.21975647","category":"247","category_name":"餐饮美食","address":"嘉定区华江路100号行政管理学校内"},{"poiid":"B2094750D56DA7F8499F","title":"长宁区中心医院","lon":"121.330108","lat":"31.227499","category":"162","category_name":"医院","address":null},{"poiid":"B2094757D069A6FA489B","title":"上海国际赛车场主看台","lon":"121.34329565","lat":"31.22072098","category":"220","category_name":"运动场所","address":"嘉定区伊宁路2000号上海国际赛车场内(近嘉定汽车城)"},{"poiid":"B2094655D265A3FB4093","title":"联华","lon":"121.33159","lat":"31.22273","category":"119","category_name":"商场","address":""},{"poiid":"B2094654D56AA3F94693","title":"懂你餐厅","lon":"121.34278","lat":"31.22474","category":"257","category_name":"中餐厅","address":"北松路"},{"poiid":"B2094757D568AAF54898","title":"格林联盟(虹桥枢纽店)","lon":"121.339855","lat":"31.22381916","category":"251","category_name":"出行住宿","address":"闵行区北翟路1551号(近淞虹路)"},{"poiid":"B2094757D068A3FB469F","title":"金色西郊城","lon":"121.33219585036659","lat":"31.223784683592665","category":"47","category_name":"住宅区","address":"闵行区北翟路2000弄70支弄"},{"poiid":"B2094757D06BA3FE499E","title":"虹桥机场航站楼摆渡巴士","lon":"121.33571936","lat":"31.2153037328","category":"260","category_name":"其他","address":"上海虹桥机场"},{"poiid":"B2094757D06FA6FD469E","title":"虹桥临空经济园区","lon":"121.348955","lat":"31.230453","category":"500","category_name":"未知分类","address":"上海临虹路280弄"},{"poiid":"B2094757D06BA6FF4893","title":"华漕","lon":"121.33239356","lat":"31.220920451","category":"500","category_name":"未知分类","address":"上海闵行区北翟路七莘路"},{"poiid":"B2094757D16EAAFE499D","title":"一汽沪奥奥迪4s","lon":"121.33582056","lat":"31.2242945226","category":"500","category_name":"未知分类","address":"闵行区北翟路1800号(近北沈路)"},{"poiid":"B2094757D069ABF8409E","title":"万博家园","lon":"121.334806","lat":"31.226895","category":"500","category_name":"未知分类","address":"上海北华路168弄"},{"poiid":"B2094655D265A7FB499D","title":"莫泰168旅店上海华漕店","lon":"121.33481","lat":"31.2269","category":"216","category_name":"经济型连锁酒店","address":"闵行区北沈路168号(近北翟路)"},{"poiid":"B2094757D068A5F44692","title":"北新泾监狱","lon":"121.34015983","lat":"31.222733249","category":"608","category_name":"法院","address":"上海北瞿路1551号"},{"poiid":"B2094757D069ABFB499C","title":"虹桥1号","lon":"121.331484","lat":"31.223735","category":"252","category_name":"楼宇机构","address":"闵行区虹秀路8弄"},{"poiid":"B2094655D26FA1FE479D","title":"许浦村","lon":"121.33717","lat":"31.224735","category":"47","category_name":"住宅区","address":"北翟路1556弄2号"},{"poiid":"B2094750D76EA1F94793","title":"君淙会所","lon":"121.334","lat":"31.2238","category":"72","category_name":"广东菜","address":"闵行区北翟路2869号(近七莘路)"},{"poiid":"B2094757D16BA4FC4193","title":"翟业汽车销售服务","lon":"121.33716656","lat":"31.224153519","category":"163","category_name":"4S店","address":"闵行区北翟路1556号(近北沈路)"},{"poiid":"B2094757D66DABF94199","title":"虹桥国际商务花园","lon":"121.34893556","lat":"31.2321786891","category":"500","category_name":"未知分类","address":"上海市长宁区临虹路"},{"poiid":"B2094751D66FA4FD4392","title":"上海虹桥机场","lon":"121.336583","lat":"31.221818","category":"627","category_name":"一般地点标志","address":null},{"poiid":"B2094757D16CA7FE469E","title":"华漕新村","lon":"121.3279","lat":"31.225761","category":"252","category_name":"楼宇机构","address":"华漕新村1-58号,60-77号"},{"poiid":"B2094757D16BAAFA429C","title":"北翟路高架机场方向","lon":"121.32807156","lat":"31.224895535","category":"260","category_name":"其他","address":"上海市闵行区华江公路"},{"poiid":"B2094757D16CA0F54692","title":"贝菲特健身中心(虹桥店)","lon":"121.32864806","lat":"31.221756569","category":"220","category_name":"运动场所","address":"闵行区北翟路1992号金色西郊休闲广场(近华江路)"},{"poiid":"B2094654D56AA2FA429D","title":"西郊东苑","lon":"121.33407","lat":"31.228157","category":"47","category_name":"住宅区","address":"北沈路260弄1-162号"},{"poiid":"B2094655D26BAAFE419A","title":"金色西郊城二期","lon":"121.33854989726","lat":"31.230137003253","category":"47","category_name":"住宅区","address":"上海市闵行区北翟路1700弄"},{"poiid":"B2094654D56AA0F8409C","title":"江西饭店(许浦村北)","lon":"121.33678","lat":"31.2263","category":"257","category_name":"中餐厅","address":""},{"poiid":"B2094654D56AA0F8489C","title":"光明烟杂店","lon":"121.33695","lat":"31.22511","category":"117","category_name":"便民商店/便利店","address":""},{"poiid":"B2094654DB6BA0FF439C","title":"华漕苑","lon":"121.33511","lat":"31.220428","category":"47","category_name":"住宅区","address":"东美路108弄"},{"poiid":"B2094757D16FA0F9479F","title":"猎农山庄","lon":"121.33445","lat":"31.22677","category":"260","category_name":"其他","address":"闵行区北沈路98号(近北翟路)"},{"poiid":"B2094655D36CA5F5439C","title":"北翟路外环线","lon":"121.34992","lat":"31.22355","category":"38","category_name":"公交车站","address":""},{"poiid":"B2094655D265A3F5479D","title":"君腾鼎汇大酒楼","lon":"121.334582054","lat":"31.223914793","category":"76","category_name":"上海菜","address":"闵行区北翟路1551(近吴北路)"},{"poiid":"B2094757D16FA3FA4993","title":"上海市机动车物损交通事故理赔服务中心","lon":"121.33572656","lat":"31.2242885225","category":"500","category_name":"未知分类","address":"上海市闵行区北翟路1556弄2号"},{"poiid":"B2094757D16FABF94998","title":"翟业别克维修站","lon":"121.338707","lat":"31.22363","category":"163","category_name":"4S店","address":"上海北翟路1571号"},{"poiid":"B2094654D56AA0FF4899","title":"开心饭店(西郊东苑东)","lon":"121.33803","lat":"31.22868","category":"257","category_name":"中餐厅","address":""},{"poiid":"B2094655D36CA5F5429E","title":"北华路(华漕)","lon":"121.3318","lat":"31.22845","category":"38","category_name":"公交车站","address":""},{"poiid":"B2094757D465A3F9429B","title":"江南丝雨咖啡","lon":"121.33411","lat":"31.22367","category":"260","category_name":"其他","address":"长宁区华漕镇北翟路2000弄金色西郊城步行街100号(近北翟路)"},{"poiid":"B2094654D56AA3FA449B","title":"北翟购物中心","lon":"121.33319","lat":"31.22332","category":"119","category_name":"商场","address":"北翟路"},{"poiid":"B2094757D468A0FD469E","title":"蜀香火锅","lon":"121.332232","lat":"31.222661","category":"86","category_name":"火锅店","address":"闵行区华漕镇东华美路167号(近北翟路)"},{"poiid":"B2094757D069A5FD4998","title":"北翟路地铁车库","lon":"121.347985427","lat":"31.2325931867","category":"36","category_name":"地铁站","address":"上海市长宁区北翟路（泾力西路），外环旁边"},{"poiid":"B209475CD76BA1F54292","title":"上海虹桥机场","lon":"121.341972","lat":"31.223468","category":"500","category_name":"未知分类","address":"上海市 上海市虹桥机场"},{"poiid":"B2094654D56AA3F94792","title":"东沈巷小区","lon":"121.34072","lat":"31.22438","category":"47","category_name":"住宅区","address":"上海北翟路1550号"},{"poiid":"B2094654D56AA2FC479D","title":"快客No.6511","lon":"121.33381","lat":"31.22288","category":"117","category_name":"便民商店/便利店","address":"东美路"},{"poiid":"B2094757D065A4F5449B","title":"宝大祥青少年购物中心","lon":"121.33390956","lat":"31.2239615156","category":"500","category_name":"未知分类","address":"上海江桥万达三楼"},{"poiid":"B2094757D66CAAF94492","title":"上海第二十八机动车安全检测站","lon":"121.339871","lat":"31.223724","category":"500","category_name":"未知分类","address":"上海市长宁区北翟1551号"},{"poiid":"B2094654D56AA3FA459F","title":"上海翟业","lon":"121.33856","lat":"31.22356","category":"159","category_name":"汽车维修","address":"北翟路1571号"},{"poiid":"B2094655D265A3F54792","title":"君腾鼎汇快捷酒店","lon":"121.34028","lat":"31.22356","category":"216","category_name":"经济型连锁酒店","address":""},{"poiid":"B2094654D56AABFA469F","title":"鑫电公司职工宿舍","lon":"121.34151","lat":"31.22587","category":"47","category_name":"住宅区","address":"北翟路1550弄58号"},{"poiid":"B2094654D56AA0FE459F","title":"小区(东华美路)","lon":"121.33221","lat":"31.22162","category":"47","category_name":"住宅区","address":"东华美路26号-67号"},{"poiid":"B2094654D56AA2FC4792","title":"丝迪文形象设计","lon":"121.33382","lat":"31.22269","category":"148","category_name":"美容美发店","address":"东美路"},{"poiid":"B2094753DB65A4FF4398","title":"新天地","lon":"121.332962","lat":"31.223169","category":"500","category_name":"未知分类","address":"上海市 南京路"},{"poiid":"B2094757D56EA0F9419F","title":"行政管理学校食堂","lon":"121.3356256","lat":"31.21975647","category":"247","category_name":"餐饮美食","address":"嘉定区华江路100号行政管理学校内"},{"poiid":"B2094750D56DA7F8499F","title":"长宁区中心医院","lon":"121.330108","lat":"31.227499","category":"162","category_name":"医院","address":null},{"poiid":"B2094757D069A6FA489B","title":"上海国际赛车场主看台","lon":"121.34329565","lat":"31.22072098","category":"220","category_name":"运动场所","address":"嘉定区伊宁路2000号上海国际赛车场内(近嘉定汽车城)"},{"poiid":"B2094655D265A3FB4093","title":"联华","lon":"121.33159","lat":"31.22273","category":"119","category_name":"商场","address":""},{"poiid":"B2094654D56AA3F94693","title":"懂你餐厅","lon":"121.34278","lat":"31.22474","category":"257","category_name":"中餐厅","address":"北松路"},{"poiid":"B2094757D568AAF54898","title":"格林联盟(虹桥枢纽店)","lon":"121.339855","lat":"31.22381916","category":"251","category_name":"出行住宿","address":"闵行区北翟路1551号(近淞虹路)"}]