[{"poiid":"B2094655D36CA2F44592","title":"上海火车站北广场","lon":"121.45576","lat":"31.25164","category":"38","category_name":"公交车站","address":"上海市闸北区大统路"},{"poiid":"B2094654D464A3F5489B","title":"上海长途汽车客运总站","lon":"121.45463","lat":"31.2528","category":"35","category_name":"长途汽车站","address":"闸北区中兴路1662号(近孔家木桥路)"},{"poiid":"B2094757D06EAAFB499C","title":"上海火车站地铁站","lon":"121.45871681","lat":"31.249312371","category":"36","category_name":"地铁站","address":"上海轨道交通 一号线 三号线 四号线 轨交上海火车站站 轻轨 1 3 4"},{"poiid":"B209475CD564A7F8439E","title":"上海滩中信泰富店","lon":"121.45602","lat":"31.22851","category":"119","category_name":"商场","address":"\"南京西路1168号中信泰富广场，店铺号221.\r\n\""},{"poiid":"B2094655D268A1FC4398","title":"五月花生活广场","lon":"121.45763","lat":"31.25635","category":"47","category_name":"住宅区","address":"闸北区芷江西路、普善路"},{"poiid":"B2094757D06FA2F8489A","title":"麦当劳(火车站北广场店)","lon":"121.455468","lat":"31.251107","category":"68","category_name":"快餐厅","address":"闸北区中兴路1646号(近大统路)"},{"poiid":"B2094757D068A2FD4098","title":"长安大厦","lon":"121.458","lat":"31.2508","category":"46","category_name":"楼宇","address":"闸北区长安路1001号"},{"poiid":"B2094757D068A2F54292","title":"上海火车站普通候车室","lon":"121.4571","lat":"31.2505","category":"260","category_name":"其他","address":"闸北区上海火车站  "},{"poiid":"B2094654D464A3F54693","title":"上海站北广场","lon":"121.45623","lat":"31.25081","category":"22","category_name":"火车站","address":"闸北区天目西路"},{"poiid":"B2094757DA6AA5F8419A","title":"上海歌城","lon":"121.4590229668046","lat":"31.25530215022658","category":"170","category_name":"KTV","address":"闸北区中兴路"},{"poiid":"B2094757D06FA5FD4098","title":"锦程大厦","lon":"121.458","lat":"31.2526","category":"46","category_name":"楼宇","address":"上海天目西路511号"},{"poiid":"B2094654D464A3F5469E","title":"中祥戴斯大酒店","lon":"121.45731","lat":"31.2522","category":"214","category_name":"四星级宾馆","address":"上海市闸北区中兴路1558号(上海火车站地区,近大统路)"},{"poiid":"B2094757D06AA1F4479D","title":"机电大厦","lon":"121.45911553","lat":"31.253063178475","category":"46","category_name":"楼宇","address":"上海普陀区宁夏路251号"},{"poiid":"B2094757D66CA3F8449E","title":"威尔士健身会所芷江西路店","lon":"121.457819","lat":"31.2568692","category":"500","category_name":"未知分类","address":"闸北区芷江西路488号(近北美公寓)"},{"poiid":"B2094757D065AAF5469D","title":"三号线宝山路站","lon":"121.458655103","lat":"31.2522050416","category":"500","category_name":"未知分类","address":"上海宝山路"},{"poiid":"B2094654D464A2FF429E","title":"上海长征医院闸北分院","lon":"121.46159","lat":"31.25429","category":"162","category_name":"医院","address":"中华新路619号"},{"poiid":"B2094654DB65A0FB449B","title":"城隍庙小吃世界 大统路店","lon":"121.459541054","lat":"31.253871793","category":"68","category_name":"快餐厅","address":"闸北区中华新路723号(近大统路)"},{"poiid":"B2094757D06FAAFE4298","title":"越秀苑","lon":"121.4585","lat":"31.254604","category":"500","category_name":"未知分类","address":"上海市闸北区大统路938弄"},{"poiid":"B2094757D068A3FB469C","title":"上海国际眼镜城","lon":"121.45453","lat":"31.25213","category":"132","category_name":"眼镜店","address":"闸北区中兴路1688号火车站北广场长途客运总站1-4楼(近恒丰路桥)"},{"poiid":"B209475CDA6CA3FE449A","title":"人民广场","lon":"121.458274","lat":"31.252695","category":"500","category_name":"未知分类","address":"上海市 人民大道"},{"poiid":"B2094655D36CA5FC409A","title":"大统路","lon":"121.45792","lat":"31.25336","category":"38","category_name":"公交车站","address":""},{"poiid":"B2094750D769A3FF429C","title":"鲜汤骨头砂锅","lon":"121.459","lat":"31.2548","category":"86","category_name":"火锅店","address":"闸北区大统路956号(近大统路地道)"},{"poiid":"B2094757D16FABFB449E","title":"麦当劳中海万锦城","lon":"121.458612103","lat":"31.2515120272","category":"68","category_name":"快餐厅","address":"闸北区大统路679-695号(近中海万锦城)"},{"poiid":"B2094750DB6DA0FE4999","title":"闸北中心医院","lon":"121.4592506866157","lat":"31.25478931129848","category":"162","category_name":"医院","address":"中华新路619号"},{"poiid":"B2094757D064A6FA4992","title":"芷江西路派出所","lon":"121.45857915","lat":"31.253229938","category":"609","category_name":"警察局","address":"上海芷江西路派出所"},{"poiid":"B2094753D66EA2F54598","title":"闸北区中心医院","lon":"121.460011","lat":"31.254576","category":"162","category_name":"医院","address":"上海市 中华新路共和新路"},{"poiid":"B2094655D26AA0FB419C","title":"中祥戴斯大酒店中餐厅","lon":"121.45742","lat":"31.25232","category":"76","category_name":"上海菜","address":"闸北区中兴路1558号中祥戴斯大酒店2楼(近大统路)"},{"poiid":"B2094757D16FA6FF419A","title":"老娘舅（上海长途汽车总站店)","lon":"121.4566547","lat":"31.252325944","category":"68","category_name":"快餐厅","address":"闸北区中兴路1642号(近汽车总站出口处)"},{"poiid":"B2094654DA6CA7FF4698","title":"华森钻石商务广场","lon":"121.45863053857","lat":"31.253766619716","category":"46","category_name":"楼宇","address":"恒丰路630号"},{"poiid":"B2094750D76CA4F8459F","title":"东方既白(火车站北广场店)","lon":"121.456","lat":"31.2524","category":"68","category_name":"快餐厅","address":"闸北区中兴路1600号火车站北广场入口西侧"},{"poiid":"B2094654DB6AA4FB4799","title":"重庆鸡公煲","lon":"121.45936","lat":"31.25457","category":"71","category_name":"四川菜","address":"闸北区大统路1012号(近芷江西路)"},{"poiid":"B2094655D26AA0F9409C","title":"地铁上海火车站站","lon":"121.45874","lat":"31.24933","category":"36","category_name":"地铁站","address":""},{"poiid":"B2094750DA6DA3FF469B","title":"肯德基芷江西路店","lon":"121.456878","lat":"31.252511","category":"247","category_name":"餐饮美食","address":"闸北区芷江西路488号五月花生活广场1楼(近大统路10月开张)"},{"poiid":"B2094757D66BA0F8469A","title":"毛毛家常菜","lon":"121.45818665441","lat":"31.2541007703","category":"76","category_name":"上海菜","address":"闸北区中华新路759号(近大统路)"},{"poiid":"B2094757D168A6F84899","title":"厦门沃头蚝干粥","lon":"121.459037103","lat":"31.2536290714","category":"247","category_name":"餐饮美食","address":"上海中华新路737号"},{"poiid":"B2094654D464A2FE4992","title":"海林湘菜馆","lon":"121.45938","lat":"31.25293","category":"77","category_name":"湖南菜","address":"闸北区大统路851号(近中兴路)"},{"poiid":"B2094757D16EA6FC4299","title":"中华新路893弄","lon":"121.45762807","lat":"31.253287764","category":"500","category_name":"未知分类","address":"上海中华新路893弄"},{"poiid":"B2094654DB6AA4FB4999","title":"美兴大酒店(大统路店)","lon":"121.45986","lat":"31.25448","category":"250","category_name":"公园户外","address":"闸北区大统路933号(近中华新路)"},{"poiid":"B2094654DA6CABFE4493","title":"康吉大厦","lon":"121.462","lat":"31.2518","category":"46","category_name":"楼宇","address":"天目西路290号"},{"poiid":"B2094757D065A6F84393","title":"泰和路同济路口","lon":"121.45842416","lat":"31.253723173","category":"38","category_name":"公交车站","address":"上海泰和路同济路口"},{"poiid":"B2094751DA68A2FF419E","title":"环球金融中心上海柏悦酒店87楼大堂茶阁内","lon":"121.458454","lat":"31.252626","category":"500","category_name":"未知分类","address":"世纪大道100号"},{"poiid":"B209475CD668A2F5479A","title":"上海站","lon":"121.45713","lat":"31.252267","category":"500","category_name":"未知分类","address":"上海市 上海站"},{"poiid":"B209475DD569A0FF479E","title":"上海市南京路步行街","lon":"121.456871","lat":"31.252502","category":"627","category_name":"一般地点标志","address":"上海市 上海"},{"poiid":"B2094655D26EA5FC4492","title":"胖子羊肉馆","lon":"121.45914","lat":"31.25324","category":"257","category_name":"中餐厅","address":"沪太路5号近大统路"},{"poiid":"B2094654DB65A0F44099","title":"快客No.1160","lon":"121.45941","lat":"31.2531","category":"117","category_name":"便民商店/便利店","address":"大统路859号"},{"poiid":"B2094655D268ABFD499B","title":"三兴大楼","lon":"121.46071","lat":"31.25216","category":"46","category_name":"楼宇","address":"上海市闸北区中兴路1340弄"},{"poiid":"B2094655D264A4F54899","title":"恒基不夜城","lon":"121.457","lat":"31.2521","category":"252","category_name":"楼宇机构","address":"丰台学城海鹰路1号,3号"},{"poiid":"B2094757D169A4F84899","title":"IC运动馆","lon":"121.4604211","lat":"31.25452909","category":"500","category_name":"未知分类","address":"上海市闸北区共和新路"},{"poiid":"B2094654D464A1FC429A","title":"鲜好又多水果专卖店","lon":"121.45844","lat":"31.25418","category":"117","category_name":"便民商店/便利店","address":"中华新路765号"},{"poiid":"B2094654D464A2FC469B","title":"万民百货商场","lon":"121.45932","lat":"31.25213","category":"119","category_name":"商场","address":""},{"poiid":"B2094655D36CA2F44592","title":"上海火车站北广场","lon":"121.45576","lat":"31.25164","category":"38","category_name":"公交车站","address":"上海市闸北区大统路"},{"poiid":"B2094654D464A3F5489B","title":"上海长途汽车客运总站","lon":"121.45463","lat":"31.2528","category":"35","category_name":"长途汽车站","address":"闸北区中兴路1662号(近孔家木桥路)"},{"poiid":"B2094757D06EAAFB499C","title":"上海火车站地铁站","lon":"121.45871681","lat":"31.249312371","category":"36","category_name":"地铁站","address":"上海轨道交通 一号线 三号线 四号线 轨交上海火车站站 轻轨 1 3 4"},{"poiid":"B209475CD564A7F8439E","title":"上海滩中信泰富店","lon":"121.45602","lat":"31.22851","category":"119","category_name":"商场","address":"\"南京西路1168号中信泰富广场，店铺号221.\r\n\""},{"poiid":"B2094655D268A1FC4398","title":"五月花生活广场","lon":"121.45763","lat":"31.25635","category":"47","category_name":"住宅区","address":"闸北区芷江西路、普善路"},{"poiid":"B2094757D06FA2F8489A","title":"麦当劳(火车站北广场店)","lon":"121.455468","lat":"31.251107","category":"68","category_name":"快餐厅","address":"闸北区中兴路1646号(近大统路)"},{"poiid":"B2094757D068A2FD4098","title":"长安大厦","lon":"121.458","lat":"31.2508","category":"46","category_name":"楼宇","address":"闸北区长安路1001号"},{"poiid":"B2094757D068A2F54292","title":"上海火车站普通候车室","lon":"121.4571","lat":"31.2505","category":"260","category_name":"其他","address":"闸北区上海火车站  "},{"poiid":"B2094654D464A3F54693","title":"上海站北广场","lon":"121.45623","lat":"31.25081","category":"22","category_name":"火车站","address":"闸北区天目西路"},{"poiid":"B2094757DA6AA5F8419A","title":"上海歌城","lon":"121.4590229668046","lat":"31.25530215022658","category":"170","category_name":"KTV","address":"闸北区中兴路"},{"poiid":"B2094757D06FA5FD4098","title":"锦程大厦","lon":"121.458","lat":"31.2526","category":"46","category_name":"楼宇","address":"上海天目西路511号"},{"poiid":"B2094654D464A3F5469E","title":"中祥戴斯大酒店","lon":"121.45731","lat":"31.2522","category":"214","category_name":"四星级宾馆","address":"上海市闸北区中兴路1558号(上海火车站地区,近大统路)"},{"poiid":"B2094757D06AA1F4479D","title":"机电大厦","lon":"121.45911553","lat":"31.253063178475","category":"46","category_name":"楼宇","address":"上海普陀区宁夏路251号"},{"poiid":"B2094757D66CA3F8449E","title":"威尔士健身会所芷江西路店","lon":"121.457819","lat":"31.2568692","category":"500","category_name":"未知分类","address":"闸北区芷江西路488号(近北美公寓)"},{"poiid":"B2094757D065AAF5469D","title":"三号线宝山路站","lon":"121.458655103","lat":"31.2522050416","category":"500","category_name":"未知分类","address":"上海宝山路"},{"poiid":"B2094654D464A2FF429E","title":"上海长征医院闸北分院","lon":"121.46159","lat":"31.25429","category":"162","category_name":"医院","address":"中华新路619号"},{"poiid":"B2094654DB65A0FB449B","title":"城隍庙小吃世界 大统路店","lon":"121.459541054","lat":"31.253871793","category":"68","category_name":"快餐厅","address":"闸北区中华新路723号(近大统路)"},{"poiid":"B2094757D06FAAFE4298","title":"越秀苑","lon":"121.4585","lat":"31.254604","category":"500","category_name":"未知分类","address":"上海市闸北区大统路938弄"},{"poiid":"B2094757D068A3FB469C","title":"上海国际眼镜城","lon":"121.45453","lat":"31.25213","category":"132","category_name":"眼镜店","address":"闸北区中兴路1688号火车站北广场长途客运总站1-4楼(近恒丰路桥)"},{"poiid":"B209475CDA6CA3FE449A","title":"人民广场","lon":"121.458274","lat":"31.252695","category":"500","category_name":"未知分类","address":"上海市 人民大道"},{"poiid":"B2094655D36CA5FC409A","title":"大统路","lon":"121.45792","lat":"31.25336","category":"38","category_name":"公交车站","address":""},{"poiid":"B2094750D769A3FF429C","title":"鲜汤骨头砂锅","lon":"121.459","lat":"31.2548","category":"86","category_name":"火锅店","address":"闸北区大统路956号(近大统路地道)"},{"poiid":"B2094757D16FABFB449E","title":"麦当劳中海万锦城","lon":"121.458612103","lat":"31.2515120272","category":"68","category_name":"快餐厅","address":"闸北区大统路679-695号(近中海万锦城)"},{"poiid":"B2094750DB6DA0FE4999","title":"闸北中心医院","lon":"121.4592506866157","lat":"31.25478931129848","category":"162","category_name":"医院","address":"中华新路619号"},{"poiid":"B2094757D064A6FA4992","title":"芷江西路派出所","lon":"121.45857915","lat":"31.253229938","category":"609","category_name":"警察局","address":"上海芷江西路派出所"},{"poiid":"B2094753D66EA2F54598","title":"闸北区中心医院","lon":"121.460011","lat":"31.254576","category":"162","category_name":"医院","address":"上海市 中华新路共和新路"},{"poiid":"B2094655D26AA0FB419C","title":"中祥戴斯大酒店中餐厅","lon":"121.45742","lat":"31.25232","category":"76","category_name":"上海菜","address":"闸北区中兴路1558号中祥戴斯大酒店2楼(近大统路)"},{"poiid":"B2094757D16FA6FF419A","title":"老娘舅（上海长途汽车总站店)","lon":"121.4566547","lat":"31.252325944","category":"68","category_name":"快餐厅","address":"闸北区中兴路1642号(近汽车总站出口处)"},{"poiid":"B2094654DA6CA7FF4698","title":"华森钻石商务广场","lon":"121.45863053857","lat":"31.253766619716","category":"46","category_name":"楼宇","address":"恒丰路630号"},{"poiid":"B2094750D76CA4F8459F","title":"东方既白(火车站北广场店)","lon":"121.456","lat":"31.2524","category":"68","category_name":"快餐厅","address":"闸北区中兴路1600号火车站北广场入口西侧"},{"poiid":"B2094654DB6AA4FB4799","title":"重庆鸡公煲","lon":"121.45936","lat":"31.25457","category":"71","category_name":"四川菜","address":"闸北区大统路1012号(近芷江西路)"},{"poiid":"B2094655D26AA0F9409C","title":"地铁上海火车站站","lon":"121.45874","lat":"31.24933","category":"36","category_name":"地铁站","address":""},{"poiid":"B2094750DA6DA3FF469B","title":"肯德基芷江西路店","lon":"121.456878","lat":"31.252511","category":"247","category_name":"餐饮美食","address":"闸北区芷江西路488号五月花生活广场1楼(近大统路10月开张)"},{"poiid":"B2094757D66BA0F8469A","title":"毛毛家常菜","lon":"121.45818665441","lat":"31.2541007703","category":"76","category_name":"上海菜","address":"闸北区中华新路759号(近大统路)"},{"poiid":"B2094757D168A6F84899","title":"厦门沃头蚝干粥","lon":"121.459037103","lat":"31.2536290714","category":"247","category_name":"餐饮美食","address":"上海中华新路737号"},{"poiid":"B2094654D464A2FE4992","title":"海林湘菜馆","lon":"121.45938","lat":"31.25293","category":"77","category_name":"湖南菜","address":"闸北区大统路851号(近中兴路)"},{"poiid":"B2094757D16EA6FC4299","title":"中华新路893弄","lon":"121.45762807","lat":"31.253287764","category":"500","category_name":"未知分类","address":"上海中华新路893弄"},{"poiid":"B2094654DB6AA4FB4999","title":"美兴大酒店(大统路店)","lon":"121.45986","lat":"31.25448","category":"250","category_name":"公园户外","address":"闸北区大统路933号(近中华新路)"},{"poiid":"B2094654DA6CABFE4493","title":"康吉大厦","lon":"121.462","lat":"31.2518","category":"46","category_name":"楼宇","address":"天目西路290号"},{"poiid":"B2094757D065A6F84393","title":"泰和路同济路口","lon":"121.45842416","lat":"31.253723173","category":"38","category_name":"公交车站","address":"上海泰和路同济路口"},{"poiid":"B2094751DA68A2FF419E","title":"环球金融中心上海柏悦酒店87楼大堂茶阁内","lon":"121.458454","lat":"31.252626","category":"500","category_name":"未知分类","address":"世纪大道100号"},{"poiid":"B209475CD668A2F5479A","title":"上海站","lon":"121.45713","lat":"31.252267","category":"500","category_name":"未知分类","address":"上海市 上海站"},{"poiid":"B209475DD569A0FF479E","title":"上海市南京路步行街","lon":"121.456871","lat":"31.252502","category":"627","category_name":"一般地点标志","address":"上海市 上海"},{"poiid":"B2094655D26EA5FC4492","title":"胖子羊肉馆","lon":"121.45914","lat":"31.25324","category":"257","category_name":"中餐厅","address":"沪太路5号近大统路"},{"poiid":"B2094654DB65A0F44099","title":"快客No.1160","lon":"121.45941","lat":"31.2531","category":"117","category_name":"便民商店/便利店","address":"大统路859号"},{"poiid":"B2094655D268ABFD499B","title":"三兴大楼","lon":"121.46071","lat":"31.25216","category":"46","category_name":"楼宇","address":"上海市闸北区中兴路1340弄"},{"poiid":"B2094655D264A4F54899","title":"恒基不夜城","lon":"121.457","lat":"31.2521","category":"252","category_name":"楼宇机构","address":"丰台学城海鹰路1号,3号"},{"poiid":"B2094757D169A4F84899","title":"IC运动馆","lon":"121.4604211","lat":"31.25452909","category":"500","category_name":"未知分类","address":"上海市闸北区共和新路"},{"poiid":"B2094654D464A1FC429A","title":"鲜好又多水果专卖店","lon":"121.45844","lat":"31.25418","category":"117","category_name":"便民商店/便利店","address":"中华新路765号"},{"poiid":"B2094654D464A2FC469B","title":"万民百货商场","lon":"121.45932","lat":"31.25213","category":"119","category_name":"商场","address":""},{"poiid":"B2094655D36CA2F44592","title":"上海火车站北广场","lon":"121.45576","lat":"31.25164","category":"38","category_name":"公交车站","address":"上海市闸北区大统路"},{"poiid":"B2094654D464A3F5489B","title":"上海长途汽车客运总站","lon":"121.45463","lat":"31.2528","category":"35","category_name":"长途汽车站","address":"闸北区中兴路1662号(近孔家木桥路)"},{"poiid":"B2094757D06EAAFB499C","title":"上海火车站地铁站","lon":"121.45871681","lat":"31.249312371","category":"36","category_name":"地铁站","address":"上海轨道交通 一号线 三号线 四号线 轨交上海火车站站 轻轨 1 3 4"},{"poiid":"B209475CD564A7F8439E","title":"上海滩中信泰富店","lon":"121.45602","lat":"31.22851","category":"119","category_name":"商场","address":"\"南京西路1168号中信泰富广场，店铺号221.\r\n\""},{"poiid":"B2094655D268A1FC4398","title":"五月花生活广场","lon":"121.45763","lat":"31.25635","category":"47","category_name":"住宅区","address":"闸北区芷江西路、普善路"},{"poiid":"B2094757D06FA2F8489A","title":"麦当劳(火车站北广场店)","lon":"121.455468","lat":"31.251107","category":"68","category_name":"快餐厅","address":"闸北区中兴路1646号(近大统路)"},{"poiid":"B2094757D068A2FD4098","title":"长安大厦","lon":"121.458","lat":"31.2508","category":"46","category_name":"楼宇","address":"闸北区长安路1001号"},{"poiid":"B2094757D068A2F54292","title":"上海火车站普通候车室","lon":"121.4571","lat":"31.2505","category":"260","category_name":"其他","address":"闸北区上海火车站  "},{"poiid":"B2094654D464A3F54693","title":"上海站北广场","lon":"121.45623","lat":"31.25081","category":"22","category_name":"火车站","address":"闸北区天目西路"},{"poiid":"B2094757DA6AA5F8419A","title":"上海歌城","lon":"121.4590229668046","lat":"31.25530215022658","category":"170","category_name":"KTV","address":"闸北区中兴路"},{"poiid":"B2094757D06FA5FD4098","title":"锦程大厦","lon":"121.458","lat":"31.2526","category":"46","category_name":"楼宇","address":"上海天目西路511号"},{"poiid":"B2094654D464A3F5469E","title":"中祥戴斯大酒店","lon":"121.45731","lat":"31.2522","category":"214","category_name":"四星级宾馆","address":"上海市闸北区中兴路1558号(上海火车站地区,近大统路)"},{"poiid":"B2094757D06AA1F4479D","title":"机电大厦","lon":"121.45911553","lat":"31.253063178475","category":"46","category_name":"楼宇","address":"上海普陀区宁夏路251号"},{"poiid":"B2094757D66CA3F8449E","title":"威尔士健身会所芷江西路店","lon":"121.457819","lat":"31.2568692","category":"500","category_name":"未知分类","address":"闸北区芷江西路488号(近北美公寓)"},{"poiid":"B2094757D065AAF5469D","title":"三号线宝山路站","lon":"121.458655103","lat":"31.2522050416","category":"500","category_name":"未知分类","address":"上海宝山路"},{"poiid":"B2094654D464A2FF429E","title":"上海长征医院闸北分院","lon":"121.46159","lat":"31.25429","category":"162","category_name":"医院","address":"中华新路619号"},{"poiid":"B2094654DB65A0FB449B","title":"城隍庙小吃世界 大统路店","lon":"121.459541054","lat":"31.253871793","category":"68","category_name":"快餐厅","address":"闸北区中华新路723号(近大统路)"},{"poiid":"B2094757D06FAAFE4298","title":"越秀苑","lon":"121.4585","lat":"31.254604","category":"500","category_name":"未知分类","address":"上海市闸北区大统路938弄"},{"poiid":"B2094757D068A3FB469C","title":"上海国际眼镜城","lon":"121.45453","lat":"31.25213","category":"132","category_name":"眼镜店","address":"闸北区中兴路1688号火车站北广场长途客运总站1-4楼(近恒丰路桥)"},{"poiid":"B209475CDA6CA3FE449A","title":"人民广场","lon":"121.458274","lat":"31.252695","category":"500","category_name":"未知分类","address":"上海市 人民大道"},{"poiid":"B2094655D36CA5FC409A","title":"大统路","lon":"121.45792","lat":"31.25336","category":"38","category_name":"公交车站","address":""},{"poiid":"B2094750D769A3FF429C","title":"鲜汤骨头砂锅","lon":"121.459","lat":"31.2548","category":"86","category_name":"火锅店","address":"闸北区大统路956号(近大统路地道)"},{"poiid":"B2094757D16FABFB449E","title":"麦当劳中海万锦城","lon":"121.458612103","lat":"31.2515120272","category":"68","category_name":"快餐厅","address":"闸北区大统路679-695号(近中海万锦城)"},{"poiid":"B2094750DB6DA0FE4999","title":"闸北中心医院","lon":"121.4592506866157","lat":"31.25478931129848","category":"162","category_name":"医院","address":"中华新路619号"},{"poiid":"B2094757D064A6FA4992","title":"芷江西路派出所","lon":"121.45857915","lat":"31.253229938","category":"609","category_name":"警察局","address":"上海芷江西路派出所"},{"poiid":"B2094753D66EA2F54598","title":"闸北区中心医院","lon":"121.460011","lat":"31.254576","category":"162","category_name":"医院","address":"上海市 中华新路共和新路"},{"poiid":"B2094655D26AA0FB419C","title":"中祥戴斯大酒店中餐厅","lon":"121.45742","lat":"31.25232","category":"76","category_name":"上海菜","address":"闸北区中兴路1558号中祥戴斯大酒店2楼(近大统路)"},{"poiid":"B2094757D16FA6FF419A","title":"老娘舅（上海长途汽车总站店)","lon":"121.4566547","lat":"31.252325944","category":"68","category_name":"快餐厅","address":"闸北区中兴路1642号(近汽车总站出口处)"},{"poiid":"B2094654DA6CA7FF4698","title":"华森钻石商务广场","lon":"121.45863053857","lat":"31.253766619716","category":"46","category_name":"楼宇","address":"恒丰路630号"},{"poiid":"B2094750D76CA4F8459F","title":"东方既白(火车站北广场店)","lon":"121.456","lat":"31.2524","category":"68","category_name":"快餐厅","address":"闸北区中兴路1600号火车站北广场入口西侧"},{"poiid":"B2094654DB6AA4FB4799","title":"重庆鸡公煲","lon":"121.45936","lat":"31.25457","category":"71","category_name":"四川菜","address":"闸北区大统路1012号(近芷江西路)"},{"poiid":"B2094655D26AA0F9409C","title":"地铁上海火车站站","lon":"121.45874","lat":"31.24933","category":"36","category_name":"地铁站","address":""},{"poiid":"B2094750DA6DA3FF469B","title":"肯德基芷江西路店","lon":"121.456878","lat":"31.252511","category":"247","category_name":"餐饮美食","address":"闸北区芷江西路488号五月花生活广场1楼(近大统路10月开张)"},{"poiid":"B2094757D66BA0F8469A","title":"毛毛家常菜","lon":"121.45818665441","lat":"31.2541007703","category":"76","category_name":"上海菜","address":"闸北区中华新路759号(近大统路)"},{"poiid":"B2094757D168A6F84899","title":"厦门沃头蚝干粥","lon":"121.459037103","lat":"31.2536290714","category":"247","category_name":"餐饮美食","address":"上海中华新路737号"},{"poiid":"B2094654D464A2FE4992","title":"海林湘菜馆","lon":"121.45938","lat":"31.25293","category":"77","category_name":"湖南菜","address":"闸北区大统路851号(近中兴路)"},{"poiid":"B2094757D16EA6FC4299","title":"中华新路893弄","lon":"121.45762807","lat":"31.253287764","category":"500","category_name":"未知分类","address":"上海中华新路893弄"},{"poiid":"B2094654DB6AA4FB4999","title":"美兴大酒店(大统路店)","lon":"121.45986","lat":"31.25448","category":"250","category_name":"公园户外","address":"闸北区大统路933号(近中华新路)"},{"poiid":"B2094654DA6CABFE4493","title":"康吉大厦","lon":"121.462","lat":"31.2518","category":"46","category_name":"楼宇","address":"天目西路290号"},{"poiid":"B2094757D065A6F84393","title":"泰和路同济路口","lon":"121.45842416","lat":"31.253723173","category":"38","category_name":"公交车站","address":"上海泰和路同济路口"},{"poiid":"B2094751DA68A2FF419E","title":"环球金融中心上海柏悦酒店87楼大堂茶阁内","lon":"121.458454","lat":"31.252626","category":"500","category_name":"未知分类","address":"世纪大道100号"},{"poiid":"B209475CD668A2F5479A","title":"上海站","lon":"121.45713","lat":"31.252267","category":"500","category_name":"未知分类","address":"上海市 上海站"},{"poiid":"B209475DD569A0FF479E","title":"上海市南京路步行街","lon":"121.456871","lat":"31.252502","category":"627","category_name":"一般地点标志","address":"上海市 上海"},{"poiid":"B2094655D26EA5FC4492","title":"胖子羊肉馆","lon":"121.45914","lat":"31.25324","category":"257","category_name":"中餐厅","address":"沪太路5号近大统路"},{"poiid":"B2094654DB65A0F44099","title":"快客No.1160","lon":"121.45941","lat":"31.2531","category":"117","category_name":"便民商店/便利店","address":"大统路859号"},{"poiid":"B2094655D268ABFD499B","title":"三兴大楼","lon":"121.46071","lat":"31.25216","category":"46","category_name":"楼宇","address":"上海市闸北区中兴路1340弄"},{"poiid":"B2094655D264A4F54899","title":"恒基不夜城","lon":"121.457","lat":"31.2521","category":"252","category_name":"楼宇机构","address":"丰台学城海鹰路1号,3号"},{"poiid":"B2094757D169A4F84899","title":"IC运动馆","lon":"121.4604211","lat":"31.25452909","category":"500","category_name":"未知分类","address":"上海市闸北区共和新路"},{"poiid":"B2094654D464A1FC429A","title":"鲜好又多水果专卖店","lon":"121.45844","lat":"31.25418","category":"117","category_name":"便民商店/便利店","address":"中华新路765号"},{"poiid":"B2094654D464A2FC469B","title":"万民百货商场","lon":"121.45932","lat":"31.25213","category":"119","category_name":"商场","address":""},{"poiid":"B2094655D36CA2F44592","title":"上海火车站北广场","lon":"121.45576","lat":"31.25164","category":"38","category_name":"公交车站","address":"上海市闸北区大统路"},{"poiid":"B2094654D464A3F5489B","title":"上海长途汽车客运总站","lon":"121.45463","lat":"31.2528","category":"35","category_name":"长途汽车站","address":"闸北区中兴路1662号(近孔家木桥路)"},{"poiid":"B2094757D06EAAFB499C","title":"上海火车站地铁站","lon":"121.45871681","lat":"31.249312371","category":"36","category_name":"地铁站","address":"上海轨道交通 一号线 三号线 四号线 轨交上海火车站站 轻轨 1 3 4"},{"poiid":"B209475CD564A7F8439E","title":"上海滩中信泰富店","lon":"121.45602","lat":"31.22851","category":"119","category_name":"商场","address":"\"南京西路1168号中信泰富广场，店铺号221.\r\n\""},{"poiid":"B2094655D268A1FC4398","title":"五月花生活广场","lon":"121.45763","lat":"31.25635","category":"47","category_name":"住宅区","address":"闸北区芷江西路、普善路"},{"poiid":"B2094757D06FA2F8489A","title":"麦当劳(火车站北广场店)","lon":"121.455468","lat":"31.251107","category":"68","category_name":"快餐厅","address":"闸北区中兴路1646号(近大统路)"},{"poiid":"B2094757D068A2FD4098","title":"长安大厦","lon":"121.458","lat":"31.2508","category":"46","category_name":"楼宇","address":"闸北区长安路1001号"},{"poiid":"B2094757D068A2F54292","title":"上海火车站普通候车室","lon":"121.4571","lat":"31.2505","category":"260","category_name":"其他","address":"闸北区上海火车站  "},{"poiid":"B2094654D464A3F54693","title":"上海站北广场","lon":"121.45623","lat":"31.25081","category":"22","category_name":"火车站","address":"闸北区天目西路"},{"poiid":"B2094757DA6AA5F8419A","title":"上海歌城","lon":"121.4590229668046","lat":"31.25530215022658","category":"170","category_name":"KTV","address":"闸北区中兴路"},{"poiid":"B2094757D06FA5FD4098","title":"锦程大厦","lon":"121.458","lat":"31.2526","category":"46","category_name":"楼宇","address":"上海天目西路511号"},{"poiid":"B2094654D464A3F5469E","title":"中祥戴斯大酒店","lon":"121.45731","lat":"31.2522","category":"214","category_name":"四星级宾馆","address":"上海市闸北区中兴路1558号(上海火车站地区,近大统路)"},{"poiid":"B2094757D06AA1F4479D","title":"机电大厦","lon":"121.45911553","lat":"31.253063178475","category":"46","category_name":"楼宇","address":"上海普陀区宁夏路251号"},{"poiid":"B2094757D66CA3F8449E","title":"威尔士健身会所芷江西路店","lon":"121.457819","lat":"31.2568692","category":"500","category_name":"未知分类","address":"闸北区芷江西路488号(近北美公寓)"},{"poiid":"B2094757D065AAF5469D","title":"三号线宝山路站","lon":"121.458655103","lat":"31.2522050416","category":"500","category_name":"未知分类","address":"上海宝山路"},{"poiid":"B2094654D464A2FF429E","title":"上海长征医院闸北分院","lon":"121.46159","lat":"31.25429","category":"162","category_name":"医院","address":"中华新路619号"},{"poiid":"B2094654DB65A0FB449B","title":"城隍庙小吃世界 大统路店","lon":"121.459541054","lat":"31.253871793","category":"68","category_name":"快餐厅","address":"闸北区中华新路723号(近大统路)"},{"poiid":"B2094757D06FAAFE4298","title":"越秀苑","lon":"121.4585","lat":"31.254604","category":"500","category_name":"未知分类","address":"上海市闸北区大统路938弄"},{"poiid":"B2094757D068A3FB469C","title":"上海国际眼镜城","lon":"121.45453","lat":"31.25213","category":"132","category_name":"眼镜店","address":"闸北区中兴路1688号火车站北广场长途客运总站1-4楼(近恒丰路桥)"},{"poiid":"B209475CDA6CA3FE449A","title":"人民广场","lon":"121.458274","lat":"31.252695","category":"500","category_name":"未知分类","address":"上海市 人民大道"},{"poiid":"B2094655D36CA5FC409A","title":"大统路","lon":"121.45792","lat":"31.25336","category":"38","category_name":"公交车站","address":""},{"poiid":"B2094750D769A3FF429C","title":"鲜汤骨头砂锅","lon":"121.459","lat":"31.2548","category":"86","category_name":"火锅店","address":"闸北区大统路956号(近大统路地道)"},{"poiid":"B2094757D16FABFB449E","title":"麦当劳中海万锦城","lon":"121.458612103","lat":"31.2515120272","category":"68","category_name":"快餐厅","address":"闸北区大统路679-695号(近中海万锦城)"},{"poiid":"B2094750DB6DA0FE4999","title":"闸北中心医院","lon":"121.4592506866157","lat":"31.25478931129848","category":"162","category_name":"医院","address":"中华新路619号"},{"poiid":"B2094757D064A6FA4992","title":"芷江西路派出所","lon":"121.45857915","lat":"31.253229938","category":"609","category_name":"警察局","address":"上海芷江西路派出所"},{"poiid":"B2094753D66EA2F54598","title":"闸北区中心医院","lon":"121.460011","lat":"31.254576","category":"162","category_name":"医院","address":"上海市 中华新路共和新路"},{"poiid":"B2094655D26AA0FB419C","title":"中祥戴斯大酒店中餐厅","lon":"121.45742","lat":"31.25232","category":"76","category_name":"上海菜","address":"闸北区中兴路1558号中祥戴斯大酒店2楼(近大统路)"},{"poiid":"B2094757D16FA6FF419A","title":"老娘舅（上海长途汽车总站店)","lon":"121.4566547","lat":"31.252325944","category":"68","category_name":"快餐厅","address":"闸北区中兴路1642号(近汽车总站出口处)"},{"poiid":"B2094654DA6CA7FF4698","title":"华森钻石商务广场","lon":"121.45863053857","lat":"31.253766619716","category":"46","category_name":"楼宇","address":"恒丰路630号"},{"poiid":"B2094750D76CA4F8459F","title":"东方既白(火车站北广场店)","lon":"121.456","lat":"31.2524","category":"68","category_name":"快餐厅","address":"闸北区中兴路1600号火车站北广场入口西侧"},{"poiid":"B2094654DB6AA4FB4799","title":"重庆鸡公煲","lon":"121.45936","lat":"31.25457","category":"71","category_name":"四川菜","address":"闸北区大统路1012号(近芷江西路)"},{"poiid":"B2094655D26AA0F9409C","title":"地铁上海火车站站","lon":"121.45874","lat":"31.24933","category":"36","category_name":"地铁站","address":""},{"poiid":"B2094750DA6DA3FF469B","title":"肯德基芷江西路店","lon":"121.456878","lat":"31.252511","category":"247","category_name":"餐饮美食","address":"闸北区芷江西路488号五月花生活广场1楼(近大统路10月开张)"},{"poiid":"B2094757D66BA0F8469A","title":"毛毛家常菜","lon":"121.45818665441","lat":"31.2541007703","category":"76","category_name":"上海菜","address":"闸北区中华新路759号(近大统路)"},{"poiid":"B2094757D168A6F84899","title":"厦门沃头蚝干粥","lon":"121.459037103","lat":"31.2536290714","category":"247","category_name":"餐饮美食","address":"上海中华新路737号"},{"poiid":"B2094654D464A2FE4992","title":"海林湘菜馆","lon":"121.45938","lat":"31.25293","category":"77","category_name":"湖南菜","address":"闸北区大统路851号(近中兴路)"},{"poiid":"B2094757D16EA6FC4299","title":"中华新路893弄","lon":"121.45762807","lat":"31.253287764","category":"500","category_name":"未知分类","address":"上海中华新路893弄"},{"poiid":"B2094654DB6AA4FB4999","title":"美兴大酒店(大统路店)","lon":"121.45986","lat":"31.25448","category":"250","category_name":"公园户外","address":"闸北区大统路933号(近中华新路)"},{"poiid":"B2094654DA6CABFE4493","title":"康吉大厦","lon":"121.462","lat":"31.2518","category":"46","category_name":"楼宇","address":"天目西路290号"},{"poiid":"B2094757D065A6F84393","title":"泰和路同济路口","lon":"121.45842416","lat":"31.253723173","category":"38","category_name":"公交车站","address":"上海泰和路同济路口"},{"poiid":"B2094751DA68A2FF419E","title":"环球金融中心上海柏悦酒店87楼大堂茶阁内","lon":"121.458454","lat":"31.252626","category":"500","category_name":"未知分类","address":"世纪大道100号"},{"poiid":"B209475CD668A2F5479A","title":"上海站","lon":"121.45713","lat":"31.252267","category":"500","category_name":"未知分类","address":"上海市 上海站"},{"poiid":"B209475DD569A0FF479E","title":"上海市南京路步行街","lon":"121.456871","lat":"31.252502","category":"627","category_name":"一般地点标志","address":"上海市 上海"},{"poiid":"B2094655D26EA5FC4492","title":"胖子羊肉馆","lon":"121.45914","lat":"31.25324","category":"257","category_name":"中餐厅","address":"沪太路5号近大统路"},{"poiid":"B2094654DB65A0F44099","title":"快客No.1160","lon":"121.45941","lat":"31.2531","category":"117","category_name":"便民商店/便利店","address":"大统路859号"},{"poiid":"B2094655D268ABFD499B","title":"三兴大楼","lon":"121.46071","lat":"31.25216","category":"46","category_name":"楼宇","address":"上海市闸北区中兴路1340弄"},{"poiid":"B2094655D264A4F54899","title":"恒基不夜城","lon":"121.457","lat":"31.2521","category":"252","category_name":"楼宇机构","address":"丰台学城海鹰路1号,3号"},{"poiid":"B2094757D169A4F84899","title":"IC运动馆","lon":"121.4604211","lat":"31.25452909","category":"500","category_name":"未知分类","address":"上海市闸北区共和新路"},{"poiid":"B2094654D464A1FC429A","title":"鲜好又多水果专卖店","lon":"121.45844","lat":"31.25418","category":"117","category_name":"便民商店/便利店","address":"中华新路765号"},{"poiid":"B2094654D464A2FC469B","title":"万民百货商场","lon":"121.45932","lat":"31.25213","category":"119","category_name":"商场","address":""}]