[{"poiid":"B2094757D06EAAFB4292","title":"江苏路地铁站","lon":"121.43143","lat":"31.219477","category":"36","category_name":"地铁站","address":"上海轨道交通,二号线,十一号线,轨交江苏路站,2,11"},{"poiid":"B2094757D06FA6FF4393","title":"上海市第三女子中学","lon":"121.43063","lat":"31.22276","category":"253","category_name":"校园生活","address":"长宁区江苏路155号(近愚园路)"},{"poiid":"B2094757D06AA1F9409A","title":"江苏路愚园路","lon":"121.430786586","lat":"31.2201002329","category":"500","category_name":"未知分类","address":"上海市"},{"poiid":"B209475CD564A7F8439E","title":"上海滩中信泰富店","lon":"121.45602","lat":"31.22851","category":"119","category_name":"商场","address":"\"南京西路1168号中信泰富广场，店铺号221.\r\n\""},{"poiid":"B2094757D06FA7F44898","title":"峥峥饮食","lon":"121.425010054","lat":"31.221689793","category":"257","category_name":"中餐厅","address":"长宁区长宁路478-2号(近华阳路)"},{"poiid":"B2094757D468ABFA4792","title":"和平官邸5号","lon":"121.432227","lat":"31.224611","category":"247","category_name":"餐饮美食","address":"静安区武定西路1317弄10号(近万航渡路)"},{"poiid":"B2094757D06FA5F54399","title":"吴记老锅底麻辣火锅(长宁路店)","lon":"121.42708","lat":"31.22361","category":"86","category_name":"火锅店","address":"长宁区长宁路345号(近江苏路)"},{"poiid":"B2094757D16EA6FD489C","title":"长宁区","lon":"121.426747322","lat":"31.220535541","category":"250","category_name":"公园户外","address":"上海长宁区区域"},{"poiid":"B2094757D069A0F5459C","title":"上海爱乐乐团","lon":"121.429227","lat":"31.223856","category":"179","category_name":"音乐厅","address":"静安区武定西路1498号"},{"poiid":"B2094757D068A6FD409F","title":"KIKIS炭烧","lon":"121.431169054","lat":"31.217912793","category":"269","category_name":"烧烤","address":"长宁区江苏路458号舜元弘基广场2楼(近宣化路)"},{"poiid":"B2094655D264A2F8489D","title":"小杨生煎馆","lon":"121.42765","lat":"31.22386","category":"257","category_name":"中餐厅","address":"长宁区长宁路341号(近江苏路)"},{"poiid":"B2094654D565A6F4479D","title":"兆仪大厦","lon":"121.429","lat":"31.222","category":"46","category_name":"楼宇","address":"定西路1281号"},{"poiid":"B2094757D068A4FF4298","title":"长峰大厦","lon":"121.42821704422","lat":"31.221813972967","category":"46","category_name":"楼宇","address":"上海定西路1277号"},{"poiid":"B2094757D06FABFE4493","title":"岳阳飘湘楼(江苏路店)","lon":"121.42742","lat":"31.22433","category":"77","category_name":"湖南菜","address":"长宁区江苏北路30-6号(长宁路江苏北路)"},{"poiid":"B2094757D068A5F94498","title":"长宁支路江苏北路","lon":"121.42757558","lat":"31.224833325","category":"500","category_name":"未知分类","address":"上海市长宁区长宁支路"},{"poiid":"B2094655D26DAAF94999","title":"思巴洛克咖啡中山公园店","lon":"121.42617","lat":"31.22281","category":"65","category_name":"咖啡厅","address":"长宁区长宁路434号(近中山公园或江苏北路)"},{"poiid":"B2094750DA6BA4FC4692","title":"敦煌楼兰州拉面","lon":"121.429443","lat":"31.225271","category":"247","category_name":"餐饮美食","address":"长宁区长宁路436号(近江苏路)"},{"poiid":"B2094654D565A5FE469F","title":"亨通国际大厦","lon":"121.427","lat":"31.2248","category":"46","category_name":"楼宇","address":"长宁路1158号贝多芬广场618室"},{"poiid":"B2094757D06FABFD449A","title":"有家川菜(江苏路店)","lon":"121.42983","lat":"31.22287","category":"71","category_name":"四川菜","address":"长宁区江苏路121号中西大厦2楼(武定西路口)"},{"poiid":"B209475CD264A3F54899","title":"地铁站","lon":"121.430015","lat":"31.221008","category":"36","category_name":"地铁站","address":"上海市 11号线交通大学站"},{"poiid":"B2094757D06AA3FC4892","title":"南西幼儿园","lon":"121.42988","lat":"31.22349","category":"57","category_name":"幼儿园","address":"静安区武定西路1488号(近江苏路)"},{"poiid":"B2094757D46DABF94299","title":"我和你","lon":"121.42715","lat":"31.22473","category":"76","category_name":"上海菜","address":"长宁区江苏北路30号-5(近长宁路)"},{"poiid":"B2094757DB68A1FE4692","title":"大马可","lon":"121.42893","lat":"31.219728","category":"500","category_name":"未知分类","address":"维景酒店一楼"},{"poiid":"B2094757D569A1FD4098","title":"十一月","lon":"121.429161","lat":"31.222702","category":"95","category_name":"日本料理","address":"长宁区江苏路98号-5号(近武定西路)"},{"poiid":"B2094757D568A0FA4099","title":"雅量(勃逊)LeBouchon","lon":"121.4296869","lat":"31.22351194","category":"247","category_name":"餐饮美食","address":"静安区武定西路1455号(近江苏路)"},{"poiid":"B2094757D068A3FA4298","title":"兆丰大厦","lon":"121.42636763","lat":"31.223258673","category":"46","category_name":"楼宇","address":"上海长宁区长宁路398号"},{"poiid":"B2094757D16BA2F94493","title":"鸡排英雄","lon":"121.42924758","lat":"31.222777285","category":"247","category_name":"餐饮美食","address":"上海长宁区武夷路433号"},{"poiid":"B2094757D064A6FB469F","title":"武定西路","lon":"121.430457886","lat":"31.2208304472","category":"500","category_name":"未知分类","address":"上海武定西路"},{"poiid":"B2094757D06AA6F94193","title":"96路中山公园地铁站站","lon":"121.43061463","lat":"31.221858417","category":"36","category_name":"地铁站","address":"上海96路中山公园地铁站终点站"},{"poiid":"B2094655D26AA7FF4699","title":"愚江家政","lon":"121.42899","lat":"31.2229","category":"247","category_name":"餐饮美食","address":"长宁区江苏路96号2楼(近长宁路)"},{"poiid":"B2094757D56CA4FF4498","title":"成田日本料理","lon":"121.430229054","lat":"31.221535793","category":"247","category_name":"餐饮美食","address":"江苏路225号近愚园路近市三女中"},{"poiid":"B2094757D764A5FF4899","title":"胖阿姨正宗朝鲜冷面 长宁路店","lon":"121.42613","lat":"31.22277","category":"96","category_name":"韩国料理","address":"长宁区长宁路436号"},{"poiid":"B2094757D16DA6FA459A","title":"国泰大厦","lon":"121.42901837812","lat":"31.22256943391","category":"252","category_name":"楼宇机构","address":"上海定西路1310弄4号"},{"poiid":"B2094757D169ABF9469A","title":"武定西路江苏路","lon":"121.429647586","lat":"31.2236403021","category":"500","category_name":"未知分类","address":"上海市武定西路靠近江苏路"},{"poiid":"B2094654DB65AAF94092","title":"中国建设银行江苏路支行","lon":"121.42949","lat":"31.22304","category":"150","category_name":"银行","address":"长宁区江苏路123号"},{"poiid":"B2094654D565A1F84292","title":"可的(江苏路)","lon":"121.43054","lat":"31.22137","category":"117","category_name":"便民商店/便利店","address":"江苏路225甲"},{"poiid":"B2094757D068AAFE499E","title":"珊珊小笼馆(长宁路店)","lon":"121.42666","lat":"31.22335","category":"68","category_name":"快餐厅","address":"长宁区长宁路396弄18号(长宁路江苏北路)"},{"poiid":"B2094750D56FAAFB489A","title":"星巴克","lon":"121.431","lat":"31.2192","category":"260","category_name":"其他","address":"长宁区愚园路1000号(近江苏路)"},{"poiid":"B2094757D16EA1FE4993","title":"尤品鲜","lon":"121.427138586","lat":"31.2236533024","category":"96","category_name":"韩国料理","address":"长宁区长宁路357号(近江苏路)"},{"poiid":"B2094757D56CA2F84199","title":"吉祥馄饨 愚园路","lon":"121.43168361992","lat":"31.222846426465","category":"247","category_name":"餐饮美食","address":"静安区愚园路580号(近镇宁路)"},{"poiid":"B2094654D565A6F84499","title":"长新小区","lon":"121.42639","lat":"31.22221","category":"47","category_name":"住宅区","address":"新村路349弄2-62号(双号)"},{"poiid":"B2094654D565A1FE469F","title":"快客(江苏路)","lon":"121.4289","lat":"31.22341","category":"117","category_name":"便民商店/便利店","address":"江苏路77"},{"poiid":"B2094750D76CA4FE429B","title":"妙寿司(江苏路店)","lon":"121.428","lat":"31.2241","category":"95","category_name":"日本料理","address":"长宁区江苏路585号(近延安西路)"},{"poiid":"B2094654DB6BA6F84799","title":"煲煲仔","lon":"121.42695599843","lat":"31.223134620432","category":"257","category_name":"中餐厅","address":"长宁区长宁路436号(江苏路口)"},{"poiid":"B2094757D66FA7FD479E","title":"新缘茶铺","lon":"121.43020358","lat":"31.221281256","category":"247","category_name":"餐饮美食","address":"长宁区江苏路160号"},{"poiid":"B2094757D165AAF5439D","title":"第1佳大鸡排(江苏路店)","lon":"121.428019","lat":"31.222606","category":"247","category_name":"餐饮美食","address":"上海江苏路96﹣5号"},{"poiid":"B2094654D565A1FA429E","title":"畅园","lon":"121.43178","lat":"31.22041","category":"47","category_name":"住宅区","address":"上海市普陀区长寿路998号"},{"poiid":"B2094757D064A0FA449A","title":"思竹足浴会所","lon":"121.42979164","lat":"31.221375437","category":"148","category_name":"美容美发店","address":"上海长寿路999弄达安花园66号2楼"},{"poiid":"B2094757D168ABFD479B","title":"静安区党校","lon":"121.42891858","lat":"31.224496318","category":"500","category_name":"未知分类","address":"上海市静安区1398弄16号"},{"poiid":"B2094757D064A3FF459D","title":"名光大厦","lon":"121.428","lat":"31.2221","category":"252","category_name":"楼宇机构","address":"上海定西路1279号"},{"poiid":"B2094757D06EAAFB4292","title":"江苏路地铁站","lon":"121.43143","lat":"31.219477","category":"36","category_name":"地铁站","address":"上海轨道交通,二号线,十一号线,轨交江苏路站,2,11"},{"poiid":"B2094757D06FA6FF4393","title":"上海市第三女子中学","lon":"121.43063","lat":"31.22276","category":"253","category_name":"校园生活","address":"长宁区江苏路155号(近愚园路)"},{"poiid":"B2094757D06AA1F9409A","title":"江苏路愚园路","lon":"121.430786586","lat":"31.2201002329","category":"500","category_name":"未知分类","address":"上海市"},{"poiid":"B209475CD564A7F8439E","title":"上海滩中信泰富店","lon":"121.45602","lat":"31.22851","category":"119","category_name":"商场","address":"\"南京西路1168号中信泰富广场，店铺号221.\r\n\""},{"poiid":"B2094757D06FA7F44898","title":"峥峥饮食","lon":"121.425010054","lat":"31.221689793","category":"257","category_name":"中餐厅","address":"长宁区长宁路478-2号(近华阳路)"},{"poiid":"B2094757D468ABFA4792","title":"和平官邸5号","lon":"121.432227","lat":"31.224611","category":"247","category_name":"餐饮美食","address":"静安区武定西路1317弄10号(近万航渡路)"},{"poiid":"B2094757D06FA5F54399","title":"吴记老锅底麻辣火锅(长宁路店)","lon":"121.42708","lat":"31.22361","category":"86","category_name":"火锅店","address":"长宁区长宁路345号(近江苏路)"},{"poiid":"B2094757D16EA6FD489C","title":"长宁区","lon":"121.426747322","lat":"31.220535541","category":"250","category_name":"公园户外","address":"上海长宁区区域"},{"poiid":"B2094757D069A0F5459C","title":"上海爱乐乐团","lon":"121.429227","lat":"31.223856","category":"179","category_name":"音乐厅","address":"静安区武定西路1498号"},{"poiid":"B2094757D068A6FD409F","title":"KIKIS炭烧","lon":"121.431169054","lat":"31.217912793","category":"269","category_name":"烧烤","address":"长宁区江苏路458号舜元弘基广场2楼(近宣化路)"},{"poiid":"B2094655D264A2F8489D","title":"小杨生煎馆","lon":"121.42765","lat":"31.22386","category":"257","category_name":"中餐厅","address":"长宁区长宁路341号(近江苏路)"},{"poiid":"B2094654D565A6F4479D","title":"兆仪大厦","lon":"121.429","lat":"31.222","category":"46","category_name":"楼宇","address":"定西路1281号"},{"poiid":"B2094757D068A4FF4298","title":"长峰大厦","lon":"121.42821704422","lat":"31.221813972967","category":"46","category_name":"楼宇","address":"上海定西路1277号"},{"poiid":"B2094757D06FABFE4493","title":"岳阳飘湘楼(江苏路店)","lon":"121.42742","lat":"31.22433","category":"77","category_name":"湖南菜","address":"长宁区江苏北路30-6号(长宁路江苏北路)"},{"poiid":"B2094757D068A5F94498","title":"长宁支路江苏北路","lon":"121.42757558","lat":"31.224833325","category":"500","category_name":"未知分类","address":"上海市长宁区长宁支路"},{"poiid":"B2094655D26DAAF94999","title":"思巴洛克咖啡中山公园店","lon":"121.42617","lat":"31.22281","category":"65","category_name":"咖啡厅","address":"长宁区长宁路434号(近中山公园或江苏北路)"},{"poiid":"B2094750DA6BA4FC4692","title":"敦煌楼兰州拉面","lon":"121.429443","lat":"31.225271","category":"247","category_name":"餐饮美食","address":"长宁区长宁路436号(近江苏路)"},{"poiid":"B2094654D565A5FE469F","title":"亨通国际大厦","lon":"121.427","lat":"31.2248","category":"46","category_name":"楼宇","address":"长宁路1158号贝多芬广场618室"},{"poiid":"B2094757D06FABFD449A","title":"有家川菜(江苏路店)","lon":"121.42983","lat":"31.22287","category":"71","category_name":"四川菜","address":"长宁区江苏路121号中西大厦2楼(武定西路口)"},{"poiid":"B209475CD264A3F54899","title":"地铁站","lon":"121.430015","lat":"31.221008","category":"36","category_name":"地铁站","address":"上海市 11号线交通大学站"},{"poiid":"B2094757D06AA3FC4892","title":"南西幼儿园","lon":"121.42988","lat":"31.22349","category":"57","category_name":"幼儿园","address":"静安区武定西路1488号(近江苏路)"},{"poiid":"B2094757D46DABF94299","title":"我和你","lon":"121.42715","lat":"31.22473","category":"76","category_name":"上海菜","address":"长宁区江苏北路30号-5(近长宁路)"},{"poiid":"B2094757DB68A1FE4692","title":"大马可","lon":"121.42893","lat":"31.219728","category":"500","category_name":"未知分类","address":"维景酒店一楼"},{"poiid":"B2094757D569A1FD4098","title":"十一月","lon":"121.429161","lat":"31.222702","category":"95","category_name":"日本料理","address":"长宁区江苏路98号-5号(近武定西路)"},{"poiid":"B2094757D568A0FA4099","title":"雅量(勃逊)LeBouchon","lon":"121.4296869","lat":"31.22351194","category":"247","category_name":"餐饮美食","address":"静安区武定西路1455号(近江苏路)"},{"poiid":"B2094757D068A3FA4298","title":"兆丰大厦","lon":"121.42636763","lat":"31.223258673","category":"46","category_name":"楼宇","address":"上海长宁区长宁路398号"},{"poiid":"B2094757D16BA2F94493","title":"鸡排英雄","lon":"121.42924758","lat":"31.222777285","category":"247","category_name":"餐饮美食","address":"上海长宁区武夷路433号"},{"poiid":"B2094757D064A6FB469F","title":"武定西路","lon":"121.430457886","lat":"31.2208304472","category":"500","category_name":"未知分类","address":"上海武定西路"},{"poiid":"B2094757D06AA6F94193","title":"96路中山公园地铁站站","lon":"121.43061463","lat":"31.221858417","category":"36","category_name":"地铁站","address":"上海96路中山公园地铁站终点站"},{"poiid":"B2094655D26AA7FF4699","title":"愚江家政","lon":"121.42899","lat":"31.2229","category":"247","category_name":"餐饮美食","address":"长宁区江苏路96号2楼(近长宁路)"},{"poiid":"B2094757D56CA4FF4498","title":"成田日本料理","lon":"121.430229054","lat":"31.221535793","category":"247","category_name":"餐饮美食","address":"江苏路225号近愚园路近市三女中"},{"poiid":"B2094757D764A5FF4899","title":"胖阿姨正宗朝鲜冷面 长宁路店","lon":"121.42613","lat":"31.22277","category":"96","category_name":"韩国料理","address":"长宁区长宁路436号"},{"poiid":"B2094757D16DA6FA459A","title":"国泰大厦","lon":"121.42901837812","lat":"31.22256943391","category":"252","category_name":"楼宇机构","address":"上海定西路1310弄4号"},{"poiid":"B2094757D169ABF9469A","title":"武定西路江苏路","lon":"121.429647586","lat":"31.2236403021","category":"500","category_name":"未知分类","address":"上海市武定西路靠近江苏路"},{"poiid":"B2094654DB65AAF94092","title":"中国建设银行江苏路支行","lon":"121.42949","lat":"31.22304","category":"150","category_name":"银行","address":"长宁区江苏路123号"},{"poiid":"B2094654D565A1F84292","title":"可的(江苏路)","lon":"121.43054","lat":"31.22137","category":"117","category_name":"便民商店/便利店","address":"江苏路225甲"},{"poiid":"B2094757D068AAFE499E","title":"珊珊小笼馆(长宁路店)","lon":"121.42666","lat":"31.22335","category":"68","category_name":"快餐厅","address":"长宁区长宁路396弄18号(长宁路江苏北路)"},{"poiid":"B2094750D56FAAFB489A","title":"星巴克","lon":"121.431","lat":"31.2192","category":"260","category_name":"其他","address":"长宁区愚园路1000号(近江苏路)"},{"poiid":"B2094757D16EA1FE4993","title":"尤品鲜","lon":"121.427138586","lat":"31.2236533024","category":"96","category_name":"韩国料理","address":"长宁区长宁路357号(近江苏路)"},{"poiid":"B2094757D56CA2F84199","title":"吉祥馄饨 愚园路","lon":"121.43168361992","lat":"31.222846426465","category":"247","category_name":"餐饮美食","address":"静安区愚园路580号(近镇宁路)"},{"poiid":"B2094654D565A6F84499","title":"长新小区","lon":"121.42639","lat":"31.22221","category":"47","category_name":"住宅区","address":"新村路349弄2-62号(双号)"},{"poiid":"B2094654D565A1FE469F","title":"快客(江苏路)","lon":"121.4289","lat":"31.22341","category":"117","category_name":"便民商店/便利店","address":"江苏路77"},{"poiid":"B2094750D76CA4FE429B","title":"妙寿司(江苏路店)","lon":"121.428","lat":"31.2241","category":"95","category_name":"日本料理","address":"长宁区江苏路585号(近延安西路)"},{"poiid":"B2094654DB6BA6F84799","title":"煲煲仔","lon":"121.42695599843","lat":"31.223134620432","category":"257","category_name":"中餐厅","address":"长宁区长宁路436号(江苏路口)"},{"poiid":"B2094757D66FA7FD479E","title":"新缘茶铺","lon":"121.43020358","lat":"31.221281256","category":"247","category_name":"餐饮美食","address":"长宁区江苏路160号"},{"poiid":"B2094757D165AAF5439D","title":"第1佳大鸡排(江苏路店)","lon":"121.428019","lat":"31.222606","category":"247","category_name":"餐饮美食","address":"上海江苏路96﹣5号"},{"poiid":"B2094654D565A1FA429E","title":"畅园","lon":"121.43178","lat":"31.22041","category":"47","category_name":"住宅区","address":"上海市普陀区长寿路998号"},{"poiid":"B2094757D064A0FA449A","title":"思竹足浴会所","lon":"121.42979164","lat":"31.221375437","category":"148","category_name":"美容美发店","address":"上海长寿路999弄达安花园66号2楼"},{"poiid":"B2094757D168ABFD479B","title":"静安区党校","lon":"121.42891858","lat":"31.224496318","category":"500","category_name":"未知分类","address":"上海市静安区1398弄16号"},{"poiid":"B2094757D064A3FF459D","title":"名光大厦","lon":"121.428","lat":"31.2221","category":"252","category_name":"楼宇机构","address":"上海定西路1279号"},{"poiid":"B2094757D06EAAFB4292","title":"江苏路地铁站","lon":"121.43143","lat":"31.219477","category":"36","category_name":"地铁站","address":"上海轨道交通,二号线,十一号线,轨交江苏路站,2,11"},{"poiid":"B2094757D06FA6FF4393","title":"上海市第三女子中学","lon":"121.43063","lat":"31.22276","category":"253","category_name":"校园生活","address":"长宁区江苏路155号(近愚园路)"},{"poiid":"B2094757D06AA1F9409A","title":"江苏路愚园路","lon":"121.430786586","lat":"31.2201002329","category":"500","category_name":"未知分类","address":"上海市"},{"poiid":"B209475CD564A7F8439E","title":"上海滩中信泰富店","lon":"121.45602","lat":"31.22851","category":"119","category_name":"商场","address":"\"南京西路1168号中信泰富广场，店铺号221.\r\n\""},{"poiid":"B2094757D06FA7F44898","title":"峥峥饮食","lon":"121.425010054","lat":"31.221689793","category":"257","category_name":"中餐厅","address":"长宁区长宁路478-2号(近华阳路)"},{"poiid":"B2094757D468ABFA4792","title":"和平官邸5号","lon":"121.432227","lat":"31.224611","category":"247","category_name":"餐饮美食","address":"静安区武定西路1317弄10号(近万航渡路)"},{"poiid":"B2094757D06FA5F54399","title":"吴记老锅底麻辣火锅(长宁路店)","lon":"121.42708","lat":"31.22361","category":"86","category_name":"火锅店","address":"长宁区长宁路345号(近江苏路)"},{"poiid":"B2094757D16EA6FD489C","title":"长宁区","lon":"121.426747322","lat":"31.220535541","category":"250","category_name":"公园户外","address":"上海长宁区区域"},{"poiid":"B2094757D069A0F5459C","title":"上海爱乐乐团","lon":"121.429227","lat":"31.223856","category":"179","category_name":"音乐厅","address":"静安区武定西路1498号"},{"poiid":"B2094757D068A6FD409F","title":"KIKIS炭烧","lon":"121.431169054","lat":"31.217912793","category":"269","category_name":"烧烤","address":"长宁区江苏路458号舜元弘基广场2楼(近宣化路)"},{"poiid":"B2094655D264A2F8489D","title":"小杨生煎馆","lon":"121.42765","lat":"31.22386","category":"257","category_name":"中餐厅","address":"长宁区长宁路341号(近江苏路)"},{"poiid":"B2094654D565A6F4479D","title":"兆仪大厦","lon":"121.429","lat":"31.222","category":"46","category_name":"楼宇","address":"定西路1281号"},{"poiid":"B2094757D068A4FF4298","title":"长峰大厦","lon":"121.42821704422","lat":"31.221813972967","category":"46","category_name":"楼宇","address":"上海定西路1277号"},{"poiid":"B2094757D06FABFE4493","title":"岳阳飘湘楼(江苏路店)","lon":"121.42742","lat":"31.22433","category":"77","category_name":"湖南菜","address":"长宁区江苏北路30-6号(长宁路江苏北路)"},{"poiid":"B2094757D068A5F94498","title":"长宁支路江苏北路","lon":"121.42757558","lat":"31.224833325","category":"500","category_name":"未知分类","address":"上海市长宁区长宁支路"},{"poiid":"B2094655D26DAAF94999","title":"思巴洛克咖啡中山公园店","lon":"121.42617","lat":"31.22281","category":"65","category_name":"咖啡厅","address":"长宁区长宁路434号(近中山公园或江苏北路)"},{"poiid":"B2094750DA6BA4FC4692","title":"敦煌楼兰州拉面","lon":"121.429443","lat":"31.225271","category":"247","category_name":"餐饮美食","address":"长宁区长宁路436号(近江苏路)"},{"poiid":"B2094654D565A5FE469F","title":"亨通国际大厦","lon":"121.427","lat":"31.2248","category":"46","category_name":"楼宇","address":"长宁路1158号贝多芬广场618室"},{"poiid":"B2094757D06FABFD449A","title":"有家川菜(江苏路店)","lon":"121.42983","lat":"31.22287","category":"71","category_name":"四川菜","address":"长宁区江苏路121号中西大厦2楼(武定西路口)"},{"poiid":"B209475CD264A3F54899","title":"地铁站","lon":"121.430015","lat":"31.221008","category":"36","category_name":"地铁站","address":"上海市 11号线交通大学站"},{"poiid":"B2094757D06AA3FC4892","title":"南西幼儿园","lon":"121.42988","lat":"31.22349","category":"57","category_name":"幼儿园","address":"静安区武定西路1488号(近江苏路)"},{"poiid":"B2094757D46DABF94299","title":"我和你","lon":"121.42715","lat":"31.22473","category":"76","category_name":"上海菜","address":"长宁区江苏北路30号-5(近长宁路)"},{"poiid":"B2094757DB68A1FE4692","title":"大马可","lon":"121.42893","lat":"31.219728","category":"500","category_name":"未知分类","address":"维景酒店一楼"},{"poiid":"B2094757D569A1FD4098","title":"十一月","lon":"121.429161","lat":"31.222702","category":"95","category_name":"日本料理","address":"长宁区江苏路98号-5号(近武定西路)"},{"poiid":"B2094757D568A0FA4099","title":"雅量(勃逊)LeBouchon","lon":"121.4296869","lat":"31.22351194","category":"247","category_name":"餐饮美食","address":"静安区武定西路1455号(近江苏路)"},{"poiid":"B2094757D068A3FA4298","title":"兆丰大厦","lon":"121.42636763","lat":"31.223258673","category":"46","category_name":"楼宇","address":"上海长宁区长宁路398号"},{"poiid":"B2094757D16BA2F94493","title":"鸡排英雄","lon":"121.42924758","lat":"31.222777285","category":"247","category_name":"餐饮美食","address":"上海长宁区武夷路433号"},{"poiid":"B2094757D064A6FB469F","title":"武定西路","lon":"121.430457886","lat":"31.2208304472","category":"500","category_name":"未知分类","address":"上海武定西路"},{"poiid":"B2094757D06AA6F94193","title":"96路中山公园地铁站站","lon":"121.43061463","lat":"31.221858417","category":"36","category_name":"地铁站","address":"上海96路中山公园地铁站终点站"},{"poiid":"B2094655D26AA7FF4699","title":"愚江家政","lon":"121.42899","lat":"31.2229","category":"247","category_name":"餐饮美食","address":"长宁区江苏路96号2楼(近长宁路)"},{"poiid":"B2094757D56CA4FF4498","title":"成田日本料理","lon":"121.430229054","lat":"31.221535793","category":"247","category_name":"餐饮美食","address":"江苏路225号近愚园路近市三女中"},{"poiid":"B2094757D764A5FF4899","title":"胖阿姨正宗朝鲜冷面 长宁路店","lon":"121.42613","lat":"31.22277","category":"96","category_name":"韩国料理","address":"长宁区长宁路436号"},{"poiid":"B2094757D16DA6FA459A","title":"国泰大厦","lon":"121.42901837812","lat":"31.22256943391","category":"252","category_name":"楼宇机构","address":"上海定西路1310弄4号"},{"poiid":"B2094757D169ABF9469A","title":"武定西路江苏路","lon":"121.429647586","lat":"31.2236403021","category":"500","category_name":"未知分类","address":"上海市武定西路靠近江苏路"},{"poiid":"B2094654DB65AAF94092","title":"中国建设银行江苏路支行","lon":"121.42949","lat":"31.22304","category":"150","category_name":"银行","address":"长宁区江苏路123号"},{"poiid":"B2094654D565A1F84292","title":"可的(江苏路)","lon":"121.43054","lat":"31.22137","category":"117","category_name":"便民商店/便利店","address":"江苏路225甲"},{"poiid":"B2094757D068AAFE499E","title":"珊珊小笼馆(长宁路店)","lon":"121.42666","lat":"31.22335","category":"68","category_name":"快餐厅","address":"长宁区长宁路396弄18号(长宁路江苏北路)"},{"poiid":"B2094750D56FAAFB489A","title":"星巴克","lon":"121.431","lat":"31.2192","category":"260","category_name":"其他","address":"长宁区愚园路1000号(近江苏路)"},{"poiid":"B2094757D16EA1FE4993","title":"尤品鲜","lon":"121.427138586","lat":"31.2236533024","category":"96","category_name":"韩国料理","address":"长宁区长宁路357号(近江苏路)"},{"poiid":"B2094757D56CA2F84199","title":"吉祥馄饨 愚园路","lon":"121.43168361992","lat":"31.222846426465","category":"247","category_name":"餐饮美食","address":"静安区愚园路580号(近镇宁路)"},{"poiid":"B2094654D565A6F84499","title":"长新小区","lon":"121.42639","lat":"31.22221","category":"47","category_name":"住宅区","address":"新村路349弄2-62号(双号)"},{"poiid":"B2094654D565A1FE469F","title":"快客(江苏路)","lon":"121.4289","lat":"31.22341","category":"117","category_name":"便民商店/便利店","address":"江苏路77"},{"poiid":"B2094750D76CA4FE429B","title":"妙寿司(江苏路店)","lon":"121.428","lat":"31.2241","category":"95","category_name":"日本料理","address":"长宁区江苏路585号(近延安西路)"},{"poiid":"B2094654DB6BA6F84799","title":"煲煲仔","lon":"121.42695599843","lat":"31.223134620432","category":"257","category_name":"中餐厅","address":"长宁区长宁路436号(江苏路口)"},{"poiid":"B2094757D66FA7FD479E","title":"新缘茶铺","lon":"121.43020358","lat":"31.221281256","category":"247","category_name":"餐饮美食","address":"长宁区江苏路160号"},{"poiid":"B2094757D165AAF5439D","title":"第1佳大鸡排(江苏路店)","lon":"121.428019","lat":"31.222606","category":"247","category_name":"餐饮美食","address":"上海江苏路96﹣5号"},{"poiid":"B2094654D565A1FA429E","title":"畅园","lon":"121.43178","lat":"31.22041","category":"47","category_name":"住宅区","address":"上海市普陀区长寿路998号"},{"poiid":"B2094757D064A0FA449A","title":"思竹足浴会所","lon":"121.42979164","lat":"31.221375437","category":"148","category_name":"美容美发店","address":"上海长寿路999弄达安花园66号2楼"},{"poiid":"B2094757D168ABFD479B","title":"静安区党校","lon":"121.42891858","lat":"31.224496318","category":"500","category_name":"未知分类","address":"上海市静安区1398弄16号"},{"poiid":"B2094757D064A3FF459D","title":"名光大厦","lon":"121.428","lat":"31.2221","category":"252","category_name":"楼宇机构","address":"上海定西路1279号"},{"poiid":"B2094757D06EAAFB4292","title":"江苏路地铁站","lon":"121.43143","lat":"31.219477","category":"36","category_name":"地铁站","address":"上海轨道交通,二号线,十一号线,轨交江苏路站,2,11"},{"poiid":"B2094757D06FA6FF4393","title":"上海市第三女子中学","lon":"121.43063","lat":"31.22276","category":"253","category_name":"校园生活","address":"长宁区江苏路155号(近愚园路)"},{"poiid":"B2094757D06AA1F9409A","title":"江苏路愚园路","lon":"121.430786586","lat":"31.2201002329","category":"500","category_name":"未知分类","address":"上海市"},{"poiid":"B209475CD564A7F8439E","title":"上海滩中信泰富店","lon":"121.45602","lat":"31.22851","category":"119","category_name":"商场","address":"\"南京西路1168号中信泰富广场，店铺号221.\r\n\""},{"poiid":"B2094757D06FA7F44898","title":"峥峥饮食","lon":"121.425010054","lat":"31.221689793","category":"257","category_name":"中餐厅","address":"长宁区长宁路478-2号(近华阳路)"},{"poiid":"B2094757D468ABFA4792","title":"和平官邸5号","lon":"121.432227","lat":"31.224611","category":"247","category_name":"餐饮美食","address":"静安区武定西路1317弄10号(近万航渡路)"},{"poiid":"B2094757D06FA5F54399","title":"吴记老锅底麻辣火锅(长宁路店)","lon":"121.42708","lat":"31.22361","category":"86","category_name":"火锅店","address":"长宁区长宁路345号(近江苏路)"},{"poiid":"B2094757D16EA6FD489C","title":"长宁区","lon":"121.426747322","lat":"31.220535541","category":"250","category_name":"公园户外","address":"上海长宁区区域"},{"poiid":"B2094757D069A0F5459C","title":"上海爱乐乐团","lon":"121.429227","lat":"31.223856","category":"179","category_name":"音乐厅","address":"静安区武定西路1498号"},{"poiid":"B2094757D068A6FD409F","title":"KIKIS炭烧","lon":"121.431169054","lat":"31.217912793","category":"269","category_name":"烧烤","address":"长宁区江苏路458号舜元弘基广场2楼(近宣化路)"},{"poiid":"B2094655D264A2F8489D","title":"小杨生煎馆","lon":"121.42765","lat":"31.22386","category":"257","category_name":"中餐厅","address":"长宁区长宁路341号(近江苏路)"},{"poiid":"B2094654D565A6F4479D","title":"兆仪大厦","lon":"121.429","lat":"31.222","category":"46","category_name":"楼宇","address":"定西路1281号"},{"poiid":"B2094757D068A4FF4298","title":"长峰大厦","lon":"121.42821704422","lat":"31.221813972967","category":"46","category_name":"楼宇","address":"上海定西路1277号"},{"poiid":"B2094757D06FABFE4493","title":"岳阳飘湘楼(江苏路店)","lon":"121.42742","lat":"31.22433","category":"77","category_name":"湖南菜","address":"长宁区江苏北路30-6号(长宁路江苏北路)"},{"poiid":"B2094757D068A5F94498","title":"长宁支路江苏北路","lon":"121.42757558","lat":"31.224833325","category":"500","category_name":"未知分类","address":"上海市长宁区长宁支路"},{"poiid":"B2094655D26DAAF94999","title":"思巴洛克咖啡中山公园店","lon":"121.42617","lat":"31.22281","category":"65","category_name":"咖啡厅","address":"长宁区长宁路434号(近中山公园或江苏北路)"},{"poiid":"B2094750DA6BA4FC4692","title":"敦煌楼兰州拉面","lon":"121.429443","lat":"31.225271","category":"247","category_name":"餐饮美食","address":"长宁区长宁路436号(近江苏路)"},{"poiid":"B2094654D565A5FE469F","title":"亨通国际大厦","lon":"121.427","lat":"31.2248","category":"46","category_name":"楼宇","address":"长宁路1158号贝多芬广场618室"},{"poiid":"B2094757D06FABFD449A","title":"有家川菜(江苏路店)","lon":"121.42983","lat":"31.22287","category":"71","category_name":"四川菜","address":"长宁区江苏路121号中西大厦2楼(武定西路口)"},{"poiid":"B209475CD264A3F54899","title":"地铁站","lon":"121.430015","lat":"31.221008","category":"36","category_name":"地铁站","address":"上海市 11号线交通大学站"},{"poiid":"B2094757D06AA3FC4892","title":"南西幼儿园","lon":"121.42988","lat":"31.22349","category":"57","category_name":"幼儿园","address":"静安区武定西路1488号(近江苏路)"},{"poiid":"B2094757D46DABF94299","title":"我和你","lon":"121.42715","lat":"31.22473","category":"76","category_name":"上海菜","address":"长宁区江苏北路30号-5(近长宁路)"},{"poiid":"B2094757DB68A1FE4692","title":"大马可","lon":"121.42893","lat":"31.219728","category":"500","category_name":"未知分类","address":"维景酒店一楼"},{"poiid":"B2094757D569A1FD4098","title":"十一月","lon":"121.429161","lat":"31.222702","category":"95","category_name":"日本料理","address":"长宁区江苏路98号-5号(近武定西路)"},{"poiid":"B2094757D568A0FA4099","title":"雅量(勃逊)LeBouchon","lon":"121.4296869","lat":"31.22351194","category":"247","category_name":"餐饮美食","address":"静安区武定西路1455号(近江苏路)"},{"poiid":"B2094757D068A3FA4298","title":"兆丰大厦","lon":"121.42636763","lat":"31.223258673","category":"46","category_name":"楼宇","address":"上海长宁区长宁路398号"},{"poiid":"B2094757D16BA2F94493","title":"鸡排英雄","lon":"121.42924758","lat":"31.222777285","category":"247","category_name":"餐饮美食","address":"上海长宁区武夷路433号"},{"poiid":"B2094757D064A6FB469F","title":"武定西路","lon":"121.430457886","lat":"31.2208304472","category":"500","category_name":"未知分类","address":"上海武定西路"},{"poiid":"B2094757D06AA6F94193","title":"96路中山公园地铁站站","lon":"121.43061463","lat":"31.221858417","category":"36","category_name":"地铁站","address":"上海96路中山公园地铁站终点站"},{"poiid":"B2094655D26AA7FF4699","title":"愚江家政","lon":"121.42899","lat":"31.2229","category":"247","category_name":"餐饮美食","address":"长宁区江苏路96号2楼(近长宁路)"},{"poiid":"B2094757D56CA4FF4498","title":"成田日本料理","lon":"121.430229054","lat":"31.221535793","category":"247","category_name":"餐饮美食","address":"江苏路225号近愚园路近市三女中"},{"poiid":"B2094757D764A5FF4899","title":"胖阿姨正宗朝鲜冷面 长宁路店","lon":"121.42613","lat":"31.22277","category":"96","category_name":"韩国料理","address":"长宁区长宁路436号"},{"poiid":"B2094757D16DA6FA459A","title":"国泰大厦","lon":"121.42901837812","lat":"31.22256943391","category":"252","category_name":"楼宇机构","address":"上海定西路1310弄4号"},{"poiid":"B2094757D169ABF9469A","title":"武定西路江苏路","lon":"121.429647586","lat":"31.2236403021","category":"500","category_name":"未知分类","address":"上海市武定西路靠近江苏路"},{"poiid":"B2094654DB65AAF94092","title":"中国建设银行江苏路支行","lon":"121.42949","lat":"31.22304","category":"150","category_name":"银行","address":"长宁区江苏路123号"},{"poiid":"B2094654D565A1F84292","title":"可的(江苏路)","lon":"121.43054","lat":"31.22137","category":"117","category_name":"便民商店/便利店","address":"江苏路225甲"},{"poiid":"B2094757D068AAFE499E","title":"珊珊小笼馆(长宁路店)","lon":"121.42666","lat":"31.22335","category":"68","category_name":"快餐厅","address":"长宁区长宁路396弄18号(长宁路江苏北路)"},{"poiid":"B2094750D56FAAFB489A","title":"星巴克","lon":"121.431","lat":"31.2192","category":"260","category_name":"其他","address":"长宁区愚园路1000号(近江苏路)"},{"poiid":"B2094757D16EA1FE4993","title":"尤品鲜","lon":"121.427138586","lat":"31.2236533024","category":"96","category_name":"韩国料理","address":"长宁区长宁路357号(近江苏路)"},{"poiid":"B2094757D56CA2F84199","title":"吉祥馄饨 愚园路","lon":"121.43168361992","lat":"31.222846426465","category":"247","category_name":"餐饮美食","address":"静安区愚园路580号(近镇宁路)"},{"poiid":"B2094654D565A6F84499","title":"长新小区","lon":"121.42639","lat":"31.22221","category":"47","category_name":"住宅区","address":"新村路349弄2-62号(双号)"},{"poiid":"B2094654D565A1FE469F","title":"快客(江苏路)","lon":"121.4289","lat":"31.22341","category":"117","category_name":"便民商店/便利店","address":"江苏路77"},{"poiid":"B2094750D76CA4FE429B","title":"妙寿司(江苏路店)","lon":"121.428","lat":"31.2241","category":"95","category_name":"日本料理","address":"长宁区江苏路585号(近延安西路)"},{"poiid":"B2094654DB6BA6F84799","title":"煲煲仔","lon":"121.42695599843","lat":"31.223134620432","category":"257","category_name":"中餐厅","address":"长宁区长宁路436号(江苏路口)"},{"poiid":"B2094757D66FA7FD479E","title":"新缘茶铺","lon":"121.43020358","lat":"31.221281256","category":"247","category_name":"餐饮美食","address":"长宁区江苏路160号"},{"poiid":"B2094757D165AAF5439D","title":"第1佳大鸡排(江苏路店)","lon":"121.428019","lat":"31.222606","category":"247","category_name":"餐饮美食","address":"上海江苏路96﹣5号"},{"poiid":"B2094654D565A1FA429E","title":"畅园","lon":"121.43178","lat":"31.22041","category":"47","category_name":"住宅区","address":"上海市普陀区长寿路998号"},{"poiid":"B2094757D064A0FA449A","title":"思竹足浴会所","lon":"121.42979164","lat":"31.221375437","category":"148","category_name":"美容美发店","address":"上海长寿路999弄达安花园66号2楼"},{"poiid":"B2094757D168ABFD479B","title":"静安区党校","lon":"121.42891858","lat":"31.224496318","category":"500","category_name":"未知分类","address":"上海市静安区1398弄16号"},{"poiid":"B2094757D064A3FF459D","title":"名光大厦","lon":"121.428","lat":"31.2221","category":"252","category_name":"楼宇机构","address":"上海定西路1279号"}]