[{"poiid":"B2094654DA69A7F4429F","title":"陆家嘴中心绿地","lon":"121.50614","lat":"31.23796","category":"202","category_name":"公园广场","address":"浦东新区陆家嘴东路160号(金茂大厦对面)"},{"poiid":"B2094655D268A4F9409F","title":"上海国金中心IFC","lon":"121.50226752034189","lat":"31.2362712719287","category":"119","category_name":"商场","address":"浦东新区世纪大道8号(近东泰路)"},{"poiid":"B2094757D06EAAF8419D","title":"国金百丽宫影院","lon":"121.504060766","lat":"31.2365280728","category":"178","category_name":"电影院","address":"上海浦东新区世纪大道8号国际金融中心B1-B2楼(东泰路世纪大道)"},{"poiid":"B209475CD564A7F84392","title":"上海滩浦东香格里拉店","lon":"121.50058","lat":"31.23634","category":"119","category_name":"商场","address":"浦东富成路33号香格里拉酒店内大堂层"},{"poiid":"B2094757D06EAAFF449F","title":"食尚港丽(国金店)","lon":"121.50596","lat":"31.23591","category":"72","category_name":"广东菜","address":"浦东新区世纪大道8号国金中心商场LG1-20号商铺(近东泰路)"},{"poiid":"B2094757D06EAAFF429C","title":"正斗粥面专家","lon":"121.50097","lat":"31.23665","category":"72","category_name":"广东菜","address":"浦东新区世纪大道8号国金中心D座L3楼L3-9室(近银城西路)"},{"poiid":"B2094750D26CA3FE4592","title":"鹿港小镇 正大店","lon":"121.5044996","lat":"31.2354647","category":"91","category_name":"台湾菜","address":"浦东新区陆家嘴西路168号正大广场8楼810室(近东方明珠)"},{"poiid":"B2094757D06FA3FC4392","title":"中银大厦","lon":"121.502753258","lat":"31.2385470983","category":"46","category_name":"楼宇","address":"上海浦东新区银城中路200号"},{"poiid":"B2094757D06FA4FB4799","title":"国金中心，CitySuper","lon":"121.503941738","lat":"31.2363154298","category":"500","category_name":"未知分类","address":"上海陆家嘴"},{"poiid":"B2094757D06FA4F54099","title":"炉匠(炉端烧•酒)","lon":"121.50304973","lat":"31.236487433","category":"269","category_name":"烧烤","address":"浦东新区世纪大道8号国金中心商场L4-22号商铺(近银城西路)"},{"poiid":"B2094757D06FA0FB439D","title":"银座梅林","lon":"121.50311726","lat":"31.236394374","category":"95","category_name":"日本料理","address":"浦东新区世纪大道8号国金中心商场L4楼(近浦东大道)"},{"poiid":"B2094757D06FA7FD4099","title":"Godiva(国金中心店)","lon":"121.502431321","lat":"31.2363452182","category":"67","category_name":"甜品店","address":"浦东新区陆家嘴世纪大道8号国际金融中心B2楼LG2-36、37号铺(近东泰路)"},{"poiid":"B2094757D164A3FD419A","title":"Baker&Spice(国金中心店)","lon":"121.50242473","lat":"31.237036445","category":"67","category_name":"甜品店","address":"浦东新区世纪大道8号国金中心IFC商场LG层16室(近浦东大道)"},{"poiid":"B2094757D06FA5FB4292","title":"安薇塔英国茶体系 国金中心店 Annvita English Tea Company","lon":"121.50131","lat":"31.23663","category":"260","category_name":"其他","address":"浦东新区世纪大道8号国金中心商场LG2楼(近浦东大道)"},{"poiid":"B2094757D068A7FF469C","title":"Cova","lon":"121.50131","lat":"31.23663","category":"67","category_name":"甜品店","address":"浦东新区世纪大道8号国金中心商场L1楼30号商铺(近东泰路)"},{"poiid":"B2094757D66EA0F9489C","title":"金茂大厦88层","lon":"121.50547323","lat":"31.236578735","category":"252","category_name":"楼宇机构","address":"上海金茂大厦"},{"poiid":"B2094757D06FA2FE4099","title":"Ritz-Carlton Flair Pub","lon":"121.505996","lat":"31.235922","category":"172","category_name":"酒吧","address":"上海浦东新区世纪大道8号丽思卡尔顿酒店58层"},{"poiid":"B2094750D268A4FC499B","title":"小金牛越南餐厅","lon":"121.5044996","lat":"31.2354647","category":"99","category_name":"泰国／越南菜品餐厅","address":"浦东新区陆家嘴西路168号正大广场8楼21号铺(近东方明珠)"},{"poiid":"B2094757D06FA6F9479A","title":"交银金融大厦","lon":"121.50331115","lat":"31.238565444","category":"46","category_name":"楼宇","address":"碧云东壹栋位于浦东金藏路51号(浙桥路口)"},{"poiid":"B2094750D26BA1FA4898","title":"玛托 MATTO","lon":"121.5044996","lat":"31.2354647","category":"94","category_name":"西餐厅","address":"浦东新区陆家嘴西路168号正大广场1楼GF50铺(近富城路)"},{"poiid":"B2094757D068A6FF4099","title":"Whittard of Chelsea","lon":"121.502784738","lat":"31.2368724417","category":"113","category_name":"冷饮店","address":"陆家嘴世纪大道8号上海国金中心D座四层L4-12室"},{"poiid":"B2094757DB68A3F9419D","title":"梅赛德斯-奔驰文化中心","lon":"121.50617587","lat":"31.23635451999999","category":"500","category_name":"未知分类","address":"世博大道1200号"},{"poiid":"B2094757D66CABFF4198","title":"蘇浙總會(国金中心店)","lon":"121.502735738","lat":"31.2373164511","category":"248","category_name":"生活娱乐","address":"上海浦东新区世纪大道8号国金中心L4"},{"poiid":"B2094757D16FA6FA459F","title":"陸家嘴","lon":"121.502214738","lat":"31.2382874718","category":"500","category_name":"未知分类","address":"上海市浦东新区丰和路"},{"poiid":"B2094757D06FA7FD4799","title":"圣久代","lon":"121.502195738","lat":"31.2372974507","category":"113","category_name":"冷饮店","address":"浦东新区世纪大道8号国金中心IFC商场LG2(近CitySuper)"},{"poiid":"B2094757D16CA2FF4899","title":"麦当劳国金中心店","lon":"121.50513081","lat":"31.236093145","category":"68","category_name":"快餐厅","address":"浦东新区世纪大道8号国金中心商场LG1-17号商铺(近东泰路)"},{"poiid":"B2094757D068A0F9449A","title":"上海国金中心苹果旗舰店","lon":"121.503650738","lat":"31.2357334174","category":"500","category_name":"未知分类","address":"上海"},{"poiid":"B2094757D468A7F54892","title":"丽思卡尔顿大堂酒廊 Aura","lon":"121.50596","lat":"31.23591","category":"172","category_name":"酒吧","address":"浦东新区世纪大道8号上海国金中心丽思卡尔顿酒店(东泰路世纪大道)"},{"poiid":"B2094750DB6DA0FC459A","title":"一風堂（IPPUDO SH）","lon":"121.50502","lat":"31.235397","category":"247","category_name":"餐饮美食","address":null},{"poiid":"B2094757D16DAAFB4693","title":"ifc俏江南","lon":"121.503631738","lat":"31.2372784503","category":"500","category_name":"未知分类","address":"上海市浦东新区世纪大道"},{"poiid":"B2094751D56DA6F4479F","title":"ifc 一风堂","lon":"121.504761","lat":"31.235413","category":"247","category_name":"餐饮美食","address":"上海浦东新区世纪大道8号国金中心LG1 79-80"},{"poiid":"B2094757D06AABF4439D","title":"釜山料理","lon":"121.50271673","lat":"31.236967443","category":"247","category_name":"餐饮美食","address":"上海世纪大道8号国金中心商场4楼"},{"poiid":"B2094757D06BA1FC429F","title":"科瓦齿科(金茂店)","lon":"121.505166736","lat":"31.235647382","category":"162","category_name":"医院","address":"浦东新区世纪大道88号金茂大厦裙房时尚生活中心3N1-3N3(近二号线陆家嘴站)"},{"poiid":"B2094757D16CA2FA439B","title":"品面","lon":"121.502659738","lat":"31.2365974358","category":"68","category_name":"快餐厅","address":"浦东新区世纪大道8号国金中心商场LG2楼B座11号(近正大广场)"},{"poiid":"B2094757D06FA1FB429E","title":"鱿鱼烧みなせん","lon":"121.50348773","lat":"31.237087446","category":"95","category_name":"日本料理","address":"浦东新区世纪大道8号国金中心LG2-B2商铺(近东泰路)"},{"poiid":"B2094757D068AAFC459E","title":"DQ(冰雪皇后)陆家嘴店","lon":"121.506171738","lat":"31.2361194256","category":"113","category_name":"冷饮店","address":"上海市浦东新区世纪大道2F-55(陆家嘴天桥)"},{"poiid":"B2094757D16AA0FB419D","title":"交通银行总行（交银金融大厦）","lon":"121.503625","lat":"31.238935","category":"150","category_name":"银行","address":"浦东新区银城中路188号交银金融大厦(近东园路)"},{"poiid":"B2094757D06AA0FE4093","title":"LV ifc","lon":"121.50325473","lat":"31.236260428","category":"500","category_name":"未知分类","address":"上海陸家嘴國金"},{"poiid":"B2094757D76AA1FF4193","title":"大阪章鱼小丸子","lon":"121.50097","lat":"31.23665","category":"68","category_name":"快餐厅","address":"浦东新区世纪大道8号国金中心商场LG2楼B-7室(近东泰路)"},{"poiid":"B209475DDB6CA0F94899","title":"糖纸","lon":"121.504615","lat":"31.235277","category":"247","category_name":"餐饮美食","address":"上海市 陆家嘴正大广场3楼"},{"poiid":"B2094757D068A5FA4492","title":"苏浙总会","lon":"121.50131","lat":"31.23663","category":"74","category_name":"江苏菜","address":"浦东新区世纪大道8号国金中心4楼(近银城中路)"},{"poiid":"B2094654DA6FA7FD409D","title":"中国银行上海市分行","lon":"121.50331","lat":"31.23856","category":"150","category_name":"银行","address":"银城中路200号中银大厦8、18-21、29、46-48层"},{"poiid":"B2094757D069A6FB499D","title":"Jean Paul Hevin Chocolatier","lon":"121.50301273","lat":"31.236320429","category":"67","category_name":"甜品店","address":"浦东新区世纪大道8号上海国金中心L2-35室(近银城中路)"},{"poiid":"B209475DD56DA2FB4698","title":"泰亭泰国时尚餐厅","lon":"121.503379","lat":"31.239639","category":"247","category_name":"餐饮美食","address":"上海市 陆家嘴滨江大道2600号(近东园路)"},{"poiid":"B2094757D16CA2FD4493","title":"洋食寅八轩","lon":"121.50768","lat":"31.23495","category":"68","category_name":"快餐厅","address":"浦东新区世纪大道100号环球金融中心B1楼B106-2(近东泰路)"},{"poiid":"B2094757D06BA7FC4498","title":"甜沁 国金店 Lis Dessert","lon":"121.50097","lat":"31.23665","category":"67","category_name":"甜品店","address":"浦东新区世纪大道8号国金中心商场LG2楼(近东泰路)"},{"poiid":"B2094757D06FA5F9499D","title":"i.t(国金中心店)","lon":"121.5059623","lat":"31.2359135","category":"141","category_name":"服装鞋帽皮具店","address":"浦东新区世纪大道8号国金中心商场LG1楼(近东泰路)"},{"poiid":"B2094757D064A7FE479E","title":"飘六","lon":"121.503125738","lat":"31.2366399367","category":"249","category_name":"购物服务","address":"上海国金中心LG2"},{"poiid":"B209475CD36FA5FD459B","title":"一風堂拉面  Ippudo","lon":"121.50218","lat":"31.23644","category":"95","category_name":"日本料理","address":"世纪大道8号国金中心LG1-79-80号(近正大广场)"},{"poiid":"B2094753D568A7FF469E","title":"金牌外婆家","lon":"121.50476","lat":"31.235616","category":"247","category_name":"餐饮美食","address":"上海市 国金"},{"poiid":"B2094654DA69A7F4429F","title":"陆家嘴中心绿地","lon":"121.50614","lat":"31.23796","category":"202","category_name":"公园广场","address":"浦东新区陆家嘴东路160号(金茂大厦对面)"},{"poiid":"B2094655D268A4F9409F","title":"上海国金中心IFC","lon":"121.50226752034189","lat":"31.2362712719287","category":"119","category_name":"商场","address":"浦东新区世纪大道8号(近东泰路)"},{"poiid":"B2094757D06EAAF8419D","title":"国金百丽宫影院","lon":"121.504060766","lat":"31.2365280728","category":"178","category_name":"电影院","address":"上海浦东新区世纪大道8号国际金融中心B1-B2楼(东泰路世纪大道)"},{"poiid":"B209475CD564A7F84392","title":"上海滩浦东香格里拉店","lon":"121.50058","lat":"31.23634","category":"119","category_name":"商场","address":"浦东富成路33号香格里拉酒店内大堂层"},{"poiid":"B2094757D06EAAFF449F","title":"食尚港丽(国金店)","lon":"121.50596","lat":"31.23591","category":"72","category_name":"广东菜","address":"浦东新区世纪大道8号国金中心商场LG1-20号商铺(近东泰路)"},{"poiid":"B2094757D06EAAFF429C","title":"正斗粥面专家","lon":"121.50097","lat":"31.23665","category":"72","category_name":"广东菜","address":"浦东新区世纪大道8号国金中心D座L3楼L3-9室(近银城西路)"},{"poiid":"B2094750D26CA3FE4592","title":"鹿港小镇 正大店","lon":"121.5044996","lat":"31.2354647","category":"91","category_name":"台湾菜","address":"浦东新区陆家嘴西路168号正大广场8楼810室(近东方明珠)"},{"poiid":"B2094757D06FA3FC4392","title":"中银大厦","lon":"121.502753258","lat":"31.2385470983","category":"46","category_name":"楼宇","address":"上海浦东新区银城中路200号"},{"poiid":"B2094757D06FA4FB4799","title":"国金中心，CitySuper","lon":"121.503941738","lat":"31.2363154298","category":"500","category_name":"未知分类","address":"上海陆家嘴"},{"poiid":"B2094757D06FA4F54099","title":"炉匠(炉端烧•酒)","lon":"121.50304973","lat":"31.236487433","category":"269","category_name":"烧烤","address":"浦东新区世纪大道8号国金中心商场L4-22号商铺(近银城西路)"},{"poiid":"B2094757D06FA0FB439D","title":"银座梅林","lon":"121.50311726","lat":"31.236394374","category":"95","category_name":"日本料理","address":"浦东新区世纪大道8号国金中心商场L4楼(近浦东大道)"},{"poiid":"B2094757D06FA7FD4099","title":"Godiva(国金中心店)","lon":"121.502431321","lat":"31.2363452182","category":"67","category_name":"甜品店","address":"浦东新区陆家嘴世纪大道8号国际金融中心B2楼LG2-36、37号铺(近东泰路)"},{"poiid":"B2094757D164A3FD419A","title":"Baker&Spice(国金中心店)","lon":"121.50242473","lat":"31.237036445","category":"67","category_name":"甜品店","address":"浦东新区世纪大道8号国金中心IFC商场LG层16室(近浦东大道)"},{"poiid":"B2094757D06FA5FB4292","title":"安薇塔英国茶体系 国金中心店 Annvita English Tea Company","lon":"121.50131","lat":"31.23663","category":"260","category_name":"其他","address":"浦东新区世纪大道8号国金中心商场LG2楼(近浦东大道)"},{"poiid":"B2094757D068A7FF469C","title":"Cova","lon":"121.50131","lat":"31.23663","category":"67","category_name":"甜品店","address":"浦东新区世纪大道8号国金中心商场L1楼30号商铺(近东泰路)"},{"poiid":"B2094757D66EA0F9489C","title":"金茂大厦88层","lon":"121.50547323","lat":"31.236578735","category":"252","category_name":"楼宇机构","address":"上海金茂大厦"},{"poiid":"B2094757D06FA2FE4099","title":"Ritz-Carlton Flair Pub","lon":"121.505996","lat":"31.235922","category":"172","category_name":"酒吧","address":"上海浦东新区世纪大道8号丽思卡尔顿酒店58层"},{"poiid":"B2094750D268A4FC499B","title":"小金牛越南餐厅","lon":"121.5044996","lat":"31.2354647","category":"99","category_name":"泰国／越南菜品餐厅","address":"浦东新区陆家嘴西路168号正大广场8楼21号铺(近东方明珠)"},{"poiid":"B2094757D06FA6F9479A","title":"交银金融大厦","lon":"121.50331115","lat":"31.238565444","category":"46","category_name":"楼宇","address":"碧云东壹栋位于浦东金藏路51号(浙桥路口)"},{"poiid":"B2094750D26BA1FA4898","title":"玛托 MATTO","lon":"121.5044996","lat":"31.2354647","category":"94","category_name":"西餐厅","address":"浦东新区陆家嘴西路168号正大广场1楼GF50铺(近富城路)"},{"poiid":"B2094757D068A6FF4099","title":"Whittard of Chelsea","lon":"121.502784738","lat":"31.2368724417","category":"113","category_name":"冷饮店","address":"陆家嘴世纪大道8号上海国金中心D座四层L4-12室"},{"poiid":"B2094757DB68A3F9419D","title":"梅赛德斯-奔驰文化中心","lon":"121.50617587","lat":"31.23635451999999","category":"500","category_name":"未知分类","address":"世博大道1200号"},{"poiid":"B2094757D66CABFF4198","title":"蘇浙總會(国金中心店)","lon":"121.502735738","lat":"31.2373164511","category":"248","category_name":"生活娱乐","address":"上海浦东新区世纪大道8号国金中心L4"},{"poiid":"B2094757D16FA6FA459F","title":"陸家嘴","lon":"121.502214738","lat":"31.2382874718","category":"500","category_name":"未知分类","address":"上海市浦东新区丰和路"},{"poiid":"B2094757D06FA7FD4799","title":"圣久代","lon":"121.502195738","lat":"31.2372974507","category":"113","category_name":"冷饮店","address":"浦东新区世纪大道8号国金中心IFC商场LG2(近CitySuper)"},{"poiid":"B2094757D16CA2FF4899","title":"麦当劳国金中心店","lon":"121.50513081","lat":"31.236093145","category":"68","category_name":"快餐厅","address":"浦东新区世纪大道8号国金中心商场LG1-17号商铺(近东泰路)"},{"poiid":"B2094757D068A0F9449A","title":"上海国金中心苹果旗舰店","lon":"121.503650738","lat":"31.2357334174","category":"500","category_name":"未知分类","address":"上海"},{"poiid":"B2094757D468A7F54892","title":"丽思卡尔顿大堂酒廊 Aura","lon":"121.50596","lat":"31.23591","category":"172","category_name":"酒吧","address":"浦东新区世纪大道8号上海国金中心丽思卡尔顿酒店(东泰路世纪大道)"},{"poiid":"B2094750DB6DA0FC459A","title":"一風堂（IPPUDO SH）","lon":"121.50502","lat":"31.235397","category":"247","category_name":"餐饮美食","address":null},{"poiid":"B2094757D16DAAFB4693","title":"ifc俏江南","lon":"121.503631738","lat":"31.2372784503","category":"500","category_name":"未知分类","address":"上海市浦东新区世纪大道"},{"poiid":"B2094751D56DA6F4479F","title":"ifc 一风堂","lon":"121.504761","lat":"31.235413","category":"247","category_name":"餐饮美食","address":"上海浦东新区世纪大道8号国金中心LG1 79-80"},{"poiid":"B2094757D06AABF4439D","title":"釜山料理","lon":"121.50271673","lat":"31.236967443","category":"247","category_name":"餐饮美食","address":"上海世纪大道8号国金中心商场4楼"},{"poiid":"B2094757D06BA1FC429F","title":"科瓦齿科(金茂店)","lon":"121.505166736","lat":"31.235647382","category":"162","category_name":"医院","address":"浦东新区世纪大道88号金茂大厦裙房时尚生活中心3N1-3N3(近二号线陆家嘴站)"},{"poiid":"B2094757D16CA2FA439B","title":"品面","lon":"121.502659738","lat":"31.2365974358","category":"68","category_name":"快餐厅","address":"浦东新区世纪大道8号国金中心商场LG2楼B座11号(近正大广场)"},{"poiid":"B2094757D06FA1FB429E","title":"鱿鱼烧みなせん","lon":"121.50348773","lat":"31.237087446","category":"95","category_name":"日本料理","address":"浦东新区世纪大道8号国金中心LG2-B2商铺(近东泰路)"},{"poiid":"B2094757D068AAFC459E","title":"DQ(冰雪皇后)陆家嘴店","lon":"121.506171738","lat":"31.2361194256","category":"113","category_name":"冷饮店","address":"上海市浦东新区世纪大道2F-55(陆家嘴天桥)"},{"poiid":"B2094757D16AA0FB419D","title":"交通银行总行（交银金融大厦）","lon":"121.503625","lat":"31.238935","category":"150","category_name":"银行","address":"浦东新区银城中路188号交银金融大厦(近东园路)"},{"poiid":"B2094757D06AA0FE4093","title":"LV ifc","lon":"121.50325473","lat":"31.236260428","category":"500","category_name":"未知分类","address":"上海陸家嘴國金"},{"poiid":"B2094757D76AA1FF4193","title":"大阪章鱼小丸子","lon":"121.50097","lat":"31.23665","category":"68","category_name":"快餐厅","address":"浦东新区世纪大道8号国金中心商场LG2楼B-7室(近东泰路)"},{"poiid":"B209475DDB6CA0F94899","title":"糖纸","lon":"121.504615","lat":"31.235277","category":"247","category_name":"餐饮美食","address":"上海市 陆家嘴正大广场3楼"},{"poiid":"B2094757D068A5FA4492","title":"苏浙总会","lon":"121.50131","lat":"31.23663","category":"74","category_name":"江苏菜","address":"浦东新区世纪大道8号国金中心4楼(近银城中路)"},{"poiid":"B2094654DA6FA7FD409D","title":"中国银行上海市分行","lon":"121.50331","lat":"31.23856","category":"150","category_name":"银行","address":"银城中路200号中银大厦8、18-21、29、46-48层"},{"poiid":"B2094757D069A6FB499D","title":"Jean Paul Hevin Chocolatier","lon":"121.50301273","lat":"31.236320429","category":"67","category_name":"甜品店","address":"浦东新区世纪大道8号上海国金中心L2-35室(近银城中路)"},{"poiid":"B209475DD56DA2FB4698","title":"泰亭泰国时尚餐厅","lon":"121.503379","lat":"31.239639","category":"247","category_name":"餐饮美食","address":"上海市 陆家嘴滨江大道2600号(近东园路)"},{"poiid":"B2094757D16CA2FD4493","title":"洋食寅八轩","lon":"121.50768","lat":"31.23495","category":"68","category_name":"快餐厅","address":"浦东新区世纪大道100号环球金融中心B1楼B106-2(近东泰路)"},{"poiid":"B2094757D06BA7FC4498","title":"甜沁 国金店 Lis Dessert","lon":"121.50097","lat":"31.23665","category":"67","category_name":"甜品店","address":"浦东新区世纪大道8号国金中心商场LG2楼(近东泰路)"},{"poiid":"B2094757D06FA5F9499D","title":"i.t(国金中心店)","lon":"121.5059623","lat":"31.2359135","category":"141","category_name":"服装鞋帽皮具店","address":"浦东新区世纪大道8号国金中心商场LG1楼(近东泰路)"},{"poiid":"B2094757D064A7FE479E","title":"飘六","lon":"121.503125738","lat":"31.2366399367","category":"249","category_name":"购物服务","address":"上海国金中心LG2"},{"poiid":"B209475CD36FA5FD459B","title":"一風堂拉面  Ippudo","lon":"121.50218","lat":"31.23644","category":"95","category_name":"日本料理","address":"世纪大道8号国金中心LG1-79-80号(近正大广场)"},{"poiid":"B2094753D568A7FF469E","title":"金牌外婆家","lon":"121.50476","lat":"31.235616","category":"247","category_name":"餐饮美食","address":"上海市 国金"},{"poiid":"B2094654DA69A7F4429F","title":"陆家嘴中心绿地","lon":"121.50614","lat":"31.23796","category":"202","category_name":"公园广场","address":"浦东新区陆家嘴东路160号(金茂大厦对面)"},{"poiid":"B2094655D268A4F9409F","title":"上海国金中心IFC","lon":"121.50226752034189","lat":"31.2362712719287","category":"119","category_name":"商场","address":"浦东新区世纪大道8号(近东泰路)"},{"poiid":"B2094757D06EAAF8419D","title":"国金百丽宫影院","lon":"121.504060766","lat":"31.2365280728","category":"178","category_name":"电影院","address":"上海浦东新区世纪大道8号国际金融中心B1-B2楼(东泰路世纪大道)"},{"poiid":"B209475CD564A7F84392","title":"上海滩浦东香格里拉店","lon":"121.50058","lat":"31.23634","category":"119","category_name":"商场","address":"浦东富成路33号香格里拉酒店内大堂层"},{"poiid":"B2094757D06EAAFF449F","title":"食尚港丽(国金店)","lon":"121.50596","lat":"31.23591","category":"72","category_name":"广东菜","address":"浦东新区世纪大道8号国金中心商场LG1-20号商铺(近东泰路)"},{"poiid":"B2094757D06EAAFF429C","title":"正斗粥面专家","lon":"121.50097","lat":"31.23665","category":"72","category_name":"广东菜","address":"浦东新区世纪大道8号国金中心D座L3楼L3-9室(近银城西路)"},{"poiid":"B2094750D26CA3FE4592","title":"鹿港小镇 正大店","lon":"121.5044996","lat":"31.2354647","category":"91","category_name":"台湾菜","address":"浦东新区陆家嘴西路168号正大广场8楼810室(近东方明珠)"},{"poiid":"B2094757D06FA3FC4392","title":"中银大厦","lon":"121.502753258","lat":"31.2385470983","category":"46","category_name":"楼宇","address":"上海浦东新区银城中路200号"},{"poiid":"B2094757D06FA4FB4799","title":"国金中心，CitySuper","lon":"121.503941738","lat":"31.2363154298","category":"500","category_name":"未知分类","address":"上海陆家嘴"},{"poiid":"B2094757D06FA4F54099","title":"炉匠(炉端烧•酒)","lon":"121.50304973","lat":"31.236487433","category":"269","category_name":"烧烤","address":"浦东新区世纪大道8号国金中心商场L4-22号商铺(近银城西路)"},{"poiid":"B2094757D06FA0FB439D","title":"银座梅林","lon":"121.50311726","lat":"31.236394374","category":"95","category_name":"日本料理","address":"浦东新区世纪大道8号国金中心商场L4楼(近浦东大道)"},{"poiid":"B2094757D06FA7FD4099","title":"Godiva(国金中心店)","lon":"121.502431321","lat":"31.2363452182","category":"67","category_name":"甜品店","address":"浦东新区陆家嘴世纪大道8号国际金融中心B2楼LG2-36、37号铺(近东泰路)"},{"poiid":"B2094757D164A3FD419A","title":"Baker&Spice(国金中心店)","lon":"121.50242473","lat":"31.237036445","category":"67","category_name":"甜品店","address":"浦东新区世纪大道8号国金中心IFC商场LG层16室(近浦东大道)"},{"poiid":"B2094757D06FA5FB4292","title":"安薇塔英国茶体系 国金中心店 Annvita English Tea Company","lon":"121.50131","lat":"31.23663","category":"260","category_name":"其他","address":"浦东新区世纪大道8号国金中心商场LG2楼(近浦东大道)"},{"poiid":"B2094757D068A7FF469C","title":"Cova","lon":"121.50131","lat":"31.23663","category":"67","category_name":"甜品店","address":"浦东新区世纪大道8号国金中心商场L1楼30号商铺(近东泰路)"},{"poiid":"B2094757D66EA0F9489C","title":"金茂大厦88层","lon":"121.50547323","lat":"31.236578735","category":"252","category_name":"楼宇机构","address":"上海金茂大厦"},{"poiid":"B2094757D06FA2FE4099","title":"Ritz-Carlton Flair Pub","lon":"121.505996","lat":"31.235922","category":"172","category_name":"酒吧","address":"上海浦东新区世纪大道8号丽思卡尔顿酒店58层"},{"poiid":"B2094750D268A4FC499B","title":"小金牛越南餐厅","lon":"121.5044996","lat":"31.2354647","category":"99","category_name":"泰国／越南菜品餐厅","address":"浦东新区陆家嘴西路168号正大广场8楼21号铺(近东方明珠)"},{"poiid":"B2094757D06FA6F9479A","title":"交银金融大厦","lon":"121.50331115","lat":"31.238565444","category":"46","category_name":"楼宇","address":"碧云东壹栋位于浦东金藏路51号(浙桥路口)"},{"poiid":"B2094750D26BA1FA4898","title":"玛托 MATTO","lon":"121.5044996","lat":"31.2354647","category":"94","category_name":"西餐厅","address":"浦东新区陆家嘴西路168号正大广场1楼GF50铺(近富城路)"},{"poiid":"B2094757D068A6FF4099","title":"Whittard of Chelsea","lon":"121.502784738","lat":"31.2368724417","category":"113","category_name":"冷饮店","address":"陆家嘴世纪大道8号上海国金中心D座四层L4-12室"},{"poiid":"B2094757DB68A3F9419D","title":"梅赛德斯-奔驰文化中心","lon":"121.50617587","lat":"31.23635451999999","category":"500","category_name":"未知分类","address":"世博大道1200号"},{"poiid":"B2094757D66CABFF4198","title":"蘇浙總會(国金中心店)","lon":"121.502735738","lat":"31.2373164511","category":"248","category_name":"生活娱乐","address":"上海浦东新区世纪大道8号国金中心L4"},{"poiid":"B2094757D16FA6FA459F","title":"陸家嘴","lon":"121.502214738","lat":"31.2382874718","category":"500","category_name":"未知分类","address":"上海市浦东新区丰和路"},{"poiid":"B2094757D06FA7FD4799","title":"圣久代","lon":"121.502195738","lat":"31.2372974507","category":"113","category_name":"冷饮店","address":"浦东新区世纪大道8号国金中心IFC商场LG2(近CitySuper)"},{"poiid":"B2094757D16CA2FF4899","title":"麦当劳国金中心店","lon":"121.50513081","lat":"31.236093145","category":"68","category_name":"快餐厅","address":"浦东新区世纪大道8号国金中心商场LG1-17号商铺(近东泰路)"},{"poiid":"B2094757D068A0F9449A","title":"上海国金中心苹果旗舰店","lon":"121.503650738","lat":"31.2357334174","category":"500","category_name":"未知分类","address":"上海"},{"poiid":"B2094757D468A7F54892","title":"丽思卡尔顿大堂酒廊 Aura","lon":"121.50596","lat":"31.23591","category":"172","category_name":"酒吧","address":"浦东新区世纪大道8号上海国金中心丽思卡尔顿酒店(东泰路世纪大道)"},{"poiid":"B2094750DB6DA0FC459A","title":"一風堂（IPPUDO SH）","lon":"121.50502","lat":"31.235397","category":"247","category_name":"餐饮美食","address":null},{"poiid":"B2094757D16DAAFB4693","title":"ifc俏江南","lon":"121.503631738","lat":"31.2372784503","category":"500","category_name":"未知分类","address":"上海市浦东新区世纪大道"},{"poiid":"B2094751D56DA6F4479F","title":"ifc 一风堂","lon":"121.504761","lat":"31.235413","category":"247","category_name":"餐饮美食","address":"上海浦东新区世纪大道8号国金中心LG1 79-80"},{"poiid":"B2094757D06AABF4439D","title":"釜山料理","lon":"121.50271673","lat":"31.236967443","category":"247","category_name":"餐饮美食","address":"上海世纪大道8号国金中心商场4楼"},{"poiid":"B2094757D06BA1FC429F","title":"科瓦齿科(金茂店)","lon":"121.505166736","lat":"31.235647382","category":"162","category_name":"医院","address":"浦东新区世纪大道88号金茂大厦裙房时尚生活中心3N1-3N3(近二号线陆家嘴站)"},{"poiid":"B2094757D16CA2FA439B","title":"品面","lon":"121.502659738","lat":"31.2365974358","category":"68","category_name":"快餐厅","address":"浦东新区世纪大道8号国金中心商场LG2楼B座11号(近正大广场)"},{"poiid":"B2094757D06FA1FB429E","title":"鱿鱼烧みなせん","lon":"121.50348773","lat":"31.237087446","category":"95","category_name":"日本料理","address":"浦东新区世纪大道8号国金中心LG2-B2商铺(近东泰路)"},{"poiid":"B2094757D068AAFC459E","title":"DQ(冰雪皇后)陆家嘴店","lon":"121.506171738","lat":"31.2361194256","category":"113","category_name":"冷饮店","address":"上海市浦东新区世纪大道2F-55(陆家嘴天桥)"},{"poiid":"B2094757D16AA0FB419D","title":"交通银行总行（交银金融大厦）","lon":"121.503625","lat":"31.238935","category":"150","category_name":"银行","address":"浦东新区银城中路188号交银金融大厦(近东园路)"},{"poiid":"B2094757D06AA0FE4093","title":"LV ifc","lon":"121.50325473","lat":"31.236260428","category":"500","category_name":"未知分类","address":"上海陸家嘴國金"},{"poiid":"B2094757D76AA1FF4193","title":"大阪章鱼小丸子","lon":"121.50097","lat":"31.23665","category":"68","category_name":"快餐厅","address":"浦东新区世纪大道8号国金中心商场LG2楼B-7室(近东泰路)"},{"poiid":"B209475DDB6CA0F94899","title":"糖纸","lon":"121.504615","lat":"31.235277","category":"247","category_name":"餐饮美食","address":"上海市 陆家嘴正大广场3楼"},{"poiid":"B2094757D068A5FA4492","title":"苏浙总会","lon":"121.50131","lat":"31.23663","category":"74","category_name":"江苏菜","address":"浦东新区世纪大道8号国金中心4楼(近银城中路)"},{"poiid":"B2094654DA6FA7FD409D","title":"中国银行上海市分行","lon":"121.50331","lat":"31.23856","category":"150","category_name":"银行","address":"银城中路200号中银大厦8、18-21、29、46-48层"},{"poiid":"B2094757D069A6FB499D","title":"Jean Paul Hevin Chocolatier","lon":"121.50301273","lat":"31.236320429","category":"67","category_name":"甜品店","address":"浦东新区世纪大道8号上海国金中心L2-35室(近银城中路)"},{"poiid":"B209475DD56DA2FB4698","title":"泰亭泰国时尚餐厅","lon":"121.503379","lat":"31.239639","category":"247","category_name":"餐饮美食","address":"上海市 陆家嘴滨江大道2600号(近东园路)"},{"poiid":"B2094757D16CA2FD4493","title":"洋食寅八轩","lon":"121.50768","lat":"31.23495","category":"68","category_name":"快餐厅","address":"浦东新区世纪大道100号环球金融中心B1楼B106-2(近东泰路)"},{"poiid":"B2094757D06BA7FC4498","title":"甜沁 国金店 Lis Dessert","lon":"121.50097","lat":"31.23665","category":"67","category_name":"甜品店","address":"浦东新区世纪大道8号国金中心商场LG2楼(近东泰路)"},{"poiid":"B2094757D06FA5F9499D","title":"i.t(国金中心店)","lon":"121.5059623","lat":"31.2359135","category":"141","category_name":"服装鞋帽皮具店","address":"浦东新区世纪大道8号国金中心商场LG1楼(近东泰路)"},{"poiid":"B2094757D064A7FE479E","title":"飘六","lon":"121.503125738","lat":"31.2366399367","category":"249","category_name":"购物服务","address":"上海国金中心LG2"},{"poiid":"B209475CD36FA5FD459B","title":"一風堂拉面  Ippudo","lon":"121.50218","lat":"31.23644","category":"95","category_name":"日本料理","address":"世纪大道8号国金中心LG1-79-80号(近正大广场)"},{"poiid":"B2094753D568A7FF469E","title":"金牌外婆家","lon":"121.50476","lat":"31.235616","category":"247","category_name":"餐饮美食","address":"上海市 国金"},{"poiid":"B2094654DA69A7F4429F","title":"陆家嘴中心绿地","lon":"121.50614","lat":"31.23796","category":"202","category_name":"公园广场","address":"浦东新区陆家嘴东路160号(金茂大厦对面)"},{"poiid":"B2094655D268A4F9409F","title":"上海国金中心IFC","lon":"121.50226752034189","lat":"31.2362712719287","category":"119","category_name":"商场","address":"浦东新区世纪大道8号(近东泰路)"},{"poiid":"B2094757D06EAAF8419D","title":"国金百丽宫影院","lon":"121.504060766","lat":"31.2365280728","category":"178","category_name":"电影院","address":"上海浦东新区世纪大道8号国际金融中心B1-B2楼(东泰路世纪大道)"},{"poiid":"B209475CD564A7F84392","title":"上海滩浦东香格里拉店","lon":"121.50058","lat":"31.23634","category":"119","category_name":"商场","address":"浦东富成路33号香格里拉酒店内大堂层"},{"poiid":"B2094757D06EAAFF449F","title":"食尚港丽(国金店)","lon":"121.50596","lat":"31.23591","category":"72","category_name":"广东菜","address":"浦东新区世纪大道8号国金中心商场LG1-20号商铺(近东泰路)"},{"poiid":"B2094757D06EAAFF429C","title":"正斗粥面专家","lon":"121.50097","lat":"31.23665","category":"72","category_name":"广东菜","address":"浦东新区世纪大道8号国金中心D座L3楼L3-9室(近银城西路)"},{"poiid":"B2094750D26CA3FE4592","title":"鹿港小镇 正大店","lon":"121.5044996","lat":"31.2354647","category":"91","category_name":"台湾菜","address":"浦东新区陆家嘴西路168号正大广场8楼810室(近东方明珠)"},{"poiid":"B2094757D06FA3FC4392","title":"中银大厦","lon":"121.502753258","lat":"31.2385470983","category":"46","category_name":"楼宇","address":"上海浦东新区银城中路200号"},{"poiid":"B2094757D06FA4FB4799","title":"国金中心，CitySuper","lon":"121.503941738","lat":"31.2363154298","category":"500","category_name":"未知分类","address":"上海陆家嘴"},{"poiid":"B2094757D06FA4F54099","title":"炉匠(炉端烧•酒)","lon":"121.50304973","lat":"31.236487433","category":"269","category_name":"烧烤","address":"浦东新区世纪大道8号国金中心商场L4-22号商铺(近银城西路)"},{"poiid":"B2094757D06FA0FB439D","title":"银座梅林","lon":"121.50311726","lat":"31.236394374","category":"95","category_name":"日本料理","address":"浦东新区世纪大道8号国金中心商场L4楼(近浦东大道)"},{"poiid":"B2094757D06FA7FD4099","title":"Godiva(国金中心店)","lon":"121.502431321","lat":"31.2363452182","category":"67","category_name":"甜品店","address":"浦东新区陆家嘴世纪大道8号国际金融中心B2楼LG2-36、37号铺(近东泰路)"},{"poiid":"B2094757D164A3FD419A","title":"Baker&Spice(国金中心店)","lon":"121.50242473","lat":"31.237036445","category":"67","category_name":"甜品店","address":"浦东新区世纪大道8号国金中心IFC商场LG层16室(近浦东大道)"},{"poiid":"B2094757D06FA5FB4292","title":"安薇塔英国茶体系 国金中心店 Annvita English Tea Company","lon":"121.50131","lat":"31.23663","category":"260","category_name":"其他","address":"浦东新区世纪大道8号国金中心商场LG2楼(近浦东大道)"},{"poiid":"B2094757D068A7FF469C","title":"Cova","lon":"121.50131","lat":"31.23663","category":"67","category_name":"甜品店","address":"浦东新区世纪大道8号国金中心商场L1楼30号商铺(近东泰路)"},{"poiid":"B2094757D66EA0F9489C","title":"金茂大厦88层","lon":"121.50547323","lat":"31.236578735","category":"252","category_name":"楼宇机构","address":"上海金茂大厦"},{"poiid":"B2094757D06FA2FE4099","title":"Ritz-Carlton Flair Pub","lon":"121.505996","lat":"31.235922","category":"172","category_name":"酒吧","address":"上海浦东新区世纪大道8号丽思卡尔顿酒店58层"},{"poiid":"B2094750D268A4FC499B","title":"小金牛越南餐厅","lon":"121.5044996","lat":"31.2354647","category":"99","category_name":"泰国／越南菜品餐厅","address":"浦东新区陆家嘴西路168号正大广场8楼21号铺(近东方明珠)"},{"poiid":"B2094757D06FA6F9479A","title":"交银金融大厦","lon":"121.50331115","lat":"31.238565444","category":"46","category_name":"楼宇","address":"碧云东壹栋位于浦东金藏路51号(浙桥路口)"},{"poiid":"B2094750D26BA1FA4898","title":"玛托 MATTO","lon":"121.5044996","lat":"31.2354647","category":"94","category_name":"西餐厅","address":"浦东新区陆家嘴西路168号正大广场1楼GF50铺(近富城路)"},{"poiid":"B2094757D068A6FF4099","title":"Whittard of Chelsea","lon":"121.502784738","lat":"31.2368724417","category":"113","category_name":"冷饮店","address":"陆家嘴世纪大道8号上海国金中心D座四层L4-12室"},{"poiid":"B2094757DB68A3F9419D","title":"梅赛德斯-奔驰文化中心","lon":"121.50617587","lat":"31.23635451999999","category":"500","category_name":"未知分类","address":"世博大道1200号"},{"poiid":"B2094757D66CABFF4198","title":"蘇浙總會(国金中心店)","lon":"121.502735738","lat":"31.2373164511","category":"248","category_name":"生活娱乐","address":"上海浦东新区世纪大道8号国金中心L4"},{"poiid":"B2094757D16FA6FA459F","title":"陸家嘴","lon":"121.502214738","lat":"31.2382874718","category":"500","category_name":"未知分类","address":"上海市浦东新区丰和路"},{"poiid":"B2094757D06FA7FD4799","title":"圣久代","lon":"121.502195738","lat":"31.2372974507","category":"113","category_name":"冷饮店","address":"浦东新区世纪大道8号国金中心IFC商场LG2(近CitySuper)"},{"poiid":"B2094757D16CA2FF4899","title":"麦当劳国金中心店","lon":"121.50513081","lat":"31.236093145","category":"68","category_name":"快餐厅","address":"浦东新区世纪大道8号国金中心商场LG1-17号商铺(近东泰路)"},{"poiid":"B2094757D068A0F9449A","title":"上海国金中心苹果旗舰店","lon":"121.503650738","lat":"31.2357334174","category":"500","category_name":"未知分类","address":"上海"},{"poiid":"B2094757D468A7F54892","title":"丽思卡尔顿大堂酒廊 Aura","lon":"121.50596","lat":"31.23591","category":"172","category_name":"酒吧","address":"浦东新区世纪大道8号上海国金中心丽思卡尔顿酒店(东泰路世纪大道)"},{"poiid":"B2094750DB6DA0FC459A","title":"一風堂（IPPUDO SH）","lon":"121.50502","lat":"31.235397","category":"247","category_name":"餐饮美食","address":null},{"poiid":"B2094757D16DAAFB4693","title":"ifc俏江南","lon":"121.503631738","lat":"31.2372784503","category":"500","category_name":"未知分类","address":"上海市浦东新区世纪大道"},{"poiid":"B2094751D56DA6F4479F","title":"ifc 一风堂","lon":"121.504761","lat":"31.235413","category":"247","category_name":"餐饮美食","address":"上海浦东新区世纪大道8号国金中心LG1 79-80"},{"poiid":"B2094757D06AABF4439D","title":"釜山料理","lon":"121.50271673","lat":"31.236967443","category":"247","category_name":"餐饮美食","address":"上海世纪大道8号国金中心商场4楼"},{"poiid":"B2094757D06BA1FC429F","title":"科瓦齿科(金茂店)","lon":"121.505166736","lat":"31.235647382","category":"162","category_name":"医院","address":"浦东新区世纪大道88号金茂大厦裙房时尚生活中心3N1-3N3(近二号线陆家嘴站)"},{"poiid":"B2094757D16CA2FA439B","title":"品面","lon":"121.502659738","lat":"31.2365974358","category":"68","category_name":"快餐厅","address":"浦东新区世纪大道8号国金中心商场LG2楼B座11号(近正大广场)"},{"poiid":"B2094757D06FA1FB429E","title":"鱿鱼烧みなせん","lon":"121.50348773","lat":"31.237087446","category":"95","category_name":"日本料理","address":"浦东新区世纪大道8号国金中心LG2-B2商铺(近东泰路)"},{"poiid":"B2094757D068AAFC459E","title":"DQ(冰雪皇后)陆家嘴店","lon":"121.506171738","lat":"31.2361194256","category":"113","category_name":"冷饮店","address":"上海市浦东新区世纪大道2F-55(陆家嘴天桥)"},{"poiid":"B2094757D16AA0FB419D","title":"交通银行总行（交银金融大厦）","lon":"121.503625","lat":"31.238935","category":"150","category_name":"银行","address":"浦东新区银城中路188号交银金融大厦(近东园路)"},{"poiid":"B2094757D06AA0FE4093","title":"LV ifc","lon":"121.50325473","lat":"31.236260428","category":"500","category_name":"未知分类","address":"上海陸家嘴國金"},{"poiid":"B2094757D76AA1FF4193","title":"大阪章鱼小丸子","lon":"121.50097","lat":"31.23665","category":"68","category_name":"快餐厅","address":"浦东新区世纪大道8号国金中心商场LG2楼B-7室(近东泰路)"},{"poiid":"B209475DDB6CA0F94899","title":"糖纸","lon":"121.504615","lat":"31.235277","category":"247","category_name":"餐饮美食","address":"上海市 陆家嘴正大广场3楼"},{"poiid":"B2094757D068A5FA4492","title":"苏浙总会","lon":"121.50131","lat":"31.23663","category":"74","category_name":"江苏菜","address":"浦东新区世纪大道8号国金中心4楼(近银城中路)"},{"poiid":"B2094654DA6FA7FD409D","title":"中国银行上海市分行","lon":"121.50331","lat":"31.23856","category":"150","category_name":"银行","address":"银城中路200号中银大厦8、18-21、29、46-48层"},{"poiid":"B2094757D069A6FB499D","title":"Jean Paul Hevin Chocolatier","lon":"121.50301273","lat":"31.236320429","category":"67","category_name":"甜品店","address":"浦东新区世纪大道8号上海国金中心L2-35室(近银城中路)"},{"poiid":"B209475DD56DA2FB4698","title":"泰亭泰国时尚餐厅","lon":"121.503379","lat":"31.239639","category":"247","category_name":"餐饮美食","address":"上海市 陆家嘴滨江大道2600号(近东园路)"},{"poiid":"B2094757D16CA2FD4493","title":"洋食寅八轩","lon":"121.50768","lat":"31.23495","category":"68","category_name":"快餐厅","address":"浦东新区世纪大道100号环球金融中心B1楼B106-2(近东泰路)"},{"poiid":"B2094757D06BA7FC4498","title":"甜沁 国金店 Lis Dessert","lon":"121.50097","lat":"31.23665","category":"67","category_name":"甜品店","address":"浦东新区世纪大道8号国金中心商场LG2楼(近东泰路)"},{"poiid":"B2094757D06FA5F9499D","title":"i.t(国金中心店)","lon":"121.5059623","lat":"31.2359135","category":"141","category_name":"服装鞋帽皮具店","address":"浦东新区世纪大道8号国金中心商场LG1楼(近东泰路)"},{"poiid":"B2094757D064A7FE479E","title":"飘六","lon":"121.503125738","lat":"31.2366399367","category":"249","category_name":"购物服务","address":"上海国金中心LG2"},{"poiid":"B209475CD36FA5FD459B","title":"一風堂拉面  Ippudo","lon":"121.50218","lat":"31.23644","category":"95","category_name":"日本料理","address":"世纪大道8号国金中心LG1-79-80号(近正大广场)"},{"poiid":"B2094753D568A7FF469E","title":"金牌外婆家","lon":"121.50476","lat":"31.235616","category":"247","category_name":"餐饮美食","address":"上海市 国金"}]