[{"poiid":"B2094757D06FA7FD4293","title":"通北路海鲜","lon":"121.521346","lat":"31.25516","category":"68","category_name":"快餐厅","address":"杨浦区通北路176号(近平凉路)"},{"poiid":"B2094757D06FA0FA489F","title":"秦皇岛路轮渡站","lon":"121.51639044","lat":"31.249174771","category":"35","category_name":"长途汽车站","address":"上海虹口区秦皇岛路1号"},{"poiid":"B2094757D06FA3FA4993","title":"老四烧烤(通北路店)","lon":"121.52195","lat":"31.25455","category":"68","category_name":"快餐厅","address":"杨浦区通北路183号(平凉路口)"},{"poiid":"B209475CD564A7F84392","title":"上海滩浦东香格里拉店","lon":"121.50058","lat":"31.23634","category":"119","category_name":"商场","address":"浦东富成路33号香格里拉酒店内大堂层"},{"poiid":"B2094757D16CABF8439C","title":"老四海鮮","lon":"121.521366103","lat":"31.2538765766","category":"247","category_name":"餐饮美食","address":"上海楊浦區通北路"},{"poiid":"B2094757D065A5FA449E","title":"阿根廷庄园","lon":"121.517910103","lat":"31.2503280024","category":"94","category_name":"西餐厅","address":"杨浦区秦皇岛路32号19幢(近北外滩东码头)"},{"poiid":"B2094757D068A1FA489C","title":"其昌栈渡口","lon":"121.51963307","lat":"31.242515608","category":"500","category_name":"未知分类","address":"上海东方路滨江大道"},{"poiid":"B2094654DA69AAFB4798","title":"裕景国际","lon":"121.52645574206","lat":"31.248226919703","category":"46","category_name":"楼宇","address":"东方路69号"},{"poiid":"B2094655D26BA1FC479B","title":"平凉路通北路","lon":"121.52108","lat":"31.25504","category":"38","category_name":"公交车站","address":""},{"poiid":"B2094757D16CABFF429D","title":"雅典皇宫","lon":"121.51895673","lat":"31.242752567","category":"500","category_name":"未知分类","address":"上海浦东新区东方路8号(近浦东大道)  "},{"poiid":"B2094655D36DA2FB459B","title":"大连路隧道","lon":"121.51973","lat":"31.2428","category":"250","category_name":"公园户外","address":"上海市杨浦区大连路-浦东新区东方路"},{"poiid":"B2094757D068A7FF4499","title":"老板娘海鲜大排档","lon":"121.52253","lat":"31.25424","category":"260","category_name":"其他","address":"通北路149号,156号,158号,160号"},{"poiid":"B2094757DB69A3F44599","title":"富淳饭店 保利店","lon":"121.5189019","lat":"31.242405","category":"72","category_name":"广东菜","address":"浦东新区东方路18号保利广场E座G楼"},{"poiid":"B2094750D66CABFB4693","title":"Mio Ita","lon":"121.517906","lat":"31.243383","category":"94","category_name":"西餐厅","address":"浦东新区东方路18号保利大厦E栋2楼"},{"poiid":"B2094757D76CA2FE429C","title":"段氏龙虾 通北路店","lon":"121.52229","lat":"31.25462","category":"68","category_name":"快餐厅","address":"杨浦区通北路146号(近平凉路)"},{"poiid":"B2094654DA69A1F54992","title":"金穗大厦","lon":"121.517","lat":"31.245","category":"46","category_name":"楼宇","address":"上海市奉贤区环城东路455,465弄"},{"poiid":"B2094757D06FA6F84798","title":"长脚海鲜餐馆","lon":"121.5224","lat":"31.25459","category":"260","category_name":"其他","address":"杨浦区通北路167号(近平凉路)"},{"poiid":"B2094757D06AA4F9459C","title":"豪德万源大酒店","lon":"121.52222823","lat":"31.24150209","category":"217","category_name":"旅馆招待所","address":"浦东新区浦东大道599号(近东方路)"},{"poiid":"B2094757D06EAAFB4598","title":"黄浦江畔其昌栈码头","lon":"121.525503","lat":"31.249784","category":"34","category_name":"港口码头","address":"上海东方路1号"},{"poiid":"B2094757D065A4FA419E","title":"大连路杨树浦路","lon":"121.521541103","lat":"31.2529070896","category":"500","category_name":"未知分类","address":"上海杨浦区"},{"poiid":"B2094654DB6BAAFE4298","title":"良丰大厦","lon":"121.525","lat":"31.2489","category":"46","category_name":"楼宇","address":"松江区工业区鼎源路广富林路路口"},{"poiid":"B2094654DA69A7FB419A","title":"崂山三四村","lon":"121.524","lat":"31.2422","category":"47","category_name":"住宅区","address":"栖霞路76号"},{"poiid":"B2094757D469A5F9409A","title":"松临日本料理 保利广场店","lon":"121.5189019","lat":"31.242405","category":"95","category_name":"日本料理","address":"浦东新区东方路18号保利广场E座2楼(近地铁四号线浦东大道站)"},{"poiid":"B2094757D068A1F9499A","title":"振鼎鸡(平凉路店)","lon":"121.52162","lat":"31.25474","category":"68","category_name":"快餐厅","address":"杨浦区平凉路412号(近通北路)"},{"poiid":"B2094757D069A7F5479D","title":"豪享来上海福山店","lon":"121.5257","lat":"31.2413","category":"247","category_name":"餐饮美食","address":"上海市浦东大道800号福山分店"},{"poiid":"B2094654D56EA5F94798","title":"好来西海鲜排档","lon":"121.52141","lat":"31.25548","category":"260","category_name":"其他","address":"杨浦区通北路217号(平凉路口)"},{"poiid":"B2094654D56EA7F4449B","title":"欧洲凯城园","lon":"121.52621","lat":"31.255312","category":"47","category_name":"住宅区","address":"上海杨浦区许昌路328弄"},{"poiid":"B2094757D064AAF84392","title":"东码头","lon":"121.5206998","lat":"31.25262055","category":"500","category_name":"未知分类","address":"上海市杨浦区秦皇岛路32号"},{"poiid":"B2094757D16EA4F44799","title":"秦皇岛路水门码头","lon":"121.518441738","lat":"31.2456866296","category":"260","category_name":"其他","address":"杨浦区秦皇岛路32号(近杨树浦路)"},{"poiid":"B2094654D56EA5FA4893","title":"满灵阁大宝海鲜大排挡","lon":"121.52191","lat":"31.25484","category":"88","category_name":"海鲜酒楼","address":"通北路173-177号"},{"poiid":"B2094757D16CA1FC429C","title":"coco都可茶饮(通北店)","lon":"121.52152","lat":"31.25556","category":"113","category_name":"冷饮店","address":"杨浦区平凉路429号(近通北路)"},{"poiid":"B2094654DB64A6F44092","title":"如家快捷酒店(上海陆家嘴店)","lon":"121.52216","lat":"31.24182","category":"216","category_name":"经济型连锁酒店","address":"上海市浦东新区昌邑路569号(近东方路)"},{"poiid":"B2094654D56EA5FB449B","title":"上海船厂总部码头","lon":"121.51973","lat":"31.25131","category":"34","category_name":"港口码头","address":""},{"poiid":"B2094654D56EA5FB4192","title":"上海康翔商务楼A.D座","lon":"121.52227","lat":"31.2521","category":"46","category_name":"楼宇","address":"杨树浦路622号"},{"poiid":"B2094750DB6EAAF5489D","title":"滨江大道","lon":"121.518669","lat":"31.245016","category":"250","category_name":"公园户外","address":"东方路"},{"poiid":"B2094757D06AA5FC439C","title":"舟山海鲜舫","lon":"121.52164","lat":"31.25528","category":"260","category_name":"其他","address":"杨浦区通北路163号(近平凉路)"},{"poiid":"B2094654D56EABFF489D","title":"东方星座","lon":"121.528","lat":"31.2477","category":"46","category_name":"楼宇","address":"杨浦区江浦路1058号(近周家嘴路)"},{"poiid":"B2094757D06FABFC469C","title":"平凉路大连路站(公交842,155,137,25,853,申川线,921终,79终)","lon":"121.518741","lat":"31.252096","category":"38","category_name":"公交车站","address":"上海市杨浦区平凉路179号"},{"poiid":"B2094757D168A5FB449B","title":"上海海洋大学图书馆","lon":"121.523911476","lat":"31.2463700469","category":"181","category_name":"图书馆","address":"上海近郊南汇区临港新城护城环路999号  "},{"poiid":"B2094654D56EA5FA499B","title":"宁波海鲜(通北路)","lon":"121.52201","lat":"31.25474","category":"88","category_name":"海鲜酒楼","address":"杨浦区通北路161-165号(近平凉路)"},{"poiid":"B2094655D26EA0FD459A","title":"上海自来水科技馆","lon":"121.52752","lat":"31.25229","category":"186","category_name":"科技馆","address":""},{"poiid":"B2094654D56EA5F9479F","title":"沪东状元楼","lon":"121.52121","lat":"31.25524","category":"257","category_name":"中餐厅","address":"平凉路403号近通北路"},{"poiid":"B2094655D36DA0F94299","title":"杨树浦路许昌路","lon":"121.52633","lat":"31.25266","category":"38","category_name":"公交车站","address":""},{"poiid":"B2094757D065A7FC4892","title":"世博秦皇岛水门","lon":"121.52025604","lat":"31.248537063","category":"500","category_name":"未知分类","address":"上海秦皇岛路"},{"poiid":"B2094757D068A4F54099","title":"劲强桌球俱乐部(平凉路店)","lon":"121.52283","lat":"31.25558","category":"171","category_name":"台球厅","address":"杨浦区平凉路480号2楼(近通北路)"},{"poiid":"B2094757D064A5F44198","title":"崂山六村","lon":"121.524","lat":"31.2442","category":"500","category_name":"未知分类","address":"上海浦东大道290弄"},{"poiid":"B2094752DB69A3FB4999","title":"东方私宴","lon":"121.520776","lat":"31.243821","category":"500","category_name":"未知分类","address":"上海市 上海市滨江大道1658号"},{"poiid":"B2094757D06FA3FA499A","title":"宋记粥铺","lon":"121.52108764","lat":"31.255048751","category":"68","category_name":"快餐厅","address":"杨浦区平凉路(通北路口)"},{"poiid":"B2094655D36DA0F94198","title":"杨树浦路大连路","lon":"121.51857","lat":"31.25196","category":"38","category_name":"公交车站","address":""},{"poiid":"B2094655D26AABFF4793","title":"上海雅客滨江酒店式服务公寓","lon":"121.52151","lat":"31.2412","category":"250","category_name":"公园户外","address":"浦东新区昌邑路588弄金隆置地大厦内(近东方路)"},{"poiid":"B2094757D06FA7FD4293","title":"通北路海鲜","lon":"121.521346","lat":"31.25516","category":"68","category_name":"快餐厅","address":"杨浦区通北路176号(近平凉路)"},{"poiid":"B2094757D06FA0FA489F","title":"秦皇岛路轮渡站","lon":"121.51639044","lat":"31.249174771","category":"35","category_name":"长途汽车站","address":"上海虹口区秦皇岛路1号"},{"poiid":"B2094757D06FA3FA4993","title":"老四烧烤(通北路店)","lon":"121.52195","lat":"31.25455","category":"68","category_name":"快餐厅","address":"杨浦区通北路183号(平凉路口)"},{"poiid":"B209475CD564A7F84392","title":"上海滩浦东香格里拉店","lon":"121.50058","lat":"31.23634","category":"119","category_name":"商场","address":"浦东富成路33号香格里拉酒店内大堂层"},{"poiid":"B2094757D16CABF8439C","title":"老四海鮮","lon":"121.521366103","lat":"31.2538765766","category":"247","category_name":"餐饮美食","address":"上海楊浦區通北路"},{"poiid":"B2094757D065A5FA449E","title":"阿根廷庄园","lon":"121.517910103","lat":"31.2503280024","category":"94","category_name":"西餐厅","address":"杨浦区秦皇岛路32号19幢(近北外滩东码头)"},{"poiid":"B2094757D068A1FA489C","title":"其昌栈渡口","lon":"121.51963307","lat":"31.242515608","category":"500","category_name":"未知分类","address":"上海东方路滨江大道"},{"poiid":"B2094654DA69AAFB4798","title":"裕景国际","lon":"121.52645574206","lat":"31.248226919703","category":"46","category_name":"楼宇","address":"东方路69号"},{"poiid":"B2094655D26BA1FC479B","title":"平凉路通北路","lon":"121.52108","lat":"31.25504","category":"38","category_name":"公交车站","address":""},{"poiid":"B2094757D16CABFF429D","title":"雅典皇宫","lon":"121.51895673","lat":"31.242752567","category":"500","category_name":"未知分类","address":"上海浦东新区东方路8号(近浦东大道)  "},{"poiid":"B2094655D36DA2FB459B","title":"大连路隧道","lon":"121.51973","lat":"31.2428","category":"250","category_name":"公园户外","address":"上海市杨浦区大连路-浦东新区东方路"},{"poiid":"B2094757D068A7FF4499","title":"老板娘海鲜大排档","lon":"121.52253","lat":"31.25424","category":"260","category_name":"其他","address":"通北路149号,156号,158号,160号"},{"poiid":"B2094757DB69A3F44599","title":"富淳饭店 保利店","lon":"121.5189019","lat":"31.242405","category":"72","category_name":"广东菜","address":"浦东新区东方路18号保利广场E座G楼"},{"poiid":"B2094750D66CABFB4693","title":"Mio Ita","lon":"121.517906","lat":"31.243383","category":"94","category_name":"西餐厅","address":"浦东新区东方路18号保利大厦E栋2楼"},{"poiid":"B2094757D76CA2FE429C","title":"段氏龙虾 通北路店","lon":"121.52229","lat":"31.25462","category":"68","category_name":"快餐厅","address":"杨浦区通北路146号(近平凉路)"},{"poiid":"B2094654DA69A1F54992","title":"金穗大厦","lon":"121.517","lat":"31.245","category":"46","category_name":"楼宇","address":"上海市奉贤区环城东路455,465弄"},{"poiid":"B2094757D06FA6F84798","title":"长脚海鲜餐馆","lon":"121.5224","lat":"31.25459","category":"260","category_name":"其他","address":"杨浦区通北路167号(近平凉路)"},{"poiid":"B2094757D06AA4F9459C","title":"豪德万源大酒店","lon":"121.52222823","lat":"31.24150209","category":"217","category_name":"旅馆招待所","address":"浦东新区浦东大道599号(近东方路)"},{"poiid":"B2094757D06EAAFB4598","title":"黄浦江畔其昌栈码头","lon":"121.525503","lat":"31.249784","category":"34","category_name":"港口码头","address":"上海东方路1号"},{"poiid":"B2094757D065A4FA419E","title":"大连路杨树浦路","lon":"121.521541103","lat":"31.2529070896","category":"500","category_name":"未知分类","address":"上海杨浦区"},{"poiid":"B2094654DB6BAAFE4298","title":"良丰大厦","lon":"121.525","lat":"31.2489","category":"46","category_name":"楼宇","address":"松江区工业区鼎源路广富林路路口"},{"poiid":"B2094654DA69A7FB419A","title":"崂山三四村","lon":"121.524","lat":"31.2422","category":"47","category_name":"住宅区","address":"栖霞路76号"},{"poiid":"B2094757D469A5F9409A","title":"松临日本料理 保利广场店","lon":"121.5189019","lat":"31.242405","category":"95","category_name":"日本料理","address":"浦东新区东方路18号保利广场E座2楼(近地铁四号线浦东大道站)"},{"poiid":"B2094757D068A1F9499A","title":"振鼎鸡(平凉路店)","lon":"121.52162","lat":"31.25474","category":"68","category_name":"快餐厅","address":"杨浦区平凉路412号(近通北路)"},{"poiid":"B2094757D069A7F5479D","title":"豪享来上海福山店","lon":"121.5257","lat":"31.2413","category":"247","category_name":"餐饮美食","address":"上海市浦东大道800号福山分店"},{"poiid":"B2094654D56EA5F94798","title":"好来西海鲜排档","lon":"121.52141","lat":"31.25548","category":"260","category_name":"其他","address":"杨浦区通北路217号(平凉路口)"},{"poiid":"B2094654D56EA7F4449B","title":"欧洲凯城园","lon":"121.52621","lat":"31.255312","category":"47","category_name":"住宅区","address":"上海杨浦区许昌路328弄"},{"poiid":"B2094757D064AAF84392","title":"东码头","lon":"121.5206998","lat":"31.25262055","category":"500","category_name":"未知分类","address":"上海市杨浦区秦皇岛路32号"},{"poiid":"B2094757D16EA4F44799","title":"秦皇岛路水门码头","lon":"121.518441738","lat":"31.2456866296","category":"260","category_name":"其他","address":"杨浦区秦皇岛路32号(近杨树浦路)"},{"poiid":"B2094654D56EA5FA4893","title":"满灵阁大宝海鲜大排挡","lon":"121.52191","lat":"31.25484","category":"88","category_name":"海鲜酒楼","address":"通北路173-177号"},{"poiid":"B2094757D16CA1FC429C","title":"coco都可茶饮(通北店)","lon":"121.52152","lat":"31.25556","category":"113","category_name":"冷饮店","address":"杨浦区平凉路429号(近通北路)"},{"poiid":"B2094654DB64A6F44092","title":"如家快捷酒店(上海陆家嘴店)","lon":"121.52216","lat":"31.24182","category":"216","category_name":"经济型连锁酒店","address":"上海市浦东新区昌邑路569号(近东方路)"},{"poiid":"B2094654D56EA5FB449B","title":"上海船厂总部码头","lon":"121.51973","lat":"31.25131","category":"34","category_name":"港口码头","address":""},{"poiid":"B2094654D56EA5FB4192","title":"上海康翔商务楼A.D座","lon":"121.52227","lat":"31.2521","category":"46","category_name":"楼宇","address":"杨树浦路622号"},{"poiid":"B2094750DB6EAAF5489D","title":"滨江大道","lon":"121.518669","lat":"31.245016","category":"250","category_name":"公园户外","address":"东方路"},{"poiid":"B2094757D06AA5FC439C","title":"舟山海鲜舫","lon":"121.52164","lat":"31.25528","category":"260","category_name":"其他","address":"杨浦区通北路163号(近平凉路)"},{"poiid":"B2094654D56EABFF489D","title":"东方星座","lon":"121.528","lat":"31.2477","category":"46","category_name":"楼宇","address":"杨浦区江浦路1058号(近周家嘴路)"},{"poiid":"B2094757D06FABFC469C","title":"平凉路大连路站(公交842,155,137,25,853,申川线,921终,79终)","lon":"121.518741","lat":"31.252096","category":"38","category_name":"公交车站","address":"上海市杨浦区平凉路179号"},{"poiid":"B2094757D168A5FB449B","title":"上海海洋大学图书馆","lon":"121.523911476","lat":"31.2463700469","category":"181","category_name":"图书馆","address":"上海近郊南汇区临港新城护城环路999号  "},{"poiid":"B2094654D56EA5FA499B","title":"宁波海鲜(通北路)","lon":"121.52201","lat":"31.25474","category":"88","category_name":"海鲜酒楼","address":"杨浦区通北路161-165号(近平凉路)"},{"poiid":"B2094655D26EA0FD459A","title":"上海自来水科技馆","lon":"121.52752","lat":"31.25229","category":"186","category_name":"科技馆","address":""},{"poiid":"B2094654D56EA5F9479F","title":"沪东状元楼","lon":"121.52121","lat":"31.25524","category":"257","category_name":"中餐厅","address":"平凉路403号近通北路"},{"poiid":"B2094655D36DA0F94299","title":"杨树浦路许昌路","lon":"121.52633","lat":"31.25266","category":"38","category_name":"公交车站","address":""},{"poiid":"B2094757D065A7FC4892","title":"世博秦皇岛水门","lon":"121.52025604","lat":"31.248537063","category":"500","category_name":"未知分类","address":"上海秦皇岛路"},{"poiid":"B2094757D068A4F54099","title":"劲强桌球俱乐部(平凉路店)","lon":"121.52283","lat":"31.25558","category":"171","category_name":"台球厅","address":"杨浦区平凉路480号2楼(近通北路)"},{"poiid":"B2094757D064A5F44198","title":"崂山六村","lon":"121.524","lat":"31.2442","category":"500","category_name":"未知分类","address":"上海浦东大道290弄"},{"poiid":"B2094752DB69A3FB4999","title":"东方私宴","lon":"121.520776","lat":"31.243821","category":"500","category_name":"未知分类","address":"上海市 上海市滨江大道1658号"},{"poiid":"B2094757D06FA3FA499A","title":"宋记粥铺","lon":"121.52108764","lat":"31.255048751","category":"68","category_name":"快餐厅","address":"杨浦区平凉路(通北路口)"},{"poiid":"B2094655D36DA0F94198","title":"杨树浦路大连路","lon":"121.51857","lat":"31.25196","category":"38","category_name":"公交车站","address":""},{"poiid":"B2094655D26AABFF4793","title":"上海雅客滨江酒店式服务公寓","lon":"121.52151","lat":"31.2412","category":"250","category_name":"公园户外","address":"浦东新区昌邑路588弄金隆置地大厦内(近东方路)"},{"poiid":"B2094757D06FA7FD4293","title":"通北路海鲜","lon":"121.521346","lat":"31.25516","category":"68","category_name":"快餐厅","address":"杨浦区通北路176号(近平凉路)"},{"poiid":"B2094757D06FA0FA489F","title":"秦皇岛路轮渡站","lon":"121.51639044","lat":"31.249174771","category":"35","category_name":"长途汽车站","address":"上海虹口区秦皇岛路1号"},{"poiid":"B2094757D06FA3FA4993","title":"老四烧烤(通北路店)","lon":"121.52195","lat":"31.25455","category":"68","category_name":"快餐厅","address":"杨浦区通北路183号(平凉路口)"},{"poiid":"B209475CD564A7F84392","title":"上海滩浦东香格里拉店","lon":"121.50058","lat":"31.23634","category":"119","category_name":"商场","address":"浦东富成路33号香格里拉酒店内大堂层"},{"poiid":"B2094757D16CABF8439C","title":"老四海鮮","lon":"121.521366103","lat":"31.2538765766","category":"247","category_name":"餐饮美食","address":"上海楊浦區通北路"},{"poiid":"B2094757D065A5FA449E","title":"阿根廷庄园","lon":"121.517910103","lat":"31.2503280024","category":"94","category_name":"西餐厅","address":"杨浦区秦皇岛路32号19幢(近北外滩东码头)"},{"poiid":"B2094757D068A1FA489C","title":"其昌栈渡口","lon":"121.51963307","lat":"31.242515608","category":"500","category_name":"未知分类","address":"上海东方路滨江大道"},{"poiid":"B2094654DA69AAFB4798","title":"裕景国际","lon":"121.52645574206","lat":"31.248226919703","category":"46","category_name":"楼宇","address":"东方路69号"},{"poiid":"B2094655D26BA1FC479B","title":"平凉路通北路","lon":"121.52108","lat":"31.25504","category":"38","category_name":"公交车站","address":""},{"poiid":"B2094757D16CABFF429D","title":"雅典皇宫","lon":"121.51895673","lat":"31.242752567","category":"500","category_name":"未知分类","address":"上海浦东新区东方路8号(近浦东大道)  "},{"poiid":"B2094655D36DA2FB459B","title":"大连路隧道","lon":"121.51973","lat":"31.2428","category":"250","category_name":"公园户外","address":"上海市杨浦区大连路-浦东新区东方路"},{"poiid":"B2094757D068A7FF4499","title":"老板娘海鲜大排档","lon":"121.52253","lat":"31.25424","category":"260","category_name":"其他","address":"通北路149号,156号,158号,160号"},{"poiid":"B2094757DB69A3F44599","title":"富淳饭店 保利店","lon":"121.5189019","lat":"31.242405","category":"72","category_name":"广东菜","address":"浦东新区东方路18号保利广场E座G楼"},{"poiid":"B2094750D66CABFB4693","title":"Mio Ita","lon":"121.517906","lat":"31.243383","category":"94","category_name":"西餐厅","address":"浦东新区东方路18号保利大厦E栋2楼"},{"poiid":"B2094757D76CA2FE429C","title":"段氏龙虾 通北路店","lon":"121.52229","lat":"31.25462","category":"68","category_name":"快餐厅","address":"杨浦区通北路146号(近平凉路)"},{"poiid":"B2094654DA69A1F54992","title":"金穗大厦","lon":"121.517","lat":"31.245","category":"46","category_name":"楼宇","address":"上海市奉贤区环城东路455,465弄"},{"poiid":"B2094757D06FA6F84798","title":"长脚海鲜餐馆","lon":"121.5224","lat":"31.25459","category":"260","category_name":"其他","address":"杨浦区通北路167号(近平凉路)"},{"poiid":"B2094757D06AA4F9459C","title":"豪德万源大酒店","lon":"121.52222823","lat":"31.24150209","category":"217","category_name":"旅馆招待所","address":"浦东新区浦东大道599号(近东方路)"},{"poiid":"B2094757D06EAAFB4598","title":"黄浦江畔其昌栈码头","lon":"121.525503","lat":"31.249784","category":"34","category_name":"港口码头","address":"上海东方路1号"},{"poiid":"B2094757D065A4FA419E","title":"大连路杨树浦路","lon":"121.521541103","lat":"31.2529070896","category":"500","category_name":"未知分类","address":"上海杨浦区"},{"poiid":"B2094654DB6BAAFE4298","title":"良丰大厦","lon":"121.525","lat":"31.2489","category":"46","category_name":"楼宇","address":"松江区工业区鼎源路广富林路路口"},{"poiid":"B2094654DA69A7FB419A","title":"崂山三四村","lon":"121.524","lat":"31.2422","category":"47","category_name":"住宅区","address":"栖霞路76号"},{"poiid":"B2094757D469A5F9409A","title":"松临日本料理 保利广场店","lon":"121.5189019","lat":"31.242405","category":"95","category_name":"日本料理","address":"浦东新区东方路18号保利广场E座2楼(近地铁四号线浦东大道站)"},{"poiid":"B2094757D068A1F9499A","title":"振鼎鸡(平凉路店)","lon":"121.52162","lat":"31.25474","category":"68","category_name":"快餐厅","address":"杨浦区平凉路412号(近通北路)"},{"poiid":"B2094757D069A7F5479D","title":"豪享来上海福山店","lon":"121.5257","lat":"31.2413","category":"247","category_name":"餐饮美食","address":"上海市浦东大道800号福山分店"},{"poiid":"B2094654D56EA5F94798","title":"好来西海鲜排档","lon":"121.52141","lat":"31.25548","category":"260","category_name":"其他","address":"杨浦区通北路217号(平凉路口)"},{"poiid":"B2094654D56EA7F4449B","title":"欧洲凯城园","lon":"121.52621","lat":"31.255312","category":"47","category_name":"住宅区","address":"上海杨浦区许昌路328弄"},{"poiid":"B2094757D064AAF84392","title":"东码头","lon":"121.5206998","lat":"31.25262055","category":"500","category_name":"未知分类","address":"上海市杨浦区秦皇岛路32号"},{"poiid":"B2094757D16EA4F44799","title":"秦皇岛路水门码头","lon":"121.518441738","lat":"31.2456866296","category":"260","category_name":"其他","address":"杨浦区秦皇岛路32号(近杨树浦路)"},{"poiid":"B2094654D56EA5FA4893","title":"满灵阁大宝海鲜大排挡","lon":"121.52191","lat":"31.25484","category":"88","category_name":"海鲜酒楼","address":"通北路173-177号"},{"poiid":"B2094757D16CA1FC429C","title":"coco都可茶饮(通北店)","lon":"121.52152","lat":"31.25556","category":"113","category_name":"冷饮店","address":"杨浦区平凉路429号(近通北路)"},{"poiid":"B2094654DB64A6F44092","title":"如家快捷酒店(上海陆家嘴店)","lon":"121.52216","lat":"31.24182","category":"216","category_name":"经济型连锁酒店","address":"上海市浦东新区昌邑路569号(近东方路)"},{"poiid":"B2094654D56EA5FB449B","title":"上海船厂总部码头","lon":"121.51973","lat":"31.25131","category":"34","category_name":"港口码头","address":""},{"poiid":"B2094654D56EA5FB4192","title":"上海康翔商务楼A.D座","lon":"121.52227","lat":"31.2521","category":"46","category_name":"楼宇","address":"杨树浦路622号"},{"poiid":"B2094750DB6EAAF5489D","title":"滨江大道","lon":"121.518669","lat":"31.245016","category":"250","category_name":"公园户外","address":"东方路"},{"poiid":"B2094757D06AA5FC439C","title":"舟山海鲜舫","lon":"121.52164","lat":"31.25528","category":"260","category_name":"其他","address":"杨浦区通北路163号(近平凉路)"},{"poiid":"B2094654D56EABFF489D","title":"东方星座","lon":"121.528","lat":"31.2477","category":"46","category_name":"楼宇","address":"杨浦区江浦路1058号(近周家嘴路)"},{"poiid":"B2094757D06FABFC469C","title":"平凉路大连路站(公交842,155,137,25,853,申川线,921终,79终)","lon":"121.518741","lat":"31.252096","category":"38","category_name":"公交车站","address":"上海市杨浦区平凉路179号"},{"poiid":"B2094757D168A5FB449B","title":"上海海洋大学图书馆","lon":"121.523911476","lat":"31.2463700469","category":"181","category_name":"图书馆","address":"上海近郊南汇区临港新城护城环路999号  "},{"poiid":"B2094654D56EA5FA499B","title":"宁波海鲜(通北路)","lon":"121.52201","lat":"31.25474","category":"88","category_name":"海鲜酒楼","address":"杨浦区通北路161-165号(近平凉路)"},{"poiid":"B2094655D26EA0FD459A","title":"上海自来水科技馆","lon":"121.52752","lat":"31.25229","category":"186","category_name":"科技馆","address":""},{"poiid":"B2094654D56EA5F9479F","title":"沪东状元楼","lon":"121.52121","lat":"31.25524","category":"257","category_name":"中餐厅","address":"平凉路403号近通北路"},{"poiid":"B2094655D36DA0F94299","title":"杨树浦路许昌路","lon":"121.52633","lat":"31.25266","category":"38","category_name":"公交车站","address":""},{"poiid":"B2094757D065A7FC4892","title":"世博秦皇岛水门","lon":"121.52025604","lat":"31.248537063","category":"500","category_name":"未知分类","address":"上海秦皇岛路"},{"poiid":"B2094757D068A4F54099","title":"劲强桌球俱乐部(平凉路店)","lon":"121.52283","lat":"31.25558","category":"171","category_name":"台球厅","address":"杨浦区平凉路480号2楼(近通北路)"},{"poiid":"B2094757D064A5F44198","title":"崂山六村","lon":"121.524","lat":"31.2442","category":"500","category_name":"未知分类","address":"上海浦东大道290弄"},{"poiid":"B2094752DB69A3FB4999","title":"东方私宴","lon":"121.520776","lat":"31.243821","category":"500","category_name":"未知分类","address":"上海市 上海市滨江大道1658号"},{"poiid":"B2094757D06FA3FA499A","title":"宋记粥铺","lon":"121.52108764","lat":"31.255048751","category":"68","category_name":"快餐厅","address":"杨浦区平凉路(通北路口)"},{"poiid":"B2094655D36DA0F94198","title":"杨树浦路大连路","lon":"121.51857","lat":"31.25196","category":"38","category_name":"公交车站","address":""},{"poiid":"B2094655D26AABFF4793","title":"上海雅客滨江酒店式服务公寓","lon":"121.52151","lat":"31.2412","category":"250","category_name":"公园户外","address":"浦东新区昌邑路588弄金隆置地大厦内(近东方路)"},{"poiid":"B2094757D06FA7FD4293","title":"通北路海鲜","lon":"121.521346","lat":"31.25516","category":"68","category_name":"快餐厅","address":"杨浦区通北路176号(近平凉路)"},{"poiid":"B2094757D06FA0FA489F","title":"秦皇岛路轮渡站","lon":"121.51639044","lat":"31.249174771","category":"35","category_name":"长途汽车站","address":"上海虹口区秦皇岛路1号"},{"poiid":"B2094757D06FA3FA4993","title":"老四烧烤(通北路店)","lon":"121.52195","lat":"31.25455","category":"68","category_name":"快餐厅","address":"杨浦区通北路183号(平凉路口)"},{"poiid":"B209475CD564A7F84392","title":"上海滩浦东香格里拉店","lon":"121.50058","lat":"31.23634","category":"119","category_name":"商场","address":"浦东富成路33号香格里拉酒店内大堂层"},{"poiid":"B2094757D16CABF8439C","title":"老四海鮮","lon":"121.521366103","lat":"31.2538765766","category":"247","category_name":"餐饮美食","address":"上海楊浦區通北路"},{"poiid":"B2094757D065A5FA449E","title":"阿根廷庄园","lon":"121.517910103","lat":"31.2503280024","category":"94","category_name":"西餐厅","address":"杨浦区秦皇岛路32号19幢(近北外滩东码头)"},{"poiid":"B2094757D068A1FA489C","title":"其昌栈渡口","lon":"121.51963307","lat":"31.242515608","category":"500","category_name":"未知分类","address":"上海东方路滨江大道"},{"poiid":"B2094654DA69AAFB4798","title":"裕景国际","lon":"121.52645574206","lat":"31.248226919703","category":"46","category_name":"楼宇","address":"东方路69号"},{"poiid":"B2094655D26BA1FC479B","title":"平凉路通北路","lon":"121.52108","lat":"31.25504","category":"38","category_name":"公交车站","address":""},{"poiid":"B2094757D16CABFF429D","title":"雅典皇宫","lon":"121.51895673","lat":"31.242752567","category":"500","category_name":"未知分类","address":"上海浦东新区东方路8号(近浦东大道)  "},{"poiid":"B2094655D36DA2FB459B","title":"大连路隧道","lon":"121.51973","lat":"31.2428","category":"250","category_name":"公园户外","address":"上海市杨浦区大连路-浦东新区东方路"},{"poiid":"B2094757D068A7FF4499","title":"老板娘海鲜大排档","lon":"121.52253","lat":"31.25424","category":"260","category_name":"其他","address":"通北路149号,156号,158号,160号"},{"poiid":"B2094757DB69A3F44599","title":"富淳饭店 保利店","lon":"121.5189019","lat":"31.242405","category":"72","category_name":"广东菜","address":"浦东新区东方路18号保利广场E座G楼"},{"poiid":"B2094750D66CABFB4693","title":"Mio Ita","lon":"121.517906","lat":"31.243383","category":"94","category_name":"西餐厅","address":"浦东新区东方路18号保利大厦E栋2楼"},{"poiid":"B2094757D76CA2FE429C","title":"段氏龙虾 通北路店","lon":"121.52229","lat":"31.25462","category":"68","category_name":"快餐厅","address":"杨浦区通北路146号(近平凉路)"},{"poiid":"B2094654DA69A1F54992","title":"金穗大厦","lon":"121.517","lat":"31.245","category":"46","category_name":"楼宇","address":"上海市奉贤区环城东路455,465弄"},{"poiid":"B2094757D06FA6F84798","title":"长脚海鲜餐馆","lon":"121.5224","lat":"31.25459","category":"260","category_name":"其他","address":"杨浦区通北路167号(近平凉路)"},{"poiid":"B2094757D06AA4F9459C","title":"豪德万源大酒店","lon":"121.52222823","lat":"31.24150209","category":"217","category_name":"旅馆招待所","address":"浦东新区浦东大道599号(近东方路)"},{"poiid":"B2094757D06EAAFB4598","title":"黄浦江畔其昌栈码头","lon":"121.525503","lat":"31.249784","category":"34","category_name":"港口码头","address":"上海东方路1号"},{"poiid":"B2094757D065A4FA419E","title":"大连路杨树浦路","lon":"121.521541103","lat":"31.2529070896","category":"500","category_name":"未知分类","address":"上海杨浦区"},{"poiid":"B2094654DB6BAAFE4298","title":"良丰大厦","lon":"121.525","lat":"31.2489","category":"46","category_name":"楼宇","address":"松江区工业区鼎源路广富林路路口"},{"poiid":"B2094654DA69A7FB419A","title":"崂山三四村","lon":"121.524","lat":"31.2422","category":"47","category_name":"住宅区","address":"栖霞路76号"},{"poiid":"B2094757D469A5F9409A","title":"松临日本料理 保利广场店","lon":"121.5189019","lat":"31.242405","category":"95","category_name":"日本料理","address":"浦东新区东方路18号保利广场E座2楼(近地铁四号线浦东大道站)"},{"poiid":"B2094757D068A1F9499A","title":"振鼎鸡(平凉路店)","lon":"121.52162","lat":"31.25474","category":"68","category_name":"快餐厅","address":"杨浦区平凉路412号(近通北路)"},{"poiid":"B2094757D069A7F5479D","title":"豪享来上海福山店","lon":"121.5257","lat":"31.2413","category":"247","category_name":"餐饮美食","address":"上海市浦东大道800号福山分店"},{"poiid":"B2094654D56EA5F94798","title":"好来西海鲜排档","lon":"121.52141","lat":"31.25548","category":"260","category_name":"其他","address":"杨浦区通北路217号(平凉路口)"},{"poiid":"B2094654D56EA7F4449B","title":"欧洲凯城园","lon":"121.52621","lat":"31.255312","category":"47","category_name":"住宅区","address":"上海杨浦区许昌路328弄"},{"poiid":"B2094757D064AAF84392","title":"东码头","lon":"121.5206998","lat":"31.25262055","category":"500","category_name":"未知分类","address":"上海市杨浦区秦皇岛路32号"},{"poiid":"B2094757D16EA4F44799","title":"秦皇岛路水门码头","lon":"121.518441738","lat":"31.2456866296","category":"260","category_name":"其他","address":"杨浦区秦皇岛路32号(近杨树浦路)"},{"poiid":"B2094654D56EA5FA4893","title":"满灵阁大宝海鲜大排挡","lon":"121.52191","lat":"31.25484","category":"88","category_name":"海鲜酒楼","address":"通北路173-177号"},{"poiid":"B2094757D16CA1FC429C","title":"coco都可茶饮(通北店)","lon":"121.52152","lat":"31.25556","category":"113","category_name":"冷饮店","address":"杨浦区平凉路429号(近通北路)"},{"poiid":"B2094654DB64A6F44092","title":"如家快捷酒店(上海陆家嘴店)","lon":"121.52216","lat":"31.24182","category":"216","category_name":"经济型连锁酒店","address":"上海市浦东新区昌邑路569号(近东方路)"},{"poiid":"B2094654D56EA5FB449B","title":"上海船厂总部码头","lon":"121.51973","lat":"31.25131","category":"34","category_name":"港口码头","address":""},{"poiid":"B2094654D56EA5FB4192","title":"上海康翔商务楼A.D座","lon":"121.52227","lat":"31.2521","category":"46","category_name":"楼宇","address":"杨树浦路622号"},{"poiid":"B2094750DB6EAAF5489D","title":"滨江大道","lon":"121.518669","lat":"31.245016","category":"250","category_name":"公园户外","address":"东方路"},{"poiid":"B2094757D06AA5FC439C","title":"舟山海鲜舫","lon":"121.52164","lat":"31.25528","category":"260","category_name":"其他","address":"杨浦区通北路163号(近平凉路)"},{"poiid":"B2094654D56EABFF489D","title":"东方星座","lon":"121.528","lat":"31.2477","category":"46","category_name":"楼宇","address":"杨浦区江浦路1058号(近周家嘴路)"},{"poiid":"B2094757D06FABFC469C","title":"平凉路大连路站(公交842,155,137,25,853,申川线,921终,79终)","lon":"121.518741","lat":"31.252096","category":"38","category_name":"公交车站","address":"上海市杨浦区平凉路179号"},{"poiid":"B2094757D168A5FB449B","title":"上海海洋大学图书馆","lon":"121.523911476","lat":"31.2463700469","category":"181","category_name":"图书馆","address":"上海近郊南汇区临港新城护城环路999号  "},{"poiid":"B2094654D56EA5FA499B","title":"宁波海鲜(通北路)","lon":"121.52201","lat":"31.25474","category":"88","category_name":"海鲜酒楼","address":"杨浦区通北路161-165号(近平凉路)"},{"poiid":"B2094655D26EA0FD459A","title":"上海自来水科技馆","lon":"121.52752","lat":"31.25229","category":"186","category_name":"科技馆","address":""},{"poiid":"B2094654D56EA5F9479F","title":"沪东状元楼","lon":"121.52121","lat":"31.25524","category":"257","category_name":"中餐厅","address":"平凉路403号近通北路"},{"poiid":"B2094655D36DA0F94299","title":"杨树浦路许昌路","lon":"121.52633","lat":"31.25266","category":"38","category_name":"公交车站","address":""},{"poiid":"B2094757D065A7FC4892","title":"世博秦皇岛水门","lon":"121.52025604","lat":"31.248537063","category":"500","category_name":"未知分类","address":"上海秦皇岛路"},{"poiid":"B2094757D068A4F54099","title":"劲强桌球俱乐部(平凉路店)","lon":"121.52283","lat":"31.25558","category":"171","category_name":"台球厅","address":"杨浦区平凉路480号2楼(近通北路)"},{"poiid":"B2094757D064A5F44198","title":"崂山六村","lon":"121.524","lat":"31.2442","category":"500","category_name":"未知分类","address":"上海浦东大道290弄"},{"poiid":"B2094752DB69A3FB4999","title":"东方私宴","lon":"121.520776","lat":"31.243821","category":"500","category_name":"未知分类","address":"上海市 上海市滨江大道1658号"},{"poiid":"B2094757D06FA3FA499A","title":"宋记粥铺","lon":"121.52108764","lat":"31.255048751","category":"68","category_name":"快餐厅","address":"杨浦区平凉路(通北路口)"},{"poiid":"B2094655D36DA0F94198","title":"杨树浦路大连路","lon":"121.51857","lat":"31.25196","category":"38","category_name":"公交车站","address":""},{"poiid":"B2094655D26AABFF4793","title":"上海雅客滨江酒店式服务公寓","lon":"121.52151","lat":"31.2412","category":"250","category_name":"公园户外","address":"浦东新区昌邑路588弄金隆置地大厦内(近东方路)"},{"poiid":"B2094757D06FA7FD4293","title":"通北路海鲜","lon":"121.521346","lat":"31.25516","category":"68","category_name":"快餐厅","address":"杨浦区通北路176号(近平凉路)"},{"poiid":"B2094757D06FA0FA489F","title":"秦皇岛路轮渡站","lon":"121.51639044","lat":"31.249174771","category":"35","category_name":"长途汽车站","address":"上海虹口区秦皇岛路1号"},{"poiid":"B2094757D06FA3FA4993","title":"老四烧烤(通北路店)","lon":"121.52195","lat":"31.25455","category":"68","category_name":"快餐厅","address":"杨浦区通北路183号(平凉路口)"},{"poiid":"B209475CD564A7F84392","title":"上海滩浦东香格里拉店","lon":"121.50058","lat":"31.23634","category":"119","category_name":"商场","address":"浦东富成路33号香格里拉酒店内大堂层"},{"poiid":"B2094757D16CABF8439C","title":"老四海鮮","lon":"121.521366103","lat":"31.2538765766","category":"247","category_name":"餐饮美食","address":"上海楊浦區通北路"},{"poiid":"B2094757D065A5FA449E","title":"阿根廷庄园","lon":"121.517910103","lat":"31.2503280024","category":"94","category_name":"西餐厅","address":"杨浦区秦皇岛路32号19幢(近北外滩东码头)"},{"poiid":"B2094757D068A1FA489C","title":"其昌栈渡口","lon":"121.51963307","lat":"31.242515608","category":"500","category_name":"未知分类","address":"上海东方路滨江大道"},{"poiid":"B2094654DA69AAFB4798","title":"裕景国际","lon":"121.52645574206","lat":"31.248226919703","category":"46","category_name":"楼宇","address":"东方路69号"},{"poiid":"B2094655D26BA1FC479B","title":"平凉路通北路","lon":"121.52108","lat":"31.25504","category":"38","category_name":"公交车站","address":""},{"poiid":"B2094757D16CABFF429D","title":"雅典皇宫","lon":"121.51895673","lat":"31.242752567","category":"500","category_name":"未知分类","address":"上海浦东新区东方路8号(近浦东大道)  "},{"poiid":"B2094655D36DA2FB459B","title":"大连路隧道","lon":"121.51973","lat":"31.2428","category":"250","category_name":"公园户外","address":"上海市杨浦区大连路-浦东新区东方路"},{"poiid":"B2094757D068A7FF4499","title":"老板娘海鲜大排档","lon":"121.52253","lat":"31.25424","category":"260","category_name":"其他","address":"通北路149号,156号,158号,160号"},{"poiid":"B2094757DB69A3F44599","title":"富淳饭店 保利店","lon":"121.5189019","lat":"31.242405","category":"72","category_name":"广东菜","address":"浦东新区东方路18号保利广场E座G楼"},{"poiid":"B2094750D66CABFB4693","title":"Mio Ita","lon":"121.517906","lat":"31.243383","category":"94","category_name":"西餐厅","address":"浦东新区东方路18号保利大厦E栋2楼"},{"poiid":"B2094757D76CA2FE429C","title":"段氏龙虾 通北路店","lon":"121.52229","lat":"31.25462","category":"68","category_name":"快餐厅","address":"杨浦区通北路146号(近平凉路)"},{"poiid":"B2094654DA69A1F54992","title":"金穗大厦","lon":"121.517","lat":"31.245","category":"46","category_name":"楼宇","address":"上海市奉贤区环城东路455,465弄"},{"poiid":"B2094757D06FA6F84798","title":"长脚海鲜餐馆","lon":"121.5224","lat":"31.25459","category":"260","category_name":"其他","address":"杨浦区通北路167号(近平凉路)"},{"poiid":"B2094757D06AA4F9459C","title":"豪德万源大酒店","lon":"121.52222823","lat":"31.24150209","category":"217","category_name":"旅馆招待所","address":"浦东新区浦东大道599号(近东方路)"},{"poiid":"B2094757D06EAAFB4598","title":"黄浦江畔其昌栈码头","lon":"121.525503","lat":"31.249784","category":"34","category_name":"港口码头","address":"上海东方路1号"},{"poiid":"B2094757D065A4FA419E","title":"大连路杨树浦路","lon":"121.521541103","lat":"31.2529070896","category":"500","category_name":"未知分类","address":"上海杨浦区"},{"poiid":"B2094654DB6BAAFE4298","title":"良丰大厦","lon":"121.525","lat":"31.2489","category":"46","category_name":"楼宇","address":"松江区工业区鼎源路广富林路路口"},{"poiid":"B2094654DA69A7FB419A","title":"崂山三四村","lon":"121.524","lat":"31.2422","category":"47","category_name":"住宅区","address":"栖霞路76号"},{"poiid":"B2094757D469A5F9409A","title":"松临日本料理 保利广场店","lon":"121.5189019","lat":"31.242405","category":"95","category_name":"日本料理","address":"浦东新区东方路18号保利广场E座2楼(近地铁四号线浦东大道站)"},{"poiid":"B2094757D068A1F9499A","title":"振鼎鸡(平凉路店)","lon":"121.52162","lat":"31.25474","category":"68","category_name":"快餐厅","address":"杨浦区平凉路412号(近通北路)"},{"poiid":"B2094757D069A7F5479D","title":"豪享来上海福山店","lon":"121.5257","lat":"31.2413","category":"247","category_name":"餐饮美食","address":"上海市浦东大道800号福山分店"},{"poiid":"B2094654D56EA5F94798","title":"好来西海鲜排档","lon":"121.52141","lat":"31.25548","category":"260","category_name":"其他","address":"杨浦区通北路217号(平凉路口)"},{"poiid":"B2094654D56EA7F4449B","title":"欧洲凯城园","lon":"121.52621","lat":"31.255312","category":"47","category_name":"住宅区","address":"上海杨浦区许昌路328弄"},{"poiid":"B2094757D064AAF84392","title":"东码头","lon":"121.5206998","lat":"31.25262055","category":"500","category_name":"未知分类","address":"上海市杨浦区秦皇岛路32号"},{"poiid":"B2094757D16EA4F44799","title":"秦皇岛路水门码头","lon":"121.518441738","lat":"31.2456866296","category":"260","category_name":"其他","address":"杨浦区秦皇岛路32号(近杨树浦路)"},{"poiid":"B2094654D56EA5FA4893","title":"满灵阁大宝海鲜大排挡","lon":"121.52191","lat":"31.25484","category":"88","category_name":"海鲜酒楼","address":"通北路173-177号"},{"poiid":"B2094757D16CA1FC429C","title":"coco都可茶饮(通北店)","lon":"121.52152","lat":"31.25556","category":"113","category_name":"冷饮店","address":"杨浦区平凉路429号(近通北路)"},{"poiid":"B2094654DB64A6F44092","title":"如家快捷酒店(上海陆家嘴店)","lon":"121.52216","lat":"31.24182","category":"216","category_name":"经济型连锁酒店","address":"上海市浦东新区昌邑路569号(近东方路)"},{"poiid":"B2094654D56EA5FB449B","title":"上海船厂总部码头","lon":"121.51973","lat":"31.25131","category":"34","category_name":"港口码头","address":""},{"poiid":"B2094654D56EA5FB4192","title":"上海康翔商务楼A.D座","lon":"121.52227","lat":"31.2521","category":"46","category_name":"楼宇","address":"杨树浦路622号"},{"poiid":"B2094750DB6EAAF5489D","title":"滨江大道","lon":"121.518669","lat":"31.245016","category":"250","category_name":"公园户外","address":"东方路"},{"poiid":"B2094757D06AA5FC439C","title":"舟山海鲜舫","lon":"121.52164","lat":"31.25528","category":"260","category_name":"其他","address":"杨浦区通北路163号(近平凉路)"},{"poiid":"B2094654D56EABFF489D","title":"东方星座","lon":"121.528","lat":"31.2477","category":"46","category_name":"楼宇","address":"杨浦区江浦路1058号(近周家嘴路)"},{"poiid":"B2094757D06FABFC469C","title":"平凉路大连路站(公交842,155,137,25,853,申川线,921终,79终)","lon":"121.518741","lat":"31.252096","category":"38","category_name":"公交车站","address":"上海市杨浦区平凉路179号"},{"poiid":"B2094757D168A5FB449B","title":"上海海洋大学图书馆","lon":"121.523911476","lat":"31.2463700469","category":"181","category_name":"图书馆","address":"上海近郊南汇区临港新城护城环路999号  "},{"poiid":"B2094654D56EA5FA499B","title":"宁波海鲜(通北路)","lon":"121.52201","lat":"31.25474","category":"88","category_name":"海鲜酒楼","address":"杨浦区通北路161-165号(近平凉路)"},{"poiid":"B2094655D26EA0FD459A","title":"上海自来水科技馆","lon":"121.52752","lat":"31.25229","category":"186","category_name":"科技馆","address":""},{"poiid":"B2094654D56EA5F9479F","title":"沪东状元楼","lon":"121.52121","lat":"31.25524","category":"257","category_name":"中餐厅","address":"平凉路403号近通北路"},{"poiid":"B2094655D36DA0F94299","title":"杨树浦路许昌路","lon":"121.52633","lat":"31.25266","category":"38","category_name":"公交车站","address":""},{"poiid":"B2094757D065A7FC4892","title":"世博秦皇岛水门","lon":"121.52025604","lat":"31.248537063","category":"500","category_name":"未知分类","address":"上海秦皇岛路"},{"poiid":"B2094757D068A4F54099","title":"劲强桌球俱乐部(平凉路店)","lon":"121.52283","lat":"31.25558","category":"171","category_name":"台球厅","address":"杨浦区平凉路480号2楼(近通北路)"},{"poiid":"B2094757D064A5F44198","title":"崂山六村","lon":"121.524","lat":"31.2442","category":"500","category_name":"未知分类","address":"上海浦东大道290弄"},{"poiid":"B2094752DB69A3FB4999","title":"东方私宴","lon":"121.520776","lat":"31.243821","category":"500","category_name":"未知分类","address":"上海市 上海市滨江大道1658号"},{"poiid":"B2094757D06FA3FA499A","title":"宋记粥铺","lon":"121.52108764","lat":"31.255048751","category":"68","category_name":"快餐厅","address":"杨浦区平凉路(通北路口)"},{"poiid":"B2094655D36DA0F94198","title":"杨树浦路大连路","lon":"121.51857","lat":"31.25196","category":"38","category_name":"公交车站","address":""},{"poiid":"B2094655D26AABFF4793","title":"上海雅客滨江酒店式服务公寓","lon":"121.52151","lat":"31.2412","category":"250","category_name":"公园户外","address":"浦东新区昌邑路588弄金隆置地大厦内(近东方路)"}]