[{"poiid":"B2094757D068A5F8459E","title":"星河湾","lon":"121.408479","lat":"31.088122","category":"47","category_name":"住宅区","address":"上海闵行区都会路3799号(近金都路)"},{"poiid":"B2094757D06FA3FB499B","title":"星巴克(新都会店)","lon":"121.4151292","lat":"31.0955231","category":"260","category_name":"其他","address":"闵行区莲花南路1500弄梅陇镇新都会15-B单元(近银都路)"},{"poiid":"B2094654DB65AAFB4193","title":"梅陇镇.新都会","lon":"121.41514","lat":"31.09556","category":"46","category_name":"楼宇","address":"闵行区莲花南路1500"},{"poiid":"B2094757D06FA6F4419A","title":"大地数字影院(新都会店)","lon":"121.4129467","lat":"31.097396864","category":"178","category_name":"电影院","address":"闵行区莲花南路1500弄梅陇镇新都会11号2楼(近银都路)"},{"poiid":"B2094757D06FABFA439C","title":"宝燕海鲜(莘庄店)","lon":"121.39846","lat":"31.08808","category":"75","category_name":"浙江菜","address":"闵行区都市路3825弄好爱广场1楼(近金都路)"},{"poiid":"B2094655D26EABFD459A","title":"必胜客 新都会店 Pizza Hut","lon":"121.412764054","lat":"31.098569793","category":"68","category_name":"快餐厅","address":"上海闵行区莲花南路1500号梅陇镇新都会(近银都路)  "},{"poiid":"B2094757D069A3F9479B","title":"南美水疗(莘庄店)","lon":"121.3986","lat":"31.08809","category":"149","category_name":"洗浴推拿场所","address":"闵行区都市路"},{"poiid":"B2094757D06FA4F84192","title":"楼园小区","lon":"121.414442","lat":"31.089001","category":"47","category_name":"住宅区","address":"上海老沪闵路706-714弄"},{"poiid":"B2094757D068ABFE4293","title":"自由港量贩式KTV(都市路店)","lon":"121.40448","lat":"31.07799","category":"170","category_name":"KTV","address":"闵行区都市路3366号4楼(近贵都路)"},{"poiid":"B2094757D06FA5FA4998","title":"乐购(都市店)","lon":"121.403425","lat":"31.080080257","category":"118","category_name":"超级市场","address":"闵行区都市路3366号(近贵都路)"},{"poiid":"B2094757D065A3FF479C","title":"银河新都","lon":"121.4138","lat":"31.093678","category":"252","category_name":"楼宇机构","address":"上海市闵行区银都路666弄"},{"poiid":"B2094757D065A2FE4498","title":"广润苑","lon":"121.419823061","lat":"31.0840995401","category":"252","category_name":"楼宇机构","address":"上海春都路88弄"},{"poiid":"B2094757D06AA2FD4993","title":"S4金都路上匝道 (沪闵高架路方向)","lon":"121.40286185","lat":"31.085065063","category":"500","category_name":"未知分类","address":"上海闵行区金都路"},{"poiid":"B2094654DB6AA6FF449A","title":"好世樱园","lon":"121.40842930945","lat":"31.089698890894","category":"47","category_name":"住宅区","address":"好世樱园位于闵行都市路3588号"},{"poiid":"B2094654DB6CA4F84692","title":"樱园","lon":"121.40267","lat":"31.083956","category":"47","category_name":"住宅区","address":"上海市闵行区都市路2566弄"},{"poiid":"B2094757D069ABFB4192","title":"赤柱真人CS","lon":"121.41180114","lat":"31.098577633","category":"500","category_name":"未知分类","address":"上海莲花南路1500梅陇新都会8-103"},{"poiid":"B2094757D16CA3F4439E","title":"君莲新城","lon":"121.40904557","lat":"31.08370188","category":"252","category_name":"楼宇机构","address":"上海都会路3199弄"},{"poiid":"B2094757D06AA6FB4192","title":"虾满堂(都市路店)","lon":"121.39806366","lat":"31.0883331299","category":"500","category_name":"未知分类","address":"上海都市路3825弄7号"},{"poiid":"B2094757D66BABF9459A","title":"品悦酒店 闵行店","lon":"121.40218774005","lat":"31.08005945754","category":"76","category_name":"上海菜","address":"闵行区都市路3377号(近贵都路)"},{"poiid":"B2094654DB6CAAF44198","title":"剑桥别墅","lon":"121.40772907665","lat":"31.094530884268","category":"47","category_name":"住宅区","address":"剑桥别墅位于闵行都市路3898号"},{"poiid":"B2094655D269ABF8489C","title":"金盛国际家居银都路店","lon":"121.40913","lat":"31.09781","category":"247","category_name":"餐饮美食","address":"闵行区银都路2988号(近莲花路)"},{"poiid":"B2094655D36CA0FF499A","title":"金都路都会路","lon":"121.40811","lat":"31.08698","category":"38","category_name":"公交车站","address":""},{"poiid":"B2094753D769A2FB479E","title":"上海星河湾酒店","lon":"121.408981","lat":"31.087783","category":"500","category_name":"未知分类","address":"上海市 闵行区都会路3799号"},{"poiid":"B2094757D16EA0F9449C","title":"赤柱真人CS俱乐部","lon":"121.412635857","lat":"31.0960712833","category":"500","category_name":"未知分类","address":"闵行区莲花南路1500号梅陇新都会2号楼1楼(近银都路)"},{"poiid":"B2094655D268ABFE4892","title":"富莎商务大厦","lon":"121.41311","lat":"31.08759","category":"46","category_name":"楼宇","address":"金都路2500号"},{"poiid":"B2094654DB6CA6FB4798","title":"上海市闵行区汽车检测中心","lon":"121.41356","lat":"31.0886","category":"250","category_name":"公园户外","address":"老沪闵路2388"},{"poiid":"B2094757D068A6FC4593","title":"易买得(银都店)","lon":"121.411","lat":"31.09939","category":"118","category_name":"超级市场","address":"上海闵行区莲花南路1388弄7号(近银都路)"},{"poiid":"B2094654DB64A6FF439F","title":"一茶一坐 梅陇新都会店","lon":"121.412764054","lat":"31.098569793","category":"260","category_name":"其他","address":"闵行区莲花南路1500弄梅陇镇新都会16号(近银都路)"},{"poiid":"B2094757D06AAAF8409E","title":"金都花好悦园","lon":"121.39911","lat":"31.091726","category":"500","category_name":"未知分类","address":"上海银都路3151弄"},{"poiid":"B2094757D06AA7F84099","title":"上海梅陇绿地智选假日酒店 Holiday Inn Express","lon":"121.413168","lat":"31.097977","category":"217","category_name":"旅馆招待所","address":"上海市闵行区银都路2359号(近莲花南路)"},{"poiid":"B2094757D069A4F54999","title":"S4沪金高速","lon":"121.40512445","lat":"31.091783397","category":"260","category_name":"其他","address":"上海莘庄立交——山阳立交"},{"poiid":"B2094750DA6AAAF84899","title":"上海南站","lon":"121.407508","lat":"31.090192","category":"500","category_name":"未知分类","address":null},{"poiid":"B2094654DB69A5FF489F","title":"味千拉面 莲花南路店","lon":"121.413483054","lat":"31.097597793","category":"95","category_name":"日本料理","address":"闵行区莲花南路1500弄梅陇镇新都会10号101-103室(近银都路)"},{"poiid":"B2094654DB6CAAFA439C","title":"海燕精菜馆","lon":"121.398469054","lat":"31.087303793","category":"72","category_name":"广东菜","address":"闵行区都市路3825弄好爱广场1楼(近金都路)"},{"poiid":"B2094757D16CA5F8489D","title":"圣特丽墅","lon":"121.408","lat":"31.0834","category":"148","category_name":"美容美发店","address":"航头沪南路5588号"},{"poiid":"B2094752D36DA3F8419D","title":"17.5凯立德影院","lon":"121.41686975955963","lat":"31.082635624485437","category":"178","category_name":"电影院","address":"闵行区春都路233号3楼"},{"poiid":"B2094654DB69ABFA419D","title":"上海美格菲健身中心(梅陇店)","lon":"121.41514","lat":"31.09556","category":"221","category_name":"健身中心","address":"闵行区莲花南路1500弄梅陇镇新都会89号(近银都路)"},{"poiid":"B2094655D36CA1FA489F","title":"莲花南路双柏路","lon":"121.41998","lat":"31.08375","category":"38","category_name":"公交车站","address":""},{"poiid":"B2094757D469A0F54299","title":"肯德基 贵都路店 KFC","lon":"121.402282054","lat":"31.079764793","category":"68","category_name":"快餐厅","address":"闵行区都市路3366号(贵都路)"},{"poiid":"B2094757D66CA5FC489B","title":"食其家(银都店)","lon":"121.404659257","lat":"31.0881897255","category":"68","category_name":"快餐厅","address":"闵行区莲花南路1388弄7号1楼(近银都路)"},{"poiid":"B2094654DB69AAFE439E","title":"香啡缤 新都会店 Coffee Bean&Tea Leaf","lon":"121.412764054","lat":"31.098569793","category":"247","category_name":"餐饮美食","address":"闵行区莲花南路1500弄梅陇镇新都会内(近银都路)"},{"poiid":"B2094655D26EA6F44492","title":"沈大成 梅陇新都会店","lon":"121.412764054","lat":"31.098569793","category":"76","category_name":"上海菜","address":"闵行区莲花南路1500弄梅陇新都会3楼301号(近银都路)"},{"poiid":"B2094655D26EA5FC479B","title":"黑三娘 好爱店","lon":"121.398469054","lat":"31.087303793","category":"71","category_name":"四川菜","address":"闵行区都市路3825弄好爱广场149-151号(近金都路)"},{"poiid":"B2094757D06AA2FA4692","title":"美格非健身莲花南路店","lon":"121.41180085","lat":"31.097254307","category":"500","category_name":"未知分类","address":"上海莲花南路新都会广场"},{"poiid":"B2094751DA65A0F44899","title":"中冶锦城","lon":"121.41627595","lat":"31.09029660999999","category":"47","category_name":"住宅区","address":"曙建路78弄"},{"poiid":"B2094655D36CA0FF4893","title":"金都路莲花南路","lon":"121.4177","lat":"31.08792","category":"38","category_name":"公交车站","address":""},{"poiid":"B2094757D06BA5F8499D","title":"好爱广场","lon":"121.40507853181","lat":"31.093686992352","category":"500","category_name":"未知分类","address":"闵行区都市路3825弄11号3楼"},{"poiid":"B2094654DB6CA6FB479B","title":"宸南大酒店","lon":"121.40452","lat":"31.09519","category":"76","category_name":"上海菜","address":"闵行区银都路2889号"},{"poiid":"B2094654DB6CAAFA499B","title":"上海市田园高级中学","lon":"121.40107","lat":"31.09106","category":"55","category_name":"中学","address":"闵行区颛桥镇田园路455号(近都市路)"},{"poiid":"B2094757D06AA3F94099","title":"君莲新城中城苑","lon":"121.41994","lat":"31.082062","category":"252","category_name":"楼宇机构","address":"上海闵行区春都路75弄"},{"poiid":"B2094757D068A5F8459E","title":"星河湾","lon":"121.408479","lat":"31.088122","category":"47","category_name":"住宅区","address":"上海闵行区都会路3799号(近金都路)"},{"poiid":"B2094757D06FA3FB499B","title":"星巴克(新都会店)","lon":"121.4151292","lat":"31.0955231","category":"260","category_name":"其他","address":"闵行区莲花南路1500弄梅陇镇新都会15-B单元(近银都路)"},{"poiid":"B2094654DB65AAFB4193","title":"梅陇镇.新都会","lon":"121.41514","lat":"31.09556","category":"46","category_name":"楼宇","address":"闵行区莲花南路1500"},{"poiid":"B2094757D06FA6F4419A","title":"大地数字影院(新都会店)","lon":"121.4129467","lat":"31.097396864","category":"178","category_name":"电影院","address":"闵行区莲花南路1500弄梅陇镇新都会11号2楼(近银都路)"},{"poiid":"B2094757D06FABFA439C","title":"宝燕海鲜(莘庄店)","lon":"121.39846","lat":"31.08808","category":"75","category_name":"浙江菜","address":"闵行区都市路3825弄好爱广场1楼(近金都路)"},{"poiid":"B2094655D26EABFD459A","title":"必胜客 新都会店 Pizza Hut","lon":"121.412764054","lat":"31.098569793","category":"68","category_name":"快餐厅","address":"上海闵行区莲花南路1500号梅陇镇新都会(近银都路)  "},{"poiid":"B2094757D069A3F9479B","title":"南美水疗(莘庄店)","lon":"121.3986","lat":"31.08809","category":"149","category_name":"洗浴推拿场所","address":"闵行区都市路"},{"poiid":"B2094757D06FA4F84192","title":"楼园小区","lon":"121.414442","lat":"31.089001","category":"47","category_name":"住宅区","address":"上海老沪闵路706-714弄"},{"poiid":"B2094757D068ABFE4293","title":"自由港量贩式KTV(都市路店)","lon":"121.40448","lat":"31.07799","category":"170","category_name":"KTV","address":"闵行区都市路3366号4楼(近贵都路)"},{"poiid":"B2094757D06FA5FA4998","title":"乐购(都市店)","lon":"121.403425","lat":"31.080080257","category":"118","category_name":"超级市场","address":"闵行区都市路3366号(近贵都路)"},{"poiid":"B2094757D065A3FF479C","title":"银河新都","lon":"121.4138","lat":"31.093678","category":"252","category_name":"楼宇机构","address":"上海市闵行区银都路666弄"},{"poiid":"B2094757D065A2FE4498","title":"广润苑","lon":"121.419823061","lat":"31.0840995401","category":"252","category_name":"楼宇机构","address":"上海春都路88弄"},{"poiid":"B2094757D06AA2FD4993","title":"S4金都路上匝道 (沪闵高架路方向)","lon":"121.40286185","lat":"31.085065063","category":"500","category_name":"未知分类","address":"上海闵行区金都路"},{"poiid":"B2094654DB6AA6FF449A","title":"好世樱园","lon":"121.40842930945","lat":"31.089698890894","category":"47","category_name":"住宅区","address":"好世樱园位于闵行都市路3588号"},{"poiid":"B2094654DB6CA4F84692","title":"樱园","lon":"121.40267","lat":"31.083956","category":"47","category_name":"住宅区","address":"上海市闵行区都市路2566弄"},{"poiid":"B2094757D069ABFB4192","title":"赤柱真人CS","lon":"121.41180114","lat":"31.098577633","category":"500","category_name":"未知分类","address":"上海莲花南路1500梅陇新都会8-103"},{"poiid":"B2094757D16CA3F4439E","title":"君莲新城","lon":"121.40904557","lat":"31.08370188","category":"252","category_name":"楼宇机构","address":"上海都会路3199弄"},{"poiid":"B2094757D06AA6FB4192","title":"虾满堂(都市路店)","lon":"121.39806366","lat":"31.0883331299","category":"500","category_name":"未知分类","address":"上海都市路3825弄7号"},{"poiid":"B2094757D66BABF9459A","title":"品悦酒店 闵行店","lon":"121.40218774005","lat":"31.08005945754","category":"76","category_name":"上海菜","address":"闵行区都市路3377号(近贵都路)"},{"poiid":"B2094654DB6CAAF44198","title":"剑桥别墅","lon":"121.40772907665","lat":"31.094530884268","category":"47","category_name":"住宅区","address":"剑桥别墅位于闵行都市路3898号"},{"poiid":"B2094655D269ABF8489C","title":"金盛国际家居银都路店","lon":"121.40913","lat":"31.09781","category":"247","category_name":"餐饮美食","address":"闵行区银都路2988号(近莲花路)"},{"poiid":"B2094655D36CA0FF499A","title":"金都路都会路","lon":"121.40811","lat":"31.08698","category":"38","category_name":"公交车站","address":""},{"poiid":"B2094753D769A2FB479E","title":"上海星河湾酒店","lon":"121.408981","lat":"31.087783","category":"500","category_name":"未知分类","address":"上海市 闵行区都会路3799号"},{"poiid":"B2094757D16EA0F9449C","title":"赤柱真人CS俱乐部","lon":"121.412635857","lat":"31.0960712833","category":"500","category_name":"未知分类","address":"闵行区莲花南路1500号梅陇新都会2号楼1楼(近银都路)"},{"poiid":"B2094655D268ABFE4892","title":"富莎商务大厦","lon":"121.41311","lat":"31.08759","category":"46","category_name":"楼宇","address":"金都路2500号"},{"poiid":"B2094654DB6CA6FB4798","title":"上海市闵行区汽车检测中心","lon":"121.41356","lat":"31.0886","category":"250","category_name":"公园户外","address":"老沪闵路2388"},{"poiid":"B2094757D068A6FC4593","title":"易买得(银都店)","lon":"121.411","lat":"31.09939","category":"118","category_name":"超级市场","address":"上海闵行区莲花南路1388弄7号(近银都路)"},{"poiid":"B2094654DB64A6FF439F","title":"一茶一坐 梅陇新都会店","lon":"121.412764054","lat":"31.098569793","category":"260","category_name":"其他","address":"闵行区莲花南路1500弄梅陇镇新都会16号(近银都路)"},{"poiid":"B2094757D06AAAF8409E","title":"金都花好悦园","lon":"121.39911","lat":"31.091726","category":"500","category_name":"未知分类","address":"上海银都路3151弄"},{"poiid":"B2094757D06AA7F84099","title":"上海梅陇绿地智选假日酒店 Holiday Inn Express","lon":"121.413168","lat":"31.097977","category":"217","category_name":"旅馆招待所","address":"上海市闵行区银都路2359号(近莲花南路)"},{"poiid":"B2094757D069A4F54999","title":"S4沪金高速","lon":"121.40512445","lat":"31.091783397","category":"260","category_name":"其他","address":"上海莘庄立交——山阳立交"},{"poiid":"B2094750DA6AAAF84899","title":"上海南站","lon":"121.407508","lat":"31.090192","category":"500","category_name":"未知分类","address":null},{"poiid":"B2094654DB69A5FF489F","title":"味千拉面 莲花南路店","lon":"121.413483054","lat":"31.097597793","category":"95","category_name":"日本料理","address":"闵行区莲花南路1500弄梅陇镇新都会10号101-103室(近银都路)"},{"poiid":"B2094654DB6CAAFA439C","title":"海燕精菜馆","lon":"121.398469054","lat":"31.087303793","category":"72","category_name":"广东菜","address":"闵行区都市路3825弄好爱广场1楼(近金都路)"},{"poiid":"B2094757D16CA5F8489D","title":"圣特丽墅","lon":"121.408","lat":"31.0834","category":"148","category_name":"美容美发店","address":"航头沪南路5588号"},{"poiid":"B2094752D36DA3F8419D","title":"17.5凯立德影院","lon":"121.41686975955963","lat":"31.082635624485437","category":"178","category_name":"电影院","address":"闵行区春都路233号3楼"},{"poiid":"B2094654DB69ABFA419D","title":"上海美格菲健身中心(梅陇店)","lon":"121.41514","lat":"31.09556","category":"221","category_name":"健身中心","address":"闵行区莲花南路1500弄梅陇镇新都会89号(近银都路)"},{"poiid":"B2094655D36CA1FA489F","title":"莲花南路双柏路","lon":"121.41998","lat":"31.08375","category":"38","category_name":"公交车站","address":""},{"poiid":"B2094757D469A0F54299","title":"肯德基 贵都路店 KFC","lon":"121.402282054","lat":"31.079764793","category":"68","category_name":"快餐厅","address":"闵行区都市路3366号(贵都路)"},{"poiid":"B2094757D66CA5FC489B","title":"食其家(银都店)","lon":"121.404659257","lat":"31.0881897255","category":"68","category_name":"快餐厅","address":"闵行区莲花南路1388弄7号1楼(近银都路)"},{"poiid":"B2094654DB69AAFE439E","title":"香啡缤 新都会店 Coffee Bean&Tea Leaf","lon":"121.412764054","lat":"31.098569793","category":"247","category_name":"餐饮美食","address":"闵行区莲花南路1500弄梅陇镇新都会内(近银都路)"},{"poiid":"B2094655D26EA6F44492","title":"沈大成 梅陇新都会店","lon":"121.412764054","lat":"31.098569793","category":"76","category_name":"上海菜","address":"闵行区莲花南路1500弄梅陇新都会3楼301号(近银都路)"},{"poiid":"B2094655D26EA5FC479B","title":"黑三娘 好爱店","lon":"121.398469054","lat":"31.087303793","category":"71","category_name":"四川菜","address":"闵行区都市路3825弄好爱广场149-151号(近金都路)"},{"poiid":"B2094757D06AA2FA4692","title":"美格非健身莲花南路店","lon":"121.41180085","lat":"31.097254307","category":"500","category_name":"未知分类","address":"上海莲花南路新都会广场"},{"poiid":"B2094751DA65A0F44899","title":"中冶锦城","lon":"121.41627595","lat":"31.09029660999999","category":"47","category_name":"住宅区","address":"曙建路78弄"},{"poiid":"B2094655D36CA0FF4893","title":"金都路莲花南路","lon":"121.4177","lat":"31.08792","category":"38","category_name":"公交车站","address":""},{"poiid":"B2094757D06BA5F8499D","title":"好爱广场","lon":"121.40507853181","lat":"31.093686992352","category":"500","category_name":"未知分类","address":"闵行区都市路3825弄11号3楼"},{"poiid":"B2094654DB6CA6FB479B","title":"宸南大酒店","lon":"121.40452","lat":"31.09519","category":"76","category_name":"上海菜","address":"闵行区银都路2889号"},{"poiid":"B2094654DB6CAAFA499B","title":"上海市田园高级中学","lon":"121.40107","lat":"31.09106","category":"55","category_name":"中学","address":"闵行区颛桥镇田园路455号(近都市路)"},{"poiid":"B2094757D06AA3F94099","title":"君莲新城中城苑","lon":"121.41994","lat":"31.082062","category":"252","category_name":"楼宇机构","address":"上海闵行区春都路75弄"},{"poiid":"B2094757D068A5F8459E","title":"星河湾","lon":"121.408479","lat":"31.088122","category":"47","category_name":"住宅区","address":"上海闵行区都会路3799号(近金都路)"},{"poiid":"B2094757D06FA3FB499B","title":"星巴克(新都会店)","lon":"121.4151292","lat":"31.0955231","category":"260","category_name":"其他","address":"闵行区莲花南路1500弄梅陇镇新都会15-B单元(近银都路)"},{"poiid":"B2094654DB65AAFB4193","title":"梅陇镇.新都会","lon":"121.41514","lat":"31.09556","category":"46","category_name":"楼宇","address":"闵行区莲花南路1500"},{"poiid":"B2094757D06FA6F4419A","title":"大地数字影院(新都会店)","lon":"121.4129467","lat":"31.097396864","category":"178","category_name":"电影院","address":"闵行区莲花南路1500弄梅陇镇新都会11号2楼(近银都路)"},{"poiid":"B2094757D06FABFA439C","title":"宝燕海鲜(莘庄店)","lon":"121.39846","lat":"31.08808","category":"75","category_name":"浙江菜","address":"闵行区都市路3825弄好爱广场1楼(近金都路)"},{"poiid":"B2094655D26EABFD459A","title":"必胜客 新都会店 Pizza Hut","lon":"121.412764054","lat":"31.098569793","category":"68","category_name":"快餐厅","address":"上海闵行区莲花南路1500号梅陇镇新都会(近银都路)  "},{"poiid":"B2094757D069A3F9479B","title":"南美水疗(莘庄店)","lon":"121.3986","lat":"31.08809","category":"149","category_name":"洗浴推拿场所","address":"闵行区都市路"},{"poiid":"B2094757D06FA4F84192","title":"楼园小区","lon":"121.414442","lat":"31.089001","category":"47","category_name":"住宅区","address":"上海老沪闵路706-714弄"},{"poiid":"B2094757D068ABFE4293","title":"自由港量贩式KTV(都市路店)","lon":"121.40448","lat":"31.07799","category":"170","category_name":"KTV","address":"闵行区都市路3366号4楼(近贵都路)"},{"poiid":"B2094757D06FA5FA4998","title":"乐购(都市店)","lon":"121.403425","lat":"31.080080257","category":"118","category_name":"超级市场","address":"闵行区都市路3366号(近贵都路)"},{"poiid":"B2094757D065A3FF479C","title":"银河新都","lon":"121.4138","lat":"31.093678","category":"252","category_name":"楼宇机构","address":"上海市闵行区银都路666弄"},{"poiid":"B2094757D065A2FE4498","title":"广润苑","lon":"121.419823061","lat":"31.0840995401","category":"252","category_name":"楼宇机构","address":"上海春都路88弄"},{"poiid":"B2094757D06AA2FD4993","title":"S4金都路上匝道 (沪闵高架路方向)","lon":"121.40286185","lat":"31.085065063","category":"500","category_name":"未知分类","address":"上海闵行区金都路"},{"poiid":"B2094654DB6AA6FF449A","title":"好世樱园","lon":"121.40842930945","lat":"31.089698890894","category":"47","category_name":"住宅区","address":"好世樱园位于闵行都市路3588号"},{"poiid":"B2094654DB6CA4F84692","title":"樱园","lon":"121.40267","lat":"31.083956","category":"47","category_name":"住宅区","address":"上海市闵行区都市路2566弄"},{"poiid":"B2094757D069ABFB4192","title":"赤柱真人CS","lon":"121.41180114","lat":"31.098577633","category":"500","category_name":"未知分类","address":"上海莲花南路1500梅陇新都会8-103"},{"poiid":"B2094757D16CA3F4439E","title":"君莲新城","lon":"121.40904557","lat":"31.08370188","category":"252","category_name":"楼宇机构","address":"上海都会路3199弄"},{"poiid":"B2094757D06AA6FB4192","title":"虾满堂(都市路店)","lon":"121.39806366","lat":"31.0883331299","category":"500","category_name":"未知分类","address":"上海都市路3825弄7号"},{"poiid":"B2094757D66BABF9459A","title":"品悦酒店 闵行店","lon":"121.40218774005","lat":"31.08005945754","category":"76","category_name":"上海菜","address":"闵行区都市路3377号(近贵都路)"},{"poiid":"B2094654DB6CAAF44198","title":"剑桥别墅","lon":"121.40772907665","lat":"31.094530884268","category":"47","category_name":"住宅区","address":"剑桥别墅位于闵行都市路3898号"},{"poiid":"B2094655D269ABF8489C","title":"金盛国际家居银都路店","lon":"121.40913","lat":"31.09781","category":"247","category_name":"餐饮美食","address":"闵行区银都路2988号(近莲花路)"},{"poiid":"B2094655D36CA0FF499A","title":"金都路都会路","lon":"121.40811","lat":"31.08698","category":"38","category_name":"公交车站","address":""},{"poiid":"B2094753D769A2FB479E","title":"上海星河湾酒店","lon":"121.408981","lat":"31.087783","category":"500","category_name":"未知分类","address":"上海市 闵行区都会路3799号"},{"poiid":"B2094757D16EA0F9449C","title":"赤柱真人CS俱乐部","lon":"121.412635857","lat":"31.0960712833","category":"500","category_name":"未知分类","address":"闵行区莲花南路1500号梅陇新都会2号楼1楼(近银都路)"},{"poiid":"B2094655D268ABFE4892","title":"富莎商务大厦","lon":"121.41311","lat":"31.08759","category":"46","category_name":"楼宇","address":"金都路2500号"},{"poiid":"B2094654DB6CA6FB4798","title":"上海市闵行区汽车检测中心","lon":"121.41356","lat":"31.0886","category":"250","category_name":"公园户外","address":"老沪闵路2388"},{"poiid":"B2094757D068A6FC4593","title":"易买得(银都店)","lon":"121.411","lat":"31.09939","category":"118","category_name":"超级市场","address":"上海闵行区莲花南路1388弄7号(近银都路)"},{"poiid":"B2094654DB64A6FF439F","title":"一茶一坐 梅陇新都会店","lon":"121.412764054","lat":"31.098569793","category":"260","category_name":"其他","address":"闵行区莲花南路1500弄梅陇镇新都会16号(近银都路)"},{"poiid":"B2094757D06AAAF8409E","title":"金都花好悦园","lon":"121.39911","lat":"31.091726","category":"500","category_name":"未知分类","address":"上海银都路3151弄"},{"poiid":"B2094757D06AA7F84099","title":"上海梅陇绿地智选假日酒店 Holiday Inn Express","lon":"121.413168","lat":"31.097977","category":"217","category_name":"旅馆招待所","address":"上海市闵行区银都路2359号(近莲花南路)"},{"poiid":"B2094757D069A4F54999","title":"S4沪金高速","lon":"121.40512445","lat":"31.091783397","category":"260","category_name":"其他","address":"上海莘庄立交——山阳立交"},{"poiid":"B2094750DA6AAAF84899","title":"上海南站","lon":"121.407508","lat":"31.090192","category":"500","category_name":"未知分类","address":null},{"poiid":"B2094654DB69A5FF489F","title":"味千拉面 莲花南路店","lon":"121.413483054","lat":"31.097597793","category":"95","category_name":"日本料理","address":"闵行区莲花南路1500弄梅陇镇新都会10号101-103室(近银都路)"},{"poiid":"B2094654DB6CAAFA439C","title":"海燕精菜馆","lon":"121.398469054","lat":"31.087303793","category":"72","category_name":"广东菜","address":"闵行区都市路3825弄好爱广场1楼(近金都路)"},{"poiid":"B2094757D16CA5F8489D","title":"圣特丽墅","lon":"121.408","lat":"31.0834","category":"148","category_name":"美容美发店","address":"航头沪南路5588号"},{"poiid":"B2094752D36DA3F8419D","title":"17.5凯立德影院","lon":"121.41686975955963","lat":"31.082635624485437","category":"178","category_name":"电影院","address":"闵行区春都路233号3楼"},{"poiid":"B2094654DB69ABFA419D","title":"上海美格菲健身中心(梅陇店)","lon":"121.41514","lat":"31.09556","category":"221","category_name":"健身中心","address":"闵行区莲花南路1500弄梅陇镇新都会89号(近银都路)"},{"poiid":"B2094655D36CA1FA489F","title":"莲花南路双柏路","lon":"121.41998","lat":"31.08375","category":"38","category_name":"公交车站","address":""},{"poiid":"B2094757D469A0F54299","title":"肯德基 贵都路店 KFC","lon":"121.402282054","lat":"31.079764793","category":"68","category_name":"快餐厅","address":"闵行区都市路3366号(贵都路)"},{"poiid":"B2094757D66CA5FC489B","title":"食其家(银都店)","lon":"121.404659257","lat":"31.0881897255","category":"68","category_name":"快餐厅","address":"闵行区莲花南路1388弄7号1楼(近银都路)"},{"poiid":"B2094654DB69AAFE439E","title":"香啡缤 新都会店 Coffee Bean&Tea Leaf","lon":"121.412764054","lat":"31.098569793","category":"247","category_name":"餐饮美食","address":"闵行区莲花南路1500弄梅陇镇新都会内(近银都路)"},{"poiid":"B2094655D26EA6F44492","title":"沈大成 梅陇新都会店","lon":"121.412764054","lat":"31.098569793","category":"76","category_name":"上海菜","address":"闵行区莲花南路1500弄梅陇新都会3楼301号(近银都路)"},{"poiid":"B2094655D26EA5FC479B","title":"黑三娘 好爱店","lon":"121.398469054","lat":"31.087303793","category":"71","category_name":"四川菜","address":"闵行区都市路3825弄好爱广场149-151号(近金都路)"},{"poiid":"B2094757D06AA2FA4692","title":"美格非健身莲花南路店","lon":"121.41180085","lat":"31.097254307","category":"500","category_name":"未知分类","address":"上海莲花南路新都会广场"},{"poiid":"B2094751DA65A0F44899","title":"中冶锦城","lon":"121.41627595","lat":"31.09029660999999","category":"47","category_name":"住宅区","address":"曙建路78弄"},{"poiid":"B2094655D36CA0FF4893","title":"金都路莲花南路","lon":"121.4177","lat":"31.08792","category":"38","category_name":"公交车站","address":""},{"poiid":"B2094757D06BA5F8499D","title":"好爱广场","lon":"121.40507853181","lat":"31.093686992352","category":"500","category_name":"未知分类","address":"闵行区都市路3825弄11号3楼"},{"poiid":"B2094654DB6CA6FB479B","title":"宸南大酒店","lon":"121.40452","lat":"31.09519","category":"76","category_name":"上海菜","address":"闵行区银都路2889号"},{"poiid":"B2094654DB6CAAFA499B","title":"上海市田园高级中学","lon":"121.40107","lat":"31.09106","category":"55","category_name":"中学","address":"闵行区颛桥镇田园路455号(近都市路)"},{"poiid":"B2094757D06AA3F94099","title":"君莲新城中城苑","lon":"121.41994","lat":"31.082062","category":"252","category_name":"楼宇机构","address":"上海闵行区春都路75弄"},{"poiid":"B2094757D068A5F8459E","title":"星河湾","lon":"121.408479","lat":"31.088122","category":"47","category_name":"住宅区","address":"上海闵行区都会路3799号(近金都路)"},{"poiid":"B2094757D06FA3FB499B","title":"星巴克(新都会店)","lon":"121.4151292","lat":"31.0955231","category":"260","category_name":"其他","address":"闵行区莲花南路1500弄梅陇镇新都会15-B单元(近银都路)"},{"poiid":"B2094654DB65AAFB4193","title":"梅陇镇.新都会","lon":"121.41514","lat":"31.09556","category":"46","category_name":"楼宇","address":"闵行区莲花南路1500"},{"poiid":"B2094757D06FA6F4419A","title":"大地数字影院(新都会店)","lon":"121.4129467","lat":"31.097396864","category":"178","category_name":"电影院","address":"闵行区莲花南路1500弄梅陇镇新都会11号2楼(近银都路)"},{"poiid":"B2094757D06FABFA439C","title":"宝燕海鲜(莘庄店)","lon":"121.39846","lat":"31.08808","category":"75","category_name":"浙江菜","address":"闵行区都市路3825弄好爱广场1楼(近金都路)"},{"poiid":"B2094655D26EABFD459A","title":"必胜客 新都会店 Pizza Hut","lon":"121.412764054","lat":"31.098569793","category":"68","category_name":"快餐厅","address":"上海闵行区莲花南路1500号梅陇镇新都会(近银都路)  "},{"poiid":"B2094757D069A3F9479B","title":"南美水疗(莘庄店)","lon":"121.3986","lat":"31.08809","category":"149","category_name":"洗浴推拿场所","address":"闵行区都市路"},{"poiid":"B2094757D06FA4F84192","title":"楼园小区","lon":"121.414442","lat":"31.089001","category":"47","category_name":"住宅区","address":"上海老沪闵路706-714弄"},{"poiid":"B2094757D068ABFE4293","title":"自由港量贩式KTV(都市路店)","lon":"121.40448","lat":"31.07799","category":"170","category_name":"KTV","address":"闵行区都市路3366号4楼(近贵都路)"},{"poiid":"B2094757D06FA5FA4998","title":"乐购(都市店)","lon":"121.403425","lat":"31.080080257","category":"118","category_name":"超级市场","address":"闵行区都市路3366号(近贵都路)"},{"poiid":"B2094757D065A3FF479C","title":"银河新都","lon":"121.4138","lat":"31.093678","category":"252","category_name":"楼宇机构","address":"上海市闵行区银都路666弄"},{"poiid":"B2094757D065A2FE4498","title":"广润苑","lon":"121.419823061","lat":"31.0840995401","category":"252","category_name":"楼宇机构","address":"上海春都路88弄"},{"poiid":"B2094757D06AA2FD4993","title":"S4金都路上匝道 (沪闵高架路方向)","lon":"121.40286185","lat":"31.085065063","category":"500","category_name":"未知分类","address":"上海闵行区金都路"},{"poiid":"B2094654DB6AA6FF449A","title":"好世樱园","lon":"121.40842930945","lat":"31.089698890894","category":"47","category_name":"住宅区","address":"好世樱园位于闵行都市路3588号"},{"poiid":"B2094654DB6CA4F84692","title":"樱园","lon":"121.40267","lat":"31.083956","category":"47","category_name":"住宅区","address":"上海市闵行区都市路2566弄"},{"poiid":"B2094757D069ABFB4192","title":"赤柱真人CS","lon":"121.41180114","lat":"31.098577633","category":"500","category_name":"未知分类","address":"上海莲花南路1500梅陇新都会8-103"},{"poiid":"B2094757D16CA3F4439E","title":"君莲新城","lon":"121.40904557","lat":"31.08370188","category":"252","category_name":"楼宇机构","address":"上海都会路3199弄"},{"poiid":"B2094757D06AA6FB4192","title":"虾满堂(都市路店)","lon":"121.39806366","lat":"31.0883331299","category":"500","category_name":"未知分类","address":"上海都市路3825弄7号"},{"poiid":"B2094757D66BABF9459A","title":"品悦酒店 闵行店","lon":"121.40218774005","lat":"31.08005945754","category":"76","category_name":"上海菜","address":"闵行区都市路3377号(近贵都路)"},{"poiid":"B2094654DB6CAAF44198","title":"剑桥别墅","lon":"121.40772907665","lat":"31.094530884268","category":"47","category_name":"住宅区","address":"剑桥别墅位于闵行都市路3898号"},{"poiid":"B2094655D269ABF8489C","title":"金盛国际家居银都路店","lon":"121.40913","lat":"31.09781","category":"247","category_name":"餐饮美食","address":"闵行区银都路2988号(近莲花路)"},{"poiid":"B2094655D36CA0FF499A","title":"金都路都会路","lon":"121.40811","lat":"31.08698","category":"38","category_name":"公交车站","address":""},{"poiid":"B2094753D769A2FB479E","title":"上海星河湾酒店","lon":"121.408981","lat":"31.087783","category":"500","category_name":"未知分类","address":"上海市 闵行区都会路3799号"},{"poiid":"B2094757D16EA0F9449C","title":"赤柱真人CS俱乐部","lon":"121.412635857","lat":"31.0960712833","category":"500","category_name":"未知分类","address":"闵行区莲花南路1500号梅陇新都会2号楼1楼(近银都路)"},{"poiid":"B2094655D268ABFE4892","title":"富莎商务大厦","lon":"121.41311","lat":"31.08759","category":"46","category_name":"楼宇","address":"金都路2500号"},{"poiid":"B2094654DB6CA6FB4798","title":"上海市闵行区汽车检测中心","lon":"121.41356","lat":"31.0886","category":"250","category_name":"公园户外","address":"老沪闵路2388"},{"poiid":"B2094757D068A6FC4593","title":"易买得(银都店)","lon":"121.411","lat":"31.09939","category":"118","category_name":"超级市场","address":"上海闵行区莲花南路1388弄7号(近银都路)"},{"poiid":"B2094654DB64A6FF439F","title":"一茶一坐 梅陇新都会店","lon":"121.412764054","lat":"31.098569793","category":"260","category_name":"其他","address":"闵行区莲花南路1500弄梅陇镇新都会16号(近银都路)"},{"poiid":"B2094757D06AAAF8409E","title":"金都花好悦园","lon":"121.39911","lat":"31.091726","category":"500","category_name":"未知分类","address":"上海银都路3151弄"},{"poiid":"B2094757D06AA7F84099","title":"上海梅陇绿地智选假日酒店 Holiday Inn Express","lon":"121.413168","lat":"31.097977","category":"217","category_name":"旅馆招待所","address":"上海市闵行区银都路2359号(近莲花南路)"},{"poiid":"B2094757D069A4F54999","title":"S4沪金高速","lon":"121.40512445","lat":"31.091783397","category":"260","category_name":"其他","address":"上海莘庄立交——山阳立交"},{"poiid":"B2094750DA6AAAF84899","title":"上海南站","lon":"121.407508","lat":"31.090192","category":"500","category_name":"未知分类","address":null},{"poiid":"B2094654DB69A5FF489F","title":"味千拉面 莲花南路店","lon":"121.413483054","lat":"31.097597793","category":"95","category_name":"日本料理","address":"闵行区莲花南路1500弄梅陇镇新都会10号101-103室(近银都路)"},{"poiid":"B2094654DB6CAAFA439C","title":"海燕精菜馆","lon":"121.398469054","lat":"31.087303793","category":"72","category_name":"广东菜","address":"闵行区都市路3825弄好爱广场1楼(近金都路)"},{"poiid":"B2094757D16CA5F8489D","title":"圣特丽墅","lon":"121.408","lat":"31.0834","category":"148","category_name":"美容美发店","address":"航头沪南路5588号"},{"poiid":"B2094752D36DA3F8419D","title":"17.5凯立德影院","lon":"121.41686975955963","lat":"31.082635624485437","category":"178","category_name":"电影院","address":"闵行区春都路233号3楼"},{"poiid":"B2094654DB69ABFA419D","title":"上海美格菲健身中心(梅陇店)","lon":"121.41514","lat":"31.09556","category":"221","category_name":"健身中心","address":"闵行区莲花南路1500弄梅陇镇新都会89号(近银都路)"},{"poiid":"B2094655D36CA1FA489F","title":"莲花南路双柏路","lon":"121.41998","lat":"31.08375","category":"38","category_name":"公交车站","address":""},{"poiid":"B2094757D469A0F54299","title":"肯德基 贵都路店 KFC","lon":"121.402282054","lat":"31.079764793","category":"68","category_name":"快餐厅","address":"闵行区都市路3366号(贵都路)"},{"poiid":"B2094757D66CA5FC489B","title":"食其家(银都店)","lon":"121.404659257","lat":"31.0881897255","category":"68","category_name":"快餐厅","address":"闵行区莲花南路1388弄7号1楼(近银都路)"},{"poiid":"B2094654DB69AAFE439E","title":"香啡缤 新都会店 Coffee Bean&Tea Leaf","lon":"121.412764054","lat":"31.098569793","category":"247","category_name":"餐饮美食","address":"闵行区莲花南路1500弄梅陇镇新都会内(近银都路)"},{"poiid":"B2094655D26EA6F44492","title":"沈大成 梅陇新都会店","lon":"121.412764054","lat":"31.098569793","category":"76","category_name":"上海菜","address":"闵行区莲花南路1500弄梅陇新都会3楼301号(近银都路)"},{"poiid":"B2094655D26EA5FC479B","title":"黑三娘 好爱店","lon":"121.398469054","lat":"31.087303793","category":"71","category_name":"四川菜","address":"闵行区都市路3825弄好爱广场149-151号(近金都路)"},{"poiid":"B2094757D06AA2FA4692","title":"美格非健身莲花南路店","lon":"121.41180085","lat":"31.097254307","category":"500","category_name":"未知分类","address":"上海莲花南路新都会广场"},{"poiid":"B2094751DA65A0F44899","title":"中冶锦城","lon":"121.41627595","lat":"31.09029660999999","category":"47","category_name":"住宅区","address":"曙建路78弄"},{"poiid":"B2094655D36CA0FF4893","title":"金都路莲花南路","lon":"121.4177","lat":"31.08792","category":"38","category_name":"公交车站","address":""},{"poiid":"B2094757D06BA5F8499D","title":"好爱广场","lon":"121.40507853181","lat":"31.093686992352","category":"500","category_name":"未知分类","address":"闵行区都市路3825弄11号3楼"},{"poiid":"B2094654DB6CA6FB479B","title":"宸南大酒店","lon":"121.40452","lat":"31.09519","category":"76","category_name":"上海菜","address":"闵行区银都路2889号"},{"poiid":"B2094654DB6CAAFA499B","title":"上海市田园高级中学","lon":"121.40107","lat":"31.09106","category":"55","category_name":"中学","address":"闵行区颛桥镇田园路455号(近都市路)"},{"poiid":"B2094757D06AA3F94099","title":"君莲新城中城苑","lon":"121.41994","lat":"31.082062","category":"252","category_name":"楼宇机构","address":"上海闵行区春都路75弄"}]