[{"poiid":"B2094757D06FA2F9469B","title":"阿木龙虾(包头南路店)","lon":"121.54139","lat":"31.29733","category":"68","category_name":"快餐厅","address":"杨浦区包头南路79号(近佳木斯路)"},{"poiid":"B2094757D16CAAF54892","title":"220辣肉面","lon":"121.539733103","lat":"31.2998050366","category":"500","category_name":"未知分类","address":"上海市杨浦区松花江路2号"},{"poiid":"B2094757D06FA3FC4398","title":"汤豪仕汤馆 国顺店","lon":"121.535952054","lat":"31.300504793","category":"76","category_name":"上海菜","address":"杨浦区国顺东路180号(近沙岗路)"},{"poiid":"B2094757D06FA0FD4798","title":"佳木斯路","lon":"121.540633895","lat":"31.2981333784","category":"627","category_name":"一般地点标志","address":"上海佳木斯路"},{"poiid":"B2094757D06FA7FB409F","title":"佳龙花园","lon":"121.53535","lat":"31.296806","category":"47","category_name":"住宅区","address":"上海市营口路600弄"},{"poiid":"B2094757D06FA7F84293","title":"肯德基 KFC (国顺店)","lon":"121.536208","lat":"31.300525","category":"68","category_name":"快餐厅","address":"杨浦区国顺东路180号(近沙岗路)"},{"poiid":"B2094757D06FA1FF4198","title":"深山老屋(国顺店)","lon":"121.53643","lat":"31.30035","category":"260","category_name":"其他","address":"杨浦区沙岗路632号(国顺东路口)"},{"poiid":"B2094757D06FA2FF459A","title":"松花江路延吉东路站(公交220终,868,135,863,874,103)","lon":"121.543189","lat":"31.296834","category":"38","category_name":"公交车站","address":"上海市杨浦区松花江路延吉东路"},{"poiid":"B2094757D06FA4FE469D","title":"海尚杰座","lon":"121.541221","lat":"31.300634","category":"47","category_name":"住宅区","address":"越秀区环市东路362-366号"},{"poiid":"B2094655D26DABFB419C","title":"黄兴绿园(国顺东路)","lon":"121.53826","lat":"31.30028","category":"47","category_name":"住宅区","address":"国顺东路179弄"},{"poiid":"B2094654D56FA6FB4898","title":"白玉兰环保广场","lon":"121.54223583627","lat":"31.298838786782","category":"46","category_name":"楼宇","address":"上海杨浦区松花江路251弄"},{"poiid":"B2094757D068A3FA489F","title":"控江五村","lon":"121.536","lat":"31.2946","category":"252","category_name":"楼宇机构","address":"上海双阳路靖宇中路口"},{"poiid":"B2094757D068A0FB4399","title":"延吉七村","lon":"121.54116771808","lat":"31.295803022138","category":"252","category_name":"楼宇机构","address":"上海延吉七村"},{"poiid":"B2094654D56FA6FA429A","title":"杨浦欣园","lon":"121.5403","lat":"31.300959","category":"47","category_name":"住宅区","address":"上海市杨浦区包头南路629弄"},{"poiid":"B2094757D068A4FB4592","title":"颐风茶道","lon":"121.53686","lat":"31.29993","category":"260","category_name":"其他","address":"杨浦区沙岗路588号(国顺东路沙岗路)"},{"poiid":"B2094757D069AAFE429F","title":"哈达瑜伽会所(佳木斯路店)","lon":"121.537234491","lat":"31.2958221136","category":"148","category_name":"美容美发店","address":"杨浦区佳木斯路358号2楼(近营口路)"},{"poiid":"B2094752D369A3F4449C","title":"万达广场","lon":"121.538368","lat":"31.29781","category":"247","category_name":"餐饮美食","address":"五角场万达广场第一食品商店二楼"},{"poiid":"B2094654D568A3FC4998","title":"松花一村","lon":"121.54093","lat":"31.294388","category":"47","category_name":"住宅区","address":"延吉东路82弄"},{"poiid":"B2094757D069A6FD409E","title":"豪享来上海国顺店","lon":"121.5358","lat":"31.3013","category":"247","category_name":"餐饮美食","address":"上海市杨浦区沙岗路620号国顺东路店"},{"poiid":"B2094654D56FA6FA4793","title":"好福楼 佳木斯路店","lon":"121.53954371687","lat":"31.297246446067","category":"76","category_name":"上海菜","address":"杨浦区佳木斯路265号(近包头南路)"},{"poiid":"B2094654DB6BA2FB469D","title":"松花小区","lon":"121.5422","lat":"31.29531","category":"47","category_name":"住宅区","address":"延吉东路82弄"},{"poiid":"B2094757D06BA5F9459E","title":"通略驾校(佳木斯路店)","lon":"121.54311","lat":"31.30001","category":"253","category_name":"校园生活","address":"杨浦区佳木斯路51号(近军工路)"},{"poiid":"B2094654D56FA6F4469F","title":"营口大厦","lon":"121.54","lat":"31.299","category":"46","category_name":"楼宇","address":"上海营口路625弄"},{"poiid":"B209475CD36AA0FA4192","title":"小南国花园酒店ADD西餐厅","lon":"121.539173","lat":"31.298171","category":"268","category_name":"自助","address":"佳木斯路777号小南国花园酒店3楼(近营口路)"},{"poiid":"B2094757D16AA3FF4699","title":"营口路","lon":"121.5367481","lat":"31.298007999","category":"500","category_name":"未知分类","address":"上海市杨浦区营口路"},{"poiid":"B2094757D069A5F9499E","title":"国顺东路沙岗路","lon":"121.537473","lat":"31.301165","category":"500","category_name":"未知分类","address":"上海国顺东路沙岗路"},{"poiid":"B2094654D56FA6FA499F","title":"上海市杨浦区民办新光医院","lon":"121.53936","lat":"31.29772","category":"162","category_name":"医院","address":"杨浦区佳木斯路258临"},{"poiid":"B2094757D06BA1FE479E","title":"远东一村","lon":"121.53943","lat":"31.298613","category":"500","category_name":"未知分类","address":"上海佳木斯路包头南路口"},{"poiid":"B2094654D56FA6FA469A","title":"毛胡子拉面店","lon":"121.54102","lat":"31.2984","category":"68","category_name":"快餐厅","address":"杨浦区佳木斯路231号(佳木斯路包头南路)"},{"poiid":"B2094757DA69A2F5429E","title":"上海华图","lon":"121.54034","lat":"31.29771","category":"54","category_name":"职业技术学校","address":"杨浦区翔殷路1088号凯迪金融大厦7楼"},{"poiid":"B2094655D36CA0FA459A","title":"佳木斯路延吉东路","lon":"121.54005","lat":"31.29791","category":"38","category_name":"公交车站","address":""},{"poiid":"B2094655D26CA5F9499A","title":"远东一村南门(佳木斯路)","lon":"121.53924","lat":"31.29756","category":"47","category_name":"住宅区","address":"佳木斯路266-270"},{"poiid":"B2094655D26FA3FC409D","title":"沈永和","lon":"121.53687562132","lat":"31.30108559595","category":"257","category_name":"中餐厅","address":"佳木斯路228号"},{"poiid":"B2094655D26DA5FE479C","title":"远东一村(杨浦欣园东南)","lon":"121.53987","lat":"31.29829","category":"47","category_name":"住宅区","address":"佳木斯路220-270"},{"poiid":"B2094757D06AABF5419E","title":"重庆鸡公煲 国顺东路店","lon":"121.53605708498","lat":"31.300342585043","category":"71","category_name":"四川菜","address":"杨浦区国顺东路221号(近沙岗路)"},{"poiid":"B2094757D068A7FB4598","title":"上海800号美术馆","lon":"121.53504","lat":"31.29969","category":"179","category_name":"音乐厅","address":"杨浦区国顺东路800号黄兴公园东楼1楼(近双阳北路)"},{"poiid":"B2094757D16FABFB439C","title":"Cherry's sweet house","lon":"121.538659103","lat":"31.2977789942","category":"500","category_name":"未知分类","address":null},{"poiid":"B2094757D568A5FB4692","title":"黄毛菜饭","lon":"121.5410911","lat":"31.29761806","category":"68","category_name":"快餐厅","address":"杨浦区包头南路85号(佳木斯路包头南路)"},{"poiid":"B2094750D664A7FB439D","title":"都可茶饮(靖宇东路店)","lon":"121.53603","lat":"31.30038","category":"113","category_name":"冷饮店","address":"杨浦区国顺东路200-3号(近沙岗路)"},{"poiid":"B2094655D26BA0F5409A","title":"天天唱吧茶苑","lon":"121.54072","lat":"31.29799","category":"170","category_name":"KTV","address":"包头南路111临"},{"poiid":"B2094750D465A2FC479E","title":"延吉东路82弄","lon":"121.538108","lat":"31.29737","category":"500","category_name":"未知分类","address":"延吉东路82弄"},{"poiid":"B2094757D16FA0F8489E","title":"佳木斯路炒面摊头","lon":"121.540714103","lat":"31.29853701","category":"247","category_name":"餐饮美食","address":"上海市杨浦区佳木斯路包头南路"},{"poiid":"B2094757D068A3FC429C","title":"怡佳苑","lon":"121.53907","lat":"31.296066","category":"500","category_name":"未知分类","address":"上海佳木斯路315弄沙岗路口"},{"poiid":"B209475CDA69A1FA449E","title":"藏珑云海","lon":"121.538833","lat":"31.296905","category":"500","category_name":"未知分类","address":"上海市 上海市杨浦区五角场大学路"},{"poiid":"B2094757D069ABFF429A","title":"法国UWANTART当代画廊","lon":"121.5354","lat":"31.29991","category":"179","category_name":"音乐厅","address":"杨浦区国顺东路800号艺术园区三楼303-305室(近双阳北路)"},{"poiid":"B2094655D36CA0FA4492","title":"佳木斯路包头南路","lon":"121.54121","lat":"31.29888","category":"38","category_name":"公交车站","address":""},{"poiid":"B2094757D06FAAFA449A","title":"浣沙三村","lon":"121.53683","lat":"31.302334","category":"252","category_name":"楼宇机构","address":"上海杨浦区沙岗路国顺东路"},{"poiid":"B2094757DA6FA3F44298","title":"鸡排超人(黄兴公园店)","lon":"121.534342999999","lat":"31.2990749999998","category":"68","category_name":"快餐厅","address":"杨浦区国顺东路237号(近营口路)"},{"poiid":"B2094757D569A7FB499D","title":"克莉丝汀佳木斯店","lon":"121.537185","lat":"31.29577194","category":"112","category_name":"糕饼店","address":"杨浦区佳木斯路356号(近营口路)"},{"poiid":"B2094655D26BA0F84993","title":"速8酒店","lon":"121.53987","lat":"31.30129","category":"216","category_name":"经济型连锁酒店","address":""},{"poiid":"B2094757D06FA2F9469B","title":"阿木龙虾(包头南路店)","lon":"121.54139","lat":"31.29733","category":"68","category_name":"快餐厅","address":"杨浦区包头南路79号(近佳木斯路)"},{"poiid":"B2094757D16CAAF54892","title":"220辣肉面","lon":"121.539733103","lat":"31.2998050366","category":"500","category_name":"未知分类","address":"上海市杨浦区松花江路2号"},{"poiid":"B2094757D06FA3FC4398","title":"汤豪仕汤馆 国顺店","lon":"121.535952054","lat":"31.300504793","category":"76","category_name":"上海菜","address":"杨浦区国顺东路180号(近沙岗路)"},{"poiid":"B2094757D06FA0FD4798","title":"佳木斯路","lon":"121.540633895","lat":"31.2981333784","category":"627","category_name":"一般地点标志","address":"上海佳木斯路"},{"poiid":"B2094757D06FA7FB409F","title":"佳龙花园","lon":"121.53535","lat":"31.296806","category":"47","category_name":"住宅区","address":"上海市营口路600弄"},{"poiid":"B2094757D06FA7F84293","title":"肯德基 KFC (国顺店)","lon":"121.536208","lat":"31.300525","category":"68","category_name":"快餐厅","address":"杨浦区国顺东路180号(近沙岗路)"},{"poiid":"B2094757D06FA1FF4198","title":"深山老屋(国顺店)","lon":"121.53643","lat":"31.30035","category":"260","category_name":"其他","address":"杨浦区沙岗路632号(国顺东路口)"},{"poiid":"B2094757D06FA2FF459A","title":"松花江路延吉东路站(公交220终,868,135,863,874,103)","lon":"121.543189","lat":"31.296834","category":"38","category_name":"公交车站","address":"上海市杨浦区松花江路延吉东路"},{"poiid":"B2094757D06FA4FE469D","title":"海尚杰座","lon":"121.541221","lat":"31.300634","category":"47","category_name":"住宅区","address":"越秀区环市东路362-366号"},{"poiid":"B2094655D26DABFB419C","title":"黄兴绿园(国顺东路)","lon":"121.53826","lat":"31.30028","category":"47","category_name":"住宅区","address":"国顺东路179弄"},{"poiid":"B2094654D56FA6FB4898","title":"白玉兰环保广场","lon":"121.54223583627","lat":"31.298838786782","category":"46","category_name":"楼宇","address":"上海杨浦区松花江路251弄"},{"poiid":"B2094757D068A3FA489F","title":"控江五村","lon":"121.536","lat":"31.2946","category":"252","category_name":"楼宇机构","address":"上海双阳路靖宇中路口"},{"poiid":"B2094757D068A0FB4399","title":"延吉七村","lon":"121.54116771808","lat":"31.295803022138","category":"252","category_name":"楼宇机构","address":"上海延吉七村"},{"poiid":"B2094654D56FA6FA429A","title":"杨浦欣园","lon":"121.5403","lat":"31.300959","category":"47","category_name":"住宅区","address":"上海市杨浦区包头南路629弄"},{"poiid":"B2094757D068A4FB4592","title":"颐风茶道","lon":"121.53686","lat":"31.29993","category":"260","category_name":"其他","address":"杨浦区沙岗路588号(国顺东路沙岗路)"},{"poiid":"B2094757D069AAFE429F","title":"哈达瑜伽会所(佳木斯路店)","lon":"121.537234491","lat":"31.2958221136","category":"148","category_name":"美容美发店","address":"杨浦区佳木斯路358号2楼(近营口路)"},{"poiid":"B2094752D369A3F4449C","title":"万达广场","lon":"121.538368","lat":"31.29781","category":"247","category_name":"餐饮美食","address":"五角场万达广场第一食品商店二楼"},{"poiid":"B2094654D568A3FC4998","title":"松花一村","lon":"121.54093","lat":"31.294388","category":"47","category_name":"住宅区","address":"延吉东路82弄"},{"poiid":"B2094757D069A6FD409E","title":"豪享来上海国顺店","lon":"121.5358","lat":"31.3013","category":"247","category_name":"餐饮美食","address":"上海市杨浦区沙岗路620号国顺东路店"},{"poiid":"B2094654D56FA6FA4793","title":"好福楼 佳木斯路店","lon":"121.53954371687","lat":"31.297246446067","category":"76","category_name":"上海菜","address":"杨浦区佳木斯路265号(近包头南路)"},{"poiid":"B2094654DB6BA2FB469D","title":"松花小区","lon":"121.5422","lat":"31.29531","category":"47","category_name":"住宅区","address":"延吉东路82弄"},{"poiid":"B2094757D06BA5F9459E","title":"通略驾校(佳木斯路店)","lon":"121.54311","lat":"31.30001","category":"253","category_name":"校园生活","address":"杨浦区佳木斯路51号(近军工路)"},{"poiid":"B2094654D56FA6F4469F","title":"营口大厦","lon":"121.54","lat":"31.299","category":"46","category_name":"楼宇","address":"上海营口路625弄"},{"poiid":"B209475CD36AA0FA4192","title":"小南国花园酒店ADD西餐厅","lon":"121.539173","lat":"31.298171","category":"268","category_name":"自助","address":"佳木斯路777号小南国花园酒店3楼(近营口路)"},{"poiid":"B2094757D16AA3FF4699","title":"营口路","lon":"121.5367481","lat":"31.298007999","category":"500","category_name":"未知分类","address":"上海市杨浦区营口路"},{"poiid":"B2094757D069A5F9499E","title":"国顺东路沙岗路","lon":"121.537473","lat":"31.301165","category":"500","category_name":"未知分类","address":"上海国顺东路沙岗路"},{"poiid":"B2094654D56FA6FA499F","title":"上海市杨浦区民办新光医院","lon":"121.53936","lat":"31.29772","category":"162","category_name":"医院","address":"杨浦区佳木斯路258临"},{"poiid":"B2094757D06BA1FE479E","title":"远东一村","lon":"121.53943","lat":"31.298613","category":"500","category_name":"未知分类","address":"上海佳木斯路包头南路口"},{"poiid":"B2094654D56FA6FA469A","title":"毛胡子拉面店","lon":"121.54102","lat":"31.2984","category":"68","category_name":"快餐厅","address":"杨浦区佳木斯路231号(佳木斯路包头南路)"},{"poiid":"B2094757DA69A2F5429E","title":"上海华图","lon":"121.54034","lat":"31.29771","category":"54","category_name":"职业技术学校","address":"杨浦区翔殷路1088号凯迪金融大厦7楼"},{"poiid":"B2094655D36CA0FA459A","title":"佳木斯路延吉东路","lon":"121.54005","lat":"31.29791","category":"38","category_name":"公交车站","address":""},{"poiid":"B2094655D26CA5F9499A","title":"远东一村南门(佳木斯路)","lon":"121.53924","lat":"31.29756","category":"47","category_name":"住宅区","address":"佳木斯路266-270"},{"poiid":"B2094655D26FA3FC409D","title":"沈永和","lon":"121.53687562132","lat":"31.30108559595","category":"257","category_name":"中餐厅","address":"佳木斯路228号"},{"poiid":"B2094655D26DA5FE479C","title":"远东一村(杨浦欣园东南)","lon":"121.53987","lat":"31.29829","category":"47","category_name":"住宅区","address":"佳木斯路220-270"},{"poiid":"B2094757D06AABF5419E","title":"重庆鸡公煲 国顺东路店","lon":"121.53605708498","lat":"31.300342585043","category":"71","category_name":"四川菜","address":"杨浦区国顺东路221号(近沙岗路)"},{"poiid":"B2094757D068A7FB4598","title":"上海800号美术馆","lon":"121.53504","lat":"31.29969","category":"179","category_name":"音乐厅","address":"杨浦区国顺东路800号黄兴公园东楼1楼(近双阳北路)"},{"poiid":"B2094757D16FABFB439C","title":"Cherry's sweet house","lon":"121.538659103","lat":"31.2977789942","category":"500","category_name":"未知分类","address":null},{"poiid":"B2094757D568A5FB4692","title":"黄毛菜饭","lon":"121.5410911","lat":"31.29761806","category":"68","category_name":"快餐厅","address":"杨浦区包头南路85号(佳木斯路包头南路)"},{"poiid":"B2094750D664A7FB439D","title":"都可茶饮(靖宇东路店)","lon":"121.53603","lat":"31.30038","category":"113","category_name":"冷饮店","address":"杨浦区国顺东路200-3号(近沙岗路)"},{"poiid":"B2094655D26BA0F5409A","title":"天天唱吧茶苑","lon":"121.54072","lat":"31.29799","category":"170","category_name":"KTV","address":"包头南路111临"},{"poiid":"B2094750D465A2FC479E","title":"延吉东路82弄","lon":"121.538108","lat":"31.29737","category":"500","category_name":"未知分类","address":"延吉东路82弄"},{"poiid":"B2094757D16FA0F8489E","title":"佳木斯路炒面摊头","lon":"121.540714103","lat":"31.29853701","category":"247","category_name":"餐饮美食","address":"上海市杨浦区佳木斯路包头南路"},{"poiid":"B2094757D068A3FC429C","title":"怡佳苑","lon":"121.53907","lat":"31.296066","category":"500","category_name":"未知分类","address":"上海佳木斯路315弄沙岗路口"},{"poiid":"B209475CDA69A1FA449E","title":"藏珑云海","lon":"121.538833","lat":"31.296905","category":"500","category_name":"未知分类","address":"上海市 上海市杨浦区五角场大学路"},{"poiid":"B2094757D069ABFF429A","title":"法国UWANTART当代画廊","lon":"121.5354","lat":"31.29991","category":"179","category_name":"音乐厅","address":"杨浦区国顺东路800号艺术园区三楼303-305室(近双阳北路)"},{"poiid":"B2094655D36CA0FA4492","title":"佳木斯路包头南路","lon":"121.54121","lat":"31.29888","category":"38","category_name":"公交车站","address":""},{"poiid":"B2094757D06FAAFA449A","title":"浣沙三村","lon":"121.53683","lat":"31.302334","category":"252","category_name":"楼宇机构","address":"上海杨浦区沙岗路国顺东路"},{"poiid":"B2094757DA6FA3F44298","title":"鸡排超人(黄兴公园店)","lon":"121.534342999999","lat":"31.2990749999998","category":"68","category_name":"快餐厅","address":"杨浦区国顺东路237号(近营口路)"},{"poiid":"B2094757D569A7FB499D","title":"克莉丝汀佳木斯店","lon":"121.537185","lat":"31.29577194","category":"112","category_name":"糕饼店","address":"杨浦区佳木斯路356号(近营口路)"},{"poiid":"B2094655D26BA0F84993","title":"速8酒店","lon":"121.53987","lat":"31.30129","category":"216","category_name":"经济型连锁酒店","address":""},{"poiid":"B2094757D06FA2F9469B","title":"阿木龙虾(包头南路店)","lon":"121.54139","lat":"31.29733","category":"68","category_name":"快餐厅","address":"杨浦区包头南路79号(近佳木斯路)"},{"poiid":"B2094757D16CAAF54892","title":"220辣肉面","lon":"121.539733103","lat":"31.2998050366","category":"500","category_name":"未知分类","address":"上海市杨浦区松花江路2号"},{"poiid":"B2094757D06FA3FC4398","title":"汤豪仕汤馆 国顺店","lon":"121.535952054","lat":"31.300504793","category":"76","category_name":"上海菜","address":"杨浦区国顺东路180号(近沙岗路)"},{"poiid":"B2094757D06FA0FD4798","title":"佳木斯路","lon":"121.540633895","lat":"31.2981333784","category":"627","category_name":"一般地点标志","address":"上海佳木斯路"},{"poiid":"B2094757D06FA7FB409F","title":"佳龙花园","lon":"121.53535","lat":"31.296806","category":"47","category_name":"住宅区","address":"上海市营口路600弄"},{"poiid":"B2094757D06FA7F84293","title":"肯德基 KFC (国顺店)","lon":"121.536208","lat":"31.300525","category":"68","category_name":"快餐厅","address":"杨浦区国顺东路180号(近沙岗路)"},{"poiid":"B2094757D06FA1FF4198","title":"深山老屋(国顺店)","lon":"121.53643","lat":"31.30035","category":"260","category_name":"其他","address":"杨浦区沙岗路632号(国顺东路口)"},{"poiid":"B2094757D06FA2FF459A","title":"松花江路延吉东路站(公交220终,868,135,863,874,103)","lon":"121.543189","lat":"31.296834","category":"38","category_name":"公交车站","address":"上海市杨浦区松花江路延吉东路"},{"poiid":"B2094757D06FA4FE469D","title":"海尚杰座","lon":"121.541221","lat":"31.300634","category":"47","category_name":"住宅区","address":"越秀区环市东路362-366号"},{"poiid":"B2094655D26DABFB419C","title":"黄兴绿园(国顺东路)","lon":"121.53826","lat":"31.30028","category":"47","category_name":"住宅区","address":"国顺东路179弄"},{"poiid":"B2094654D56FA6FB4898","title":"白玉兰环保广场","lon":"121.54223583627","lat":"31.298838786782","category":"46","category_name":"楼宇","address":"上海杨浦区松花江路251弄"},{"poiid":"B2094757D068A3FA489F","title":"控江五村","lon":"121.536","lat":"31.2946","category":"252","category_name":"楼宇机构","address":"上海双阳路靖宇中路口"},{"poiid":"B2094757D068A0FB4399","title":"延吉七村","lon":"121.54116771808","lat":"31.295803022138","category":"252","category_name":"楼宇机构","address":"上海延吉七村"},{"poiid":"B2094654D56FA6FA429A","title":"杨浦欣园","lon":"121.5403","lat":"31.300959","category":"47","category_name":"住宅区","address":"上海市杨浦区包头南路629弄"},{"poiid":"B2094757D068A4FB4592","title":"颐风茶道","lon":"121.53686","lat":"31.29993","category":"260","category_name":"其他","address":"杨浦区沙岗路588号(国顺东路沙岗路)"},{"poiid":"B2094757D069AAFE429F","title":"哈达瑜伽会所(佳木斯路店)","lon":"121.537234491","lat":"31.2958221136","category":"148","category_name":"美容美发店","address":"杨浦区佳木斯路358号2楼(近营口路)"},{"poiid":"B2094752D369A3F4449C","title":"万达广场","lon":"121.538368","lat":"31.29781","category":"247","category_name":"餐饮美食","address":"五角场万达广场第一食品商店二楼"},{"poiid":"B2094654D568A3FC4998","title":"松花一村","lon":"121.54093","lat":"31.294388","category":"47","category_name":"住宅区","address":"延吉东路82弄"},{"poiid":"B2094757D069A6FD409E","title":"豪享来上海国顺店","lon":"121.5358","lat":"31.3013","category":"247","category_name":"餐饮美食","address":"上海市杨浦区沙岗路620号国顺东路店"},{"poiid":"B2094654D56FA6FA4793","title":"好福楼 佳木斯路店","lon":"121.53954371687","lat":"31.297246446067","category":"76","category_name":"上海菜","address":"杨浦区佳木斯路265号(近包头南路)"},{"poiid":"B2094654DB6BA2FB469D","title":"松花小区","lon":"121.5422","lat":"31.29531","category":"47","category_name":"住宅区","address":"延吉东路82弄"},{"poiid":"B2094757D06BA5F9459E","title":"通略驾校(佳木斯路店)","lon":"121.54311","lat":"31.30001","category":"253","category_name":"校园生活","address":"杨浦区佳木斯路51号(近军工路)"},{"poiid":"B2094654D56FA6F4469F","title":"营口大厦","lon":"121.54","lat":"31.299","category":"46","category_name":"楼宇","address":"上海营口路625弄"},{"poiid":"B209475CD36AA0FA4192","title":"小南国花园酒店ADD西餐厅","lon":"121.539173","lat":"31.298171","category":"268","category_name":"自助","address":"佳木斯路777号小南国花园酒店3楼(近营口路)"},{"poiid":"B2094757D16AA3FF4699","title":"营口路","lon":"121.5367481","lat":"31.298007999","category":"500","category_name":"未知分类","address":"上海市杨浦区营口路"},{"poiid":"B2094757D069A5F9499E","title":"国顺东路沙岗路","lon":"121.537473","lat":"31.301165","category":"500","category_name":"未知分类","address":"上海国顺东路沙岗路"},{"poiid":"B2094654D56FA6FA499F","title":"上海市杨浦区民办新光医院","lon":"121.53936","lat":"31.29772","category":"162","category_name":"医院","address":"杨浦区佳木斯路258临"},{"poiid":"B2094757D06BA1FE479E","title":"远东一村","lon":"121.53943","lat":"31.298613","category":"500","category_name":"未知分类","address":"上海佳木斯路包头南路口"},{"poiid":"B2094654D56FA6FA469A","title":"毛胡子拉面店","lon":"121.54102","lat":"31.2984","category":"68","category_name":"快餐厅","address":"杨浦区佳木斯路231号(佳木斯路包头南路)"},{"poiid":"B2094757DA69A2F5429E","title":"上海华图","lon":"121.54034","lat":"31.29771","category":"54","category_name":"职业技术学校","address":"杨浦区翔殷路1088号凯迪金融大厦7楼"},{"poiid":"B2094655D36CA0FA459A","title":"佳木斯路延吉东路","lon":"121.54005","lat":"31.29791","category":"38","category_name":"公交车站","address":""},{"poiid":"B2094655D26CA5F9499A","title":"远东一村南门(佳木斯路)","lon":"121.53924","lat":"31.29756","category":"47","category_name":"住宅区","address":"佳木斯路266-270"},{"poiid":"B2094655D26FA3FC409D","title":"沈永和","lon":"121.53687562132","lat":"31.30108559595","category":"257","category_name":"中餐厅","address":"佳木斯路228号"},{"poiid":"B2094655D26DA5FE479C","title":"远东一村(杨浦欣园东南)","lon":"121.53987","lat":"31.29829","category":"47","category_name":"住宅区","address":"佳木斯路220-270"},{"poiid":"B2094757D06AABF5419E","title":"重庆鸡公煲 国顺东路店","lon":"121.53605708498","lat":"31.300342585043","category":"71","category_name":"四川菜","address":"杨浦区国顺东路221号(近沙岗路)"},{"poiid":"B2094757D068A7FB4598","title":"上海800号美术馆","lon":"121.53504","lat":"31.29969","category":"179","category_name":"音乐厅","address":"杨浦区国顺东路800号黄兴公园东楼1楼(近双阳北路)"},{"poiid":"B2094757D16FABFB439C","title":"Cherry's sweet house","lon":"121.538659103","lat":"31.2977789942","category":"500","category_name":"未知分类","address":null},{"poiid":"B2094757D568A5FB4692","title":"黄毛菜饭","lon":"121.5410911","lat":"31.29761806","category":"68","category_name":"快餐厅","address":"杨浦区包头南路85号(佳木斯路包头南路)"},{"poiid":"B2094750D664A7FB439D","title":"都可茶饮(靖宇东路店)","lon":"121.53603","lat":"31.30038","category":"113","category_name":"冷饮店","address":"杨浦区国顺东路200-3号(近沙岗路)"},{"poiid":"B2094655D26BA0F5409A","title":"天天唱吧茶苑","lon":"121.54072","lat":"31.29799","category":"170","category_name":"KTV","address":"包头南路111临"},{"poiid":"B2094750D465A2FC479E","title":"延吉东路82弄","lon":"121.538108","lat":"31.29737","category":"500","category_name":"未知分类","address":"延吉东路82弄"},{"poiid":"B2094757D16FA0F8489E","title":"佳木斯路炒面摊头","lon":"121.540714103","lat":"31.29853701","category":"247","category_name":"餐饮美食","address":"上海市杨浦区佳木斯路包头南路"},{"poiid":"B2094757D068A3FC429C","title":"怡佳苑","lon":"121.53907","lat":"31.296066","category":"500","category_name":"未知分类","address":"上海佳木斯路315弄沙岗路口"},{"poiid":"B209475CDA69A1FA449E","title":"藏珑云海","lon":"121.538833","lat":"31.296905","category":"500","category_name":"未知分类","address":"上海市 上海市杨浦区五角场大学路"},{"poiid":"B2094757D069ABFF429A","title":"法国UWANTART当代画廊","lon":"121.5354","lat":"31.29991","category":"179","category_name":"音乐厅","address":"杨浦区国顺东路800号艺术园区三楼303-305室(近双阳北路)"},{"poiid":"B2094655D36CA0FA4492","title":"佳木斯路包头南路","lon":"121.54121","lat":"31.29888","category":"38","category_name":"公交车站","address":""},{"poiid":"B2094757D06FAAFA449A","title":"浣沙三村","lon":"121.53683","lat":"31.302334","category":"252","category_name":"楼宇机构","address":"上海杨浦区沙岗路国顺东路"},{"poiid":"B2094757DA6FA3F44298","title":"鸡排超人(黄兴公园店)","lon":"121.534342999999","lat":"31.2990749999998","category":"68","category_name":"快餐厅","address":"杨浦区国顺东路237号(近营口路)"},{"poiid":"B2094757D569A7FB499D","title":"克莉丝汀佳木斯店","lon":"121.537185","lat":"31.29577194","category":"112","category_name":"糕饼店","address":"杨浦区佳木斯路356号(近营口路)"},{"poiid":"B2094655D26BA0F84993","title":"速8酒店","lon":"121.53987","lat":"31.30129","category":"216","category_name":"经济型连锁酒店","address":""},{"poiid":"B2094757D06FA2F9469B","title":"阿木龙虾(包头南路店)","lon":"121.54139","lat":"31.29733","category":"68","category_name":"快餐厅","address":"杨浦区包头南路79号(近佳木斯路)"},{"poiid":"B2094757D16CAAF54892","title":"220辣肉面","lon":"121.539733103","lat":"31.2998050366","category":"500","category_name":"未知分类","address":"上海市杨浦区松花江路2号"},{"poiid":"B2094757D06FA3FC4398","title":"汤豪仕汤馆 国顺店","lon":"121.535952054","lat":"31.300504793","category":"76","category_name":"上海菜","address":"杨浦区国顺东路180号(近沙岗路)"},{"poiid":"B2094757D06FA0FD4798","title":"佳木斯路","lon":"121.540633895","lat":"31.2981333784","category":"627","category_name":"一般地点标志","address":"上海佳木斯路"},{"poiid":"B2094757D06FA7FB409F","title":"佳龙花园","lon":"121.53535","lat":"31.296806","category":"47","category_name":"住宅区","address":"上海市营口路600弄"},{"poiid":"B2094757D06FA7F84293","title":"肯德基 KFC (国顺店)","lon":"121.536208","lat":"31.300525","category":"68","category_name":"快餐厅","address":"杨浦区国顺东路180号(近沙岗路)"},{"poiid":"B2094757D06FA1FF4198","title":"深山老屋(国顺店)","lon":"121.53643","lat":"31.30035","category":"260","category_name":"其他","address":"杨浦区沙岗路632号(国顺东路口)"},{"poiid":"B2094757D06FA2FF459A","title":"松花江路延吉东路站(公交220终,868,135,863,874,103)","lon":"121.543189","lat":"31.296834","category":"38","category_name":"公交车站","address":"上海市杨浦区松花江路延吉东路"},{"poiid":"B2094757D06FA4FE469D","title":"海尚杰座","lon":"121.541221","lat":"31.300634","category":"47","category_name":"住宅区","address":"越秀区环市东路362-366号"},{"poiid":"B2094655D26DABFB419C","title":"黄兴绿园(国顺东路)","lon":"121.53826","lat":"31.30028","category":"47","category_name":"住宅区","address":"国顺东路179弄"},{"poiid":"B2094654D56FA6FB4898","title":"白玉兰环保广场","lon":"121.54223583627","lat":"31.298838786782","category":"46","category_name":"楼宇","address":"上海杨浦区松花江路251弄"},{"poiid":"B2094757D068A3FA489F","title":"控江五村","lon":"121.536","lat":"31.2946","category":"252","category_name":"楼宇机构","address":"上海双阳路靖宇中路口"},{"poiid":"B2094757D068A0FB4399","title":"延吉七村","lon":"121.54116771808","lat":"31.295803022138","category":"252","category_name":"楼宇机构","address":"上海延吉七村"},{"poiid":"B2094654D56FA6FA429A","title":"杨浦欣园","lon":"121.5403","lat":"31.300959","category":"47","category_name":"住宅区","address":"上海市杨浦区包头南路629弄"},{"poiid":"B2094757D068A4FB4592","title":"颐风茶道","lon":"121.53686","lat":"31.29993","category":"260","category_name":"其他","address":"杨浦区沙岗路588号(国顺东路沙岗路)"},{"poiid":"B2094757D069AAFE429F","title":"哈达瑜伽会所(佳木斯路店)","lon":"121.537234491","lat":"31.2958221136","category":"148","category_name":"美容美发店","address":"杨浦区佳木斯路358号2楼(近营口路)"},{"poiid":"B2094752D369A3F4449C","title":"万达广场","lon":"121.538368","lat":"31.29781","category":"247","category_name":"餐饮美食","address":"五角场万达广场第一食品商店二楼"},{"poiid":"B2094654D568A3FC4998","title":"松花一村","lon":"121.54093","lat":"31.294388","category":"47","category_name":"住宅区","address":"延吉东路82弄"},{"poiid":"B2094757D069A6FD409E","title":"豪享来上海国顺店","lon":"121.5358","lat":"31.3013","category":"247","category_name":"餐饮美食","address":"上海市杨浦区沙岗路620号国顺东路店"},{"poiid":"B2094654D56FA6FA4793","title":"好福楼 佳木斯路店","lon":"121.53954371687","lat":"31.297246446067","category":"76","category_name":"上海菜","address":"杨浦区佳木斯路265号(近包头南路)"},{"poiid":"B2094654DB6BA2FB469D","title":"松花小区","lon":"121.5422","lat":"31.29531","category":"47","category_name":"住宅区","address":"延吉东路82弄"},{"poiid":"B2094757D06BA5F9459E","title":"通略驾校(佳木斯路店)","lon":"121.54311","lat":"31.30001","category":"253","category_name":"校园生活","address":"杨浦区佳木斯路51号(近军工路)"},{"poiid":"B2094654D56FA6F4469F","title":"营口大厦","lon":"121.54","lat":"31.299","category":"46","category_name":"楼宇","address":"上海营口路625弄"},{"poiid":"B209475CD36AA0FA4192","title":"小南国花园酒店ADD西餐厅","lon":"121.539173","lat":"31.298171","category":"268","category_name":"自助","address":"佳木斯路777号小南国花园酒店3楼(近营口路)"},{"poiid":"B2094757D16AA3FF4699","title":"营口路","lon":"121.5367481","lat":"31.298007999","category":"500","category_name":"未知分类","address":"上海市杨浦区营口路"},{"poiid":"B2094757D069A5F9499E","title":"国顺东路沙岗路","lon":"121.537473","lat":"31.301165","category":"500","category_name":"未知分类","address":"上海国顺东路沙岗路"},{"poiid":"B2094654D56FA6FA499F","title":"上海市杨浦区民办新光医院","lon":"121.53936","lat":"31.29772","category":"162","category_name":"医院","address":"杨浦区佳木斯路258临"},{"poiid":"B2094757D06BA1FE479E","title":"远东一村","lon":"121.53943","lat":"31.298613","category":"500","category_name":"未知分类","address":"上海佳木斯路包头南路口"},{"poiid":"B2094654D56FA6FA469A","title":"毛胡子拉面店","lon":"121.54102","lat":"31.2984","category":"68","category_name":"快餐厅","address":"杨浦区佳木斯路231号(佳木斯路包头南路)"},{"poiid":"B2094757DA69A2F5429E","title":"上海华图","lon":"121.54034","lat":"31.29771","category":"54","category_name":"职业技术学校","address":"杨浦区翔殷路1088号凯迪金融大厦7楼"},{"poiid":"B2094655D36CA0FA459A","title":"佳木斯路延吉东路","lon":"121.54005","lat":"31.29791","category":"38","category_name":"公交车站","address":""},{"poiid":"B2094655D26CA5F9499A","title":"远东一村南门(佳木斯路)","lon":"121.53924","lat":"31.29756","category":"47","category_name":"住宅区","address":"佳木斯路266-270"},{"poiid":"B2094655D26FA3FC409D","title":"沈永和","lon":"121.53687562132","lat":"31.30108559595","category":"257","category_name":"中餐厅","address":"佳木斯路228号"},{"poiid":"B2094655D26DA5FE479C","title":"远东一村(杨浦欣园东南)","lon":"121.53987","lat":"31.29829","category":"47","category_name":"住宅区","address":"佳木斯路220-270"},{"poiid":"B2094757D06AABF5419E","title":"重庆鸡公煲 国顺东路店","lon":"121.53605708498","lat":"31.300342585043","category":"71","category_name":"四川菜","address":"杨浦区国顺东路221号(近沙岗路)"},{"poiid":"B2094757D068A7FB4598","title":"上海800号美术馆","lon":"121.53504","lat":"31.29969","category":"179","category_name":"音乐厅","address":"杨浦区国顺东路800号黄兴公园东楼1楼(近双阳北路)"},{"poiid":"B2094757D16FABFB439C","title":"Cherry's sweet house","lon":"121.538659103","lat":"31.2977789942","category":"500","category_name":"未知分类","address":null},{"poiid":"B2094757D568A5FB4692","title":"黄毛菜饭","lon":"121.5410911","lat":"31.29761806","category":"68","category_name":"快餐厅","address":"杨浦区包头南路85号(佳木斯路包头南路)"},{"poiid":"B2094750D664A7FB439D","title":"都可茶饮(靖宇东路店)","lon":"121.53603","lat":"31.30038","category":"113","category_name":"冷饮店","address":"杨浦区国顺东路200-3号(近沙岗路)"},{"poiid":"B2094655D26BA0F5409A","title":"天天唱吧茶苑","lon":"121.54072","lat":"31.29799","category":"170","category_name":"KTV","address":"包头南路111临"},{"poiid":"B2094750D465A2FC479E","title":"延吉东路82弄","lon":"121.538108","lat":"31.29737","category":"500","category_name":"未知分类","address":"延吉东路82弄"},{"poiid":"B2094757D16FA0F8489E","title":"佳木斯路炒面摊头","lon":"121.540714103","lat":"31.29853701","category":"247","category_name":"餐饮美食","address":"上海市杨浦区佳木斯路包头南路"},{"poiid":"B2094757D068A3FC429C","title":"怡佳苑","lon":"121.53907","lat":"31.296066","category":"500","category_name":"未知分类","address":"上海佳木斯路315弄沙岗路口"},{"poiid":"B209475CDA69A1FA449E","title":"藏珑云海","lon":"121.538833","lat":"31.296905","category":"500","category_name":"未知分类","address":"上海市 上海市杨浦区五角场大学路"},{"poiid":"B2094757D069ABFF429A","title":"法国UWANTART当代画廊","lon":"121.5354","lat":"31.29991","category":"179","category_name":"音乐厅","address":"杨浦区国顺东路800号艺术园区三楼303-305室(近双阳北路)"},{"poiid":"B2094655D36CA0FA4492","title":"佳木斯路包头南路","lon":"121.54121","lat":"31.29888","category":"38","category_name":"公交车站","address":""},{"poiid":"B2094757D06FAAFA449A","title":"浣沙三村","lon":"121.53683","lat":"31.302334","category":"252","category_name":"楼宇机构","address":"上海杨浦区沙岗路国顺东路"},{"poiid":"B2094757DA6FA3F44298","title":"鸡排超人(黄兴公园店)","lon":"121.534342999999","lat":"31.2990749999998","category":"68","category_name":"快餐厅","address":"杨浦区国顺东路237号(近营口路)"},{"poiid":"B2094757D569A7FB499D","title":"克莉丝汀佳木斯店","lon":"121.537185","lat":"31.29577194","category":"112","category_name":"糕饼店","address":"杨浦区佳木斯路356号(近营口路)"},{"poiid":"B2094655D26BA0F84993","title":"速8酒店","lon":"121.53987","lat":"31.30129","category":"216","category_name":"经济型连锁酒店","address":""}]