[{"poiid":"B2094757DA6EA6F5469B","title":"外婆家(818广场店)","lon":"121.460788249969","lat":"31.230931141954","category":"75","category_name":"浙江菜","address":"静安区南京西路818号818广场701室(近石门一路)"},{"poiid":"B2094655D26AAAFE4992","title":"818广场","lon":"121.46094","lat":"31.23094","category":"119","category_name":"商场","address":"静安区南京西路818号(近石门一路)"},{"poiid":"B2094757D06FA1F9489A","title":"藏珑泰厨","lon":"121.46120173","lat":"31.230886314","category":"99","category_name":"泰国／越南菜品餐厅","address":"静安区南京西路818号818广场6楼(近石门一路)"},{"poiid":"B2094753D76FAAFA449C","title":"上海滩国泰旗舰店","lon":"121.466011","lat":"31.216125","category":"249","category_name":"购物服务","address":"淮海中路868号"},{"poiid":"B209475CD564A7F84292","title":"上海滩新天地店","lon":"121.47463","lat":"31.22164","category":"119","category_name":"商场","address":"\"太仓路181弄新天地北里15号\r\n\""},{"poiid":"B209475CD564A7F8439E","title":"上海滩中信泰富店","lon":"121.45602","lat":"31.22851","category":"119","category_name":"商场","address":"\"南京西路1168号中信泰富广场，店铺号221.\r\n\""},{"poiid":"B2094750DA6DAAFD4099","title":"MOOK CLUB","lon":"121.4629","lat":"31.23149","category":"172","category_name":"酒吧","address":"静安区南京西路758号5-6楼(近凤阳路)"},{"poiid":"B2094655D26FA6FB4892","title":"文新报业大厦","lon":"121.464","lat":"31.2318","category":"46","category_name":"楼宇","address":"上海市静安区威海路755号"},{"poiid":"B2094757D06FA2FC439F","title":"静安雕塑公园","lon":"121.46159","lat":"31.2328","category":"196","category_name":"公园","address":"静安区石门二路128号(近北京西路)"},{"poiid":"B2094654DA6CA1F84292","title":"王家沙(南京西路)","lon":"121.46122","lat":"31.23063","category":"257","category_name":"中餐厅","address":"静安区南京西路805号(近石门一路)"},{"poiid":"B2094655D26AAAF8449C","title":"香港狮子山下","lon":"121.46094","lat":"31.23094","category":"72","category_name":"广东菜","address":"静安区南京西路818号818广场5楼(近石门二路)"},{"poiid":"B2094757D06FABFE419D","title":"吴江路","lon":"121.463009","lat":"31.230562","category":"260","category_name":"其他","address":"上海静安区吴江路"},{"poiid":"B2094757D06FA0F44298","title":"WINDOWS(青海路店)","lon":"121.46414","lat":"31.2309","category":"260","category_name":"其他","address":"静安区南京西路698号(上海电视台对面)"},{"poiid":"B2094655D26EA4FC409E","title":"甜蜜蜜(吴江店)","lon":"121.46241","lat":"31.23028","category":"87","category_name":"特色／地方风味餐厅","address":"静安区吴江路178号(近泰兴路)"},{"poiid":"B2094750DA6DABF5439F","title":"MOOK CLUB","lon":"121.462947","lat":"31.231401","category":"248","category_name":"生活娱乐","address":"静安区南京西路758号"},{"poiid":"B2094757DB68A5F5449E","title":"古丽仙西域情餐厅 GULIXIAN RESTAURANT","lon":"121.460917","lat":"31.231043","category":"90","category_name":"清真餐馆","address":"静安区南京西路818号818广场5楼(近石门一路)"},{"poiid":"B2094757DA6EA6FB419A","title":"合点寿司(南京西路店)","lon":"121.461213999998","lat":"31.2304790000002","category":"95","category_name":"日本料理","address":"静安区南京西路818号818广场B1楼(近石门一路)"},{"poiid":"B2094757D06AA5F4459D","title":"Awfully Chocolate","lon":"121.461541738","lat":"31.2302323001","category":"500","category_name":"未知分类","address":"上海市静安区泰兴路"},{"poiid":"B2094757D06FA3FF419F","title":"Wagas沃歌斯(吴江路店)","lon":"121.46191406","lat":"31.230632782","category":"94","category_name":"西餐厅","address":"静安区吴江路169号四季坊116室(近泰兴路)"},{"poiid":"B2094757D06FA6FF429B","title":"泰意Lapis Cafe","lon":"121.460911738","lat":"31.2306823097","category":"94","category_name":"西餐厅","address":"静安区南京西路818号818广场6楼(近石门一路)"},{"poiid":"B2094655D26AABFD4592","title":"佰家仟味","lon":"121.46094","lat":"31.23094","category":"260","category_name":"其他","address":"静安区南京西路818号818广场5楼(近石门一路)"},{"poiid":"B2094757D06FA0F9409A","title":"悦蓉香锅牛蛙馆","lon":"121.461138","lat":"31.230666","category":"247","category_name":"餐饮美食","address":"上海南京西路818号(818广场)B1"},{"poiid":"B2094655D26BA1FF469C","title":"南京西路上海电视台","lon":"121.46267","lat":"31.23099","category":"38","category_name":"公交车站","address":""},{"poiid":"B2094757D065A7F94698","title":"大渔铁板烧","lon":"121.460854738","lat":"31.2307773117","category":"247","category_name":"餐饮美食","address":"上海静安区南京西路818号6楼"},{"poiid":"B2094757D46EA5F54798","title":"金必多茶餐厅","lon":"121.4609876","lat":"31.2307105","category":"72","category_name":"广东菜","address":"静安区南京西路819号开欣商厦410室(近石门一路)"},{"poiid":"B2094757D069A1FC459B","title":"相扑烤肉","lon":"121.462337738","lat":"31.2299672945","category":"257","category_name":"中餐厅","address":"上海吴江路169号四季坊商场2楼201﹣206单元"},{"poiid":"B2094757D068A3FB429B","title":"上海市东方公证处","lon":"121.4634585","lat":"31.231949636","category":"46","category_name":"楼宇","address":"上海静安区凤阳路660号（接待大厅 凤阳路598号）"},{"poiid":"B2094757D069A2F9429D","title":"玛莎百货咖啡厅","lon":"121.460338054","lat":"31.230278793","category":"65","category_name":"咖啡厅","address":"南京西路863号玛莎百货4楼近石门一路"},{"poiid":"B2094757D06AA4FB499C","title":"Noz Michio Nozawa Hair Produce","lon":"121.46091669","lat":"31.230796314","category":"500","category_name":"未知分类","address":"上海静安区南京西路832号"},{"poiid":"B2094757D06BA3FA489A","title":"HM","lon":"121.461163338","lat":"31.2305978079","category":"141","category_name":"服装鞋帽皮具店","address":"上海南京西路865号"},{"poiid":"B2094757D06FAAF8499A","title":"嘉发大厦","lon":"121.4627151","lat":"31.23285293","category":"46","category_name":"楼宇","address":"新华都商务花园位于长宁定西路685号"},{"poiid":"B2094750DB6BA3F4469B","title":"mook","lon":"121.462669","lat":"31.23101","category":"500","category_name":"未知分类","address":null},{"poiid":"B2094757D56CABFB409A","title":"芋贵人甜品店 南京西路店","lon":"121.4609876","lat":"31.2307105","category":"67","category_name":"甜品店","address":"静安区南京西路819号开欣商场412室"},{"poiid":"B2094654DA6CA2FB489D","title":"华华川菜馆","lon":"121.46253","lat":"31.2302","category":"71","category_name":"四川菜","address":"静安区奉贤路61号(近石门二路)"},{"poiid":"B2094750D364A2F84692","title":"eden-LoungeClub","lon":"121.46263588015","lat":"31.23111042168","category":"111","category_name":"休闲餐饮场所","address":"南京西路760号博爱大厦4楼(阿斯顿.马丁车展厅楼上近石门二路)"},{"poiid":"B2094757D069A3FB4693","title":"东方有线大厦","lon":"121.463497653","lat":"31.2304960495","category":"46","category_name":"楼宇","address":"上海南京西路699号"},{"poiid":"B2094654DB6BA6F4449B","title":"振鼎鸡(静安店)","lon":"121.46159","lat":"31.23197","category":"68","category_name":"快餐厅","address":"静安区石门二路61号(近北京西路)"},{"poiid":"B2094757D06FA4FD459D","title":"爱茜茜里(吴江路店)","lon":"121.46266","lat":"31.23008","category":"257","category_name":"中餐厅","address":"静安区吴江路166号1楼(近石门一路)"},{"poiid":"B2094655D26DA6FE439A","title":"上海小南国吴江店","lon":"121.46344","lat":"31.23039","category":"257","category_name":"中餐厅","address":""},{"poiid":"B2094757D465A6F8469C","title":"味千拉面 818广场店","lon":"121.461623054","lat":"31.231004793","category":"95","category_name":"日本料理","address":"静安区南京西路818号818广场B1楼104B(近石门一路)"},{"poiid":"B2094757D468AAF9459C","title":"GCX","lon":"121.461331","lat":"31.230426","category":"94","category_name":"西餐厅","address":"静安区吴江路休闲步行街138号2楼(近石门一路)"},{"poiid":"B2094757D068A7F8459B","title":"南京美发店(南京西路店)","lon":"121.46209","lat":"31.23075","category":"148","category_name":"美容美发店","address":"静安区南京西路784号(近石门一路)"},{"poiid":"B2094757D16EA7FD4293","title":"东来顺","lon":"121.462352738","lat":"31.2320483388","category":"500","category_name":"未知分类","address":"上海石门二路215号"},{"poiid":"B2094654DA6CA2FB409D","title":"东方众鑫大厦","lon":"121.46334","lat":"31.23035","category":"46","category_name":"楼宇","address":"朝阳亚运村北炎黄艺术馆旁"},{"poiid":"B2094654DA6CA2FF469A","title":"东展商业大厦","lon":"121.46185","lat":"31.23266","category":"46","category_name":"楼宇","address":"丰台学城海鹰路1号，3号"},{"poiid":"B2094757D068A3F4439C","title":"虾球传","lon":"121.461917054","lat":"31.231753793","category":"71","category_name":"四川菜","address":"静安区奉贤路55号(近石门二路)"},{"poiid":"B2094654DA6CA2F8499B","title":"吴江路东段小吃街","lon":"121.46176","lat":"31.23032","category":"116","category_name":"特色商业街","address":"吴江路"},{"poiid":"B2094757D068A2FE409E","title":"蜀地辣子鱼 静安店","lon":"121.46161651611","lat":"31.231472015381","category":"71","category_name":"四川菜","address":"静安区奉贤路53号(近石门二路)"},{"poiid":"B2094757D06FA2FF409A","title":"无印良品MUJI(南京西路)","lon":"121.46100542","lat":"31.231078614","category":"123","category_name":"家具建材市场","address":"上海静安区南京西路818号818广场308-311(近石门一路)"},{"poiid":"B2094654DA6CA2FA479A","title":"小黑蚝情 吴江路店","lon":"121.45784441073","lat":"31.232374844312","category":"257","category_name":"中餐厅","address":"吴江路82号近石门一路"},{"poiid":"B2094757DA6EA6F5469B","title":"外婆家(818广场店)","lon":"121.460788249969","lat":"31.230931141954","category":"75","category_name":"浙江菜","address":"静安区南京西路818号818广场701室(近石门一路)"},{"poiid":"B2094655D26AAAFE4992","title":"818广场","lon":"121.46094","lat":"31.23094","category":"119","category_name":"商场","address":"静安区南京西路818号(近石门一路)"},{"poiid":"B2094757D06FA1F9489A","title":"藏珑泰厨","lon":"121.46120173","lat":"31.230886314","category":"99","category_name":"泰国／越南菜品餐厅","address":"静安区南京西路818号818广场6楼(近石门一路)"},{"poiid":"B2094753D76FAAFA449C","title":"上海滩国泰旗舰店","lon":"121.466011","lat":"31.216125","category":"249","category_name":"购物服务","address":"淮海中路868号"},{"poiid":"B209475CD564A7F84292","title":"上海滩新天地店","lon":"121.47463","lat":"31.22164","category":"119","category_name":"商场","address":"\"太仓路181弄新天地北里15号\r\n\""},{"poiid":"B209475CD564A7F8439E","title":"上海滩中信泰富店","lon":"121.45602","lat":"31.22851","category":"119","category_name":"商场","address":"\"南京西路1168号中信泰富广场，店铺号221.\r\n\""},{"poiid":"B2094750DA6DAAFD4099","title":"MOOK CLUB","lon":"121.4629","lat":"31.23149","category":"172","category_name":"酒吧","address":"静安区南京西路758号5-6楼(近凤阳路)"},{"poiid":"B2094655D26FA6FB4892","title":"文新报业大厦","lon":"121.464","lat":"31.2318","category":"46","category_name":"楼宇","address":"上海市静安区威海路755号"},{"poiid":"B2094757D06FA2FC439F","title":"静安雕塑公园","lon":"121.46159","lat":"31.2328","category":"196","category_name":"公园","address":"静安区石门二路128号(近北京西路)"},{"poiid":"B2094654DA6CA1F84292","title":"王家沙(南京西路)","lon":"121.46122","lat":"31.23063","category":"257","category_name":"中餐厅","address":"静安区南京西路805号(近石门一路)"},{"poiid":"B2094655D26AAAF8449C","title":"香港狮子山下","lon":"121.46094","lat":"31.23094","category":"72","category_name":"广东菜","address":"静安区南京西路818号818广场5楼(近石门二路)"},{"poiid":"B2094757D06FABFE419D","title":"吴江路","lon":"121.463009","lat":"31.230562","category":"260","category_name":"其他","address":"上海静安区吴江路"},{"poiid":"B2094757D06FA0F44298","title":"WINDOWS(青海路店)","lon":"121.46414","lat":"31.2309","category":"260","category_name":"其他","address":"静安区南京西路698号(上海电视台对面)"},{"poiid":"B2094655D26EA4FC409E","title":"甜蜜蜜(吴江店)","lon":"121.46241","lat":"31.23028","category":"87","category_name":"特色／地方风味餐厅","address":"静安区吴江路178号(近泰兴路)"},{"poiid":"B2094750DA6DABF5439F","title":"MOOK CLUB","lon":"121.462947","lat":"31.231401","category":"248","category_name":"生活娱乐","address":"静安区南京西路758号"},{"poiid":"B2094757DB68A5F5449E","title":"古丽仙西域情餐厅 GULIXIAN RESTAURANT","lon":"121.460917","lat":"31.231043","category":"90","category_name":"清真餐馆","address":"静安区南京西路818号818广场5楼(近石门一路)"},{"poiid":"B2094757DA6EA6FB419A","title":"合点寿司(南京西路店)","lon":"121.461213999998","lat":"31.2304790000002","category":"95","category_name":"日本料理","address":"静安区南京西路818号818广场B1楼(近石门一路)"},{"poiid":"B2094757D06AA5F4459D","title":"Awfully Chocolate","lon":"121.461541738","lat":"31.2302323001","category":"500","category_name":"未知分类","address":"上海市静安区泰兴路"},{"poiid":"B2094757D06FA3FF419F","title":"Wagas沃歌斯(吴江路店)","lon":"121.46191406","lat":"31.230632782","category":"94","category_name":"西餐厅","address":"静安区吴江路169号四季坊116室(近泰兴路)"},{"poiid":"B2094757D06FA6FF429B","title":"泰意Lapis Cafe","lon":"121.460911738","lat":"31.2306823097","category":"94","category_name":"西餐厅","address":"静安区南京西路818号818广场6楼(近石门一路)"},{"poiid":"B2094655D26AABFD4592","title":"佰家仟味","lon":"121.46094","lat":"31.23094","category":"260","category_name":"其他","address":"静安区南京西路818号818广场5楼(近石门一路)"},{"poiid":"B2094757D06FA0F9409A","title":"悦蓉香锅牛蛙馆","lon":"121.461138","lat":"31.230666","category":"247","category_name":"餐饮美食","address":"上海南京西路818号(818广场)B1"},{"poiid":"B2094655D26BA1FF469C","title":"南京西路上海电视台","lon":"121.46267","lat":"31.23099","category":"38","category_name":"公交车站","address":""},{"poiid":"B2094757D065A7F94698","title":"大渔铁板烧","lon":"121.460854738","lat":"31.2307773117","category":"247","category_name":"餐饮美食","address":"上海静安区南京西路818号6楼"},{"poiid":"B2094757D46EA5F54798","title":"金必多茶餐厅","lon":"121.4609876","lat":"31.2307105","category":"72","category_name":"广东菜","address":"静安区南京西路819号开欣商厦410室(近石门一路)"},{"poiid":"B2094757D069A1FC459B","title":"相扑烤肉","lon":"121.462337738","lat":"31.2299672945","category":"257","category_name":"中餐厅","address":"上海吴江路169号四季坊商场2楼201﹣206单元"},{"poiid":"B2094757D068A3FB429B","title":"上海市东方公证处","lon":"121.4634585","lat":"31.231949636","category":"46","category_name":"楼宇","address":"上海静安区凤阳路660号（接待大厅 凤阳路598号）"},{"poiid":"B2094757D069A2F9429D","title":"玛莎百货咖啡厅","lon":"121.460338054","lat":"31.230278793","category":"65","category_name":"咖啡厅","address":"南京西路863号玛莎百货4楼近石门一路"},{"poiid":"B2094757D06AA4FB499C","title":"Noz Michio Nozawa Hair Produce","lon":"121.46091669","lat":"31.230796314","category":"500","category_name":"未知分类","address":"上海静安区南京西路832号"},{"poiid":"B2094757D06BA3FA489A","title":"HM","lon":"121.461163338","lat":"31.2305978079","category":"141","category_name":"服装鞋帽皮具店","address":"上海南京西路865号"},{"poiid":"B2094757D06FAAF8499A","title":"嘉发大厦","lon":"121.4627151","lat":"31.23285293","category":"46","category_name":"楼宇","address":"新华都商务花园位于长宁定西路685号"},{"poiid":"B2094750DB6BA3F4469B","title":"mook","lon":"121.462669","lat":"31.23101","category":"500","category_name":"未知分类","address":null},{"poiid":"B2094757D56CABFB409A","title":"芋贵人甜品店 南京西路店","lon":"121.4609876","lat":"31.2307105","category":"67","category_name":"甜品店","address":"静安区南京西路819号开欣商场412室"},{"poiid":"B2094654DA6CA2FB489D","title":"华华川菜馆","lon":"121.46253","lat":"31.2302","category":"71","category_name":"四川菜","address":"静安区奉贤路61号(近石门二路)"},{"poiid":"B2094750D364A2F84692","title":"eden-LoungeClub","lon":"121.46263588015","lat":"31.23111042168","category":"111","category_name":"休闲餐饮场所","address":"南京西路760号博爱大厦4楼(阿斯顿.马丁车展厅楼上近石门二路)"},{"poiid":"B2094757D069A3FB4693","title":"东方有线大厦","lon":"121.463497653","lat":"31.2304960495","category":"46","category_name":"楼宇","address":"上海南京西路699号"},{"poiid":"B2094654DB6BA6F4449B","title":"振鼎鸡(静安店)","lon":"121.46159","lat":"31.23197","category":"68","category_name":"快餐厅","address":"静安区石门二路61号(近北京西路)"},{"poiid":"B2094757D06FA4FD459D","title":"爱茜茜里(吴江路店)","lon":"121.46266","lat":"31.23008","category":"257","category_name":"中餐厅","address":"静安区吴江路166号1楼(近石门一路)"},{"poiid":"B2094655D26DA6FE439A","title":"上海小南国吴江店","lon":"121.46344","lat":"31.23039","category":"257","category_name":"中餐厅","address":""},{"poiid":"B2094757D465A6F8469C","title":"味千拉面 818广场店","lon":"121.461623054","lat":"31.231004793","category":"95","category_name":"日本料理","address":"静安区南京西路818号818广场B1楼104B(近石门一路)"},{"poiid":"B2094757D468AAF9459C","title":"GCX","lon":"121.461331","lat":"31.230426","category":"94","category_name":"西餐厅","address":"静安区吴江路休闲步行街138号2楼(近石门一路)"},{"poiid":"B2094757D068A7F8459B","title":"南京美发店(南京西路店)","lon":"121.46209","lat":"31.23075","category":"148","category_name":"美容美发店","address":"静安区南京西路784号(近石门一路)"},{"poiid":"B2094757D16EA7FD4293","title":"东来顺","lon":"121.462352738","lat":"31.2320483388","category":"500","category_name":"未知分类","address":"上海石门二路215号"},{"poiid":"B2094654DA6CA2FB409D","title":"东方众鑫大厦","lon":"121.46334","lat":"31.23035","category":"46","category_name":"楼宇","address":"朝阳亚运村北炎黄艺术馆旁"},{"poiid":"B2094654DA6CA2FF469A","title":"东展商业大厦","lon":"121.46185","lat":"31.23266","category":"46","category_name":"楼宇","address":"丰台学城海鹰路1号，3号"},{"poiid":"B2094757D068A3F4439C","title":"虾球传","lon":"121.461917054","lat":"31.231753793","category":"71","category_name":"四川菜","address":"静安区奉贤路55号(近石门二路)"},{"poiid":"B2094654DA6CA2F8499B","title":"吴江路东段小吃街","lon":"121.46176","lat":"31.23032","category":"116","category_name":"特色商业街","address":"吴江路"},{"poiid":"B2094757D068A2FE409E","title":"蜀地辣子鱼 静安店","lon":"121.46161651611","lat":"31.231472015381","category":"71","category_name":"四川菜","address":"静安区奉贤路53号(近石门二路)"},{"poiid":"B2094757D06FA2FF409A","title":"无印良品MUJI(南京西路)","lon":"121.46100542","lat":"31.231078614","category":"123","category_name":"家具建材市场","address":"上海静安区南京西路818号818广场308-311(近石门一路)"},{"poiid":"B2094654DA6CA2FA479A","title":"小黑蚝情 吴江路店","lon":"121.45784441073","lat":"31.232374844312","category":"257","category_name":"中餐厅","address":"吴江路82号近石门一路"},{"poiid":"B2094757DA6EA6F5469B","title":"外婆家(818广场店)","lon":"121.460788249969","lat":"31.230931141954","category":"75","category_name":"浙江菜","address":"静安区南京西路818号818广场701室(近石门一路)"},{"poiid":"B2094655D26AAAFE4992","title":"818广场","lon":"121.46094","lat":"31.23094","category":"119","category_name":"商场","address":"静安区南京西路818号(近石门一路)"},{"poiid":"B2094757D06FA1F9489A","title":"藏珑泰厨","lon":"121.46120173","lat":"31.230886314","category":"99","category_name":"泰国／越南菜品餐厅","address":"静安区南京西路818号818广场6楼(近石门一路)"},{"poiid":"B2094753D76FAAFA449C","title":"上海滩国泰旗舰店","lon":"121.466011","lat":"31.216125","category":"249","category_name":"购物服务","address":"淮海中路868号"},{"poiid":"B209475CD564A7F84292","title":"上海滩新天地店","lon":"121.47463","lat":"31.22164","category":"119","category_name":"商场","address":"\"太仓路181弄新天地北里15号\r\n\""},{"poiid":"B209475CD564A7F8439E","title":"上海滩中信泰富店","lon":"121.45602","lat":"31.22851","category":"119","category_name":"商场","address":"\"南京西路1168号中信泰富广场，店铺号221.\r\n\""},{"poiid":"B2094750DA6DAAFD4099","title":"MOOK CLUB","lon":"121.4629","lat":"31.23149","category":"172","category_name":"酒吧","address":"静安区南京西路758号5-6楼(近凤阳路)"},{"poiid":"B2094655D26FA6FB4892","title":"文新报业大厦","lon":"121.464","lat":"31.2318","category":"46","category_name":"楼宇","address":"上海市静安区威海路755号"},{"poiid":"B2094757D06FA2FC439F","title":"静安雕塑公园","lon":"121.46159","lat":"31.2328","category":"196","category_name":"公园","address":"静安区石门二路128号(近北京西路)"},{"poiid":"B2094654DA6CA1F84292","title":"王家沙(南京西路)","lon":"121.46122","lat":"31.23063","category":"257","category_name":"中餐厅","address":"静安区南京西路805号(近石门一路)"},{"poiid":"B2094655D26AAAF8449C","title":"香港狮子山下","lon":"121.46094","lat":"31.23094","category":"72","category_name":"广东菜","address":"静安区南京西路818号818广场5楼(近石门二路)"},{"poiid":"B2094757D06FABFE419D","title":"吴江路","lon":"121.463009","lat":"31.230562","category":"260","category_name":"其他","address":"上海静安区吴江路"},{"poiid":"B2094757D06FA0F44298","title":"WINDOWS(青海路店)","lon":"121.46414","lat":"31.2309","category":"260","category_name":"其他","address":"静安区南京西路698号(上海电视台对面)"},{"poiid":"B2094655D26EA4FC409E","title":"甜蜜蜜(吴江店)","lon":"121.46241","lat":"31.23028","category":"87","category_name":"特色／地方风味餐厅","address":"静安区吴江路178号(近泰兴路)"},{"poiid":"B2094750DA6DABF5439F","title":"MOOK CLUB","lon":"121.462947","lat":"31.231401","category":"248","category_name":"生活娱乐","address":"静安区南京西路758号"},{"poiid":"B2094757DB68A5F5449E","title":"古丽仙西域情餐厅 GULIXIAN RESTAURANT","lon":"121.460917","lat":"31.231043","category":"90","category_name":"清真餐馆","address":"静安区南京西路818号818广场5楼(近石门一路)"},{"poiid":"B2094757DA6EA6FB419A","title":"合点寿司(南京西路店)","lon":"121.461213999998","lat":"31.2304790000002","category":"95","category_name":"日本料理","address":"静安区南京西路818号818广场B1楼(近石门一路)"},{"poiid":"B2094757D06AA5F4459D","title":"Awfully Chocolate","lon":"121.461541738","lat":"31.2302323001","category":"500","category_name":"未知分类","address":"上海市静安区泰兴路"},{"poiid":"B2094757D06FA3FF419F","title":"Wagas沃歌斯(吴江路店)","lon":"121.46191406","lat":"31.230632782","category":"94","category_name":"西餐厅","address":"静安区吴江路169号四季坊116室(近泰兴路)"},{"poiid":"B2094757D06FA6FF429B","title":"泰意Lapis Cafe","lon":"121.460911738","lat":"31.2306823097","category":"94","category_name":"西餐厅","address":"静安区南京西路818号818广场6楼(近石门一路)"},{"poiid":"B2094655D26AABFD4592","title":"佰家仟味","lon":"121.46094","lat":"31.23094","category":"260","category_name":"其他","address":"静安区南京西路818号818广场5楼(近石门一路)"},{"poiid":"B2094757D06FA0F9409A","title":"悦蓉香锅牛蛙馆","lon":"121.461138","lat":"31.230666","category":"247","category_name":"餐饮美食","address":"上海南京西路818号(818广场)B1"},{"poiid":"B2094655D26BA1FF469C","title":"南京西路上海电视台","lon":"121.46267","lat":"31.23099","category":"38","category_name":"公交车站","address":""},{"poiid":"B2094757D065A7F94698","title":"大渔铁板烧","lon":"121.460854738","lat":"31.2307773117","category":"247","category_name":"餐饮美食","address":"上海静安区南京西路818号6楼"},{"poiid":"B2094757D46EA5F54798","title":"金必多茶餐厅","lon":"121.4609876","lat":"31.2307105","category":"72","category_name":"广东菜","address":"静安区南京西路819号开欣商厦410室(近石门一路)"},{"poiid":"B2094757D069A1FC459B","title":"相扑烤肉","lon":"121.462337738","lat":"31.2299672945","category":"257","category_name":"中餐厅","address":"上海吴江路169号四季坊商场2楼201﹣206单元"},{"poiid":"B2094757D068A3FB429B","title":"上海市东方公证处","lon":"121.4634585","lat":"31.231949636","category":"46","category_name":"楼宇","address":"上海静安区凤阳路660号（接待大厅 凤阳路598号）"},{"poiid":"B2094757D069A2F9429D","title":"玛莎百货咖啡厅","lon":"121.460338054","lat":"31.230278793","category":"65","category_name":"咖啡厅","address":"南京西路863号玛莎百货4楼近石门一路"},{"poiid":"B2094757D06AA4FB499C","title":"Noz Michio Nozawa Hair Produce","lon":"121.46091669","lat":"31.230796314","category":"500","category_name":"未知分类","address":"上海静安区南京西路832号"},{"poiid":"B2094757D06BA3FA489A","title":"HM","lon":"121.461163338","lat":"31.2305978079","category":"141","category_name":"服装鞋帽皮具店","address":"上海南京西路865号"},{"poiid":"B2094757D06FAAF8499A","title":"嘉发大厦","lon":"121.4627151","lat":"31.23285293","category":"46","category_name":"楼宇","address":"新华都商务花园位于长宁定西路685号"},{"poiid":"B2094750DB6BA3F4469B","title":"mook","lon":"121.462669","lat":"31.23101","category":"500","category_name":"未知分类","address":null},{"poiid":"B2094757D56CABFB409A","title":"芋贵人甜品店 南京西路店","lon":"121.4609876","lat":"31.2307105","category":"67","category_name":"甜品店","address":"静安区南京西路819号开欣商场412室"},{"poiid":"B2094654DA6CA2FB489D","title":"华华川菜馆","lon":"121.46253","lat":"31.2302","category":"71","category_name":"四川菜","address":"静安区奉贤路61号(近石门二路)"},{"poiid":"B2094750D364A2F84692","title":"eden-LoungeClub","lon":"121.46263588015","lat":"31.23111042168","category":"111","category_name":"休闲餐饮场所","address":"南京西路760号博爱大厦4楼(阿斯顿.马丁车展厅楼上近石门二路)"},{"poiid":"B2094757D069A3FB4693","title":"东方有线大厦","lon":"121.463497653","lat":"31.2304960495","category":"46","category_name":"楼宇","address":"上海南京西路699号"},{"poiid":"B2094654DB6BA6F4449B","title":"振鼎鸡(静安店)","lon":"121.46159","lat":"31.23197","category":"68","category_name":"快餐厅","address":"静安区石门二路61号(近北京西路)"},{"poiid":"B2094757D06FA4FD459D","title":"爱茜茜里(吴江路店)","lon":"121.46266","lat":"31.23008","category":"257","category_name":"中餐厅","address":"静安区吴江路166号1楼(近石门一路)"},{"poiid":"B2094655D26DA6FE439A","title":"上海小南国吴江店","lon":"121.46344","lat":"31.23039","category":"257","category_name":"中餐厅","address":""},{"poiid":"B2094757D465A6F8469C","title":"味千拉面 818广场店","lon":"121.461623054","lat":"31.231004793","category":"95","category_name":"日本料理","address":"静安区南京西路818号818广场B1楼104B(近石门一路)"},{"poiid":"B2094757D468AAF9459C","title":"GCX","lon":"121.461331","lat":"31.230426","category":"94","category_name":"西餐厅","address":"静安区吴江路休闲步行街138号2楼(近石门一路)"},{"poiid":"B2094757D068A7F8459B","title":"南京美发店(南京西路店)","lon":"121.46209","lat":"31.23075","category":"148","category_name":"美容美发店","address":"静安区南京西路784号(近石门一路)"},{"poiid":"B2094757D16EA7FD4293","title":"东来顺","lon":"121.462352738","lat":"31.2320483388","category":"500","category_name":"未知分类","address":"上海石门二路215号"},{"poiid":"B2094654DA6CA2FB409D","title":"东方众鑫大厦","lon":"121.46334","lat":"31.23035","category":"46","category_name":"楼宇","address":"朝阳亚运村北炎黄艺术馆旁"},{"poiid":"B2094654DA6CA2FF469A","title":"东展商业大厦","lon":"121.46185","lat":"31.23266","category":"46","category_name":"楼宇","address":"丰台学城海鹰路1号，3号"},{"poiid":"B2094757D068A3F4439C","title":"虾球传","lon":"121.461917054","lat":"31.231753793","category":"71","category_name":"四川菜","address":"静安区奉贤路55号(近石门二路)"},{"poiid":"B2094654DA6CA2F8499B","title":"吴江路东段小吃街","lon":"121.46176","lat":"31.23032","category":"116","category_name":"特色商业街","address":"吴江路"},{"poiid":"B2094757D068A2FE409E","title":"蜀地辣子鱼 静安店","lon":"121.46161651611","lat":"31.231472015381","category":"71","category_name":"四川菜","address":"静安区奉贤路53号(近石门二路)"},{"poiid":"B2094757D06FA2FF409A","title":"无印良品MUJI(南京西路)","lon":"121.46100542","lat":"31.231078614","category":"123","category_name":"家具建材市场","address":"上海静安区南京西路818号818广场308-311(近石门一路)"},{"poiid":"B2094654DA6CA2FA479A","title":"小黑蚝情 吴江路店","lon":"121.45784441073","lat":"31.232374844312","category":"257","category_name":"中餐厅","address":"吴江路82号近石门一路"},{"poiid":"B2094757DA6EA6F5469B","title":"外婆家(818广场店)","lon":"121.460788249969","lat":"31.230931141954","category":"75","category_name":"浙江菜","address":"静安区南京西路818号818广场701室(近石门一路)"},{"poiid":"B2094655D26AAAFE4992","title":"818广场","lon":"121.46094","lat":"31.23094","category":"119","category_name":"商场","address":"静安区南京西路818号(近石门一路)"},{"poiid":"B2094757D06FA1F9489A","title":"藏珑泰厨","lon":"121.46120173","lat":"31.230886314","category":"99","category_name":"泰国／越南菜品餐厅","address":"静安区南京西路818号818广场6楼(近石门一路)"},{"poiid":"B2094753D76FAAFA449C","title":"上海滩国泰旗舰店","lon":"121.466011","lat":"31.216125","category":"249","category_name":"购物服务","address":"淮海中路868号"},{"poiid":"B209475CD564A7F84292","title":"上海滩新天地店","lon":"121.47463","lat":"31.22164","category":"119","category_name":"商场","address":"\"太仓路181弄新天地北里15号\r\n\""},{"poiid":"B209475CD564A7F8439E","title":"上海滩中信泰富店","lon":"121.45602","lat":"31.22851","category":"119","category_name":"商场","address":"\"南京西路1168号中信泰富广场，店铺号221.\r\n\""},{"poiid":"B2094750DA6DAAFD4099","title":"MOOK CLUB","lon":"121.4629","lat":"31.23149","category":"172","category_name":"酒吧","address":"静安区南京西路758号5-6楼(近凤阳路)"},{"poiid":"B2094655D26FA6FB4892","title":"文新报业大厦","lon":"121.464","lat":"31.2318","category":"46","category_name":"楼宇","address":"上海市静安区威海路755号"},{"poiid":"B2094757D06FA2FC439F","title":"静安雕塑公园","lon":"121.46159","lat":"31.2328","category":"196","category_name":"公园","address":"静安区石门二路128号(近北京西路)"},{"poiid":"B2094654DA6CA1F84292","title":"王家沙(南京西路)","lon":"121.46122","lat":"31.23063","category":"257","category_name":"中餐厅","address":"静安区南京西路805号(近石门一路)"},{"poiid":"B2094655D26AAAF8449C","title":"香港狮子山下","lon":"121.46094","lat":"31.23094","category":"72","category_name":"广东菜","address":"静安区南京西路818号818广场5楼(近石门二路)"},{"poiid":"B2094757D06FABFE419D","title":"吴江路","lon":"121.463009","lat":"31.230562","category":"260","category_name":"其他","address":"上海静安区吴江路"},{"poiid":"B2094757D06FA0F44298","title":"WINDOWS(青海路店)","lon":"121.46414","lat":"31.2309","category":"260","category_name":"其他","address":"静安区南京西路698号(上海电视台对面)"},{"poiid":"B2094655D26EA4FC409E","title":"甜蜜蜜(吴江店)","lon":"121.46241","lat":"31.23028","category":"87","category_name":"特色／地方风味餐厅","address":"静安区吴江路178号(近泰兴路)"},{"poiid":"B2094750DA6DABF5439F","title":"MOOK CLUB","lon":"121.462947","lat":"31.231401","category":"248","category_name":"生活娱乐","address":"静安区南京西路758号"},{"poiid":"B2094757DB68A5F5449E","title":"古丽仙西域情餐厅 GULIXIAN RESTAURANT","lon":"121.460917","lat":"31.231043","category":"90","category_name":"清真餐馆","address":"静安区南京西路818号818广场5楼(近石门一路)"},{"poiid":"B2094757DA6EA6FB419A","title":"合点寿司(南京西路店)","lon":"121.461213999998","lat":"31.2304790000002","category":"95","category_name":"日本料理","address":"静安区南京西路818号818广场B1楼(近石门一路)"},{"poiid":"B2094757D06AA5F4459D","title":"Awfully Chocolate","lon":"121.461541738","lat":"31.2302323001","category":"500","category_name":"未知分类","address":"上海市静安区泰兴路"},{"poiid":"B2094757D06FA3FF419F","title":"Wagas沃歌斯(吴江路店)","lon":"121.46191406","lat":"31.230632782","category":"94","category_name":"西餐厅","address":"静安区吴江路169号四季坊116室(近泰兴路)"},{"poiid":"B2094757D06FA6FF429B","title":"泰意Lapis Cafe","lon":"121.460911738","lat":"31.2306823097","category":"94","category_name":"西餐厅","address":"静安区南京西路818号818广场6楼(近石门一路)"},{"poiid":"B2094655D26AABFD4592","title":"佰家仟味","lon":"121.46094","lat":"31.23094","category":"260","category_name":"其他","address":"静安区南京西路818号818广场5楼(近石门一路)"},{"poiid":"B2094757D06FA0F9409A","title":"悦蓉香锅牛蛙馆","lon":"121.461138","lat":"31.230666","category":"247","category_name":"餐饮美食","address":"上海南京西路818号(818广场)B1"},{"poiid":"B2094655D26BA1FF469C","title":"南京西路上海电视台","lon":"121.46267","lat":"31.23099","category":"38","category_name":"公交车站","address":""},{"poiid":"B2094757D065A7F94698","title":"大渔铁板烧","lon":"121.460854738","lat":"31.2307773117","category":"247","category_name":"餐饮美食","address":"上海静安区南京西路818号6楼"},{"poiid":"B2094757D46EA5F54798","title":"金必多茶餐厅","lon":"121.4609876","lat":"31.2307105","category":"72","category_name":"广东菜","address":"静安区南京西路819号开欣商厦410室(近石门一路)"},{"poiid":"B2094757D069A1FC459B","title":"相扑烤肉","lon":"121.462337738","lat":"31.2299672945","category":"257","category_name":"中餐厅","address":"上海吴江路169号四季坊商场2楼201﹣206单元"},{"poiid":"B2094757D068A3FB429B","title":"上海市东方公证处","lon":"121.4634585","lat":"31.231949636","category":"46","category_name":"楼宇","address":"上海静安区凤阳路660号（接待大厅 凤阳路598号）"},{"poiid":"B2094757D069A2F9429D","title":"玛莎百货咖啡厅","lon":"121.460338054","lat":"31.230278793","category":"65","category_name":"咖啡厅","address":"南京西路863号玛莎百货4楼近石门一路"},{"poiid":"B2094757D06AA4FB499C","title":"Noz Michio Nozawa Hair Produce","lon":"121.46091669","lat":"31.230796314","category":"500","category_name":"未知分类","address":"上海静安区南京西路832号"},{"poiid":"B2094757D06BA3FA489A","title":"HM","lon":"121.461163338","lat":"31.2305978079","category":"141","category_name":"服装鞋帽皮具店","address":"上海南京西路865号"},{"poiid":"B2094757D06FAAF8499A","title":"嘉发大厦","lon":"121.4627151","lat":"31.23285293","category":"46","category_name":"楼宇","address":"新华都商务花园位于长宁定西路685号"},{"poiid":"B2094750DB6BA3F4469B","title":"mook","lon":"121.462669","lat":"31.23101","category":"500","category_name":"未知分类","address":null},{"poiid":"B2094757D56CABFB409A","title":"芋贵人甜品店 南京西路店","lon":"121.4609876","lat":"31.2307105","category":"67","category_name":"甜品店","address":"静安区南京西路819号开欣商场412室"},{"poiid":"B2094654DA6CA2FB489D","title":"华华川菜馆","lon":"121.46253","lat":"31.2302","category":"71","category_name":"四川菜","address":"静安区奉贤路61号(近石门二路)"},{"poiid":"B2094750D364A2F84692","title":"eden-LoungeClub","lon":"121.46263588015","lat":"31.23111042168","category":"111","category_name":"休闲餐饮场所","address":"南京西路760号博爱大厦4楼(阿斯顿.马丁车展厅楼上近石门二路)"},{"poiid":"B2094757D069A3FB4693","title":"东方有线大厦","lon":"121.463497653","lat":"31.2304960495","category":"46","category_name":"楼宇","address":"上海南京西路699号"},{"poiid":"B2094654DB6BA6F4449B","title":"振鼎鸡(静安店)","lon":"121.46159","lat":"31.23197","category":"68","category_name":"快餐厅","address":"静安区石门二路61号(近北京西路)"},{"poiid":"B2094757D06FA4FD459D","title":"爱茜茜里(吴江路店)","lon":"121.46266","lat":"31.23008","category":"257","category_name":"中餐厅","address":"静安区吴江路166号1楼(近石门一路)"},{"poiid":"B2094655D26DA6FE439A","title":"上海小南国吴江店","lon":"121.46344","lat":"31.23039","category":"257","category_name":"中餐厅","address":""},{"poiid":"B2094757D465A6F8469C","title":"味千拉面 818广场店","lon":"121.461623054","lat":"31.231004793","category":"95","category_name":"日本料理","address":"静安区南京西路818号818广场B1楼104B(近石门一路)"},{"poiid":"B2094757D468AAF9459C","title":"GCX","lon":"121.461331","lat":"31.230426","category":"94","category_name":"西餐厅","address":"静安区吴江路休闲步行街138号2楼(近石门一路)"},{"poiid":"B2094757D068A7F8459B","title":"南京美发店(南京西路店)","lon":"121.46209","lat":"31.23075","category":"148","category_name":"美容美发店","address":"静安区南京西路784号(近石门一路)"},{"poiid":"B2094757D16EA7FD4293","title":"东来顺","lon":"121.462352738","lat":"31.2320483388","category":"500","category_name":"未知分类","address":"上海石门二路215号"},{"poiid":"B2094654DA6CA2FB409D","title":"东方众鑫大厦","lon":"121.46334","lat":"31.23035","category":"46","category_name":"楼宇","address":"朝阳亚运村北炎黄艺术馆旁"},{"poiid":"B2094654DA6CA2FF469A","title":"东展商业大厦","lon":"121.46185","lat":"31.23266","category":"46","category_name":"楼宇","address":"丰台学城海鹰路1号，3号"},{"poiid":"B2094757D068A3F4439C","title":"虾球传","lon":"121.461917054","lat":"31.231753793","category":"71","category_name":"四川菜","address":"静安区奉贤路55号(近石门二路)"},{"poiid":"B2094654DA6CA2F8499B","title":"吴江路东段小吃街","lon":"121.46176","lat":"31.23032","category":"116","category_name":"特色商业街","address":"吴江路"},{"poiid":"B2094757D068A2FE409E","title":"蜀地辣子鱼 静安店","lon":"121.46161651611","lat":"31.231472015381","category":"71","category_name":"四川菜","address":"静安区奉贤路53号(近石门二路)"},{"poiid":"B2094757D06FA2FF409A","title":"无印良品MUJI(南京西路)","lon":"121.46100542","lat":"31.231078614","category":"123","category_name":"家具建材市场","address":"上海静安区南京西路818号818广场308-311(近石门一路)"},{"poiid":"B2094654DA6CA2FA479A","title":"小黑蚝情 吴江路店","lon":"121.45784441073","lat":"31.232374844312","category":"257","category_name":"中餐厅","address":"吴江路82号近石门一路"},{"poiid":"B2094757DA6EA6F5469B","title":"外婆家(818广场店)","lon":"121.460788249969","lat":"31.230931141954","category":"75","category_name":"浙江菜","address":"静安区南京西路818号818广场701室(近石门一路)"},{"poiid":"B2094655D26AAAFE4992","title":"818广场","lon":"121.46094","lat":"31.23094","category":"119","category_name":"商场","address":"静安区南京西路818号(近石门一路)"},{"poiid":"B2094757D06FA1F9489A","title":"藏珑泰厨","lon":"121.46120173","lat":"31.230886314","category":"99","category_name":"泰国／越南菜品餐厅","address":"静安区南京西路818号818广场6楼(近石门一路)"},{"poiid":"B2094753D76FAAFA449C","title":"上海滩国泰旗舰店","lon":"121.466011","lat":"31.216125","category":"249","category_name":"购物服务","address":"淮海中路868号"},{"poiid":"B209475CD564A7F84292","title":"上海滩新天地店","lon":"121.47463","lat":"31.22164","category":"119","category_name":"商场","address":"\"太仓路181弄新天地北里15号\r\n\""},{"poiid":"B209475CD564A7F8439E","title":"上海滩中信泰富店","lon":"121.45602","lat":"31.22851","category":"119","category_name":"商场","address":"\"南京西路1168号中信泰富广场，店铺号221.\r\n\""},{"poiid":"B2094750DA6DAAFD4099","title":"MOOK CLUB","lon":"121.4629","lat":"31.23149","category":"172","category_name":"酒吧","address":"静安区南京西路758号5-6楼(近凤阳路)"},{"poiid":"B2094655D26FA6FB4892","title":"文新报业大厦","lon":"121.464","lat":"31.2318","category":"46","category_name":"楼宇","address":"上海市静安区威海路755号"},{"poiid":"B2094757D06FA2FC439F","title":"静安雕塑公园","lon":"121.46159","lat":"31.2328","category":"196","category_name":"公园","address":"静安区石门二路128号(近北京西路)"},{"poiid":"B2094654DA6CA1F84292","title":"王家沙(南京西路)","lon":"121.46122","lat":"31.23063","category":"257","category_name":"中餐厅","address":"静安区南京西路805号(近石门一路)"},{"poiid":"B2094655D26AAAF8449C","title":"香港狮子山下","lon":"121.46094","lat":"31.23094","category":"72","category_name":"广东菜","address":"静安区南京西路818号818广场5楼(近石门二路)"},{"poiid":"B2094757D06FABFE419D","title":"吴江路","lon":"121.463009","lat":"31.230562","category":"260","category_name":"其他","address":"上海静安区吴江路"},{"poiid":"B2094757D06FA0F44298","title":"WINDOWS(青海路店)","lon":"121.46414","lat":"31.2309","category":"260","category_name":"其他","address":"静安区南京西路698号(上海电视台对面)"},{"poiid":"B2094655D26EA4FC409E","title":"甜蜜蜜(吴江店)","lon":"121.46241","lat":"31.23028","category":"87","category_name":"特色／地方风味餐厅","address":"静安区吴江路178号(近泰兴路)"},{"poiid":"B2094750DA6DABF5439F","title":"MOOK CLUB","lon":"121.462947","lat":"31.231401","category":"248","category_name":"生活娱乐","address":"静安区南京西路758号"},{"poiid":"B2094757DB68A5F5449E","title":"古丽仙西域情餐厅 GULIXIAN RESTAURANT","lon":"121.460917","lat":"31.231043","category":"90","category_name":"清真餐馆","address":"静安区南京西路818号818广场5楼(近石门一路)"},{"poiid":"B2094757DA6EA6FB419A","title":"合点寿司(南京西路店)","lon":"121.461213999998","lat":"31.2304790000002","category":"95","category_name":"日本料理","address":"静安区南京西路818号818广场B1楼(近石门一路)"},{"poiid":"B2094757D06AA5F4459D","title":"Awfully Chocolate","lon":"121.461541738","lat":"31.2302323001","category":"500","category_name":"未知分类","address":"上海市静安区泰兴路"},{"poiid":"B2094757D06FA3FF419F","title":"Wagas沃歌斯(吴江路店)","lon":"121.46191406","lat":"31.230632782","category":"94","category_name":"西餐厅","address":"静安区吴江路169号四季坊116室(近泰兴路)"},{"poiid":"B2094757D06FA6FF429B","title":"泰意Lapis Cafe","lon":"121.460911738","lat":"31.2306823097","category":"94","category_name":"西餐厅","address":"静安区南京西路818号818广场6楼(近石门一路)"},{"poiid":"B2094655D26AABFD4592","title":"佰家仟味","lon":"121.46094","lat":"31.23094","category":"260","category_name":"其他","address":"静安区南京西路818号818广场5楼(近石门一路)"},{"poiid":"B2094757D06FA0F9409A","title":"悦蓉香锅牛蛙馆","lon":"121.461138","lat":"31.230666","category":"247","category_name":"餐饮美食","address":"上海南京西路818号(818广场)B1"},{"poiid":"B2094655D26BA1FF469C","title":"南京西路上海电视台","lon":"121.46267","lat":"31.23099","category":"38","category_name":"公交车站","address":""},{"poiid":"B2094757D065A7F94698","title":"大渔铁板烧","lon":"121.460854738","lat":"31.2307773117","category":"247","category_name":"餐饮美食","address":"上海静安区南京西路818号6楼"},{"poiid":"B2094757D46EA5F54798","title":"金必多茶餐厅","lon":"121.4609876","lat":"31.2307105","category":"72","category_name":"广东菜","address":"静安区南京西路819号开欣商厦410室(近石门一路)"},{"poiid":"B2094757D069A1FC459B","title":"相扑烤肉","lon":"121.462337738","lat":"31.2299672945","category":"257","category_name":"中餐厅","address":"上海吴江路169号四季坊商场2楼201﹣206单元"},{"poiid":"B2094757D068A3FB429B","title":"上海市东方公证处","lon":"121.4634585","lat":"31.231949636","category":"46","category_name":"楼宇","address":"上海静安区凤阳路660号（接待大厅 凤阳路598号）"},{"poiid":"B2094757D069A2F9429D","title":"玛莎百货咖啡厅","lon":"121.460338054","lat":"31.230278793","category":"65","category_name":"咖啡厅","address":"南京西路863号玛莎百货4楼近石门一路"},{"poiid":"B2094757D06AA4FB499C","title":"Noz Michio Nozawa Hair Produce","lon":"121.46091669","lat":"31.230796314","category":"500","category_name":"未知分类","address":"上海静安区南京西路832号"},{"poiid":"B2094757D06BA3FA489A","title":"HM","lon":"121.461163338","lat":"31.2305978079","category":"141","category_name":"服装鞋帽皮具店","address":"上海南京西路865号"},{"poiid":"B2094757D06FAAF8499A","title":"嘉发大厦","lon":"121.4627151","lat":"31.23285293","category":"46","category_name":"楼宇","address":"新华都商务花园位于长宁定西路685号"},{"poiid":"B2094750DB6BA3F4469B","title":"mook","lon":"121.462669","lat":"31.23101","category":"500","category_name":"未知分类","address":null},{"poiid":"B2094757D56CABFB409A","title":"芋贵人甜品店 南京西路店","lon":"121.4609876","lat":"31.2307105","category":"67","category_name":"甜品店","address":"静安区南京西路819号开欣商场412室"},{"poiid":"B2094654DA6CA2FB489D","title":"华华川菜馆","lon":"121.46253","lat":"31.2302","category":"71","category_name":"四川菜","address":"静安区奉贤路61号(近石门二路)"},{"poiid":"B2094750D364A2F84692","title":"eden-LoungeClub","lon":"121.46263588015","lat":"31.23111042168","category":"111","category_name":"休闲餐饮场所","address":"南京西路760号博爱大厦4楼(阿斯顿.马丁车展厅楼上近石门二路)"},{"poiid":"B2094757D069A3FB4693","title":"东方有线大厦","lon":"121.463497653","lat":"31.2304960495","category":"46","category_name":"楼宇","address":"上海南京西路699号"},{"poiid":"B2094654DB6BA6F4449B","title":"振鼎鸡(静安店)","lon":"121.46159","lat":"31.23197","category":"68","category_name":"快餐厅","address":"静安区石门二路61号(近北京西路)"},{"poiid":"B2094757D06FA4FD459D","title":"爱茜茜里(吴江路店)","lon":"121.46266","lat":"31.23008","category":"257","category_name":"中餐厅","address":"静安区吴江路166号1楼(近石门一路)"},{"poiid":"B2094655D26DA6FE439A","title":"上海小南国吴江店","lon":"121.46344","lat":"31.23039","category":"257","category_name":"中餐厅","address":""},{"poiid":"B2094757D465A6F8469C","title":"味千拉面 818广场店","lon":"121.461623054","lat":"31.231004793","category":"95","category_name":"日本料理","address":"静安区南京西路818号818广场B1楼104B(近石门一路)"},{"poiid":"B2094757D468AAF9459C","title":"GCX","lon":"121.461331","lat":"31.230426","category":"94","category_name":"西餐厅","address":"静安区吴江路休闲步行街138号2楼(近石门一路)"},{"poiid":"B2094757D068A7F8459B","title":"南京美发店(南京西路店)","lon":"121.46209","lat":"31.23075","category":"148","category_name":"美容美发店","address":"静安区南京西路784号(近石门一路)"},{"poiid":"B2094757D16EA7FD4293","title":"东来顺","lon":"121.462352738","lat":"31.2320483388","category":"500","category_name":"未知分类","address":"上海石门二路215号"},{"poiid":"B2094654DA6CA2FB409D","title":"东方众鑫大厦","lon":"121.46334","lat":"31.23035","category":"46","category_name":"楼宇","address":"朝阳亚运村北炎黄艺术馆旁"},{"poiid":"B2094654DA6CA2FF469A","title":"东展商业大厦","lon":"121.46185","lat":"31.23266","category":"46","category_name":"楼宇","address":"丰台学城海鹰路1号，3号"},{"poiid":"B2094757D068A3F4439C","title":"虾球传","lon":"121.461917054","lat":"31.231753793","category":"71","category_name":"四川菜","address":"静安区奉贤路55号(近石门二路)"},{"poiid":"B2094654DA6CA2F8499B","title":"吴江路东段小吃街","lon":"121.46176","lat":"31.23032","category":"116","category_name":"特色商业街","address":"吴江路"},{"poiid":"B2094757D068A2FE409E","title":"蜀地辣子鱼 静安店","lon":"121.46161651611","lat":"31.231472015381","category":"71","category_name":"四川菜","address":"静安区奉贤路53号(近石门二路)"},{"poiid":"B2094757D06FA2FF409A","title":"无印良品MUJI(南京西路)","lon":"121.46100542","lat":"31.231078614","category":"123","category_name":"家具建材市场","address":"上海静安区南京西路818号818广场308-311(近石门一路)"},{"poiid":"B2094654DA6CA2FA479A","title":"小黑蚝情 吴江路店","lon":"121.45784441073","lat":"31.232374844312","category":"257","category_name":"中餐厅","address":"吴江路82号近石门一路"}]