[{"poiid":"B2094757D06FA3FC4293","title":"塔顶泰国时尚餐厅","lon":"121.51064","lat":"31.30441","category":"99","category_name":"泰国／越南菜品餐厅","address":"杨浦区大学路109号创智坊内(近锦嘉路)"},{"poiid":"B2094757D06EAAFC4699","title":"雕刻时光咖啡馆(大学路店)","lon":"121.51073","lat":"31.304462","category":"260","category_name":"其他","address":"杨浦区大学路105-107号(近锦嘉路)"},{"poiid":"B2094757DA6EAAF94899","title":"猫的天空之城概念书店(大学路店)","lon":"121.511157999997","lat":"31.3047980000002","category":"248","category_name":"生活娱乐","address":"杨浦区大学路70号(近淞沪路)"},{"poiid":"B2094757D06FA3FC4798","title":"转角102","lon":"121.51051328","lat":"31.304455843","category":"94","category_name":"西餐厅","address":"杨浦区创智坊大学路102号(大学路锦创路)"},{"poiid":"B2094750D464A1FA489D","title":"Homeless","lon":"121.509201","lat":"31.304056","category":"260","category_name":"其他","address":"杨浦区大学路201号(一兆韦德吴尊馆对面)"},{"poiid":"B2094750D26BA2F9459F","title":"居食屋和民(创智天地店)","lon":"121.511009","lat":"31.306535","category":"95","category_name":"日本料理","address":"杨浦区淞沪路234号创智天地科教广场二期1楼11-12室"},{"poiid":"B2094751D264A3F5449B","title":"松饼假日（Pancake Day）","lon":"121.50807","lat":"31.30313","category":"94","category_name":"西餐厅","address":"杨浦区大学路289号(近政民路)"},{"poiid":"B2094751D565A6FC419F","title":"丸龟制面（百联又一城）","lon":"121.51454","lat":"31.30314","category":"247","category_name":"餐饮美食","address":"淞沪路8号百联又一城购物中心B1楼"},{"poiid":"B2094757D068A2F84793","title":"创智坊","lon":"121.510577","lat":"31.304393","category":"500","category_name":"未知分类","address":"上海市杨浦区大学路33号等"},{"poiid":"B2094750D56FA2FA449E","title":"一兆韦德健身会所（吴尊馆）","lon":"121.509231","lat":"31.304971","category":"220","category_name":"运动场所","address":null},{"poiid":"B2094750DA6AA1FC4499","title":"SIT STATION雕刻时光小站","lon":"121.50753","lat":"31.303821","category":"247","category_name":"餐饮美食","address":"杨浦区大学路318号(近国定路)"},{"poiid":"B2094757D069ABFA4992","title":"coffee bean 创智天地","lon":"121.50971","lat":"31.30452","category":"65","category_name":"咖啡厅","address":"上海创智天地广场B1楼01单元"},{"poiid":"B2094757D16EA3FA4193","title":"uniplus","lon":"121.510897103","lat":"31.3045171351","category":"500","category_name":"未知分类","address":"上海市杨浦区大学路85号"},{"poiid":"B2094751D36DA1F94398","title":"Togo Taco","lon":"121.51075","lat":"31.30445","category":"94","category_name":"西餐厅","address":"杨浦区大学路93-95号"},{"poiid":"B2094757D068A5FD429E","title":"第二军医大学","lon":"121.51062395","lat":"31.306913729","category":"671","category_name":"高校中心点","address":"杨浦区翔殷路800号"},{"poiid":"B2094752D464A7FB419D","title":"Bohemia","lon":"121.508149","lat":"31.303203","category":"247","category_name":"餐饮美食","address":"大学路297号"},{"poiid":"B209475CDA6EA4F9439C","title":"藏珑云海","lon":"121.509391","lat":"31.306007","category":"500","category_name":"未知分类","address":"上海市 大学路128号"},{"poiid":"B2094757D06BA7FB4992","title":"新江湾佳苑","lon":"121.5041","lat":"31.308193","category":"47","category_name":"住宅区","address":"上海政立路505弄"},{"poiid":"B2094751D365A0FC449E","title":"kanes coffee","lon":"121.505412","lat":"31.3041966","category":"247","category_name":"餐饮美食","address":"杨浦区大学路265号(近国定路)"},{"poiid":"B2094455DA69A5FF4199","title":"TTOMA Cafe","lon":"121.5091","lat":"31.30399","category":"247","category_name":"餐饮美食","address":"上海市 锦创路8号"},{"poiid":"B2094752D76EA1FF4193","title":"耶里夏利新疆餐厅","lon":"121.506597","lat":"31.307621","category":"247","category_name":"餐饮美食","address":"五角场淞湖路"},{"poiid":"B2094752D06EABF84192","title":"Kanes coffee","lon":"121.50829","lat":"31.303555","category":"247","category_name":"餐饮美食","address":"大学路"},{"poiid":"B2094757D06AABF94593","title":"粤悦煲煲好","lon":"121.510889103","lat":"31.3050321459","category":"247","category_name":"餐饮美食","address":"杨浦区邯郸路393号(近国定路)"},{"poiid":"B2094757D069A2FC499B","title":"哈尔滨风味小吃","lon":"121.50442","lat":"31.30782","category":"82","category_name":"东北菜","address":"杨浦区政立路507号(近国定路)"},{"poiid":"B2094757D165ABFB409B","title":"塔頂泰國菜","lon":"121.5065161","lat":"31.30572616","category":"247","category_name":"餐饮美食","address":"上海杨浦区大學路"},{"poiid":"B2094757D069A6F8429E","title":"淞沪路政立路路口","lon":"121.511682","lat":"31.306713","category":"500","category_name":"未知分类","address":"上海淞沪路政立路"},{"poiid":"B2094654DB6BA3F5489E","title":"政立路580弄小区(政立路)","lon":"121.50722","lat":"31.30655","category":"47","category_name":"住宅区","address":"政立路580弄1号-46号"},{"poiid":"B2094750D068A2FA4393","title":"角松","lon":"121.508659","lat":"31.303812","category":"247","category_name":"餐饮美食","address":"大学路239号"},{"poiid":"B2094750DB69A6FE4393","title":"一兆韦德（吴尊馆）","lon":"121.509094","lat":"31.303995","category":"248","category_name":"生活娱乐","address":"大学路锦创路"},{"poiid":"B2094757D068A6FE4893","title":"创邑·扬创意园区","lon":"121.506648","lat":"31.3082648","category":"179","category_name":"音乐厅","address":"杨浦区政立路(近淞沪路)"},{"poiid":"B2094752D764ABFB439C","title":"莱甘地 Legante","lon":"121.510201","lat":"31.304356","category":"247","category_name":"餐饮美食","address":"上海市杨浦区大学路135-159号"},{"poiid":"B2094757D064A6FC469E","title":"上海市人才服务中心(杨浦区分部)","lon":"121.51118","lat":"31.30876","category":"500","category_name":"未知分类","address":"杨浦区淞沪路605号C-D(淞沪路政立路)"},{"poiid":"B2094654D56EA4FD469F","title":"上海市杨浦区政立路第二小学","lon":"121.50763","lat":"31.30727","category":"56","category_name":"小学","address":"杨浦区政立路570号(近上海市财经大学)"},{"poiid":"B2094753DA6AA1F4469E","title":"westside","lon":"121.50801","lat":"31.304002","category":"500","category_name":"未知分类","address":"上海市 大学路246号，伟德路口"},{"poiid":"B2094454D26DA3F9479D","title":"咕的咕的韩国料理","lon":"121.505004","lat":"31.304435","category":"247","category_name":"餐饮美食","address":"上海市 上海财经大学"},{"poiid":"B2094750D26CA6FD4393","title":"角松原木烧","lon":"121.5086462","lat":"31.3036881","category":"95","category_name":"日本料理","address":"杨浦区大学路239号"},{"poiid":"B2094752D76EABF94992","title":"斗香园","lon":"121.506485","lat":"31.307602","category":"247","category_name":"餐饮美食","address":"淞沪路333号1楼102B室"},{"poiid":"B2094654D56DA3FF4292","title":"上海财经大学(东门)","lon":"121.50389","lat":"31.30585","category":"656","category_name":"大门","address":"杨浦区国定路777号"},{"poiid":"B2094655D26BA3FD4292","title":"泰晤士咖啡餐厅 国定路店","lon":"121.50383","lat":"31.30587","category":"94","category_name":"西餐厅","address":"杨浦区国定路777号上海财经大学内(近政立路)"},{"poiid":"B2094753D26EA4FB419A","title":"角松居酒屋","lon":"121.505882","lat":"31.308084","category":"247","category_name":"餐饮美食","address":"上海市 大学路"},{"poiid":"B2094757D16EA7FB439E","title":"宝康宠物诊所(政立路店)","lon":"121.50913","lat":"31.30775","category":"162","category_name":"医院","address":"杨浦区政立路167号(近国和路)"},{"poiid":"B2094750DB6EABFB4292","title":"创智天地","lon":"121.510498","lat":"31.304269","category":"47","category_name":"住宅区","address":"上海市杨浦区大学路38号"},{"poiid":"B2094752DA6AAAFC499F","title":"沁足道","lon":"121.507484","lat":"31.306923","category":"500","category_name":"未知分类","address":"上海市 大学路52号201室"},{"poiid":"B2094752D565A4F4449C","title":"猫的天空之城概念书店","lon":"121.506317","lat":"31.30835","category":"247","category_name":"餐饮美食","address":"大学路70号"},{"poiid":"B2094750DB64A6F44793","title":"拿渡麻辣香锅","lon":"121.5083","lat":"31.30427","category":"247","category_name":"餐饮美食","address":null},{"poiid":"B2094750DB65ABF9439F","title":"長海醫院","lon":"121.504554","lat":"31.307353","category":"162","category_name":"医院","address":null},{"poiid":"B2094757DA69A1F4469F","title":"沃尔玛-五角场店","lon":"121.51095","lat":"31.30908","category":"119","category_name":"商场","address":"上海杨浦区淞沪路125号"},{"poiid":"B2094750D46BAAF84199","title":"Isushi","lon":"121.509437","lat":"31.30389","category":"95","category_name":"日本料理","address":"杨浦区大学路191-193号(近复旦大学)"},{"poiid":"B2094757D464A0FF4393","title":"ipo餐厅","lon":"121.51143829954","lat":"31.306147554151","category":"257","category_name":"中餐厅","address":"锦嘉路88号创智坊内近大学路"},{"poiid":"B2094757D06AA1FC4892","title":"政立路","lon":"121.504595","lat":"31.3079776","category":"500","category_name":"未知分类","address":"上海市政立路"},{"poiid":"B2094757D06FA3FC4293","title":"塔顶泰国时尚餐厅","lon":"121.51064","lat":"31.30441","category":"99","category_name":"泰国／越南菜品餐厅","address":"杨浦区大学路109号创智坊内(近锦嘉路)"},{"poiid":"B2094757D06EAAFC4699","title":"雕刻时光咖啡馆(大学路店)","lon":"121.51073","lat":"31.304462","category":"260","category_name":"其他","address":"杨浦区大学路105-107号(近锦嘉路)"},{"poiid":"B2094757DA6EAAF94899","title":"猫的天空之城概念书店(大学路店)","lon":"121.511157999997","lat":"31.3047980000002","category":"248","category_name":"生活娱乐","address":"杨浦区大学路70号(近淞沪路)"},{"poiid":"B2094757D06FA3FC4798","title":"转角102","lon":"121.51051328","lat":"31.304455843","category":"94","category_name":"西餐厅","address":"杨浦区创智坊大学路102号(大学路锦创路)"},{"poiid":"B2094750D464A1FA489D","title":"Homeless","lon":"121.509201","lat":"31.304056","category":"260","category_name":"其他","address":"杨浦区大学路201号(一兆韦德吴尊馆对面)"},{"poiid":"B2094750D26BA2F9459F","title":"居食屋和民(创智天地店)","lon":"121.511009","lat":"31.306535","category":"95","category_name":"日本料理","address":"杨浦区淞沪路234号创智天地科教广场二期1楼11-12室"},{"poiid":"B2094751D264A3F5449B","title":"松饼假日（Pancake Day）","lon":"121.50807","lat":"31.30313","category":"94","category_name":"西餐厅","address":"杨浦区大学路289号(近政民路)"},{"poiid":"B2094751D565A6FC419F","title":"丸龟制面（百联又一城）","lon":"121.51454","lat":"31.30314","category":"247","category_name":"餐饮美食","address":"淞沪路8号百联又一城购物中心B1楼"},{"poiid":"B2094757D068A2F84793","title":"创智坊","lon":"121.510577","lat":"31.304393","category":"500","category_name":"未知分类","address":"上海市杨浦区大学路33号等"},{"poiid":"B2094750D56FA2FA449E","title":"一兆韦德健身会所（吴尊馆）","lon":"121.509231","lat":"31.304971","category":"220","category_name":"运动场所","address":null},{"poiid":"B2094750DA6AA1FC4499","title":"SIT STATION雕刻时光小站","lon":"121.50753","lat":"31.303821","category":"247","category_name":"餐饮美食","address":"杨浦区大学路318号(近国定路)"},{"poiid":"B2094757D069ABFA4992","title":"coffee bean 创智天地","lon":"121.50971","lat":"31.30452","category":"65","category_name":"咖啡厅","address":"上海创智天地广场B1楼01单元"},{"poiid":"B2094757D16EA3FA4193","title":"uniplus","lon":"121.510897103","lat":"31.3045171351","category":"500","category_name":"未知分类","address":"上海市杨浦区大学路85号"},{"poiid":"B2094751D36DA1F94398","title":"Togo Taco","lon":"121.51075","lat":"31.30445","category":"94","category_name":"西餐厅","address":"杨浦区大学路93-95号"},{"poiid":"B2094757D068A5FD429E","title":"第二军医大学","lon":"121.51062395","lat":"31.306913729","category":"671","category_name":"高校中心点","address":"杨浦区翔殷路800号"},{"poiid":"B2094752D464A7FB419D","title":"Bohemia","lon":"121.508149","lat":"31.303203","category":"247","category_name":"餐饮美食","address":"大学路297号"},{"poiid":"B209475CDA6EA4F9439C","title":"藏珑云海","lon":"121.509391","lat":"31.306007","category":"500","category_name":"未知分类","address":"上海市 大学路128号"},{"poiid":"B2094757D06BA7FB4992","title":"新江湾佳苑","lon":"121.5041","lat":"31.308193","category":"47","category_name":"住宅区","address":"上海政立路505弄"},{"poiid":"B2094751D365A0FC449E","title":"kanes coffee","lon":"121.505412","lat":"31.3041966","category":"247","category_name":"餐饮美食","address":"杨浦区大学路265号(近国定路)"},{"poiid":"B2094455DA69A5FF4199","title":"TTOMA Cafe","lon":"121.5091","lat":"31.30399","category":"247","category_name":"餐饮美食","address":"上海市 锦创路8号"},{"poiid":"B2094752D76EA1FF4193","title":"耶里夏利新疆餐厅","lon":"121.506597","lat":"31.307621","category":"247","category_name":"餐饮美食","address":"五角场淞湖路"},{"poiid":"B2094752D06EABF84192","title":"Kanes coffee","lon":"121.50829","lat":"31.303555","category":"247","category_name":"餐饮美食","address":"大学路"},{"poiid":"B2094757D06AABF94593","title":"粤悦煲煲好","lon":"121.510889103","lat":"31.3050321459","category":"247","category_name":"餐饮美食","address":"杨浦区邯郸路393号(近国定路)"},{"poiid":"B2094757D069A2FC499B","title":"哈尔滨风味小吃","lon":"121.50442","lat":"31.30782","category":"82","category_name":"东北菜","address":"杨浦区政立路507号(近国定路)"},{"poiid":"B2094757D165ABFB409B","title":"塔頂泰國菜","lon":"121.5065161","lat":"31.30572616","category":"247","category_name":"餐饮美食","address":"上海杨浦区大學路"},{"poiid":"B2094757D069A6F8429E","title":"淞沪路政立路路口","lon":"121.511682","lat":"31.306713","category":"500","category_name":"未知分类","address":"上海淞沪路政立路"},{"poiid":"B2094654DB6BA3F5489E","title":"政立路580弄小区(政立路)","lon":"121.50722","lat":"31.30655","category":"47","category_name":"住宅区","address":"政立路580弄1号-46号"},{"poiid":"B2094750D068A2FA4393","title":"角松","lon":"121.508659","lat":"31.303812","category":"247","category_name":"餐饮美食","address":"大学路239号"},{"poiid":"B2094750DB69A6FE4393","title":"一兆韦德（吴尊馆）","lon":"121.509094","lat":"31.303995","category":"248","category_name":"生活娱乐","address":"大学路锦创路"},{"poiid":"B2094757D068A6FE4893","title":"创邑·扬创意园区","lon":"121.506648","lat":"31.3082648","category":"179","category_name":"音乐厅","address":"杨浦区政立路(近淞沪路)"},{"poiid":"B2094752D764ABFB439C","title":"莱甘地 Legante","lon":"121.510201","lat":"31.304356","category":"247","category_name":"餐饮美食","address":"上海市杨浦区大学路135-159号"},{"poiid":"B2094757D064A6FC469E","title":"上海市人才服务中心(杨浦区分部)","lon":"121.51118","lat":"31.30876","category":"500","category_name":"未知分类","address":"杨浦区淞沪路605号C-D(淞沪路政立路)"},{"poiid":"B2094654D56EA4FD469F","title":"上海市杨浦区政立路第二小学","lon":"121.50763","lat":"31.30727","category":"56","category_name":"小学","address":"杨浦区政立路570号(近上海市财经大学)"},{"poiid":"B2094753DA6AA1F4469E","title":"westside","lon":"121.50801","lat":"31.304002","category":"500","category_name":"未知分类","address":"上海市 大学路246号，伟德路口"},{"poiid":"B2094454D26DA3F9479D","title":"咕的咕的韩国料理","lon":"121.505004","lat":"31.304435","category":"247","category_name":"餐饮美食","address":"上海市 上海财经大学"},{"poiid":"B2094750D26CA6FD4393","title":"角松原木烧","lon":"121.5086462","lat":"31.3036881","category":"95","category_name":"日本料理","address":"杨浦区大学路239号"},{"poiid":"B2094752D76EABF94992","title":"斗香园","lon":"121.506485","lat":"31.307602","category":"247","category_name":"餐饮美食","address":"淞沪路333号1楼102B室"},{"poiid":"B2094654D56DA3FF4292","title":"上海财经大学(东门)","lon":"121.50389","lat":"31.30585","category":"656","category_name":"大门","address":"杨浦区国定路777号"},{"poiid":"B2094655D26BA3FD4292","title":"泰晤士咖啡餐厅 国定路店","lon":"121.50383","lat":"31.30587","category":"94","category_name":"西餐厅","address":"杨浦区国定路777号上海财经大学内(近政立路)"},{"poiid":"B2094753D26EA4FB419A","title":"角松居酒屋","lon":"121.505882","lat":"31.308084","category":"247","category_name":"餐饮美食","address":"上海市 大学路"},{"poiid":"B2094757D16EA7FB439E","title":"宝康宠物诊所(政立路店)","lon":"121.50913","lat":"31.30775","category":"162","category_name":"医院","address":"杨浦区政立路167号(近国和路)"},{"poiid":"B2094750DB6EABFB4292","title":"创智天地","lon":"121.510498","lat":"31.304269","category":"47","category_name":"住宅区","address":"上海市杨浦区大学路38号"},{"poiid":"B2094752DA6AAAFC499F","title":"沁足道","lon":"121.507484","lat":"31.306923","category":"500","category_name":"未知分类","address":"上海市 大学路52号201室"},{"poiid":"B2094752D565A4F4449C","title":"猫的天空之城概念书店","lon":"121.506317","lat":"31.30835","category":"247","category_name":"餐饮美食","address":"大学路70号"},{"poiid":"B2094750DB64A6F44793","title":"拿渡麻辣香锅","lon":"121.5083","lat":"31.30427","category":"247","category_name":"餐饮美食","address":null},{"poiid":"B2094750DB65ABF9439F","title":"長海醫院","lon":"121.504554","lat":"31.307353","category":"162","category_name":"医院","address":null},{"poiid":"B2094757DA69A1F4469F","title":"沃尔玛-五角场店","lon":"121.51095","lat":"31.30908","category":"119","category_name":"商场","address":"上海杨浦区淞沪路125号"},{"poiid":"B2094750D46BAAF84199","title":"Isushi","lon":"121.509437","lat":"31.30389","category":"95","category_name":"日本料理","address":"杨浦区大学路191-193号(近复旦大学)"},{"poiid":"B2094757D464A0FF4393","title":"ipo餐厅","lon":"121.51143829954","lat":"31.306147554151","category":"257","category_name":"中餐厅","address":"锦嘉路88号创智坊内近大学路"},{"poiid":"B2094757D06AA1FC4892","title":"政立路","lon":"121.504595","lat":"31.3079776","category":"500","category_name":"未知分类","address":"上海市政立路"},{"poiid":"B2094757D06FA3FC4293","title":"塔顶泰国时尚餐厅","lon":"121.51064","lat":"31.30441","category":"99","category_name":"泰国／越南菜品餐厅","address":"杨浦区大学路109号创智坊内(近锦嘉路)"},{"poiid":"B2094757D06EAAFC4699","title":"雕刻时光咖啡馆(大学路店)","lon":"121.51073","lat":"31.304462","category":"260","category_name":"其他","address":"杨浦区大学路105-107号(近锦嘉路)"},{"poiid":"B2094757DA6EAAF94899","title":"猫的天空之城概念书店(大学路店)","lon":"121.511157999997","lat":"31.3047980000002","category":"248","category_name":"生活娱乐","address":"杨浦区大学路70号(近淞沪路)"},{"poiid":"B2094757D06FA3FC4798","title":"转角102","lon":"121.51051328","lat":"31.304455843","category":"94","category_name":"西餐厅","address":"杨浦区创智坊大学路102号(大学路锦创路)"},{"poiid":"B2094750D464A1FA489D","title":"Homeless","lon":"121.509201","lat":"31.304056","category":"260","category_name":"其他","address":"杨浦区大学路201号(一兆韦德吴尊馆对面)"},{"poiid":"B2094750D26BA2F9459F","title":"居食屋和民(创智天地店)","lon":"121.511009","lat":"31.306535","category":"95","category_name":"日本料理","address":"杨浦区淞沪路234号创智天地科教广场二期1楼11-12室"},{"poiid":"B2094751D264A3F5449B","title":"松饼假日（Pancake Day）","lon":"121.50807","lat":"31.30313","category":"94","category_name":"西餐厅","address":"杨浦区大学路289号(近政民路)"},{"poiid":"B2094751D565A6FC419F","title":"丸龟制面（百联又一城）","lon":"121.51454","lat":"31.30314","category":"247","category_name":"餐饮美食","address":"淞沪路8号百联又一城购物中心B1楼"},{"poiid":"B2094757D068A2F84793","title":"创智坊","lon":"121.510577","lat":"31.304393","category":"500","category_name":"未知分类","address":"上海市杨浦区大学路33号等"},{"poiid":"B2094750D56FA2FA449E","title":"一兆韦德健身会所（吴尊馆）","lon":"121.509231","lat":"31.304971","category":"220","category_name":"运动场所","address":null},{"poiid":"B2094750DA6AA1FC4499","title":"SIT STATION雕刻时光小站","lon":"121.50753","lat":"31.303821","category":"247","category_name":"餐饮美食","address":"杨浦区大学路318号(近国定路)"},{"poiid":"B2094757D069ABFA4992","title":"coffee bean 创智天地","lon":"121.50971","lat":"31.30452","category":"65","category_name":"咖啡厅","address":"上海创智天地广场B1楼01单元"},{"poiid":"B2094757D16EA3FA4193","title":"uniplus","lon":"121.510897103","lat":"31.3045171351","category":"500","category_name":"未知分类","address":"上海市杨浦区大学路85号"},{"poiid":"B2094751D36DA1F94398","title":"Togo Taco","lon":"121.51075","lat":"31.30445","category":"94","category_name":"西餐厅","address":"杨浦区大学路93-95号"},{"poiid":"B2094757D068A5FD429E","title":"第二军医大学","lon":"121.51062395","lat":"31.306913729","category":"671","category_name":"高校中心点","address":"杨浦区翔殷路800号"},{"poiid":"B2094752D464A7FB419D","title":"Bohemia","lon":"121.508149","lat":"31.303203","category":"247","category_name":"餐饮美食","address":"大学路297号"},{"poiid":"B209475CDA6EA4F9439C","title":"藏珑云海","lon":"121.509391","lat":"31.306007","category":"500","category_name":"未知分类","address":"上海市 大学路128号"},{"poiid":"B2094757D06BA7FB4992","title":"新江湾佳苑","lon":"121.5041","lat":"31.308193","category":"47","category_name":"住宅区","address":"上海政立路505弄"},{"poiid":"B2094751D365A0FC449E","title":"kanes coffee","lon":"121.505412","lat":"31.3041966","category":"247","category_name":"餐饮美食","address":"杨浦区大学路265号(近国定路)"},{"poiid":"B2094455DA69A5FF4199","title":"TTOMA Cafe","lon":"121.5091","lat":"31.30399","category":"247","category_name":"餐饮美食","address":"上海市 锦创路8号"},{"poiid":"B2094752D76EA1FF4193","title":"耶里夏利新疆餐厅","lon":"121.506597","lat":"31.307621","category":"247","category_name":"餐饮美食","address":"五角场淞湖路"},{"poiid":"B2094752D06EABF84192","title":"Kanes coffee","lon":"121.50829","lat":"31.303555","category":"247","category_name":"餐饮美食","address":"大学路"},{"poiid":"B2094757D06AABF94593","title":"粤悦煲煲好","lon":"121.510889103","lat":"31.3050321459","category":"247","category_name":"餐饮美食","address":"杨浦区邯郸路393号(近国定路)"},{"poiid":"B2094757D069A2FC499B","title":"哈尔滨风味小吃","lon":"121.50442","lat":"31.30782","category":"82","category_name":"东北菜","address":"杨浦区政立路507号(近国定路)"},{"poiid":"B2094757D165ABFB409B","title":"塔頂泰國菜","lon":"121.5065161","lat":"31.30572616","category":"247","category_name":"餐饮美食","address":"上海杨浦区大學路"},{"poiid":"B2094757D069A6F8429E","title":"淞沪路政立路路口","lon":"121.511682","lat":"31.306713","category":"500","category_name":"未知分类","address":"上海淞沪路政立路"},{"poiid":"B2094654DB6BA3F5489E","title":"政立路580弄小区(政立路)","lon":"121.50722","lat":"31.30655","category":"47","category_name":"住宅区","address":"政立路580弄1号-46号"},{"poiid":"B2094750D068A2FA4393","title":"角松","lon":"121.508659","lat":"31.303812","category":"247","category_name":"餐饮美食","address":"大学路239号"},{"poiid":"B2094750DB69A6FE4393","title":"一兆韦德（吴尊馆）","lon":"121.509094","lat":"31.303995","category":"248","category_name":"生活娱乐","address":"大学路锦创路"},{"poiid":"B2094757D068A6FE4893","title":"创邑·扬创意园区","lon":"121.506648","lat":"31.3082648","category":"179","category_name":"音乐厅","address":"杨浦区政立路(近淞沪路)"},{"poiid":"B2094752D764ABFB439C","title":"莱甘地 Legante","lon":"121.510201","lat":"31.304356","category":"247","category_name":"餐饮美食","address":"上海市杨浦区大学路135-159号"},{"poiid":"B2094757D064A6FC469E","title":"上海市人才服务中心(杨浦区分部)","lon":"121.51118","lat":"31.30876","category":"500","category_name":"未知分类","address":"杨浦区淞沪路605号C-D(淞沪路政立路)"},{"poiid":"B2094654D56EA4FD469F","title":"上海市杨浦区政立路第二小学","lon":"121.50763","lat":"31.30727","category":"56","category_name":"小学","address":"杨浦区政立路570号(近上海市财经大学)"},{"poiid":"B2094753DA6AA1F4469E","title":"westside","lon":"121.50801","lat":"31.304002","category":"500","category_name":"未知分类","address":"上海市 大学路246号，伟德路口"},{"poiid":"B2094454D26DA3F9479D","title":"咕的咕的韩国料理","lon":"121.505004","lat":"31.304435","category":"247","category_name":"餐饮美食","address":"上海市 上海财经大学"},{"poiid":"B2094750D26CA6FD4393","title":"角松原木烧","lon":"121.5086462","lat":"31.3036881","category":"95","category_name":"日本料理","address":"杨浦区大学路239号"},{"poiid":"B2094752D76EABF94992","title":"斗香园","lon":"121.506485","lat":"31.307602","category":"247","category_name":"餐饮美食","address":"淞沪路333号1楼102B室"},{"poiid":"B2094654D56DA3FF4292","title":"上海财经大学(东门)","lon":"121.50389","lat":"31.30585","category":"656","category_name":"大门","address":"杨浦区国定路777号"},{"poiid":"B2094655D26BA3FD4292","title":"泰晤士咖啡餐厅 国定路店","lon":"121.50383","lat":"31.30587","category":"94","category_name":"西餐厅","address":"杨浦区国定路777号上海财经大学内(近政立路)"},{"poiid":"B2094753D26EA4FB419A","title":"角松居酒屋","lon":"121.505882","lat":"31.308084","category":"247","category_name":"餐饮美食","address":"上海市 大学路"},{"poiid":"B2094757D16EA7FB439E","title":"宝康宠物诊所(政立路店)","lon":"121.50913","lat":"31.30775","category":"162","category_name":"医院","address":"杨浦区政立路167号(近国和路)"},{"poiid":"B2094750DB6EABFB4292","title":"创智天地","lon":"121.510498","lat":"31.304269","category":"47","category_name":"住宅区","address":"上海市杨浦区大学路38号"},{"poiid":"B2094752DA6AAAFC499F","title":"沁足道","lon":"121.507484","lat":"31.306923","category":"500","category_name":"未知分类","address":"上海市 大学路52号201室"},{"poiid":"B2094752D565A4F4449C","title":"猫的天空之城概念书店","lon":"121.506317","lat":"31.30835","category":"247","category_name":"餐饮美食","address":"大学路70号"},{"poiid":"B2094750DB64A6F44793","title":"拿渡麻辣香锅","lon":"121.5083","lat":"31.30427","category":"247","category_name":"餐饮美食","address":null},{"poiid":"B2094750DB65ABF9439F","title":"長海醫院","lon":"121.504554","lat":"31.307353","category":"162","category_name":"医院","address":null},{"poiid":"B2094757DA69A1F4469F","title":"沃尔玛-五角场店","lon":"121.51095","lat":"31.30908","category":"119","category_name":"商场","address":"上海杨浦区淞沪路125号"},{"poiid":"B2094750D46BAAF84199","title":"Isushi","lon":"121.509437","lat":"31.30389","category":"95","category_name":"日本料理","address":"杨浦区大学路191-193号(近复旦大学)"},{"poiid":"B2094757D464A0FF4393","title":"ipo餐厅","lon":"121.51143829954","lat":"31.306147554151","category":"257","category_name":"中餐厅","address":"锦嘉路88号创智坊内近大学路"},{"poiid":"B2094757D06AA1FC4892","title":"政立路","lon":"121.504595","lat":"31.3079776","category":"500","category_name":"未知分类","address":"上海市政立路"},{"poiid":"B2094757D06FA3FC4293","title":"塔顶泰国时尚餐厅","lon":"121.51064","lat":"31.30441","category":"99","category_name":"泰国／越南菜品餐厅","address":"杨浦区大学路109号创智坊内(近锦嘉路)"},{"poiid":"B2094757D06EAAFC4699","title":"雕刻时光咖啡馆(大学路店)","lon":"121.51073","lat":"31.304462","category":"260","category_name":"其他","address":"杨浦区大学路105-107号(近锦嘉路)"},{"poiid":"B2094757DA6EAAF94899","title":"猫的天空之城概念书店(大学路店)","lon":"121.511157999997","lat":"31.3047980000002","category":"248","category_name":"生活娱乐","address":"杨浦区大学路70号(近淞沪路)"},{"poiid":"B2094757D06FA3FC4798","title":"转角102","lon":"121.51051328","lat":"31.304455843","category":"94","category_name":"西餐厅","address":"杨浦区创智坊大学路102号(大学路锦创路)"},{"poiid":"B2094750D464A1FA489D","title":"Homeless","lon":"121.509201","lat":"31.304056","category":"260","category_name":"其他","address":"杨浦区大学路201号(一兆韦德吴尊馆对面)"},{"poiid":"B2094750D26BA2F9459F","title":"居食屋和民(创智天地店)","lon":"121.511009","lat":"31.306535","category":"95","category_name":"日本料理","address":"杨浦区淞沪路234号创智天地科教广场二期1楼11-12室"},{"poiid":"B2094751D264A3F5449B","title":"松饼假日（Pancake Day）","lon":"121.50807","lat":"31.30313","category":"94","category_name":"西餐厅","address":"杨浦区大学路289号(近政民路)"},{"poiid":"B2094751D565A6FC419F","title":"丸龟制面（百联又一城）","lon":"121.51454","lat":"31.30314","category":"247","category_name":"餐饮美食","address":"淞沪路8号百联又一城购物中心B1楼"},{"poiid":"B2094757D068A2F84793","title":"创智坊","lon":"121.510577","lat":"31.304393","category":"500","category_name":"未知分类","address":"上海市杨浦区大学路33号等"},{"poiid":"B2094750D56FA2FA449E","title":"一兆韦德健身会所（吴尊馆）","lon":"121.509231","lat":"31.304971","category":"220","category_name":"运动场所","address":null},{"poiid":"B2094750DA6AA1FC4499","title":"SIT STATION雕刻时光小站","lon":"121.50753","lat":"31.303821","category":"247","category_name":"餐饮美食","address":"杨浦区大学路318号(近国定路)"},{"poiid":"B2094757D069ABFA4992","title":"coffee bean 创智天地","lon":"121.50971","lat":"31.30452","category":"65","category_name":"咖啡厅","address":"上海创智天地广场B1楼01单元"},{"poiid":"B2094757D16EA3FA4193","title":"uniplus","lon":"121.510897103","lat":"31.3045171351","category":"500","category_name":"未知分类","address":"上海市杨浦区大学路85号"},{"poiid":"B2094751D36DA1F94398","title":"Togo Taco","lon":"121.51075","lat":"31.30445","category":"94","category_name":"西餐厅","address":"杨浦区大学路93-95号"},{"poiid":"B2094757D068A5FD429E","title":"第二军医大学","lon":"121.51062395","lat":"31.306913729","category":"671","category_name":"高校中心点","address":"杨浦区翔殷路800号"},{"poiid":"B2094752D464A7FB419D","title":"Bohemia","lon":"121.508149","lat":"31.303203","category":"247","category_name":"餐饮美食","address":"大学路297号"},{"poiid":"B209475CDA6EA4F9439C","title":"藏珑云海","lon":"121.509391","lat":"31.306007","category":"500","category_name":"未知分类","address":"上海市 大学路128号"},{"poiid":"B2094757D06BA7FB4992","title":"新江湾佳苑","lon":"121.5041","lat":"31.308193","category":"47","category_name":"住宅区","address":"上海政立路505弄"},{"poiid":"B2094751D365A0FC449E","title":"kanes coffee","lon":"121.505412","lat":"31.3041966","category":"247","category_name":"餐饮美食","address":"杨浦区大学路265号(近国定路)"},{"poiid":"B2094455DA69A5FF4199","title":"TTOMA Cafe","lon":"121.5091","lat":"31.30399","category":"247","category_name":"餐饮美食","address":"上海市 锦创路8号"},{"poiid":"B2094752D76EA1FF4193","title":"耶里夏利新疆餐厅","lon":"121.506597","lat":"31.307621","category":"247","category_name":"餐饮美食","address":"五角场淞湖路"},{"poiid":"B2094752D06EABF84192","title":"Kanes coffee","lon":"121.50829","lat":"31.303555","category":"247","category_name":"餐饮美食","address":"大学路"},{"poiid":"B2094757D06AABF94593","title":"粤悦煲煲好","lon":"121.510889103","lat":"31.3050321459","category":"247","category_name":"餐饮美食","address":"杨浦区邯郸路393号(近国定路)"},{"poiid":"B2094757D069A2FC499B","title":"哈尔滨风味小吃","lon":"121.50442","lat":"31.30782","category":"82","category_name":"东北菜","address":"杨浦区政立路507号(近国定路)"},{"poiid":"B2094757D165ABFB409B","title":"塔頂泰國菜","lon":"121.5065161","lat":"31.30572616","category":"247","category_name":"餐饮美食","address":"上海杨浦区大學路"},{"poiid":"B2094757D069A6F8429E","title":"淞沪路政立路路口","lon":"121.511682","lat":"31.306713","category":"500","category_name":"未知分类","address":"上海淞沪路政立路"},{"poiid":"B2094654DB6BA3F5489E","title":"政立路580弄小区(政立路)","lon":"121.50722","lat":"31.30655","category":"47","category_name":"住宅区","address":"政立路580弄1号-46号"},{"poiid":"B2094750D068A2FA4393","title":"角松","lon":"121.508659","lat":"31.303812","category":"247","category_name":"餐饮美食","address":"大学路239号"},{"poiid":"B2094750DB69A6FE4393","title":"一兆韦德（吴尊馆）","lon":"121.509094","lat":"31.303995","category":"248","category_name":"生活娱乐","address":"大学路锦创路"},{"poiid":"B2094757D068A6FE4893","title":"创邑·扬创意园区","lon":"121.506648","lat":"31.3082648","category":"179","category_name":"音乐厅","address":"杨浦区政立路(近淞沪路)"},{"poiid":"B2094752D764ABFB439C","title":"莱甘地 Legante","lon":"121.510201","lat":"31.304356","category":"247","category_name":"餐饮美食","address":"上海市杨浦区大学路135-159号"},{"poiid":"B2094757D064A6FC469E","title":"上海市人才服务中心(杨浦区分部)","lon":"121.51118","lat":"31.30876","category":"500","category_name":"未知分类","address":"杨浦区淞沪路605号C-D(淞沪路政立路)"},{"poiid":"B2094654D56EA4FD469F","title":"上海市杨浦区政立路第二小学","lon":"121.50763","lat":"31.30727","category":"56","category_name":"小学","address":"杨浦区政立路570号(近上海市财经大学)"},{"poiid":"B2094753DA6AA1F4469E","title":"westside","lon":"121.50801","lat":"31.304002","category":"500","category_name":"未知分类","address":"上海市 大学路246号，伟德路口"},{"poiid":"B2094454D26DA3F9479D","title":"咕的咕的韩国料理","lon":"121.505004","lat":"31.304435","category":"247","category_name":"餐饮美食","address":"上海市 上海财经大学"},{"poiid":"B2094750D26CA6FD4393","title":"角松原木烧","lon":"121.5086462","lat":"31.3036881","category":"95","category_name":"日本料理","address":"杨浦区大学路239号"},{"poiid":"B2094752D76EABF94992","title":"斗香园","lon":"121.506485","lat":"31.307602","category":"247","category_name":"餐饮美食","address":"淞沪路333号1楼102B室"},{"poiid":"B2094654D56DA3FF4292","title":"上海财经大学(东门)","lon":"121.50389","lat":"31.30585","category":"656","category_name":"大门","address":"杨浦区国定路777号"},{"poiid":"B2094655D26BA3FD4292","title":"泰晤士咖啡餐厅 国定路店","lon":"121.50383","lat":"31.30587","category":"94","category_name":"西餐厅","address":"杨浦区国定路777号上海财经大学内(近政立路)"},{"poiid":"B2094753D26EA4FB419A","title":"角松居酒屋","lon":"121.505882","lat":"31.308084","category":"247","category_name":"餐饮美食","address":"上海市 大学路"},{"poiid":"B2094757D16EA7FB439E","title":"宝康宠物诊所(政立路店)","lon":"121.50913","lat":"31.30775","category":"162","category_name":"医院","address":"杨浦区政立路167号(近国和路)"},{"poiid":"B2094750DB6EABFB4292","title":"创智天地","lon":"121.510498","lat":"31.304269","category":"47","category_name":"住宅区","address":"上海市杨浦区大学路38号"},{"poiid":"B2094752DA6AAAFC499F","title":"沁足道","lon":"121.507484","lat":"31.306923","category":"500","category_name":"未知分类","address":"上海市 大学路52号201室"},{"poiid":"B2094752D565A4F4449C","title":"猫的天空之城概念书店","lon":"121.506317","lat":"31.30835","category":"247","category_name":"餐饮美食","address":"大学路70号"},{"poiid":"B2094750DB64A6F44793","title":"拿渡麻辣香锅","lon":"121.5083","lat":"31.30427","category":"247","category_name":"餐饮美食","address":null},{"poiid":"B2094750DB65ABF9439F","title":"長海醫院","lon":"121.504554","lat":"31.307353","category":"162","category_name":"医院","address":null},{"poiid":"B2094757DA69A1F4469F","title":"沃尔玛-五角场店","lon":"121.51095","lat":"31.30908","category":"119","category_name":"商场","address":"上海杨浦区淞沪路125号"},{"poiid":"B2094750D46BAAF84199","title":"Isushi","lon":"121.509437","lat":"31.30389","category":"95","category_name":"日本料理","address":"杨浦区大学路191-193号(近复旦大学)"},{"poiid":"B2094757D464A0FF4393","title":"ipo餐厅","lon":"121.51143829954","lat":"31.306147554151","category":"257","category_name":"中餐厅","address":"锦嘉路88号创智坊内近大学路"},{"poiid":"B2094757D06AA1FC4892","title":"政立路","lon":"121.504595","lat":"31.3079776","category":"500","category_name":"未知分类","address":"上海市政立路"}]