[{"poiid":"B2094757D06FA1FB409F","title":"上海理工大学第一教学楼","lon":"121.55567376","lat":"31.291738311","category":"253","category_name":"校园生活","address":"杨浦区军工路516号上海理工大学校园内湛恩大道"},{"poiid":"B2094757D068A7FF4493","title":"复兴岛公园","lon":"121.56190431","lat":"31.286679668","category":"196","category_name":"公园","address":"杨浦区共青路386号"},{"poiid":"B2094654D568A2FF499A","title":"沪江大学","lon":"121.55358","lat":"31.28951","category":"52","category_name":"高等院校","address":"海安路"},{"poiid":"B2094757D06FA6F84992","title":"上海理工大学第三教学楼","lon":"121.55627835","lat":"31.293536525","category":"253","category_name":"校园生活","address":"杨浦区军工路580号上海理工大学校园内勤勉大道"},{"poiid":"B2094757D06FA5F4479B","title":"白洋淀足球场","lon":"121.5528030307579","lat":"31.28180025940597","category":"220","category_name":"运动场所","address":"杨浦区周家嘴路4214弄22号(靠近爱国路)"},{"poiid":"B2094757D06FA6FC409C","title":"上海海洋大学(军工路校区)","lon":"121.55672","lat":"31.28648","category":"52","category_name":"高等院校","address":"上海杨浦区军工路334号(近易初莲花)  "},{"poiid":"B2094757D06BABFA4998","title":"上海理工大学综合楼B区","lon":"121.5543021","lat":"31.290369839","category":"500","category_name":"未知分类","address":"上海市杨浦区军工路516号"},{"poiid":"B2094757D069A5F8459E","title":"上海理工大学大礼堂","lon":"121.55650302","lat":"31.292073276","category":"179","category_name":"音乐厅","address":"上海市杨浦区军工路516号"},{"poiid":"B2094757D16FA2F8489F","title":"活着就是最牛逼的信仰","lon":"121.557584339","lat":"31.2909997399","category":"500","category_name":"未知分类","address":"上海市杨浦区民治路"},{"poiid":"B2094757D06FA1FF4792","title":"卜蜂莲花(周家嘴路店)","lon":"121.55321","lat":"31.28439","category":"118","category_name":"超级市场","address":"杨浦区周家嘴路4295号(近军工路)"},{"poiid":"B2094757D16EA2F84398","title":"上海理工大学北校区操场","lon":"121.55577533","lat":"31.288551683","category":"500","category_name":"未知分类","address":"上海市杨浦区军工路"},{"poiid":"B2094757D06FAAFF4798","title":"肯德基 KFC (周家嘴店)","lon":"121.554073","lat":"31.285973","category":"68","category_name":"快餐厅","address":"杨浦区周家嘴路4295号(近军工路)"},{"poiid":"B2094757D065A7F4459F","title":"上海理工大学第四教学楼","lon":"121.557355858","lat":"31.2865823801","category":"253","category_name":"校园生活","address":"杨浦区军工路334号上海理工大学(南校区)校园内诚信大道"},{"poiid":"B2094757D065A1F54298","title":"上海理工大学运动场","lon":"121.556309874","lat":"31.2910243314","category":"253","category_name":"校园生活","address":"杨浦区军工路470号上海理工大学校园内"},{"poiid":"B2094655D26FA0F84892","title":"平凉路2767弄小区","lon":"121.564","lat":"31.2848","category":"47","category_name":"住宅区","address":"上海市杨浦区平凉路平凉路2767弄"},{"poiid":"B2094757D068A2F44398","title":"白洋淀羽毛球馆","lon":"121.5524","lat":"31.28138","category":"220","category_name":"运动场所","address":"杨浦区周家嘴路4214弄22号白洋淀足球场内(近内江路)"},{"poiid":"B2094654D568A2F84093","title":"时运苑","lon":"121.55441","lat":"31.288563","category":"47","category_name":"住宅区","address":"上海市杨浦区军工路"},{"poiid":"B2094757D168A7FD499C","title":"上海理工大学一公寓南楼","lon":"121.5580691","lat":"31.293708646","category":"500","category_name":"未知分类","address":"上海军工路516号最靠江"},{"poiid":"B2094655D36DA7F9499F","title":"周家嘴路军工路","lon":"121.55425","lat":"31.28593","category":"38","category_name":"公交车站","address":"上海周家嘴路军工路"},{"poiid":"B2094757D164A2FC4398","title":"上海理工大学南校区五公寓四号楼","lon":"121.56063842","lat":"31.288753509","category":"500","category_name":"未知分类","address":"上海杨浦区军工路334号"},{"poiid":"B2094757D16FA7FC4193","title":"上海理工大学四教","lon":"121.55932617","lat":"31.28521347","category":"500","category_name":"未知分类","address":"上海军工路334号"},{"poiid":"B2094757D068A4FE4692","title":"平凉路第四小学","lon":"121.557","lat":"31.27798","category":"56","category_name":"小学","address":"杨浦区平凉路2767弄5号(近军工路)"},{"poiid":"B2094654D568A2FB489D","title":"上海水产大学生命学院","lon":"121.55817","lat":"31.28685","category":"52","category_name":"高等院校","address":""},{"poiid":"B2094654D568A2FA479F","title":"上海理工大学第一学生公寓北楼","lon":"121.55784","lat":"31.29417","category":"47","category_name":"住宅区","address":""},{"poiid":"B2094757D068ABF9459D","title":"上海理工大学二公寓三号楼","lon":"121.55772611","lat":"31.290753057","category":"253","category_name":"校园生活","address":"上海杨浦区军工路516号内"},{"poiid":"B2094654D568A3FF4192","title":"樟树缘公寓","lon":"121.55685","lat":"31.281164","category":"47","category_name":"住宅区","address":"上海市杨浦区军工路89号"},{"poiid":"B2094654D568A2FB489F","title":"上海水产大学第一教学大楼","lon":"121.55736","lat":"31.28658","category":"46","category_name":"楼宇","address":""},{"poiid":"B2094757D069A6FA459D","title":"上海理工大学综合楼","lon":"121.5569059","lat":"31.287334536","category":"253","category_name":"校园生活","address":"上海军工路516号"},{"poiid":"B2094654D568A2FB4899","title":"上海水生物科技馆","lon":"121.5579","lat":"31.28708","category":"186","category_name":"科技馆","address":""},{"poiid":"B2094654D568A2FB489E","title":"上海水产大学食品学院","lon":"121.55771","lat":"31.28657","category":"52","category_name":"高等院校","address":""},{"poiid":"B2094654D568A2F4469E","title":"上海水产大学信息学院","lon":"121.55771","lat":"31.28657","category":"52","category_name":"高等院校","address":""},{"poiid":"B2094654D568A2FB4992","title":"上海水产大学行政楼","lon":"121.55738","lat":"31.28754","category":"46","category_name":"楼宇","address":""},{"poiid":"B2094757D06AA1FB429B","title":"上海体育学院附属中学","lon":"121.551468","lat":"31.283566","category":"253","category_name":"校园生活","address":"上海杨浦区周家嘴路4220号"},{"poiid":"B2094654D568A2F8409D","title":"上海水产大学","lon":"121.55646","lat":"31.28675","category":"671","category_name":"高校中心点","address":"杨浦区军工路334"},{"poiid":"B2094757D068A2FB4098","title":"25路平凉路军工路站","lon":"121.557719756","lat":"31.2785505256","category":"38","category_name":"公交车站","address":"上海杨浦区平凉路军工路"},{"poiid":"B2094757D16BA7FC419F","title":"上理二公寓","lon":"121.558021545","lat":"31.2857837677","category":"500","category_name":"未知分类","address":"上海军工路470号第二公寓"},{"poiid":"B2094757D16AA7FF4798","title":"上海理工大学综合楼C区","lon":"121.552987203","lat":"31.2893248174","category":"500","category_name":"未知分类","address":"上海市杨浦区军工路516号上海理工大学"},{"poiid":"B2094654D568A2F8469B","title":"上海理工大学学生宿舍","lon":"121.56137","lat":"31.29019","category":"47","category_name":"住宅区","address":"共青路430"},{"poiid":"B2094654D568A2F4469D","title":"上海水产大学创业楼","lon":"121.55764","lat":"31.28931","category":"46","category_name":"楼宇","address":""},{"poiid":"B2094757D66CA4FA479D","title":"上海理工大学二公寓二号楼","lon":"121.553457103","lat":"31.2852857329","category":"500","category_name":"未知分类","address":"上海理工大学"},{"poiid":"B2094654D568A2FB4898","title":"上海水产大学海洋学院","lon":"121.55664","lat":"31.28679","category":"52","category_name":"高等院校","address":""},{"poiid":"B2094654D568A2F44892","title":"上海水产大学工程学院","lon":"121.55663","lat":"31.28679","category":"52","category_name":"高等院校","address":""},{"poiid":"B2094654D568A2F44798","title":"上海水产大学综合楼","lon":"121.5559","lat":"31.28726","category":"46","category_name":"楼宇","address":""},{"poiid":"B2094757D16EA6FB499A","title":"东海水产研究所","lon":"121.556873","lat":"31.285602","category":"500","category_name":"未知分类","address":"上海杨浦区军工路300号"},{"poiid":"B2094654D568A2F4409E","title":"上海水产大学学术活动中心","lon":"121.55644","lat":"31.28732","category":"52","category_name":"高等院校","address":""},{"poiid":"B2094757D065A5FF489E","title":"梅林公寓","lon":"121.55535","lat":"31.286303","category":"47","category_name":"住宅区","address":"上海市杨浦区周家嘴路4500号"},{"poiid":"B2094654DB6BA2F4499B","title":"上海华利船舶工程有限公司海安路","lon":"121.56159","lat":"31.28732","category":"263","category_name":"公司","address":"海安路400"},{"poiid":"B2094757D568A6FE4099","title":"博懿比萨屋","lon":"121.5540511","lat":"31.28797639","category":"94","category_name":"西餐厅","address":"杨浦区军工路386号(近上海理工大学南校区)"},{"poiid":"B2094655D26CA6F44698","title":"军工路339弄小区(东门)","lon":"121.55606","lat":"31.28621","category":"47","category_name":"住宅区","address":"军工路339弄"},{"poiid":"B2094654D568A2F4409F","title":"上海水产大学招生工作接待处","lon":"121.5559","lat":"31.28726","category":"52","category_name":"高等院校","address":"军工路346号"},{"poiid":"B2094757D06FA1FB409F","title":"上海理工大学第一教学楼","lon":"121.55567376","lat":"31.291738311","category":"253","category_name":"校园生活","address":"杨浦区军工路516号上海理工大学校园内湛恩大道"},{"poiid":"B2094757D068A7FF4493","title":"复兴岛公园","lon":"121.56190431","lat":"31.286679668","category":"196","category_name":"公园","address":"杨浦区共青路386号"},{"poiid":"B2094654D568A2FF499A","title":"沪江大学","lon":"121.55358","lat":"31.28951","category":"52","category_name":"高等院校","address":"海安路"},{"poiid":"B2094757D06FA6F84992","title":"上海理工大学第三教学楼","lon":"121.55627835","lat":"31.293536525","category":"253","category_name":"校园生活","address":"杨浦区军工路580号上海理工大学校园内勤勉大道"},{"poiid":"B2094757D06FA5F4479B","title":"白洋淀足球场","lon":"121.5528030307579","lat":"31.28180025940597","category":"220","category_name":"运动场所","address":"杨浦区周家嘴路4214弄22号(靠近爱国路)"},{"poiid":"B2094757D06FA6FC409C","title":"上海海洋大学(军工路校区)","lon":"121.55672","lat":"31.28648","category":"52","category_name":"高等院校","address":"上海杨浦区军工路334号(近易初莲花)  "},{"poiid":"B2094757D06BABFA4998","title":"上海理工大学综合楼B区","lon":"121.5543021","lat":"31.290369839","category":"500","category_name":"未知分类","address":"上海市杨浦区军工路516号"},{"poiid":"B2094757D069A5F8459E","title":"上海理工大学大礼堂","lon":"121.55650302","lat":"31.292073276","category":"179","category_name":"音乐厅","address":"上海市杨浦区军工路516号"},{"poiid":"B2094757D16FA2F8489F","title":"活着就是最牛逼的信仰","lon":"121.557584339","lat":"31.2909997399","category":"500","category_name":"未知分类","address":"上海市杨浦区民治路"},{"poiid":"B2094757D06FA1FF4792","title":"卜蜂莲花(周家嘴路店)","lon":"121.55321","lat":"31.28439","category":"118","category_name":"超级市场","address":"杨浦区周家嘴路4295号(近军工路)"},{"poiid":"B2094757D16EA2F84398","title":"上海理工大学北校区操场","lon":"121.55577533","lat":"31.288551683","category":"500","category_name":"未知分类","address":"上海市杨浦区军工路"},{"poiid":"B2094757D06FAAFF4798","title":"肯德基 KFC (周家嘴店)","lon":"121.554073","lat":"31.285973","category":"68","category_name":"快餐厅","address":"杨浦区周家嘴路4295号(近军工路)"},{"poiid":"B2094757D065A7F4459F","title":"上海理工大学第四教学楼","lon":"121.557355858","lat":"31.2865823801","category":"253","category_name":"校园生活","address":"杨浦区军工路334号上海理工大学(南校区)校园内诚信大道"},{"poiid":"B2094757D065A1F54298","title":"上海理工大学运动场","lon":"121.556309874","lat":"31.2910243314","category":"253","category_name":"校园生活","address":"杨浦区军工路470号上海理工大学校园内"},{"poiid":"B2094655D26FA0F84892","title":"平凉路2767弄小区","lon":"121.564","lat":"31.2848","category":"47","category_name":"住宅区","address":"上海市杨浦区平凉路平凉路2767弄"},{"poiid":"B2094757D068A2F44398","title":"白洋淀羽毛球馆","lon":"121.5524","lat":"31.28138","category":"220","category_name":"运动场所","address":"杨浦区周家嘴路4214弄22号白洋淀足球场内(近内江路)"},{"poiid":"B2094654D568A2F84093","title":"时运苑","lon":"121.55441","lat":"31.288563","category":"47","category_name":"住宅区","address":"上海市杨浦区军工路"},{"poiid":"B2094757D168A7FD499C","title":"上海理工大学一公寓南楼","lon":"121.5580691","lat":"31.293708646","category":"500","category_name":"未知分类","address":"上海军工路516号最靠江"},{"poiid":"B2094655D36DA7F9499F","title":"周家嘴路军工路","lon":"121.55425","lat":"31.28593","category":"38","category_name":"公交车站","address":"上海周家嘴路军工路"},{"poiid":"B2094757D164A2FC4398","title":"上海理工大学南校区五公寓四号楼","lon":"121.56063842","lat":"31.288753509","category":"500","category_name":"未知分类","address":"上海杨浦区军工路334号"},{"poiid":"B2094757D16FA7FC4193","title":"上海理工大学四教","lon":"121.55932617","lat":"31.28521347","category":"500","category_name":"未知分类","address":"上海军工路334号"},{"poiid":"B2094757D068A4FE4692","title":"平凉路第四小学","lon":"121.557","lat":"31.27798","category":"56","category_name":"小学","address":"杨浦区平凉路2767弄5号(近军工路)"},{"poiid":"B2094654D568A2FB489D","title":"上海水产大学生命学院","lon":"121.55817","lat":"31.28685","category":"52","category_name":"高等院校","address":""},{"poiid":"B2094654D568A2FA479F","title":"上海理工大学第一学生公寓北楼","lon":"121.55784","lat":"31.29417","category":"47","category_name":"住宅区","address":""},{"poiid":"B2094757D068ABF9459D","title":"上海理工大学二公寓三号楼","lon":"121.55772611","lat":"31.290753057","category":"253","category_name":"校园生活","address":"上海杨浦区军工路516号内"},{"poiid":"B2094654D568A3FF4192","title":"樟树缘公寓","lon":"121.55685","lat":"31.281164","category":"47","category_name":"住宅区","address":"上海市杨浦区军工路89号"},{"poiid":"B2094654D568A2FB489F","title":"上海水产大学第一教学大楼","lon":"121.55736","lat":"31.28658","category":"46","category_name":"楼宇","address":""},{"poiid":"B2094757D069A6FA459D","title":"上海理工大学综合楼","lon":"121.5569059","lat":"31.287334536","category":"253","category_name":"校园生活","address":"上海军工路516号"},{"poiid":"B2094654D568A2FB4899","title":"上海水生物科技馆","lon":"121.5579","lat":"31.28708","category":"186","category_name":"科技馆","address":""},{"poiid":"B2094654D568A2FB489E","title":"上海水产大学食品学院","lon":"121.55771","lat":"31.28657","category":"52","category_name":"高等院校","address":""},{"poiid":"B2094654D568A2F4469E","title":"上海水产大学信息学院","lon":"121.55771","lat":"31.28657","category":"52","category_name":"高等院校","address":""},{"poiid":"B2094654D568A2FB4992","title":"上海水产大学行政楼","lon":"121.55738","lat":"31.28754","category":"46","category_name":"楼宇","address":""},{"poiid":"B2094757D06AA1FB429B","title":"上海体育学院附属中学","lon":"121.551468","lat":"31.283566","category":"253","category_name":"校园生活","address":"上海杨浦区周家嘴路4220号"},{"poiid":"B2094654D568A2F8409D","title":"上海水产大学","lon":"121.55646","lat":"31.28675","category":"671","category_name":"高校中心点","address":"杨浦区军工路334"},{"poiid":"B2094757D068A2FB4098","title":"25路平凉路军工路站","lon":"121.557719756","lat":"31.2785505256","category":"38","category_name":"公交车站","address":"上海杨浦区平凉路军工路"},{"poiid":"B2094757D16BA7FC419F","title":"上理二公寓","lon":"121.558021545","lat":"31.2857837677","category":"500","category_name":"未知分类","address":"上海军工路470号第二公寓"},{"poiid":"B2094757D16AA7FF4798","title":"上海理工大学综合楼C区","lon":"121.552987203","lat":"31.2893248174","category":"500","category_name":"未知分类","address":"上海市杨浦区军工路516号上海理工大学"},{"poiid":"B2094654D568A2F8469B","title":"上海理工大学学生宿舍","lon":"121.56137","lat":"31.29019","category":"47","category_name":"住宅区","address":"共青路430"},{"poiid":"B2094654D568A2F4469D","title":"上海水产大学创业楼","lon":"121.55764","lat":"31.28931","category":"46","category_name":"楼宇","address":""},{"poiid":"B2094757D66CA4FA479D","title":"上海理工大学二公寓二号楼","lon":"121.553457103","lat":"31.2852857329","category":"500","category_name":"未知分类","address":"上海理工大学"},{"poiid":"B2094654D568A2FB4898","title":"上海水产大学海洋学院","lon":"121.55664","lat":"31.28679","category":"52","category_name":"高等院校","address":""},{"poiid":"B2094654D568A2F44892","title":"上海水产大学工程学院","lon":"121.55663","lat":"31.28679","category":"52","category_name":"高等院校","address":""},{"poiid":"B2094654D568A2F44798","title":"上海水产大学综合楼","lon":"121.5559","lat":"31.28726","category":"46","category_name":"楼宇","address":""},{"poiid":"B2094757D16EA6FB499A","title":"东海水产研究所","lon":"121.556873","lat":"31.285602","category":"500","category_name":"未知分类","address":"上海杨浦区军工路300号"},{"poiid":"B2094654D568A2F4409E","title":"上海水产大学学术活动中心","lon":"121.55644","lat":"31.28732","category":"52","category_name":"高等院校","address":""},{"poiid":"B2094757D065A5FF489E","title":"梅林公寓","lon":"121.55535","lat":"31.286303","category":"47","category_name":"住宅区","address":"上海市杨浦区周家嘴路4500号"},{"poiid":"B2094654DB6BA2F4499B","title":"上海华利船舶工程有限公司海安路","lon":"121.56159","lat":"31.28732","category":"263","category_name":"公司","address":"海安路400"},{"poiid":"B2094757D568A6FE4099","title":"博懿比萨屋","lon":"121.5540511","lat":"31.28797639","category":"94","category_name":"西餐厅","address":"杨浦区军工路386号(近上海理工大学南校区)"},{"poiid":"B2094655D26CA6F44698","title":"军工路339弄小区(东门)","lon":"121.55606","lat":"31.28621","category":"47","category_name":"住宅区","address":"军工路339弄"},{"poiid":"B2094654D568A2F4409F","title":"上海水产大学招生工作接待处","lon":"121.5559","lat":"31.28726","category":"52","category_name":"高等院校","address":"军工路346号"},{"poiid":"B2094757D06FA1FB409F","title":"上海理工大学第一教学楼","lon":"121.55567376","lat":"31.291738311","category":"253","category_name":"校园生活","address":"杨浦区军工路516号上海理工大学校园内湛恩大道"},{"poiid":"B2094757D068A7FF4493","title":"复兴岛公园","lon":"121.56190431","lat":"31.286679668","category":"196","category_name":"公园","address":"杨浦区共青路386号"},{"poiid":"B2094654D568A2FF499A","title":"沪江大学","lon":"121.55358","lat":"31.28951","category":"52","category_name":"高等院校","address":"海安路"},{"poiid":"B2094757D06FA6F84992","title":"上海理工大学第三教学楼","lon":"121.55627835","lat":"31.293536525","category":"253","category_name":"校园生活","address":"杨浦区军工路580号上海理工大学校园内勤勉大道"},{"poiid":"B2094757D06FA5F4479B","title":"白洋淀足球场","lon":"121.5528030307579","lat":"31.28180025940597","category":"220","category_name":"运动场所","address":"杨浦区周家嘴路4214弄22号(靠近爱国路)"},{"poiid":"B2094757D06FA6FC409C","title":"上海海洋大学(军工路校区)","lon":"121.55672","lat":"31.28648","category":"52","category_name":"高等院校","address":"上海杨浦区军工路334号(近易初莲花)  "},{"poiid":"B2094757D06BABFA4998","title":"上海理工大学综合楼B区","lon":"121.5543021","lat":"31.290369839","category":"500","category_name":"未知分类","address":"上海市杨浦区军工路516号"},{"poiid":"B2094757D069A5F8459E","title":"上海理工大学大礼堂","lon":"121.55650302","lat":"31.292073276","category":"179","category_name":"音乐厅","address":"上海市杨浦区军工路516号"},{"poiid":"B2094757D16FA2F8489F","title":"活着就是最牛逼的信仰","lon":"121.557584339","lat":"31.2909997399","category":"500","category_name":"未知分类","address":"上海市杨浦区民治路"},{"poiid":"B2094757D06FA1FF4792","title":"卜蜂莲花(周家嘴路店)","lon":"121.55321","lat":"31.28439","category":"118","category_name":"超级市场","address":"杨浦区周家嘴路4295号(近军工路)"},{"poiid":"B2094757D16EA2F84398","title":"上海理工大学北校区操场","lon":"121.55577533","lat":"31.288551683","category":"500","category_name":"未知分类","address":"上海市杨浦区军工路"},{"poiid":"B2094757D06FAAFF4798","title":"肯德基 KFC (周家嘴店)","lon":"121.554073","lat":"31.285973","category":"68","category_name":"快餐厅","address":"杨浦区周家嘴路4295号(近军工路)"},{"poiid":"B2094757D065A7F4459F","title":"上海理工大学第四教学楼","lon":"121.557355858","lat":"31.2865823801","category":"253","category_name":"校园生活","address":"杨浦区军工路334号上海理工大学(南校区)校园内诚信大道"},{"poiid":"B2094757D065A1F54298","title":"上海理工大学运动场","lon":"121.556309874","lat":"31.2910243314","category":"253","category_name":"校园生活","address":"杨浦区军工路470号上海理工大学校园内"},{"poiid":"B2094655D26FA0F84892","title":"平凉路2767弄小区","lon":"121.564","lat":"31.2848","category":"47","category_name":"住宅区","address":"上海市杨浦区平凉路平凉路2767弄"},{"poiid":"B2094757D068A2F44398","title":"白洋淀羽毛球馆","lon":"121.5524","lat":"31.28138","category":"220","category_name":"运动场所","address":"杨浦区周家嘴路4214弄22号白洋淀足球场内(近内江路)"},{"poiid":"B2094654D568A2F84093","title":"时运苑","lon":"121.55441","lat":"31.288563","category":"47","category_name":"住宅区","address":"上海市杨浦区军工路"},{"poiid":"B2094757D168A7FD499C","title":"上海理工大学一公寓南楼","lon":"121.5580691","lat":"31.293708646","category":"500","category_name":"未知分类","address":"上海军工路516号最靠江"},{"poiid":"B2094655D36DA7F9499F","title":"周家嘴路军工路","lon":"121.55425","lat":"31.28593","category":"38","category_name":"公交车站","address":"上海周家嘴路军工路"},{"poiid":"B2094757D164A2FC4398","title":"上海理工大学南校区五公寓四号楼","lon":"121.56063842","lat":"31.288753509","category":"500","category_name":"未知分类","address":"上海杨浦区军工路334号"},{"poiid":"B2094757D16FA7FC4193","title":"上海理工大学四教","lon":"121.55932617","lat":"31.28521347","category":"500","category_name":"未知分类","address":"上海军工路334号"},{"poiid":"B2094757D068A4FE4692","title":"平凉路第四小学","lon":"121.557","lat":"31.27798","category":"56","category_name":"小学","address":"杨浦区平凉路2767弄5号(近军工路)"},{"poiid":"B2094654D568A2FB489D","title":"上海水产大学生命学院","lon":"121.55817","lat":"31.28685","category":"52","category_name":"高等院校","address":""},{"poiid":"B2094654D568A2FA479F","title":"上海理工大学第一学生公寓北楼","lon":"121.55784","lat":"31.29417","category":"47","category_name":"住宅区","address":""},{"poiid":"B2094757D068ABF9459D","title":"上海理工大学二公寓三号楼","lon":"121.55772611","lat":"31.290753057","category":"253","category_name":"校园生活","address":"上海杨浦区军工路516号内"},{"poiid":"B2094654D568A3FF4192","title":"樟树缘公寓","lon":"121.55685","lat":"31.281164","category":"47","category_name":"住宅区","address":"上海市杨浦区军工路89号"},{"poiid":"B2094654D568A2FB489F","title":"上海水产大学第一教学大楼","lon":"121.55736","lat":"31.28658","category":"46","category_name":"楼宇","address":""},{"poiid":"B2094757D069A6FA459D","title":"上海理工大学综合楼","lon":"121.5569059","lat":"31.287334536","category":"253","category_name":"校园生活","address":"上海军工路516号"},{"poiid":"B2094654D568A2FB4899","title":"上海水生物科技馆","lon":"121.5579","lat":"31.28708","category":"186","category_name":"科技馆","address":""},{"poiid":"B2094654D568A2FB489E","title":"上海水产大学食品学院","lon":"121.55771","lat":"31.28657","category":"52","category_name":"高等院校","address":""},{"poiid":"B2094654D568A2F4469E","title":"上海水产大学信息学院","lon":"121.55771","lat":"31.28657","category":"52","category_name":"高等院校","address":""},{"poiid":"B2094654D568A2FB4992","title":"上海水产大学行政楼","lon":"121.55738","lat":"31.28754","category":"46","category_name":"楼宇","address":""},{"poiid":"B2094757D06AA1FB429B","title":"上海体育学院附属中学","lon":"121.551468","lat":"31.283566","category":"253","category_name":"校园生活","address":"上海杨浦区周家嘴路4220号"},{"poiid":"B2094654D568A2F8409D","title":"上海水产大学","lon":"121.55646","lat":"31.28675","category":"671","category_name":"高校中心点","address":"杨浦区军工路334"},{"poiid":"B2094757D068A2FB4098","title":"25路平凉路军工路站","lon":"121.557719756","lat":"31.2785505256","category":"38","category_name":"公交车站","address":"上海杨浦区平凉路军工路"},{"poiid":"B2094757D16BA7FC419F","title":"上理二公寓","lon":"121.558021545","lat":"31.2857837677","category":"500","category_name":"未知分类","address":"上海军工路470号第二公寓"},{"poiid":"B2094757D16AA7FF4798","title":"上海理工大学综合楼C区","lon":"121.552987203","lat":"31.2893248174","category":"500","category_name":"未知分类","address":"上海市杨浦区军工路516号上海理工大学"},{"poiid":"B2094654D568A2F8469B","title":"上海理工大学学生宿舍","lon":"121.56137","lat":"31.29019","category":"47","category_name":"住宅区","address":"共青路430"},{"poiid":"B2094654D568A2F4469D","title":"上海水产大学创业楼","lon":"121.55764","lat":"31.28931","category":"46","category_name":"楼宇","address":""},{"poiid":"B2094757D66CA4FA479D","title":"上海理工大学二公寓二号楼","lon":"121.553457103","lat":"31.2852857329","category":"500","category_name":"未知分类","address":"上海理工大学"},{"poiid":"B2094654D568A2FB4898","title":"上海水产大学海洋学院","lon":"121.55664","lat":"31.28679","category":"52","category_name":"高等院校","address":""},{"poiid":"B2094654D568A2F44892","title":"上海水产大学工程学院","lon":"121.55663","lat":"31.28679","category":"52","category_name":"高等院校","address":""},{"poiid":"B2094654D568A2F44798","title":"上海水产大学综合楼","lon":"121.5559","lat":"31.28726","category":"46","category_name":"楼宇","address":""},{"poiid":"B2094757D16EA6FB499A","title":"东海水产研究所","lon":"121.556873","lat":"31.285602","category":"500","category_name":"未知分类","address":"上海杨浦区军工路300号"},{"poiid":"B2094654D568A2F4409E","title":"上海水产大学学术活动中心","lon":"121.55644","lat":"31.28732","category":"52","category_name":"高等院校","address":""},{"poiid":"B2094757D065A5FF489E","title":"梅林公寓","lon":"121.55535","lat":"31.286303","category":"47","category_name":"住宅区","address":"上海市杨浦区周家嘴路4500号"},{"poiid":"B2094654DB6BA2F4499B","title":"上海华利船舶工程有限公司海安路","lon":"121.56159","lat":"31.28732","category":"263","category_name":"公司","address":"海安路400"},{"poiid":"B2094757D568A6FE4099","title":"博懿比萨屋","lon":"121.5540511","lat":"31.28797639","category":"94","category_name":"西餐厅","address":"杨浦区军工路386号(近上海理工大学南校区)"},{"poiid":"B2094655D26CA6F44698","title":"军工路339弄小区(东门)","lon":"121.55606","lat":"31.28621","category":"47","category_name":"住宅区","address":"军工路339弄"},{"poiid":"B2094654D568A2F4409F","title":"上海水产大学招生工作接待处","lon":"121.5559","lat":"31.28726","category":"52","category_name":"高等院校","address":"军工路346号"},{"poiid":"B2094757D06FA1FB409F","title":"上海理工大学第一教学楼","lon":"121.55567376","lat":"31.291738311","category":"253","category_name":"校园生活","address":"杨浦区军工路516号上海理工大学校园内湛恩大道"},{"poiid":"B2094757D068A7FF4493","title":"复兴岛公园","lon":"121.56190431","lat":"31.286679668","category":"196","category_name":"公园","address":"杨浦区共青路386号"},{"poiid":"B2094654D568A2FF499A","title":"沪江大学","lon":"121.55358","lat":"31.28951","category":"52","category_name":"高等院校","address":"海安路"},{"poiid":"B2094757D06FA6F84992","title":"上海理工大学第三教学楼","lon":"121.55627835","lat":"31.293536525","category":"253","category_name":"校园生活","address":"杨浦区军工路580号上海理工大学校园内勤勉大道"},{"poiid":"B2094757D06FA5F4479B","title":"白洋淀足球场","lon":"121.5528030307579","lat":"31.28180025940597","category":"220","category_name":"运动场所","address":"杨浦区周家嘴路4214弄22号(靠近爱国路)"},{"poiid":"B2094757D06FA6FC409C","title":"上海海洋大学(军工路校区)","lon":"121.55672","lat":"31.28648","category":"52","category_name":"高等院校","address":"上海杨浦区军工路334号(近易初莲花)  "},{"poiid":"B2094757D06BABFA4998","title":"上海理工大学综合楼B区","lon":"121.5543021","lat":"31.290369839","category":"500","category_name":"未知分类","address":"上海市杨浦区军工路516号"},{"poiid":"B2094757D069A5F8459E","title":"上海理工大学大礼堂","lon":"121.55650302","lat":"31.292073276","category":"179","category_name":"音乐厅","address":"上海市杨浦区军工路516号"},{"poiid":"B2094757D16FA2F8489F","title":"活着就是最牛逼的信仰","lon":"121.557584339","lat":"31.2909997399","category":"500","category_name":"未知分类","address":"上海市杨浦区民治路"},{"poiid":"B2094757D06FA1FF4792","title":"卜蜂莲花(周家嘴路店)","lon":"121.55321","lat":"31.28439","category":"118","category_name":"超级市场","address":"杨浦区周家嘴路4295号(近军工路)"},{"poiid":"B2094757D16EA2F84398","title":"上海理工大学北校区操场","lon":"121.55577533","lat":"31.288551683","category":"500","category_name":"未知分类","address":"上海市杨浦区军工路"},{"poiid":"B2094757D06FAAFF4798","title":"肯德基 KFC (周家嘴店)","lon":"121.554073","lat":"31.285973","category":"68","category_name":"快餐厅","address":"杨浦区周家嘴路4295号(近军工路)"},{"poiid":"B2094757D065A7F4459F","title":"上海理工大学第四教学楼","lon":"121.557355858","lat":"31.2865823801","category":"253","category_name":"校园生活","address":"杨浦区军工路334号上海理工大学(南校区)校园内诚信大道"},{"poiid":"B2094757D065A1F54298","title":"上海理工大学运动场","lon":"121.556309874","lat":"31.2910243314","category":"253","category_name":"校园生活","address":"杨浦区军工路470号上海理工大学校园内"},{"poiid":"B2094655D26FA0F84892","title":"平凉路2767弄小区","lon":"121.564","lat":"31.2848","category":"47","category_name":"住宅区","address":"上海市杨浦区平凉路平凉路2767弄"},{"poiid":"B2094757D068A2F44398","title":"白洋淀羽毛球馆","lon":"121.5524","lat":"31.28138","category":"220","category_name":"运动场所","address":"杨浦区周家嘴路4214弄22号白洋淀足球场内(近内江路)"},{"poiid":"B2094654D568A2F84093","title":"时运苑","lon":"121.55441","lat":"31.288563","category":"47","category_name":"住宅区","address":"上海市杨浦区军工路"},{"poiid":"B2094757D168A7FD499C","title":"上海理工大学一公寓南楼","lon":"121.5580691","lat":"31.293708646","category":"500","category_name":"未知分类","address":"上海军工路516号最靠江"},{"poiid":"B2094655D36DA7F9499F","title":"周家嘴路军工路","lon":"121.55425","lat":"31.28593","category":"38","category_name":"公交车站","address":"上海周家嘴路军工路"},{"poiid":"B2094757D164A2FC4398","title":"上海理工大学南校区五公寓四号楼","lon":"121.56063842","lat":"31.288753509","category":"500","category_name":"未知分类","address":"上海杨浦区军工路334号"},{"poiid":"B2094757D16FA7FC4193","title":"上海理工大学四教","lon":"121.55932617","lat":"31.28521347","category":"500","category_name":"未知分类","address":"上海军工路334号"},{"poiid":"B2094757D068A4FE4692","title":"平凉路第四小学","lon":"121.557","lat":"31.27798","category":"56","category_name":"小学","address":"杨浦区平凉路2767弄5号(近军工路)"},{"poiid":"B2094654D568A2FB489D","title":"上海水产大学生命学院","lon":"121.55817","lat":"31.28685","category":"52","category_name":"高等院校","address":""},{"poiid":"B2094654D568A2FA479F","title":"上海理工大学第一学生公寓北楼","lon":"121.55784","lat":"31.29417","category":"47","category_name":"住宅区","address":""},{"poiid":"B2094757D068ABF9459D","title":"上海理工大学二公寓三号楼","lon":"121.55772611","lat":"31.290753057","category":"253","category_name":"校园生活","address":"上海杨浦区军工路516号内"},{"poiid":"B2094654D568A3FF4192","title":"樟树缘公寓","lon":"121.55685","lat":"31.281164","category":"47","category_name":"住宅区","address":"上海市杨浦区军工路89号"},{"poiid":"B2094654D568A2FB489F","title":"上海水产大学第一教学大楼","lon":"121.55736","lat":"31.28658","category":"46","category_name":"楼宇","address":""},{"poiid":"B2094757D069A6FA459D","title":"上海理工大学综合楼","lon":"121.5569059","lat":"31.287334536","category":"253","category_name":"校园生活","address":"上海军工路516号"},{"poiid":"B2094654D568A2FB4899","title":"上海水生物科技馆","lon":"121.5579","lat":"31.28708","category":"186","category_name":"科技馆","address":""},{"poiid":"B2094654D568A2FB489E","title":"上海水产大学食品学院","lon":"121.55771","lat":"31.28657","category":"52","category_name":"高等院校","address":""},{"poiid":"B2094654D568A2F4469E","title":"上海水产大学信息学院","lon":"121.55771","lat":"31.28657","category":"52","category_name":"高等院校","address":""},{"poiid":"B2094654D568A2FB4992","title":"上海水产大学行政楼","lon":"121.55738","lat":"31.28754","category":"46","category_name":"楼宇","address":""},{"poiid":"B2094757D06AA1FB429B","title":"上海体育学院附属中学","lon":"121.551468","lat":"31.283566","category":"253","category_name":"校园生活","address":"上海杨浦区周家嘴路4220号"},{"poiid":"B2094654D568A2F8409D","title":"上海水产大学","lon":"121.55646","lat":"31.28675","category":"671","category_name":"高校中心点","address":"杨浦区军工路334"},{"poiid":"B2094757D068A2FB4098","title":"25路平凉路军工路站","lon":"121.557719756","lat":"31.2785505256","category":"38","category_name":"公交车站","address":"上海杨浦区平凉路军工路"},{"poiid":"B2094757D16BA7FC419F","title":"上理二公寓","lon":"121.558021545","lat":"31.2857837677","category":"500","category_name":"未知分类","address":"上海军工路470号第二公寓"},{"poiid":"B2094757D16AA7FF4798","title":"上海理工大学综合楼C区","lon":"121.552987203","lat":"31.2893248174","category":"500","category_name":"未知分类","address":"上海市杨浦区军工路516号上海理工大学"},{"poiid":"B2094654D568A2F8469B","title":"上海理工大学学生宿舍","lon":"121.56137","lat":"31.29019","category":"47","category_name":"住宅区","address":"共青路430"},{"poiid":"B2094654D568A2F4469D","title":"上海水产大学创业楼","lon":"121.55764","lat":"31.28931","category":"46","category_name":"楼宇","address":""},{"poiid":"B2094757D66CA4FA479D","title":"上海理工大学二公寓二号楼","lon":"121.553457103","lat":"31.2852857329","category":"500","category_name":"未知分类","address":"上海理工大学"},{"poiid":"B2094654D568A2FB4898","title":"上海水产大学海洋学院","lon":"121.55664","lat":"31.28679","category":"52","category_name":"高等院校","address":""},{"poiid":"B2094654D568A2F44892","title":"上海水产大学工程学院","lon":"121.55663","lat":"31.28679","category":"52","category_name":"高等院校","address":""},{"poiid":"B2094654D568A2F44798","title":"上海水产大学综合楼","lon":"121.5559","lat":"31.28726","category":"46","category_name":"楼宇","address":""},{"poiid":"B2094757D16EA6FB499A","title":"东海水产研究所","lon":"121.556873","lat":"31.285602","category":"500","category_name":"未知分类","address":"上海杨浦区军工路300号"},{"poiid":"B2094654D568A2F4409E","title":"上海水产大学学术活动中心","lon":"121.55644","lat":"31.28732","category":"52","category_name":"高等院校","address":""},{"poiid":"B2094757D065A5FF489E","title":"梅林公寓","lon":"121.55535","lat":"31.286303","category":"47","category_name":"住宅区","address":"上海市杨浦区周家嘴路4500号"},{"poiid":"B2094654DB6BA2F4499B","title":"上海华利船舶工程有限公司海安路","lon":"121.56159","lat":"31.28732","category":"263","category_name":"公司","address":"海安路400"},{"poiid":"B2094757D568A6FE4099","title":"博懿比萨屋","lon":"121.5540511","lat":"31.28797639","category":"94","category_name":"西餐厅","address":"杨浦区军工路386号(近上海理工大学南校区)"},{"poiid":"B2094655D26CA6F44698","title":"军工路339弄小区(东门)","lon":"121.55606","lat":"31.28621","category":"47","category_name":"住宅区","address":"军工路339弄"},{"poiid":"B2094654D568A2F4409F","title":"上海水产大学招生工作接待处","lon":"121.5559","lat":"31.28726","category":"52","category_name":"高等院校","address":"军工路346号"}]