[{"poiid":"B2094654D565A5FA4492","title":"中山公园","lon":"121.42031","lat":"31.22094","category":"196","category_name":"公园","address":"长宁区长宁路780号(近定西路)"},{"poiid":"B2094750D26EA2F8459E","title":"绿茶餐厅 中山公园店","lon":"121.42073","lat":"31.21882","category":"75","category_name":"浙江菜","address":"长宁区长宁路823号巴黎春天2楼(近地铁2号线中山公园站5号出口)"},{"poiid":"B2094757D06FA3FA4792","title":"巴黎春天(新宁店)","lon":"121.4215261","lat":"31.2193322","category":"119","category_name":"商场","address":"长宁区长宁路823号巴黎春天(定西路口)"},{"poiid":"B2094757D06FA3FA4592","title":"御花园酒店","lon":"121.41965","lat":"31.22256","category":"72","category_name":"广东菜","address":"长宁区长宁路780号中山公园内(近定西路)"},{"poiid":"B2094757D06FA1FF499E","title":"鸟安(汇川路店)","lon":"121.41952","lat":"31.21875","category":"95","category_name":"日本料理","address":"上海长宁区长宁路890号玫瑰坊1楼32(近汇川路)"},{"poiid":"B2094757D06FA5FD449C","title":"竹家庄避风塘(中山公园店)","lon":"121.4215715","lat":"31.2194413","category":"72","category_name":"广东菜","address":"长宁区长宁路772号(定西路口)"},{"poiid":"B2094757D06FA0F8489A","title":"阿拉丁麻辣烫(中山公园店)","lon":"121.41977","lat":"31.21885","category":"68","category_name":"快餐厅","address":"长宁区长宁路890号玫瑰坊B1楼(近汇川路)"},{"poiid":"B2094753D26CA7FE479F","title":"Ashley爱室丽家居（中山公园旗舰店）","lon":"121.42205356005","lat":"31.219201760961","category":"249","category_name":"购物服务","address":"长宁区愚园路1398号"},{"poiid":"B2094757D069A6FD439E","title":"中山公园翻斗乐","lon":"121.421014","lat":"31.219922","category":"196","category_name":"公园","address":"长宁区长宁路780号中山公园内(近定西路)"},{"poiid":"B2094757D06FA5F8479D","title":"宝寿司(玫瑰坊店)","lon":"121.41920848","lat":"31.219103139","category":"95","category_name":"日本料理","address":"长宁区长宁路890号玫瑰坊B1楼68号商铺"},{"poiid":"B2094757D06FA1FA4799","title":"呷哺呷哺","lon":"121.420631","lat":"31.21858","category":"86","category_name":"火锅店","address":"长宁区长宁路823号巴黎春天3楼7号(定西路口)"},{"poiid":"B2094750D66FA4FD439F","title":"龙之梦","lon":"121.420227","lat":"31.219264","category":"627","category_name":"一般地点标志","address":"长宁路"},{"poiid":"B2094757D06FA6F84093","title":"兆丰别墅","lon":"121.42242","lat":"31.220419","category":"47","category_name":"住宅区","address":"上海长宁路712弄"},{"poiid":"B2094757D068A7F8419C","title":"宫村沙龙(长宁路店)","lon":"121.42009","lat":"31.2187","category":"148","category_name":"美容美发店","address":"长宁区长宁路820号上海小马路C66号(近中山公园)"},{"poiid":"B2094654D565A5FA459E","title":"必胜客中山餐厅","lon":"121.42168","lat":"31.21965","category":"68","category_name":"快餐厅","address":"长宁路770"},{"poiid":"B2094757DB6EA7FA429B","title":"上海巴黎春天新世界酒店","lon":"121.4200971","lat":"31.21867662","category":"260","category_name":"其他","address":"长宁区定西路1555号(近愚园路)"},{"poiid":"B2094757D06FA3FB489A","title":"COCO壱番屋(中山公园店)","lon":"121.4227","lat":"31.21971","category":"95","category_name":"日本料理","address":"长宁区长宁路730号(近定西路)"},{"poiid":"B2094757D06FA6FF4192","title":"萨莉亚(中山公园店)","lon":"121.421981109","lat":"31.2197772971","category":"94","category_name":"西餐厅","address":"长宁区长宁路748号1楼(近定西路)"},{"poiid":"B2094655D269AAF94792","title":"翔鹰栗子中山公园店","lon":"121.42034","lat":"31.22118","category":"68","category_name":"快餐厅","address":"长宁区长宁路770号(中山公园口)"},{"poiid":"B2094655D26EA4FC4299","title":"莉莲蛋挞(中山公园店)","lon":"121.42034","lat":"31.22118","category":"112","category_name":"糕饼店","address":"长宁区地铁二号线中山公园站换乘通道内(近长宁路)"},{"poiid":"B2094654D565A5FA459A","title":"亲子乐园游乐场","lon":"121.42032","lat":"31.22093","category":"195","category_name":"游乐场","address":"长宁路780"},{"poiid":"B2094757D068A3FE4698","title":"星密码沙龙","lon":"121.419045","lat":"31.218979","category":"148","category_name":"美容美发店","address":"长宁区长宁路890号玫瑰坊B1楼(近汇川路)"},{"poiid":"B2094654D565A5FA4493","title":"依东外国原创美术博物馆","lon":"121.42032","lat":"31.22093","category":"182","category_name":"博物馆","address":"长宁路780"},{"poiid":"B2094655D26EA5FC4093","title":"COCO一番屋(中山公园店)","lon":"121.42177","lat":"31.21969","category":"247","category_name":"餐饮美食","address":"长宁区长宁路730号"},{"poiid":"B2094757D069A4FD4193","title":"三商巧福(中山公园店)","lon":"121.421662","lat":"31.219663","category":"68","category_name":"快餐厅","address":"长宁区长宁路770号2楼(近Ashely)"},{"poiid":"B2094752D06FA4F84292","title":"百家味道","lon":"121.419725","lat":"31.220378","category":"247","category_name":"餐饮美食","address":"长宁区宣化路300号华宁宏基生活中心3F"},{"poiid":"B2094757D16CA0FC4798","title":"上海小马路美食街","lon":"121.41935","lat":"31.22212","category":"257","category_name":"中餐厅","address":"长宁区中山公园地铁站内(近长宁路)"},{"poiid":"B2094757D06BA2FF4992","title":"热风(中山公园店)","lon":"121.42061","lat":"31.2209","category":"141","category_name":"服装鞋帽皮具店","address":"长宁区中山公园地铁站出口"},{"poiid":"B2094757D068A2FF449B","title":"老妈米线(长宁巴春店)","lon":"121.42100822","lat":"31.218743696","category":"86","category_name":"火锅店","address":"长宁区长宁路823号巴黎春天3楼(定西路口)"},{"poiid":"B2094655D26DA3FC409D","title":"三泾北宅","lon":"121.42201029997","lat":"31.221542472714","category":"47","category_name":"住宅区","address":"长宁路1135弄"},{"poiid":"B2094757D66EA0FE4698","title":"杯子花园","lon":"121.419638786","lat":"31.2216958641","category":"47","category_name":"住宅区","address":"上海中山公园内"},{"poiid":"B2094757D069A2FA469B","title":"食其家(长宁巴黎春天店)","lon":"121.42109358","lat":"31.218609203","category":"95","category_name":"日本料理","address":"长宁区长宁路823号巴黎春天3楼2号(定西路口)"},{"poiid":"B2094757D068A6FF459C","title":"橙天锅锅香","lon":"121.42085223","lat":"31.218992971","category":"247","category_name":"餐饮美食","address":"上海市长宁区长宁路623号巴黎春天3楼"},{"poiid":"B2094757D16CAAFE479D","title":"京阪章鱼丸子烧","lon":"121.420768586","lat":"31.2196722245","category":"68","category_name":"快餐厅","address":"长宁区长宁路890号玫瑰坊商业街门口(近汇川路)"},{"poiid":"B2094757D568A6F84699","title":"多果手机玩乐站中山公园地铁站店","lon":"121.4203261","lat":"31.22095111","category":"249","category_name":"购物服务","address":"地铁2号线中山公园站2-106商铺"},{"poiid":"B2094655D26DA1F4479B","title":"中山公园(南门)","lon":"121.42086","lat":"31.22017","category":"656","category_name":"大门","address":"长宁路780号"},{"poiid":"B2094757DB6FA5FC489B","title":"诺贝尔宝贝","lon":"121.4213535662995","lat":"31.22075657086519","category":"249","category_name":"购物服务","address":"长宁区愚园路1213号(近安西路)"},{"poiid":"B2094655D26AAAFB4399","title":"小西牛青海老酸奶 中山公园店","lon":"121.42181","lat":"31.21969","category":"113","category_name":"冷饮店","address":"长宁区长宁路770号(近定西路)"},{"poiid":"B2094751D468A5FA459F","title":"地铁二号线江苏路站","lon":"121.423034","lat":"31.22212","category":"500","category_name":"未知分类","address":null},{"poiid":"B2094757D76CA2FC429F","title":"橙天锅锅香 长宁巴春店","lon":"121.419713","lat":"31.218972","category":"68","category_name":"快餐厅","address":"长宁区长宁路823号巴黎春天3楼(定西路口)"},{"poiid":"B2094757D069A2FB469E","title":"萨利亚","lon":"121.42086611","lat":"31.218989833","category":"94","category_name":"西餐厅","address":"上海中山公园店"},{"poiid":"B2094757D16DAAFB4392","title":"老菜舫","lon":"121.420708586","lat":"31.219032312","category":"76","category_name":"上海菜","address":"长宁区长宁路750号2楼(近定西路)"},{"poiid":"B2094654DB6BA6F9479F","title":"中山公园(北二门)","lon":"121.41931","lat":"31.22344","category":"656","category_name":"大门","address":"万航渡路1550"},{"poiid":"B2094655D26CABFF429C","title":"玫瑰坊(南门)","lon":"121.41904","lat":"31.21898","category":"119","category_name":"商场","address":"长宁路890-1"},{"poiid":"B2094654D565A5FA4598","title":"妯娌老鸭粉丝馆中山公园店","lon":"121.42157","lat":"31.21961","category":"247","category_name":"餐饮美食","address":"长宁区长宁路774号(近定西路)"},{"poiid":"B2094757D16BA4FC409F","title":"沈大成 巴黎春天店","lon":"121.420737586","lat":"31.2188002075","category":"68","category_name":"快餐厅","address":"长宁区长宁路823号巴黎春天3楼(定西路口)"},{"poiid":"B2094757DA64A6FE4492","title":"长宁来福士广场","lon":"121.421941","lat":"31.221843","category":"252","category_name":"楼宇机构","address":"长宁区长宁路的中山公园区域内"},{"poiid":"B2094750D768ABFD4998","title":"巴黎春天新世界酒店咖啡厅","lon":"121.421","lat":"31.2188","category":"268","category_name":"自助","address":"长宁区定西路1555号巴黎春天新世界酒店2楼(近愚园路)"},{"poiid":"B2094757D665A3FE419C","title":"C多多 长宁巴春店","lon":"121.419653","lat":"31.218993","category":"113","category_name":"冷饮店","address":"长宁区长宁路823号巴黎春天3楼(近中山公园地铁站)"},{"poiid":"B2094757D169A1FF4992","title":"南京总统府景区","lon":"121.42187943","lat":"31.220643543","category":"500","category_name":"未知分类","address":"江苏省南京市玄武区长江路292号"},{"poiid":"B2094654D565A5FA4492","title":"中山公园","lon":"121.42031","lat":"31.22094","category":"196","category_name":"公园","address":"长宁区长宁路780号(近定西路)"},{"poiid":"B2094750D26EA2F8459E","title":"绿茶餐厅 中山公园店","lon":"121.42073","lat":"31.21882","category":"75","category_name":"浙江菜","address":"长宁区长宁路823号巴黎春天2楼(近地铁2号线中山公园站5号出口)"},{"poiid":"B2094757D06FA3FA4792","title":"巴黎春天(新宁店)","lon":"121.4215261","lat":"31.2193322","category":"119","category_name":"商场","address":"长宁区长宁路823号巴黎春天(定西路口)"},{"poiid":"B2094757D06FA3FA4592","title":"御花园酒店","lon":"121.41965","lat":"31.22256","category":"72","category_name":"广东菜","address":"长宁区长宁路780号中山公园内(近定西路)"},{"poiid":"B2094757D06FA1FF499E","title":"鸟安(汇川路店)","lon":"121.41952","lat":"31.21875","category":"95","category_name":"日本料理","address":"上海长宁区长宁路890号玫瑰坊1楼32(近汇川路)"},{"poiid":"B2094757D06FA5FD449C","title":"竹家庄避风塘(中山公园店)","lon":"121.4215715","lat":"31.2194413","category":"72","category_name":"广东菜","address":"长宁区长宁路772号(定西路口)"},{"poiid":"B2094757D06FA0F8489A","title":"阿拉丁麻辣烫(中山公园店)","lon":"121.41977","lat":"31.21885","category":"68","category_name":"快餐厅","address":"长宁区长宁路890号玫瑰坊B1楼(近汇川路)"},{"poiid":"B2094753D26CA7FE479F","title":"Ashley爱室丽家居（中山公园旗舰店）","lon":"121.42205356005","lat":"31.219201760961","category":"249","category_name":"购物服务","address":"长宁区愚园路1398号"},{"poiid":"B2094757D069A6FD439E","title":"中山公园翻斗乐","lon":"121.421014","lat":"31.219922","category":"196","category_name":"公园","address":"长宁区长宁路780号中山公园内(近定西路)"},{"poiid":"B2094757D06FA5F8479D","title":"宝寿司(玫瑰坊店)","lon":"121.41920848","lat":"31.219103139","category":"95","category_name":"日本料理","address":"长宁区长宁路890号玫瑰坊B1楼68号商铺"},{"poiid":"B2094757D06FA1FA4799","title":"呷哺呷哺","lon":"121.420631","lat":"31.21858","category":"86","category_name":"火锅店","address":"长宁区长宁路823号巴黎春天3楼7号(定西路口)"},{"poiid":"B2094750D66FA4FD439F","title":"龙之梦","lon":"121.420227","lat":"31.219264","category":"627","category_name":"一般地点标志","address":"长宁路"},{"poiid":"B2094757D06FA6F84093","title":"兆丰别墅","lon":"121.42242","lat":"31.220419","category":"47","category_name":"住宅区","address":"上海长宁路712弄"},{"poiid":"B2094757D068A7F8419C","title":"宫村沙龙(长宁路店)","lon":"121.42009","lat":"31.2187","category":"148","category_name":"美容美发店","address":"长宁区长宁路820号上海小马路C66号(近中山公园)"},{"poiid":"B2094654D565A5FA459E","title":"必胜客中山餐厅","lon":"121.42168","lat":"31.21965","category":"68","category_name":"快餐厅","address":"长宁路770"},{"poiid":"B2094757DB6EA7FA429B","title":"上海巴黎春天新世界酒店","lon":"121.4200971","lat":"31.21867662","category":"260","category_name":"其他","address":"长宁区定西路1555号(近愚园路)"},{"poiid":"B2094757D06FA3FB489A","title":"COCO壱番屋(中山公园店)","lon":"121.4227","lat":"31.21971","category":"95","category_name":"日本料理","address":"长宁区长宁路730号(近定西路)"},{"poiid":"B2094757D06FA6FF4192","title":"萨莉亚(中山公园店)","lon":"121.421981109","lat":"31.2197772971","category":"94","category_name":"西餐厅","address":"长宁区长宁路748号1楼(近定西路)"},{"poiid":"B2094655D269AAF94792","title":"翔鹰栗子中山公园店","lon":"121.42034","lat":"31.22118","category":"68","category_name":"快餐厅","address":"长宁区长宁路770号(中山公园口)"},{"poiid":"B2094655D26EA4FC4299","title":"莉莲蛋挞(中山公园店)","lon":"121.42034","lat":"31.22118","category":"112","category_name":"糕饼店","address":"长宁区地铁二号线中山公园站换乘通道内(近长宁路)"},{"poiid":"B2094654D565A5FA459A","title":"亲子乐园游乐场","lon":"121.42032","lat":"31.22093","category":"195","category_name":"游乐场","address":"长宁路780"},{"poiid":"B2094757D068A3FE4698","title":"星密码沙龙","lon":"121.419045","lat":"31.218979","category":"148","category_name":"美容美发店","address":"长宁区长宁路890号玫瑰坊B1楼(近汇川路)"},{"poiid":"B2094654D565A5FA4493","title":"依东外国原创美术博物馆","lon":"121.42032","lat":"31.22093","category":"182","category_name":"博物馆","address":"长宁路780"},{"poiid":"B2094655D26EA5FC4093","title":"COCO一番屋(中山公园店)","lon":"121.42177","lat":"31.21969","category":"247","category_name":"餐饮美食","address":"长宁区长宁路730号"},{"poiid":"B2094757D069A4FD4193","title":"三商巧福(中山公园店)","lon":"121.421662","lat":"31.219663","category":"68","category_name":"快餐厅","address":"长宁区长宁路770号2楼(近Ashely)"},{"poiid":"B2094752D06FA4F84292","title":"百家味道","lon":"121.419725","lat":"31.220378","category":"247","category_name":"餐饮美食","address":"长宁区宣化路300号华宁宏基生活中心3F"},{"poiid":"B2094757D16CA0FC4798","title":"上海小马路美食街","lon":"121.41935","lat":"31.22212","category":"257","category_name":"中餐厅","address":"长宁区中山公园地铁站内(近长宁路)"},{"poiid":"B2094757D06BA2FF4992","title":"热风(中山公园店)","lon":"121.42061","lat":"31.2209","category":"141","category_name":"服装鞋帽皮具店","address":"长宁区中山公园地铁站出口"},{"poiid":"B2094757D068A2FF449B","title":"老妈米线(长宁巴春店)","lon":"121.42100822","lat":"31.218743696","category":"86","category_name":"火锅店","address":"长宁区长宁路823号巴黎春天3楼(定西路口)"},{"poiid":"B2094655D26DA3FC409D","title":"三泾北宅","lon":"121.42201029997","lat":"31.221542472714","category":"47","category_name":"住宅区","address":"长宁路1135弄"},{"poiid":"B2094757D66EA0FE4698","title":"杯子花园","lon":"121.419638786","lat":"31.2216958641","category":"47","category_name":"住宅区","address":"上海中山公园内"},{"poiid":"B2094757D069A2FA469B","title":"食其家(长宁巴黎春天店)","lon":"121.42109358","lat":"31.218609203","category":"95","category_name":"日本料理","address":"长宁区长宁路823号巴黎春天3楼2号(定西路口)"},{"poiid":"B2094757D068A6FF459C","title":"橙天锅锅香","lon":"121.42085223","lat":"31.218992971","category":"247","category_name":"餐饮美食","address":"上海市长宁区长宁路623号巴黎春天3楼"},{"poiid":"B2094757D16CAAFE479D","title":"京阪章鱼丸子烧","lon":"121.420768586","lat":"31.2196722245","category":"68","category_name":"快餐厅","address":"长宁区长宁路890号玫瑰坊商业街门口(近汇川路)"},{"poiid":"B2094757D568A6F84699","title":"多果手机玩乐站中山公园地铁站店","lon":"121.4203261","lat":"31.22095111","category":"249","category_name":"购物服务","address":"地铁2号线中山公园站2-106商铺"},{"poiid":"B2094655D26DA1F4479B","title":"中山公园(南门)","lon":"121.42086","lat":"31.22017","category":"656","category_name":"大门","address":"长宁路780号"},{"poiid":"B2094757DB6FA5FC489B","title":"诺贝尔宝贝","lon":"121.4213535662995","lat":"31.22075657086519","category":"249","category_name":"购物服务","address":"长宁区愚园路1213号(近安西路)"},{"poiid":"B2094655D26AAAFB4399","title":"小西牛青海老酸奶 中山公园店","lon":"121.42181","lat":"31.21969","category":"113","category_name":"冷饮店","address":"长宁区长宁路770号(近定西路)"},{"poiid":"B2094751D468A5FA459F","title":"地铁二号线江苏路站","lon":"121.423034","lat":"31.22212","category":"500","category_name":"未知分类","address":null},{"poiid":"B2094757D76CA2FC429F","title":"橙天锅锅香 长宁巴春店","lon":"121.419713","lat":"31.218972","category":"68","category_name":"快餐厅","address":"长宁区长宁路823号巴黎春天3楼(定西路口)"},{"poiid":"B2094757D069A2FB469E","title":"萨利亚","lon":"121.42086611","lat":"31.218989833","category":"94","category_name":"西餐厅","address":"上海中山公园店"},{"poiid":"B2094757D16DAAFB4392","title":"老菜舫","lon":"121.420708586","lat":"31.219032312","category":"76","category_name":"上海菜","address":"长宁区长宁路750号2楼(近定西路)"},{"poiid":"B2094654DB6BA6F9479F","title":"中山公园(北二门)","lon":"121.41931","lat":"31.22344","category":"656","category_name":"大门","address":"万航渡路1550"},{"poiid":"B2094655D26CABFF429C","title":"玫瑰坊(南门)","lon":"121.41904","lat":"31.21898","category":"119","category_name":"商场","address":"长宁路890-1"},{"poiid":"B2094654D565A5FA4598","title":"妯娌老鸭粉丝馆中山公园店","lon":"121.42157","lat":"31.21961","category":"247","category_name":"餐饮美食","address":"长宁区长宁路774号(近定西路)"},{"poiid":"B2094757D16BA4FC409F","title":"沈大成 巴黎春天店","lon":"121.420737586","lat":"31.2188002075","category":"68","category_name":"快餐厅","address":"长宁区长宁路823号巴黎春天3楼(定西路口)"},{"poiid":"B2094757DA64A6FE4492","title":"长宁来福士广场","lon":"121.421941","lat":"31.221843","category":"252","category_name":"楼宇机构","address":"长宁区长宁路的中山公园区域内"},{"poiid":"B2094750D768ABFD4998","title":"巴黎春天新世界酒店咖啡厅","lon":"121.421","lat":"31.2188","category":"268","category_name":"自助","address":"长宁区定西路1555号巴黎春天新世界酒店2楼(近愚园路)"},{"poiid":"B2094757D665A3FE419C","title":"C多多 长宁巴春店","lon":"121.419653","lat":"31.218993","category":"113","category_name":"冷饮店","address":"长宁区长宁路823号巴黎春天3楼(近中山公园地铁站)"},{"poiid":"B2094757D169A1FF4992","title":"南京总统府景区","lon":"121.42187943","lat":"31.220643543","category":"500","category_name":"未知分类","address":"江苏省南京市玄武区长江路292号"},{"poiid":"B2094654D565A5FA4492","title":"中山公园","lon":"121.42031","lat":"31.22094","category":"196","category_name":"公园","address":"长宁区长宁路780号(近定西路)"},{"poiid":"B2094750D26EA2F8459E","title":"绿茶餐厅 中山公园店","lon":"121.42073","lat":"31.21882","category":"75","category_name":"浙江菜","address":"长宁区长宁路823号巴黎春天2楼(近地铁2号线中山公园站5号出口)"},{"poiid":"B2094757D06FA3FA4792","title":"巴黎春天(新宁店)","lon":"121.4215261","lat":"31.2193322","category":"119","category_name":"商场","address":"长宁区长宁路823号巴黎春天(定西路口)"},{"poiid":"B2094757D06FA3FA4592","title":"御花园酒店","lon":"121.41965","lat":"31.22256","category":"72","category_name":"广东菜","address":"长宁区长宁路780号中山公园内(近定西路)"},{"poiid":"B2094757D06FA1FF499E","title":"鸟安(汇川路店)","lon":"121.41952","lat":"31.21875","category":"95","category_name":"日本料理","address":"上海长宁区长宁路890号玫瑰坊1楼32(近汇川路)"},{"poiid":"B2094757D06FA5FD449C","title":"竹家庄避风塘(中山公园店)","lon":"121.4215715","lat":"31.2194413","category":"72","category_name":"广东菜","address":"长宁区长宁路772号(定西路口)"},{"poiid":"B2094757D06FA0F8489A","title":"阿拉丁麻辣烫(中山公园店)","lon":"121.41977","lat":"31.21885","category":"68","category_name":"快餐厅","address":"长宁区长宁路890号玫瑰坊B1楼(近汇川路)"},{"poiid":"B2094753D26CA7FE479F","title":"Ashley爱室丽家居（中山公园旗舰店）","lon":"121.42205356005","lat":"31.219201760961","category":"249","category_name":"购物服务","address":"长宁区愚园路1398号"},{"poiid":"B2094757D069A6FD439E","title":"中山公园翻斗乐","lon":"121.421014","lat":"31.219922","category":"196","category_name":"公园","address":"长宁区长宁路780号中山公园内(近定西路)"},{"poiid":"B2094757D06FA5F8479D","title":"宝寿司(玫瑰坊店)","lon":"121.41920848","lat":"31.219103139","category":"95","category_name":"日本料理","address":"长宁区长宁路890号玫瑰坊B1楼68号商铺"},{"poiid":"B2094757D06FA1FA4799","title":"呷哺呷哺","lon":"121.420631","lat":"31.21858","category":"86","category_name":"火锅店","address":"长宁区长宁路823号巴黎春天3楼7号(定西路口)"},{"poiid":"B2094750D66FA4FD439F","title":"龙之梦","lon":"121.420227","lat":"31.219264","category":"627","category_name":"一般地点标志","address":"长宁路"},{"poiid":"B2094757D06FA6F84093","title":"兆丰别墅","lon":"121.42242","lat":"31.220419","category":"47","category_name":"住宅区","address":"上海长宁路712弄"},{"poiid":"B2094757D068A7F8419C","title":"宫村沙龙(长宁路店)","lon":"121.42009","lat":"31.2187","category":"148","category_name":"美容美发店","address":"长宁区长宁路820号上海小马路C66号(近中山公园)"},{"poiid":"B2094654D565A5FA459E","title":"必胜客中山餐厅","lon":"121.42168","lat":"31.21965","category":"68","category_name":"快餐厅","address":"长宁路770"},{"poiid":"B2094757DB6EA7FA429B","title":"上海巴黎春天新世界酒店","lon":"121.4200971","lat":"31.21867662","category":"260","category_name":"其他","address":"长宁区定西路1555号(近愚园路)"},{"poiid":"B2094757D06FA3FB489A","title":"COCO壱番屋(中山公园店)","lon":"121.4227","lat":"31.21971","category":"95","category_name":"日本料理","address":"长宁区长宁路730号(近定西路)"},{"poiid":"B2094757D06FA6FF4192","title":"萨莉亚(中山公园店)","lon":"121.421981109","lat":"31.2197772971","category":"94","category_name":"西餐厅","address":"长宁区长宁路748号1楼(近定西路)"},{"poiid":"B2094655D269AAF94792","title":"翔鹰栗子中山公园店","lon":"121.42034","lat":"31.22118","category":"68","category_name":"快餐厅","address":"长宁区长宁路770号(中山公园口)"},{"poiid":"B2094655D26EA4FC4299","title":"莉莲蛋挞(中山公园店)","lon":"121.42034","lat":"31.22118","category":"112","category_name":"糕饼店","address":"长宁区地铁二号线中山公园站换乘通道内(近长宁路)"},{"poiid":"B2094654D565A5FA459A","title":"亲子乐园游乐场","lon":"121.42032","lat":"31.22093","category":"195","category_name":"游乐场","address":"长宁路780"},{"poiid":"B2094757D068A3FE4698","title":"星密码沙龙","lon":"121.419045","lat":"31.218979","category":"148","category_name":"美容美发店","address":"长宁区长宁路890号玫瑰坊B1楼(近汇川路)"},{"poiid":"B2094654D565A5FA4493","title":"依东外国原创美术博物馆","lon":"121.42032","lat":"31.22093","category":"182","category_name":"博物馆","address":"长宁路780"},{"poiid":"B2094655D26EA5FC4093","title":"COCO一番屋(中山公园店)","lon":"121.42177","lat":"31.21969","category":"247","category_name":"餐饮美食","address":"长宁区长宁路730号"},{"poiid":"B2094757D069A4FD4193","title":"三商巧福(中山公园店)","lon":"121.421662","lat":"31.219663","category":"68","category_name":"快餐厅","address":"长宁区长宁路770号2楼(近Ashely)"},{"poiid":"B2094752D06FA4F84292","title":"百家味道","lon":"121.419725","lat":"31.220378","category":"247","category_name":"餐饮美食","address":"长宁区宣化路300号华宁宏基生活中心3F"},{"poiid":"B2094757D16CA0FC4798","title":"上海小马路美食街","lon":"121.41935","lat":"31.22212","category":"257","category_name":"中餐厅","address":"长宁区中山公园地铁站内(近长宁路)"},{"poiid":"B2094757D06BA2FF4992","title":"热风(中山公园店)","lon":"121.42061","lat":"31.2209","category":"141","category_name":"服装鞋帽皮具店","address":"长宁区中山公园地铁站出口"},{"poiid":"B2094757D068A2FF449B","title":"老妈米线(长宁巴春店)","lon":"121.42100822","lat":"31.218743696","category":"86","category_name":"火锅店","address":"长宁区长宁路823号巴黎春天3楼(定西路口)"},{"poiid":"B2094655D26DA3FC409D","title":"三泾北宅","lon":"121.42201029997","lat":"31.221542472714","category":"47","category_name":"住宅区","address":"长宁路1135弄"},{"poiid":"B2094757D66EA0FE4698","title":"杯子花园","lon":"121.419638786","lat":"31.2216958641","category":"47","category_name":"住宅区","address":"上海中山公园内"},{"poiid":"B2094757D069A2FA469B","title":"食其家(长宁巴黎春天店)","lon":"121.42109358","lat":"31.218609203","category":"95","category_name":"日本料理","address":"长宁区长宁路823号巴黎春天3楼2号(定西路口)"},{"poiid":"B2094757D068A6FF459C","title":"橙天锅锅香","lon":"121.42085223","lat":"31.218992971","category":"247","category_name":"餐饮美食","address":"上海市长宁区长宁路623号巴黎春天3楼"},{"poiid":"B2094757D16CAAFE479D","title":"京阪章鱼丸子烧","lon":"121.420768586","lat":"31.2196722245","category":"68","category_name":"快餐厅","address":"长宁区长宁路890号玫瑰坊商业街门口(近汇川路)"},{"poiid":"B2094757D568A6F84699","title":"多果手机玩乐站中山公园地铁站店","lon":"121.4203261","lat":"31.22095111","category":"249","category_name":"购物服务","address":"地铁2号线中山公园站2-106商铺"},{"poiid":"B2094655D26DA1F4479B","title":"中山公园(南门)","lon":"121.42086","lat":"31.22017","category":"656","category_name":"大门","address":"长宁路780号"},{"poiid":"B2094757DB6FA5FC489B","title":"诺贝尔宝贝","lon":"121.4213535662995","lat":"31.22075657086519","category":"249","category_name":"购物服务","address":"长宁区愚园路1213号(近安西路)"},{"poiid":"B2094655D26AAAFB4399","title":"小西牛青海老酸奶 中山公园店","lon":"121.42181","lat":"31.21969","category":"113","category_name":"冷饮店","address":"长宁区长宁路770号(近定西路)"},{"poiid":"B2094751D468A5FA459F","title":"地铁二号线江苏路站","lon":"121.423034","lat":"31.22212","category":"500","category_name":"未知分类","address":null},{"poiid":"B2094757D76CA2FC429F","title":"橙天锅锅香 长宁巴春店","lon":"121.419713","lat":"31.218972","category":"68","category_name":"快餐厅","address":"长宁区长宁路823号巴黎春天3楼(定西路口)"},{"poiid":"B2094757D069A2FB469E","title":"萨利亚","lon":"121.42086611","lat":"31.218989833","category":"94","category_name":"西餐厅","address":"上海中山公园店"},{"poiid":"B2094757D16DAAFB4392","title":"老菜舫","lon":"121.420708586","lat":"31.219032312","category":"76","category_name":"上海菜","address":"长宁区长宁路750号2楼(近定西路)"},{"poiid":"B2094654DB6BA6F9479F","title":"中山公园(北二门)","lon":"121.41931","lat":"31.22344","category":"656","category_name":"大门","address":"万航渡路1550"},{"poiid":"B2094655D26CABFF429C","title":"玫瑰坊(南门)","lon":"121.41904","lat":"31.21898","category":"119","category_name":"商场","address":"长宁路890-1"},{"poiid":"B2094654D565A5FA4598","title":"妯娌老鸭粉丝馆中山公园店","lon":"121.42157","lat":"31.21961","category":"247","category_name":"餐饮美食","address":"长宁区长宁路774号(近定西路)"},{"poiid":"B2094757D16BA4FC409F","title":"沈大成 巴黎春天店","lon":"121.420737586","lat":"31.2188002075","category":"68","category_name":"快餐厅","address":"长宁区长宁路823号巴黎春天3楼(定西路口)"},{"poiid":"B2094757DA64A6FE4492","title":"长宁来福士广场","lon":"121.421941","lat":"31.221843","category":"252","category_name":"楼宇机构","address":"长宁区长宁路的中山公园区域内"},{"poiid":"B2094750D768ABFD4998","title":"巴黎春天新世界酒店咖啡厅","lon":"121.421","lat":"31.2188","category":"268","category_name":"自助","address":"长宁区定西路1555号巴黎春天新世界酒店2楼(近愚园路)"},{"poiid":"B2094757D665A3FE419C","title":"C多多 长宁巴春店","lon":"121.419653","lat":"31.218993","category":"113","category_name":"冷饮店","address":"长宁区长宁路823号巴黎春天3楼(近中山公园地铁站)"},{"poiid":"B2094757D169A1FF4992","title":"南京总统府景区","lon":"121.42187943","lat":"31.220643543","category":"500","category_name":"未知分类","address":"江苏省南京市玄武区长江路292号"}]