[{"poiid":"B2094655D36DA7F84693","title":"中山南二路宛平南路","lon":"121.44991","lat":"31.18488","category":"38","category_name":"公交车站","address":""},{"poiid":"B2094757D068A5FF4599","title":"东安公园","lon":"121.454267372","lat":"31.1850510404","category":"196","category_name":"公园","address":"徐汇区中山南二路811号(龙华西路)"},{"poiid":"B2094655D36CA1FE4393","title":"双峰路中山南二路","lon":"121.44847","lat":"31.18264","category":"38","category_name":"公交车站","address":""},{"poiid":"B2094757D568A6F5479B","title":"上海市宛平艺苑","lon":"121.451514","lat":"31.185034","category":"178","category_name":"电影院","address":"中山南二路859号"},{"poiid":"B2094757D069A5FD489C","title":"光头烧烤","lon":"121.45085","lat":"31.18479","category":"68","category_name":"快餐厅","address":"徐汇区宛平南路808号(近中山南二路)"},{"poiid":"B2094757D06FAAF54499","title":"JEANS日韩店(京世龙华店)","lon":"121.452429","lat":"31.183131","category":"148","category_name":"美容美发店","address":"上海徐汇区宛平南路941号(近龙华西路)"},{"poiid":"B209475CD16DAAFC449D","title":"小辉哥火锅 正大乐城店","lon":"121.4529021","lat":"31.1861009","category":"86","category_name":"火锅店","address":"中山南二路669号2栋304-305正大乐城"},{"poiid":"B2094654DB64A5F54198","title":"苏州福东鑫","lon":"121.450175054","lat":"31.186587793","category":"68","category_name":"快餐厅","address":"徐汇区宛平南路735号(近中山南二路)"},{"poiid":"B2094654DA6DA7F9429E","title":"上海市徐汇区东二小学","lon":"121.45093","lat":"31.18307","category":"56","category_name":"小学","address":"徐汇区宛平南路908弄2号(近中山南二路)"},{"poiid":"B2094757D064A7F54293","title":"夏朵精品烘培","lon":"121.45131266","lat":"31.186186702","category":"67","category_name":"甜品店","address":"上海徐汇区天钥桥路214号哈尼美食广场3楼夏朵内(近南丹东路)"},{"poiid":"B2094757D16FA0FB409E","title":"湖滨人家","lon":"121.45091","lat":"31.18471","category":"257","category_name":"中餐厅","address":"徐汇区宛平南路810号(近中山南二路)"},{"poiid":"B2094654DA6DA7F94299","title":"金桥信息大楼","lon":"121.45175","lat":"31.18338","category":"46","category_name":"楼宇","address":"宛平南路902"},{"poiid":"B2094757D068A0FB4492","title":"东安五村","lon":"121.45214709","lat":"31.184289321","category":"252","category_name":"楼宇机构","address":"上海市宛平南路909弄"},{"poiid":"B2094654DA6DA4F84092","title":"好德便利No.3078","lon":"121.4523","lat":"31.18317","category":"117","category_name":"便民商店/便利店","address":"宛平南路933"},{"poiid":"B2094757D16CA0F8499C","title":"933路公交车宛平南路龙华路站","lon":"121.45252","lat":"31.182976","category":"38","category_name":"公交车站","address":"上海宛平南路951号近龙华路"},{"poiid":"B2094655D268A1F4419F","title":"上海中医药大学学生公寓","lon":"121.44953","lat":"31.18661","category":"47","category_name":"住宅区","address":""},{"poiid":"B2094654DB6AA7F5469D","title":"东安二村小学","lon":"121.4516","lat":"31.18367","category":"56","category_name":"小学","address":"徐汇区宛平南路900号"},{"poiid":"B2094757D569A1FC4799","title":"中国电信(宛平南路营业厅)","lon":"121.45273899","lat":"31.18270128","category":"151","category_name":"电讯营业厅","address":"宛平南路963"},{"poiid":"B2094757D66EABFB4698","title":"世茂滨江苑","lon":"121.45263581","lat":"31.183689521","category":"47","category_name":"住宅区","address":"上海潍坊西路1弄"},{"poiid":"B2094654DA6DA4F8419B","title":"徐汇临江豪园(西门)","lon":"121.45207","lat":"31.18353","category":"48","category_name":"楼宇大门","address":""},{"poiid":"B2094757D06BABFF479B","title":"小阁楼酒家","lon":"121.4504","lat":"31.18523","category":"76","category_name":"上海菜","address":"徐汇区宛平南路750号(近中山南二路)"},{"poiid":"B2094757D065A4FB499B","title":"吴越人家","lon":"121.45047","lat":"31.18522","category":"76","category_name":"上海菜","address":"徐汇区宛平南路740号(近中山南二路)"},{"poiid":"B2094654DA6DA7F9419D","title":"宛南一村","lon":"121.45103","lat":"31.183723","category":"47","category_name":"住宅区","address":"宛平南路850号"},{"poiid":"B2094750D26AA4FA469B","title":"人道素食","lon":"121.450233","lat":"31.183059","category":"247","category_name":"餐饮美食","address":"龙华路2787号"},{"poiid":"B2094655D26AA1F9429F","title":"星星美容美发店","lon":"121.45157","lat":"31.18425","category":"247","category_name":"餐饮美食","address":"宛平南路909号(近中山南二路)"},{"poiid":"B2094655D264A2FF479B","title":"吉象小区(东门)","lon":"121.45229","lat":"31.1826","category":"47","category_name":"住宅区","address":"宛平南路968弄2-12号"},{"poiid":"B2094655D268A5FE4093","title":"物华公寓(东门)","lon":"121.45224","lat":"31.18264","category":"47","category_name":"住宅区","address":""},{"poiid":"B2094757D568AAF5429E","title":"迷尔角鞋业","lon":"121.4525415","lat":"31.18301921","category":"141","category_name":"服装鞋帽皮具店","address":"徐汇区宛平南路947号(近龙华路)"},{"poiid":"B2094757D569A2F8469B","title":"象王洗得好(宛平南路)","lon":"121.4523763","lat":"31.18330783","category":"610","category_name":"干洗店","address":"宛平南路929"},{"poiid":"B2094654DA6DA7F84892","title":"宛南小区","lon":"121.44946","lat":"31.183348","category":"47","category_name":"住宅区","address":"中山南二路925弄"},{"poiid":"B2094757D569A0F94898","title":"冰冰便当(宛平南路店)","lon":"121.450831","lat":"31.18478","category":"68","category_name":"快餐厅","address":"徐汇区宛平南路801号"},{"poiid":"B2094654DA6DA7FF429E","title":"中煌大厦","lon":"121.452345","lat":"31.187456","category":"46","category_name":"楼宇","address":"沈河北站路与北京街的交汇处"},{"poiid":"B2094655D264A1FD419B","title":"吉象小区","lon":"121.45192","lat":"31.18237","category":"47","category_name":"住宅区","address":"宛平南路968弄2-12号"},{"poiid":"B2094655D265ABFE4392","title":"倚卿酒家","lon":"121.450018054","lat":"31.180057793","category":"76","category_name":"上海菜","address":"徐汇区华容路65号(近龙华路)"},{"poiid":"B2094655D26CA7F4409E","title":"宛南一村(8号门)","lon":"121.45127","lat":"31.18415","category":"47","category_name":"住宅区","address":""},{"poiid":"B2094654DB6BA5FA449D","title":"良友(宛平南路)","lon":"121.45114","lat":"31.18435","category":"117","category_name":"便民商店/便利店","address":"宛平南路842"},{"poiid":"B2094757D66EA0FE409C","title":"龙山幼儿园二分院","lon":"121.45255358","lat":"31.184275532","category":"500","category_name":"未知分类","address":"徐汇区中山南二路999弄5号"},{"poiid":"B2094757D06AA3FC4793","title":"华富大厦","lon":"121.448","lat":"31.1834","category":"252","category_name":"楼宇机构","address":"北一环与亳州路交叉口(庐阳区政府对面)"},{"poiid":"B2094655D268A7F8469D","title":"解龙小区","lon":"121.45396","lat":"31.183895","category":"47","category_name":"住宅区","address":"龙华路1881弄1-12号"},{"poiid":"B2094655D26FA6FF409A","title":"东安四村","lon":"121.45087","lat":"31.186504","category":"47","category_name":"住宅区","address":"宛平南路727号"},{"poiid":"B2094757D16EA3F4409A","title":"物华公寓","lon":"121.45184","lat":"31.182695","category":"252","category_name":"楼宇机构","address":"上海徐汇区宛平南路968弄"},{"poiid":"B2094654DA6DA4FF4993","title":"光明乳业中山配送站","lon":"121.45408","lat":"31.18326","category":"117","category_name":"便民商店/便利店","address":""},{"poiid":"B2094757D568ABFC419B","title":"柯达照相馆(宛平南路)","lon":"121.452369","lat":"31.18249702","category":"611","category_name":"照相馆","address":"宛平南路970-4"},{"poiid":"B2094757D16FA5FF4892","title":"联华快客便利(宛南店)","lon":"121.45112","lat":"31.18452","category":"117","category_name":"便民商店/便利店","address":"徐汇区宛平南路802号"},{"poiid":"B2094655D265AAFE459F","title":"徐汇苑三期","lon":"121.450257","lat":"31.182808","category":"47","category_name":"住宅区","address":"天钥桥路968号"},{"poiid":"B2094757D065A5F44393","title":"枫林路街道办事处","lon":"121.451122","lat":"31.18505","category":"500","category_name":"未知分类","address":"上海中山南二路857号"},{"poiid":"B2094655D268A5FE4099","title":"宛南华侨新邨(北门)","lon":"121.4505","lat":"31.18252","category":"47","category_name":"住宅区","address":""},{"poiid":"B2094655D26EA4F94893","title":"克莉丝汀饼屋(宛平南路店)","lon":"121.45087","lat":"31.18561","category":"112","category_name":"糕饼店","address":"徐汇区宛平南路759号-1(近龙华路)"},{"poiid":"B2094752D46AA7FA4092","title":"MoMo牧场","lon":"121.449615","lat":"31.182404","category":"500","category_name":"未知分类","address":null},{"poiid":"B2094655D265A1F44099","title":"东航小区(东门)","lon":"121.4523","lat":"31.18134","category":"47","category_name":"住宅区","address":"龙华路2381弄1-27号"},{"poiid":"B2094655D36DA7F84693","title":"中山南二路宛平南路","lon":"121.44991","lat":"31.18488","category":"38","category_name":"公交车站","address":""},{"poiid":"B2094757D068A5FF4599","title":"东安公园","lon":"121.454267372","lat":"31.1850510404","category":"196","category_name":"公园","address":"徐汇区中山南二路811号(龙华西路)"},{"poiid":"B2094655D36CA1FE4393","title":"双峰路中山南二路","lon":"121.44847","lat":"31.18264","category":"38","category_name":"公交车站","address":""},{"poiid":"B2094757D568A6F5479B","title":"上海市宛平艺苑","lon":"121.451514","lat":"31.185034","category":"178","category_name":"电影院","address":"中山南二路859号"},{"poiid":"B2094757D069A5FD489C","title":"光头烧烤","lon":"121.45085","lat":"31.18479","category":"68","category_name":"快餐厅","address":"徐汇区宛平南路808号(近中山南二路)"},{"poiid":"B2094757D06FAAF54499","title":"JEANS日韩店(京世龙华店)","lon":"121.452429","lat":"31.183131","category":"148","category_name":"美容美发店","address":"上海徐汇区宛平南路941号(近龙华西路)"},{"poiid":"B209475CD16DAAFC449D","title":"小辉哥火锅 正大乐城店","lon":"121.4529021","lat":"31.1861009","category":"86","category_name":"火锅店","address":"中山南二路669号2栋304-305正大乐城"},{"poiid":"B2094654DB64A5F54198","title":"苏州福东鑫","lon":"121.450175054","lat":"31.186587793","category":"68","category_name":"快餐厅","address":"徐汇区宛平南路735号(近中山南二路)"},{"poiid":"B2094654DA6DA7F9429E","title":"上海市徐汇区东二小学","lon":"121.45093","lat":"31.18307","category":"56","category_name":"小学","address":"徐汇区宛平南路908弄2号(近中山南二路)"},{"poiid":"B2094757D064A7F54293","title":"夏朵精品烘培","lon":"121.45131266","lat":"31.186186702","category":"67","category_name":"甜品店","address":"上海徐汇区天钥桥路214号哈尼美食广场3楼夏朵内(近南丹东路)"},{"poiid":"B2094757D16FA0FB409E","title":"湖滨人家","lon":"121.45091","lat":"31.18471","category":"257","category_name":"中餐厅","address":"徐汇区宛平南路810号(近中山南二路)"},{"poiid":"B2094654DA6DA7F94299","title":"金桥信息大楼","lon":"121.45175","lat":"31.18338","category":"46","category_name":"楼宇","address":"宛平南路902"},{"poiid":"B2094757D068A0FB4492","title":"东安五村","lon":"121.45214709","lat":"31.184289321","category":"252","category_name":"楼宇机构","address":"上海市宛平南路909弄"},{"poiid":"B2094654DA6DA4F84092","title":"好德便利No.3078","lon":"121.4523","lat":"31.18317","category":"117","category_name":"便民商店/便利店","address":"宛平南路933"},{"poiid":"B2094757D16CA0F8499C","title":"933路公交车宛平南路龙华路站","lon":"121.45252","lat":"31.182976","category":"38","category_name":"公交车站","address":"上海宛平南路951号近龙华路"},{"poiid":"B2094655D268A1F4419F","title":"上海中医药大学学生公寓","lon":"121.44953","lat":"31.18661","category":"47","category_name":"住宅区","address":""},{"poiid":"B2094654DB6AA7F5469D","title":"东安二村小学","lon":"121.4516","lat":"31.18367","category":"56","category_name":"小学","address":"徐汇区宛平南路900号"},{"poiid":"B2094757D569A1FC4799","title":"中国电信(宛平南路营业厅)","lon":"121.45273899","lat":"31.18270128","category":"151","category_name":"电讯营业厅","address":"宛平南路963"},{"poiid":"B2094757D66EABFB4698","title":"世茂滨江苑","lon":"121.45263581","lat":"31.183689521","category":"47","category_name":"住宅区","address":"上海潍坊西路1弄"},{"poiid":"B2094654DA6DA4F8419B","title":"徐汇临江豪园(西门)","lon":"121.45207","lat":"31.18353","category":"48","category_name":"楼宇大门","address":""},{"poiid":"B2094757D06BABFF479B","title":"小阁楼酒家","lon":"121.4504","lat":"31.18523","category":"76","category_name":"上海菜","address":"徐汇区宛平南路750号(近中山南二路)"},{"poiid":"B2094757D065A4FB499B","title":"吴越人家","lon":"121.45047","lat":"31.18522","category":"76","category_name":"上海菜","address":"徐汇区宛平南路740号(近中山南二路)"},{"poiid":"B2094654DA6DA7F9419D","title":"宛南一村","lon":"121.45103","lat":"31.183723","category":"47","category_name":"住宅区","address":"宛平南路850号"},{"poiid":"B2094750D26AA4FA469B","title":"人道素食","lon":"121.450233","lat":"31.183059","category":"247","category_name":"餐饮美食","address":"龙华路2787号"},{"poiid":"B2094655D26AA1F9429F","title":"星星美容美发店","lon":"121.45157","lat":"31.18425","category":"247","category_name":"餐饮美食","address":"宛平南路909号(近中山南二路)"},{"poiid":"B2094655D264A2FF479B","title":"吉象小区(东门)","lon":"121.45229","lat":"31.1826","category":"47","category_name":"住宅区","address":"宛平南路968弄2-12号"},{"poiid":"B2094655D268A5FE4093","title":"物华公寓(东门)","lon":"121.45224","lat":"31.18264","category":"47","category_name":"住宅区","address":""},{"poiid":"B2094757D568AAF5429E","title":"迷尔角鞋业","lon":"121.4525415","lat":"31.18301921","category":"141","category_name":"服装鞋帽皮具店","address":"徐汇区宛平南路947号(近龙华路)"},{"poiid":"B2094757D569A2F8469B","title":"象王洗得好(宛平南路)","lon":"121.4523763","lat":"31.18330783","category":"610","category_name":"干洗店","address":"宛平南路929"},{"poiid":"B2094654DA6DA7F84892","title":"宛南小区","lon":"121.44946","lat":"31.183348","category":"47","category_name":"住宅区","address":"中山南二路925弄"},{"poiid":"B2094757D569A0F94898","title":"冰冰便当(宛平南路店)","lon":"121.450831","lat":"31.18478","category":"68","category_name":"快餐厅","address":"徐汇区宛平南路801号"},{"poiid":"B2094654DA6DA7FF429E","title":"中煌大厦","lon":"121.452345","lat":"31.187456","category":"46","category_name":"楼宇","address":"沈河北站路与北京街的交汇处"},{"poiid":"B2094655D264A1FD419B","title":"吉象小区","lon":"121.45192","lat":"31.18237","category":"47","category_name":"住宅区","address":"宛平南路968弄2-12号"},{"poiid":"B2094655D265ABFE4392","title":"倚卿酒家","lon":"121.450018054","lat":"31.180057793","category":"76","category_name":"上海菜","address":"徐汇区华容路65号(近龙华路)"},{"poiid":"B2094655D26CA7F4409E","title":"宛南一村(8号门)","lon":"121.45127","lat":"31.18415","category":"47","category_name":"住宅区","address":""},{"poiid":"B2094654DB6BA5FA449D","title":"良友(宛平南路)","lon":"121.45114","lat":"31.18435","category":"117","category_name":"便民商店/便利店","address":"宛平南路842"},{"poiid":"B2094757D66EA0FE409C","title":"龙山幼儿园二分院","lon":"121.45255358","lat":"31.184275532","category":"500","category_name":"未知分类","address":"徐汇区中山南二路999弄5号"},{"poiid":"B2094757D06AA3FC4793","title":"华富大厦","lon":"121.448","lat":"31.1834","category":"252","category_name":"楼宇机构","address":"北一环与亳州路交叉口(庐阳区政府对面)"},{"poiid":"B2094655D268A7F8469D","title":"解龙小区","lon":"121.45396","lat":"31.183895","category":"47","category_name":"住宅区","address":"龙华路1881弄1-12号"},{"poiid":"B2094655D26FA6FF409A","title":"东安四村","lon":"121.45087","lat":"31.186504","category":"47","category_name":"住宅区","address":"宛平南路727号"},{"poiid":"B2094757D16EA3F4409A","title":"物华公寓","lon":"121.45184","lat":"31.182695","category":"252","category_name":"楼宇机构","address":"上海徐汇区宛平南路968弄"},{"poiid":"B2094654DA6DA4FF4993","title":"光明乳业中山配送站","lon":"121.45408","lat":"31.18326","category":"117","category_name":"便民商店/便利店","address":""},{"poiid":"B2094757D568ABFC419B","title":"柯达照相馆(宛平南路)","lon":"121.452369","lat":"31.18249702","category":"611","category_name":"照相馆","address":"宛平南路970-4"},{"poiid":"B2094757D16FA5FF4892","title":"联华快客便利(宛南店)","lon":"121.45112","lat":"31.18452","category":"117","category_name":"便民商店/便利店","address":"徐汇区宛平南路802号"},{"poiid":"B2094655D265AAFE459F","title":"徐汇苑三期","lon":"121.450257","lat":"31.182808","category":"47","category_name":"住宅区","address":"天钥桥路968号"},{"poiid":"B2094757D065A5F44393","title":"枫林路街道办事处","lon":"121.451122","lat":"31.18505","category":"500","category_name":"未知分类","address":"上海中山南二路857号"},{"poiid":"B2094655D268A5FE4099","title":"宛南华侨新邨(北门)","lon":"121.4505","lat":"31.18252","category":"47","category_name":"住宅区","address":""},{"poiid":"B2094655D26EA4F94893","title":"克莉丝汀饼屋(宛平南路店)","lon":"121.45087","lat":"31.18561","category":"112","category_name":"糕饼店","address":"徐汇区宛平南路759号-1(近龙华路)"},{"poiid":"B2094752D46AA7FA4092","title":"MoMo牧场","lon":"121.449615","lat":"31.182404","category":"500","category_name":"未知分类","address":null},{"poiid":"B2094655D265A1F44099","title":"东航小区(东门)","lon":"121.4523","lat":"31.18134","category":"47","category_name":"住宅区","address":"龙华路2381弄1-27号"},{"poiid":"B2094655D36DA7F84693","title":"中山南二路宛平南路","lon":"121.44991","lat":"31.18488","category":"38","category_name":"公交车站","address":""},{"poiid":"B2094757D068A5FF4599","title":"东安公园","lon":"121.454267372","lat":"31.1850510404","category":"196","category_name":"公园","address":"徐汇区中山南二路811号(龙华西路)"},{"poiid":"B2094655D36CA1FE4393","title":"双峰路中山南二路","lon":"121.44847","lat":"31.18264","category":"38","category_name":"公交车站","address":""},{"poiid":"B2094757D568A6F5479B","title":"上海市宛平艺苑","lon":"121.451514","lat":"31.185034","category":"178","category_name":"电影院","address":"中山南二路859号"},{"poiid":"B2094757D069A5FD489C","title":"光头烧烤","lon":"121.45085","lat":"31.18479","category":"68","category_name":"快餐厅","address":"徐汇区宛平南路808号(近中山南二路)"},{"poiid":"B2094757D06FAAF54499","title":"JEANS日韩店(京世龙华店)","lon":"121.452429","lat":"31.183131","category":"148","category_name":"美容美发店","address":"上海徐汇区宛平南路941号(近龙华西路)"},{"poiid":"B209475CD16DAAFC449D","title":"小辉哥火锅 正大乐城店","lon":"121.4529021","lat":"31.1861009","category":"86","category_name":"火锅店","address":"中山南二路669号2栋304-305正大乐城"},{"poiid":"B2094654DB64A5F54198","title":"苏州福东鑫","lon":"121.450175054","lat":"31.186587793","category":"68","category_name":"快餐厅","address":"徐汇区宛平南路735号(近中山南二路)"},{"poiid":"B2094654DA6DA7F9429E","title":"上海市徐汇区东二小学","lon":"121.45093","lat":"31.18307","category":"56","category_name":"小学","address":"徐汇区宛平南路908弄2号(近中山南二路)"},{"poiid":"B2094757D064A7F54293","title":"夏朵精品烘培","lon":"121.45131266","lat":"31.186186702","category":"67","category_name":"甜品店","address":"上海徐汇区天钥桥路214号哈尼美食广场3楼夏朵内(近南丹东路)"},{"poiid":"B2094757D16FA0FB409E","title":"湖滨人家","lon":"121.45091","lat":"31.18471","category":"257","category_name":"中餐厅","address":"徐汇区宛平南路810号(近中山南二路)"},{"poiid":"B2094654DA6DA7F94299","title":"金桥信息大楼","lon":"121.45175","lat":"31.18338","category":"46","category_name":"楼宇","address":"宛平南路902"},{"poiid":"B2094757D068A0FB4492","title":"东安五村","lon":"121.45214709","lat":"31.184289321","category":"252","category_name":"楼宇机构","address":"上海市宛平南路909弄"},{"poiid":"B2094654DA6DA4F84092","title":"好德便利No.3078","lon":"121.4523","lat":"31.18317","category":"117","category_name":"便民商店/便利店","address":"宛平南路933"},{"poiid":"B2094757D16CA0F8499C","title":"933路公交车宛平南路龙华路站","lon":"121.45252","lat":"31.182976","category":"38","category_name":"公交车站","address":"上海宛平南路951号近龙华路"},{"poiid":"B2094655D268A1F4419F","title":"上海中医药大学学生公寓","lon":"121.44953","lat":"31.18661","category":"47","category_name":"住宅区","address":""},{"poiid":"B2094654DB6AA7F5469D","title":"东安二村小学","lon":"121.4516","lat":"31.18367","category":"56","category_name":"小学","address":"徐汇区宛平南路900号"},{"poiid":"B2094757D569A1FC4799","title":"中国电信(宛平南路营业厅)","lon":"121.45273899","lat":"31.18270128","category":"151","category_name":"电讯营业厅","address":"宛平南路963"},{"poiid":"B2094757D66EABFB4698","title":"世茂滨江苑","lon":"121.45263581","lat":"31.183689521","category":"47","category_name":"住宅区","address":"上海潍坊西路1弄"},{"poiid":"B2094654DA6DA4F8419B","title":"徐汇临江豪园(西门)","lon":"121.45207","lat":"31.18353","category":"48","category_name":"楼宇大门","address":""},{"poiid":"B2094757D06BABFF479B","title":"小阁楼酒家","lon":"121.4504","lat":"31.18523","category":"76","category_name":"上海菜","address":"徐汇区宛平南路750号(近中山南二路)"},{"poiid":"B2094757D065A4FB499B","title":"吴越人家","lon":"121.45047","lat":"31.18522","category":"76","category_name":"上海菜","address":"徐汇区宛平南路740号(近中山南二路)"},{"poiid":"B2094654DA6DA7F9419D","title":"宛南一村","lon":"121.45103","lat":"31.183723","category":"47","category_name":"住宅区","address":"宛平南路850号"},{"poiid":"B2094750D26AA4FA469B","title":"人道素食","lon":"121.450233","lat":"31.183059","category":"247","category_name":"餐饮美食","address":"龙华路2787号"},{"poiid":"B2094655D26AA1F9429F","title":"星星美容美发店","lon":"121.45157","lat":"31.18425","category":"247","category_name":"餐饮美食","address":"宛平南路909号(近中山南二路)"},{"poiid":"B2094655D264A2FF479B","title":"吉象小区(东门)","lon":"121.45229","lat":"31.1826","category":"47","category_name":"住宅区","address":"宛平南路968弄2-12号"},{"poiid":"B2094655D268A5FE4093","title":"物华公寓(东门)","lon":"121.45224","lat":"31.18264","category":"47","category_name":"住宅区","address":""},{"poiid":"B2094757D568AAF5429E","title":"迷尔角鞋业","lon":"121.4525415","lat":"31.18301921","category":"141","category_name":"服装鞋帽皮具店","address":"徐汇区宛平南路947号(近龙华路)"},{"poiid":"B2094757D569A2F8469B","title":"象王洗得好(宛平南路)","lon":"121.4523763","lat":"31.18330783","category":"610","category_name":"干洗店","address":"宛平南路929"},{"poiid":"B2094654DA6DA7F84892","title":"宛南小区","lon":"121.44946","lat":"31.183348","category":"47","category_name":"住宅区","address":"中山南二路925弄"},{"poiid":"B2094757D569A0F94898","title":"冰冰便当(宛平南路店)","lon":"121.450831","lat":"31.18478","category":"68","category_name":"快餐厅","address":"徐汇区宛平南路801号"},{"poiid":"B2094654DA6DA7FF429E","title":"中煌大厦","lon":"121.452345","lat":"31.187456","category":"46","category_name":"楼宇","address":"沈河北站路与北京街的交汇处"},{"poiid":"B2094655D264A1FD419B","title":"吉象小区","lon":"121.45192","lat":"31.18237","category":"47","category_name":"住宅区","address":"宛平南路968弄2-12号"},{"poiid":"B2094655D265ABFE4392","title":"倚卿酒家","lon":"121.450018054","lat":"31.180057793","category":"76","category_name":"上海菜","address":"徐汇区华容路65号(近龙华路)"},{"poiid":"B2094655D26CA7F4409E","title":"宛南一村(8号门)","lon":"121.45127","lat":"31.18415","category":"47","category_name":"住宅区","address":""},{"poiid":"B2094654DB6BA5FA449D","title":"良友(宛平南路)","lon":"121.45114","lat":"31.18435","category":"117","category_name":"便民商店/便利店","address":"宛平南路842"},{"poiid":"B2094757D66EA0FE409C","title":"龙山幼儿园二分院","lon":"121.45255358","lat":"31.184275532","category":"500","category_name":"未知分类","address":"徐汇区中山南二路999弄5号"},{"poiid":"B2094757D06AA3FC4793","title":"华富大厦","lon":"121.448","lat":"31.1834","category":"252","category_name":"楼宇机构","address":"北一环与亳州路交叉口(庐阳区政府对面)"},{"poiid":"B2094655D268A7F8469D","title":"解龙小区","lon":"121.45396","lat":"31.183895","category":"47","category_name":"住宅区","address":"龙华路1881弄1-12号"},{"poiid":"B2094655D26FA6FF409A","title":"东安四村","lon":"121.45087","lat":"31.186504","category":"47","category_name":"住宅区","address":"宛平南路727号"},{"poiid":"B2094757D16EA3F4409A","title":"物华公寓","lon":"121.45184","lat":"31.182695","category":"252","category_name":"楼宇机构","address":"上海徐汇区宛平南路968弄"},{"poiid":"B2094654DA6DA4FF4993","title":"光明乳业中山配送站","lon":"121.45408","lat":"31.18326","category":"117","category_name":"便民商店/便利店","address":""},{"poiid":"B2094757D568ABFC419B","title":"柯达照相馆(宛平南路)","lon":"121.452369","lat":"31.18249702","category":"611","category_name":"照相馆","address":"宛平南路970-4"},{"poiid":"B2094757D16FA5FF4892","title":"联华快客便利(宛南店)","lon":"121.45112","lat":"31.18452","category":"117","category_name":"便民商店/便利店","address":"徐汇区宛平南路802号"},{"poiid":"B2094655D265AAFE459F","title":"徐汇苑三期","lon":"121.450257","lat":"31.182808","category":"47","category_name":"住宅区","address":"天钥桥路968号"},{"poiid":"B2094757D065A5F44393","title":"枫林路街道办事处","lon":"121.451122","lat":"31.18505","category":"500","category_name":"未知分类","address":"上海中山南二路857号"},{"poiid":"B2094655D268A5FE4099","title":"宛南华侨新邨(北门)","lon":"121.4505","lat":"31.18252","category":"47","category_name":"住宅区","address":""},{"poiid":"B2094655D26EA4F94893","title":"克莉丝汀饼屋(宛平南路店)","lon":"121.45087","lat":"31.18561","category":"112","category_name":"糕饼店","address":"徐汇区宛平南路759号-1(近龙华路)"},{"poiid":"B2094752D46AA7FA4092","title":"MoMo牧场","lon":"121.449615","lat":"31.182404","category":"500","category_name":"未知分类","address":null},{"poiid":"B2094655D265A1F44099","title":"东航小区(东门)","lon":"121.4523","lat":"31.18134","category":"47","category_name":"住宅区","address":"龙华路2381弄1-27号"},{"poiid":"B2094655D36DA7F84693","title":"中山南二路宛平南路","lon":"121.44991","lat":"31.18488","category":"38","category_name":"公交车站","address":""},{"poiid":"B2094757D068A5FF4599","title":"东安公园","lon":"121.454267372","lat":"31.1850510404","category":"196","category_name":"公园","address":"徐汇区中山南二路811号(龙华西路)"},{"poiid":"B2094655D36CA1FE4393","title":"双峰路中山南二路","lon":"121.44847","lat":"31.18264","category":"38","category_name":"公交车站","address":""},{"poiid":"B2094757D568A6F5479B","title":"上海市宛平艺苑","lon":"121.451514","lat":"31.185034","category":"178","category_name":"电影院","address":"中山南二路859号"},{"poiid":"B2094757D069A5FD489C","title":"光头烧烤","lon":"121.45085","lat":"31.18479","category":"68","category_name":"快餐厅","address":"徐汇区宛平南路808号(近中山南二路)"},{"poiid":"B2094757D06FAAF54499","title":"JEANS日韩店(京世龙华店)","lon":"121.452429","lat":"31.183131","category":"148","category_name":"美容美发店","address":"上海徐汇区宛平南路941号(近龙华西路)"},{"poiid":"B209475CD16DAAFC449D","title":"小辉哥火锅 正大乐城店","lon":"121.4529021","lat":"31.1861009","category":"86","category_name":"火锅店","address":"中山南二路669号2栋304-305正大乐城"},{"poiid":"B2094654DB64A5F54198","title":"苏州福东鑫","lon":"121.450175054","lat":"31.186587793","category":"68","category_name":"快餐厅","address":"徐汇区宛平南路735号(近中山南二路)"},{"poiid":"B2094654DA6DA7F9429E","title":"上海市徐汇区东二小学","lon":"121.45093","lat":"31.18307","category":"56","category_name":"小学","address":"徐汇区宛平南路908弄2号(近中山南二路)"},{"poiid":"B2094757D064A7F54293","title":"夏朵精品烘培","lon":"121.45131266","lat":"31.186186702","category":"67","category_name":"甜品店","address":"上海徐汇区天钥桥路214号哈尼美食广场3楼夏朵内(近南丹东路)"},{"poiid":"B2094757D16FA0FB409E","title":"湖滨人家","lon":"121.45091","lat":"31.18471","category":"257","category_name":"中餐厅","address":"徐汇区宛平南路810号(近中山南二路)"},{"poiid":"B2094654DA6DA7F94299","title":"金桥信息大楼","lon":"121.45175","lat":"31.18338","category":"46","category_name":"楼宇","address":"宛平南路902"},{"poiid":"B2094757D068A0FB4492","title":"东安五村","lon":"121.45214709","lat":"31.184289321","category":"252","category_name":"楼宇机构","address":"上海市宛平南路909弄"},{"poiid":"B2094654DA6DA4F84092","title":"好德便利No.3078","lon":"121.4523","lat":"31.18317","category":"117","category_name":"便民商店/便利店","address":"宛平南路933"},{"poiid":"B2094757D16CA0F8499C","title":"933路公交车宛平南路龙华路站","lon":"121.45252","lat":"31.182976","category":"38","category_name":"公交车站","address":"上海宛平南路951号近龙华路"},{"poiid":"B2094655D268A1F4419F","title":"上海中医药大学学生公寓","lon":"121.44953","lat":"31.18661","category":"47","category_name":"住宅区","address":""},{"poiid":"B2094654DB6AA7F5469D","title":"东安二村小学","lon":"121.4516","lat":"31.18367","category":"56","category_name":"小学","address":"徐汇区宛平南路900号"},{"poiid":"B2094757D569A1FC4799","title":"中国电信(宛平南路营业厅)","lon":"121.45273899","lat":"31.18270128","category":"151","category_name":"电讯营业厅","address":"宛平南路963"},{"poiid":"B2094757D66EABFB4698","title":"世茂滨江苑","lon":"121.45263581","lat":"31.183689521","category":"47","category_name":"住宅区","address":"上海潍坊西路1弄"},{"poiid":"B2094654DA6DA4F8419B","title":"徐汇临江豪园(西门)","lon":"121.45207","lat":"31.18353","category":"48","category_name":"楼宇大门","address":""},{"poiid":"B2094757D06BABFF479B","title":"小阁楼酒家","lon":"121.4504","lat":"31.18523","category":"76","category_name":"上海菜","address":"徐汇区宛平南路750号(近中山南二路)"},{"poiid":"B2094757D065A4FB499B","title":"吴越人家","lon":"121.45047","lat":"31.18522","category":"76","category_name":"上海菜","address":"徐汇区宛平南路740号(近中山南二路)"},{"poiid":"B2094654DA6DA7F9419D","title":"宛南一村","lon":"121.45103","lat":"31.183723","category":"47","category_name":"住宅区","address":"宛平南路850号"},{"poiid":"B2094750D26AA4FA469B","title":"人道素食","lon":"121.450233","lat":"31.183059","category":"247","category_name":"餐饮美食","address":"龙华路2787号"},{"poiid":"B2094655D26AA1F9429F","title":"星星美容美发店","lon":"121.45157","lat":"31.18425","category":"247","category_name":"餐饮美食","address":"宛平南路909号(近中山南二路)"},{"poiid":"B2094655D264A2FF479B","title":"吉象小区(东门)","lon":"121.45229","lat":"31.1826","category":"47","category_name":"住宅区","address":"宛平南路968弄2-12号"},{"poiid":"B2094655D268A5FE4093","title":"物华公寓(东门)","lon":"121.45224","lat":"31.18264","category":"47","category_name":"住宅区","address":""},{"poiid":"B2094757D568AAF5429E","title":"迷尔角鞋业","lon":"121.4525415","lat":"31.18301921","category":"141","category_name":"服装鞋帽皮具店","address":"徐汇区宛平南路947号(近龙华路)"},{"poiid":"B2094757D569A2F8469B","title":"象王洗得好(宛平南路)","lon":"121.4523763","lat":"31.18330783","category":"610","category_name":"干洗店","address":"宛平南路929"},{"poiid":"B2094654DA6DA7F84892","title":"宛南小区","lon":"121.44946","lat":"31.183348","category":"47","category_name":"住宅区","address":"中山南二路925弄"},{"poiid":"B2094757D569A0F94898","title":"冰冰便当(宛平南路店)","lon":"121.450831","lat":"31.18478","category":"68","category_name":"快餐厅","address":"徐汇区宛平南路801号"},{"poiid":"B2094654DA6DA7FF429E","title":"中煌大厦","lon":"121.452345","lat":"31.187456","category":"46","category_name":"楼宇","address":"沈河北站路与北京街的交汇处"},{"poiid":"B2094655D264A1FD419B","title":"吉象小区","lon":"121.45192","lat":"31.18237","category":"47","category_name":"住宅区","address":"宛平南路968弄2-12号"},{"poiid":"B2094655D265ABFE4392","title":"倚卿酒家","lon":"121.450018054","lat":"31.180057793","category":"76","category_name":"上海菜","address":"徐汇区华容路65号(近龙华路)"},{"poiid":"B2094655D26CA7F4409E","title":"宛南一村(8号门)","lon":"121.45127","lat":"31.18415","category":"47","category_name":"住宅区","address":""},{"poiid":"B2094654DB6BA5FA449D","title":"良友(宛平南路)","lon":"121.45114","lat":"31.18435","category":"117","category_name":"便民商店/便利店","address":"宛平南路842"},{"poiid":"B2094757D66EA0FE409C","title":"龙山幼儿园二分院","lon":"121.45255358","lat":"31.184275532","category":"500","category_name":"未知分类","address":"徐汇区中山南二路999弄5号"},{"poiid":"B2094757D06AA3FC4793","title":"华富大厦","lon":"121.448","lat":"31.1834","category":"252","category_name":"楼宇机构","address":"北一环与亳州路交叉口(庐阳区政府对面)"},{"poiid":"B2094655D268A7F8469D","title":"解龙小区","lon":"121.45396","lat":"31.183895","category":"47","category_name":"住宅区","address":"龙华路1881弄1-12号"},{"poiid":"B2094655D26FA6FF409A","title":"东安四村","lon":"121.45087","lat":"31.186504","category":"47","category_name":"住宅区","address":"宛平南路727号"},{"poiid":"B2094757D16EA3F4409A","title":"物华公寓","lon":"121.45184","lat":"31.182695","category":"252","category_name":"楼宇机构","address":"上海徐汇区宛平南路968弄"},{"poiid":"B2094654DA6DA4FF4993","title":"光明乳业中山配送站","lon":"121.45408","lat":"31.18326","category":"117","category_name":"便民商店/便利店","address":""},{"poiid":"B2094757D568ABFC419B","title":"柯达照相馆(宛平南路)","lon":"121.452369","lat":"31.18249702","category":"611","category_name":"照相馆","address":"宛平南路970-4"},{"poiid":"B2094757D16FA5FF4892","title":"联华快客便利(宛南店)","lon":"121.45112","lat":"31.18452","category":"117","category_name":"便民商店/便利店","address":"徐汇区宛平南路802号"},{"poiid":"B2094655D265AAFE459F","title":"徐汇苑三期","lon":"121.450257","lat":"31.182808","category":"47","category_name":"住宅区","address":"天钥桥路968号"},{"poiid":"B2094757D065A5F44393","title":"枫林路街道办事处","lon":"121.451122","lat":"31.18505","category":"500","category_name":"未知分类","address":"上海中山南二路857号"},{"poiid":"B2094655D268A5FE4099","title":"宛南华侨新邨(北门)","lon":"121.4505","lat":"31.18252","category":"47","category_name":"住宅区","address":""},{"poiid":"B2094655D26EA4F94893","title":"克莉丝汀饼屋(宛平南路店)","lon":"121.45087","lat":"31.18561","category":"112","category_name":"糕饼店","address":"徐汇区宛平南路759号-1(近龙华路)"},{"poiid":"B2094752D46AA7FA4092","title":"MoMo牧场","lon":"121.449615","lat":"31.182404","category":"500","category_name":"未知分类","address":null},{"poiid":"B2094655D265A1F44099","title":"东航小区(东门)","lon":"121.4523","lat":"31.18134","category":"47","category_name":"住宅区","address":"龙华路2381弄1-27号"}]