[{"poiid":"B2094757D06FAAFE419E","title":"藏乐汤坊(龙茗店)","lon":"121.38731","lat":"31.13775","category":"72","category_name":"广东菜","address":"闵行区龙茗路990号十尚坊(近顾戴路)"},{"poiid":"B2094655D26EA5FE429F","title":"甜蜜蜜 龙茗路店","lon":"121.38678855714","lat":"31.135898951461","category":"67","category_name":"甜品店","address":"闵行区龙茗路975号(近顾戴路)"},{"poiid":"B2094757D068A6FF419D","title":"古美社区卫生服务中心","lon":"121.388386","lat":"31.133593","category":"162","category_name":"医院","address":"闵行区龙茗路668号"},{"poiid":"B2094757D06FAAFF449B","title":"东北人 龙茗路店","lon":"121.386900054","lat":"31.137288793","category":"82","category_name":"东北菜","address":"闵行区龙茗路974号(近顾戴路)"},{"poiid":"B2094757D068A1FE4093","title":"必胜客(龙茗路店)","lon":"121.38696","lat":"31.13832","category":"94","category_name":"西餐厅","address":"闵行区龙茗路1024号(近顾戴路)"},{"poiid":"B2094757D66BABFF4193","title":"700啤酒屋 龙茗路店","lon":"121.38724","lat":"31.13662","category":"260","category_name":"其他","address":"闵行区龙茗路950号(近顾戴路)"},{"poiid":"B2094654DB6AA3FA4298","title":"澳门街","lon":"121.38642","lat":"31.13805","category":"260","category_name":"其他","address":"闵行区龙茗路1015号(近顾戴路)"},{"poiid":"B2094757D069A1FE4499","title":"肯德基 龙茗店 KFC","lon":"121.386409054","lat":"31.138955793","category":"68","category_name":"快餐厅","address":"闵行区龙茗路1048号(近顾戴路)"},{"poiid":"B2094757D06AA0FC4692","title":"江南星城","lon":"121.38666328","lat":"31.135541357","category":"500","category_name":"未知分类","address":"上海顾戴路1325弄"},{"poiid":"B2094654DA65ABFD449C","title":"吉亨面馆 龙茗路店","lon":"121.386076054","lat":"31.137458793","category":"68","category_name":"快餐厅","address":"闵行区龙茗路991号(近顾戴路)"},{"poiid":"B2094757D068A6FD4192","title":"徽珍源(龙茗路店)","lon":"121.38724","lat":"31.1359","category":"260","category_name":"其他","address":"上海闵行区龙茗路975号十尚坊901-902单元(近顾戴路)  "},{"poiid":"B2094655D26EA7FF439C","title":"东方御花园(古美西路)","lon":"121.38706","lat":"31.13092","category":"47","category_name":"住宅区","address":"上海市闵行区龙茗路513弄"},{"poiid":"B2094655D26DA7F5499F","title":"古美西路420弄(南门)","lon":"121.39441","lat":"31.13351","category":"47","category_name":"住宅区","address":""},{"poiid":"B2094654DB64A2FB4292","title":"江南星城纯翠江南","lon":"121.38859667","lat":"31.13741333","category":"47","category_name":"住宅区","address":"顾戴路1199弄"},{"poiid":"B2094757D069A1F54793","title":"双拥公园","lon":"121.38729636","lat":"31.1347390364","category":"196","category_name":"公园","address":"闵行区古美路(近龙茗路)"},{"poiid":"B2094757D069A7FA499F","title":"味千拉面 龙茗路店","lon":"121.386865054","lat":"31.138706793","category":"95","category_name":"日本料理","address":"闵行区龙茗路1048号112单元1楼(近顾戴路)"},{"poiid":"B2094757D069AAFA419C","title":"禾绿寿司(龙茗路店)","lon":"121.38791","lat":"31.13555","category":"95","category_name":"日本料理","address":"闵行区龙茗路924号702单元(近平阳路)"},{"poiid":"B2094655D26AA4FC429F","title":"干锅居十尚坊店","lon":"121.38762","lat":"31.1359","category":"83","category_name":"云贵菜","address":"闵行区龙茗路924号701单元(近平阳路)"},{"poiid":"B2094654DA65ABFD449D","title":"红辣椒牛蛙馆","lon":"121.386487054","lat":"31.136871793","category":"71","category_name":"四川菜","address":"闵行区龙茗路999号(近顾戴路)"},{"poiid":"B2094757D068ABFE4393","title":"珊珊小笼馆(古美西路店)","lon":"121.39406","lat":"31.13301","category":"68","category_name":"快餐厅","address":"闵行区古美西路378号(万源路合川路间)"},{"poiid":"B2094655D26FA6FF439E","title":"平阳绿家园","lon":"121.39111","lat":"31.130379","category":"47","category_name":"住宅区","address":"平阳绿家园位于闵行龙茗路888号顾戴路口"},{"poiid":"B2094757D069A6FD449D","title":"85度C(龙茗二店)","lon":"121.38648941","lat":"31.13741984","category":"67","category_name":"甜品店","address":"闵行区龙茗路1045号(近顾戴路)"},{"poiid":"B2094751D264ABFB4099","title":"上海复旦附属儿童医院","lon":"121.3904266","lat":"31.1343416","category":"162","category_name":"医院","address":null},{"poiid":"B2094654DB64ABF9419B","title":"上海市闵行区古美路地段医院","lon":"121.38838","lat":"31.13359","category":"162","category_name":"医院","address":"龙茗路668号"},{"poiid":"B2094654DA65ABFD429C","title":"闵行区牙病防治所","lon":"121.38829","lat":"31.13391","category":"162","category_name":"医院","address":"古美路"},{"poiid":"B2094757D16DA2FB4193","title":"虹莘小区","lon":"121.39","lat":"31.1364","category":"47","category_name":"住宅区","address":"虹莘路1551弄、虹莘路1701弄"},{"poiid":"B2094655D36CA6FC429B","title":"古美西路龙茗路","lon":"121.38907","lat":"31.13214","category":"38","category_name":"公交车站","address":""},{"poiid":"B2094757D068A1F5439E","title":"龙之道保健养生会所(龙茗路店)","lon":"121.38668","lat":"31.1381","category":"149","category_name":"洗浴推拿场所","address":"闵行区龙茗路1025号(近顾戴路)"},{"poiid":"B2094750DA64A6FD429C","title":"泰煌鸡 龙茗路店","lon":"121.388916","lat":"31.134677","category":"68","category_name":"快餐厅","address":"闵行区龙茗路(近平阳路)"},{"poiid":"B2094654DB65A3FF479F","title":"鸿发家园","lon":"121.38557","lat":"31.130638","category":"47","category_name":"住宅区","address":"古美西路899弄"},{"poiid":"B2094654DA65ABFC459C","title":"春江锦庐(南门)","lon":"121.3867","lat":"31.13176","category":"48","category_name":"楼宇大门","address":"古美西路752弄"},{"poiid":"B2094654DB64A6FA459C","title":"棒约翰比萨 龙茗店 Papa John's Pizza","lon":"121.38652951858","lat":"31.138571761299","category":"94","category_name":"西餐厅","address":"闵行区龙茗路1048号113单元(近顾戴路)"},{"poiid":"B2094757D069A5FF469E","title":"组合发型(龙茗店)","lon":"121.38721","lat":"31.137","category":"148","category_name":"美容美发店","address":"闵行区龙茗路956号(近顾戴路)"},{"poiid":"B2094757D66BA4F8439E","title":"大眼包子 古美店","lon":"121.39308","lat":"31.13328","category":"68","category_name":"快餐厅","address":"闵行区古美西路488号(近合川路)"},{"poiid":"B2094655D268A5F94999","title":"蒙涮一绝","lon":"121.38703582174","lat":"31.135533941805","category":"86","category_name":"火锅店","address":"闵行区龙茗路924号(近平阳路)"},{"poiid":"B2094752D06AA5FB4893","title":"望湘园","lon":"121.395923","lat":"31.133692","category":"247","category_name":"餐饮美食","address":"南方商城"},{"poiid":"B2094757D56EA3FA4692","title":"喜德棒","lon":"121.388386","lat":"31.133593","category":"247","category_name":"餐饮美食","address":"龙茗路685号"},{"poiid":"B2094753D469A2F4429A","title":"上海新天地","lon":"121.390258","lat":"31.135391","category":"500","category_name":"未知分类","address":"上海市 卢湾区 马当路"},{"poiid":"B2094757D66EA0F5469E","title":"麻府料理","lon":"121.38947485","lat":"31.136326089","category":"96","category_name":"韩国料理","address":"闵行区龙茗路948号"},{"poiid":"B2094752D26BAAFA409A","title":"炭路者","lon":"121.386977","lat":"31.136691","category":"247","category_name":"餐饮美食","address":"龙茗路991号"},{"poiid":"B2094654DA65ABFD429D","title":"古美社区卫生服务中心口腔门诊","lon":"121.38829","lat":"31.13391","category":"162","category_name":"医院","address":""},{"poiid":"B2094757D16CAAF94298","title":"华联超市(平阳路店)","lon":"121.38838","lat":"31.13365","category":"118","category_name":"超级市场","address":"闵行区龙茗路668号(近平阳路)"},{"poiid":"B2094757D16FA3FC429F","title":"平阳小学羽毛球馆","lon":"121.39082","lat":"31.13536","category":"220","category_name":"运动场所","address":"上海闵行区古美西路628弄177号  "},{"poiid":"B2094752D66CA1FC409A","title":"JOJO甜品屋","lon":"121.388356","lat":"31.134777","category":"247","category_name":"餐饮美食","address":"杨浦区河间路883号（靠近隆昌路）"},{"poiid":"B2094757D66EAAF5469D","title":"平阳小学","lon":"121.38878375","lat":"31.132409111","category":"56","category_name":"小学","address":"闵行区古美西路628弄177号"},{"poiid":"B2094757D16DA4FD4392","title":"地铁一号线锦江乐园站","lon":"121.384650857","lat":"31.1337760386","category":"500","category_name":"未知分类","address":"上海地铁一号线锦江乐园站"},{"poiid":"B2094752DB6BAAFD4098","title":"晶杰苑","lon":"121.388634","lat":"31.135178","category":"47","category_name":"住宅区","address":"上海市 闵行区古美西路399弄"},{"poiid":"B2094757D169A5F54093","title":"天梯","lon":"121.390098857","lat":"31.1345750546","category":"607","category_name":"一般景点","address":null},{"poiid":"B2094751DB64A7FA4993","title":"仕全烧烤","lon":"121.38755","lat":"31.13668","category":"68","category_name":"快餐厅","address":"闵行区龙茗路974号(近顾戴路)"},{"poiid":"B2094757D06AA2FD439A","title":"Easy厨房","lon":"121.38733","lat":"31.13795","category":"249","category_name":"购物服务","address":"上海闵行区龙茗路1006号(近顾戴路)  "},{"poiid":"B2094757D06FAAFE419E","title":"藏乐汤坊(龙茗店)","lon":"121.38731","lat":"31.13775","category":"72","category_name":"广东菜","address":"闵行区龙茗路990号十尚坊(近顾戴路)"},{"poiid":"B2094655D26EA5FE429F","title":"甜蜜蜜 龙茗路店","lon":"121.38678855714","lat":"31.135898951461","category":"67","category_name":"甜品店","address":"闵行区龙茗路975号(近顾戴路)"},{"poiid":"B2094757D068A6FF419D","title":"古美社区卫生服务中心","lon":"121.388386","lat":"31.133593","category":"162","category_name":"医院","address":"闵行区龙茗路668号"},{"poiid":"B2094757D06FAAFF449B","title":"东北人 龙茗路店","lon":"121.386900054","lat":"31.137288793","category":"82","category_name":"东北菜","address":"闵行区龙茗路974号(近顾戴路)"},{"poiid":"B2094757D068A1FE4093","title":"必胜客(龙茗路店)","lon":"121.38696","lat":"31.13832","category":"94","category_name":"西餐厅","address":"闵行区龙茗路1024号(近顾戴路)"},{"poiid":"B2094757D66BABFF4193","title":"700啤酒屋 龙茗路店","lon":"121.38724","lat":"31.13662","category":"260","category_name":"其他","address":"闵行区龙茗路950号(近顾戴路)"},{"poiid":"B2094654DB6AA3FA4298","title":"澳门街","lon":"121.38642","lat":"31.13805","category":"260","category_name":"其他","address":"闵行区龙茗路1015号(近顾戴路)"},{"poiid":"B2094757D069A1FE4499","title":"肯德基 龙茗店 KFC","lon":"121.386409054","lat":"31.138955793","category":"68","category_name":"快餐厅","address":"闵行区龙茗路1048号(近顾戴路)"},{"poiid":"B2094757D06AA0FC4692","title":"江南星城","lon":"121.38666328","lat":"31.135541357","category":"500","category_name":"未知分类","address":"上海顾戴路1325弄"},{"poiid":"B2094654DA65ABFD449C","title":"吉亨面馆 龙茗路店","lon":"121.386076054","lat":"31.137458793","category":"68","category_name":"快餐厅","address":"闵行区龙茗路991号(近顾戴路)"},{"poiid":"B2094757D068A6FD4192","title":"徽珍源(龙茗路店)","lon":"121.38724","lat":"31.1359","category":"260","category_name":"其他","address":"上海闵行区龙茗路975号十尚坊901-902单元(近顾戴路)  "},{"poiid":"B2094655D26EA7FF439C","title":"东方御花园(古美西路)","lon":"121.38706","lat":"31.13092","category":"47","category_name":"住宅区","address":"上海市闵行区龙茗路513弄"},{"poiid":"B2094655D26DA7F5499F","title":"古美西路420弄(南门)","lon":"121.39441","lat":"31.13351","category":"47","category_name":"住宅区","address":""},{"poiid":"B2094654DB64A2FB4292","title":"江南星城纯翠江南","lon":"121.38859667","lat":"31.13741333","category":"47","category_name":"住宅区","address":"顾戴路1199弄"},{"poiid":"B2094757D069A1F54793","title":"双拥公园","lon":"121.38729636","lat":"31.1347390364","category":"196","category_name":"公园","address":"闵行区古美路(近龙茗路)"},{"poiid":"B2094757D069A7FA499F","title":"味千拉面 龙茗路店","lon":"121.386865054","lat":"31.138706793","category":"95","category_name":"日本料理","address":"闵行区龙茗路1048号112单元1楼(近顾戴路)"},{"poiid":"B2094757D069AAFA419C","title":"禾绿寿司(龙茗路店)","lon":"121.38791","lat":"31.13555","category":"95","category_name":"日本料理","address":"闵行区龙茗路924号702单元(近平阳路)"},{"poiid":"B2094655D26AA4FC429F","title":"干锅居十尚坊店","lon":"121.38762","lat":"31.1359","category":"83","category_name":"云贵菜","address":"闵行区龙茗路924号701单元(近平阳路)"},{"poiid":"B2094654DA65ABFD449D","title":"红辣椒牛蛙馆","lon":"121.386487054","lat":"31.136871793","category":"71","category_name":"四川菜","address":"闵行区龙茗路999号(近顾戴路)"},{"poiid":"B2094757D068ABFE4393","title":"珊珊小笼馆(古美西路店)","lon":"121.39406","lat":"31.13301","category":"68","category_name":"快餐厅","address":"闵行区古美西路378号(万源路合川路间)"},{"poiid":"B2094655D26FA6FF439E","title":"平阳绿家园","lon":"121.39111","lat":"31.130379","category":"47","category_name":"住宅区","address":"平阳绿家园位于闵行龙茗路888号顾戴路口"},{"poiid":"B2094757D069A6FD449D","title":"85度C(龙茗二店)","lon":"121.38648941","lat":"31.13741984","category":"67","category_name":"甜品店","address":"闵行区龙茗路1045号(近顾戴路)"},{"poiid":"B2094751D264ABFB4099","title":"上海复旦附属儿童医院","lon":"121.3904266","lat":"31.1343416","category":"162","category_name":"医院","address":null},{"poiid":"B2094654DB64ABF9419B","title":"上海市闵行区古美路地段医院","lon":"121.38838","lat":"31.13359","category":"162","category_name":"医院","address":"龙茗路668号"},{"poiid":"B2094654DA65ABFD429C","title":"闵行区牙病防治所","lon":"121.38829","lat":"31.13391","category":"162","category_name":"医院","address":"古美路"},{"poiid":"B2094757D16DA2FB4193","title":"虹莘小区","lon":"121.39","lat":"31.1364","category":"47","category_name":"住宅区","address":"虹莘路1551弄、虹莘路1701弄"},{"poiid":"B2094655D36CA6FC429B","title":"古美西路龙茗路","lon":"121.38907","lat":"31.13214","category":"38","category_name":"公交车站","address":""},{"poiid":"B2094757D068A1F5439E","title":"龙之道保健养生会所(龙茗路店)","lon":"121.38668","lat":"31.1381","category":"149","category_name":"洗浴推拿场所","address":"闵行区龙茗路1025号(近顾戴路)"},{"poiid":"B2094750DA64A6FD429C","title":"泰煌鸡 龙茗路店","lon":"121.388916","lat":"31.134677","category":"68","category_name":"快餐厅","address":"闵行区龙茗路(近平阳路)"},{"poiid":"B2094654DB65A3FF479F","title":"鸿发家园","lon":"121.38557","lat":"31.130638","category":"47","category_name":"住宅区","address":"古美西路899弄"},{"poiid":"B2094654DA65ABFC459C","title":"春江锦庐(南门)","lon":"121.3867","lat":"31.13176","category":"48","category_name":"楼宇大门","address":"古美西路752弄"},{"poiid":"B2094654DB64A6FA459C","title":"棒约翰比萨 龙茗店 Papa John's Pizza","lon":"121.38652951858","lat":"31.138571761299","category":"94","category_name":"西餐厅","address":"闵行区龙茗路1048号113单元(近顾戴路)"},{"poiid":"B2094757D069A5FF469E","title":"组合发型(龙茗店)","lon":"121.38721","lat":"31.137","category":"148","category_name":"美容美发店","address":"闵行区龙茗路956号(近顾戴路)"},{"poiid":"B2094757D66BA4F8439E","title":"大眼包子 古美店","lon":"121.39308","lat":"31.13328","category":"68","category_name":"快餐厅","address":"闵行区古美西路488号(近合川路)"},{"poiid":"B2094655D268A5F94999","title":"蒙涮一绝","lon":"121.38703582174","lat":"31.135533941805","category":"86","category_name":"火锅店","address":"闵行区龙茗路924号(近平阳路)"},{"poiid":"B2094752D06AA5FB4893","title":"望湘园","lon":"121.395923","lat":"31.133692","category":"247","category_name":"餐饮美食","address":"南方商城"},{"poiid":"B2094757D56EA3FA4692","title":"喜德棒","lon":"121.388386","lat":"31.133593","category":"247","category_name":"餐饮美食","address":"龙茗路685号"},{"poiid":"B2094753D469A2F4429A","title":"上海新天地","lon":"121.390258","lat":"31.135391","category":"500","category_name":"未知分类","address":"上海市 卢湾区 马当路"},{"poiid":"B2094757D66EA0F5469E","title":"麻府料理","lon":"121.38947485","lat":"31.136326089","category":"96","category_name":"韩国料理","address":"闵行区龙茗路948号"},{"poiid":"B2094752D26BAAFA409A","title":"炭路者","lon":"121.386977","lat":"31.136691","category":"247","category_name":"餐饮美食","address":"龙茗路991号"},{"poiid":"B2094654DA65ABFD429D","title":"古美社区卫生服务中心口腔门诊","lon":"121.38829","lat":"31.13391","category":"162","category_name":"医院","address":""},{"poiid":"B2094757D16CAAF94298","title":"华联超市(平阳路店)","lon":"121.38838","lat":"31.13365","category":"118","category_name":"超级市场","address":"闵行区龙茗路668号(近平阳路)"},{"poiid":"B2094757D16FA3FC429F","title":"平阳小学羽毛球馆","lon":"121.39082","lat":"31.13536","category":"220","category_name":"运动场所","address":"上海闵行区古美西路628弄177号  "},{"poiid":"B2094752D66CA1FC409A","title":"JOJO甜品屋","lon":"121.388356","lat":"31.134777","category":"247","category_name":"餐饮美食","address":"杨浦区河间路883号（靠近隆昌路）"},{"poiid":"B2094757D66EAAF5469D","title":"平阳小学","lon":"121.38878375","lat":"31.132409111","category":"56","category_name":"小学","address":"闵行区古美西路628弄177号"},{"poiid":"B2094757D16DA4FD4392","title":"地铁一号线锦江乐园站","lon":"121.384650857","lat":"31.1337760386","category":"500","category_name":"未知分类","address":"上海地铁一号线锦江乐园站"},{"poiid":"B2094752DB6BAAFD4098","title":"晶杰苑","lon":"121.388634","lat":"31.135178","category":"47","category_name":"住宅区","address":"上海市 闵行区古美西路399弄"},{"poiid":"B2094757D169A5F54093","title":"天梯","lon":"121.390098857","lat":"31.1345750546","category":"607","category_name":"一般景点","address":null},{"poiid":"B2094751DB64A7FA4993","title":"仕全烧烤","lon":"121.38755","lat":"31.13668","category":"68","category_name":"快餐厅","address":"闵行区龙茗路974号(近顾戴路)"},{"poiid":"B2094757D06AA2FD439A","title":"Easy厨房","lon":"121.38733","lat":"31.13795","category":"249","category_name":"购物服务","address":"上海闵行区龙茗路1006号(近顾戴路)  "},{"poiid":"B2094757D06FAAFE419E","title":"藏乐汤坊(龙茗店)","lon":"121.38731","lat":"31.13775","category":"72","category_name":"广东菜","address":"闵行区龙茗路990号十尚坊(近顾戴路)"},{"poiid":"B2094655D26EA5FE429F","title":"甜蜜蜜 龙茗路店","lon":"121.38678855714","lat":"31.135898951461","category":"67","category_name":"甜品店","address":"闵行区龙茗路975号(近顾戴路)"},{"poiid":"B2094757D068A6FF419D","title":"古美社区卫生服务中心","lon":"121.388386","lat":"31.133593","category":"162","category_name":"医院","address":"闵行区龙茗路668号"},{"poiid":"B2094757D06FAAFF449B","title":"东北人 龙茗路店","lon":"121.386900054","lat":"31.137288793","category":"82","category_name":"东北菜","address":"闵行区龙茗路974号(近顾戴路)"},{"poiid":"B2094757D068A1FE4093","title":"必胜客(龙茗路店)","lon":"121.38696","lat":"31.13832","category":"94","category_name":"西餐厅","address":"闵行区龙茗路1024号(近顾戴路)"},{"poiid":"B2094757D66BABFF4193","title":"700啤酒屋 龙茗路店","lon":"121.38724","lat":"31.13662","category":"260","category_name":"其他","address":"闵行区龙茗路950号(近顾戴路)"},{"poiid":"B2094654DB6AA3FA4298","title":"澳门街","lon":"121.38642","lat":"31.13805","category":"260","category_name":"其他","address":"闵行区龙茗路1015号(近顾戴路)"},{"poiid":"B2094757D069A1FE4499","title":"肯德基 龙茗店 KFC","lon":"121.386409054","lat":"31.138955793","category":"68","category_name":"快餐厅","address":"闵行区龙茗路1048号(近顾戴路)"},{"poiid":"B2094757D06AA0FC4692","title":"江南星城","lon":"121.38666328","lat":"31.135541357","category":"500","category_name":"未知分类","address":"上海顾戴路1325弄"},{"poiid":"B2094654DA65ABFD449C","title":"吉亨面馆 龙茗路店","lon":"121.386076054","lat":"31.137458793","category":"68","category_name":"快餐厅","address":"闵行区龙茗路991号(近顾戴路)"},{"poiid":"B2094757D068A6FD4192","title":"徽珍源(龙茗路店)","lon":"121.38724","lat":"31.1359","category":"260","category_name":"其他","address":"上海闵行区龙茗路975号十尚坊901-902单元(近顾戴路)  "},{"poiid":"B2094655D26EA7FF439C","title":"东方御花园(古美西路)","lon":"121.38706","lat":"31.13092","category":"47","category_name":"住宅区","address":"上海市闵行区龙茗路513弄"},{"poiid":"B2094655D26DA7F5499F","title":"古美西路420弄(南门)","lon":"121.39441","lat":"31.13351","category":"47","category_name":"住宅区","address":""},{"poiid":"B2094654DB64A2FB4292","title":"江南星城纯翠江南","lon":"121.38859667","lat":"31.13741333","category":"47","category_name":"住宅区","address":"顾戴路1199弄"},{"poiid":"B2094757D069A1F54793","title":"双拥公园","lon":"121.38729636","lat":"31.1347390364","category":"196","category_name":"公园","address":"闵行区古美路(近龙茗路)"},{"poiid":"B2094757D069A7FA499F","title":"味千拉面 龙茗路店","lon":"121.386865054","lat":"31.138706793","category":"95","category_name":"日本料理","address":"闵行区龙茗路1048号112单元1楼(近顾戴路)"},{"poiid":"B2094757D069AAFA419C","title":"禾绿寿司(龙茗路店)","lon":"121.38791","lat":"31.13555","category":"95","category_name":"日本料理","address":"闵行区龙茗路924号702单元(近平阳路)"},{"poiid":"B2094655D26AA4FC429F","title":"干锅居十尚坊店","lon":"121.38762","lat":"31.1359","category":"83","category_name":"云贵菜","address":"闵行区龙茗路924号701单元(近平阳路)"},{"poiid":"B2094654DA65ABFD449D","title":"红辣椒牛蛙馆","lon":"121.386487054","lat":"31.136871793","category":"71","category_name":"四川菜","address":"闵行区龙茗路999号(近顾戴路)"},{"poiid":"B2094757D068ABFE4393","title":"珊珊小笼馆(古美西路店)","lon":"121.39406","lat":"31.13301","category":"68","category_name":"快餐厅","address":"闵行区古美西路378号(万源路合川路间)"},{"poiid":"B2094655D26FA6FF439E","title":"平阳绿家园","lon":"121.39111","lat":"31.130379","category":"47","category_name":"住宅区","address":"平阳绿家园位于闵行龙茗路888号顾戴路口"},{"poiid":"B2094757D069A6FD449D","title":"85度C(龙茗二店)","lon":"121.38648941","lat":"31.13741984","category":"67","category_name":"甜品店","address":"闵行区龙茗路1045号(近顾戴路)"},{"poiid":"B2094751D264ABFB4099","title":"上海复旦附属儿童医院","lon":"121.3904266","lat":"31.1343416","category":"162","category_name":"医院","address":null},{"poiid":"B2094654DB64ABF9419B","title":"上海市闵行区古美路地段医院","lon":"121.38838","lat":"31.13359","category":"162","category_name":"医院","address":"龙茗路668号"},{"poiid":"B2094654DA65ABFD429C","title":"闵行区牙病防治所","lon":"121.38829","lat":"31.13391","category":"162","category_name":"医院","address":"古美路"},{"poiid":"B2094757D16DA2FB4193","title":"虹莘小区","lon":"121.39","lat":"31.1364","category":"47","category_name":"住宅区","address":"虹莘路1551弄、虹莘路1701弄"},{"poiid":"B2094655D36CA6FC429B","title":"古美西路龙茗路","lon":"121.38907","lat":"31.13214","category":"38","category_name":"公交车站","address":""},{"poiid":"B2094757D068A1F5439E","title":"龙之道保健养生会所(龙茗路店)","lon":"121.38668","lat":"31.1381","category":"149","category_name":"洗浴推拿场所","address":"闵行区龙茗路1025号(近顾戴路)"},{"poiid":"B2094750DA64A6FD429C","title":"泰煌鸡 龙茗路店","lon":"121.388916","lat":"31.134677","category":"68","category_name":"快餐厅","address":"闵行区龙茗路(近平阳路)"},{"poiid":"B2094654DB65A3FF479F","title":"鸿发家园","lon":"121.38557","lat":"31.130638","category":"47","category_name":"住宅区","address":"古美西路899弄"},{"poiid":"B2094654DA65ABFC459C","title":"春江锦庐(南门)","lon":"121.3867","lat":"31.13176","category":"48","category_name":"楼宇大门","address":"古美西路752弄"},{"poiid":"B2094654DB64A6FA459C","title":"棒约翰比萨 龙茗店 Papa John's Pizza","lon":"121.38652951858","lat":"31.138571761299","category":"94","category_name":"西餐厅","address":"闵行区龙茗路1048号113单元(近顾戴路)"},{"poiid":"B2094757D069A5FF469E","title":"组合发型(龙茗店)","lon":"121.38721","lat":"31.137","category":"148","category_name":"美容美发店","address":"闵行区龙茗路956号(近顾戴路)"},{"poiid":"B2094757D66BA4F8439E","title":"大眼包子 古美店","lon":"121.39308","lat":"31.13328","category":"68","category_name":"快餐厅","address":"闵行区古美西路488号(近合川路)"},{"poiid":"B2094655D268A5F94999","title":"蒙涮一绝","lon":"121.38703582174","lat":"31.135533941805","category":"86","category_name":"火锅店","address":"闵行区龙茗路924号(近平阳路)"},{"poiid":"B2094752D06AA5FB4893","title":"望湘园","lon":"121.395923","lat":"31.133692","category":"247","category_name":"餐饮美食","address":"南方商城"},{"poiid":"B2094757D56EA3FA4692","title":"喜德棒","lon":"121.388386","lat":"31.133593","category":"247","category_name":"餐饮美食","address":"龙茗路685号"},{"poiid":"B2094753D469A2F4429A","title":"上海新天地","lon":"121.390258","lat":"31.135391","category":"500","category_name":"未知分类","address":"上海市 卢湾区 马当路"},{"poiid":"B2094757D66EA0F5469E","title":"麻府料理","lon":"121.38947485","lat":"31.136326089","category":"96","category_name":"韩国料理","address":"闵行区龙茗路948号"},{"poiid":"B2094752D26BAAFA409A","title":"炭路者","lon":"121.386977","lat":"31.136691","category":"247","category_name":"餐饮美食","address":"龙茗路991号"},{"poiid":"B2094654DA65ABFD429D","title":"古美社区卫生服务中心口腔门诊","lon":"121.38829","lat":"31.13391","category":"162","category_name":"医院","address":""},{"poiid":"B2094757D16CAAF94298","title":"华联超市(平阳路店)","lon":"121.38838","lat":"31.13365","category":"118","category_name":"超级市场","address":"闵行区龙茗路668号(近平阳路)"},{"poiid":"B2094757D16FA3FC429F","title":"平阳小学羽毛球馆","lon":"121.39082","lat":"31.13536","category":"220","category_name":"运动场所","address":"上海闵行区古美西路628弄177号  "},{"poiid":"B2094752D66CA1FC409A","title":"JOJO甜品屋","lon":"121.388356","lat":"31.134777","category":"247","category_name":"餐饮美食","address":"杨浦区河间路883号（靠近隆昌路）"},{"poiid":"B2094757D66EAAF5469D","title":"平阳小学","lon":"121.38878375","lat":"31.132409111","category":"56","category_name":"小学","address":"闵行区古美西路628弄177号"},{"poiid":"B2094757D16DA4FD4392","title":"地铁一号线锦江乐园站","lon":"121.384650857","lat":"31.1337760386","category":"500","category_name":"未知分类","address":"上海地铁一号线锦江乐园站"},{"poiid":"B2094752DB6BAAFD4098","title":"晶杰苑","lon":"121.388634","lat":"31.135178","category":"47","category_name":"住宅区","address":"上海市 闵行区古美西路399弄"},{"poiid":"B2094757D169A5F54093","title":"天梯","lon":"121.390098857","lat":"31.1345750546","category":"607","category_name":"一般景点","address":null},{"poiid":"B2094751DB64A7FA4993","title":"仕全烧烤","lon":"121.38755","lat":"31.13668","category":"68","category_name":"快餐厅","address":"闵行区龙茗路974号(近顾戴路)"},{"poiid":"B2094757D06AA2FD439A","title":"Easy厨房","lon":"121.38733","lat":"31.13795","category":"249","category_name":"购物服务","address":"上海闵行区龙茗路1006号(近顾戴路)  "},{"poiid":"B2094757D06FAAFE419E","title":"藏乐汤坊(龙茗店)","lon":"121.38731","lat":"31.13775","category":"72","category_name":"广东菜","address":"闵行区龙茗路990号十尚坊(近顾戴路)"},{"poiid":"B2094655D26EA5FE429F","title":"甜蜜蜜 龙茗路店","lon":"121.38678855714","lat":"31.135898951461","category":"67","category_name":"甜品店","address":"闵行区龙茗路975号(近顾戴路)"},{"poiid":"B2094757D068A6FF419D","title":"古美社区卫生服务中心","lon":"121.388386","lat":"31.133593","category":"162","category_name":"医院","address":"闵行区龙茗路668号"},{"poiid":"B2094757D06FAAFF449B","title":"东北人 龙茗路店","lon":"121.386900054","lat":"31.137288793","category":"82","category_name":"东北菜","address":"闵行区龙茗路974号(近顾戴路)"},{"poiid":"B2094757D068A1FE4093","title":"必胜客(龙茗路店)","lon":"121.38696","lat":"31.13832","category":"94","category_name":"西餐厅","address":"闵行区龙茗路1024号(近顾戴路)"},{"poiid":"B2094757D66BABFF4193","title":"700啤酒屋 龙茗路店","lon":"121.38724","lat":"31.13662","category":"260","category_name":"其他","address":"闵行区龙茗路950号(近顾戴路)"},{"poiid":"B2094654DB6AA3FA4298","title":"澳门街","lon":"121.38642","lat":"31.13805","category":"260","category_name":"其他","address":"闵行区龙茗路1015号(近顾戴路)"},{"poiid":"B2094757D069A1FE4499","title":"肯德基 龙茗店 KFC","lon":"121.386409054","lat":"31.138955793","category":"68","category_name":"快餐厅","address":"闵行区龙茗路1048号(近顾戴路)"},{"poiid":"B2094757D06AA0FC4692","title":"江南星城","lon":"121.38666328","lat":"31.135541357","category":"500","category_name":"未知分类","address":"上海顾戴路1325弄"},{"poiid":"B2094654DA65ABFD449C","title":"吉亨面馆 龙茗路店","lon":"121.386076054","lat":"31.137458793","category":"68","category_name":"快餐厅","address":"闵行区龙茗路991号(近顾戴路)"},{"poiid":"B2094757D068A6FD4192","title":"徽珍源(龙茗路店)","lon":"121.38724","lat":"31.1359","category":"260","category_name":"其他","address":"上海闵行区龙茗路975号十尚坊901-902单元(近顾戴路)  "},{"poiid":"B2094655D26EA7FF439C","title":"东方御花园(古美西路)","lon":"121.38706","lat":"31.13092","category":"47","category_name":"住宅区","address":"上海市闵行区龙茗路513弄"},{"poiid":"B2094655D26DA7F5499F","title":"古美西路420弄(南门)","lon":"121.39441","lat":"31.13351","category":"47","category_name":"住宅区","address":""},{"poiid":"B2094654DB64A2FB4292","title":"江南星城纯翠江南","lon":"121.38859667","lat":"31.13741333","category":"47","category_name":"住宅区","address":"顾戴路1199弄"},{"poiid":"B2094757D069A1F54793","title":"双拥公园","lon":"121.38729636","lat":"31.1347390364","category":"196","category_name":"公园","address":"闵行区古美路(近龙茗路)"},{"poiid":"B2094757D069A7FA499F","title":"味千拉面 龙茗路店","lon":"121.386865054","lat":"31.138706793","category":"95","category_name":"日本料理","address":"闵行区龙茗路1048号112单元1楼(近顾戴路)"},{"poiid":"B2094757D069AAFA419C","title":"禾绿寿司(龙茗路店)","lon":"121.38791","lat":"31.13555","category":"95","category_name":"日本料理","address":"闵行区龙茗路924号702单元(近平阳路)"},{"poiid":"B2094655D26AA4FC429F","title":"干锅居十尚坊店","lon":"121.38762","lat":"31.1359","category":"83","category_name":"云贵菜","address":"闵行区龙茗路924号701单元(近平阳路)"},{"poiid":"B2094654DA65ABFD449D","title":"红辣椒牛蛙馆","lon":"121.386487054","lat":"31.136871793","category":"71","category_name":"四川菜","address":"闵行区龙茗路999号(近顾戴路)"},{"poiid":"B2094757D068ABFE4393","title":"珊珊小笼馆(古美西路店)","lon":"121.39406","lat":"31.13301","category":"68","category_name":"快餐厅","address":"闵行区古美西路378号(万源路合川路间)"},{"poiid":"B2094655D26FA6FF439E","title":"平阳绿家园","lon":"121.39111","lat":"31.130379","category":"47","category_name":"住宅区","address":"平阳绿家园位于闵行龙茗路888号顾戴路口"},{"poiid":"B2094757D069A6FD449D","title":"85度C(龙茗二店)","lon":"121.38648941","lat":"31.13741984","category":"67","category_name":"甜品店","address":"闵行区龙茗路1045号(近顾戴路)"},{"poiid":"B2094751D264ABFB4099","title":"上海复旦附属儿童医院","lon":"121.3904266","lat":"31.1343416","category":"162","category_name":"医院","address":null},{"poiid":"B2094654DB64ABF9419B","title":"上海市闵行区古美路地段医院","lon":"121.38838","lat":"31.13359","category":"162","category_name":"医院","address":"龙茗路668号"},{"poiid":"B2094654DA65ABFD429C","title":"闵行区牙病防治所","lon":"121.38829","lat":"31.13391","category":"162","category_name":"医院","address":"古美路"},{"poiid":"B2094757D16DA2FB4193","title":"虹莘小区","lon":"121.39","lat":"31.1364","category":"47","category_name":"住宅区","address":"虹莘路1551弄、虹莘路1701弄"},{"poiid":"B2094655D36CA6FC429B","title":"古美西路龙茗路","lon":"121.38907","lat":"31.13214","category":"38","category_name":"公交车站","address":""},{"poiid":"B2094757D068A1F5439E","title":"龙之道保健养生会所(龙茗路店)","lon":"121.38668","lat":"31.1381","category":"149","category_name":"洗浴推拿场所","address":"闵行区龙茗路1025号(近顾戴路)"},{"poiid":"B2094750DA64A6FD429C","title":"泰煌鸡 龙茗路店","lon":"121.388916","lat":"31.134677","category":"68","category_name":"快餐厅","address":"闵行区龙茗路(近平阳路)"},{"poiid":"B2094654DB65A3FF479F","title":"鸿发家园","lon":"121.38557","lat":"31.130638","category":"47","category_name":"住宅区","address":"古美西路899弄"},{"poiid":"B2094654DA65ABFC459C","title":"春江锦庐(南门)","lon":"121.3867","lat":"31.13176","category":"48","category_name":"楼宇大门","address":"古美西路752弄"},{"poiid":"B2094654DB64A6FA459C","title":"棒约翰比萨 龙茗店 Papa John's Pizza","lon":"121.38652951858","lat":"31.138571761299","category":"94","category_name":"西餐厅","address":"闵行区龙茗路1048号113单元(近顾戴路)"},{"poiid":"B2094757D069A5FF469E","title":"组合发型(龙茗店)","lon":"121.38721","lat":"31.137","category":"148","category_name":"美容美发店","address":"闵行区龙茗路956号(近顾戴路)"},{"poiid":"B2094757D66BA4F8439E","title":"大眼包子 古美店","lon":"121.39308","lat":"31.13328","category":"68","category_name":"快餐厅","address":"闵行区古美西路488号(近合川路)"},{"poiid":"B2094655D268A5F94999","title":"蒙涮一绝","lon":"121.38703582174","lat":"31.135533941805","category":"86","category_name":"火锅店","address":"闵行区龙茗路924号(近平阳路)"},{"poiid":"B2094752D06AA5FB4893","title":"望湘园","lon":"121.395923","lat":"31.133692","category":"247","category_name":"餐饮美食","address":"南方商城"},{"poiid":"B2094757D56EA3FA4692","title":"喜德棒","lon":"121.388386","lat":"31.133593","category":"247","category_name":"餐饮美食","address":"龙茗路685号"},{"poiid":"B2094753D469A2F4429A","title":"上海新天地","lon":"121.390258","lat":"31.135391","category":"500","category_name":"未知分类","address":"上海市 卢湾区 马当路"},{"poiid":"B2094757D66EA0F5469E","title":"麻府料理","lon":"121.38947485","lat":"31.136326089","category":"96","category_name":"韩国料理","address":"闵行区龙茗路948号"},{"poiid":"B2094752D26BAAFA409A","title":"炭路者","lon":"121.386977","lat":"31.136691","category":"247","category_name":"餐饮美食","address":"龙茗路991号"},{"poiid":"B2094654DA65ABFD429D","title":"古美社区卫生服务中心口腔门诊","lon":"121.38829","lat":"31.13391","category":"162","category_name":"医院","address":""},{"poiid":"B2094757D16CAAF94298","title":"华联超市(平阳路店)","lon":"121.38838","lat":"31.13365","category":"118","category_name":"超级市场","address":"闵行区龙茗路668号(近平阳路)"},{"poiid":"B2094757D16FA3FC429F","title":"平阳小学羽毛球馆","lon":"121.39082","lat":"31.13536","category":"220","category_name":"运动场所","address":"上海闵行区古美西路628弄177号  "},{"poiid":"B2094752D66CA1FC409A","title":"JOJO甜品屋","lon":"121.388356","lat":"31.134777","category":"247","category_name":"餐饮美食","address":"杨浦区河间路883号（靠近隆昌路）"},{"poiid":"B2094757D66EAAF5469D","title":"平阳小学","lon":"121.38878375","lat":"31.132409111","category":"56","category_name":"小学","address":"闵行区古美西路628弄177号"},{"poiid":"B2094757D16DA4FD4392","title":"地铁一号线锦江乐园站","lon":"121.384650857","lat":"31.1337760386","category":"500","category_name":"未知分类","address":"上海地铁一号线锦江乐园站"},{"poiid":"B2094752DB6BAAFD4098","title":"晶杰苑","lon":"121.388634","lat":"31.135178","category":"47","category_name":"住宅区","address":"上海市 闵行区古美西路399弄"},{"poiid":"B2094757D169A5F54093","title":"天梯","lon":"121.390098857","lat":"31.1345750546","category":"607","category_name":"一般景点","address":null},{"poiid":"B2094751DB64A7FA4993","title":"仕全烧烤","lon":"121.38755","lat":"31.13668","category":"68","category_name":"快餐厅","address":"闵行区龙茗路974号(近顾戴路)"},{"poiid":"B2094757D06AA2FD439A","title":"Easy厨房","lon":"121.38733","lat":"31.13795","category":"249","category_name":"购物服务","address":"上海闵行区龙茗路1006号(近顾戴路)  "}]