[{"poiid":"B2094655D26AA0F9429B","title":"地铁赤峰路站","lon":"121.48244","lat":"31.28187","category":"36","category_name":"地铁站","address":""},{"poiid":"B2094757D06FA3F4449A","title":"建工医院","lon":"121.48387096","lat":"31.284304808","category":"162","category_name":"医院","address":"虹口区中山北一路666号(中山北二路口)"},{"poiid":"B2094757D06FA4FD409B","title":"藏乐汤坊(赤峰路店)","lon":"121.48733","lat":"31.28201","category":"72","category_name":"广东菜","address":"虹口区赤峰路445号(近东体育会路)"},{"poiid":"B2094757D06FA0FB439C","title":"肯德基 KFC (赤峰店)","lon":"121.48240358","lat":"31.281928987","category":"68","category_name":"快餐厅","address":"虹口区中山北二路赤峰路轻轨站1楼(近广灵二路)"},{"poiid":"B2094757D06AABFC479B","title":"赤峰路","lon":"121.4873181","lat":"31.28229667","category":"500","category_name":"未知分类","address":"上海赤峰路曲阳路"},{"poiid":"B2094757D06FA0FC429F","title":"呷哺呷哺","lon":"121.482597","lat":"31.280947","category":"86","category_name":"火锅店","address":"虹口区轨道3号线赤峰路站1楼CS109商铺(近玉田路)"},{"poiid":"B2094757D06BA2F54092","title":"中科院上海技术物理研究所","lon":"121.485429","lat":"31.280646","category":"46","category_name":"楼宇","address":"上海玉田路500号"},{"poiid":"B2094757D068A6FA479D","title":"洪家","lon":"121.485232054","lat":"31.282763793","category":"96","category_name":"韩国料理","address":"虹口区赤峰路630号南雁大厦1楼(近地铁3号线)"},{"poiid":"B2094654DB65A6F8419E","title":"巴贝拉意式餐厅(赤峰路店)","lon":"121.4826","lat":"31.28142","category":"98","category_name":"意式菜品餐厅","address":"虹口区轨道三号线赤峰路站(玉田路中山北一路)"},{"poiid":"B2094655D264A1F94593","title":"辛元湘菜","lon":"121.482108054","lat":"31.282296793","category":"77","category_name":"湖南菜","address":"虹口区广纪路161号(近轨交三号线赤峰路站)"},{"poiid":"B2094757D068A2FF479F","title":"巴麦隆烤肉(虹口店)","lon":"121.48625","lat":"31.27947","category":"68","category_name":"快餐厅","address":"虹口区东体育会路442号(近玉田路)"},{"poiid":"B2094654D56DA7FC419E","title":"上海荣臣机动车驾驶员培训有限公司","lon":"121.48899","lat":"31.28274","category":"192","category_name":"驾校","address":"赤峰路384"},{"poiid":"B2094757D168A5F8499B","title":"内环高架(广灵四路上匝道)","lon":"121.485395403","lat":"31.2859354465","category":"500","category_name":"未知分类","address":"上海中山北一路广灵四路"},{"poiid":"B2094757D068ABFF459D","title":"味千拉面(赤峰路店)","lon":"121.48233796","lat":"31.281915689","category":"95","category_name":"日本料理","address":"虹口区广纪路91号1-3楼(近三号线赤峰路站)"},{"poiid":"B2094750D26AA2FB4199","title":"牛排哈特","lon":"121.4866","lat":"31.2795","category":"94","category_name":"西餐厅","address":"虹口区玉田路433号(东体育会路口)"},{"poiid":"B2094757D068A3FF4193","title":"永和大王(赤峰路店)","lon":"121.48305","lat":"31.28149","category":"68","category_name":"快餐厅","address":"上海虹口区地铁三号线赤峰路站1号口1楼(近中山北一路)  "},{"poiid":"B2094654D56DA7FD479F","title":"南雁大厦","lon":"121.48448","lat":"31.28269","category":"46","category_name":"楼宇","address":"浦东区丁香路716号"},{"poiid":"B2094654DB6BA3FF4092","title":"锦江之星(赤峰路店)","lon":"121.48233","lat":"31.28301","category":"216","category_name":"经济型连锁酒店","address":"上海虹口区广纪路127号(近中山北一路)"},{"poiid":"B2094655D264AAFA439E","title":"置汇谷","lon":"121.48751","lat":"31.28348","category":"45","category_name":"产业园区","address":"虹口区东体育会路860号(近赤峰路)"},{"poiid":"B2094757D06AA0FC4393","title":"粤来粤好","lon":"121.48658584","lat":"31.28156854","category":"72","category_name":"广东菜","address":"虹口区赤峰路455号"},{"poiid":"B2094757D064A3FF4198","title":"玉田町","lon":"121.48629","lat":"31.27993","category":"95","category_name":"日本料理","address":"虹口区东体育会路434号(东体育会路玉田路)"},{"poiid":"B2094654D56CA1FD4298","title":"东体小区","lon":"121.48866","lat":"31.280397","category":"47","category_name":"住宅区","address":"上海虹口区玉田路400弄"},{"poiid":"B2094757D065A7FB4893","title":"m coffee","lon":"121.483857103","lat":"31.2802866284","category":"94","category_name":"西餐厅","address":"虹口区玉田路551号(近赤峰路轻轨站)"},{"poiid":"B2094750DA64A1F44693","title":"满溢庭酒楼","lon":"121.485984","lat":"31.282419","category":"71","category_name":"四川菜","address":"虹口区赤峰路455号(近3号赤峰路站)"},{"poiid":"B2094654D56DA7FC479A","title":"赤峰路626弄小区","lon":"121.48508","lat":"31.28316","category":"47","category_name":"住宅区","address":"赤峰路626弄"},{"poiid":"B2094655D36CA5FE4793","title":"赤峰路中山北一路","lon":"121.48495","lat":"31.28246","category":"38","category_name":"公交车站","address":""},{"poiid":"B2094757D568A5FF4398","title":"好客堡美食城","lon":"121.48619439","lat":"31.28224826","category":"68","category_name":"快餐厅","address":"虹口区赤峰路455号(近东体育会路)"},{"poiid":"B2094655D26FA0FC4192","title":"中国电信赤峰路营业厅","lon":"121.48599","lat":"31.28258","category":"151","category_name":"电讯营业厅","address":"赤峰路606号"},{"poiid":"B2094751DA6BA0F4429A","title":"沈家门海鲜","lon":"121.486206","lat":"31.282028","category":"247","category_name":"餐饮美食","address":"虹口区赤峰路455号(近中山北一路)"},{"poiid":"B2094654DB69A4FE429C","title":"莫泰168连锁旅店(赤峰路店)","lon":"121.48227","lat":"31.28243","category":"216","category_name":"经济型连锁酒店","address":"上海市虹口区广灵二路5号（近中山北一路）"},{"poiid":"B2094654DB6AAAFF4898","title":"永琪美容美发(赤峰路)","lon":"121.48663","lat":"31.28219","category":"148","category_name":"美容美发店","address":"虹口区赤峰路445号(东体育会路口)"},{"poiid":"B2094654DB6AAAFF489A","title":"上外宾馆","lon":"121.483239054","lat":"31.281999793","category":"217","category_name":"旅馆招待所","address":"虹口区赤峰路555号(近中山北一路)"},{"poiid":"B2094757D069ABFE4793","title":"国兰面菜馆","lon":"121.48407984","lat":"31.281822548","category":"68","category_name":"快餐厅","address":"虹口区赤峰路630号南雁大厦内(近地铁3号线)"},{"poiid":"B2094757D069A3F84192","title":"韩美味","lon":"121.48281","lat":"31.28358","category":"96","category_name":"韩国料理","address":"虹口区广纪路179号圣达商务楼1楼(近3号线赤峰路站)"},{"poiid":"B2094757D16EA0FE4693","title":"上海外国语大学出国人员培训部","lon":"121.485138103","lat":"31.2806516361","category":"500","category_name":"未知分类","address":"上海市虹口区东体育会路410号"},{"poiid":"B2094757D06FAAFB4698","title":"随意点桌球","lon":"121.4825573","lat":"31.284010106","category":"248","category_name":"生活娱乐","address":"虹口区广纪路167号3楼(近三号线赤峰路站)"},{"poiid":"B2094654DB65AAF5459A","title":"吉联大厦","lon":"121.48264469059","lat":"31.282662189713","category":"46","category_name":"楼宇","address":"朝阳华威桥东北角"},{"poiid":"B2094654D56DA7FC469D","title":"绮杰美容美发","lon":"121.48567","lat":"31.28258","category":"148","category_name":"美容美发店","address":"虹口区赤峰路608号(近中山北一路)"},{"poiid":"B2094757D06BA0F8439A","title":"木屋北大荒人","lon":"121.486101487","lat":"31.2794370396","category":"82","category_name":"东北菜","address":"虹口区东体育会路427号(近玉田路)"},{"poiid":"B2094757D06BABFF489F","title":"正记香辣蟹","lon":"121.48314715","lat":"31.284333463","category":"71","category_name":"四川菜","address":"虹口区广纪路153号(近广灵二路)"},{"poiid":"B2094654D56DA7FC4699","title":"邮电二村","lon":"121.48679","lat":"31.283012","category":"47","category_name":"住宅区","address":"赤峰路600弄1-9号"},{"poiid":"B2094654D56CA1FF4093","title":"科峰公寓(北门)","lon":"121.48535","lat":"31.28225","category":"47","category_name":"住宅区","address":"赤峰路501弄"},{"poiid":"B2094655D26CA1FD439A","title":"广中路25弄小区","lon":"121.486","lat":"31.2817","category":"47","category_name":"住宅区","address":"广中路25弄1-12号"},{"poiid":"B2094654DB6AAAFF4899","title":"罗森(优豪商务酒店西)","lon":"121.48673","lat":"31.2822","category":"117","category_name":"便民商店/便利店","address":""},{"poiid":"B2094757DA6FA3FE479A","title":"顶旺生煎","lon":"121.484091281889","lat":"31.2825303096372","category":"68","category_name":"快餐厅","address":"虹口区赤峰路(近中山北一路)"},{"poiid":"B2094654D56CA1FF419A","title":"科峰公寓","lon":"121.48538","lat":"31.281752","category":"47","category_name":"住宅区","address":"赤峰路501弄"},{"poiid":"B2094655D26FA7F9479A","title":"邮电二村(南一门)","lon":"121.48624","lat":"31.28259","category":"656","category_name":"大门","address":"赤峰路600弄1-9号"},{"poiid":"B2094655D26CA1FC499D","title":"广中路45弄","lon":"121.486","lat":"31.2818","category":"47","category_name":"住宅区","address":"广中路45弄1-6号"},{"poiid":"B2094654D56DA7FC479B","title":"赤峰路626弄小区(南门)","lon":"121.48476","lat":"31.28263","category":"47","category_name":"住宅区","address":"赤峰路626弄"},{"poiid":"B2094757D46FAAF44299","title":"同宜阁老北京羊蝎子火锅","lon":"121.482155054","lat":"31.282976793","category":"86","category_name":"火锅店","address":"虹口区广纪路157号(近赤峰路轻轨站)"},{"poiid":"B2094655D26AA0F9429B","title":"地铁赤峰路站","lon":"121.48244","lat":"31.28187","category":"36","category_name":"地铁站","address":""},{"poiid":"B2094757D06FA3F4449A","title":"建工医院","lon":"121.48387096","lat":"31.284304808","category":"162","category_name":"医院","address":"虹口区中山北一路666号(中山北二路口)"},{"poiid":"B2094757D06FA4FD409B","title":"藏乐汤坊(赤峰路店)","lon":"121.48733","lat":"31.28201","category":"72","category_name":"广东菜","address":"虹口区赤峰路445号(近东体育会路)"},{"poiid":"B2094757D06FA0FB439C","title":"肯德基 KFC (赤峰店)","lon":"121.48240358","lat":"31.281928987","category":"68","category_name":"快餐厅","address":"虹口区中山北二路赤峰路轻轨站1楼(近广灵二路)"},{"poiid":"B2094757D06AABFC479B","title":"赤峰路","lon":"121.4873181","lat":"31.28229667","category":"500","category_name":"未知分类","address":"上海赤峰路曲阳路"},{"poiid":"B2094757D06FA0FC429F","title":"呷哺呷哺","lon":"121.482597","lat":"31.280947","category":"86","category_name":"火锅店","address":"虹口区轨道3号线赤峰路站1楼CS109商铺(近玉田路)"},{"poiid":"B2094757D06BA2F54092","title":"中科院上海技术物理研究所","lon":"121.485429","lat":"31.280646","category":"46","category_name":"楼宇","address":"上海玉田路500号"},{"poiid":"B2094757D068A6FA479D","title":"洪家","lon":"121.485232054","lat":"31.282763793","category":"96","category_name":"韩国料理","address":"虹口区赤峰路630号南雁大厦1楼(近地铁3号线)"},{"poiid":"B2094654DB65A6F8419E","title":"巴贝拉意式餐厅(赤峰路店)","lon":"121.4826","lat":"31.28142","category":"98","category_name":"意式菜品餐厅","address":"虹口区轨道三号线赤峰路站(玉田路中山北一路)"},{"poiid":"B2094655D264A1F94593","title":"辛元湘菜","lon":"121.482108054","lat":"31.282296793","category":"77","category_name":"湖南菜","address":"虹口区广纪路161号(近轨交三号线赤峰路站)"},{"poiid":"B2094757D068A2FF479F","title":"巴麦隆烤肉(虹口店)","lon":"121.48625","lat":"31.27947","category":"68","category_name":"快餐厅","address":"虹口区东体育会路442号(近玉田路)"},{"poiid":"B2094654D56DA7FC419E","title":"上海荣臣机动车驾驶员培训有限公司","lon":"121.48899","lat":"31.28274","category":"192","category_name":"驾校","address":"赤峰路384"},{"poiid":"B2094757D168A5F8499B","title":"内环高架(广灵四路上匝道)","lon":"121.485395403","lat":"31.2859354465","category":"500","category_name":"未知分类","address":"上海中山北一路广灵四路"},{"poiid":"B2094757D068ABFF459D","title":"味千拉面(赤峰路店)","lon":"121.48233796","lat":"31.281915689","category":"95","category_name":"日本料理","address":"虹口区广纪路91号1-3楼(近三号线赤峰路站)"},{"poiid":"B2094750D26AA2FB4199","title":"牛排哈特","lon":"121.4866","lat":"31.2795","category":"94","category_name":"西餐厅","address":"虹口区玉田路433号(东体育会路口)"},{"poiid":"B2094757D068A3FF4193","title":"永和大王(赤峰路店)","lon":"121.48305","lat":"31.28149","category":"68","category_name":"快餐厅","address":"上海虹口区地铁三号线赤峰路站1号口1楼(近中山北一路)  "},{"poiid":"B2094654D56DA7FD479F","title":"南雁大厦","lon":"121.48448","lat":"31.28269","category":"46","category_name":"楼宇","address":"浦东区丁香路716号"},{"poiid":"B2094654DB6BA3FF4092","title":"锦江之星(赤峰路店)","lon":"121.48233","lat":"31.28301","category":"216","category_name":"经济型连锁酒店","address":"上海虹口区广纪路127号(近中山北一路)"},{"poiid":"B2094655D264AAFA439E","title":"置汇谷","lon":"121.48751","lat":"31.28348","category":"45","category_name":"产业园区","address":"虹口区东体育会路860号(近赤峰路)"},{"poiid":"B2094757D06AA0FC4393","title":"粤来粤好","lon":"121.48658584","lat":"31.28156854","category":"72","category_name":"广东菜","address":"虹口区赤峰路455号"},{"poiid":"B2094757D064A3FF4198","title":"玉田町","lon":"121.48629","lat":"31.27993","category":"95","category_name":"日本料理","address":"虹口区东体育会路434号(东体育会路玉田路)"},{"poiid":"B2094654D56CA1FD4298","title":"东体小区","lon":"121.48866","lat":"31.280397","category":"47","category_name":"住宅区","address":"上海虹口区玉田路400弄"},{"poiid":"B2094757D065A7FB4893","title":"m coffee","lon":"121.483857103","lat":"31.2802866284","category":"94","category_name":"西餐厅","address":"虹口区玉田路551号(近赤峰路轻轨站)"},{"poiid":"B2094750DA64A1F44693","title":"满溢庭酒楼","lon":"121.485984","lat":"31.282419","category":"71","category_name":"四川菜","address":"虹口区赤峰路455号(近3号赤峰路站)"},{"poiid":"B2094654D56DA7FC479A","title":"赤峰路626弄小区","lon":"121.48508","lat":"31.28316","category":"47","category_name":"住宅区","address":"赤峰路626弄"},{"poiid":"B2094655D36CA5FE4793","title":"赤峰路中山北一路","lon":"121.48495","lat":"31.28246","category":"38","category_name":"公交车站","address":""},{"poiid":"B2094757D568A5FF4398","title":"好客堡美食城","lon":"121.48619439","lat":"31.28224826","category":"68","category_name":"快餐厅","address":"虹口区赤峰路455号(近东体育会路)"},{"poiid":"B2094655D26FA0FC4192","title":"中国电信赤峰路营业厅","lon":"121.48599","lat":"31.28258","category":"151","category_name":"电讯营业厅","address":"赤峰路606号"},{"poiid":"B2094751DA6BA0F4429A","title":"沈家门海鲜","lon":"121.486206","lat":"31.282028","category":"247","category_name":"餐饮美食","address":"虹口区赤峰路455号(近中山北一路)"},{"poiid":"B2094654DB69A4FE429C","title":"莫泰168连锁旅店(赤峰路店)","lon":"121.48227","lat":"31.28243","category":"216","category_name":"经济型连锁酒店","address":"上海市虹口区广灵二路5号（近中山北一路）"},{"poiid":"B2094654DB6AAAFF4898","title":"永琪美容美发(赤峰路)","lon":"121.48663","lat":"31.28219","category":"148","category_name":"美容美发店","address":"虹口区赤峰路445号(东体育会路口)"},{"poiid":"B2094654DB6AAAFF489A","title":"上外宾馆","lon":"121.483239054","lat":"31.281999793","category":"217","category_name":"旅馆招待所","address":"虹口区赤峰路555号(近中山北一路)"},{"poiid":"B2094757D069ABFE4793","title":"国兰面菜馆","lon":"121.48407984","lat":"31.281822548","category":"68","category_name":"快餐厅","address":"虹口区赤峰路630号南雁大厦内(近地铁3号线)"},{"poiid":"B2094757D069A3F84192","title":"韩美味","lon":"121.48281","lat":"31.28358","category":"96","category_name":"韩国料理","address":"虹口区广纪路179号圣达商务楼1楼(近3号线赤峰路站)"},{"poiid":"B2094757D16EA0FE4693","title":"上海外国语大学出国人员培训部","lon":"121.485138103","lat":"31.2806516361","category":"500","category_name":"未知分类","address":"上海市虹口区东体育会路410号"},{"poiid":"B2094757D06FAAFB4698","title":"随意点桌球","lon":"121.4825573","lat":"31.284010106","category":"248","category_name":"生活娱乐","address":"虹口区广纪路167号3楼(近三号线赤峰路站)"},{"poiid":"B2094654DB65AAF5459A","title":"吉联大厦","lon":"121.48264469059","lat":"31.282662189713","category":"46","category_name":"楼宇","address":"朝阳华威桥东北角"},{"poiid":"B2094654D56DA7FC469D","title":"绮杰美容美发","lon":"121.48567","lat":"31.28258","category":"148","category_name":"美容美发店","address":"虹口区赤峰路608号(近中山北一路)"},{"poiid":"B2094757D06BA0F8439A","title":"木屋北大荒人","lon":"121.486101487","lat":"31.2794370396","category":"82","category_name":"东北菜","address":"虹口区东体育会路427号(近玉田路)"},{"poiid":"B2094757D06BABFF489F","title":"正记香辣蟹","lon":"121.48314715","lat":"31.284333463","category":"71","category_name":"四川菜","address":"虹口区广纪路153号(近广灵二路)"},{"poiid":"B2094654D56DA7FC4699","title":"邮电二村","lon":"121.48679","lat":"31.283012","category":"47","category_name":"住宅区","address":"赤峰路600弄1-9号"},{"poiid":"B2094654D56CA1FF4093","title":"科峰公寓(北门)","lon":"121.48535","lat":"31.28225","category":"47","category_name":"住宅区","address":"赤峰路501弄"},{"poiid":"B2094655D26CA1FD439A","title":"广中路25弄小区","lon":"121.486","lat":"31.2817","category":"47","category_name":"住宅区","address":"广中路25弄1-12号"},{"poiid":"B2094654DB6AAAFF4899","title":"罗森(优豪商务酒店西)","lon":"121.48673","lat":"31.2822","category":"117","category_name":"便民商店/便利店","address":""},{"poiid":"B2094757DA6FA3FE479A","title":"顶旺生煎","lon":"121.484091281889","lat":"31.2825303096372","category":"68","category_name":"快餐厅","address":"虹口区赤峰路(近中山北一路)"},{"poiid":"B2094654D56CA1FF419A","title":"科峰公寓","lon":"121.48538","lat":"31.281752","category":"47","category_name":"住宅区","address":"赤峰路501弄"},{"poiid":"B2094655D26FA7F9479A","title":"邮电二村(南一门)","lon":"121.48624","lat":"31.28259","category":"656","category_name":"大门","address":"赤峰路600弄1-9号"},{"poiid":"B2094655D26CA1FC499D","title":"广中路45弄","lon":"121.486","lat":"31.2818","category":"47","category_name":"住宅区","address":"广中路45弄1-6号"},{"poiid":"B2094654D56DA7FC479B","title":"赤峰路626弄小区(南门)","lon":"121.48476","lat":"31.28263","category":"47","category_name":"住宅区","address":"赤峰路626弄"},{"poiid":"B2094757D46FAAF44299","title":"同宜阁老北京羊蝎子火锅","lon":"121.482155054","lat":"31.282976793","category":"86","category_name":"火锅店","address":"虹口区广纪路157号(近赤峰路轻轨站)"},{"poiid":"B2094655D26AA0F9429B","title":"地铁赤峰路站","lon":"121.48244","lat":"31.28187","category":"36","category_name":"地铁站","address":""},{"poiid":"B2094757D06FA3F4449A","title":"建工医院","lon":"121.48387096","lat":"31.284304808","category":"162","category_name":"医院","address":"虹口区中山北一路666号(中山北二路口)"},{"poiid":"B2094757D06FA4FD409B","title":"藏乐汤坊(赤峰路店)","lon":"121.48733","lat":"31.28201","category":"72","category_name":"广东菜","address":"虹口区赤峰路445号(近东体育会路)"},{"poiid":"B2094757D06FA0FB439C","title":"肯德基 KFC (赤峰店)","lon":"121.48240358","lat":"31.281928987","category":"68","category_name":"快餐厅","address":"虹口区中山北二路赤峰路轻轨站1楼(近广灵二路)"},{"poiid":"B2094757D06AABFC479B","title":"赤峰路","lon":"121.4873181","lat":"31.28229667","category":"500","category_name":"未知分类","address":"上海赤峰路曲阳路"},{"poiid":"B2094757D06FA0FC429F","title":"呷哺呷哺","lon":"121.482597","lat":"31.280947","category":"86","category_name":"火锅店","address":"虹口区轨道3号线赤峰路站1楼CS109商铺(近玉田路)"},{"poiid":"B2094757D06BA2F54092","title":"中科院上海技术物理研究所","lon":"121.485429","lat":"31.280646","category":"46","category_name":"楼宇","address":"上海玉田路500号"},{"poiid":"B2094757D068A6FA479D","title":"洪家","lon":"121.485232054","lat":"31.282763793","category":"96","category_name":"韩国料理","address":"虹口区赤峰路630号南雁大厦1楼(近地铁3号线)"},{"poiid":"B2094654DB65A6F8419E","title":"巴贝拉意式餐厅(赤峰路店)","lon":"121.4826","lat":"31.28142","category":"98","category_name":"意式菜品餐厅","address":"虹口区轨道三号线赤峰路站(玉田路中山北一路)"},{"poiid":"B2094655D264A1F94593","title":"辛元湘菜","lon":"121.482108054","lat":"31.282296793","category":"77","category_name":"湖南菜","address":"虹口区广纪路161号(近轨交三号线赤峰路站)"},{"poiid":"B2094757D068A2FF479F","title":"巴麦隆烤肉(虹口店)","lon":"121.48625","lat":"31.27947","category":"68","category_name":"快餐厅","address":"虹口区东体育会路442号(近玉田路)"},{"poiid":"B2094654D56DA7FC419E","title":"上海荣臣机动车驾驶员培训有限公司","lon":"121.48899","lat":"31.28274","category":"192","category_name":"驾校","address":"赤峰路384"},{"poiid":"B2094757D168A5F8499B","title":"内环高架(广灵四路上匝道)","lon":"121.485395403","lat":"31.2859354465","category":"500","category_name":"未知分类","address":"上海中山北一路广灵四路"},{"poiid":"B2094757D068ABFF459D","title":"味千拉面(赤峰路店)","lon":"121.48233796","lat":"31.281915689","category":"95","category_name":"日本料理","address":"虹口区广纪路91号1-3楼(近三号线赤峰路站)"},{"poiid":"B2094750D26AA2FB4199","title":"牛排哈特","lon":"121.4866","lat":"31.2795","category":"94","category_name":"西餐厅","address":"虹口区玉田路433号(东体育会路口)"},{"poiid":"B2094757D068A3FF4193","title":"永和大王(赤峰路店)","lon":"121.48305","lat":"31.28149","category":"68","category_name":"快餐厅","address":"上海虹口区地铁三号线赤峰路站1号口1楼(近中山北一路)  "},{"poiid":"B2094654D56DA7FD479F","title":"南雁大厦","lon":"121.48448","lat":"31.28269","category":"46","category_name":"楼宇","address":"浦东区丁香路716号"},{"poiid":"B2094654DB6BA3FF4092","title":"锦江之星(赤峰路店)","lon":"121.48233","lat":"31.28301","category":"216","category_name":"经济型连锁酒店","address":"上海虹口区广纪路127号(近中山北一路)"},{"poiid":"B2094655D264AAFA439E","title":"置汇谷","lon":"121.48751","lat":"31.28348","category":"45","category_name":"产业园区","address":"虹口区东体育会路860号(近赤峰路)"},{"poiid":"B2094757D06AA0FC4393","title":"粤来粤好","lon":"121.48658584","lat":"31.28156854","category":"72","category_name":"广东菜","address":"虹口区赤峰路455号"},{"poiid":"B2094757D064A3FF4198","title":"玉田町","lon":"121.48629","lat":"31.27993","category":"95","category_name":"日本料理","address":"虹口区东体育会路434号(东体育会路玉田路)"},{"poiid":"B2094654D56CA1FD4298","title":"东体小区","lon":"121.48866","lat":"31.280397","category":"47","category_name":"住宅区","address":"上海虹口区玉田路400弄"},{"poiid":"B2094757D065A7FB4893","title":"m coffee","lon":"121.483857103","lat":"31.2802866284","category":"94","category_name":"西餐厅","address":"虹口区玉田路551号(近赤峰路轻轨站)"},{"poiid":"B2094750DA64A1F44693","title":"满溢庭酒楼","lon":"121.485984","lat":"31.282419","category":"71","category_name":"四川菜","address":"虹口区赤峰路455号(近3号赤峰路站)"},{"poiid":"B2094654D56DA7FC479A","title":"赤峰路626弄小区","lon":"121.48508","lat":"31.28316","category":"47","category_name":"住宅区","address":"赤峰路626弄"},{"poiid":"B2094655D36CA5FE4793","title":"赤峰路中山北一路","lon":"121.48495","lat":"31.28246","category":"38","category_name":"公交车站","address":""},{"poiid":"B2094757D568A5FF4398","title":"好客堡美食城","lon":"121.48619439","lat":"31.28224826","category":"68","category_name":"快餐厅","address":"虹口区赤峰路455号(近东体育会路)"},{"poiid":"B2094655D26FA0FC4192","title":"中国电信赤峰路营业厅","lon":"121.48599","lat":"31.28258","category":"151","category_name":"电讯营业厅","address":"赤峰路606号"},{"poiid":"B2094751DA6BA0F4429A","title":"沈家门海鲜","lon":"121.486206","lat":"31.282028","category":"247","category_name":"餐饮美食","address":"虹口区赤峰路455号(近中山北一路)"},{"poiid":"B2094654DB69A4FE429C","title":"莫泰168连锁旅店(赤峰路店)","lon":"121.48227","lat":"31.28243","category":"216","category_name":"经济型连锁酒店","address":"上海市虹口区广灵二路5号（近中山北一路）"},{"poiid":"B2094654DB6AAAFF4898","title":"永琪美容美发(赤峰路)","lon":"121.48663","lat":"31.28219","category":"148","category_name":"美容美发店","address":"虹口区赤峰路445号(东体育会路口)"},{"poiid":"B2094654DB6AAAFF489A","title":"上外宾馆","lon":"121.483239054","lat":"31.281999793","category":"217","category_name":"旅馆招待所","address":"虹口区赤峰路555号(近中山北一路)"},{"poiid":"B2094757D069ABFE4793","title":"国兰面菜馆","lon":"121.48407984","lat":"31.281822548","category":"68","category_name":"快餐厅","address":"虹口区赤峰路630号南雁大厦内(近地铁3号线)"},{"poiid":"B2094757D069A3F84192","title":"韩美味","lon":"121.48281","lat":"31.28358","category":"96","category_name":"韩国料理","address":"虹口区广纪路179号圣达商务楼1楼(近3号线赤峰路站)"},{"poiid":"B2094757D16EA0FE4693","title":"上海外国语大学出国人员培训部","lon":"121.485138103","lat":"31.2806516361","category":"500","category_name":"未知分类","address":"上海市虹口区东体育会路410号"},{"poiid":"B2094757D06FAAFB4698","title":"随意点桌球","lon":"121.4825573","lat":"31.284010106","category":"248","category_name":"生活娱乐","address":"虹口区广纪路167号3楼(近三号线赤峰路站)"},{"poiid":"B2094654DB65AAF5459A","title":"吉联大厦","lon":"121.48264469059","lat":"31.282662189713","category":"46","category_name":"楼宇","address":"朝阳华威桥东北角"},{"poiid":"B2094654D56DA7FC469D","title":"绮杰美容美发","lon":"121.48567","lat":"31.28258","category":"148","category_name":"美容美发店","address":"虹口区赤峰路608号(近中山北一路)"},{"poiid":"B2094757D06BA0F8439A","title":"木屋北大荒人","lon":"121.486101487","lat":"31.2794370396","category":"82","category_name":"东北菜","address":"虹口区东体育会路427号(近玉田路)"},{"poiid":"B2094757D06BABFF489F","title":"正记香辣蟹","lon":"121.48314715","lat":"31.284333463","category":"71","category_name":"四川菜","address":"虹口区广纪路153号(近广灵二路)"},{"poiid":"B2094654D56DA7FC4699","title":"邮电二村","lon":"121.48679","lat":"31.283012","category":"47","category_name":"住宅区","address":"赤峰路600弄1-9号"},{"poiid":"B2094654D56CA1FF4093","title":"科峰公寓(北门)","lon":"121.48535","lat":"31.28225","category":"47","category_name":"住宅区","address":"赤峰路501弄"},{"poiid":"B2094655D26CA1FD439A","title":"广中路25弄小区","lon":"121.486","lat":"31.2817","category":"47","category_name":"住宅区","address":"广中路25弄1-12号"},{"poiid":"B2094654DB6AAAFF4899","title":"罗森(优豪商务酒店西)","lon":"121.48673","lat":"31.2822","category":"117","category_name":"便民商店/便利店","address":""},{"poiid":"B2094757DA6FA3FE479A","title":"顶旺生煎","lon":"121.484091281889","lat":"31.2825303096372","category":"68","category_name":"快餐厅","address":"虹口区赤峰路(近中山北一路)"},{"poiid":"B2094654D56CA1FF419A","title":"科峰公寓","lon":"121.48538","lat":"31.281752","category":"47","category_name":"住宅区","address":"赤峰路501弄"},{"poiid":"B2094655D26FA7F9479A","title":"邮电二村(南一门)","lon":"121.48624","lat":"31.28259","category":"656","category_name":"大门","address":"赤峰路600弄1-9号"},{"poiid":"B2094655D26CA1FC499D","title":"广中路45弄","lon":"121.486","lat":"31.2818","category":"47","category_name":"住宅区","address":"广中路45弄1-6号"},{"poiid":"B2094654D56DA7FC479B","title":"赤峰路626弄小区(南门)","lon":"121.48476","lat":"31.28263","category":"47","category_name":"住宅区","address":"赤峰路626弄"},{"poiid":"B2094757D46FAAF44299","title":"同宜阁老北京羊蝎子火锅","lon":"121.482155054","lat":"31.282976793","category":"86","category_name":"火锅店","address":"虹口区广纪路157号(近赤峰路轻轨站)"},{"poiid":"B2094655D26AA0F9429B","title":"地铁赤峰路站","lon":"121.48244","lat":"31.28187","category":"36","category_name":"地铁站","address":""},{"poiid":"B2094757D06FA3F4449A","title":"建工医院","lon":"121.48387096","lat":"31.284304808","category":"162","category_name":"医院","address":"虹口区中山北一路666号(中山北二路口)"},{"poiid":"B2094757D06FA4FD409B","title":"藏乐汤坊(赤峰路店)","lon":"121.48733","lat":"31.28201","category":"72","category_name":"广东菜","address":"虹口区赤峰路445号(近东体育会路)"},{"poiid":"B2094757D06FA0FB439C","title":"肯德基 KFC (赤峰店)","lon":"121.48240358","lat":"31.281928987","category":"68","category_name":"快餐厅","address":"虹口区中山北二路赤峰路轻轨站1楼(近广灵二路)"},{"poiid":"B2094757D06AABFC479B","title":"赤峰路","lon":"121.4873181","lat":"31.28229667","category":"500","category_name":"未知分类","address":"上海赤峰路曲阳路"},{"poiid":"B2094757D06FA0FC429F","title":"呷哺呷哺","lon":"121.482597","lat":"31.280947","category":"86","category_name":"火锅店","address":"虹口区轨道3号线赤峰路站1楼CS109商铺(近玉田路)"},{"poiid":"B2094757D06BA2F54092","title":"中科院上海技术物理研究所","lon":"121.485429","lat":"31.280646","category":"46","category_name":"楼宇","address":"上海玉田路500号"},{"poiid":"B2094757D068A6FA479D","title":"洪家","lon":"121.485232054","lat":"31.282763793","category":"96","category_name":"韩国料理","address":"虹口区赤峰路630号南雁大厦1楼(近地铁3号线)"},{"poiid":"B2094654DB65A6F8419E","title":"巴贝拉意式餐厅(赤峰路店)","lon":"121.4826","lat":"31.28142","category":"98","category_name":"意式菜品餐厅","address":"虹口区轨道三号线赤峰路站(玉田路中山北一路)"},{"poiid":"B2094655D264A1F94593","title":"辛元湘菜","lon":"121.482108054","lat":"31.282296793","category":"77","category_name":"湖南菜","address":"虹口区广纪路161号(近轨交三号线赤峰路站)"},{"poiid":"B2094757D068A2FF479F","title":"巴麦隆烤肉(虹口店)","lon":"121.48625","lat":"31.27947","category":"68","category_name":"快餐厅","address":"虹口区东体育会路442号(近玉田路)"},{"poiid":"B2094654D56DA7FC419E","title":"上海荣臣机动车驾驶员培训有限公司","lon":"121.48899","lat":"31.28274","category":"192","category_name":"驾校","address":"赤峰路384"},{"poiid":"B2094757D168A5F8499B","title":"内环高架(广灵四路上匝道)","lon":"121.485395403","lat":"31.2859354465","category":"500","category_name":"未知分类","address":"上海中山北一路广灵四路"},{"poiid":"B2094757D068ABFF459D","title":"味千拉面(赤峰路店)","lon":"121.48233796","lat":"31.281915689","category":"95","category_name":"日本料理","address":"虹口区广纪路91号1-3楼(近三号线赤峰路站)"},{"poiid":"B2094750D26AA2FB4199","title":"牛排哈特","lon":"121.4866","lat":"31.2795","category":"94","category_name":"西餐厅","address":"虹口区玉田路433号(东体育会路口)"},{"poiid":"B2094757D068A3FF4193","title":"永和大王(赤峰路店)","lon":"121.48305","lat":"31.28149","category":"68","category_name":"快餐厅","address":"上海虹口区地铁三号线赤峰路站1号口1楼(近中山北一路)  "},{"poiid":"B2094654D56DA7FD479F","title":"南雁大厦","lon":"121.48448","lat":"31.28269","category":"46","category_name":"楼宇","address":"浦东区丁香路716号"},{"poiid":"B2094654DB6BA3FF4092","title":"锦江之星(赤峰路店)","lon":"121.48233","lat":"31.28301","category":"216","category_name":"经济型连锁酒店","address":"上海虹口区广纪路127号(近中山北一路)"},{"poiid":"B2094655D264AAFA439E","title":"置汇谷","lon":"121.48751","lat":"31.28348","category":"45","category_name":"产业园区","address":"虹口区东体育会路860号(近赤峰路)"},{"poiid":"B2094757D06AA0FC4393","title":"粤来粤好","lon":"121.48658584","lat":"31.28156854","category":"72","category_name":"广东菜","address":"虹口区赤峰路455号"},{"poiid":"B2094757D064A3FF4198","title":"玉田町","lon":"121.48629","lat":"31.27993","category":"95","category_name":"日本料理","address":"虹口区东体育会路434号(东体育会路玉田路)"},{"poiid":"B2094654D56CA1FD4298","title":"东体小区","lon":"121.48866","lat":"31.280397","category":"47","category_name":"住宅区","address":"上海虹口区玉田路400弄"},{"poiid":"B2094757D065A7FB4893","title":"m coffee","lon":"121.483857103","lat":"31.2802866284","category":"94","category_name":"西餐厅","address":"虹口区玉田路551号(近赤峰路轻轨站)"},{"poiid":"B2094750DA64A1F44693","title":"满溢庭酒楼","lon":"121.485984","lat":"31.282419","category":"71","category_name":"四川菜","address":"虹口区赤峰路455号(近3号赤峰路站)"},{"poiid":"B2094654D56DA7FC479A","title":"赤峰路626弄小区","lon":"121.48508","lat":"31.28316","category":"47","category_name":"住宅区","address":"赤峰路626弄"},{"poiid":"B2094655D36CA5FE4793","title":"赤峰路中山北一路","lon":"121.48495","lat":"31.28246","category":"38","category_name":"公交车站","address":""},{"poiid":"B2094757D568A5FF4398","title":"好客堡美食城","lon":"121.48619439","lat":"31.28224826","category":"68","category_name":"快餐厅","address":"虹口区赤峰路455号(近东体育会路)"},{"poiid":"B2094655D26FA0FC4192","title":"中国电信赤峰路营业厅","lon":"121.48599","lat":"31.28258","category":"151","category_name":"电讯营业厅","address":"赤峰路606号"},{"poiid":"B2094751DA6BA0F4429A","title":"沈家门海鲜","lon":"121.486206","lat":"31.282028","category":"247","category_name":"餐饮美食","address":"虹口区赤峰路455号(近中山北一路)"},{"poiid":"B2094654DB69A4FE429C","title":"莫泰168连锁旅店(赤峰路店)","lon":"121.48227","lat":"31.28243","category":"216","category_name":"经济型连锁酒店","address":"上海市虹口区广灵二路5号（近中山北一路）"},{"poiid":"B2094654DB6AAAFF4898","title":"永琪美容美发(赤峰路)","lon":"121.48663","lat":"31.28219","category":"148","category_name":"美容美发店","address":"虹口区赤峰路445号(东体育会路口)"},{"poiid":"B2094654DB6AAAFF489A","title":"上外宾馆","lon":"121.483239054","lat":"31.281999793","category":"217","category_name":"旅馆招待所","address":"虹口区赤峰路555号(近中山北一路)"},{"poiid":"B2094757D069ABFE4793","title":"国兰面菜馆","lon":"121.48407984","lat":"31.281822548","category":"68","category_name":"快餐厅","address":"虹口区赤峰路630号南雁大厦内(近地铁3号线)"},{"poiid":"B2094757D069A3F84192","title":"韩美味","lon":"121.48281","lat":"31.28358","category":"96","category_name":"韩国料理","address":"虹口区广纪路179号圣达商务楼1楼(近3号线赤峰路站)"},{"poiid":"B2094757D16EA0FE4693","title":"上海外国语大学出国人员培训部","lon":"121.485138103","lat":"31.2806516361","category":"500","category_name":"未知分类","address":"上海市虹口区东体育会路410号"},{"poiid":"B2094757D06FAAFB4698","title":"随意点桌球","lon":"121.4825573","lat":"31.284010106","category":"248","category_name":"生活娱乐","address":"虹口区广纪路167号3楼(近三号线赤峰路站)"},{"poiid":"B2094654DB65AAF5459A","title":"吉联大厦","lon":"121.48264469059","lat":"31.282662189713","category":"46","category_name":"楼宇","address":"朝阳华威桥东北角"},{"poiid":"B2094654D56DA7FC469D","title":"绮杰美容美发","lon":"121.48567","lat":"31.28258","category":"148","category_name":"美容美发店","address":"虹口区赤峰路608号(近中山北一路)"},{"poiid":"B2094757D06BA0F8439A","title":"木屋北大荒人","lon":"121.486101487","lat":"31.2794370396","category":"82","category_name":"东北菜","address":"虹口区东体育会路427号(近玉田路)"},{"poiid":"B2094757D06BABFF489F","title":"正记香辣蟹","lon":"121.48314715","lat":"31.284333463","category":"71","category_name":"四川菜","address":"虹口区广纪路153号(近广灵二路)"},{"poiid":"B2094654D56DA7FC4699","title":"邮电二村","lon":"121.48679","lat":"31.283012","category":"47","category_name":"住宅区","address":"赤峰路600弄1-9号"},{"poiid":"B2094654D56CA1FF4093","title":"科峰公寓(北门)","lon":"121.48535","lat":"31.28225","category":"47","category_name":"住宅区","address":"赤峰路501弄"},{"poiid":"B2094655D26CA1FD439A","title":"广中路25弄小区","lon":"121.486","lat":"31.2817","category":"47","category_name":"住宅区","address":"广中路25弄1-12号"},{"poiid":"B2094654DB6AAAFF4899","title":"罗森(优豪商务酒店西)","lon":"121.48673","lat":"31.2822","category":"117","category_name":"便民商店/便利店","address":""},{"poiid":"B2094757DA6FA3FE479A","title":"顶旺生煎","lon":"121.484091281889","lat":"31.2825303096372","category":"68","category_name":"快餐厅","address":"虹口区赤峰路(近中山北一路)"},{"poiid":"B2094654D56CA1FF419A","title":"科峰公寓","lon":"121.48538","lat":"31.281752","category":"47","category_name":"住宅区","address":"赤峰路501弄"},{"poiid":"B2094655D26FA7F9479A","title":"邮电二村(南一门)","lon":"121.48624","lat":"31.28259","category":"656","category_name":"大门","address":"赤峰路600弄1-9号"},{"poiid":"B2094655D26CA1FC499D","title":"广中路45弄","lon":"121.486","lat":"31.2818","category":"47","category_name":"住宅区","address":"广中路45弄1-6号"},{"poiid":"B2094654D56DA7FC479B","title":"赤峰路626弄小区(南门)","lon":"121.48476","lat":"31.28263","category":"47","category_name":"住宅区","address":"赤峰路626弄"},{"poiid":"B2094757D46FAAF44299","title":"同宜阁老北京羊蝎子火锅","lon":"121.482155054","lat":"31.282976793","category":"86","category_name":"火锅店","address":"虹口区广纪路157号(近赤峰路轻轨站)"}]