[{"poiid":"B2094655D264A7F5489C","title":"日月光中心广场","lon":"121.46825","lat":"31.20647","category":"46","category_name":"楼宇","address":"徐家汇路618号（靠近瑞金二路）"},{"poiid":"B2094757D06EABF5439F","title":"山茶花韩国家庭料理","lon":"121.467467","lat":"31.204069","category":"96","category_name":"韩国料理","address":"卢湾区徐家汇路618号日月光中心广场4楼F-11号商铺(近瑞金二路)"},{"poiid":"B2094757D06EAAFF489F","title":"谷乐滋意式屋 Cafe Grazie","lon":"121.46812","lat":"31.20555","category":"94","category_name":"西餐厅","address":"卢湾区徐家汇路618号日月光中心广场5楼F09号商铺(瑞金南路肇嘉浜路)"},{"poiid":"B2094753D76FAAFA449C","title":"上海滩国泰旗舰店","lon":"121.466011","lat":"31.216125","category":"249","category_name":"购物服务","address":"淮海中路868号"},{"poiid":"B209475CD564A7F84292","title":"上海滩新天地店","lon":"121.47463","lat":"31.22164","category":"119","category_name":"商场","address":"\"太仓路181弄新天地北里15号\r\n\""},{"poiid":"B209475CD564A7F8439E","title":"上海滩中信泰富店","lon":"121.45602","lat":"31.22851","category":"119","category_name":"商场","address":"\"南京西路1168号中信泰富广场，店铺号221.\r\n\""},{"poiid":"B2094752DB6FA0F44299","title":"DAZZLING CAFE","lon":"121.468246","lat":"31.206467","category":"65","category_name":"咖啡厅","address":"卢湾区徐家汇路618号日月光中心1楼中庭广场E-03铺位"},{"poiid":"B2094757D06EAAF8409B","title":"满记甜品 日月光广场店 Honeymoon Dessert","lon":"121.467979","lat":"31.206339","category":"67","category_name":"甜品店","address":"卢湾区徐家汇路618号日月光广场B2楼F-11(近瑞金二路)"},{"poiid":"B2094750D269A1FC439C","title":"摩休敦纳韩国年糕店","lon":"121.467727","lat":"31.207105","category":"247","category_name":"餐饮美食","address":"卢湾区徐家汇路618号B2美食广场F-38号铺(近瑞金二路)"},{"poiid":"B2094751D569A7FD469C","title":"Mizzi cafe","lon":"121.46782","lat":"31.206643","category":"247","category_name":"餐饮美食","address":"卢湾区徐家汇路618号日月光中心广场1楼E04号铺(近瑞金二路)"},{"poiid":"B2094757D06EAAF8459A","title":"宝珠奶酪(日月光广场店)","lon":"121.46787962","lat":"31.206321596","category":"67","category_name":"甜品店","address":"卢湾区徐家汇路618号日月光中心广场B2楼F09号商铺(近瑞金二路)"},{"poiid":"B2094654DA6DA5FE4998","title":"288酒吧餐厅","lon":"121.46779","lat":"31.20752","category":"260","category_name":"其他","address":"卢湾区泰康路288号(瑞金二路思南路间)"},{"poiid":"B2094757D168A5FA449A","title":"天辣","lon":"121.46813273","lat":"31.207001805","category":"247","category_name":"餐饮美食","address":"上海日月光"},{"poiid":"B2094757D06FA2FA449C","title":"藏珑泰极(田子坊店)","lon":"121.4681","lat":"31.20708","category":"99","category_name":"泰国／越南菜品餐厅","address":"卢湾区泰康路田子坊248弄14号(近瑞金二路)"},{"poiid":"B2094750D76FA0FA4693","title":"居食屋和民(日月光广场店)","lon":"121.468","lat":"31.2055","category":"95","category_name":"日本料理","address":"卢湾区徐家汇路618号日月光中心广场4楼(近瑞金二路)"},{"poiid":"B2094757DA6FA2FD449F","title":"猫屎咖啡(日月光广场店)","lon":"121.468105316165","lat":"31.2060478129894","category":"260","category_name":"其他","address":"卢湾区徐家汇路618号日月光中心广场1楼(近田子坊)"},{"poiid":"B2094750D56FAAF54698","title":"星巴克(日月光广场店)","lon":"121.468","lat":"31.2055","category":"260","category_name":"其他","address":"卢湾区徐家汇路618号日月光中心广场1楼(近泰康路)"},{"poiid":"B2094757D06FAAFA4892","title":"小杨生煎(日月光店)","lon":"121.468174738","lat":"31.2062027882","category":"68","category_name":"快餐厅","address":"卢湾区徐家汇路618号日月光广场B2楼(近瑞金二路)"},{"poiid":"B2094757D068A7FF489A","title":"上海一号","lon":"121.467156738","lat":"31.2050147629","category":"500","category_name":"未知分类","address":"上海打浦桥"},{"poiid":"B2094752D768A5F44793","title":"德站琪 韩国年糕料理","lon":"121.466728","lat":"31.20739","category":"247","category_name":"餐饮美食","address":"日月光B2-F-38"},{"poiid":"B2094757D069A5F5499D","title":"日月光百货","lon":"121.467779738","lat":"31.2054737727","category":"500","category_name":"未知分类","address":"上海徐汇区打浦桥"},{"poiid":"B2094757D16FA5F44698","title":"山茶花韩国料理(日月光中心)","lon":"121.46810573","lat":"31.206278789","category":"247","category_name":"餐饮美食","address":"上海卢湾区徐家汇路618号日月光中心4F"},{"poiid":"B2094757D06EAAF4499E","title":"斗香园 日月光广场店","lon":"121.46812","lat":"31.20555","category":"68","category_name":"快餐厅","address":"卢湾区徐家汇路618号日月光广场B2楼F-17号商铺(近瑞金二路)"},{"poiid":"B2094757D06AA2F9479F","title":"湘轩(日月光广场店)","lon":"121.465701738","lat":"31.2072998116","category":"247","category_name":"餐饮美食","address":"上海市黄浦区徐家汇路618号(近瑞金一路)"},{"poiid":"B2094757D06FA4FA479A","title":"王子殿下 Tono's Palace 131","lon":"121.468004","lat":"31.206499538","category":"260","category_name":"其他","address":"卢湾区泰康路248弄田子坊10号前门(近瑞金二路)"},{"poiid":"B2094757D06EAAFB419D","title":"奔高","lon":"121.467991","lat":"31.206362","category":"67","category_name":"甜品店","address":"卢湾区徐家汇路618号日月光中心广场B2-T17室(近瑞金二路)"},{"poiid":"B2094752D768A2FF4998","title":"冰火名家巫山烤全鱼","lon":"121.46824564025883","lat":"31.20683075670523","category":"247","category_name":"餐饮美食","address":"徐家汇路618号日月光中心广场4楼-22号铺(近打浦路) "},{"poiid":"B2094751DA6DA2F5479C","title":"荔餐厅","lon":"121.46774","lat":"31.20579","category":"72","category_name":"广东菜","address":"卢湾区徐家汇路618号日月光广场4楼(近瑞金南路)"},{"poiid":"B2094750D56EA0FB439B","title":"COSTA咖啡日月光店","lon":"121.467819","lat":"31.206855","category":"247","category_name":"餐饮美食","address":null},{"poiid":"B2094757D068A2F9429B","title":"新上海","lon":"121.46824958","lat":"31.20647147","category":"76","category_name":"上海菜","address":"卢湾区徐家汇路618号日月光中心广场4楼F19室(近瑞金二路)"},{"poiid":"B2094750D16AA2F44993","title":"塔哈尔","lon":"121.46813","lat":"31.20648","category":"90","category_name":"清真餐馆","address":"卢湾区徐家汇路618号日月光中心广场B2楼(近田子坊)"},{"poiid":"B2094757D06FABFD409D","title":"宝珠奶酪 泰康路店","lon":"121.46822","lat":"31.20902","category":"67","category_name":"甜品店","address":"卢湾区泰康路248弄田子坊31号后门(近瑞金二路)"},{"poiid":"B2094757D468A4FC4199","title":"透明思考（小三堂） 田子坊店 TMSK","lon":"121.467443","lat":"31.207393","category":"260","category_name":"其他","address":"卢湾区泰康路25号琉璃博物馆"},{"poiid":"B2094750D26EA7F44493","title":"costa coffee","lon":"121.465827","lat":"31.207408","category":"65","category_name":"咖啡厅","address":"卢湾区徐家汇路618号日月光中心广场1楼(近瑞金二路)"},{"poiid":"B2094757D069A3FB489F","title":"日月光广场停车场","lon":"121.46737342","lat":"31.206339301","category":"500","category_name":"未知分类","address":"上海卢湾区徐家汇路618号"},{"poiid":"B2094757D068A2F8469D","title":"288","lon":"121.46711273","lat":"31.207103807","category":"500","category_name":"未知分类","address":"上海泰康路288"},{"poiid":"B2094757DA6EA6F44693","title":"吞云小莳(日月光广场店)","lon":"121.467783451078","lat":"31.2061212247705","category":"91","category_name":"台湾菜","address":"卢湾区徐家汇路618号日月光中心广场B2楼04号铺(近瑞金二路)"},{"poiid":"B2094757D16DA4FE429E","title":"米斯特缤Mr.bean","lon":"121.467888438","lat":"31.2053967711","category":"113","category_name":"冷饮店","address":"卢湾区徐家汇路618号日月光中心广场B2楼F-10号铺(近满记)"},{"poiid":"B2094757D068A5FA4699","title":"cafe mojo","lon":"121.46759033","lat":"31.207561492","category":"65","category_name":"咖啡厅","address":"上海泰康路248弄田子坊内"},{"poiid":"B209475DD76AA4F54599","title":"好好先生西餐厅Grill(日月光店)","lon":"121.468121","lat":"31.206149","category":"247","category_name":"餐饮美食","address":"上海市 徐家汇路618号日月光4楼F-15商铺"},{"poiid":"B2094757D06FA6F9429F","title":"楚楚园馅饼粥(日月光广场店)","lon":"121.46782013","lat":"31.205556274","category":"68","category_name":"快餐厅","address":"卢湾区徐家汇路618号日月光中心广场B2楼(近瑞金二路)"},{"poiid":"B2094757D06FA5F8449C","title":"小木马西班牙餐厅 PONY KITCHEN","lon":"121.46812","lat":"31.20555","category":"94","category_name":"西餐厅","address":"卢湾区徐家汇路618号日月光中心广场5楼(近瑞金二路)"},{"poiid":"B2094750DA6EA6FB449A","title":"喜多屋","lon":"121.465812","lat":"31.207374","category":"247","category_name":"餐饮美食","address":"日月光"},{"poiid":"B2094757D165AAFA489E","title":"瑞金二路","lon":"121.46803573","lat":"31.206994805","category":"500","category_name":"未知分类","address":"上海市瑞金二路"},{"poiid":"B2094750D76CA4FC4398","title":"妈咪厨房(日月光广场店)","lon":"121.468","lat":"31.2055","category":"76","category_name":"上海菜","address":"卢湾区徐家汇路618号日月光中心广场B2楼(近瑞金二路)"},{"poiid":"B2094751D36CABF8419C","title":"辛都麻辣香锅","lon":"121.46813","lat":"31.20648","category":"71","category_name":"四川菜","address":"卢湾区徐家汇路618号日月光广场B2美食广场C06铺(近瑞金二路)"},{"poiid":"B2094757D06FA0FE469C","title":"盛记一品锅贴 日月光广场店","lon":"121.467935","lat":"31.206312","category":"68","category_name":"快餐厅","address":"卢湾区徐家汇路618号日月光中心广场B2楼(近瑞金二路)"},{"poiid":"B209475DD669ABF94298","title":"哥老官","lon":"121.466033","lat":"31.207187","category":"247","category_name":"餐饮美食","address":"上海市 上海日月光广场"},{"poiid":"B2094757D068A6FB409C","title":"红宝石(肇嘉浜路店)","lon":"121.46661","lat":"31.205228","category":"67","category_name":"甜品店","address":"卢湾区肇嘉浜路12号(近瑞金南路)"},{"poiid":"B2094757D06FA0FD4792","title":"网鱼网咖(肇家浜店)","lon":"121.467720438","lat":"31.2053344697","category":"173","category_name":"游戏厅","address":"徐汇区肇嘉浜路18弄1号2楼(近轨道交通九号线打浦站)"},{"poiid":"B2094655D264A7F5489C","title":"日月光中心广场","lon":"121.46825","lat":"31.20647","category":"46","category_name":"楼宇","address":"徐家汇路618号（靠近瑞金二路）"},{"poiid":"B2094757D06EABF5439F","title":"山茶花韩国家庭料理","lon":"121.467467","lat":"31.204069","category":"96","category_name":"韩国料理","address":"卢湾区徐家汇路618号日月光中心广场4楼F-11号商铺(近瑞金二路)"},{"poiid":"B2094757D06EAAFF489F","title":"谷乐滋意式屋 Cafe Grazie","lon":"121.46812","lat":"31.20555","category":"94","category_name":"西餐厅","address":"卢湾区徐家汇路618号日月光中心广场5楼F09号商铺(瑞金南路肇嘉浜路)"},{"poiid":"B2094753D76FAAFA449C","title":"上海滩国泰旗舰店","lon":"121.466011","lat":"31.216125","category":"249","category_name":"购物服务","address":"淮海中路868号"},{"poiid":"B209475CD564A7F84292","title":"上海滩新天地店","lon":"121.47463","lat":"31.22164","category":"119","category_name":"商场","address":"\"太仓路181弄新天地北里15号\r\n\""},{"poiid":"B209475CD564A7F8439E","title":"上海滩中信泰富店","lon":"121.45602","lat":"31.22851","category":"119","category_name":"商场","address":"\"南京西路1168号中信泰富广场，店铺号221.\r\n\""},{"poiid":"B2094752DB6FA0F44299","title":"DAZZLING CAFE","lon":"121.468246","lat":"31.206467","category":"65","category_name":"咖啡厅","address":"卢湾区徐家汇路618号日月光中心1楼中庭广场E-03铺位"},{"poiid":"B2094757D06EAAF8409B","title":"满记甜品 日月光广场店 Honeymoon Dessert","lon":"121.467979","lat":"31.206339","category":"67","category_name":"甜品店","address":"卢湾区徐家汇路618号日月光广场B2楼F-11(近瑞金二路)"},{"poiid":"B2094750D269A1FC439C","title":"摩休敦纳韩国年糕店","lon":"121.467727","lat":"31.207105","category":"247","category_name":"餐饮美食","address":"卢湾区徐家汇路618号B2美食广场F-38号铺(近瑞金二路)"},{"poiid":"B2094751D569A7FD469C","title":"Mizzi cafe","lon":"121.46782","lat":"31.206643","category":"247","category_name":"餐饮美食","address":"卢湾区徐家汇路618号日月光中心广场1楼E04号铺(近瑞金二路)"},{"poiid":"B2094757D06EAAF8459A","title":"宝珠奶酪(日月光广场店)","lon":"121.46787962","lat":"31.206321596","category":"67","category_name":"甜品店","address":"卢湾区徐家汇路618号日月光中心广场B2楼F09号商铺(近瑞金二路)"},{"poiid":"B2094654DA6DA5FE4998","title":"288酒吧餐厅","lon":"121.46779","lat":"31.20752","category":"260","category_name":"其他","address":"卢湾区泰康路288号(瑞金二路思南路间)"},{"poiid":"B2094757D168A5FA449A","title":"天辣","lon":"121.46813273","lat":"31.207001805","category":"247","category_name":"餐饮美食","address":"上海日月光"},{"poiid":"B2094757D06FA2FA449C","title":"藏珑泰极(田子坊店)","lon":"121.4681","lat":"31.20708","category":"99","category_name":"泰国／越南菜品餐厅","address":"卢湾区泰康路田子坊248弄14号(近瑞金二路)"},{"poiid":"B2094750D76FA0FA4693","title":"居食屋和民(日月光广场店)","lon":"121.468","lat":"31.2055","category":"95","category_name":"日本料理","address":"卢湾区徐家汇路618号日月光中心广场4楼(近瑞金二路)"},{"poiid":"B2094757DA6FA2FD449F","title":"猫屎咖啡(日月光广场店)","lon":"121.468105316165","lat":"31.2060478129894","category":"260","category_name":"其他","address":"卢湾区徐家汇路618号日月光中心广场1楼(近田子坊)"},{"poiid":"B2094750D56FAAF54698","title":"星巴克(日月光广场店)","lon":"121.468","lat":"31.2055","category":"260","category_name":"其他","address":"卢湾区徐家汇路618号日月光中心广场1楼(近泰康路)"},{"poiid":"B2094757D06FAAFA4892","title":"小杨生煎(日月光店)","lon":"121.468174738","lat":"31.2062027882","category":"68","category_name":"快餐厅","address":"卢湾区徐家汇路618号日月光广场B2楼(近瑞金二路)"},{"poiid":"B2094757D068A7FF489A","title":"上海一号","lon":"121.467156738","lat":"31.2050147629","category":"500","category_name":"未知分类","address":"上海打浦桥"},{"poiid":"B2094752D768A5F44793","title":"德站琪 韩国年糕料理","lon":"121.466728","lat":"31.20739","category":"247","category_name":"餐饮美食","address":"日月光B2-F-38"},{"poiid":"B2094757D069A5F5499D","title":"日月光百货","lon":"121.467779738","lat":"31.2054737727","category":"500","category_name":"未知分类","address":"上海徐汇区打浦桥"},{"poiid":"B2094757D16FA5F44698","title":"山茶花韩国料理(日月光中心)","lon":"121.46810573","lat":"31.206278789","category":"247","category_name":"餐饮美食","address":"上海卢湾区徐家汇路618号日月光中心4F"},{"poiid":"B2094757D06EAAF4499E","title":"斗香园 日月光广场店","lon":"121.46812","lat":"31.20555","category":"68","category_name":"快餐厅","address":"卢湾区徐家汇路618号日月光广场B2楼F-17号商铺(近瑞金二路)"},{"poiid":"B2094757D06AA2F9479F","title":"湘轩(日月光广场店)","lon":"121.465701738","lat":"31.2072998116","category":"247","category_name":"餐饮美食","address":"上海市黄浦区徐家汇路618号(近瑞金一路)"},{"poiid":"B2094757D06FA4FA479A","title":"王子殿下 Tono's Palace 131","lon":"121.468004","lat":"31.206499538","category":"260","category_name":"其他","address":"卢湾区泰康路248弄田子坊10号前门(近瑞金二路)"},{"poiid":"B2094757D06EAAFB419D","title":"奔高","lon":"121.467991","lat":"31.206362","category":"67","category_name":"甜品店","address":"卢湾区徐家汇路618号日月光中心广场B2-T17室(近瑞金二路)"},{"poiid":"B2094752D768A2FF4998","title":"冰火名家巫山烤全鱼","lon":"121.46824564025883","lat":"31.20683075670523","category":"247","category_name":"餐饮美食","address":"徐家汇路618号日月光中心广场4楼-22号铺(近打浦路) "},{"poiid":"B2094751DA6DA2F5479C","title":"荔餐厅","lon":"121.46774","lat":"31.20579","category":"72","category_name":"广东菜","address":"卢湾区徐家汇路618号日月光广场4楼(近瑞金南路)"},{"poiid":"B2094750D56EA0FB439B","title":"COSTA咖啡日月光店","lon":"121.467819","lat":"31.206855","category":"247","category_name":"餐饮美食","address":null},{"poiid":"B2094757D068A2F9429B","title":"新上海","lon":"121.46824958","lat":"31.20647147","category":"76","category_name":"上海菜","address":"卢湾区徐家汇路618号日月光中心广场4楼F19室(近瑞金二路)"},{"poiid":"B2094750D16AA2F44993","title":"塔哈尔","lon":"121.46813","lat":"31.20648","category":"90","category_name":"清真餐馆","address":"卢湾区徐家汇路618号日月光中心广场B2楼(近田子坊)"},{"poiid":"B2094757D06FABFD409D","title":"宝珠奶酪 泰康路店","lon":"121.46822","lat":"31.20902","category":"67","category_name":"甜品店","address":"卢湾区泰康路248弄田子坊31号后门(近瑞金二路)"},{"poiid":"B2094757D468A4FC4199","title":"透明思考（小三堂） 田子坊店 TMSK","lon":"121.467443","lat":"31.207393","category":"260","category_name":"其他","address":"卢湾区泰康路25号琉璃博物馆"},{"poiid":"B2094750D26EA7F44493","title":"costa coffee","lon":"121.465827","lat":"31.207408","category":"65","category_name":"咖啡厅","address":"卢湾区徐家汇路618号日月光中心广场1楼(近瑞金二路)"},{"poiid":"B2094757D069A3FB489F","title":"日月光广场停车场","lon":"121.46737342","lat":"31.206339301","category":"500","category_name":"未知分类","address":"上海卢湾区徐家汇路618号"},{"poiid":"B2094757D068A2F8469D","title":"288","lon":"121.46711273","lat":"31.207103807","category":"500","category_name":"未知分类","address":"上海泰康路288"},{"poiid":"B2094757DA6EA6F44693","title":"吞云小莳(日月光广场店)","lon":"121.467783451078","lat":"31.2061212247705","category":"91","category_name":"台湾菜","address":"卢湾区徐家汇路618号日月光中心广场B2楼04号铺(近瑞金二路)"},{"poiid":"B2094757D16DA4FE429E","title":"米斯特缤Mr.bean","lon":"121.467888438","lat":"31.2053967711","category":"113","category_name":"冷饮店","address":"卢湾区徐家汇路618号日月光中心广场B2楼F-10号铺(近满记)"},{"poiid":"B2094757D068A5FA4699","title":"cafe mojo","lon":"121.46759033","lat":"31.207561492","category":"65","category_name":"咖啡厅","address":"上海泰康路248弄田子坊内"},{"poiid":"B209475DD76AA4F54599","title":"好好先生西餐厅Grill(日月光店)","lon":"121.468121","lat":"31.206149","category":"247","category_name":"餐饮美食","address":"上海市 徐家汇路618号日月光4楼F-15商铺"},{"poiid":"B2094757D06FA6F9429F","title":"楚楚园馅饼粥(日月光广场店)","lon":"121.46782013","lat":"31.205556274","category":"68","category_name":"快餐厅","address":"卢湾区徐家汇路618号日月光中心广场B2楼(近瑞金二路)"},{"poiid":"B2094757D06FA5F8449C","title":"小木马西班牙餐厅 PONY KITCHEN","lon":"121.46812","lat":"31.20555","category":"94","category_name":"西餐厅","address":"卢湾区徐家汇路618号日月光中心广场5楼(近瑞金二路)"},{"poiid":"B2094750DA6EA6FB449A","title":"喜多屋","lon":"121.465812","lat":"31.207374","category":"247","category_name":"餐饮美食","address":"日月光"},{"poiid":"B2094757D165AAFA489E","title":"瑞金二路","lon":"121.46803573","lat":"31.206994805","category":"500","category_name":"未知分类","address":"上海市瑞金二路"},{"poiid":"B2094750D76CA4FC4398","title":"妈咪厨房(日月光广场店)","lon":"121.468","lat":"31.2055","category":"76","category_name":"上海菜","address":"卢湾区徐家汇路618号日月光中心广场B2楼(近瑞金二路)"},{"poiid":"B2094751D36CABF8419C","title":"辛都麻辣香锅","lon":"121.46813","lat":"31.20648","category":"71","category_name":"四川菜","address":"卢湾区徐家汇路618号日月光广场B2美食广场C06铺(近瑞金二路)"},{"poiid":"B2094757D06FA0FE469C","title":"盛记一品锅贴 日月光广场店","lon":"121.467935","lat":"31.206312","category":"68","category_name":"快餐厅","address":"卢湾区徐家汇路618号日月光中心广场B2楼(近瑞金二路)"},{"poiid":"B209475DD669ABF94298","title":"哥老官","lon":"121.466033","lat":"31.207187","category":"247","category_name":"餐饮美食","address":"上海市 上海日月光广场"},{"poiid":"B2094757D068A6FB409C","title":"红宝石(肇嘉浜路店)","lon":"121.46661","lat":"31.205228","category":"67","category_name":"甜品店","address":"卢湾区肇嘉浜路12号(近瑞金南路)"},{"poiid":"B2094757D06FA0FD4792","title":"网鱼网咖(肇家浜店)","lon":"121.467720438","lat":"31.2053344697","category":"173","category_name":"游戏厅","address":"徐汇区肇嘉浜路18弄1号2楼(近轨道交通九号线打浦站)"},{"poiid":"B2094655D264A7F5489C","title":"日月光中心广场","lon":"121.46825","lat":"31.20647","category":"46","category_name":"楼宇","address":"徐家汇路618号（靠近瑞金二路）"},{"poiid":"B2094757D06EABF5439F","title":"山茶花韩国家庭料理","lon":"121.467467","lat":"31.204069","category":"96","category_name":"韩国料理","address":"卢湾区徐家汇路618号日月光中心广场4楼F-11号商铺(近瑞金二路)"},{"poiid":"B2094757D06EAAFF489F","title":"谷乐滋意式屋 Cafe Grazie","lon":"121.46812","lat":"31.20555","category":"94","category_name":"西餐厅","address":"卢湾区徐家汇路618号日月光中心广场5楼F09号商铺(瑞金南路肇嘉浜路)"},{"poiid":"B2094753D76FAAFA449C","title":"上海滩国泰旗舰店","lon":"121.466011","lat":"31.216125","category":"249","category_name":"购物服务","address":"淮海中路868号"},{"poiid":"B209475CD564A7F84292","title":"上海滩新天地店","lon":"121.47463","lat":"31.22164","category":"119","category_name":"商场","address":"\"太仓路181弄新天地北里15号\r\n\""},{"poiid":"B209475CD564A7F8439E","title":"上海滩中信泰富店","lon":"121.45602","lat":"31.22851","category":"119","category_name":"商场","address":"\"南京西路1168号中信泰富广场，店铺号221.\r\n\""},{"poiid":"B2094752DB6FA0F44299","title":"DAZZLING CAFE","lon":"121.468246","lat":"31.206467","category":"65","category_name":"咖啡厅","address":"卢湾区徐家汇路618号日月光中心1楼中庭广场E-03铺位"},{"poiid":"B2094757D06EAAF8409B","title":"满记甜品 日月光广场店 Honeymoon Dessert","lon":"121.467979","lat":"31.206339","category":"67","category_name":"甜品店","address":"卢湾区徐家汇路618号日月光广场B2楼F-11(近瑞金二路)"},{"poiid":"B2094750D269A1FC439C","title":"摩休敦纳韩国年糕店","lon":"121.467727","lat":"31.207105","category":"247","category_name":"餐饮美食","address":"卢湾区徐家汇路618号B2美食广场F-38号铺(近瑞金二路)"},{"poiid":"B2094751D569A7FD469C","title":"Mizzi cafe","lon":"121.46782","lat":"31.206643","category":"247","category_name":"餐饮美食","address":"卢湾区徐家汇路618号日月光中心广场1楼E04号铺(近瑞金二路)"},{"poiid":"B2094757D06EAAF8459A","title":"宝珠奶酪(日月光广场店)","lon":"121.46787962","lat":"31.206321596","category":"67","category_name":"甜品店","address":"卢湾区徐家汇路618号日月光中心广场B2楼F09号商铺(近瑞金二路)"},{"poiid":"B2094654DA6DA5FE4998","title":"288酒吧餐厅","lon":"121.46779","lat":"31.20752","category":"260","category_name":"其他","address":"卢湾区泰康路288号(瑞金二路思南路间)"},{"poiid":"B2094757D168A5FA449A","title":"天辣","lon":"121.46813273","lat":"31.207001805","category":"247","category_name":"餐饮美食","address":"上海日月光"},{"poiid":"B2094757D06FA2FA449C","title":"藏珑泰极(田子坊店)","lon":"121.4681","lat":"31.20708","category":"99","category_name":"泰国／越南菜品餐厅","address":"卢湾区泰康路田子坊248弄14号(近瑞金二路)"},{"poiid":"B2094750D76FA0FA4693","title":"居食屋和民(日月光广场店)","lon":"121.468","lat":"31.2055","category":"95","category_name":"日本料理","address":"卢湾区徐家汇路618号日月光中心广场4楼(近瑞金二路)"},{"poiid":"B2094757DA6FA2FD449F","title":"猫屎咖啡(日月光广场店)","lon":"121.468105316165","lat":"31.2060478129894","category":"260","category_name":"其他","address":"卢湾区徐家汇路618号日月光中心广场1楼(近田子坊)"},{"poiid":"B2094750D56FAAF54698","title":"星巴克(日月光广场店)","lon":"121.468","lat":"31.2055","category":"260","category_name":"其他","address":"卢湾区徐家汇路618号日月光中心广场1楼(近泰康路)"},{"poiid":"B2094757D06FAAFA4892","title":"小杨生煎(日月光店)","lon":"121.468174738","lat":"31.2062027882","category":"68","category_name":"快餐厅","address":"卢湾区徐家汇路618号日月光广场B2楼(近瑞金二路)"},{"poiid":"B2094757D068A7FF489A","title":"上海一号","lon":"121.467156738","lat":"31.2050147629","category":"500","category_name":"未知分类","address":"上海打浦桥"},{"poiid":"B2094752D768A5F44793","title":"德站琪 韩国年糕料理","lon":"121.466728","lat":"31.20739","category":"247","category_name":"餐饮美食","address":"日月光B2-F-38"},{"poiid":"B2094757D069A5F5499D","title":"日月光百货","lon":"121.467779738","lat":"31.2054737727","category":"500","category_name":"未知分类","address":"上海徐汇区打浦桥"},{"poiid":"B2094757D16FA5F44698","title":"山茶花韩国料理(日月光中心)","lon":"121.46810573","lat":"31.206278789","category":"247","category_name":"餐饮美食","address":"上海卢湾区徐家汇路618号日月光中心4F"},{"poiid":"B2094757D06EAAF4499E","title":"斗香园 日月光广场店","lon":"121.46812","lat":"31.20555","category":"68","category_name":"快餐厅","address":"卢湾区徐家汇路618号日月光广场B2楼F-17号商铺(近瑞金二路)"},{"poiid":"B2094757D06AA2F9479F","title":"湘轩(日月光广场店)","lon":"121.465701738","lat":"31.2072998116","category":"247","category_name":"餐饮美食","address":"上海市黄浦区徐家汇路618号(近瑞金一路)"},{"poiid":"B2094757D06FA4FA479A","title":"王子殿下 Tono's Palace 131","lon":"121.468004","lat":"31.206499538","category":"260","category_name":"其他","address":"卢湾区泰康路248弄田子坊10号前门(近瑞金二路)"},{"poiid":"B2094757D06EAAFB419D","title":"奔高","lon":"121.467991","lat":"31.206362","category":"67","category_name":"甜品店","address":"卢湾区徐家汇路618号日月光中心广场B2-T17室(近瑞金二路)"},{"poiid":"B2094752D768A2FF4998","title":"冰火名家巫山烤全鱼","lon":"121.46824564025883","lat":"31.20683075670523","category":"247","category_name":"餐饮美食","address":"徐家汇路618号日月光中心广场4楼-22号铺(近打浦路) "},{"poiid":"B2094751DA6DA2F5479C","title":"荔餐厅","lon":"121.46774","lat":"31.20579","category":"72","category_name":"广东菜","address":"卢湾区徐家汇路618号日月光广场4楼(近瑞金南路)"},{"poiid":"B2094750D56EA0FB439B","title":"COSTA咖啡日月光店","lon":"121.467819","lat":"31.206855","category":"247","category_name":"餐饮美食","address":null},{"poiid":"B2094757D068A2F9429B","title":"新上海","lon":"121.46824958","lat":"31.20647147","category":"76","category_name":"上海菜","address":"卢湾区徐家汇路618号日月光中心广场4楼F19室(近瑞金二路)"},{"poiid":"B2094750D16AA2F44993","title":"塔哈尔","lon":"121.46813","lat":"31.20648","category":"90","category_name":"清真餐馆","address":"卢湾区徐家汇路618号日月光中心广场B2楼(近田子坊)"},{"poiid":"B2094757D06FABFD409D","title":"宝珠奶酪 泰康路店","lon":"121.46822","lat":"31.20902","category":"67","category_name":"甜品店","address":"卢湾区泰康路248弄田子坊31号后门(近瑞金二路)"},{"poiid":"B2094757D468A4FC4199","title":"透明思考（小三堂） 田子坊店 TMSK","lon":"121.467443","lat":"31.207393","category":"260","category_name":"其他","address":"卢湾区泰康路25号琉璃博物馆"},{"poiid":"B2094750D26EA7F44493","title":"costa coffee","lon":"121.465827","lat":"31.207408","category":"65","category_name":"咖啡厅","address":"卢湾区徐家汇路618号日月光中心广场1楼(近瑞金二路)"},{"poiid":"B2094757D069A3FB489F","title":"日月光广场停车场","lon":"121.46737342","lat":"31.206339301","category":"500","category_name":"未知分类","address":"上海卢湾区徐家汇路618号"},{"poiid":"B2094757D068A2F8469D","title":"288","lon":"121.46711273","lat":"31.207103807","category":"500","category_name":"未知分类","address":"上海泰康路288"},{"poiid":"B2094757DA6EA6F44693","title":"吞云小莳(日月光广场店)","lon":"121.467783451078","lat":"31.2061212247705","category":"91","category_name":"台湾菜","address":"卢湾区徐家汇路618号日月光中心广场B2楼04号铺(近瑞金二路)"},{"poiid":"B2094757D16DA4FE429E","title":"米斯特缤Mr.bean","lon":"121.467888438","lat":"31.2053967711","category":"113","category_name":"冷饮店","address":"卢湾区徐家汇路618号日月光中心广场B2楼F-10号铺(近满记)"},{"poiid":"B2094757D068A5FA4699","title":"cafe mojo","lon":"121.46759033","lat":"31.207561492","category":"65","category_name":"咖啡厅","address":"上海泰康路248弄田子坊内"},{"poiid":"B209475DD76AA4F54599","title":"好好先生西餐厅Grill(日月光店)","lon":"121.468121","lat":"31.206149","category":"247","category_name":"餐饮美食","address":"上海市 徐家汇路618号日月光4楼F-15商铺"},{"poiid":"B2094757D06FA6F9429F","title":"楚楚园馅饼粥(日月光广场店)","lon":"121.46782013","lat":"31.205556274","category":"68","category_name":"快餐厅","address":"卢湾区徐家汇路618号日月光中心广场B2楼(近瑞金二路)"},{"poiid":"B2094757D06FA5F8449C","title":"小木马西班牙餐厅 PONY KITCHEN","lon":"121.46812","lat":"31.20555","category":"94","category_name":"西餐厅","address":"卢湾区徐家汇路618号日月光中心广场5楼(近瑞金二路)"},{"poiid":"B2094750DA6EA6FB449A","title":"喜多屋","lon":"121.465812","lat":"31.207374","category":"247","category_name":"餐饮美食","address":"日月光"},{"poiid":"B2094757D165AAFA489E","title":"瑞金二路","lon":"121.46803573","lat":"31.206994805","category":"500","category_name":"未知分类","address":"上海市瑞金二路"},{"poiid":"B2094750D76CA4FC4398","title":"妈咪厨房(日月光广场店)","lon":"121.468","lat":"31.2055","category":"76","category_name":"上海菜","address":"卢湾区徐家汇路618号日月光中心广场B2楼(近瑞金二路)"},{"poiid":"B2094751D36CABF8419C","title":"辛都麻辣香锅","lon":"121.46813","lat":"31.20648","category":"71","category_name":"四川菜","address":"卢湾区徐家汇路618号日月光广场B2美食广场C06铺(近瑞金二路)"},{"poiid":"B2094757D06FA0FE469C","title":"盛记一品锅贴 日月光广场店","lon":"121.467935","lat":"31.206312","category":"68","category_name":"快餐厅","address":"卢湾区徐家汇路618号日月光中心广场B2楼(近瑞金二路)"},{"poiid":"B209475DD669ABF94298","title":"哥老官","lon":"121.466033","lat":"31.207187","category":"247","category_name":"餐饮美食","address":"上海市 上海日月光广场"},{"poiid":"B2094757D068A6FB409C","title":"红宝石(肇嘉浜路店)","lon":"121.46661","lat":"31.205228","category":"67","category_name":"甜品店","address":"卢湾区肇嘉浜路12号(近瑞金南路)"},{"poiid":"B2094757D06FA0FD4792","title":"网鱼网咖(肇家浜店)","lon":"121.467720438","lat":"31.2053344697","category":"173","category_name":"游戏厅","address":"徐汇区肇嘉浜路18弄1号2楼(近轨道交通九号线打浦站)"},{"poiid":"B2094655D264A7F5489C","title":"日月光中心广场","lon":"121.46825","lat":"31.20647","category":"46","category_name":"楼宇","address":"徐家汇路618号（靠近瑞金二路）"},{"poiid":"B2094757D06EABF5439F","title":"山茶花韩国家庭料理","lon":"121.467467","lat":"31.204069","category":"96","category_name":"韩国料理","address":"卢湾区徐家汇路618号日月光中心广场4楼F-11号商铺(近瑞金二路)"},{"poiid":"B2094757D06EAAFF489F","title":"谷乐滋意式屋 Cafe Grazie","lon":"121.46812","lat":"31.20555","category":"94","category_name":"西餐厅","address":"卢湾区徐家汇路618号日月光中心广场5楼F09号商铺(瑞金南路肇嘉浜路)"},{"poiid":"B2094753D76FAAFA449C","title":"上海滩国泰旗舰店","lon":"121.466011","lat":"31.216125","category":"249","category_name":"购物服务","address":"淮海中路868号"},{"poiid":"B209475CD564A7F84292","title":"上海滩新天地店","lon":"121.47463","lat":"31.22164","category":"119","category_name":"商场","address":"\"太仓路181弄新天地北里15号\r\n\""},{"poiid":"B209475CD564A7F8439E","title":"上海滩中信泰富店","lon":"121.45602","lat":"31.22851","category":"119","category_name":"商场","address":"\"南京西路1168号中信泰富广场，店铺号221.\r\n\""},{"poiid":"B2094752DB6FA0F44299","title":"DAZZLING CAFE","lon":"121.468246","lat":"31.206467","category":"65","category_name":"咖啡厅","address":"卢湾区徐家汇路618号日月光中心1楼中庭广场E-03铺位"},{"poiid":"B2094757D06EAAF8409B","title":"满记甜品 日月光广场店 Honeymoon Dessert","lon":"121.467979","lat":"31.206339","category":"67","category_name":"甜品店","address":"卢湾区徐家汇路618号日月光广场B2楼F-11(近瑞金二路)"},{"poiid":"B2094750D269A1FC439C","title":"摩休敦纳韩国年糕店","lon":"121.467727","lat":"31.207105","category":"247","category_name":"餐饮美食","address":"卢湾区徐家汇路618号B2美食广场F-38号铺(近瑞金二路)"},{"poiid":"B2094751D569A7FD469C","title":"Mizzi cafe","lon":"121.46782","lat":"31.206643","category":"247","category_name":"餐饮美食","address":"卢湾区徐家汇路618号日月光中心广场1楼E04号铺(近瑞金二路)"},{"poiid":"B2094757D06EAAF8459A","title":"宝珠奶酪(日月光广场店)","lon":"121.46787962","lat":"31.206321596","category":"67","category_name":"甜品店","address":"卢湾区徐家汇路618号日月光中心广场B2楼F09号商铺(近瑞金二路)"},{"poiid":"B2094654DA6DA5FE4998","title":"288酒吧餐厅","lon":"121.46779","lat":"31.20752","category":"260","category_name":"其他","address":"卢湾区泰康路288号(瑞金二路思南路间)"},{"poiid":"B2094757D168A5FA449A","title":"天辣","lon":"121.46813273","lat":"31.207001805","category":"247","category_name":"餐饮美食","address":"上海日月光"},{"poiid":"B2094757D06FA2FA449C","title":"藏珑泰极(田子坊店)","lon":"121.4681","lat":"31.20708","category":"99","category_name":"泰国／越南菜品餐厅","address":"卢湾区泰康路田子坊248弄14号(近瑞金二路)"},{"poiid":"B2094750D76FA0FA4693","title":"居食屋和民(日月光广场店)","lon":"121.468","lat":"31.2055","category":"95","category_name":"日本料理","address":"卢湾区徐家汇路618号日月光中心广场4楼(近瑞金二路)"},{"poiid":"B2094757DA6FA2FD449F","title":"猫屎咖啡(日月光广场店)","lon":"121.468105316165","lat":"31.2060478129894","category":"260","category_name":"其他","address":"卢湾区徐家汇路618号日月光中心广场1楼(近田子坊)"},{"poiid":"B2094750D56FAAF54698","title":"星巴克(日月光广场店)","lon":"121.468","lat":"31.2055","category":"260","category_name":"其他","address":"卢湾区徐家汇路618号日月光中心广场1楼(近泰康路)"},{"poiid":"B2094757D06FAAFA4892","title":"小杨生煎(日月光店)","lon":"121.468174738","lat":"31.2062027882","category":"68","category_name":"快餐厅","address":"卢湾区徐家汇路618号日月光广场B2楼(近瑞金二路)"},{"poiid":"B2094757D068A7FF489A","title":"上海一号","lon":"121.467156738","lat":"31.2050147629","category":"500","category_name":"未知分类","address":"上海打浦桥"},{"poiid":"B2094752D768A5F44793","title":"德站琪 韩国年糕料理","lon":"121.466728","lat":"31.20739","category":"247","category_name":"餐饮美食","address":"日月光B2-F-38"},{"poiid":"B2094757D069A5F5499D","title":"日月光百货","lon":"121.467779738","lat":"31.2054737727","category":"500","category_name":"未知分类","address":"上海徐汇区打浦桥"},{"poiid":"B2094757D16FA5F44698","title":"山茶花韩国料理(日月光中心)","lon":"121.46810573","lat":"31.206278789","category":"247","category_name":"餐饮美食","address":"上海卢湾区徐家汇路618号日月光中心4F"},{"poiid":"B2094757D06EAAF4499E","title":"斗香园 日月光广场店","lon":"121.46812","lat":"31.20555","category":"68","category_name":"快餐厅","address":"卢湾区徐家汇路618号日月光广场B2楼F-17号商铺(近瑞金二路)"},{"poiid":"B2094757D06AA2F9479F","title":"湘轩(日月光广场店)","lon":"121.465701738","lat":"31.2072998116","category":"247","category_name":"餐饮美食","address":"上海市黄浦区徐家汇路618号(近瑞金一路)"},{"poiid":"B2094757D06FA4FA479A","title":"王子殿下 Tono's Palace 131","lon":"121.468004","lat":"31.206499538","category":"260","category_name":"其他","address":"卢湾区泰康路248弄田子坊10号前门(近瑞金二路)"},{"poiid":"B2094757D06EAAFB419D","title":"奔高","lon":"121.467991","lat":"31.206362","category":"67","category_name":"甜品店","address":"卢湾区徐家汇路618号日月光中心广场B2-T17室(近瑞金二路)"},{"poiid":"B2094752D768A2FF4998","title":"冰火名家巫山烤全鱼","lon":"121.46824564025883","lat":"31.20683075670523","category":"247","category_name":"餐饮美食","address":"徐家汇路618号日月光中心广场4楼-22号铺(近打浦路) "},{"poiid":"B2094751DA6DA2F5479C","title":"荔餐厅","lon":"121.46774","lat":"31.20579","category":"72","category_name":"广东菜","address":"卢湾区徐家汇路618号日月光广场4楼(近瑞金南路)"},{"poiid":"B2094750D56EA0FB439B","title":"COSTA咖啡日月光店","lon":"121.467819","lat":"31.206855","category":"247","category_name":"餐饮美食","address":null},{"poiid":"B2094757D068A2F9429B","title":"新上海","lon":"121.46824958","lat":"31.20647147","category":"76","category_name":"上海菜","address":"卢湾区徐家汇路618号日月光中心广场4楼F19室(近瑞金二路)"},{"poiid":"B2094750D16AA2F44993","title":"塔哈尔","lon":"121.46813","lat":"31.20648","category":"90","category_name":"清真餐馆","address":"卢湾区徐家汇路618号日月光中心广场B2楼(近田子坊)"},{"poiid":"B2094757D06FABFD409D","title":"宝珠奶酪 泰康路店","lon":"121.46822","lat":"31.20902","category":"67","category_name":"甜品店","address":"卢湾区泰康路248弄田子坊31号后门(近瑞金二路)"},{"poiid":"B2094757D468A4FC4199","title":"透明思考（小三堂） 田子坊店 TMSK","lon":"121.467443","lat":"31.207393","category":"260","category_name":"其他","address":"卢湾区泰康路25号琉璃博物馆"},{"poiid":"B2094750D26EA7F44493","title":"costa coffee","lon":"121.465827","lat":"31.207408","category":"65","category_name":"咖啡厅","address":"卢湾区徐家汇路618号日月光中心广场1楼(近瑞金二路)"},{"poiid":"B2094757D069A3FB489F","title":"日月光广场停车场","lon":"121.46737342","lat":"31.206339301","category":"500","category_name":"未知分类","address":"上海卢湾区徐家汇路618号"},{"poiid":"B2094757D068A2F8469D","title":"288","lon":"121.46711273","lat":"31.207103807","category":"500","category_name":"未知分类","address":"上海泰康路288"},{"poiid":"B2094757DA6EA6F44693","title":"吞云小莳(日月光广场店)","lon":"121.467783451078","lat":"31.2061212247705","category":"91","category_name":"台湾菜","address":"卢湾区徐家汇路618号日月光中心广场B2楼04号铺(近瑞金二路)"},{"poiid":"B2094757D16DA4FE429E","title":"米斯特缤Mr.bean","lon":"121.467888438","lat":"31.2053967711","category":"113","category_name":"冷饮店","address":"卢湾区徐家汇路618号日月光中心广场B2楼F-10号铺(近满记)"},{"poiid":"B2094757D068A5FA4699","title":"cafe mojo","lon":"121.46759033","lat":"31.207561492","category":"65","category_name":"咖啡厅","address":"上海泰康路248弄田子坊内"},{"poiid":"B209475DD76AA4F54599","title":"好好先生西餐厅Grill(日月光店)","lon":"121.468121","lat":"31.206149","category":"247","category_name":"餐饮美食","address":"上海市 徐家汇路618号日月光4楼F-15商铺"},{"poiid":"B2094757D06FA6F9429F","title":"楚楚园馅饼粥(日月光广场店)","lon":"121.46782013","lat":"31.205556274","category":"68","category_name":"快餐厅","address":"卢湾区徐家汇路618号日月光中心广场B2楼(近瑞金二路)"},{"poiid":"B2094757D06FA5F8449C","title":"小木马西班牙餐厅 PONY KITCHEN","lon":"121.46812","lat":"31.20555","category":"94","category_name":"西餐厅","address":"卢湾区徐家汇路618号日月光中心广场5楼(近瑞金二路)"},{"poiid":"B2094750DA6EA6FB449A","title":"喜多屋","lon":"121.465812","lat":"31.207374","category":"247","category_name":"餐饮美食","address":"日月光"},{"poiid":"B2094757D165AAFA489E","title":"瑞金二路","lon":"121.46803573","lat":"31.206994805","category":"500","category_name":"未知分类","address":"上海市瑞金二路"},{"poiid":"B2094750D76CA4FC4398","title":"妈咪厨房(日月光广场店)","lon":"121.468","lat":"31.2055","category":"76","category_name":"上海菜","address":"卢湾区徐家汇路618号日月光中心广场B2楼(近瑞金二路)"},{"poiid":"B2094751D36CABF8419C","title":"辛都麻辣香锅","lon":"121.46813","lat":"31.20648","category":"71","category_name":"四川菜","address":"卢湾区徐家汇路618号日月光广场B2美食广场C06铺(近瑞金二路)"},{"poiid":"B2094757D06FA0FE469C","title":"盛记一品锅贴 日月光广场店","lon":"121.467935","lat":"31.206312","category":"68","category_name":"快餐厅","address":"卢湾区徐家汇路618号日月光中心广场B2楼(近瑞金二路)"},{"poiid":"B209475DD669ABF94298","title":"哥老官","lon":"121.466033","lat":"31.207187","category":"247","category_name":"餐饮美食","address":"上海市 上海日月光广场"},{"poiid":"B2094757D068A6FB409C","title":"红宝石(肇嘉浜路店)","lon":"121.46661","lat":"31.205228","category":"67","category_name":"甜品店","address":"卢湾区肇嘉浜路12号(近瑞金南路)"},{"poiid":"B2094757D06FA0FD4792","title":"网鱼网咖(肇家浜店)","lon":"121.467720438","lat":"31.2053344697","category":"173","category_name":"游戏厅","address":"徐汇区肇嘉浜路18弄1号2楼(近轨道交通九号线打浦站)"},{"poiid":"B2094655D264A7F5489C","title":"日月光中心广场","lon":"121.46825","lat":"31.20647","category":"46","category_name":"楼宇","address":"徐家汇路618号（靠近瑞金二路）"},{"poiid":"B2094757D06EABF5439F","title":"山茶花韩国家庭料理","lon":"121.467467","lat":"31.204069","category":"96","category_name":"韩国料理","address":"卢湾区徐家汇路618号日月光中心广场4楼F-11号商铺(近瑞金二路)"},{"poiid":"B2094757D06EAAFF489F","title":"谷乐滋意式屋 Cafe Grazie","lon":"121.46812","lat":"31.20555","category":"94","category_name":"西餐厅","address":"卢湾区徐家汇路618号日月光中心广场5楼F09号商铺(瑞金南路肇嘉浜路)"},{"poiid":"B2094753D76FAAFA449C","title":"上海滩国泰旗舰店","lon":"121.466011","lat":"31.216125","category":"249","category_name":"购物服务","address":"淮海中路868号"},{"poiid":"B209475CD564A7F84292","title":"上海滩新天地店","lon":"121.47463","lat":"31.22164","category":"119","category_name":"商场","address":"\"太仓路181弄新天地北里15号\r\n\""},{"poiid":"B209475CD564A7F8439E","title":"上海滩中信泰富店","lon":"121.45602","lat":"31.22851","category":"119","category_name":"商场","address":"\"南京西路1168号中信泰富广场，店铺号221.\r\n\""},{"poiid":"B2094752DB6FA0F44299","title":"DAZZLING CAFE","lon":"121.468246","lat":"31.206467","category":"65","category_name":"咖啡厅","address":"卢湾区徐家汇路618号日月光中心1楼中庭广场E-03铺位"},{"poiid":"B2094757D06EAAF8409B","title":"满记甜品 日月光广场店 Honeymoon Dessert","lon":"121.467979","lat":"31.206339","category":"67","category_name":"甜品店","address":"卢湾区徐家汇路618号日月光广场B2楼F-11(近瑞金二路)"},{"poiid":"B2094750D269A1FC439C","title":"摩休敦纳韩国年糕店","lon":"121.467727","lat":"31.207105","category":"247","category_name":"餐饮美食","address":"卢湾区徐家汇路618号B2美食广场F-38号铺(近瑞金二路)"},{"poiid":"B2094751D569A7FD469C","title":"Mizzi cafe","lon":"121.46782","lat":"31.206643","category":"247","category_name":"餐饮美食","address":"卢湾区徐家汇路618号日月光中心广场1楼E04号铺(近瑞金二路)"},{"poiid":"B2094757D06EAAF8459A","title":"宝珠奶酪(日月光广场店)","lon":"121.46787962","lat":"31.206321596","category":"67","category_name":"甜品店","address":"卢湾区徐家汇路618号日月光中心广场B2楼F09号商铺(近瑞金二路)"},{"poiid":"B2094654DA6DA5FE4998","title":"288酒吧餐厅","lon":"121.46779","lat":"31.20752","category":"260","category_name":"其他","address":"卢湾区泰康路288号(瑞金二路思南路间)"},{"poiid":"B2094757D168A5FA449A","title":"天辣","lon":"121.46813273","lat":"31.207001805","category":"247","category_name":"餐饮美食","address":"上海日月光"},{"poiid":"B2094757D06FA2FA449C","title":"藏珑泰极(田子坊店)","lon":"121.4681","lat":"31.20708","category":"99","category_name":"泰国／越南菜品餐厅","address":"卢湾区泰康路田子坊248弄14号(近瑞金二路)"},{"poiid":"B2094750D76FA0FA4693","title":"居食屋和民(日月光广场店)","lon":"121.468","lat":"31.2055","category":"95","category_name":"日本料理","address":"卢湾区徐家汇路618号日月光中心广场4楼(近瑞金二路)"},{"poiid":"B2094757DA6FA2FD449F","title":"猫屎咖啡(日月光广场店)","lon":"121.468105316165","lat":"31.2060478129894","category":"260","category_name":"其他","address":"卢湾区徐家汇路618号日月光中心广场1楼(近田子坊)"},{"poiid":"B2094750D56FAAF54698","title":"星巴克(日月光广场店)","lon":"121.468","lat":"31.2055","category":"260","category_name":"其他","address":"卢湾区徐家汇路618号日月光中心广场1楼(近泰康路)"},{"poiid":"B2094757D06FAAFA4892","title":"小杨生煎(日月光店)","lon":"121.468174738","lat":"31.2062027882","category":"68","category_name":"快餐厅","address":"卢湾区徐家汇路618号日月光广场B2楼(近瑞金二路)"},{"poiid":"B2094757D068A7FF489A","title":"上海一号","lon":"121.467156738","lat":"31.2050147629","category":"500","category_name":"未知分类","address":"上海打浦桥"},{"poiid":"B2094752D768A5F44793","title":"德站琪 韩国年糕料理","lon":"121.466728","lat":"31.20739","category":"247","category_name":"餐饮美食","address":"日月光B2-F-38"},{"poiid":"B2094757D069A5F5499D","title":"日月光百货","lon":"121.467779738","lat":"31.2054737727","category":"500","category_name":"未知分类","address":"上海徐汇区打浦桥"},{"poiid":"B2094757D16FA5F44698","title":"山茶花韩国料理(日月光中心)","lon":"121.46810573","lat":"31.206278789","category":"247","category_name":"餐饮美食","address":"上海卢湾区徐家汇路618号日月光中心4F"},{"poiid":"B2094757D06EAAF4499E","title":"斗香园 日月光广场店","lon":"121.46812","lat":"31.20555","category":"68","category_name":"快餐厅","address":"卢湾区徐家汇路618号日月光广场B2楼F-17号商铺(近瑞金二路)"},{"poiid":"B2094757D06AA2F9479F","title":"湘轩(日月光广场店)","lon":"121.465701738","lat":"31.2072998116","category":"247","category_name":"餐饮美食","address":"上海市黄浦区徐家汇路618号(近瑞金一路)"},{"poiid":"B2094757D06FA4FA479A","title":"王子殿下 Tono's Palace 131","lon":"121.468004","lat":"31.206499538","category":"260","category_name":"其他","address":"卢湾区泰康路248弄田子坊10号前门(近瑞金二路)"},{"poiid":"B2094757D06EAAFB419D","title":"奔高","lon":"121.467991","lat":"31.206362","category":"67","category_name":"甜品店","address":"卢湾区徐家汇路618号日月光中心广场B2-T17室(近瑞金二路)"},{"poiid":"B2094752D768A2FF4998","title":"冰火名家巫山烤全鱼","lon":"121.46824564025883","lat":"31.20683075670523","category":"247","category_name":"餐饮美食","address":"徐家汇路618号日月光中心广场4楼-22号铺(近打浦路) "},{"poiid":"B2094751DA6DA2F5479C","title":"荔餐厅","lon":"121.46774","lat":"31.20579","category":"72","category_name":"广东菜","address":"卢湾区徐家汇路618号日月光广场4楼(近瑞金南路)"},{"poiid":"B2094750D56EA0FB439B","title":"COSTA咖啡日月光店","lon":"121.467819","lat":"31.206855","category":"247","category_name":"餐饮美食","address":null},{"poiid":"B2094757D068A2F9429B","title":"新上海","lon":"121.46824958","lat":"31.20647147","category":"76","category_name":"上海菜","address":"卢湾区徐家汇路618号日月光中心广场4楼F19室(近瑞金二路)"},{"poiid":"B2094750D16AA2F44993","title":"塔哈尔","lon":"121.46813","lat":"31.20648","category":"90","category_name":"清真餐馆","address":"卢湾区徐家汇路618号日月光中心广场B2楼(近田子坊)"},{"poiid":"B2094757D06FABFD409D","title":"宝珠奶酪 泰康路店","lon":"121.46822","lat":"31.20902","category":"67","category_name":"甜品店","address":"卢湾区泰康路248弄田子坊31号后门(近瑞金二路)"},{"poiid":"B2094757D468A4FC4199","title":"透明思考（小三堂） 田子坊店 TMSK","lon":"121.467443","lat":"31.207393","category":"260","category_name":"其他","address":"卢湾区泰康路25号琉璃博物馆"},{"poiid":"B2094750D26EA7F44493","title":"costa coffee","lon":"121.465827","lat":"31.207408","category":"65","category_name":"咖啡厅","address":"卢湾区徐家汇路618号日月光中心广场1楼(近瑞金二路)"},{"poiid":"B2094757D069A3FB489F","title":"日月光广场停车场","lon":"121.46737342","lat":"31.206339301","category":"500","category_name":"未知分类","address":"上海卢湾区徐家汇路618号"},{"poiid":"B2094757D068A2F8469D","title":"288","lon":"121.46711273","lat":"31.207103807","category":"500","category_name":"未知分类","address":"上海泰康路288"},{"poiid":"B2094757DA6EA6F44693","title":"吞云小莳(日月光广场店)","lon":"121.467783451078","lat":"31.2061212247705","category":"91","category_name":"台湾菜","address":"卢湾区徐家汇路618号日月光中心广场B2楼04号铺(近瑞金二路)"},{"poiid":"B2094757D16DA4FE429E","title":"米斯特缤Mr.bean","lon":"121.467888438","lat":"31.2053967711","category":"113","category_name":"冷饮店","address":"卢湾区徐家汇路618号日月光中心广场B2楼F-10号铺(近满记)"},{"poiid":"B2094757D068A5FA4699","title":"cafe mojo","lon":"121.46759033","lat":"31.207561492","category":"65","category_name":"咖啡厅","address":"上海泰康路248弄田子坊内"},{"poiid":"B209475DD76AA4F54599","title":"好好先生西餐厅Grill(日月光店)","lon":"121.468121","lat":"31.206149","category":"247","category_name":"餐饮美食","address":"上海市 徐家汇路618号日月光4楼F-15商铺"},{"poiid":"B2094757D06FA6F9429F","title":"楚楚园馅饼粥(日月光广场店)","lon":"121.46782013","lat":"31.205556274","category":"68","category_name":"快餐厅","address":"卢湾区徐家汇路618号日月光中心广场B2楼(近瑞金二路)"},{"poiid":"B2094757D06FA5F8449C","title":"小木马西班牙餐厅 PONY KITCHEN","lon":"121.46812","lat":"31.20555","category":"94","category_name":"西餐厅","address":"卢湾区徐家汇路618号日月光中心广场5楼(近瑞金二路)"},{"poiid":"B2094750DA6EA6FB449A","title":"喜多屋","lon":"121.465812","lat":"31.207374","category":"247","category_name":"餐饮美食","address":"日月光"},{"poiid":"B2094757D165AAFA489E","title":"瑞金二路","lon":"121.46803573","lat":"31.206994805","category":"500","category_name":"未知分类","address":"上海市瑞金二路"},{"poiid":"B2094750D76CA4FC4398","title":"妈咪厨房(日月光广场店)","lon":"121.468","lat":"31.2055","category":"76","category_name":"上海菜","address":"卢湾区徐家汇路618号日月光中心广场B2楼(近瑞金二路)"},{"poiid":"B2094751D36CABF8419C","title":"辛都麻辣香锅","lon":"121.46813","lat":"31.20648","category":"71","category_name":"四川菜","address":"卢湾区徐家汇路618号日月光广场B2美食广场C06铺(近瑞金二路)"},{"poiid":"B2094757D06FA0FE469C","title":"盛记一品锅贴 日月光广场店","lon":"121.467935","lat":"31.206312","category":"68","category_name":"快餐厅","address":"卢湾区徐家汇路618号日月光中心广场B2楼(近瑞金二路)"},{"poiid":"B209475DD669ABF94298","title":"哥老官","lon":"121.466033","lat":"31.207187","category":"247","category_name":"餐饮美食","address":"上海市 上海日月光广场"},{"poiid":"B2094757D068A6FB409C","title":"红宝石(肇嘉浜路店)","lon":"121.46661","lat":"31.205228","category":"67","category_name":"甜品店","address":"卢湾区肇嘉浜路12号(近瑞金南路)"},{"poiid":"B2094757D06FA0FD4792","title":"网鱼网咖(肇家浜店)","lon":"121.467720438","lat":"31.2053344697","category":"173","category_name":"游戏厅","address":"徐汇区肇嘉浜路18弄1号2楼(近轨道交通九号线打浦站)"}]