[{"poiid":"B2094654DA6FA0F9449D","title":"上海来福士广场","lon":"121.47640041773889","lat":"31.23216669911287","category":"119","category_name":"商场","address":"上海市黄浦区西藏中路268号"},{"poiid":"B2094654DA6FA0F8459E","title":"上海来福士广场","lon":"121.47640215823174","lat":"31.232170995124793","category":"119","category_name":"商场","address":"上海市黄浦区西藏中路268号"},{"poiid":"B2094654DB69A0F5489A","title":"港丽餐厅 来福士店 Charme Restaurant","lon":"121.476518054","lat":"31.232010793","category":"247","category_name":"餐饮美食","address":"黄浦区西藏中路268号来福士广场6楼(近福州路)"},{"poiid":"B2094753D76FAAFA449C","title":"上海滩国泰旗舰店","lon":"121.466011","lat":"31.216125","category":"249","category_name":"购物服务","address":"淮海中路868号"},{"poiid":"B209475CD564A7F84292","title":"上海滩新天地店","lon":"121.47463","lat":"31.22164","category":"119","category_name":"商场","address":"\"太仓路181弄新天地北里15号\r\n\""},{"poiid":"B209475CD564A7F8439E","title":"上海滩中信泰富店","lon":"121.45602","lat":"31.22851","category":"119","category_name":"商场","address":"\"南京西路1168号中信泰富广场，店铺号221.\r\n\""},{"poiid":"B209475CD564A7F84392","title":"上海滩浦东香格里拉店","lon":"121.50058","lat":"31.23634","category":"119","category_name":"商场","address":"浦东富成路33号香格里拉酒店内大堂层"},{"poiid":"B2094654DA6FA0F9449F","title":"和平影都","lon":"121.47597580183503","lat":"31.23278165223876","category":"178","category_name":"电影院","address":"黄浦区西藏中路290号(近汉口路)"},{"poiid":"B2094655D26AA0FA419A","title":"地铁人民广场站","lon":"121.47546","lat":"31.23294","category":"36","category_name":"地铁站","address":""},{"poiid":"B2094757D06FA7F4449F","title":"家有好面(来福士广场店)","lon":"121.476486738","lat":"31.2322993442","category":"68","category_name":"快餐厅","address":"黄浦区西藏中路268号来福士广场B1楼19-20室(近福州路)"},{"poiid":"B2094757D068A0F94199","title":"莱福士","lon":"121.476188538","lat":"31.2322037421","category":"247","category_name":"餐饮美食","address":"上海南京路"},{"poiid":"B2094757D06FA7F5429C","title":"和平影都IMAX厅","lon":"121.476084738","lat":"31.2328343556","category":"178","category_name":"电影院","address":"上海来福士"},{"poiid":"B2094757D06EAAF9479F","title":"太興餐廳","lon":"121.476220738","lat":"31.232292344","category":"72","category_name":"广东菜","address":"黄浦区西藏中路268号来福士广场5楼(近地铁人民广场站15号出口)"},{"poiid":"B2094654DA6FABF5409D","title":"避风塘 西藏中路店","lon":"121.476926","lat":"31.23122","category":"257","category_name":"中餐厅","address":"黄浦区西藏中路180号高盛大厦3楼(汕头路西藏中路)"},{"poiid":"B2094757D164A3FE419C","title":"和民居食屋(来福士店)","lon":"121.475060138","lat":"31.2311963207","category":"95","category_name":"日本料理","address":"黄浦区西藏中路268号来福士广场6楼(近福州路)"},{"poiid":"B2094757D06AA7F44299","title":"来福仕","lon":"121.476086738","lat":"31.2312433217","category":"249","category_name":"购物服务","address":"上海市黄浦区南京西路"},{"poiid":"B2094757D06FA3FB489D","title":"上海大剧院-小剧场(Shanghai Grand Theatre - Studio Theatre)","lon":"121.47614288","lat":"31.230970382","category":"179","category_name":"音乐厅","address":"黄浦区人民大道300号大剧院3楼(近黄陂南路)"},{"poiid":"B2094757D06FA3FC439F","title":"好时巧克力世界 Hershey Chocolate World","lon":"121.476518054","lat":"31.232010793","category":"67","category_name":"甜品店","address":"黄浦区西藏中路290号和平影都1-2楼(近汉口路)"},{"poiid":"B2094757D06FA7FA499B","title":"Hollister(来福士店)","lon":"121.476501755","lat":"31.2318755549","category":"141","category_name":"服装鞋帽皮具店","address":"黄浦区西藏中路268号来福士广场3楼(近福州路)"},{"poiid":"B2094757D06FAAFA439A","title":"食之秘","lon":"121.47627473","lat":"31.231751332","category":"500","category_name":"未知分类","address":"上海市黄浦区南京西路"},{"poiid":"B2094757D06FA2F5499F","title":"上海城市规划展示馆","lon":"121.47540396","lat":"31.231402831","category":"260","category_name":"其他","address":"上海黄浦区人民大道100号(近西藏中路)"},{"poiid":"B2094750D66EAAF94692","title":"Pho Asia","lon":"121.476524","lat":"31.232458","category":"99","category_name":"泰国／越南菜品餐厅","address":"黄浦区西藏中路268号来福士广场5楼(近福州路)"},{"poiid":"B2094752D06CA5F44492","title":"Awfully Chocolate","lon":"121.476559","lat":"31.232134","category":"500","category_name":"未知分类","address":"来福士B1"},{"poiid":"B2094757D06EAAFE4198","title":"地铁二号线","lon":"121.47533705","lat":"31.232901188","category":"36","category_name":"地铁站","address":"上海轨道交通二号线徐泾东-浦东国际机场"},{"poiid":"B2094757D16CA0FB489A","title":"2号线人民广场站","lon":"121.476260738","lat":"31.2321723415","category":"500","category_name":"未知分类","address":"上海人民广场"},{"poiid":"B2094757D06FA6FE419A","title":"老陕饺子馆","lon":"121.47537","lat":"31.23284","category":"68","category_name":"快餐厅","address":"黄浦区云南南路15号(近延安东路)"},{"poiid":"B2094654DB69ABFE4298","title":"马威斯IN沙龙(规划馆店)","lon":"121.47542","lat":"31.23131","category":"148","category_name":"美容美发店","address":"上海市黄浦区人民大道100号城市规划馆B1楼N-A、C"},{"poiid":"B2094751DB6AA2F5459C","title":"上海来福士广场","lon":"121.47647812574291","lat":"31.23214546174018","category":"249","category_name":"购物服务","address":"上海市黄浦区西藏中路268号"},{"poiid":"B2094757D06FA5F5489D","title":"福州路","lon":"121.47534179","lat":"31.232835769","category":"125","category_name":"书店","address":"上海福州路120号"},{"poiid":"B2094757D16EA3FD4693","title":"满 记 甜 品 」","lon":"121.476347738","lat":"31.2321433409","category":"500","category_name":"未知分类","address":"上海近 福 州 路 、来 福 士 地 下 一 层 」＂"},{"poiid":"B2094751D26DA3FF4498","title":"茶香书香(人民广场店)","lon":"121.47542634918216","lat":"31.232584747049376","category":"111","category_name":"休闲餐饮场所","address":"黄浦区地铁1号线人民广场站C区平台1-122号"},{"poiid":"B2094757D76DAAFE409C","title":"漂亮石头火锅 来福士店","lon":"121.476494054","lat":"31.232041793","category":"86","category_name":"火锅店","address":"黄浦区西藏中路218号来福士广场6楼大食代内(近福州路)"},{"poiid":"B2094757D06BA3F84998","title":"CoCo壹番屋","lon":"121.476254738","lat":"31.2321583412","category":"247","category_name":"餐饮美食","address":"上海市黄浦区凤阳路"},{"poiid":"B2094757D06FABF9429D","title":"冰期时代(来福士店)","lon":"121.476578288","lat":"31.232111959","category":"113","category_name":"冷饮店","address":"黄浦区西藏中路268号来福士广场6楼(近福州路)"},{"poiid":"B2094757D06FA4FE4593","title":"和越式火车头","lon":"121.47637548","lat":"31.2326314572","category":"219","category_name":"其他","address":"黄浦区西藏中路268号来福士广场B1楼(近福州路)"},{"poiid":"B2094757D06FA4FD4498","title":"Hershey's World Shanghai","lon":"121.47561287","lat":"31.232676083","category":"65","category_name":"咖啡厅","address":"上海来福士"},{"poiid":"B2094757D06FA0F5439F","title":"上海1930风情街名品坊","lon":"121.476166694","lat":"31.2309545718","category":"249","category_name":"购物服务","address":"黄浦区人民大道100号城市规划展示馆B1楼(近西藏中路)"},{"poiid":"B2094750DB6EA5FF4893","title":"来福士广场写字楼","lon":"121.476534","lat":"31.232041","category":"46","category_name":"楼宇","address":"黄浦西藏中路268号"},{"poiid":"B209475CD469A3FA4198","title":"小南国烧烤（来福士店）","lon":"121.476651","lat":"31.232238","category":"269","category_name":"烧烤","address":"黄浦区西藏中路268号来福士广场06-01A(近福州路)"},{"poiid":"B2094654DA6FA0F9479B","title":"王磊形象公社(西藏中路)","lon":"121.47662","lat":"31.23209","category":"248","category_name":"生活娱乐","address":"黄浦区西藏中路268号来福士广场604-605号铺(近福州路)"},{"poiid":"B2094751D56CA2F94493","title":"星巴克(来福士一店)","lon":"121.47652","lat":"31.23204","category":"247","category_name":"餐饮美食","address":"黄浦区西藏中路268号来福士广场1楼01-12室(近福州路)"},{"poiid":"B2094752D06DAAF8479F","title":"茶香书香（来福士店）","lon":"121.476582","lat":"31.232166","category":"247","category_name":"餐饮美食","address":"人民广场来福士B1层"},{"poiid":"B2094757D16DA6FD409F","title":"和平影都3号厅","lon":"121.475503738","lat":"31.2323763458","category":"178","category_name":"电影院","address":"上海黄浦区西藏中路290号六楼"},{"poiid":"B2094757D16EA0FA4398","title":"蒂凡尼","lon":"121.476462738","lat":"31.2312053209","category":"500","category_name":"未知分类","address":"上海来福士"},{"poiid":"B2094757D065A2FA4993","title":"马威斯","lon":"121.474585","lat":"31.231637","category":"249","category_name":"购物服务","address":"上海市人民广场地下风情街"},{"poiid":"B2094751DA6EA1FB409A","title":"太平洋咖啡福州路店","lon":"121.475481","lat":"31.230946","category":"500","category_name":"未知分类","address":"浙江路福州路路口"},{"poiid":"B2094750D76DA0FB4492","title":"宜芝多(人民广场店)","lon":"121.475","lat":"31.2309","category":"112","category_name":"糕饼店","address":"黄浦区人民广场轨道交通8号线转换站内(近人民公园)"},{"poiid":"B2094757D66EA3F44193","title":"食之密","lon":"121.47664373","lat":"31.232200342","category":"500","category_name":"未知分类","address":"上海市来福士B1"},{"poiid":"B2094757D06FA3F9429D","title":"快乐柠檬(来福士店)","lon":"121.47667369","lat":"31.23169257","category":"113","category_name":"冷饮店","address":"黄浦区西藏中路268号来福士广场B1楼(近福州路)"},{"poiid":"B2094757D16FABF44599","title":"莱福士地下美食园","lon":"121.476069538","lat":"31.2321318406","category":"247","category_name":"餐饮美食","address":"上海莱福士广场"},{"poiid":"B2094654DA6FA0F9449D","title":"上海来福士广场","lon":"121.47640041773889","lat":"31.23216669911287","category":"119","category_name":"商场","address":"上海市黄浦区西藏中路268号"},{"poiid":"B2094654DA6FA0F8459E","title":"上海来福士广场","lon":"121.47640215823174","lat":"31.232170995124793","category":"119","category_name":"商场","address":"上海市黄浦区西藏中路268号"},{"poiid":"B2094654DB69A0F5489A","title":"港丽餐厅 来福士店 Charme Restaurant","lon":"121.476518054","lat":"31.232010793","category":"247","category_name":"餐饮美食","address":"黄浦区西藏中路268号来福士广场6楼(近福州路)"},{"poiid":"B2094753D76FAAFA449C","title":"上海滩国泰旗舰店","lon":"121.466011","lat":"31.216125","category":"249","category_name":"购物服务","address":"淮海中路868号"},{"poiid":"B209475CD564A7F84292","title":"上海滩新天地店","lon":"121.47463","lat":"31.22164","category":"119","category_name":"商场","address":"\"太仓路181弄新天地北里15号\r\n\""},{"poiid":"B209475CD564A7F8439E","title":"上海滩中信泰富店","lon":"121.45602","lat":"31.22851","category":"119","category_name":"商场","address":"\"南京西路1168号中信泰富广场，店铺号221.\r\n\""},{"poiid":"B209475CD564A7F84392","title":"上海滩浦东香格里拉店","lon":"121.50058","lat":"31.23634","category":"119","category_name":"商场","address":"浦东富成路33号香格里拉酒店内大堂层"},{"poiid":"B2094654DA6FA0F9449F","title":"和平影都","lon":"121.47597580183503","lat":"31.23278165223876","category":"178","category_name":"电影院","address":"黄浦区西藏中路290号(近汉口路)"},{"poiid":"B2094655D26AA0FA419A","title":"地铁人民广场站","lon":"121.47546","lat":"31.23294","category":"36","category_name":"地铁站","address":""},{"poiid":"B2094757D06FA7F4449F","title":"家有好面(来福士广场店)","lon":"121.476486738","lat":"31.2322993442","category":"68","category_name":"快餐厅","address":"黄浦区西藏中路268号来福士广场B1楼19-20室(近福州路)"},{"poiid":"B2094757D068A0F94199","title":"莱福士","lon":"121.476188538","lat":"31.2322037421","category":"247","category_name":"餐饮美食","address":"上海南京路"},{"poiid":"B2094757D06FA7F5429C","title":"和平影都IMAX厅","lon":"121.476084738","lat":"31.2328343556","category":"178","category_name":"电影院","address":"上海来福士"},{"poiid":"B2094757D06EAAF9479F","title":"太興餐廳","lon":"121.476220738","lat":"31.232292344","category":"72","category_name":"广东菜","address":"黄浦区西藏中路268号来福士广场5楼(近地铁人民广场站15号出口)"},{"poiid":"B2094654DA6FABF5409D","title":"避风塘 西藏中路店","lon":"121.476926","lat":"31.23122","category":"257","category_name":"中餐厅","address":"黄浦区西藏中路180号高盛大厦3楼(汕头路西藏中路)"},{"poiid":"B2094757D164A3FE419C","title":"和民居食屋(来福士店)","lon":"121.475060138","lat":"31.2311963207","category":"95","category_name":"日本料理","address":"黄浦区西藏中路268号来福士广场6楼(近福州路)"},{"poiid":"B2094757D06AA7F44299","title":"来福仕","lon":"121.476086738","lat":"31.2312433217","category":"249","category_name":"购物服务","address":"上海市黄浦区南京西路"},{"poiid":"B2094757D06FA3FB489D","title":"上海大剧院-小剧场(Shanghai Grand Theatre - Studio Theatre)","lon":"121.47614288","lat":"31.230970382","category":"179","category_name":"音乐厅","address":"黄浦区人民大道300号大剧院3楼(近黄陂南路)"},{"poiid":"B2094757D06FA3FC439F","title":"好时巧克力世界 Hershey Chocolate World","lon":"121.476518054","lat":"31.232010793","category":"67","category_name":"甜品店","address":"黄浦区西藏中路290号和平影都1-2楼(近汉口路)"},{"poiid":"B2094757D06FA7FA499B","title":"Hollister(来福士店)","lon":"121.476501755","lat":"31.2318755549","category":"141","category_name":"服装鞋帽皮具店","address":"黄浦区西藏中路268号来福士广场3楼(近福州路)"},{"poiid":"B2094757D06FAAFA439A","title":"食之秘","lon":"121.47627473","lat":"31.231751332","category":"500","category_name":"未知分类","address":"上海市黄浦区南京西路"},{"poiid":"B2094757D06FA2F5499F","title":"上海城市规划展示馆","lon":"121.47540396","lat":"31.231402831","category":"260","category_name":"其他","address":"上海黄浦区人民大道100号(近西藏中路)"},{"poiid":"B2094750D66EAAF94692","title":"Pho Asia","lon":"121.476524","lat":"31.232458","category":"99","category_name":"泰国／越南菜品餐厅","address":"黄浦区西藏中路268号来福士广场5楼(近福州路)"},{"poiid":"B2094752D06CA5F44492","title":"Awfully Chocolate","lon":"121.476559","lat":"31.232134","category":"500","category_name":"未知分类","address":"来福士B1"},{"poiid":"B2094757D06EAAFE4198","title":"地铁二号线","lon":"121.47533705","lat":"31.232901188","category":"36","category_name":"地铁站","address":"上海轨道交通二号线徐泾东-浦东国际机场"},{"poiid":"B2094757D16CA0FB489A","title":"2号线人民广场站","lon":"121.476260738","lat":"31.2321723415","category":"500","category_name":"未知分类","address":"上海人民广场"},{"poiid":"B2094757D06FA6FE419A","title":"老陕饺子馆","lon":"121.47537","lat":"31.23284","category":"68","category_name":"快餐厅","address":"黄浦区云南南路15号(近延安东路)"},{"poiid":"B2094654DB69ABFE4298","title":"马威斯IN沙龙(规划馆店)","lon":"121.47542","lat":"31.23131","category":"148","category_name":"美容美发店","address":"上海市黄浦区人民大道100号城市规划馆B1楼N-A、C"},{"poiid":"B2094751DB6AA2F5459C","title":"上海来福士广场","lon":"121.47647812574291","lat":"31.23214546174018","category":"249","category_name":"购物服务","address":"上海市黄浦区西藏中路268号"},{"poiid":"B2094757D06FA5F5489D","title":"福州路","lon":"121.47534179","lat":"31.232835769","category":"125","category_name":"书店","address":"上海福州路120号"},{"poiid":"B2094757D16EA3FD4693","title":"满 记 甜 品 」","lon":"121.476347738","lat":"31.2321433409","category":"500","category_name":"未知分类","address":"上海近 福 州 路 、来 福 士 地 下 一 层 」＂"},{"poiid":"B2094751D26DA3FF4498","title":"茶香书香(人民广场店)","lon":"121.47542634918216","lat":"31.232584747049376","category":"111","category_name":"休闲餐饮场所","address":"黄浦区地铁1号线人民广场站C区平台1-122号"},{"poiid":"B2094757D76DAAFE409C","title":"漂亮石头火锅 来福士店","lon":"121.476494054","lat":"31.232041793","category":"86","category_name":"火锅店","address":"黄浦区西藏中路218号来福士广场6楼大食代内(近福州路)"},{"poiid":"B2094757D06BA3F84998","title":"CoCo壹番屋","lon":"121.476254738","lat":"31.2321583412","category":"247","category_name":"餐饮美食","address":"上海市黄浦区凤阳路"},{"poiid":"B2094757D06FABF9429D","title":"冰期时代(来福士店)","lon":"121.476578288","lat":"31.232111959","category":"113","category_name":"冷饮店","address":"黄浦区西藏中路268号来福士广场6楼(近福州路)"},{"poiid":"B2094757D06FA4FE4593","title":"和越式火车头","lon":"121.47637548","lat":"31.2326314572","category":"219","category_name":"其他","address":"黄浦区西藏中路268号来福士广场B1楼(近福州路)"},{"poiid":"B2094757D06FA4FD4498","title":"Hershey's World Shanghai","lon":"121.47561287","lat":"31.232676083","category":"65","category_name":"咖啡厅","address":"上海来福士"},{"poiid":"B2094757D06FA0F5439F","title":"上海1930风情街名品坊","lon":"121.476166694","lat":"31.2309545718","category":"249","category_name":"购物服务","address":"黄浦区人民大道100号城市规划展示馆B1楼(近西藏中路)"},{"poiid":"B2094750DB6EA5FF4893","title":"来福士广场写字楼","lon":"121.476534","lat":"31.232041","category":"46","category_name":"楼宇","address":"黄浦西藏中路268号"},{"poiid":"B209475CD469A3FA4198","title":"小南国烧烤（来福士店）","lon":"121.476651","lat":"31.232238","category":"269","category_name":"烧烤","address":"黄浦区西藏中路268号来福士广场06-01A(近福州路)"},{"poiid":"B2094654DA6FA0F9479B","title":"王磊形象公社(西藏中路)","lon":"121.47662","lat":"31.23209","category":"248","category_name":"生活娱乐","address":"黄浦区西藏中路268号来福士广场604-605号铺(近福州路)"},{"poiid":"B2094751D56CA2F94493","title":"星巴克(来福士一店)","lon":"121.47652","lat":"31.23204","category":"247","category_name":"餐饮美食","address":"黄浦区西藏中路268号来福士广场1楼01-12室(近福州路)"},{"poiid":"B2094752D06DAAF8479F","title":"茶香书香（来福士店）","lon":"121.476582","lat":"31.232166","category":"247","category_name":"餐饮美食","address":"人民广场来福士B1层"},{"poiid":"B2094757D16DA6FD409F","title":"和平影都3号厅","lon":"121.475503738","lat":"31.2323763458","category":"178","category_name":"电影院","address":"上海黄浦区西藏中路290号六楼"},{"poiid":"B2094757D16EA0FA4398","title":"蒂凡尼","lon":"121.476462738","lat":"31.2312053209","category":"500","category_name":"未知分类","address":"上海来福士"},{"poiid":"B2094757D065A2FA4993","title":"马威斯","lon":"121.474585","lat":"31.231637","category":"249","category_name":"购物服务","address":"上海市人民广场地下风情街"},{"poiid":"B2094751DA6EA1FB409A","title":"太平洋咖啡福州路店","lon":"121.475481","lat":"31.230946","category":"500","category_name":"未知分类","address":"浙江路福州路路口"},{"poiid":"B2094750D76DA0FB4492","title":"宜芝多(人民广场店)","lon":"121.475","lat":"31.2309","category":"112","category_name":"糕饼店","address":"黄浦区人民广场轨道交通8号线转换站内(近人民公园)"},{"poiid":"B2094757D66EA3F44193","title":"食之密","lon":"121.47664373","lat":"31.232200342","category":"500","category_name":"未知分类","address":"上海市来福士B1"},{"poiid":"B2094757D06FA3F9429D","title":"快乐柠檬(来福士店)","lon":"121.47667369","lat":"31.23169257","category":"113","category_name":"冷饮店","address":"黄浦区西藏中路268号来福士广场B1楼(近福州路)"},{"poiid":"B2094757D16FABF44599","title":"莱福士地下美食园","lon":"121.476069538","lat":"31.2321318406","category":"247","category_name":"餐饮美食","address":"上海莱福士广场"},{"poiid":"B2094654DA6FA0F9449D","title":"上海来福士广场","lon":"121.47640041773889","lat":"31.23216669911287","category":"119","category_name":"商场","address":"上海市黄浦区西藏中路268号"},{"poiid":"B2094654DA6FA0F8459E","title":"上海来福士广场","lon":"121.47640215823174","lat":"31.232170995124793","category":"119","category_name":"商场","address":"上海市黄浦区西藏中路268号"},{"poiid":"B2094654DB69A0F5489A","title":"港丽餐厅 来福士店 Charme Restaurant","lon":"121.476518054","lat":"31.232010793","category":"247","category_name":"餐饮美食","address":"黄浦区西藏中路268号来福士广场6楼(近福州路)"},{"poiid":"B2094753D76FAAFA449C","title":"上海滩国泰旗舰店","lon":"121.466011","lat":"31.216125","category":"249","category_name":"购物服务","address":"淮海中路868号"},{"poiid":"B209475CD564A7F84292","title":"上海滩新天地店","lon":"121.47463","lat":"31.22164","category":"119","category_name":"商场","address":"\"太仓路181弄新天地北里15号\r\n\""},{"poiid":"B209475CD564A7F8439E","title":"上海滩中信泰富店","lon":"121.45602","lat":"31.22851","category":"119","category_name":"商场","address":"\"南京西路1168号中信泰富广场，店铺号221.\r\n\""},{"poiid":"B209475CD564A7F84392","title":"上海滩浦东香格里拉店","lon":"121.50058","lat":"31.23634","category":"119","category_name":"商场","address":"浦东富成路33号香格里拉酒店内大堂层"},{"poiid":"B2094654DA6FA0F9449F","title":"和平影都","lon":"121.47597580183503","lat":"31.23278165223876","category":"178","category_name":"电影院","address":"黄浦区西藏中路290号(近汉口路)"},{"poiid":"B2094655D26AA0FA419A","title":"地铁人民广场站","lon":"121.47546","lat":"31.23294","category":"36","category_name":"地铁站","address":""},{"poiid":"B2094757D06FA7F4449F","title":"家有好面(来福士广场店)","lon":"121.476486738","lat":"31.2322993442","category":"68","category_name":"快餐厅","address":"黄浦区西藏中路268号来福士广场B1楼19-20室(近福州路)"},{"poiid":"B2094757D068A0F94199","title":"莱福士","lon":"121.476188538","lat":"31.2322037421","category":"247","category_name":"餐饮美食","address":"上海南京路"},{"poiid":"B2094757D06FA7F5429C","title":"和平影都IMAX厅","lon":"121.476084738","lat":"31.2328343556","category":"178","category_name":"电影院","address":"上海来福士"},{"poiid":"B2094757D06EAAF9479F","title":"太興餐廳","lon":"121.476220738","lat":"31.232292344","category":"72","category_name":"广东菜","address":"黄浦区西藏中路268号来福士广场5楼(近地铁人民广场站15号出口)"},{"poiid":"B2094654DA6FABF5409D","title":"避风塘 西藏中路店","lon":"121.476926","lat":"31.23122","category":"257","category_name":"中餐厅","address":"黄浦区西藏中路180号高盛大厦3楼(汕头路西藏中路)"},{"poiid":"B2094757D164A3FE419C","title":"和民居食屋(来福士店)","lon":"121.475060138","lat":"31.2311963207","category":"95","category_name":"日本料理","address":"黄浦区西藏中路268号来福士广场6楼(近福州路)"},{"poiid":"B2094757D06AA7F44299","title":"来福仕","lon":"121.476086738","lat":"31.2312433217","category":"249","category_name":"购物服务","address":"上海市黄浦区南京西路"},{"poiid":"B2094757D06FA3FB489D","title":"上海大剧院-小剧场(Shanghai Grand Theatre - Studio Theatre)","lon":"121.47614288","lat":"31.230970382","category":"179","category_name":"音乐厅","address":"黄浦区人民大道300号大剧院3楼(近黄陂南路)"},{"poiid":"B2094757D06FA3FC439F","title":"好时巧克力世界 Hershey Chocolate World","lon":"121.476518054","lat":"31.232010793","category":"67","category_name":"甜品店","address":"黄浦区西藏中路290号和平影都1-2楼(近汉口路)"},{"poiid":"B2094757D06FA7FA499B","title":"Hollister(来福士店)","lon":"121.476501755","lat":"31.2318755549","category":"141","category_name":"服装鞋帽皮具店","address":"黄浦区西藏中路268号来福士广场3楼(近福州路)"},{"poiid":"B2094757D06FAAFA439A","title":"食之秘","lon":"121.47627473","lat":"31.231751332","category":"500","category_name":"未知分类","address":"上海市黄浦区南京西路"},{"poiid":"B2094757D06FA2F5499F","title":"上海城市规划展示馆","lon":"121.47540396","lat":"31.231402831","category":"260","category_name":"其他","address":"上海黄浦区人民大道100号(近西藏中路)"},{"poiid":"B2094750D66EAAF94692","title":"Pho Asia","lon":"121.476524","lat":"31.232458","category":"99","category_name":"泰国／越南菜品餐厅","address":"黄浦区西藏中路268号来福士广场5楼(近福州路)"},{"poiid":"B2094752D06CA5F44492","title":"Awfully Chocolate","lon":"121.476559","lat":"31.232134","category":"500","category_name":"未知分类","address":"来福士B1"},{"poiid":"B2094757D06EAAFE4198","title":"地铁二号线","lon":"121.47533705","lat":"31.232901188","category":"36","category_name":"地铁站","address":"上海轨道交通二号线徐泾东-浦东国际机场"},{"poiid":"B2094757D16CA0FB489A","title":"2号线人民广场站","lon":"121.476260738","lat":"31.2321723415","category":"500","category_name":"未知分类","address":"上海人民广场"},{"poiid":"B2094757D06FA6FE419A","title":"老陕饺子馆","lon":"121.47537","lat":"31.23284","category":"68","category_name":"快餐厅","address":"黄浦区云南南路15号(近延安东路)"},{"poiid":"B2094654DB69ABFE4298","title":"马威斯IN沙龙(规划馆店)","lon":"121.47542","lat":"31.23131","category":"148","category_name":"美容美发店","address":"上海市黄浦区人民大道100号城市规划馆B1楼N-A、C"},{"poiid":"B2094751DB6AA2F5459C","title":"上海来福士广场","lon":"121.47647812574291","lat":"31.23214546174018","category":"249","category_name":"购物服务","address":"上海市黄浦区西藏中路268号"},{"poiid":"B2094757D06FA5F5489D","title":"福州路","lon":"121.47534179","lat":"31.232835769","category":"125","category_name":"书店","address":"上海福州路120号"},{"poiid":"B2094757D16EA3FD4693","title":"满 记 甜 品 」","lon":"121.476347738","lat":"31.2321433409","category":"500","category_name":"未知分类","address":"上海近 福 州 路 、来 福 士 地 下 一 层 」＂"},{"poiid":"B2094751D26DA3FF4498","title":"茶香书香(人民广场店)","lon":"121.47542634918216","lat":"31.232584747049376","category":"111","category_name":"休闲餐饮场所","address":"黄浦区地铁1号线人民广场站C区平台1-122号"},{"poiid":"B2094757D76DAAFE409C","title":"漂亮石头火锅 来福士店","lon":"121.476494054","lat":"31.232041793","category":"86","category_name":"火锅店","address":"黄浦区西藏中路218号来福士广场6楼大食代内(近福州路)"},{"poiid":"B2094757D06BA3F84998","title":"CoCo壹番屋","lon":"121.476254738","lat":"31.2321583412","category":"247","category_name":"餐饮美食","address":"上海市黄浦区凤阳路"},{"poiid":"B2094757D06FABF9429D","title":"冰期时代(来福士店)","lon":"121.476578288","lat":"31.232111959","category":"113","category_name":"冷饮店","address":"黄浦区西藏中路268号来福士广场6楼(近福州路)"},{"poiid":"B2094757D06FA4FE4593","title":"和越式火车头","lon":"121.47637548","lat":"31.2326314572","category":"219","category_name":"其他","address":"黄浦区西藏中路268号来福士广场B1楼(近福州路)"},{"poiid":"B2094757D06FA4FD4498","title":"Hershey's World Shanghai","lon":"121.47561287","lat":"31.232676083","category":"65","category_name":"咖啡厅","address":"上海来福士"},{"poiid":"B2094757D06FA0F5439F","title":"上海1930风情街名品坊","lon":"121.476166694","lat":"31.2309545718","category":"249","category_name":"购物服务","address":"黄浦区人民大道100号城市规划展示馆B1楼(近西藏中路)"},{"poiid":"B2094750DB6EA5FF4893","title":"来福士广场写字楼","lon":"121.476534","lat":"31.232041","category":"46","category_name":"楼宇","address":"黄浦西藏中路268号"},{"poiid":"B209475CD469A3FA4198","title":"小南国烧烤（来福士店）","lon":"121.476651","lat":"31.232238","category":"269","category_name":"烧烤","address":"黄浦区西藏中路268号来福士广场06-01A(近福州路)"},{"poiid":"B2094654DA6FA0F9479B","title":"王磊形象公社(西藏中路)","lon":"121.47662","lat":"31.23209","category":"248","category_name":"生活娱乐","address":"黄浦区西藏中路268号来福士广场604-605号铺(近福州路)"},{"poiid":"B2094751D56CA2F94493","title":"星巴克(来福士一店)","lon":"121.47652","lat":"31.23204","category":"247","category_name":"餐饮美食","address":"黄浦区西藏中路268号来福士广场1楼01-12室(近福州路)"},{"poiid":"B2094752D06DAAF8479F","title":"茶香书香（来福士店）","lon":"121.476582","lat":"31.232166","category":"247","category_name":"餐饮美食","address":"人民广场来福士B1层"},{"poiid":"B2094757D16DA6FD409F","title":"和平影都3号厅","lon":"121.475503738","lat":"31.2323763458","category":"178","category_name":"电影院","address":"上海黄浦区西藏中路290号六楼"},{"poiid":"B2094757D16EA0FA4398","title":"蒂凡尼","lon":"121.476462738","lat":"31.2312053209","category":"500","category_name":"未知分类","address":"上海来福士"},{"poiid":"B2094757D065A2FA4993","title":"马威斯","lon":"121.474585","lat":"31.231637","category":"249","category_name":"购物服务","address":"上海市人民广场地下风情街"},{"poiid":"B2094751DA6EA1FB409A","title":"太平洋咖啡福州路店","lon":"121.475481","lat":"31.230946","category":"500","category_name":"未知分类","address":"浙江路福州路路口"},{"poiid":"B2094750D76DA0FB4492","title":"宜芝多(人民广场店)","lon":"121.475","lat":"31.2309","category":"112","category_name":"糕饼店","address":"黄浦区人民广场轨道交通8号线转换站内(近人民公园)"},{"poiid":"B2094757D66EA3F44193","title":"食之密","lon":"121.47664373","lat":"31.232200342","category":"500","category_name":"未知分类","address":"上海市来福士B1"},{"poiid":"B2094757D06FA3F9429D","title":"快乐柠檬(来福士店)","lon":"121.47667369","lat":"31.23169257","category":"113","category_name":"冷饮店","address":"黄浦区西藏中路268号来福士广场B1楼(近福州路)"},{"poiid":"B2094757D16FABF44599","title":"莱福士地下美食园","lon":"121.476069538","lat":"31.2321318406","category":"247","category_name":"餐饮美食","address":"上海莱福士广场"},{"poiid":"B2094654DA6FA0F9449D","title":"上海来福士广场","lon":"121.47640041773889","lat":"31.23216669911287","category":"119","category_name":"商场","address":"上海市黄浦区西藏中路268号"},{"poiid":"B2094654DA6FA0F8459E","title":"上海来福士广场","lon":"121.47640215823174","lat":"31.232170995124793","category":"119","category_name":"商场","address":"上海市黄浦区西藏中路268号"},{"poiid":"B2094654DB69A0F5489A","title":"港丽餐厅 来福士店 Charme Restaurant","lon":"121.476518054","lat":"31.232010793","category":"247","category_name":"餐饮美食","address":"黄浦区西藏中路268号来福士广场6楼(近福州路)"},{"poiid":"B2094753D76FAAFA449C","title":"上海滩国泰旗舰店","lon":"121.466011","lat":"31.216125","category":"249","category_name":"购物服务","address":"淮海中路868号"},{"poiid":"B209475CD564A7F84292","title":"上海滩新天地店","lon":"121.47463","lat":"31.22164","category":"119","category_name":"商场","address":"\"太仓路181弄新天地北里15号\r\n\""},{"poiid":"B209475CD564A7F8439E","title":"上海滩中信泰富店","lon":"121.45602","lat":"31.22851","category":"119","category_name":"商场","address":"\"南京西路1168号中信泰富广场，店铺号221.\r\n\""},{"poiid":"B209475CD564A7F84392","title":"上海滩浦东香格里拉店","lon":"121.50058","lat":"31.23634","category":"119","category_name":"商场","address":"浦东富成路33号香格里拉酒店内大堂层"},{"poiid":"B2094654DA6FA0F9449F","title":"和平影都","lon":"121.47597580183503","lat":"31.23278165223876","category":"178","category_name":"电影院","address":"黄浦区西藏中路290号(近汉口路)"},{"poiid":"B2094655D26AA0FA419A","title":"地铁人民广场站","lon":"121.47546","lat":"31.23294","category":"36","category_name":"地铁站","address":""},{"poiid":"B2094757D06FA7F4449F","title":"家有好面(来福士广场店)","lon":"121.476486738","lat":"31.2322993442","category":"68","category_name":"快餐厅","address":"黄浦区西藏中路268号来福士广场B1楼19-20室(近福州路)"},{"poiid":"B2094757D068A0F94199","title":"莱福士","lon":"121.476188538","lat":"31.2322037421","category":"247","category_name":"餐饮美食","address":"上海南京路"},{"poiid":"B2094757D06FA7F5429C","title":"和平影都IMAX厅","lon":"121.476084738","lat":"31.2328343556","category":"178","category_name":"电影院","address":"上海来福士"},{"poiid":"B2094757D06EAAF9479F","title":"太興餐廳","lon":"121.476220738","lat":"31.232292344","category":"72","category_name":"广东菜","address":"黄浦区西藏中路268号来福士广场5楼(近地铁人民广场站15号出口)"},{"poiid":"B2094654DA6FABF5409D","title":"避风塘 西藏中路店","lon":"121.476926","lat":"31.23122","category":"257","category_name":"中餐厅","address":"黄浦区西藏中路180号高盛大厦3楼(汕头路西藏中路)"},{"poiid":"B2094757D164A3FE419C","title":"和民居食屋(来福士店)","lon":"121.475060138","lat":"31.2311963207","category":"95","category_name":"日本料理","address":"黄浦区西藏中路268号来福士广场6楼(近福州路)"},{"poiid":"B2094757D06AA7F44299","title":"来福仕","lon":"121.476086738","lat":"31.2312433217","category":"249","category_name":"购物服务","address":"上海市黄浦区南京西路"},{"poiid":"B2094757D06FA3FB489D","title":"上海大剧院-小剧场(Shanghai Grand Theatre - Studio Theatre)","lon":"121.47614288","lat":"31.230970382","category":"179","category_name":"音乐厅","address":"黄浦区人民大道300号大剧院3楼(近黄陂南路)"},{"poiid":"B2094757D06FA3FC439F","title":"好时巧克力世界 Hershey Chocolate World","lon":"121.476518054","lat":"31.232010793","category":"67","category_name":"甜品店","address":"黄浦区西藏中路290号和平影都1-2楼(近汉口路)"},{"poiid":"B2094757D06FA7FA499B","title":"Hollister(来福士店)","lon":"121.476501755","lat":"31.2318755549","category":"141","category_name":"服装鞋帽皮具店","address":"黄浦区西藏中路268号来福士广场3楼(近福州路)"},{"poiid":"B2094757D06FAAFA439A","title":"食之秘","lon":"121.47627473","lat":"31.231751332","category":"500","category_name":"未知分类","address":"上海市黄浦区南京西路"},{"poiid":"B2094757D06FA2F5499F","title":"上海城市规划展示馆","lon":"121.47540396","lat":"31.231402831","category":"260","category_name":"其他","address":"上海黄浦区人民大道100号(近西藏中路)"},{"poiid":"B2094750D66EAAF94692","title":"Pho Asia","lon":"121.476524","lat":"31.232458","category":"99","category_name":"泰国／越南菜品餐厅","address":"黄浦区西藏中路268号来福士广场5楼(近福州路)"},{"poiid":"B2094752D06CA5F44492","title":"Awfully Chocolate","lon":"121.476559","lat":"31.232134","category":"500","category_name":"未知分类","address":"来福士B1"},{"poiid":"B2094757D06EAAFE4198","title":"地铁二号线","lon":"121.47533705","lat":"31.232901188","category":"36","category_name":"地铁站","address":"上海轨道交通二号线徐泾东-浦东国际机场"},{"poiid":"B2094757D16CA0FB489A","title":"2号线人民广场站","lon":"121.476260738","lat":"31.2321723415","category":"500","category_name":"未知分类","address":"上海人民广场"},{"poiid":"B2094757D06FA6FE419A","title":"老陕饺子馆","lon":"121.47537","lat":"31.23284","category":"68","category_name":"快餐厅","address":"黄浦区云南南路15号(近延安东路)"},{"poiid":"B2094654DB69ABFE4298","title":"马威斯IN沙龙(规划馆店)","lon":"121.47542","lat":"31.23131","category":"148","category_name":"美容美发店","address":"上海市黄浦区人民大道100号城市规划馆B1楼N-A、C"},{"poiid":"B2094751DB6AA2F5459C","title":"上海来福士广场","lon":"121.47647812574291","lat":"31.23214546174018","category":"249","category_name":"购物服务","address":"上海市黄浦区西藏中路268号"},{"poiid":"B2094757D06FA5F5489D","title":"福州路","lon":"121.47534179","lat":"31.232835769","category":"125","category_name":"书店","address":"上海福州路120号"},{"poiid":"B2094757D16EA3FD4693","title":"满 记 甜 品 」","lon":"121.476347738","lat":"31.2321433409","category":"500","category_name":"未知分类","address":"上海近 福 州 路 、来 福 士 地 下 一 层 」＂"},{"poiid":"B2094751D26DA3FF4498","title":"茶香书香(人民广场店)","lon":"121.47542634918216","lat":"31.232584747049376","category":"111","category_name":"休闲餐饮场所","address":"黄浦区地铁1号线人民广场站C区平台1-122号"},{"poiid":"B2094757D76DAAFE409C","title":"漂亮石头火锅 来福士店","lon":"121.476494054","lat":"31.232041793","category":"86","category_name":"火锅店","address":"黄浦区西藏中路218号来福士广场6楼大食代内(近福州路)"},{"poiid":"B2094757D06BA3F84998","title":"CoCo壹番屋","lon":"121.476254738","lat":"31.2321583412","category":"247","category_name":"餐饮美食","address":"上海市黄浦区凤阳路"},{"poiid":"B2094757D06FABF9429D","title":"冰期时代(来福士店)","lon":"121.476578288","lat":"31.232111959","category":"113","category_name":"冷饮店","address":"黄浦区西藏中路268号来福士广场6楼(近福州路)"},{"poiid":"B2094757D06FA4FE4593","title":"和越式火车头","lon":"121.47637548","lat":"31.2326314572","category":"219","category_name":"其他","address":"黄浦区西藏中路268号来福士广场B1楼(近福州路)"},{"poiid":"B2094757D06FA4FD4498","title":"Hershey's World Shanghai","lon":"121.47561287","lat":"31.232676083","category":"65","category_name":"咖啡厅","address":"上海来福士"},{"poiid":"B2094757D06FA0F5439F","title":"上海1930风情街名品坊","lon":"121.476166694","lat":"31.2309545718","category":"249","category_name":"购物服务","address":"黄浦区人民大道100号城市规划展示馆B1楼(近西藏中路)"},{"poiid":"B2094750DB6EA5FF4893","title":"来福士广场写字楼","lon":"121.476534","lat":"31.232041","category":"46","category_name":"楼宇","address":"黄浦西藏中路268号"},{"poiid":"B209475CD469A3FA4198","title":"小南国烧烤（来福士店）","lon":"121.476651","lat":"31.232238","category":"269","category_name":"烧烤","address":"黄浦区西藏中路268号来福士广场06-01A(近福州路)"},{"poiid":"B2094654DA6FA0F9479B","title":"王磊形象公社(西藏中路)","lon":"121.47662","lat":"31.23209","category":"248","category_name":"生活娱乐","address":"黄浦区西藏中路268号来福士广场604-605号铺(近福州路)"},{"poiid":"B2094751D56CA2F94493","title":"星巴克(来福士一店)","lon":"121.47652","lat":"31.23204","category":"247","category_name":"餐饮美食","address":"黄浦区西藏中路268号来福士广场1楼01-12室(近福州路)"},{"poiid":"B2094752D06DAAF8479F","title":"茶香书香（来福士店）","lon":"121.476582","lat":"31.232166","category":"247","category_name":"餐饮美食","address":"人民广场来福士B1层"},{"poiid":"B2094757D16DA6FD409F","title":"和平影都3号厅","lon":"121.475503738","lat":"31.2323763458","category":"178","category_name":"电影院","address":"上海黄浦区西藏中路290号六楼"},{"poiid":"B2094757D16EA0FA4398","title":"蒂凡尼","lon":"121.476462738","lat":"31.2312053209","category":"500","category_name":"未知分类","address":"上海来福士"},{"poiid":"B2094757D065A2FA4993","title":"马威斯","lon":"121.474585","lat":"31.231637","category":"249","category_name":"购物服务","address":"上海市人民广场地下风情街"},{"poiid":"B2094751DA6EA1FB409A","title":"太平洋咖啡福州路店","lon":"121.475481","lat":"31.230946","category":"500","category_name":"未知分类","address":"浙江路福州路路口"},{"poiid":"B2094750D76DA0FB4492","title":"宜芝多(人民广场店)","lon":"121.475","lat":"31.2309","category":"112","category_name":"糕饼店","address":"黄浦区人民广场轨道交通8号线转换站内(近人民公园)"},{"poiid":"B2094757D66EA3F44193","title":"食之密","lon":"121.47664373","lat":"31.232200342","category":"500","category_name":"未知分类","address":"上海市来福士B1"},{"poiid":"B2094757D06FA3F9429D","title":"快乐柠檬(来福士店)","lon":"121.47667369","lat":"31.23169257","category":"113","category_name":"冷饮店","address":"黄浦区西藏中路268号来福士广场B1楼(近福州路)"},{"poiid":"B2094757D16FABF44599","title":"莱福士地下美食园","lon":"121.476069538","lat":"31.2321318406","category":"247","category_name":"餐饮美食","address":"上海莱福士广场"},{"poiid":"B2094654DA6FA0F9449D","title":"上海来福士广场","lon":"121.47640041773889","lat":"31.23216669911287","category":"119","category_name":"商场","address":"上海市黄浦区西藏中路268号"},{"poiid":"B2094654DA6FA0F8459E","title":"上海来福士广场","lon":"121.47640215823174","lat":"31.232170995124793","category":"119","category_name":"商场","address":"上海市黄浦区西藏中路268号"},{"poiid":"B2094654DB69A0F5489A","title":"港丽餐厅 来福士店 Charme Restaurant","lon":"121.476518054","lat":"31.232010793","category":"247","category_name":"餐饮美食","address":"黄浦区西藏中路268号来福士广场6楼(近福州路)"},{"poiid":"B2094753D76FAAFA449C","title":"上海滩国泰旗舰店","lon":"121.466011","lat":"31.216125","category":"249","category_name":"购物服务","address":"淮海中路868号"},{"poiid":"B209475CD564A7F84292","title":"上海滩新天地店","lon":"121.47463","lat":"31.22164","category":"119","category_name":"商场","address":"\"太仓路181弄新天地北里15号\r\n\""},{"poiid":"B209475CD564A7F8439E","title":"上海滩中信泰富店","lon":"121.45602","lat":"31.22851","category":"119","category_name":"商场","address":"\"南京西路1168号中信泰富广场，店铺号221.\r\n\""},{"poiid":"B209475CD564A7F84392","title":"上海滩浦东香格里拉店","lon":"121.50058","lat":"31.23634","category":"119","category_name":"商场","address":"浦东富成路33号香格里拉酒店内大堂层"},{"poiid":"B2094654DA6FA0F9449F","title":"和平影都","lon":"121.47597580183503","lat":"31.23278165223876","category":"178","category_name":"电影院","address":"黄浦区西藏中路290号(近汉口路)"},{"poiid":"B2094655D26AA0FA419A","title":"地铁人民广场站","lon":"121.47546","lat":"31.23294","category":"36","category_name":"地铁站","address":""},{"poiid":"B2094757D06FA7F4449F","title":"家有好面(来福士广场店)","lon":"121.476486738","lat":"31.2322993442","category":"68","category_name":"快餐厅","address":"黄浦区西藏中路268号来福士广场B1楼19-20室(近福州路)"},{"poiid":"B2094757D068A0F94199","title":"莱福士","lon":"121.476188538","lat":"31.2322037421","category":"247","category_name":"餐饮美食","address":"上海南京路"},{"poiid":"B2094757D06FA7F5429C","title":"和平影都IMAX厅","lon":"121.476084738","lat":"31.2328343556","category":"178","category_name":"电影院","address":"上海来福士"},{"poiid":"B2094757D06EAAF9479F","title":"太興餐廳","lon":"121.476220738","lat":"31.232292344","category":"72","category_name":"广东菜","address":"黄浦区西藏中路268号来福士广场5楼(近地铁人民广场站15号出口)"},{"poiid":"B2094654DA6FABF5409D","title":"避风塘 西藏中路店","lon":"121.476926","lat":"31.23122","category":"257","category_name":"中餐厅","address":"黄浦区西藏中路180号高盛大厦3楼(汕头路西藏中路)"},{"poiid":"B2094757D164A3FE419C","title":"和民居食屋(来福士店)","lon":"121.475060138","lat":"31.2311963207","category":"95","category_name":"日本料理","address":"黄浦区西藏中路268号来福士广场6楼(近福州路)"},{"poiid":"B2094757D06AA7F44299","title":"来福仕","lon":"121.476086738","lat":"31.2312433217","category":"249","category_name":"购物服务","address":"上海市黄浦区南京西路"},{"poiid":"B2094757D06FA3FB489D","title":"上海大剧院-小剧场(Shanghai Grand Theatre - Studio Theatre)","lon":"121.47614288","lat":"31.230970382","category":"179","category_name":"音乐厅","address":"黄浦区人民大道300号大剧院3楼(近黄陂南路)"},{"poiid":"B2094757D06FA3FC439F","title":"好时巧克力世界 Hershey Chocolate World","lon":"121.476518054","lat":"31.232010793","category":"67","category_name":"甜品店","address":"黄浦区西藏中路290号和平影都1-2楼(近汉口路)"},{"poiid":"B2094757D06FA7FA499B","title":"Hollister(来福士店)","lon":"121.476501755","lat":"31.2318755549","category":"141","category_name":"服装鞋帽皮具店","address":"黄浦区西藏中路268号来福士广场3楼(近福州路)"},{"poiid":"B2094757D06FAAFA439A","title":"食之秘","lon":"121.47627473","lat":"31.231751332","category":"500","category_name":"未知分类","address":"上海市黄浦区南京西路"},{"poiid":"B2094757D06FA2F5499F","title":"上海城市规划展示馆","lon":"121.47540396","lat":"31.231402831","category":"260","category_name":"其他","address":"上海黄浦区人民大道100号(近西藏中路)"},{"poiid":"B2094750D66EAAF94692","title":"Pho Asia","lon":"121.476524","lat":"31.232458","category":"99","category_name":"泰国／越南菜品餐厅","address":"黄浦区西藏中路268号来福士广场5楼(近福州路)"},{"poiid":"B2094752D06CA5F44492","title":"Awfully Chocolate","lon":"121.476559","lat":"31.232134","category":"500","category_name":"未知分类","address":"来福士B1"},{"poiid":"B2094757D06EAAFE4198","title":"地铁二号线","lon":"121.47533705","lat":"31.232901188","category":"36","category_name":"地铁站","address":"上海轨道交通二号线徐泾东-浦东国际机场"},{"poiid":"B2094757D16CA0FB489A","title":"2号线人民广场站","lon":"121.476260738","lat":"31.2321723415","category":"500","category_name":"未知分类","address":"上海人民广场"},{"poiid":"B2094757D06FA6FE419A","title":"老陕饺子馆","lon":"121.47537","lat":"31.23284","category":"68","category_name":"快餐厅","address":"黄浦区云南南路15号(近延安东路)"},{"poiid":"B2094654DB69ABFE4298","title":"马威斯IN沙龙(规划馆店)","lon":"121.47542","lat":"31.23131","category":"148","category_name":"美容美发店","address":"上海市黄浦区人民大道100号城市规划馆B1楼N-A、C"},{"poiid":"B2094751DB6AA2F5459C","title":"上海来福士广场","lon":"121.47647812574291","lat":"31.23214546174018","category":"249","category_name":"购物服务","address":"上海市黄浦区西藏中路268号"},{"poiid":"B2094757D06FA5F5489D","title":"福州路","lon":"121.47534179","lat":"31.232835769","category":"125","category_name":"书店","address":"上海福州路120号"},{"poiid":"B2094757D16EA3FD4693","title":"满 记 甜 品 」","lon":"121.476347738","lat":"31.2321433409","category":"500","category_name":"未知分类","address":"上海近 福 州 路 、来 福 士 地 下 一 层 」＂"},{"poiid":"B2094751D26DA3FF4498","title":"茶香书香(人民广场店)","lon":"121.47542634918216","lat":"31.232584747049376","category":"111","category_name":"休闲餐饮场所","address":"黄浦区地铁1号线人民广场站C区平台1-122号"},{"poiid":"B2094757D76DAAFE409C","title":"漂亮石头火锅 来福士店","lon":"121.476494054","lat":"31.232041793","category":"86","category_name":"火锅店","address":"黄浦区西藏中路218号来福士广场6楼大食代内(近福州路)"},{"poiid":"B2094757D06BA3F84998","title":"CoCo壹番屋","lon":"121.476254738","lat":"31.2321583412","category":"247","category_name":"餐饮美食","address":"上海市黄浦区凤阳路"},{"poiid":"B2094757D06FABF9429D","title":"冰期时代(来福士店)","lon":"121.476578288","lat":"31.232111959","category":"113","category_name":"冷饮店","address":"黄浦区西藏中路268号来福士广场6楼(近福州路)"},{"poiid":"B2094757D06FA4FE4593","title":"和越式火车头","lon":"121.47637548","lat":"31.2326314572","category":"219","category_name":"其他","address":"黄浦区西藏中路268号来福士广场B1楼(近福州路)"},{"poiid":"B2094757D06FA4FD4498","title":"Hershey's World Shanghai","lon":"121.47561287","lat":"31.232676083","category":"65","category_name":"咖啡厅","address":"上海来福士"},{"poiid":"B2094757D06FA0F5439F","title":"上海1930风情街名品坊","lon":"121.476166694","lat":"31.2309545718","category":"249","category_name":"购物服务","address":"黄浦区人民大道100号城市规划展示馆B1楼(近西藏中路)"},{"poiid":"B2094750DB6EA5FF4893","title":"来福士广场写字楼","lon":"121.476534","lat":"31.232041","category":"46","category_name":"楼宇","address":"黄浦西藏中路268号"},{"poiid":"B209475CD469A3FA4198","title":"小南国烧烤（来福士店）","lon":"121.476651","lat":"31.232238","category":"269","category_name":"烧烤","address":"黄浦区西藏中路268号来福士广场06-01A(近福州路)"},{"poiid":"B2094654DA6FA0F9479B","title":"王磊形象公社(西藏中路)","lon":"121.47662","lat":"31.23209","category":"248","category_name":"生活娱乐","address":"黄浦区西藏中路268号来福士广场604-605号铺(近福州路)"},{"poiid":"B2094751D56CA2F94493","title":"星巴克(来福士一店)","lon":"121.47652","lat":"31.23204","category":"247","category_name":"餐饮美食","address":"黄浦区西藏中路268号来福士广场1楼01-12室(近福州路)"},{"poiid":"B2094752D06DAAF8479F","title":"茶香书香（来福士店）","lon":"121.476582","lat":"31.232166","category":"247","category_name":"餐饮美食","address":"人民广场来福士B1层"},{"poiid":"B2094757D16DA6FD409F","title":"和平影都3号厅","lon":"121.475503738","lat":"31.2323763458","category":"178","category_name":"电影院","address":"上海黄浦区西藏中路290号六楼"},{"poiid":"B2094757D16EA0FA4398","title":"蒂凡尼","lon":"121.476462738","lat":"31.2312053209","category":"500","category_name":"未知分类","address":"上海来福士"},{"poiid":"B2094757D065A2FA4993","title":"马威斯","lon":"121.474585","lat":"31.231637","category":"249","category_name":"购物服务","address":"上海市人民广场地下风情街"},{"poiid":"B2094751DA6EA1FB409A","title":"太平洋咖啡福州路店","lon":"121.475481","lat":"31.230946","category":"500","category_name":"未知分类","address":"浙江路福州路路口"},{"poiid":"B2094750D76DA0FB4492","title":"宜芝多(人民广场店)","lon":"121.475","lat":"31.2309","category":"112","category_name":"糕饼店","address":"黄浦区人民广场轨道交通8号线转换站内(近人民公园)"},{"poiid":"B2094757D66EA3F44193","title":"食之密","lon":"121.47664373","lat":"31.232200342","category":"500","category_name":"未知分类","address":"上海市来福士B1"},{"poiid":"B2094757D06FA3F9429D","title":"快乐柠檬(来福士店)","lon":"121.47667369","lat":"31.23169257","category":"113","category_name":"冷饮店","address":"黄浦区西藏中路268号来福士广场B1楼(近福州路)"},{"poiid":"B2094757D16FABF44599","title":"莱福士地下美食园","lon":"121.476069538","lat":"31.2321318406","category":"247","category_name":"餐饮美食","address":"上海莱福士广场"}]