[{"poiid":"B2094757D06FA3FD4092","title":"马勒别墅","lon":"121.45619201","lat":"31.223121643","category":"47","category_name":"住宅区","address":"上海陕西南路30号"},{"poiid":"B2094757DA64A5FB4893","title":"打望重庆火锅","lon":"121.45697","lat":"31.22139","category":"86","category_name":"火锅店","address":"卢湾区陕西南路90号3楼(近巨鹿路)"},{"poiid":"B2094757D06FA1FA419B","title":"福记港式茶粥面","lon":"121.45690546","lat":"31.222352362","category":"72","category_name":"广东菜","address":"卢湾区陕西南路11号(近巨鹿路)"},{"poiid":"B2094753D76FAAFA449C","title":"上海滩国泰旗舰店","lon":"121.466011","lat":"31.216125","category":"249","category_name":"购物服务","address":"淮海中路868号"},{"poiid":"B209475CD564A7F84292","title":"上海滩新天地店","lon":"121.47463","lat":"31.22164","category":"119","category_name":"商场","address":"\"太仓路181弄新天地北里15号\r\n\""},{"poiid":"B209475CD564A7F8439E","title":"上海滩中信泰富店","lon":"121.45602","lat":"31.22851","category":"119","category_name":"商场","address":"\"南京西路1168号中信泰富广场，店铺号221.\r\n\""},{"poiid":"B2094655D26EAAFB499B","title":"CITIZEN CAFE & BAR","lon":"121.45869704223","lat":"31.220626397075","category":"247","category_name":"餐饮美食","address":"卢湾区进贤路222号(近陕西南路)"},{"poiid":"B2094654D564AAFF4792","title":"海金滋酒家","lon":"121.4573759075","lat":"31.221076151613","category":"257","category_name":"中餐厅","address":"卢湾区进贤路240号(近陕西南路)"},{"poiid":"B2094655D26FA3FD419A","title":"億方砂锅粥(陕西南路店)","lon":"121.45704","lat":"31.22121","category":"72","category_name":"广东菜","address":"卢湾区陕西南路90号(近巨鹿路)"},{"poiid":"B2094757D06FA0FB409D","title":"Cafe La Mer(玛赫咖啡)","lon":"121.45616054","lat":"31.221554178","category":"65","category_name":"咖啡厅","address":"上海静安区巨鹿路677号(近陕西南路)"},{"poiid":"B2094757D06FA2F54598","title":"梅园村酒家(静安店)","lon":"121.45489","lat":"31.223","category":"76","category_name":"上海菜","address":"静安区延安中路841号(近陕西南路)"},{"poiid":"B2094757D06FAAFA459A","title":"城市酒店","lon":"121.45726927","lat":"31.222721847","category":"217","category_name":"旅馆招待所","address":"卢湾区陕西南路5-7号(近巨鹿路)"},{"poiid":"B2094757D06FA5F84393","title":"东瀛国际造型(淮海路店)","lon":"121.45769292","lat":"31.222248609","category":"148","category_name":"美容美发店","address":"卢湾区巨鹿路423号(近地铁1号线陕西南路站)"},{"poiid":"B2094757D068A7FB459A","title":"Maya Mexican Restaurant","lon":"121.45522308","lat":"31.221933364","category":"500","category_name":"未知分类","address":"上海巨鹿路568号 四方新城俱樂部2樓"},{"poiid":"B2094757D06AA3FF4398","title":"高峰美式牛排馆","lon":"121.457064694","lat":"31.2226914554","category":"94","category_name":"西餐厅","address":"卢湾区陕西南路5-7号城市酒店5楼(近巨鹿路)"},{"poiid":"B2094757D06FA6FF4892","title":"科恩国际中心","lon":"121.45694732","lat":"31.224573135","category":"46","category_name":"楼宇","address":"人民路885号-889号"},{"poiid":"B2094757D069A0F8409F","title":"名豪鱼翅海鲜(静安店)","lon":"121.45726","lat":"31.22427","category":"72","category_name":"广东菜","address":"静安区陕西北路66号科恩国际中心(近威海路)"},{"poiid":"B2094750DA6AAAFA4893","title":"意大利saicaf索卡妃臻品咖啡","lon":"121.457397","lat":"31.22088","category":"247","category_name":"餐饮美食","address":"上海市陕西南路35号"},{"poiid":"B2094757D66BA3FD4993","title":"Masse","lon":"121.457856","lat":"31.221176","category":"94","category_name":"西餐厅","address":"卢湾区进贤路219号5-6楼(近陕西南路)"},{"poiid":"B2094757D168AAF5499F","title":"伊秀寿司","lon":"121.45819373","lat":"31.224303173","category":"247","category_name":"餐饮美食","address":"上海市静安区南京西路"},{"poiid":"B2094750D26AA6FC429F","title":"恒隆","lon":"121.458969","lat":"31.223642","category":"500","category_name":"未知分类","address":"南京西路"},{"poiid":"B2094757D06EAAFD4892","title":"微薄之盐—12th-day House","lon":"121.4562828","lat":"31.2217012","category":"67","category_name":"甜品店","address":"静安区巨鹿路516弄5号(近陕西南路)"},{"poiid":"B2094757D069A1FC4098","title":"玫瑰公主咖啡吧","lon":"121.456348427","lat":"31.2228919607","category":"260","category_name":"其他","address":"卢湾区陕西南路30号马勒别墅花园内(近延安中路)"},{"poiid":"B2094757D56EA2FB469A","title":"Le Vin","lon":"121.45787000656128","lat":"31.22141716161553","category":"260","category_name":"其他","address":"卢湾区进贤路224号"},{"poiid":"B209475CD76EA1F94298","title":"吃完咸的吃点甜的","lon":"121.456405","lat":"31.221799","category":"247","category_name":"餐饮美食","address":"上海市 长乐路620号"},{"poiid":"B209475DD669A2FA499B","title":"馆子House198","lon":"121.458572","lat":"31.221391","category":"247","category_name":"餐饮美食","address":"上海市 卢湾区进贤路198号"},{"poiid":"B2094654DB6AA3FE4298","title":"衡山马勒别墅中餐厅","lon":"121.4563","lat":"31.22289","category":"76","category_name":"上海菜","address":"上海市静安区陕西南路30号马勒别墅饭店1号楼1楼和2楼(近延安中路)"},{"poiid":"B2094757DB6FA7FB499B","title":"筑地青空三代目","lon":"121.4548103565655","lat":"31.22240874581705","category":"247","category_name":"餐饮美食","address":"卢湾区长乐路191号1-2楼(近茂名南路)"},{"poiid":"B2094757D064A6FE479B","title":"味里日本料理","lon":"121.45764","lat":"31.22078","category":"95","category_name":"日本料理","address":"卢湾区陕西南路5-7号城市酒店6楼(近巨鹿路)"},{"poiid":"B2094750D26DA6FE419F","title":"De Refer","lon":"121.454804","lat":"31.222628","category":"247","category_name":"餐饮美食","address":"卢湾区进贤路181号(近茂名南路)"},{"poiid":"B2094757D06AA3FD499C","title":"澳门豆捞坊","lon":"121.45491273","lat":"31.223712161","category":"86","category_name":"火锅店","address":"静安区延安中路817号(近陕西南路)"},{"poiid":"B2094750D16BA2F94199","title":"锦江迪生 唐宫一号","lon":"121.456863","lat":"31.223424","category":"247","category_name":"餐饮美食","address":"长乐路"},{"poiid":"B2094757D164A6F4439A","title":"巨鹿路","lon":"121.459033","lat":"31.222743","category":"500","category_name":"未知分类","address":"上海巨鹿路318号"},{"poiid":"B2094752D46AA6FD419B","title":"MOMO牧场","lon":"121.457352","lat":"31.220779","category":"247","category_name":"餐饮美食","address":null},{"poiid":"B2094757D064A0FA449C","title":"上海市作家协会","lon":"121.45642852","lat":"31.221380233","category":"500","category_name":"未知分类","address":"上海市静安区巨鹿路675号"},{"poiid":"B2094757D068A6F4409D","title":"丰裕生煎(陕西南路店)","lon":"121.45699214","lat":"31.221262239","category":"257","category_name":"中餐厅","address":"卢湾区陕西南路281号(近绍兴路)"},{"poiid":"B2094753D36DA1FA4398","title":"平纳谷碳火牛排馆","lon":"121.457012","lat":"31.222848","category":"94","category_name":"西餐厅","address":"陕西南路5-7号城市酒店5楼"},{"poiid":"B2094757D16FA4FD4892","title":"Maya 玛雅","lon":"121.45645483","lat":"31.221630316","category":"500","category_name":"未知分类","address":"上海巨鹿路568弄四方新城俱乐部2楼(近襄阳北路)/62896889"},{"poiid":"B2094757D068A4F44998","title":"静安书友汇","lon":"121.45586","lat":"31.22468","category":"260","category_name":"其他","address":"静安区威海路870号(近延安中路)"},{"poiid":"B2094750D56EA0F9499E","title":"雅克红房子","lon":"121.457679","lat":"31.220968","category":"247","category_name":"餐饮美食","address":"陕西南路35号"},{"poiid":"B2094757D569A0FA479E","title":"马勒玫瑰公主咖啡吧","lon":"121.456317","lat":"31.22291612","category":"65","category_name":"咖啡厅","address":"中国上海市静安区陕西南路"},{"poiid":"B2094654DA6CA0F8429B","title":"小实惠","lon":"121.456031054","lat":"31.224860793","category":"76","category_name":"上海菜","address":"静安区威海路855号(近陕西北路)"},{"poiid":"B2094757D56EA2F44999","title":"花园饭店玫瑰厅","lon":"121.4562828","lat":"31.2217012","category":"247","category_name":"餐饮美食","address":"茂名路"},{"poiid":"B2094757D069A3FF419C","title":"210 Coffee","lon":"121.45804573","lat":"31.22132311","category":"65","category_name":"咖啡厅","address":"卢湾区进贤路210号1-3楼(近陕西南路)"},{"poiid":"B2094752D26DA2F4499E","title":"鱼羊老镇之崇明味道(陕西南路店)","lon":"121.45763","lat":"31.22117","category":"76","category_name":"上海菜","address":"卢湾区陕西南路122号1楼(近进贤路)"},{"poiid":"B2094654D564ABFE469F","title":"悟锦世纪大楼","lon":"121.459","lat":"31.2237","category":"46","category_name":"楼宇","address":"富民路291号"},{"poiid":"B2094757D06FA5FB4892","title":"Chill Lounge","lon":"121.459104395","lat":"31.2228115434","category":"260","category_name":"其他","address":"卢湾区巨鹿路318-2号(近茂名南路)"},{"poiid":"B2094654DB64A5F4479D","title":"名轩上海高等食府","lon":"121.457","lat":"31.22273","category":"72","category_name":"广东菜","address":"卢湾区陕西南路5-7号城市酒店3楼(近巨鹿路)"},{"poiid":"B2094757D164A4FD4793","title":"甜蜜蜜威海路店","lon":"121.45572353","lat":"31.223760362","category":"67","category_name":"甜品店","address":"静安区威海路906号"},{"poiid":"B2094757D068ABF9479F","title":"上海第二工业大学(静安分校)","lon":"121.45706","lat":"31.22502","category":"52","category_name":"高等院校","address":"静安区陕西北路80号(威海路口)"},{"poiid":"B2094757D06FA3FD4092","title":"马勒别墅","lon":"121.45619201","lat":"31.223121643","category":"47","category_name":"住宅区","address":"上海陕西南路30号"},{"poiid":"B2094757DA64A5FB4893","title":"打望重庆火锅","lon":"121.45697","lat":"31.22139","category":"86","category_name":"火锅店","address":"卢湾区陕西南路90号3楼(近巨鹿路)"},{"poiid":"B2094757D06FA1FA419B","title":"福记港式茶粥面","lon":"121.45690546","lat":"31.222352362","category":"72","category_name":"广东菜","address":"卢湾区陕西南路11号(近巨鹿路)"},{"poiid":"B2094753D76FAAFA449C","title":"上海滩国泰旗舰店","lon":"121.466011","lat":"31.216125","category":"249","category_name":"购物服务","address":"淮海中路868号"},{"poiid":"B209475CD564A7F84292","title":"上海滩新天地店","lon":"121.47463","lat":"31.22164","category":"119","category_name":"商场","address":"\"太仓路181弄新天地北里15号\r\n\""},{"poiid":"B209475CD564A7F8439E","title":"上海滩中信泰富店","lon":"121.45602","lat":"31.22851","category":"119","category_name":"商场","address":"\"南京西路1168号中信泰富广场，店铺号221.\r\n\""},{"poiid":"B2094655D26EAAFB499B","title":"CITIZEN CAFE & BAR","lon":"121.45869704223","lat":"31.220626397075","category":"247","category_name":"餐饮美食","address":"卢湾区进贤路222号(近陕西南路)"},{"poiid":"B2094654D564AAFF4792","title":"海金滋酒家","lon":"121.4573759075","lat":"31.221076151613","category":"257","category_name":"中餐厅","address":"卢湾区进贤路240号(近陕西南路)"},{"poiid":"B2094655D26FA3FD419A","title":"億方砂锅粥(陕西南路店)","lon":"121.45704","lat":"31.22121","category":"72","category_name":"广东菜","address":"卢湾区陕西南路90号(近巨鹿路)"},{"poiid":"B2094757D06FA0FB409D","title":"Cafe La Mer(玛赫咖啡)","lon":"121.45616054","lat":"31.221554178","category":"65","category_name":"咖啡厅","address":"上海静安区巨鹿路677号(近陕西南路)"},{"poiid":"B2094757D06FA2F54598","title":"梅园村酒家(静安店)","lon":"121.45489","lat":"31.223","category":"76","category_name":"上海菜","address":"静安区延安中路841号(近陕西南路)"},{"poiid":"B2094757D06FAAFA459A","title":"城市酒店","lon":"121.45726927","lat":"31.222721847","category":"217","category_name":"旅馆招待所","address":"卢湾区陕西南路5-7号(近巨鹿路)"},{"poiid":"B2094757D06FA5F84393","title":"东瀛国际造型(淮海路店)","lon":"121.45769292","lat":"31.222248609","category":"148","category_name":"美容美发店","address":"卢湾区巨鹿路423号(近地铁1号线陕西南路站)"},{"poiid":"B2094757D068A7FB459A","title":"Maya Mexican Restaurant","lon":"121.45522308","lat":"31.221933364","category":"500","category_name":"未知分类","address":"上海巨鹿路568号 四方新城俱樂部2樓"},{"poiid":"B2094757D06AA3FF4398","title":"高峰美式牛排馆","lon":"121.457064694","lat":"31.2226914554","category":"94","category_name":"西餐厅","address":"卢湾区陕西南路5-7号城市酒店5楼(近巨鹿路)"},{"poiid":"B2094757D06FA6FF4892","title":"科恩国际中心","lon":"121.45694732","lat":"31.224573135","category":"46","category_name":"楼宇","address":"人民路885号-889号"},{"poiid":"B2094757D069A0F8409F","title":"名豪鱼翅海鲜(静安店)","lon":"121.45726","lat":"31.22427","category":"72","category_name":"广东菜","address":"静安区陕西北路66号科恩国际中心(近威海路)"},{"poiid":"B2094750DA6AAAFA4893","title":"意大利saicaf索卡妃臻品咖啡","lon":"121.457397","lat":"31.22088","category":"247","category_name":"餐饮美食","address":"上海市陕西南路35号"},{"poiid":"B2094757D66BA3FD4993","title":"Masse","lon":"121.457856","lat":"31.221176","category":"94","category_name":"西餐厅","address":"卢湾区进贤路219号5-6楼(近陕西南路)"},{"poiid":"B2094757D168AAF5499F","title":"伊秀寿司","lon":"121.45819373","lat":"31.224303173","category":"247","category_name":"餐饮美食","address":"上海市静安区南京西路"},{"poiid":"B2094750D26AA6FC429F","title":"恒隆","lon":"121.458969","lat":"31.223642","category":"500","category_name":"未知分类","address":"南京西路"},{"poiid":"B2094757D06EAAFD4892","title":"微薄之盐—12th-day House","lon":"121.4562828","lat":"31.2217012","category":"67","category_name":"甜品店","address":"静安区巨鹿路516弄5号(近陕西南路)"},{"poiid":"B2094757D069A1FC4098","title":"玫瑰公主咖啡吧","lon":"121.456348427","lat":"31.2228919607","category":"260","category_name":"其他","address":"卢湾区陕西南路30号马勒别墅花园内(近延安中路)"},{"poiid":"B2094757D56EA2FB469A","title":"Le Vin","lon":"121.45787000656128","lat":"31.22141716161553","category":"260","category_name":"其他","address":"卢湾区进贤路224号"},{"poiid":"B209475CD76EA1F94298","title":"吃完咸的吃点甜的","lon":"121.456405","lat":"31.221799","category":"247","category_name":"餐饮美食","address":"上海市 长乐路620号"},{"poiid":"B209475DD669A2FA499B","title":"馆子House198","lon":"121.458572","lat":"31.221391","category":"247","category_name":"餐饮美食","address":"上海市 卢湾区进贤路198号"},{"poiid":"B2094654DB6AA3FE4298","title":"衡山马勒别墅中餐厅","lon":"121.4563","lat":"31.22289","category":"76","category_name":"上海菜","address":"上海市静安区陕西南路30号马勒别墅饭店1号楼1楼和2楼(近延安中路)"},{"poiid":"B2094757DB6FA7FB499B","title":"筑地青空三代目","lon":"121.4548103565655","lat":"31.22240874581705","category":"247","category_name":"餐饮美食","address":"卢湾区长乐路191号1-2楼(近茂名南路)"},{"poiid":"B2094757D064A6FE479B","title":"味里日本料理","lon":"121.45764","lat":"31.22078","category":"95","category_name":"日本料理","address":"卢湾区陕西南路5-7号城市酒店6楼(近巨鹿路)"},{"poiid":"B2094750D26DA6FE419F","title":"De Refer","lon":"121.454804","lat":"31.222628","category":"247","category_name":"餐饮美食","address":"卢湾区进贤路181号(近茂名南路)"},{"poiid":"B2094757D06AA3FD499C","title":"澳门豆捞坊","lon":"121.45491273","lat":"31.223712161","category":"86","category_name":"火锅店","address":"静安区延安中路817号(近陕西南路)"},{"poiid":"B2094750D16BA2F94199","title":"锦江迪生 唐宫一号","lon":"121.456863","lat":"31.223424","category":"247","category_name":"餐饮美食","address":"长乐路"},{"poiid":"B2094757D164A6F4439A","title":"巨鹿路","lon":"121.459033","lat":"31.222743","category":"500","category_name":"未知分类","address":"上海巨鹿路318号"},{"poiid":"B2094752D46AA6FD419B","title":"MOMO牧场","lon":"121.457352","lat":"31.220779","category":"247","category_name":"餐饮美食","address":null},{"poiid":"B2094757D064A0FA449C","title":"上海市作家协会","lon":"121.45642852","lat":"31.221380233","category":"500","category_name":"未知分类","address":"上海市静安区巨鹿路675号"},{"poiid":"B2094757D068A6F4409D","title":"丰裕生煎(陕西南路店)","lon":"121.45699214","lat":"31.221262239","category":"257","category_name":"中餐厅","address":"卢湾区陕西南路281号(近绍兴路)"},{"poiid":"B2094753D36DA1FA4398","title":"平纳谷碳火牛排馆","lon":"121.457012","lat":"31.222848","category":"94","category_name":"西餐厅","address":"陕西南路5-7号城市酒店5楼"},{"poiid":"B2094757D16FA4FD4892","title":"Maya 玛雅","lon":"121.45645483","lat":"31.221630316","category":"500","category_name":"未知分类","address":"上海巨鹿路568弄四方新城俱乐部2楼(近襄阳北路)/62896889"},{"poiid":"B2094757D068A4F44998","title":"静安书友汇","lon":"121.45586","lat":"31.22468","category":"260","category_name":"其他","address":"静安区威海路870号(近延安中路)"},{"poiid":"B2094750D56EA0F9499E","title":"雅克红房子","lon":"121.457679","lat":"31.220968","category":"247","category_name":"餐饮美食","address":"陕西南路35号"},{"poiid":"B2094757D569A0FA479E","title":"马勒玫瑰公主咖啡吧","lon":"121.456317","lat":"31.22291612","category":"65","category_name":"咖啡厅","address":"中国上海市静安区陕西南路"},{"poiid":"B2094654DA6CA0F8429B","title":"小实惠","lon":"121.456031054","lat":"31.224860793","category":"76","category_name":"上海菜","address":"静安区威海路855号(近陕西北路)"},{"poiid":"B2094757D56EA2F44999","title":"花园饭店玫瑰厅","lon":"121.4562828","lat":"31.2217012","category":"247","category_name":"餐饮美食","address":"茂名路"},{"poiid":"B2094757D069A3FF419C","title":"210 Coffee","lon":"121.45804573","lat":"31.22132311","category":"65","category_name":"咖啡厅","address":"卢湾区进贤路210号1-3楼(近陕西南路)"},{"poiid":"B2094752D26DA2F4499E","title":"鱼羊老镇之崇明味道(陕西南路店)","lon":"121.45763","lat":"31.22117","category":"76","category_name":"上海菜","address":"卢湾区陕西南路122号1楼(近进贤路)"},{"poiid":"B2094654D564ABFE469F","title":"悟锦世纪大楼","lon":"121.459","lat":"31.2237","category":"46","category_name":"楼宇","address":"富民路291号"},{"poiid":"B2094757D06FA5FB4892","title":"Chill Lounge","lon":"121.459104395","lat":"31.2228115434","category":"260","category_name":"其他","address":"卢湾区巨鹿路318-2号(近茂名南路)"},{"poiid":"B2094654DB64A5F4479D","title":"名轩上海高等食府","lon":"121.457","lat":"31.22273","category":"72","category_name":"广东菜","address":"卢湾区陕西南路5-7号城市酒店3楼(近巨鹿路)"},{"poiid":"B2094757D164A4FD4793","title":"甜蜜蜜威海路店","lon":"121.45572353","lat":"31.223760362","category":"67","category_name":"甜品店","address":"静安区威海路906号"},{"poiid":"B2094757D068ABF9479F","title":"上海第二工业大学(静安分校)","lon":"121.45706","lat":"31.22502","category":"52","category_name":"高等院校","address":"静安区陕西北路80号(威海路口)"},{"poiid":"B2094757D06FA3FD4092","title":"马勒别墅","lon":"121.45619201","lat":"31.223121643","category":"47","category_name":"住宅区","address":"上海陕西南路30号"},{"poiid":"B2094757DA64A5FB4893","title":"打望重庆火锅","lon":"121.45697","lat":"31.22139","category":"86","category_name":"火锅店","address":"卢湾区陕西南路90号3楼(近巨鹿路)"},{"poiid":"B2094757D06FA1FA419B","title":"福记港式茶粥面","lon":"121.45690546","lat":"31.222352362","category":"72","category_name":"广东菜","address":"卢湾区陕西南路11号(近巨鹿路)"},{"poiid":"B2094753D76FAAFA449C","title":"上海滩国泰旗舰店","lon":"121.466011","lat":"31.216125","category":"249","category_name":"购物服务","address":"淮海中路868号"},{"poiid":"B209475CD564A7F84292","title":"上海滩新天地店","lon":"121.47463","lat":"31.22164","category":"119","category_name":"商场","address":"\"太仓路181弄新天地北里15号\r\n\""},{"poiid":"B209475CD564A7F8439E","title":"上海滩中信泰富店","lon":"121.45602","lat":"31.22851","category":"119","category_name":"商场","address":"\"南京西路1168号中信泰富广场，店铺号221.\r\n\""},{"poiid":"B2094655D26EAAFB499B","title":"CITIZEN CAFE & BAR","lon":"121.45869704223","lat":"31.220626397075","category":"247","category_name":"餐饮美食","address":"卢湾区进贤路222号(近陕西南路)"},{"poiid":"B2094654D564AAFF4792","title":"海金滋酒家","lon":"121.4573759075","lat":"31.221076151613","category":"257","category_name":"中餐厅","address":"卢湾区进贤路240号(近陕西南路)"},{"poiid":"B2094655D26FA3FD419A","title":"億方砂锅粥(陕西南路店)","lon":"121.45704","lat":"31.22121","category":"72","category_name":"广东菜","address":"卢湾区陕西南路90号(近巨鹿路)"},{"poiid":"B2094757D06FA0FB409D","title":"Cafe La Mer(玛赫咖啡)","lon":"121.45616054","lat":"31.221554178","category":"65","category_name":"咖啡厅","address":"上海静安区巨鹿路677号(近陕西南路)"},{"poiid":"B2094757D06FA2F54598","title":"梅园村酒家(静安店)","lon":"121.45489","lat":"31.223","category":"76","category_name":"上海菜","address":"静安区延安中路841号(近陕西南路)"},{"poiid":"B2094757D06FAAFA459A","title":"城市酒店","lon":"121.45726927","lat":"31.222721847","category":"217","category_name":"旅馆招待所","address":"卢湾区陕西南路5-7号(近巨鹿路)"},{"poiid":"B2094757D06FA5F84393","title":"东瀛国际造型(淮海路店)","lon":"121.45769292","lat":"31.222248609","category":"148","category_name":"美容美发店","address":"卢湾区巨鹿路423号(近地铁1号线陕西南路站)"},{"poiid":"B2094757D068A7FB459A","title":"Maya Mexican Restaurant","lon":"121.45522308","lat":"31.221933364","category":"500","category_name":"未知分类","address":"上海巨鹿路568号 四方新城俱樂部2樓"},{"poiid":"B2094757D06AA3FF4398","title":"高峰美式牛排馆","lon":"121.457064694","lat":"31.2226914554","category":"94","category_name":"西餐厅","address":"卢湾区陕西南路5-7号城市酒店5楼(近巨鹿路)"},{"poiid":"B2094757D06FA6FF4892","title":"科恩国际中心","lon":"121.45694732","lat":"31.224573135","category":"46","category_name":"楼宇","address":"人民路885号-889号"},{"poiid":"B2094757D069A0F8409F","title":"名豪鱼翅海鲜(静安店)","lon":"121.45726","lat":"31.22427","category":"72","category_name":"广东菜","address":"静安区陕西北路66号科恩国际中心(近威海路)"},{"poiid":"B2094750DA6AAAFA4893","title":"意大利saicaf索卡妃臻品咖啡","lon":"121.457397","lat":"31.22088","category":"247","category_name":"餐饮美食","address":"上海市陕西南路35号"},{"poiid":"B2094757D66BA3FD4993","title":"Masse","lon":"121.457856","lat":"31.221176","category":"94","category_name":"西餐厅","address":"卢湾区进贤路219号5-6楼(近陕西南路)"},{"poiid":"B2094757D168AAF5499F","title":"伊秀寿司","lon":"121.45819373","lat":"31.224303173","category":"247","category_name":"餐饮美食","address":"上海市静安区南京西路"},{"poiid":"B2094750D26AA6FC429F","title":"恒隆","lon":"121.458969","lat":"31.223642","category":"500","category_name":"未知分类","address":"南京西路"},{"poiid":"B2094757D06EAAFD4892","title":"微薄之盐—12th-day House","lon":"121.4562828","lat":"31.2217012","category":"67","category_name":"甜品店","address":"静安区巨鹿路516弄5号(近陕西南路)"},{"poiid":"B2094757D069A1FC4098","title":"玫瑰公主咖啡吧","lon":"121.456348427","lat":"31.2228919607","category":"260","category_name":"其他","address":"卢湾区陕西南路30号马勒别墅花园内(近延安中路)"},{"poiid":"B2094757D56EA2FB469A","title":"Le Vin","lon":"121.45787000656128","lat":"31.22141716161553","category":"260","category_name":"其他","address":"卢湾区进贤路224号"},{"poiid":"B209475CD76EA1F94298","title":"吃完咸的吃点甜的","lon":"121.456405","lat":"31.221799","category":"247","category_name":"餐饮美食","address":"上海市 长乐路620号"},{"poiid":"B209475DD669A2FA499B","title":"馆子House198","lon":"121.458572","lat":"31.221391","category":"247","category_name":"餐饮美食","address":"上海市 卢湾区进贤路198号"},{"poiid":"B2094654DB6AA3FE4298","title":"衡山马勒别墅中餐厅","lon":"121.4563","lat":"31.22289","category":"76","category_name":"上海菜","address":"上海市静安区陕西南路30号马勒别墅饭店1号楼1楼和2楼(近延安中路)"},{"poiid":"B2094757DB6FA7FB499B","title":"筑地青空三代目","lon":"121.4548103565655","lat":"31.22240874581705","category":"247","category_name":"餐饮美食","address":"卢湾区长乐路191号1-2楼(近茂名南路)"},{"poiid":"B2094757D064A6FE479B","title":"味里日本料理","lon":"121.45764","lat":"31.22078","category":"95","category_name":"日本料理","address":"卢湾区陕西南路5-7号城市酒店6楼(近巨鹿路)"},{"poiid":"B2094750D26DA6FE419F","title":"De Refer","lon":"121.454804","lat":"31.222628","category":"247","category_name":"餐饮美食","address":"卢湾区进贤路181号(近茂名南路)"},{"poiid":"B2094757D06AA3FD499C","title":"澳门豆捞坊","lon":"121.45491273","lat":"31.223712161","category":"86","category_name":"火锅店","address":"静安区延安中路817号(近陕西南路)"},{"poiid":"B2094750D16BA2F94199","title":"锦江迪生 唐宫一号","lon":"121.456863","lat":"31.223424","category":"247","category_name":"餐饮美食","address":"长乐路"},{"poiid":"B2094757D164A6F4439A","title":"巨鹿路","lon":"121.459033","lat":"31.222743","category":"500","category_name":"未知分类","address":"上海巨鹿路318号"},{"poiid":"B2094752D46AA6FD419B","title":"MOMO牧场","lon":"121.457352","lat":"31.220779","category":"247","category_name":"餐饮美食","address":null},{"poiid":"B2094757D064A0FA449C","title":"上海市作家协会","lon":"121.45642852","lat":"31.221380233","category":"500","category_name":"未知分类","address":"上海市静安区巨鹿路675号"},{"poiid":"B2094757D068A6F4409D","title":"丰裕生煎(陕西南路店)","lon":"121.45699214","lat":"31.221262239","category":"257","category_name":"中餐厅","address":"卢湾区陕西南路281号(近绍兴路)"},{"poiid":"B2094753D36DA1FA4398","title":"平纳谷碳火牛排馆","lon":"121.457012","lat":"31.222848","category":"94","category_name":"西餐厅","address":"陕西南路5-7号城市酒店5楼"},{"poiid":"B2094757D16FA4FD4892","title":"Maya 玛雅","lon":"121.45645483","lat":"31.221630316","category":"500","category_name":"未知分类","address":"上海巨鹿路568弄四方新城俱乐部2楼(近襄阳北路)/62896889"},{"poiid":"B2094757D068A4F44998","title":"静安书友汇","lon":"121.45586","lat":"31.22468","category":"260","category_name":"其他","address":"静安区威海路870号(近延安中路)"},{"poiid":"B2094750D56EA0F9499E","title":"雅克红房子","lon":"121.457679","lat":"31.220968","category":"247","category_name":"餐饮美食","address":"陕西南路35号"},{"poiid":"B2094757D569A0FA479E","title":"马勒玫瑰公主咖啡吧","lon":"121.456317","lat":"31.22291612","category":"65","category_name":"咖啡厅","address":"中国上海市静安区陕西南路"},{"poiid":"B2094654DA6CA0F8429B","title":"小实惠","lon":"121.456031054","lat":"31.224860793","category":"76","category_name":"上海菜","address":"静安区威海路855号(近陕西北路)"},{"poiid":"B2094757D56EA2F44999","title":"花园饭店玫瑰厅","lon":"121.4562828","lat":"31.2217012","category":"247","category_name":"餐饮美食","address":"茂名路"},{"poiid":"B2094757D069A3FF419C","title":"210 Coffee","lon":"121.45804573","lat":"31.22132311","category":"65","category_name":"咖啡厅","address":"卢湾区进贤路210号1-3楼(近陕西南路)"},{"poiid":"B2094752D26DA2F4499E","title":"鱼羊老镇之崇明味道(陕西南路店)","lon":"121.45763","lat":"31.22117","category":"76","category_name":"上海菜","address":"卢湾区陕西南路122号1楼(近进贤路)"},{"poiid":"B2094654D564ABFE469F","title":"悟锦世纪大楼","lon":"121.459","lat":"31.2237","category":"46","category_name":"楼宇","address":"富民路291号"},{"poiid":"B2094757D06FA5FB4892","title":"Chill Lounge","lon":"121.459104395","lat":"31.2228115434","category":"260","category_name":"其他","address":"卢湾区巨鹿路318-2号(近茂名南路)"},{"poiid":"B2094654DB64A5F4479D","title":"名轩上海高等食府","lon":"121.457","lat":"31.22273","category":"72","category_name":"广东菜","address":"卢湾区陕西南路5-7号城市酒店3楼(近巨鹿路)"},{"poiid":"B2094757D164A4FD4793","title":"甜蜜蜜威海路店","lon":"121.45572353","lat":"31.223760362","category":"67","category_name":"甜品店","address":"静安区威海路906号"},{"poiid":"B2094757D068ABF9479F","title":"上海第二工业大学(静安分校)","lon":"121.45706","lat":"31.22502","category":"52","category_name":"高等院校","address":"静安区陕西北路80号(威海路口)"},{"poiid":"B2094757D06FA3FD4092","title":"马勒别墅","lon":"121.45619201","lat":"31.223121643","category":"47","category_name":"住宅区","address":"上海陕西南路30号"},{"poiid":"B2094757DA64A5FB4893","title":"打望重庆火锅","lon":"121.45697","lat":"31.22139","category":"86","category_name":"火锅店","address":"卢湾区陕西南路90号3楼(近巨鹿路)"},{"poiid":"B2094757D06FA1FA419B","title":"福记港式茶粥面","lon":"121.45690546","lat":"31.222352362","category":"72","category_name":"广东菜","address":"卢湾区陕西南路11号(近巨鹿路)"},{"poiid":"B2094753D76FAAFA449C","title":"上海滩国泰旗舰店","lon":"121.466011","lat":"31.216125","category":"249","category_name":"购物服务","address":"淮海中路868号"},{"poiid":"B209475CD564A7F84292","title":"上海滩新天地店","lon":"121.47463","lat":"31.22164","category":"119","category_name":"商场","address":"\"太仓路181弄新天地北里15号\r\n\""},{"poiid":"B209475CD564A7F8439E","title":"上海滩中信泰富店","lon":"121.45602","lat":"31.22851","category":"119","category_name":"商场","address":"\"南京西路1168号中信泰富广场，店铺号221.\r\n\""},{"poiid":"B2094655D26EAAFB499B","title":"CITIZEN CAFE & BAR","lon":"121.45869704223","lat":"31.220626397075","category":"247","category_name":"餐饮美食","address":"卢湾区进贤路222号(近陕西南路)"},{"poiid":"B2094654D564AAFF4792","title":"海金滋酒家","lon":"121.4573759075","lat":"31.221076151613","category":"257","category_name":"中餐厅","address":"卢湾区进贤路240号(近陕西南路)"},{"poiid":"B2094655D26FA3FD419A","title":"億方砂锅粥(陕西南路店)","lon":"121.45704","lat":"31.22121","category":"72","category_name":"广东菜","address":"卢湾区陕西南路90号(近巨鹿路)"},{"poiid":"B2094757D06FA0FB409D","title":"Cafe La Mer(玛赫咖啡)","lon":"121.45616054","lat":"31.221554178","category":"65","category_name":"咖啡厅","address":"上海静安区巨鹿路677号(近陕西南路)"},{"poiid":"B2094757D06FA2F54598","title":"梅园村酒家(静安店)","lon":"121.45489","lat":"31.223","category":"76","category_name":"上海菜","address":"静安区延安中路841号(近陕西南路)"},{"poiid":"B2094757D06FAAFA459A","title":"城市酒店","lon":"121.45726927","lat":"31.222721847","category":"217","category_name":"旅馆招待所","address":"卢湾区陕西南路5-7号(近巨鹿路)"},{"poiid":"B2094757D06FA5F84393","title":"东瀛国际造型(淮海路店)","lon":"121.45769292","lat":"31.222248609","category":"148","category_name":"美容美发店","address":"卢湾区巨鹿路423号(近地铁1号线陕西南路站)"},{"poiid":"B2094757D068A7FB459A","title":"Maya Mexican Restaurant","lon":"121.45522308","lat":"31.221933364","category":"500","category_name":"未知分类","address":"上海巨鹿路568号 四方新城俱樂部2樓"},{"poiid":"B2094757D06AA3FF4398","title":"高峰美式牛排馆","lon":"121.457064694","lat":"31.2226914554","category":"94","category_name":"西餐厅","address":"卢湾区陕西南路5-7号城市酒店5楼(近巨鹿路)"},{"poiid":"B2094757D06FA6FF4892","title":"科恩国际中心","lon":"121.45694732","lat":"31.224573135","category":"46","category_name":"楼宇","address":"人民路885号-889号"},{"poiid":"B2094757D069A0F8409F","title":"名豪鱼翅海鲜(静安店)","lon":"121.45726","lat":"31.22427","category":"72","category_name":"广东菜","address":"静安区陕西北路66号科恩国际中心(近威海路)"},{"poiid":"B2094750DA6AAAFA4893","title":"意大利saicaf索卡妃臻品咖啡","lon":"121.457397","lat":"31.22088","category":"247","category_name":"餐饮美食","address":"上海市陕西南路35号"},{"poiid":"B2094757D66BA3FD4993","title":"Masse","lon":"121.457856","lat":"31.221176","category":"94","category_name":"西餐厅","address":"卢湾区进贤路219号5-6楼(近陕西南路)"},{"poiid":"B2094757D168AAF5499F","title":"伊秀寿司","lon":"121.45819373","lat":"31.224303173","category":"247","category_name":"餐饮美食","address":"上海市静安区南京西路"},{"poiid":"B2094750D26AA6FC429F","title":"恒隆","lon":"121.458969","lat":"31.223642","category":"500","category_name":"未知分类","address":"南京西路"},{"poiid":"B2094757D06EAAFD4892","title":"微薄之盐—12th-day House","lon":"121.4562828","lat":"31.2217012","category":"67","category_name":"甜品店","address":"静安区巨鹿路516弄5号(近陕西南路)"},{"poiid":"B2094757D069A1FC4098","title":"玫瑰公主咖啡吧","lon":"121.456348427","lat":"31.2228919607","category":"260","category_name":"其他","address":"卢湾区陕西南路30号马勒别墅花园内(近延安中路)"},{"poiid":"B2094757D56EA2FB469A","title":"Le Vin","lon":"121.45787000656128","lat":"31.22141716161553","category":"260","category_name":"其他","address":"卢湾区进贤路224号"},{"poiid":"B209475CD76EA1F94298","title":"吃完咸的吃点甜的","lon":"121.456405","lat":"31.221799","category":"247","category_name":"餐饮美食","address":"上海市 长乐路620号"},{"poiid":"B209475DD669A2FA499B","title":"馆子House198","lon":"121.458572","lat":"31.221391","category":"247","category_name":"餐饮美食","address":"上海市 卢湾区进贤路198号"},{"poiid":"B2094654DB6AA3FE4298","title":"衡山马勒别墅中餐厅","lon":"121.4563","lat":"31.22289","category":"76","category_name":"上海菜","address":"上海市静安区陕西南路30号马勒别墅饭店1号楼1楼和2楼(近延安中路)"},{"poiid":"B2094757DB6FA7FB499B","title":"筑地青空三代目","lon":"121.4548103565655","lat":"31.22240874581705","category":"247","category_name":"餐饮美食","address":"卢湾区长乐路191号1-2楼(近茂名南路)"},{"poiid":"B2094757D064A6FE479B","title":"味里日本料理","lon":"121.45764","lat":"31.22078","category":"95","category_name":"日本料理","address":"卢湾区陕西南路5-7号城市酒店6楼(近巨鹿路)"},{"poiid":"B2094750D26DA6FE419F","title":"De Refer","lon":"121.454804","lat":"31.222628","category":"247","category_name":"餐饮美食","address":"卢湾区进贤路181号(近茂名南路)"},{"poiid":"B2094757D06AA3FD499C","title":"澳门豆捞坊","lon":"121.45491273","lat":"31.223712161","category":"86","category_name":"火锅店","address":"静安区延安中路817号(近陕西南路)"},{"poiid":"B2094750D16BA2F94199","title":"锦江迪生 唐宫一号","lon":"121.456863","lat":"31.223424","category":"247","category_name":"餐饮美食","address":"长乐路"},{"poiid":"B2094757D164A6F4439A","title":"巨鹿路","lon":"121.459033","lat":"31.222743","category":"500","category_name":"未知分类","address":"上海巨鹿路318号"},{"poiid":"B2094752D46AA6FD419B","title":"MOMO牧场","lon":"121.457352","lat":"31.220779","category":"247","category_name":"餐饮美食","address":null},{"poiid":"B2094757D064A0FA449C","title":"上海市作家协会","lon":"121.45642852","lat":"31.221380233","category":"500","category_name":"未知分类","address":"上海市静安区巨鹿路675号"},{"poiid":"B2094757D068A6F4409D","title":"丰裕生煎(陕西南路店)","lon":"121.45699214","lat":"31.221262239","category":"257","category_name":"中餐厅","address":"卢湾区陕西南路281号(近绍兴路)"},{"poiid":"B2094753D36DA1FA4398","title":"平纳谷碳火牛排馆","lon":"121.457012","lat":"31.222848","category":"94","category_name":"西餐厅","address":"陕西南路5-7号城市酒店5楼"},{"poiid":"B2094757D16FA4FD4892","title":"Maya 玛雅","lon":"121.45645483","lat":"31.221630316","category":"500","category_name":"未知分类","address":"上海巨鹿路568弄四方新城俱乐部2楼(近襄阳北路)/62896889"},{"poiid":"B2094757D068A4F44998","title":"静安书友汇","lon":"121.45586","lat":"31.22468","category":"260","category_name":"其他","address":"静安区威海路870号(近延安中路)"},{"poiid":"B2094750D56EA0F9499E","title":"雅克红房子","lon":"121.457679","lat":"31.220968","category":"247","category_name":"餐饮美食","address":"陕西南路35号"},{"poiid":"B2094757D569A0FA479E","title":"马勒玫瑰公主咖啡吧","lon":"121.456317","lat":"31.22291612","category":"65","category_name":"咖啡厅","address":"中国上海市静安区陕西南路"},{"poiid":"B2094654DA6CA0F8429B","title":"小实惠","lon":"121.456031054","lat":"31.224860793","category":"76","category_name":"上海菜","address":"静安区威海路855号(近陕西北路)"},{"poiid":"B2094757D56EA2F44999","title":"花园饭店玫瑰厅","lon":"121.4562828","lat":"31.2217012","category":"247","category_name":"餐饮美食","address":"茂名路"},{"poiid":"B2094757D069A3FF419C","title":"210 Coffee","lon":"121.45804573","lat":"31.22132311","category":"65","category_name":"咖啡厅","address":"卢湾区进贤路210号1-3楼(近陕西南路)"},{"poiid":"B2094752D26DA2F4499E","title":"鱼羊老镇之崇明味道(陕西南路店)","lon":"121.45763","lat":"31.22117","category":"76","category_name":"上海菜","address":"卢湾区陕西南路122号1楼(近进贤路)"},{"poiid":"B2094654D564ABFE469F","title":"悟锦世纪大楼","lon":"121.459","lat":"31.2237","category":"46","category_name":"楼宇","address":"富民路291号"},{"poiid":"B2094757D06FA5FB4892","title":"Chill Lounge","lon":"121.459104395","lat":"31.2228115434","category":"260","category_name":"其他","address":"卢湾区巨鹿路318-2号(近茂名南路)"},{"poiid":"B2094654DB64A5F4479D","title":"名轩上海高等食府","lon":"121.457","lat":"31.22273","category":"72","category_name":"广东菜","address":"卢湾区陕西南路5-7号城市酒店3楼(近巨鹿路)"},{"poiid":"B2094757D164A4FD4793","title":"甜蜜蜜威海路店","lon":"121.45572353","lat":"31.223760362","category":"67","category_name":"甜品店","address":"静安区威海路906号"},{"poiid":"B2094757D068ABF9479F","title":"上海第二工业大学(静安分校)","lon":"121.45706","lat":"31.22502","category":"52","category_name":"高等院校","address":"静安区陕西北路80号(威海路口)"},{"poiid":"B2094757D06FA3FD4092","title":"马勒别墅","lon":"121.45619201","lat":"31.223121643","category":"47","category_name":"住宅区","address":"上海陕西南路30号"},{"poiid":"B2094757DA64A5FB4893","title":"打望重庆火锅","lon":"121.45697","lat":"31.22139","category":"86","category_name":"火锅店","address":"卢湾区陕西南路90号3楼(近巨鹿路)"},{"poiid":"B2094757D06FA1FA419B","title":"福记港式茶粥面","lon":"121.45690546","lat":"31.222352362","category":"72","category_name":"广东菜","address":"卢湾区陕西南路11号(近巨鹿路)"},{"poiid":"B2094753D76FAAFA449C","title":"上海滩国泰旗舰店","lon":"121.466011","lat":"31.216125","category":"249","category_name":"购物服务","address":"淮海中路868号"},{"poiid":"B209475CD564A7F84292","title":"上海滩新天地店","lon":"121.47463","lat":"31.22164","category":"119","category_name":"商场","address":"\"太仓路181弄新天地北里15号\r\n\""},{"poiid":"B209475CD564A7F8439E","title":"上海滩中信泰富店","lon":"121.45602","lat":"31.22851","category":"119","category_name":"商场","address":"\"南京西路1168号中信泰富广场，店铺号221.\r\n\""},{"poiid":"B2094655D26EAAFB499B","title":"CITIZEN CAFE & BAR","lon":"121.45869704223","lat":"31.220626397075","category":"247","category_name":"餐饮美食","address":"卢湾区进贤路222号(近陕西南路)"},{"poiid":"B2094654D564AAFF4792","title":"海金滋酒家","lon":"121.4573759075","lat":"31.221076151613","category":"257","category_name":"中餐厅","address":"卢湾区进贤路240号(近陕西南路)"},{"poiid":"B2094655D26FA3FD419A","title":"億方砂锅粥(陕西南路店)","lon":"121.45704","lat":"31.22121","category":"72","category_name":"广东菜","address":"卢湾区陕西南路90号(近巨鹿路)"},{"poiid":"B2094757D06FA0FB409D","title":"Cafe La Mer(玛赫咖啡)","lon":"121.45616054","lat":"31.221554178","category":"65","category_name":"咖啡厅","address":"上海静安区巨鹿路677号(近陕西南路)"},{"poiid":"B2094757D06FA2F54598","title":"梅园村酒家(静安店)","lon":"121.45489","lat":"31.223","category":"76","category_name":"上海菜","address":"静安区延安中路841号(近陕西南路)"},{"poiid":"B2094757D06FAAFA459A","title":"城市酒店","lon":"121.45726927","lat":"31.222721847","category":"217","category_name":"旅馆招待所","address":"卢湾区陕西南路5-7号(近巨鹿路)"},{"poiid":"B2094757D06FA5F84393","title":"东瀛国际造型(淮海路店)","lon":"121.45769292","lat":"31.222248609","category":"148","category_name":"美容美发店","address":"卢湾区巨鹿路423号(近地铁1号线陕西南路站)"},{"poiid":"B2094757D068A7FB459A","title":"Maya Mexican Restaurant","lon":"121.45522308","lat":"31.221933364","category":"500","category_name":"未知分类","address":"上海巨鹿路568号 四方新城俱樂部2樓"},{"poiid":"B2094757D06AA3FF4398","title":"高峰美式牛排馆","lon":"121.457064694","lat":"31.2226914554","category":"94","category_name":"西餐厅","address":"卢湾区陕西南路5-7号城市酒店5楼(近巨鹿路)"},{"poiid":"B2094757D06FA6FF4892","title":"科恩国际中心","lon":"121.45694732","lat":"31.224573135","category":"46","category_name":"楼宇","address":"人民路885号-889号"},{"poiid":"B2094757D069A0F8409F","title":"名豪鱼翅海鲜(静安店)","lon":"121.45726","lat":"31.22427","category":"72","category_name":"广东菜","address":"静安区陕西北路66号科恩国际中心(近威海路)"},{"poiid":"B2094750DA6AAAFA4893","title":"意大利saicaf索卡妃臻品咖啡","lon":"121.457397","lat":"31.22088","category":"247","category_name":"餐饮美食","address":"上海市陕西南路35号"},{"poiid":"B2094757D66BA3FD4993","title":"Masse","lon":"121.457856","lat":"31.221176","category":"94","category_name":"西餐厅","address":"卢湾区进贤路219号5-6楼(近陕西南路)"},{"poiid":"B2094757D168AAF5499F","title":"伊秀寿司","lon":"121.45819373","lat":"31.224303173","category":"247","category_name":"餐饮美食","address":"上海市静安区南京西路"},{"poiid":"B2094750D26AA6FC429F","title":"恒隆","lon":"121.458969","lat":"31.223642","category":"500","category_name":"未知分类","address":"南京西路"},{"poiid":"B2094757D06EAAFD4892","title":"微薄之盐—12th-day House","lon":"121.4562828","lat":"31.2217012","category":"67","category_name":"甜品店","address":"静安区巨鹿路516弄5号(近陕西南路)"},{"poiid":"B2094757D069A1FC4098","title":"玫瑰公主咖啡吧","lon":"121.456348427","lat":"31.2228919607","category":"260","category_name":"其他","address":"卢湾区陕西南路30号马勒别墅花园内(近延安中路)"},{"poiid":"B2094757D56EA2FB469A","title":"Le Vin","lon":"121.45787000656128","lat":"31.22141716161553","category":"260","category_name":"其他","address":"卢湾区进贤路224号"},{"poiid":"B209475CD76EA1F94298","title":"吃完咸的吃点甜的","lon":"121.456405","lat":"31.221799","category":"247","category_name":"餐饮美食","address":"上海市 长乐路620号"},{"poiid":"B209475DD669A2FA499B","title":"馆子House198","lon":"121.458572","lat":"31.221391","category":"247","category_name":"餐饮美食","address":"上海市 卢湾区进贤路198号"},{"poiid":"B2094654DB6AA3FE4298","title":"衡山马勒别墅中餐厅","lon":"121.4563","lat":"31.22289","category":"76","category_name":"上海菜","address":"上海市静安区陕西南路30号马勒别墅饭店1号楼1楼和2楼(近延安中路)"},{"poiid":"B2094757DB6FA7FB499B","title":"筑地青空三代目","lon":"121.4548103565655","lat":"31.22240874581705","category":"247","category_name":"餐饮美食","address":"卢湾区长乐路191号1-2楼(近茂名南路)"},{"poiid":"B2094757D064A6FE479B","title":"味里日本料理","lon":"121.45764","lat":"31.22078","category":"95","category_name":"日本料理","address":"卢湾区陕西南路5-7号城市酒店6楼(近巨鹿路)"},{"poiid":"B2094750D26DA6FE419F","title":"De Refer","lon":"121.454804","lat":"31.222628","category":"247","category_name":"餐饮美食","address":"卢湾区进贤路181号(近茂名南路)"},{"poiid":"B2094757D06AA3FD499C","title":"澳门豆捞坊","lon":"121.45491273","lat":"31.223712161","category":"86","category_name":"火锅店","address":"静安区延安中路817号(近陕西南路)"},{"poiid":"B2094750D16BA2F94199","title":"锦江迪生 唐宫一号","lon":"121.456863","lat":"31.223424","category":"247","category_name":"餐饮美食","address":"长乐路"},{"poiid":"B2094757D164A6F4439A","title":"巨鹿路","lon":"121.459033","lat":"31.222743","category":"500","category_name":"未知分类","address":"上海巨鹿路318号"},{"poiid":"B2094752D46AA6FD419B","title":"MOMO牧场","lon":"121.457352","lat":"31.220779","category":"247","category_name":"餐饮美食","address":null},{"poiid":"B2094757D064A0FA449C","title":"上海市作家协会","lon":"121.45642852","lat":"31.221380233","category":"500","category_name":"未知分类","address":"上海市静安区巨鹿路675号"},{"poiid":"B2094757D068A6F4409D","title":"丰裕生煎(陕西南路店)","lon":"121.45699214","lat":"31.221262239","category":"257","category_name":"中餐厅","address":"卢湾区陕西南路281号(近绍兴路)"},{"poiid":"B2094753D36DA1FA4398","title":"平纳谷碳火牛排馆","lon":"121.457012","lat":"31.222848","category":"94","category_name":"西餐厅","address":"陕西南路5-7号城市酒店5楼"},{"poiid":"B2094757D16FA4FD4892","title":"Maya 玛雅","lon":"121.45645483","lat":"31.221630316","category":"500","category_name":"未知分类","address":"上海巨鹿路568弄四方新城俱乐部2楼(近襄阳北路)/62896889"},{"poiid":"B2094757D068A4F44998","title":"静安书友汇","lon":"121.45586","lat":"31.22468","category":"260","category_name":"其他","address":"静安区威海路870号(近延安中路)"},{"poiid":"B2094750D56EA0F9499E","title":"雅克红房子","lon":"121.457679","lat":"31.220968","category":"247","category_name":"餐饮美食","address":"陕西南路35号"},{"poiid":"B2094757D569A0FA479E","title":"马勒玫瑰公主咖啡吧","lon":"121.456317","lat":"31.22291612","category":"65","category_name":"咖啡厅","address":"中国上海市静安区陕西南路"},{"poiid":"B2094654DA6CA0F8429B","title":"小实惠","lon":"121.456031054","lat":"31.224860793","category":"76","category_name":"上海菜","address":"静安区威海路855号(近陕西北路)"},{"poiid":"B2094757D56EA2F44999","title":"花园饭店玫瑰厅","lon":"121.4562828","lat":"31.2217012","category":"247","category_name":"餐饮美食","address":"茂名路"},{"poiid":"B2094757D069A3FF419C","title":"210 Coffee","lon":"121.45804573","lat":"31.22132311","category":"65","category_name":"咖啡厅","address":"卢湾区进贤路210号1-3楼(近陕西南路)"},{"poiid":"B2094752D26DA2F4499E","title":"鱼羊老镇之崇明味道(陕西南路店)","lon":"121.45763","lat":"31.22117","category":"76","category_name":"上海菜","address":"卢湾区陕西南路122号1楼(近进贤路)"},{"poiid":"B2094654D564ABFE469F","title":"悟锦世纪大楼","lon":"121.459","lat":"31.2237","category":"46","category_name":"楼宇","address":"富民路291号"},{"poiid":"B2094757D06FA5FB4892","title":"Chill Lounge","lon":"121.459104395","lat":"31.2228115434","category":"260","category_name":"其他","address":"卢湾区巨鹿路318-2号(近茂名南路)"},{"poiid":"B2094654DB64A5F4479D","title":"名轩上海高等食府","lon":"121.457","lat":"31.22273","category":"72","category_name":"广东菜","address":"卢湾区陕西南路5-7号城市酒店3楼(近巨鹿路)"},{"poiid":"B2094757D164A4FD4793","title":"甜蜜蜜威海路店","lon":"121.45572353","lat":"31.223760362","category":"67","category_name":"甜品店","address":"静安区威海路906号"},{"poiid":"B2094757D068ABF9479F","title":"上海第二工业大学(静安分校)","lon":"121.45706","lat":"31.22502","category":"52","category_name":"高等院校","address":"静安区陕西北路80号(威海路口)"}]