[{"poiid":"B2094655D26BA0FD479D","title":"世博洲际酒店","lon":"121.50538","lat":"31.19933","category":"213","category_name":"五星级宾馆","address":"浦东新区雪野路1188号(近南码头路)"},{"poiid":"B2094757D06FA0F8439A","title":"宝莱纳餐厅(世博店)","lon":"121.504113332","lat":"31.1982851473","category":"260","category_name":"其他","address":"浦东新区世博大道555号1-2楼(近雪野路)"},{"poiid":"B2094751D26CA1F84692","title":"上海当代艺术博物馆","lon":"121.498542","lat":"31.200687","category":"500","category_name":"未知分类","address":"西藏南路世博园区"},{"poiid":"B2094655D26AA1FA4998","title":"黄浦旅游集散站","lon":"121.50134","lat":"31.20778","category":"35","category_name":"长途汽车站","address":"黄浦区外马路1588号"},{"poiid":"B2094757D06FA1F94793","title":"南码头轮渡","lon":"121.50582772","lat":"31.202802396","category":"260","category_name":"其他","address":"上海浦东新区南码头路1号摆渡口"},{"poiid":"B2094757D068A6F5439B","title":"世博会城市未来馆","lon":"121.49785","lat":"31.20127","category":"500","category_name":"未知分类","address":"上海世博会E片区"},{"poiid":"B2094757D06FA5F9429C","title":"多利萝玛(Tony Roma's)","lon":"121.5040196","lat":"31.196038751","category":"94","category_name":"西餐厅","address":"浦东新区世博村B地块雪野路1057号B9-101C室(近沂南路)"},{"poiid":"B2094757D168AAF4469C","title":"上海世博园","lon":"121.506916","lat":"31.193412","category":"500","category_name":"未知分类","address":"中国上海"},{"poiid":"B2094757D468AAFE419C","title":"蜀府 世博店","lon":"121.50602","lat":"31.19398","category":"71","category_name":"四川菜","address":"浦东新区世博大道1200号梅赛德斯奔驰中心6楼"},{"poiid":"B2094757D66CA4FE479B","title":"滨江大道-世博段","lon":"121.502270053","lat":"31.1976926018","category":"500","category_name":"未知分类","address":"上海世博大道沿江段"},{"poiid":"B2094757D065A0FD4493","title":"Bubba's Texas-style BBQ(世博村店)","lon":"121.504977","lat":"31.196236","category":"94","category_name":"西餐厅","address":"浦东新区雪野路240号(近沂南路)"},{"poiid":"B2094757D16DAAF4429E","title":"仙炙轩 世博店 Ambrosia","lon":"121.504652","lat":"31.200724","category":"247","category_name":"餐饮美食","address":"浦东新区世博大道555号4楼(雪野路口)"},{"poiid":"B2094757D068A3FB4892","title":"云餐厅(世博店)","lon":"121.49891375","lat":"31.200957366","category":"260","category_name":"其他","address":"黄浦区南车站路世博园城市未来馆7-8楼(近半淞园路9月份营业)"},{"poiid":"B2094750DB69A3FD4993","title":"镭战大联盟","lon":"121.501408","lat":"31.204725","category":"248","category_name":"生活娱乐","address":"黄浦区外马路1353号(近南浦大桥)"},{"poiid":"B2094757D56CA7F9479D","title":"博古斯学院法国餐厅","lon":"121.49647","lat":"31.20092","category":"247","category_name":"餐饮美食","address":"黄浦区保屯路379号世博会园区法国罗阿大区展馆内(近中山南路)"},{"poiid":"B2094750DB6CA6FA409A","title":"上海当代艺术博物馆","lon":"121.498191","lat":"31.200557","category":"248","category_name":"生活娱乐","address":"黄浦区花园港路"},{"poiid":"B2094757D068ABFE4999","title":"上海世博东湖公寓酒店","lon":"121.505364591","lat":"31.1967514842","category":"217","category_name":"旅馆招待所","address":"浦东新区雪野路999号"},{"poiid":"B2094654DB65A7FA4298","title":"格林豪泰上海世博园酒店","lon":"121.50691","lat":"31.19341","category":"216","category_name":"经济型连锁酒店","address":"上海市浦东新区浦东南路3500号(近南码头路)"},{"poiid":"B2094750DA64ABFE469E","title":"上海当代艺术博物馆","lon":"121.499153","lat":"31.200927","category":"500","category_name":"未知分类","address":null},{"poiid":"B2094757D068ABF8419D","title":"南码头小区","lon":"121.509275732","lat":"31.1982065693","category":"47","category_name":"住宅区","address":"上海浦东南路浦三路"},{"poiid":"B2094654DA68A0FD469D","title":"帝龙海鲜舫","lon":"121.50427282682","lat":"31.206678575885","category":"76","category_name":"上海菜","address":"黄浦区外马路1333号(近南浦大桥)"},{"poiid":"B2094757D16AABFA409E","title":"地铁6号线世纪大道站","lon":"121.495764738","lat":"31.2038677385","category":"500","category_name":"未知分类","address":"上海"},{"poiid":"B2094753D46CA6F4459C","title":"梅赛德斯奔驰文化中心","lon":"121.507537","lat":"31.193929","category":"500","category_name":"未知分类","address":"上海市 上海世博园"},{"poiid":"B2094750DB6BA0FA469A","title":"上海当代艺术博物馆","lon":"121.498847","lat":"31.199577","category":"500","category_name":"未知分类","address":"黄浦区花园港路200号上海当代艺术博物馆1楼(近苗江路)"},{"poiid":"B2094757D064A0F8459B","title":"一一八八 Cafe 1188","lon":"121.505704","lat":"31.2001","category":"247","category_name":"餐饮美食","address":"雪野路1188号世博洲际酒店1楼内近南码头路"},{"poiid":"B2094757D06AA6F54493","title":"世博村","lon":"121.50436693","lat":"31.197464102","category":"47","category_name":"住宅区","address":"上海浦东新区雪野路(近沂南路)"},{"poiid":"B209475CD768A0FF4499","title":"pulupulu主题游戏馆","lon":"121.504699","lat":"31.203042","category":"500","category_name":"未知分类","address":"上海市 苗江路139号"},{"poiid":"B2094654DA68A0FD4592","title":"上海南浦大桥长途旅游客运站","lon":"121.50129","lat":"31.20767","category":"35","category_name":"长途汽车站","address":"黄浦区外马路1588号(近陆家浜路)"},{"poiid":"B2094757D068A5FE409F","title":"黄浦区旅游集散中心 二楼携程VIP","lon":"121.501064","lat":"31.207764","category":"260","category_name":"其他","address":"上海外马路1588号"},{"poiid":"B2094757D76DA0F4439B","title":"巴赛丽意大利餐厅 Basilico","lon":"121.505704","lat":"31.20014","category":"94","category_name":"西餐厅","address":"浦东新区雪野路1188号世博洲际酒店内(近世博大道)"},{"poiid":"B2094750DB65A2F4499F","title":"上海当代艺术馆","lon":"121.49842","lat":"31.200689","category":"500","category_name":"未知分类","address":null},{"poiid":"B2094654DB6AA6FF419F","title":"南码头渡口","lon":"121.50591","lat":"31.20227","category":"34","category_name":"港口码头","address":""},{"poiid":"B2094757D06BA3F5499A","title":"世博会L1码头","lon":"121.50177002","lat":"31.195886611","category":"500","category_name":"未知分类","address":"上海世博会L1码头"},{"poiid":"B2094757D66AA0F8469A","title":"盛会堂","lon":"121.50567","lat":"31.20018","category":"87","category_name":"特色／地方风味餐厅","address":"浦东新区雪野路1188号洲际酒店2楼(南码头渡口)"},{"poiid":"B2094654DB69A7F94299","title":"西三小区","lon":"121.50658","lat":"31.200727","category":"47","category_name":"住宅区","address":"浦东新区西三小区"},{"poiid":"B2094757D065A5F9499F","title":"Lavazza红磡意大利餐厅","lon":"121.50086773","lat":"31.194968549","category":"500","category_name":"未知分类","address":"浦东新区世博大道690号(近白莲泾公园)"},{"poiid":"B209475DD66AA7FE429C","title":"Pulupulu主题游戏馆","lon":"121.500289","lat":"31.205091","category":"248","category_name":"生活娱乐","address":"上海市 黄浦区苗江路139号"},{"poiid":"B2094750D16BA1FD409D","title":"虹口足球场","lon":"121.5032644966952","lat":"31.20336783101407","category":"220","category_name":"运动场所","address":null},{"poiid":"B2094655D26CA3FE469C","title":"上外黄浦外国语小学","lon":"121.49461","lat":"31.20074","category":"56","category_name":"小学","address":"黄浦区半淞园路621号(半淞园路望达路)"},{"poiid":"B2094757D169A6F9429E","title":"Masala Art(雪野路店)","lon":"121.50549158","lat":"31.195461483","category":"102","category_name":"印度风味","address":"浦东新区世博村雪野路1057号101b(近世博大道)"},{"poiid":"B2094654DA6AA3F9429D","title":"江天宾馆","lon":"121.50792","lat":"31.19542","category":"215","category_name":"三星级宾馆","address":"浦东新区浦东南路3456号(近南码头路)"},{"poiid":"B2094757D66AA0F84999","title":"世博洲际酒店大堂吧 Lobby Lounge","lon":"121.505602","lat":"31.200317","category":"260","category_name":"其他","address":"浦东新区雪野路1188号洲际酒店内(雪野路云台路)"},{"poiid":"B2094750DB68A0F9429D","title":"龙阳路地铁站","lon":"121.507537","lat":"31.197134","category":"36","category_name":"地铁站","address":null},{"poiid":"B2094757D068A2F4479A","title":"南码头社区市民中心","lon":"121.50903","lat":"31.19601","category":"260","category_name":"其他","address":"浦东新区南码头路400号(近浦东南路)"},{"poiid":"B2094752D06DA0FB499D","title":"初鱼坊巫山烤全鱼","lon":"121.507796","lat":"31.197813","category":"247","category_name":"餐饮美食","address":"浦三路"},{"poiid":"B2094655D26BA6FA479E","title":"上海世博东湖公寓酒店(北门)","lon":"121.50502","lat":"31.19576","category":"656","category_name":"大门","address":"上海市浦东新区雪野路999号（近世博大道）"},{"poiid":"B2094654DA6AA3FF479F","title":"银河小区","lon":"121.50822","lat":"31.196613","category":"47","category_name":"住宅区","address":"南码头路240,260弄"},{"poiid":"B2094757D165AAFA4592","title":"Grand Ballroom","lon":"121.50541059","lat":"31.199083308","category":"500","category_name":"未知分类","address":"上海世博洲际大酒店"},{"poiid":"B2094753DB68A4FF499F","title":"上海环球金融中心","lon":"121.507179","lat":"31.199951","category":"500","category_name":"未知分类","address":"上海市 上海市陆家嘴"},{"poiid":"B2094757D465A5FB4199","title":"方师傅小笼 南码头路店","lon":"121.508044054","lat":"31.199132793","category":"68","category_name":"快餐厅","address":"浦东新区南码头路175号(东三里桥与沂南路间)"},{"poiid":"B2094655D26BA0FD479D","title":"世博洲际酒店","lon":"121.50538","lat":"31.19933","category":"213","category_name":"五星级宾馆","address":"浦东新区雪野路1188号(近南码头路)"},{"poiid":"B2094757D06FA0F8439A","title":"宝莱纳餐厅(世博店)","lon":"121.504113332","lat":"31.1982851473","category":"260","category_name":"其他","address":"浦东新区世博大道555号1-2楼(近雪野路)"},{"poiid":"B2094751D26CA1F84692","title":"上海当代艺术博物馆","lon":"121.498542","lat":"31.200687","category":"500","category_name":"未知分类","address":"西藏南路世博园区"},{"poiid":"B2094655D26AA1FA4998","title":"黄浦旅游集散站","lon":"121.50134","lat":"31.20778","category":"35","category_name":"长途汽车站","address":"黄浦区外马路1588号"},{"poiid":"B2094757D06FA1F94793","title":"南码头轮渡","lon":"121.50582772","lat":"31.202802396","category":"260","category_name":"其他","address":"上海浦东新区南码头路1号摆渡口"},{"poiid":"B2094757D068A6F5439B","title":"世博会城市未来馆","lon":"121.49785","lat":"31.20127","category":"500","category_name":"未知分类","address":"上海世博会E片区"},{"poiid":"B2094757D06FA5F9429C","title":"多利萝玛(Tony Roma's)","lon":"121.5040196","lat":"31.196038751","category":"94","category_name":"西餐厅","address":"浦东新区世博村B地块雪野路1057号B9-101C室(近沂南路)"},{"poiid":"B2094757D168AAF4469C","title":"上海世博园","lon":"121.506916","lat":"31.193412","category":"500","category_name":"未知分类","address":"中国上海"},{"poiid":"B2094757D468AAFE419C","title":"蜀府 世博店","lon":"121.50602","lat":"31.19398","category":"71","category_name":"四川菜","address":"浦东新区世博大道1200号梅赛德斯奔驰中心6楼"},{"poiid":"B2094757D66CA4FE479B","title":"滨江大道-世博段","lon":"121.502270053","lat":"31.1976926018","category":"500","category_name":"未知分类","address":"上海世博大道沿江段"},{"poiid":"B2094757D065A0FD4493","title":"Bubba's Texas-style BBQ(世博村店)","lon":"121.504977","lat":"31.196236","category":"94","category_name":"西餐厅","address":"浦东新区雪野路240号(近沂南路)"},{"poiid":"B2094757D16DAAF4429E","title":"仙炙轩 世博店 Ambrosia","lon":"121.504652","lat":"31.200724","category":"247","category_name":"餐饮美食","address":"浦东新区世博大道555号4楼(雪野路口)"},{"poiid":"B2094757D068A3FB4892","title":"云餐厅(世博店)","lon":"121.49891375","lat":"31.200957366","category":"260","category_name":"其他","address":"黄浦区南车站路世博园城市未来馆7-8楼(近半淞园路9月份营业)"},{"poiid":"B2094750DB69A3FD4993","title":"镭战大联盟","lon":"121.501408","lat":"31.204725","category":"248","category_name":"生活娱乐","address":"黄浦区外马路1353号(近南浦大桥)"},{"poiid":"B2094757D56CA7F9479D","title":"博古斯学院法国餐厅","lon":"121.49647","lat":"31.20092","category":"247","category_name":"餐饮美食","address":"黄浦区保屯路379号世博会园区法国罗阿大区展馆内(近中山南路)"},{"poiid":"B2094750DB6CA6FA409A","title":"上海当代艺术博物馆","lon":"121.498191","lat":"31.200557","category":"248","category_name":"生活娱乐","address":"黄浦区花园港路"},{"poiid":"B2094757D068ABFE4999","title":"上海世博东湖公寓酒店","lon":"121.505364591","lat":"31.1967514842","category":"217","category_name":"旅馆招待所","address":"浦东新区雪野路999号"},{"poiid":"B2094654DB65A7FA4298","title":"格林豪泰上海世博园酒店","lon":"121.50691","lat":"31.19341","category":"216","category_name":"经济型连锁酒店","address":"上海市浦东新区浦东南路3500号(近南码头路)"},{"poiid":"B2094750DA64ABFE469E","title":"上海当代艺术博物馆","lon":"121.499153","lat":"31.200927","category":"500","category_name":"未知分类","address":null},{"poiid":"B2094757D068ABF8419D","title":"南码头小区","lon":"121.509275732","lat":"31.1982065693","category":"47","category_name":"住宅区","address":"上海浦东南路浦三路"},{"poiid":"B2094654DA68A0FD469D","title":"帝龙海鲜舫","lon":"121.50427282682","lat":"31.206678575885","category":"76","category_name":"上海菜","address":"黄浦区外马路1333号(近南浦大桥)"},{"poiid":"B2094757D16AABFA409E","title":"地铁6号线世纪大道站","lon":"121.495764738","lat":"31.2038677385","category":"500","category_name":"未知分类","address":"上海"},{"poiid":"B2094753D46CA6F4459C","title":"梅赛德斯奔驰文化中心","lon":"121.507537","lat":"31.193929","category":"500","category_name":"未知分类","address":"上海市 上海世博园"},{"poiid":"B2094750DB6BA0FA469A","title":"上海当代艺术博物馆","lon":"121.498847","lat":"31.199577","category":"500","category_name":"未知分类","address":"黄浦区花园港路200号上海当代艺术博物馆1楼(近苗江路)"},{"poiid":"B2094757D064A0F8459B","title":"一一八八 Cafe 1188","lon":"121.505704","lat":"31.2001","category":"247","category_name":"餐饮美食","address":"雪野路1188号世博洲际酒店1楼内近南码头路"},{"poiid":"B2094757D06AA6F54493","title":"世博村","lon":"121.50436693","lat":"31.197464102","category":"47","category_name":"住宅区","address":"上海浦东新区雪野路(近沂南路)"},{"poiid":"B209475CD768A0FF4499","title":"pulupulu主题游戏馆","lon":"121.504699","lat":"31.203042","category":"500","category_name":"未知分类","address":"上海市 苗江路139号"},{"poiid":"B2094654DA68A0FD4592","title":"上海南浦大桥长途旅游客运站","lon":"121.50129","lat":"31.20767","category":"35","category_name":"长途汽车站","address":"黄浦区外马路1588号(近陆家浜路)"},{"poiid":"B2094757D068A5FE409F","title":"黄浦区旅游集散中心 二楼携程VIP","lon":"121.501064","lat":"31.207764","category":"260","category_name":"其他","address":"上海外马路1588号"},{"poiid":"B2094757D76DA0F4439B","title":"巴赛丽意大利餐厅 Basilico","lon":"121.505704","lat":"31.20014","category":"94","category_name":"西餐厅","address":"浦东新区雪野路1188号世博洲际酒店内(近世博大道)"},{"poiid":"B2094750DB65A2F4499F","title":"上海当代艺术馆","lon":"121.49842","lat":"31.200689","category":"500","category_name":"未知分类","address":null},{"poiid":"B2094654DB6AA6FF419F","title":"南码头渡口","lon":"121.50591","lat":"31.20227","category":"34","category_name":"港口码头","address":""},{"poiid":"B2094757D06BA3F5499A","title":"世博会L1码头","lon":"121.50177002","lat":"31.195886611","category":"500","category_name":"未知分类","address":"上海世博会L1码头"},{"poiid":"B2094757D66AA0F8469A","title":"盛会堂","lon":"121.50567","lat":"31.20018","category":"87","category_name":"特色／地方风味餐厅","address":"浦东新区雪野路1188号洲际酒店2楼(南码头渡口)"},{"poiid":"B2094654DB69A7F94299","title":"西三小区","lon":"121.50658","lat":"31.200727","category":"47","category_name":"住宅区","address":"浦东新区西三小区"},{"poiid":"B2094757D065A5F9499F","title":"Lavazza红磡意大利餐厅","lon":"121.50086773","lat":"31.194968549","category":"500","category_name":"未知分类","address":"浦东新区世博大道690号(近白莲泾公园)"},{"poiid":"B209475DD66AA7FE429C","title":"Pulupulu主题游戏馆","lon":"121.500289","lat":"31.205091","category":"248","category_name":"生活娱乐","address":"上海市 黄浦区苗江路139号"},{"poiid":"B2094750D16BA1FD409D","title":"虹口足球场","lon":"121.5032644966952","lat":"31.20336783101407","category":"220","category_name":"运动场所","address":null},{"poiid":"B2094655D26CA3FE469C","title":"上外黄浦外国语小学","lon":"121.49461","lat":"31.20074","category":"56","category_name":"小学","address":"黄浦区半淞园路621号(半淞园路望达路)"},{"poiid":"B2094757D169A6F9429E","title":"Masala Art(雪野路店)","lon":"121.50549158","lat":"31.195461483","category":"102","category_name":"印度风味","address":"浦东新区世博村雪野路1057号101b(近世博大道)"},{"poiid":"B2094654DA6AA3F9429D","title":"江天宾馆","lon":"121.50792","lat":"31.19542","category":"215","category_name":"三星级宾馆","address":"浦东新区浦东南路3456号(近南码头路)"},{"poiid":"B2094757D66AA0F84999","title":"世博洲际酒店大堂吧 Lobby Lounge","lon":"121.505602","lat":"31.200317","category":"260","category_name":"其他","address":"浦东新区雪野路1188号洲际酒店内(雪野路云台路)"},{"poiid":"B2094750DB68A0F9429D","title":"龙阳路地铁站","lon":"121.507537","lat":"31.197134","category":"36","category_name":"地铁站","address":null},{"poiid":"B2094757D068A2F4479A","title":"南码头社区市民中心","lon":"121.50903","lat":"31.19601","category":"260","category_name":"其他","address":"浦东新区南码头路400号(近浦东南路)"},{"poiid":"B2094752D06DA0FB499D","title":"初鱼坊巫山烤全鱼","lon":"121.507796","lat":"31.197813","category":"247","category_name":"餐饮美食","address":"浦三路"},{"poiid":"B2094655D26BA6FA479E","title":"上海世博东湖公寓酒店(北门)","lon":"121.50502","lat":"31.19576","category":"656","category_name":"大门","address":"上海市浦东新区雪野路999号（近世博大道）"},{"poiid":"B2094654DA6AA3FF479F","title":"银河小区","lon":"121.50822","lat":"31.196613","category":"47","category_name":"住宅区","address":"南码头路240,260弄"},{"poiid":"B2094757D165AAFA4592","title":"Grand Ballroom","lon":"121.50541059","lat":"31.199083308","category":"500","category_name":"未知分类","address":"上海世博洲际大酒店"},{"poiid":"B2094753DB68A4FF499F","title":"上海环球金融中心","lon":"121.507179","lat":"31.199951","category":"500","category_name":"未知分类","address":"上海市 上海市陆家嘴"},{"poiid":"B2094757D465A5FB4199","title":"方师傅小笼 南码头路店","lon":"121.508044054","lat":"31.199132793","category":"68","category_name":"快餐厅","address":"浦东新区南码头路175号(东三里桥与沂南路间)"},{"poiid":"B2094655D26BA0FD479D","title":"世博洲际酒店","lon":"121.50538","lat":"31.19933","category":"213","category_name":"五星级宾馆","address":"浦东新区雪野路1188号(近南码头路)"},{"poiid":"B2094757D06FA0F8439A","title":"宝莱纳餐厅(世博店)","lon":"121.504113332","lat":"31.1982851473","category":"260","category_name":"其他","address":"浦东新区世博大道555号1-2楼(近雪野路)"},{"poiid":"B2094751D26CA1F84692","title":"上海当代艺术博物馆","lon":"121.498542","lat":"31.200687","category":"500","category_name":"未知分类","address":"西藏南路世博园区"},{"poiid":"B2094655D26AA1FA4998","title":"黄浦旅游集散站","lon":"121.50134","lat":"31.20778","category":"35","category_name":"长途汽车站","address":"黄浦区外马路1588号"},{"poiid":"B2094757D06FA1F94793","title":"南码头轮渡","lon":"121.50582772","lat":"31.202802396","category":"260","category_name":"其他","address":"上海浦东新区南码头路1号摆渡口"},{"poiid":"B2094757D068A6F5439B","title":"世博会城市未来馆","lon":"121.49785","lat":"31.20127","category":"500","category_name":"未知分类","address":"上海世博会E片区"},{"poiid":"B2094757D06FA5F9429C","title":"多利萝玛(Tony Roma's)","lon":"121.5040196","lat":"31.196038751","category":"94","category_name":"西餐厅","address":"浦东新区世博村B地块雪野路1057号B9-101C室(近沂南路)"},{"poiid":"B2094757D168AAF4469C","title":"上海世博园","lon":"121.506916","lat":"31.193412","category":"500","category_name":"未知分类","address":"中国上海"},{"poiid":"B2094757D468AAFE419C","title":"蜀府 世博店","lon":"121.50602","lat":"31.19398","category":"71","category_name":"四川菜","address":"浦东新区世博大道1200号梅赛德斯奔驰中心6楼"},{"poiid":"B2094757D66CA4FE479B","title":"滨江大道-世博段","lon":"121.502270053","lat":"31.1976926018","category":"500","category_name":"未知分类","address":"上海世博大道沿江段"},{"poiid":"B2094757D065A0FD4493","title":"Bubba's Texas-style BBQ(世博村店)","lon":"121.504977","lat":"31.196236","category":"94","category_name":"西餐厅","address":"浦东新区雪野路240号(近沂南路)"},{"poiid":"B2094757D16DAAF4429E","title":"仙炙轩 世博店 Ambrosia","lon":"121.504652","lat":"31.200724","category":"247","category_name":"餐饮美食","address":"浦东新区世博大道555号4楼(雪野路口)"},{"poiid":"B2094757D068A3FB4892","title":"云餐厅(世博店)","lon":"121.49891375","lat":"31.200957366","category":"260","category_name":"其他","address":"黄浦区南车站路世博园城市未来馆7-8楼(近半淞园路9月份营业)"},{"poiid":"B2094750DB69A3FD4993","title":"镭战大联盟","lon":"121.501408","lat":"31.204725","category":"248","category_name":"生活娱乐","address":"黄浦区外马路1353号(近南浦大桥)"},{"poiid":"B2094757D56CA7F9479D","title":"博古斯学院法国餐厅","lon":"121.49647","lat":"31.20092","category":"247","category_name":"餐饮美食","address":"黄浦区保屯路379号世博会园区法国罗阿大区展馆内(近中山南路)"},{"poiid":"B2094750DB6CA6FA409A","title":"上海当代艺术博物馆","lon":"121.498191","lat":"31.200557","category":"248","category_name":"生活娱乐","address":"黄浦区花园港路"},{"poiid":"B2094757D068ABFE4999","title":"上海世博东湖公寓酒店","lon":"121.505364591","lat":"31.1967514842","category":"217","category_name":"旅馆招待所","address":"浦东新区雪野路999号"},{"poiid":"B2094654DB65A7FA4298","title":"格林豪泰上海世博园酒店","lon":"121.50691","lat":"31.19341","category":"216","category_name":"经济型连锁酒店","address":"上海市浦东新区浦东南路3500号(近南码头路)"},{"poiid":"B2094750DA64ABFE469E","title":"上海当代艺术博物馆","lon":"121.499153","lat":"31.200927","category":"500","category_name":"未知分类","address":null},{"poiid":"B2094757D068ABF8419D","title":"南码头小区","lon":"121.509275732","lat":"31.1982065693","category":"47","category_name":"住宅区","address":"上海浦东南路浦三路"},{"poiid":"B2094654DA68A0FD469D","title":"帝龙海鲜舫","lon":"121.50427282682","lat":"31.206678575885","category":"76","category_name":"上海菜","address":"黄浦区外马路1333号(近南浦大桥)"},{"poiid":"B2094757D16AABFA409E","title":"地铁6号线世纪大道站","lon":"121.495764738","lat":"31.2038677385","category":"500","category_name":"未知分类","address":"上海"},{"poiid":"B2094753D46CA6F4459C","title":"梅赛德斯奔驰文化中心","lon":"121.507537","lat":"31.193929","category":"500","category_name":"未知分类","address":"上海市 上海世博园"},{"poiid":"B2094750DB6BA0FA469A","title":"上海当代艺术博物馆","lon":"121.498847","lat":"31.199577","category":"500","category_name":"未知分类","address":"黄浦区花园港路200号上海当代艺术博物馆1楼(近苗江路)"},{"poiid":"B2094757D064A0F8459B","title":"一一八八 Cafe 1188","lon":"121.505704","lat":"31.2001","category":"247","category_name":"餐饮美食","address":"雪野路1188号世博洲际酒店1楼内近南码头路"},{"poiid":"B2094757D06AA6F54493","title":"世博村","lon":"121.50436693","lat":"31.197464102","category":"47","category_name":"住宅区","address":"上海浦东新区雪野路(近沂南路)"},{"poiid":"B209475CD768A0FF4499","title":"pulupulu主题游戏馆","lon":"121.504699","lat":"31.203042","category":"500","category_name":"未知分类","address":"上海市 苗江路139号"},{"poiid":"B2094654DA68A0FD4592","title":"上海南浦大桥长途旅游客运站","lon":"121.50129","lat":"31.20767","category":"35","category_name":"长途汽车站","address":"黄浦区外马路1588号(近陆家浜路)"},{"poiid":"B2094757D068A5FE409F","title":"黄浦区旅游集散中心 二楼携程VIP","lon":"121.501064","lat":"31.207764","category":"260","category_name":"其他","address":"上海外马路1588号"},{"poiid":"B2094757D76DA0F4439B","title":"巴赛丽意大利餐厅 Basilico","lon":"121.505704","lat":"31.20014","category":"94","category_name":"西餐厅","address":"浦东新区雪野路1188号世博洲际酒店内(近世博大道)"},{"poiid":"B2094750DB65A2F4499F","title":"上海当代艺术馆","lon":"121.49842","lat":"31.200689","category":"500","category_name":"未知分类","address":null},{"poiid":"B2094654DB6AA6FF419F","title":"南码头渡口","lon":"121.50591","lat":"31.20227","category":"34","category_name":"港口码头","address":""},{"poiid":"B2094757D06BA3F5499A","title":"世博会L1码头","lon":"121.50177002","lat":"31.195886611","category":"500","category_name":"未知分类","address":"上海世博会L1码头"},{"poiid":"B2094757D66AA0F8469A","title":"盛会堂","lon":"121.50567","lat":"31.20018","category":"87","category_name":"特色／地方风味餐厅","address":"浦东新区雪野路1188号洲际酒店2楼(南码头渡口)"},{"poiid":"B2094654DB69A7F94299","title":"西三小区","lon":"121.50658","lat":"31.200727","category":"47","category_name":"住宅区","address":"浦东新区西三小区"},{"poiid":"B2094757D065A5F9499F","title":"Lavazza红磡意大利餐厅","lon":"121.50086773","lat":"31.194968549","category":"500","category_name":"未知分类","address":"浦东新区世博大道690号(近白莲泾公园)"},{"poiid":"B209475DD66AA7FE429C","title":"Pulupulu主题游戏馆","lon":"121.500289","lat":"31.205091","category":"248","category_name":"生活娱乐","address":"上海市 黄浦区苗江路139号"},{"poiid":"B2094750D16BA1FD409D","title":"虹口足球场","lon":"121.5032644966952","lat":"31.20336783101407","category":"220","category_name":"运动场所","address":null},{"poiid":"B2094655D26CA3FE469C","title":"上外黄浦外国语小学","lon":"121.49461","lat":"31.20074","category":"56","category_name":"小学","address":"黄浦区半淞园路621号(半淞园路望达路)"},{"poiid":"B2094757D169A6F9429E","title":"Masala Art(雪野路店)","lon":"121.50549158","lat":"31.195461483","category":"102","category_name":"印度风味","address":"浦东新区世博村雪野路1057号101b(近世博大道)"},{"poiid":"B2094654DA6AA3F9429D","title":"江天宾馆","lon":"121.50792","lat":"31.19542","category":"215","category_name":"三星级宾馆","address":"浦东新区浦东南路3456号(近南码头路)"},{"poiid":"B2094757D66AA0F84999","title":"世博洲际酒店大堂吧 Lobby Lounge","lon":"121.505602","lat":"31.200317","category":"260","category_name":"其他","address":"浦东新区雪野路1188号洲际酒店内(雪野路云台路)"},{"poiid":"B2094750DB68A0F9429D","title":"龙阳路地铁站","lon":"121.507537","lat":"31.197134","category":"36","category_name":"地铁站","address":null},{"poiid":"B2094757D068A2F4479A","title":"南码头社区市民中心","lon":"121.50903","lat":"31.19601","category":"260","category_name":"其他","address":"浦东新区南码头路400号(近浦东南路)"},{"poiid":"B2094752D06DA0FB499D","title":"初鱼坊巫山烤全鱼","lon":"121.507796","lat":"31.197813","category":"247","category_name":"餐饮美食","address":"浦三路"},{"poiid":"B2094655D26BA6FA479E","title":"上海世博东湖公寓酒店(北门)","lon":"121.50502","lat":"31.19576","category":"656","category_name":"大门","address":"上海市浦东新区雪野路999号（近世博大道）"},{"poiid":"B2094654DA6AA3FF479F","title":"银河小区","lon":"121.50822","lat":"31.196613","category":"47","category_name":"住宅区","address":"南码头路240,260弄"},{"poiid":"B2094757D165AAFA4592","title":"Grand Ballroom","lon":"121.50541059","lat":"31.199083308","category":"500","category_name":"未知分类","address":"上海世博洲际大酒店"},{"poiid":"B2094753DB68A4FF499F","title":"上海环球金融中心","lon":"121.507179","lat":"31.199951","category":"500","category_name":"未知分类","address":"上海市 上海市陆家嘴"},{"poiid":"B2094757D465A5FB4199","title":"方师傅小笼 南码头路店","lon":"121.508044054","lat":"31.199132793","category":"68","category_name":"快餐厅","address":"浦东新区南码头路175号(东三里桥与沂南路间)"},{"poiid":"B2094655D26BA0FD479D","title":"世博洲际酒店","lon":"121.50538","lat":"31.19933","category":"213","category_name":"五星级宾馆","address":"浦东新区雪野路1188号(近南码头路)"},{"poiid":"B2094757D06FA0F8439A","title":"宝莱纳餐厅(世博店)","lon":"121.504113332","lat":"31.1982851473","category":"260","category_name":"其他","address":"浦东新区世博大道555号1-2楼(近雪野路)"},{"poiid":"B2094751D26CA1F84692","title":"上海当代艺术博物馆","lon":"121.498542","lat":"31.200687","category":"500","category_name":"未知分类","address":"西藏南路世博园区"},{"poiid":"B2094655D26AA1FA4998","title":"黄浦旅游集散站","lon":"121.50134","lat":"31.20778","category":"35","category_name":"长途汽车站","address":"黄浦区外马路1588号"},{"poiid":"B2094757D06FA1F94793","title":"南码头轮渡","lon":"121.50582772","lat":"31.202802396","category":"260","category_name":"其他","address":"上海浦东新区南码头路1号摆渡口"},{"poiid":"B2094757D068A6F5439B","title":"世博会城市未来馆","lon":"121.49785","lat":"31.20127","category":"500","category_name":"未知分类","address":"上海世博会E片区"},{"poiid":"B2094757D06FA5F9429C","title":"多利萝玛(Tony Roma's)","lon":"121.5040196","lat":"31.196038751","category":"94","category_name":"西餐厅","address":"浦东新区世博村B地块雪野路1057号B9-101C室(近沂南路)"},{"poiid":"B2094757D168AAF4469C","title":"上海世博园","lon":"121.506916","lat":"31.193412","category":"500","category_name":"未知分类","address":"中国上海"},{"poiid":"B2094757D468AAFE419C","title":"蜀府 世博店","lon":"121.50602","lat":"31.19398","category":"71","category_name":"四川菜","address":"浦东新区世博大道1200号梅赛德斯奔驰中心6楼"},{"poiid":"B2094757D66CA4FE479B","title":"滨江大道-世博段","lon":"121.502270053","lat":"31.1976926018","category":"500","category_name":"未知分类","address":"上海世博大道沿江段"},{"poiid":"B2094757D065A0FD4493","title":"Bubba's Texas-style BBQ(世博村店)","lon":"121.504977","lat":"31.196236","category":"94","category_name":"西餐厅","address":"浦东新区雪野路240号(近沂南路)"},{"poiid":"B2094757D16DAAF4429E","title":"仙炙轩 世博店 Ambrosia","lon":"121.504652","lat":"31.200724","category":"247","category_name":"餐饮美食","address":"浦东新区世博大道555号4楼(雪野路口)"},{"poiid":"B2094757D068A3FB4892","title":"云餐厅(世博店)","lon":"121.49891375","lat":"31.200957366","category":"260","category_name":"其他","address":"黄浦区南车站路世博园城市未来馆7-8楼(近半淞园路9月份营业)"},{"poiid":"B2094750DB69A3FD4993","title":"镭战大联盟","lon":"121.501408","lat":"31.204725","category":"248","category_name":"生活娱乐","address":"黄浦区外马路1353号(近南浦大桥)"},{"poiid":"B2094757D56CA7F9479D","title":"博古斯学院法国餐厅","lon":"121.49647","lat":"31.20092","category":"247","category_name":"餐饮美食","address":"黄浦区保屯路379号世博会园区法国罗阿大区展馆内(近中山南路)"},{"poiid":"B2094750DB6CA6FA409A","title":"上海当代艺术博物馆","lon":"121.498191","lat":"31.200557","category":"248","category_name":"生活娱乐","address":"黄浦区花园港路"},{"poiid":"B2094757D068ABFE4999","title":"上海世博东湖公寓酒店","lon":"121.505364591","lat":"31.1967514842","category":"217","category_name":"旅馆招待所","address":"浦东新区雪野路999号"},{"poiid":"B2094654DB65A7FA4298","title":"格林豪泰上海世博园酒店","lon":"121.50691","lat":"31.19341","category":"216","category_name":"经济型连锁酒店","address":"上海市浦东新区浦东南路3500号(近南码头路)"},{"poiid":"B2094750DA64ABFE469E","title":"上海当代艺术博物馆","lon":"121.499153","lat":"31.200927","category":"500","category_name":"未知分类","address":null},{"poiid":"B2094757D068ABF8419D","title":"南码头小区","lon":"121.509275732","lat":"31.1982065693","category":"47","category_name":"住宅区","address":"上海浦东南路浦三路"},{"poiid":"B2094654DA68A0FD469D","title":"帝龙海鲜舫","lon":"121.50427282682","lat":"31.206678575885","category":"76","category_name":"上海菜","address":"黄浦区外马路1333号(近南浦大桥)"},{"poiid":"B2094757D16AABFA409E","title":"地铁6号线世纪大道站","lon":"121.495764738","lat":"31.2038677385","category":"500","category_name":"未知分类","address":"上海"},{"poiid":"B2094753D46CA6F4459C","title":"梅赛德斯奔驰文化中心","lon":"121.507537","lat":"31.193929","category":"500","category_name":"未知分类","address":"上海市 上海世博园"},{"poiid":"B2094750DB6BA0FA469A","title":"上海当代艺术博物馆","lon":"121.498847","lat":"31.199577","category":"500","category_name":"未知分类","address":"黄浦区花园港路200号上海当代艺术博物馆1楼(近苗江路)"},{"poiid":"B2094757D064A0F8459B","title":"一一八八 Cafe 1188","lon":"121.505704","lat":"31.2001","category":"247","category_name":"餐饮美食","address":"雪野路1188号世博洲际酒店1楼内近南码头路"},{"poiid":"B2094757D06AA6F54493","title":"世博村","lon":"121.50436693","lat":"31.197464102","category":"47","category_name":"住宅区","address":"上海浦东新区雪野路(近沂南路)"},{"poiid":"B209475CD768A0FF4499","title":"pulupulu主题游戏馆","lon":"121.504699","lat":"31.203042","category":"500","category_name":"未知分类","address":"上海市 苗江路139号"},{"poiid":"B2094654DA68A0FD4592","title":"上海南浦大桥长途旅游客运站","lon":"121.50129","lat":"31.20767","category":"35","category_name":"长途汽车站","address":"黄浦区外马路1588号(近陆家浜路)"},{"poiid":"B2094757D068A5FE409F","title":"黄浦区旅游集散中心 二楼携程VIP","lon":"121.501064","lat":"31.207764","category":"260","category_name":"其他","address":"上海外马路1588号"},{"poiid":"B2094757D76DA0F4439B","title":"巴赛丽意大利餐厅 Basilico","lon":"121.505704","lat":"31.20014","category":"94","category_name":"西餐厅","address":"浦东新区雪野路1188号世博洲际酒店内(近世博大道)"},{"poiid":"B2094750DB65A2F4499F","title":"上海当代艺术馆","lon":"121.49842","lat":"31.200689","category":"500","category_name":"未知分类","address":null},{"poiid":"B2094654DB6AA6FF419F","title":"南码头渡口","lon":"121.50591","lat":"31.20227","category":"34","category_name":"港口码头","address":""},{"poiid":"B2094757D06BA3F5499A","title":"世博会L1码头","lon":"121.50177002","lat":"31.195886611","category":"500","category_name":"未知分类","address":"上海世博会L1码头"},{"poiid":"B2094757D66AA0F8469A","title":"盛会堂","lon":"121.50567","lat":"31.20018","category":"87","category_name":"特色／地方风味餐厅","address":"浦东新区雪野路1188号洲际酒店2楼(南码头渡口)"},{"poiid":"B2094654DB69A7F94299","title":"西三小区","lon":"121.50658","lat":"31.200727","category":"47","category_name":"住宅区","address":"浦东新区西三小区"},{"poiid":"B2094757D065A5F9499F","title":"Lavazza红磡意大利餐厅","lon":"121.50086773","lat":"31.194968549","category":"500","category_name":"未知分类","address":"浦东新区世博大道690号(近白莲泾公园)"},{"poiid":"B209475DD66AA7FE429C","title":"Pulupulu主题游戏馆","lon":"121.500289","lat":"31.205091","category":"248","category_name":"生活娱乐","address":"上海市 黄浦区苗江路139号"},{"poiid":"B2094750D16BA1FD409D","title":"虹口足球场","lon":"121.5032644966952","lat":"31.20336783101407","category":"220","category_name":"运动场所","address":null},{"poiid":"B2094655D26CA3FE469C","title":"上外黄浦外国语小学","lon":"121.49461","lat":"31.20074","category":"56","category_name":"小学","address":"黄浦区半淞园路621号(半淞园路望达路)"},{"poiid":"B2094757D169A6F9429E","title":"Masala Art(雪野路店)","lon":"121.50549158","lat":"31.195461483","category":"102","category_name":"印度风味","address":"浦东新区世博村雪野路1057号101b(近世博大道)"},{"poiid":"B2094654DA6AA3F9429D","title":"江天宾馆","lon":"121.50792","lat":"31.19542","category":"215","category_name":"三星级宾馆","address":"浦东新区浦东南路3456号(近南码头路)"},{"poiid":"B2094757D66AA0F84999","title":"世博洲际酒店大堂吧 Lobby Lounge","lon":"121.505602","lat":"31.200317","category":"260","category_name":"其他","address":"浦东新区雪野路1188号洲际酒店内(雪野路云台路)"},{"poiid":"B2094750DB68A0F9429D","title":"龙阳路地铁站","lon":"121.507537","lat":"31.197134","category":"36","category_name":"地铁站","address":null},{"poiid":"B2094757D068A2F4479A","title":"南码头社区市民中心","lon":"121.50903","lat":"31.19601","category":"260","category_name":"其他","address":"浦东新区南码头路400号(近浦东南路)"},{"poiid":"B2094752D06DA0FB499D","title":"初鱼坊巫山烤全鱼","lon":"121.507796","lat":"31.197813","category":"247","category_name":"餐饮美食","address":"浦三路"},{"poiid":"B2094655D26BA6FA479E","title":"上海世博东湖公寓酒店(北门)","lon":"121.50502","lat":"31.19576","category":"656","category_name":"大门","address":"上海市浦东新区雪野路999号（近世博大道）"},{"poiid":"B2094654DA6AA3FF479F","title":"银河小区","lon":"121.50822","lat":"31.196613","category":"47","category_name":"住宅区","address":"南码头路240,260弄"},{"poiid":"B2094757D165AAFA4592","title":"Grand Ballroom","lon":"121.50541059","lat":"31.199083308","category":"500","category_name":"未知分类","address":"上海世博洲际大酒店"},{"poiid":"B2094753DB68A4FF499F","title":"上海环球金融中心","lon":"121.507179","lat":"31.199951","category":"500","category_name":"未知分类","address":"上海市 上海市陆家嘴"},{"poiid":"B2094757D465A5FB4199","title":"方师傅小笼 南码头路店","lon":"121.508044054","lat":"31.199132793","category":"68","category_name":"快餐厅","address":"浦东新区南码头路175号(东三里桥与沂南路间)"}]