[{"poiid":"B2094757D06FA3FD4598","title":"衡山路","lon":"121.44432","lat":"31.20163","category":"260","category_name":"其他","address":"徐汇区衡山路(衡山路吴兴路)"},{"poiid":"B2094654DA6DA7F9479B","title":"基督教国际礼拜堂","lon":"121.44808","lat":"31.20635","category":"245","category_name":"教堂","address":"徐汇区衡山路53号(近乌鲁木齐路)"},{"poiid":"B2094757D66EA5FA419F","title":"FOUNT BAR","lon":"121.451112586","lat":"31.2060839588","category":"260","category_name":"其他","address":"徐汇区永嘉路570号永嘉庭5号楼1楼511号(近岳阳路)"},{"poiid":"B2094753D76FAAFA449C","title":"上海滩国泰旗舰店","lon":"121.466011","lat":"31.216125","category":"249","category_name":"购物服务","address":"淮海中路868号"},{"poiid":"B209475CD564A7F84292","title":"上海滩新天地店","lon":"121.47463","lat":"31.22164","category":"119","category_name":"商场","address":"\"太仓路181弄新天地北里15号\r\n\""},{"poiid":"B209475CD564A7F8439E","title":"上海滩中信泰富店","lon":"121.45602","lat":"31.22851","category":"119","category_name":"商场","address":"\"南京西路1168号中信泰富广场，店铺号221.\r\n\""},{"poiid":"B2094757D66DA4FD4499","title":"菲芘酒吧","lon":"121.447201886","lat":"31.2057479523","category":"174","category_name":"迪厅","address":"上海衡山路10号甲一层"},{"poiid":"B2094757D568AAF94199","title":"Shari","lon":"121.44823703","lat":"31.20476101","category":"95","category_name":"日本料理","address":"徐汇区永嘉路630号(近乌鲁木齐南路)"},{"poiid":"B2094655D26AABFE469C","title":"SOHOCLUB","lon":"121.44773","lat":"31.20662","category":"247","category_name":"餐饮美食","address":"徐汇区衡山路10号"},{"poiid":"B2094757D06FA1F94893","title":"the roof","lon":"121.45089155","lat":"31.205618961","category":"172","category_name":"酒吧","address":"徐汇区永嘉路570号永嘉庭5号楼4楼(近岳阳路)"},{"poiid":"B2094757D06AA3FA479B","title":"H2","lon":"121.449141","lat":"31.204116","category":"94","category_name":"西餐厅","address":"徐汇区乌鲁木齐南路145号(近永嘉路)"},{"poiid":"B2094757D068ABF5409B","title":"Brown Stone","lon":"121.45122991","lat":"31.206031697","category":"172","category_name":"酒吧","address":"上海永嘉路57０号"},{"poiid":"B2094757D06EAAFF4899","title":"星巴克 衡山路店 Starbucks Cafe","lon":"121.446764054","lat":"31.206216793","category":"260","category_name":"其他","address":"徐汇区衡山路4号领馆广场内(近乌鲁木齐南路)"},{"poiid":"B2094655D265A2FA4098","title":"永嘉庭","lon":"121.45142","lat":"31.20608","category":"46","category_name":"楼宇","address":"永嘉路570"},{"poiid":"B2094757D069A1FB499E","title":"ZAPATA'S","lon":"121.44930898","lat":"31.208128978","category":"500","category_name":"未知分类","address":"上海衡山路5号近东平路"},{"poiid":"B2094757D665AAF8409F","title":"西界酒吧 West Side","lon":"121.447479054","lat":"31.205316793","category":"260","category_name":"其他","address":"徐汇区衡山路237号(近高安路)"},{"poiid":"B2094757D06FA5F44792","title":"Voce Cafe","lon":"121.45129679","lat":"31.206693725","category":"260","category_name":"其他","address":"上海徐汇区永嘉路566号(近岳阳路)"},{"poiid":"B2094757D06FA0FF4399","title":"欧登保龄球馆","lon":"121.44951","lat":"31.20788","category":"171","category_name":"台球厅","address":"徐汇区衡山路10号甲欧登大厦3楼(近乌鲁木齐南路)"},{"poiid":"B2094757D06AA2FB4299","title":"MT3","lon":"121.44685058","lat":"31.205462946","category":"500","category_name":"未知分类","address":"上海衡山路10号"},{"poiid":"B2094750D268A4FE499B","title":"momo牧场","lon":"121.448776","lat":"31.208055","category":"500","category_name":"未知分类","address":null},{"poiid":"B2094757D068A3FA409D","title":"衡山路乌鲁木齐南路","lon":"121.4482784","lat":"31.2070633","category":"500","category_name":"未知分类","address":"上海衡山路乌鲁木齐南路"},{"poiid":"B2094757D469A1F44492","title":"苏荷CD3 SOHO CLUB","lon":"121.448456054","lat":"31.206970793","category":"172","category_name":"酒吧","address":"徐汇区衡山路4号(乌鲁木齐路口)"},{"poiid":"B2094757D068A0F8499F","title":"印度小厨(永嘉店)","lon":"121.45119","lat":"31.20528","category":"102","category_name":"印度风味","address":"徐汇区永嘉路570号永嘉庭1号楼4楼(近岳阳路)"},{"poiid":"B2094757D064A0FC4799","title":"拉妃酒吧","lon":"121.448665586","lat":"31.2074949864","category":"179","category_name":"音乐厅","address":"上海衡山路10号"},{"poiid":"B2094750DA68A4F44298","title":"vita bistro bar","lon":"121.450485","lat":"31.205255","category":"247","category_name":"餐饮美食","address":"徐汇区永嘉路557号花园内(近乌鲁木齐南路)"},{"poiid":"B2094757D069A4F44493","title":"Club Phebe","lon":"121.44689243","lat":"31.205410175","category":"500","category_name":"未知分类","address":"上海衡山路乌鲁木齐路"},{"poiid":"B2094750D665A2FE4299","title":"比萨马上诺(永嘉庭)","lon":"121.451","lat":"31.2057","category":"94","category_name":"西餐厅","address":"徐汇区永嘉路570号111单元(近岳阳路)"},{"poiid":"B2094757D068A4FF459E","title":"巴犀烧烤屋","lon":"121.44698","lat":"31.20507","category":"94","category_name":"西餐厅","address":"徐汇区衡山路4号领馆广场内(近乌鲁木齐南路)"},{"poiid":"B2094655D26EA1FD429D","title":"一千零一夜 1001 Nights Restaurant","lon":"121.446904988","lat":"31.207006173934","category":"247","category_name":"餐饮美食","address":"徐汇区衡山路4号领馆广场内(近乌鲁木齐南路)"},{"poiid":"B2094757D66EA6F5409F","title":"永嘉路","lon":"121.45019258","lat":"31.205445946","category":"500","category_name":"未知分类","address":"上海市徐汇区淮海中路"},{"poiid":"B2094655D26EAAF84199","title":"唐韵茶坊 徐汇店","lon":"121.44775275124","lat":"31.205628558528","category":"66","category_name":"茶艺馆","address":"徐汇区衡山路199号(高安路乌鲁木齐路间)"},{"poiid":"B2094750D269A2F8419A","title":"天泰餐厅 东平店 Simply Thai","lon":"121.450011054","lat":"31.208268783","category":"247","category_name":"餐饮美食","address":"徐汇区东平路5号C座(近岳阳路)"},{"poiid":"B2094750D66EA5FA409B","title":"建国328小馆","lon":"121.44886","lat":"31.204284","category":"76","category_name":"上海菜","address":"徐汇区建国西路328号(近襄阳南路)"},{"poiid":"B2094757D16EA3FB4999","title":"Dione Hair &amp; Make up salon","lon":"121.45089235","lat":"31.205527972","category":"500","category_name":"未知分类","address":"上海永嘉路570号"},{"poiid":"B2094757D065A3FF4092","title":"Brownstone","lon":"121.451477","lat":"31.205856","category":"260","category_name":"其他","address":"徐汇区永嘉路570号永嘉庭311单元(近岳阳路)"},{"poiid":"B2094654DA6DA7F9469E","title":"Starbucks Coffee(衡山路)","lon":"121.44757","lat":"31.20641","category":"65","category_name":"咖啡厅","address":"天平路"},{"poiid":"B2094757D464ABF9439C","title":"棒约翰比萨 衡山店 Papa John's Pizza","lon":"121.44805620007","lat":"31.207111525182","category":"94","category_name":"西餐厅","address":"徐汇区衡山路4号(近乌鲁木齐南路)"},{"poiid":"B2094757D065A7FF4293","title":"高安公馆","lon":"121.44793176","lat":"31.205789923","category":"500","category_name":"未知分类","address":"徐汇区衡山路237号(近永嘉路)"},{"poiid":"B2094757D66CA7FE469E","title":"永嘉别墅","lon":"121.45004958","lat":"31.20516194","category":"47","category_name":"住宅区","address":"徐汇区永嘉路(近乌鲁木齐南路)查看地图"},{"poiid":"B2094757D064A1F4479A","title":"Westside","lon":"121.44829658","lat":"31.20565395","category":"172","category_name":"酒吧","address":"上海市徐汇区衡山路237号"},{"poiid":"B2094757D069A1FC499F","title":"乐加尔松音","lon":"121.44813362","lat":"31.207068655","category":"76","category_name":"上海菜","address":"徐汇区衡山路4号领馆广场2楼(近乌鲁木齐南路)"},{"poiid":"B2094750D665AAFC4192","title":"上海往事","lon":"121.449","lat":"31.2046","category":"76","category_name":"上海菜","address":"徐汇区永嘉路628号(近乌鲁木齐路)"},{"poiid":"B2094757D16AA5FD479B","title":"L's life","lon":"121.449765586","lat":"31.2056559505","category":"67","category_name":"甜品店","address":"徐汇区永嘉路519号(近岳阳路)"},{"poiid":"B2094757D569A2FB429A","title":"衡山路41号芝大厦","lon":"121.4488601","lat":"31.2068901","category":"46","category_name":"楼宇","address":"衡山路41号芝大厦位于徐汇衡山路41号"},{"poiid":"B2094757D468A4FF4293","title":"绝口老弄堂爆鱼","lon":"121.44996","lat":"31.20511","category":"68","category_name":"快餐厅","address":"徐汇区永嘉路573弄4号(近乌鲁木齐南路)"},{"poiid":"B2094757D568A6FC409C","title":"MT3酒吧衡山路店","lon":"121.4479519","lat":"31.20690889","category":"172","category_name":"酒吧","address":"衡山路10号甲"},{"poiid":"B2094753D768A2FF449A","title":"ASC 藏酒轩 The Wine Gallery","lon":"121.448669","lat":"31.206657","category":"247","category_name":"餐饮美食","address":"上海市 上海市徐汇区乌鲁木齐南路55号"},{"poiid":"B2094655D26FA5FE4999","title":"永嘉新村","lon":"121.45029","lat":"31.205946","category":"47","category_name":"住宅区","address":"永嘉路580弄1-110号"},{"poiid":"B2094757D065A3F9489F","title":"地铁1号线 常熟路站","lon":"121.451627586","lat":"31.2051945414","category":"500","category_name":"未知分类","address":"上海常熟路"},{"poiid":"B2094654DA6DA4FB499B","title":"宜家百货","lon":"121.45066","lat":"31.2055","category":"117","category_name":"便民商店/便利店","address":""},{"poiid":"B2094757D06FA3FD4598","title":"衡山路","lon":"121.44432","lat":"31.20163","category":"260","category_name":"其他","address":"徐汇区衡山路(衡山路吴兴路)"},{"poiid":"B2094654DA6DA7F9479B","title":"基督教国际礼拜堂","lon":"121.44808","lat":"31.20635","category":"245","category_name":"教堂","address":"徐汇区衡山路53号(近乌鲁木齐路)"},{"poiid":"B2094757D66EA5FA419F","title":"FOUNT BAR","lon":"121.451112586","lat":"31.2060839588","category":"260","category_name":"其他","address":"徐汇区永嘉路570号永嘉庭5号楼1楼511号(近岳阳路)"},{"poiid":"B2094753D76FAAFA449C","title":"上海滩国泰旗舰店","lon":"121.466011","lat":"31.216125","category":"249","category_name":"购物服务","address":"淮海中路868号"},{"poiid":"B209475CD564A7F84292","title":"上海滩新天地店","lon":"121.47463","lat":"31.22164","category":"119","category_name":"商场","address":"\"太仓路181弄新天地北里15号\r\n\""},{"poiid":"B209475CD564A7F8439E","title":"上海滩中信泰富店","lon":"121.45602","lat":"31.22851","category":"119","category_name":"商场","address":"\"南京西路1168号中信泰富广场，店铺号221.\r\n\""},{"poiid":"B2094757D66DA4FD4499","title":"菲芘酒吧","lon":"121.447201886","lat":"31.2057479523","category":"174","category_name":"迪厅","address":"上海衡山路10号甲一层"},{"poiid":"B2094757D568AAF94199","title":"Shari","lon":"121.44823703","lat":"31.20476101","category":"95","category_name":"日本料理","address":"徐汇区永嘉路630号(近乌鲁木齐南路)"},{"poiid":"B2094655D26AABFE469C","title":"SOHOCLUB","lon":"121.44773","lat":"31.20662","category":"247","category_name":"餐饮美食","address":"徐汇区衡山路10号"},{"poiid":"B2094757D06FA1F94893","title":"the roof","lon":"121.45089155","lat":"31.205618961","category":"172","category_name":"酒吧","address":"徐汇区永嘉路570号永嘉庭5号楼4楼(近岳阳路)"},{"poiid":"B2094757D06AA3FA479B","title":"H2","lon":"121.449141","lat":"31.204116","category":"94","category_name":"西餐厅","address":"徐汇区乌鲁木齐南路145号(近永嘉路)"},{"poiid":"B2094757D068ABF5409B","title":"Brown Stone","lon":"121.45122991","lat":"31.206031697","category":"172","category_name":"酒吧","address":"上海永嘉路57０号"},{"poiid":"B2094757D06EAAFF4899","title":"星巴克 衡山路店 Starbucks Cafe","lon":"121.446764054","lat":"31.206216793","category":"260","category_name":"其他","address":"徐汇区衡山路4号领馆广场内(近乌鲁木齐南路)"},{"poiid":"B2094655D265A2FA4098","title":"永嘉庭","lon":"121.45142","lat":"31.20608","category":"46","category_name":"楼宇","address":"永嘉路570"},{"poiid":"B2094757D069A1FB499E","title":"ZAPATA'S","lon":"121.44930898","lat":"31.208128978","category":"500","category_name":"未知分类","address":"上海衡山路5号近东平路"},{"poiid":"B2094757D665AAF8409F","title":"西界酒吧 West Side","lon":"121.447479054","lat":"31.205316793","category":"260","category_name":"其他","address":"徐汇区衡山路237号(近高安路)"},{"poiid":"B2094757D06FA5F44792","title":"Voce Cafe","lon":"121.45129679","lat":"31.206693725","category":"260","category_name":"其他","address":"上海徐汇区永嘉路566号(近岳阳路)"},{"poiid":"B2094757D06FA0FF4399","title":"欧登保龄球馆","lon":"121.44951","lat":"31.20788","category":"171","category_name":"台球厅","address":"徐汇区衡山路10号甲欧登大厦3楼(近乌鲁木齐南路)"},{"poiid":"B2094757D06AA2FB4299","title":"MT3","lon":"121.44685058","lat":"31.205462946","category":"500","category_name":"未知分类","address":"上海衡山路10号"},{"poiid":"B2094750D268A4FE499B","title":"momo牧场","lon":"121.448776","lat":"31.208055","category":"500","category_name":"未知分类","address":null},{"poiid":"B2094757D068A3FA409D","title":"衡山路乌鲁木齐南路","lon":"121.4482784","lat":"31.2070633","category":"500","category_name":"未知分类","address":"上海衡山路乌鲁木齐南路"},{"poiid":"B2094757D469A1F44492","title":"苏荷CD3 SOHO CLUB","lon":"121.448456054","lat":"31.206970793","category":"172","category_name":"酒吧","address":"徐汇区衡山路4号(乌鲁木齐路口)"},{"poiid":"B2094757D068A0F8499F","title":"印度小厨(永嘉店)","lon":"121.45119","lat":"31.20528","category":"102","category_name":"印度风味","address":"徐汇区永嘉路570号永嘉庭1号楼4楼(近岳阳路)"},{"poiid":"B2094757D064A0FC4799","title":"拉妃酒吧","lon":"121.448665586","lat":"31.2074949864","category":"179","category_name":"音乐厅","address":"上海衡山路10号"},{"poiid":"B2094750DA68A4F44298","title":"vita bistro bar","lon":"121.450485","lat":"31.205255","category":"247","category_name":"餐饮美食","address":"徐汇区永嘉路557号花园内(近乌鲁木齐南路)"},{"poiid":"B2094757D069A4F44493","title":"Club Phebe","lon":"121.44689243","lat":"31.205410175","category":"500","category_name":"未知分类","address":"上海衡山路乌鲁木齐路"},{"poiid":"B2094750D665A2FE4299","title":"比萨马上诺(永嘉庭)","lon":"121.451","lat":"31.2057","category":"94","category_name":"西餐厅","address":"徐汇区永嘉路570号111单元(近岳阳路)"},{"poiid":"B2094757D068A4FF459E","title":"巴犀烧烤屋","lon":"121.44698","lat":"31.20507","category":"94","category_name":"西餐厅","address":"徐汇区衡山路4号领馆广场内(近乌鲁木齐南路)"},{"poiid":"B2094655D26EA1FD429D","title":"一千零一夜 1001 Nights Restaurant","lon":"121.446904988","lat":"31.207006173934","category":"247","category_name":"餐饮美食","address":"徐汇区衡山路4号领馆广场内(近乌鲁木齐南路)"},{"poiid":"B2094757D66EA6F5409F","title":"永嘉路","lon":"121.45019258","lat":"31.205445946","category":"500","category_name":"未知分类","address":"上海市徐汇区淮海中路"},{"poiid":"B2094655D26EAAF84199","title":"唐韵茶坊 徐汇店","lon":"121.44775275124","lat":"31.205628558528","category":"66","category_name":"茶艺馆","address":"徐汇区衡山路199号(高安路乌鲁木齐路间)"},{"poiid":"B2094750D269A2F8419A","title":"天泰餐厅 东平店 Simply Thai","lon":"121.450011054","lat":"31.208268783","category":"247","category_name":"餐饮美食","address":"徐汇区东平路5号C座(近岳阳路)"},{"poiid":"B2094750D66EA5FA409B","title":"建国328小馆","lon":"121.44886","lat":"31.204284","category":"76","category_name":"上海菜","address":"徐汇区建国西路328号(近襄阳南路)"},{"poiid":"B2094757D16EA3FB4999","title":"Dione Hair &amp; Make up salon","lon":"121.45089235","lat":"31.205527972","category":"500","category_name":"未知分类","address":"上海永嘉路570号"},{"poiid":"B2094757D065A3FF4092","title":"Brownstone","lon":"121.451477","lat":"31.205856","category":"260","category_name":"其他","address":"徐汇区永嘉路570号永嘉庭311单元(近岳阳路)"},{"poiid":"B2094654DA6DA7F9469E","title":"Starbucks Coffee(衡山路)","lon":"121.44757","lat":"31.20641","category":"65","category_name":"咖啡厅","address":"天平路"},{"poiid":"B2094757D464ABF9439C","title":"棒约翰比萨 衡山店 Papa John's Pizza","lon":"121.44805620007","lat":"31.207111525182","category":"94","category_name":"西餐厅","address":"徐汇区衡山路4号(近乌鲁木齐南路)"},{"poiid":"B2094757D065A7FF4293","title":"高安公馆","lon":"121.44793176","lat":"31.205789923","category":"500","category_name":"未知分类","address":"徐汇区衡山路237号(近永嘉路)"},{"poiid":"B2094757D66CA7FE469E","title":"永嘉别墅","lon":"121.45004958","lat":"31.20516194","category":"47","category_name":"住宅区","address":"徐汇区永嘉路(近乌鲁木齐南路)查看地图"},{"poiid":"B2094757D064A1F4479A","title":"Westside","lon":"121.44829658","lat":"31.20565395","category":"172","category_name":"酒吧","address":"上海市徐汇区衡山路237号"},{"poiid":"B2094757D069A1FC499F","title":"乐加尔松音","lon":"121.44813362","lat":"31.207068655","category":"76","category_name":"上海菜","address":"徐汇区衡山路4号领馆广场2楼(近乌鲁木齐南路)"},{"poiid":"B2094750D665AAFC4192","title":"上海往事","lon":"121.449","lat":"31.2046","category":"76","category_name":"上海菜","address":"徐汇区永嘉路628号(近乌鲁木齐路)"},{"poiid":"B2094757D16AA5FD479B","title":"L's life","lon":"121.449765586","lat":"31.2056559505","category":"67","category_name":"甜品店","address":"徐汇区永嘉路519号(近岳阳路)"},{"poiid":"B2094757D569A2FB429A","title":"衡山路41号芝大厦","lon":"121.4488601","lat":"31.2068901","category":"46","category_name":"楼宇","address":"衡山路41号芝大厦位于徐汇衡山路41号"},{"poiid":"B2094757D468A4FF4293","title":"绝口老弄堂爆鱼","lon":"121.44996","lat":"31.20511","category":"68","category_name":"快餐厅","address":"徐汇区永嘉路573弄4号(近乌鲁木齐南路)"},{"poiid":"B2094757D568A6FC409C","title":"MT3酒吧衡山路店","lon":"121.4479519","lat":"31.20690889","category":"172","category_name":"酒吧","address":"衡山路10号甲"},{"poiid":"B2094753D768A2FF449A","title":"ASC 藏酒轩 The Wine Gallery","lon":"121.448669","lat":"31.206657","category":"247","category_name":"餐饮美食","address":"上海市 上海市徐汇区乌鲁木齐南路55号"},{"poiid":"B2094655D26FA5FE4999","title":"永嘉新村","lon":"121.45029","lat":"31.205946","category":"47","category_name":"住宅区","address":"永嘉路580弄1-110号"},{"poiid":"B2094757D065A3F9489F","title":"地铁1号线 常熟路站","lon":"121.451627586","lat":"31.2051945414","category":"500","category_name":"未知分类","address":"上海常熟路"},{"poiid":"B2094654DA6DA4FB499B","title":"宜家百货","lon":"121.45066","lat":"31.2055","category":"117","category_name":"便民商店/便利店","address":""},{"poiid":"B2094757D06FA3FD4598","title":"衡山路","lon":"121.44432","lat":"31.20163","category":"260","category_name":"其他","address":"徐汇区衡山路(衡山路吴兴路)"},{"poiid":"B2094654DA6DA7F9479B","title":"基督教国际礼拜堂","lon":"121.44808","lat":"31.20635","category":"245","category_name":"教堂","address":"徐汇区衡山路53号(近乌鲁木齐路)"},{"poiid":"B2094757D66EA5FA419F","title":"FOUNT BAR","lon":"121.451112586","lat":"31.2060839588","category":"260","category_name":"其他","address":"徐汇区永嘉路570号永嘉庭5号楼1楼511号(近岳阳路)"},{"poiid":"B2094753D76FAAFA449C","title":"上海滩国泰旗舰店","lon":"121.466011","lat":"31.216125","category":"249","category_name":"购物服务","address":"淮海中路868号"},{"poiid":"B209475CD564A7F84292","title":"上海滩新天地店","lon":"121.47463","lat":"31.22164","category":"119","category_name":"商场","address":"\"太仓路181弄新天地北里15号\r\n\""},{"poiid":"B209475CD564A7F8439E","title":"上海滩中信泰富店","lon":"121.45602","lat":"31.22851","category":"119","category_name":"商场","address":"\"南京西路1168号中信泰富广场，店铺号221.\r\n\""},{"poiid":"B2094757D66DA4FD4499","title":"菲芘酒吧","lon":"121.447201886","lat":"31.2057479523","category":"174","category_name":"迪厅","address":"上海衡山路10号甲一层"},{"poiid":"B2094757D568AAF94199","title":"Shari","lon":"121.44823703","lat":"31.20476101","category":"95","category_name":"日本料理","address":"徐汇区永嘉路630号(近乌鲁木齐南路)"},{"poiid":"B2094655D26AABFE469C","title":"SOHOCLUB","lon":"121.44773","lat":"31.20662","category":"247","category_name":"餐饮美食","address":"徐汇区衡山路10号"},{"poiid":"B2094757D06FA1F94893","title":"the roof","lon":"121.45089155","lat":"31.205618961","category":"172","category_name":"酒吧","address":"徐汇区永嘉路570号永嘉庭5号楼4楼(近岳阳路)"},{"poiid":"B2094757D06AA3FA479B","title":"H2","lon":"121.449141","lat":"31.204116","category":"94","category_name":"西餐厅","address":"徐汇区乌鲁木齐南路145号(近永嘉路)"},{"poiid":"B2094757D068ABF5409B","title":"Brown Stone","lon":"121.45122991","lat":"31.206031697","category":"172","category_name":"酒吧","address":"上海永嘉路57０号"},{"poiid":"B2094757D06EAAFF4899","title":"星巴克 衡山路店 Starbucks Cafe","lon":"121.446764054","lat":"31.206216793","category":"260","category_name":"其他","address":"徐汇区衡山路4号领馆广场内(近乌鲁木齐南路)"},{"poiid":"B2094655D265A2FA4098","title":"永嘉庭","lon":"121.45142","lat":"31.20608","category":"46","category_name":"楼宇","address":"永嘉路570"},{"poiid":"B2094757D069A1FB499E","title":"ZAPATA'S","lon":"121.44930898","lat":"31.208128978","category":"500","category_name":"未知分类","address":"上海衡山路5号近东平路"},{"poiid":"B2094757D665AAF8409F","title":"西界酒吧 West Side","lon":"121.447479054","lat":"31.205316793","category":"260","category_name":"其他","address":"徐汇区衡山路237号(近高安路)"},{"poiid":"B2094757D06FA5F44792","title":"Voce Cafe","lon":"121.45129679","lat":"31.206693725","category":"260","category_name":"其他","address":"上海徐汇区永嘉路566号(近岳阳路)"},{"poiid":"B2094757D06FA0FF4399","title":"欧登保龄球馆","lon":"121.44951","lat":"31.20788","category":"171","category_name":"台球厅","address":"徐汇区衡山路10号甲欧登大厦3楼(近乌鲁木齐南路)"},{"poiid":"B2094757D06AA2FB4299","title":"MT3","lon":"121.44685058","lat":"31.205462946","category":"500","category_name":"未知分类","address":"上海衡山路10号"},{"poiid":"B2094750D268A4FE499B","title":"momo牧场","lon":"121.448776","lat":"31.208055","category":"500","category_name":"未知分类","address":null},{"poiid":"B2094757D068A3FA409D","title":"衡山路乌鲁木齐南路","lon":"121.4482784","lat":"31.2070633","category":"500","category_name":"未知分类","address":"上海衡山路乌鲁木齐南路"},{"poiid":"B2094757D469A1F44492","title":"苏荷CD3 SOHO CLUB","lon":"121.448456054","lat":"31.206970793","category":"172","category_name":"酒吧","address":"徐汇区衡山路4号(乌鲁木齐路口)"},{"poiid":"B2094757D068A0F8499F","title":"印度小厨(永嘉店)","lon":"121.45119","lat":"31.20528","category":"102","category_name":"印度风味","address":"徐汇区永嘉路570号永嘉庭1号楼4楼(近岳阳路)"},{"poiid":"B2094757D064A0FC4799","title":"拉妃酒吧","lon":"121.448665586","lat":"31.2074949864","category":"179","category_name":"音乐厅","address":"上海衡山路10号"},{"poiid":"B2094750DA68A4F44298","title":"vita bistro bar","lon":"121.450485","lat":"31.205255","category":"247","category_name":"餐饮美食","address":"徐汇区永嘉路557号花园内(近乌鲁木齐南路)"},{"poiid":"B2094757D069A4F44493","title":"Club Phebe","lon":"121.44689243","lat":"31.205410175","category":"500","category_name":"未知分类","address":"上海衡山路乌鲁木齐路"},{"poiid":"B2094750D665A2FE4299","title":"比萨马上诺(永嘉庭)","lon":"121.451","lat":"31.2057","category":"94","category_name":"西餐厅","address":"徐汇区永嘉路570号111单元(近岳阳路)"},{"poiid":"B2094757D068A4FF459E","title":"巴犀烧烤屋","lon":"121.44698","lat":"31.20507","category":"94","category_name":"西餐厅","address":"徐汇区衡山路4号领馆广场内(近乌鲁木齐南路)"},{"poiid":"B2094655D26EA1FD429D","title":"一千零一夜 1001 Nights Restaurant","lon":"121.446904988","lat":"31.207006173934","category":"247","category_name":"餐饮美食","address":"徐汇区衡山路4号领馆广场内(近乌鲁木齐南路)"},{"poiid":"B2094757D66EA6F5409F","title":"永嘉路","lon":"121.45019258","lat":"31.205445946","category":"500","category_name":"未知分类","address":"上海市徐汇区淮海中路"},{"poiid":"B2094655D26EAAF84199","title":"唐韵茶坊 徐汇店","lon":"121.44775275124","lat":"31.205628558528","category":"66","category_name":"茶艺馆","address":"徐汇区衡山路199号(高安路乌鲁木齐路间)"},{"poiid":"B2094750D269A2F8419A","title":"天泰餐厅 东平店 Simply Thai","lon":"121.450011054","lat":"31.208268783","category":"247","category_name":"餐饮美食","address":"徐汇区东平路5号C座(近岳阳路)"},{"poiid":"B2094750D66EA5FA409B","title":"建国328小馆","lon":"121.44886","lat":"31.204284","category":"76","category_name":"上海菜","address":"徐汇区建国西路328号(近襄阳南路)"},{"poiid":"B2094757D16EA3FB4999","title":"Dione Hair &amp; Make up salon","lon":"121.45089235","lat":"31.205527972","category":"500","category_name":"未知分类","address":"上海永嘉路570号"},{"poiid":"B2094757D065A3FF4092","title":"Brownstone","lon":"121.451477","lat":"31.205856","category":"260","category_name":"其他","address":"徐汇区永嘉路570号永嘉庭311单元(近岳阳路)"},{"poiid":"B2094654DA6DA7F9469E","title":"Starbucks Coffee(衡山路)","lon":"121.44757","lat":"31.20641","category":"65","category_name":"咖啡厅","address":"天平路"},{"poiid":"B2094757D464ABF9439C","title":"棒约翰比萨 衡山店 Papa John's Pizza","lon":"121.44805620007","lat":"31.207111525182","category":"94","category_name":"西餐厅","address":"徐汇区衡山路4号(近乌鲁木齐南路)"},{"poiid":"B2094757D065A7FF4293","title":"高安公馆","lon":"121.44793176","lat":"31.205789923","category":"500","category_name":"未知分类","address":"徐汇区衡山路237号(近永嘉路)"},{"poiid":"B2094757D66CA7FE469E","title":"永嘉别墅","lon":"121.45004958","lat":"31.20516194","category":"47","category_name":"住宅区","address":"徐汇区永嘉路(近乌鲁木齐南路)查看地图"},{"poiid":"B2094757D064A1F4479A","title":"Westside","lon":"121.44829658","lat":"31.20565395","category":"172","category_name":"酒吧","address":"上海市徐汇区衡山路237号"},{"poiid":"B2094757D069A1FC499F","title":"乐加尔松音","lon":"121.44813362","lat":"31.207068655","category":"76","category_name":"上海菜","address":"徐汇区衡山路4号领馆广场2楼(近乌鲁木齐南路)"},{"poiid":"B2094750D665AAFC4192","title":"上海往事","lon":"121.449","lat":"31.2046","category":"76","category_name":"上海菜","address":"徐汇区永嘉路628号(近乌鲁木齐路)"},{"poiid":"B2094757D16AA5FD479B","title":"L's life","lon":"121.449765586","lat":"31.2056559505","category":"67","category_name":"甜品店","address":"徐汇区永嘉路519号(近岳阳路)"},{"poiid":"B2094757D569A2FB429A","title":"衡山路41号芝大厦","lon":"121.4488601","lat":"31.2068901","category":"46","category_name":"楼宇","address":"衡山路41号芝大厦位于徐汇衡山路41号"},{"poiid":"B2094757D468A4FF4293","title":"绝口老弄堂爆鱼","lon":"121.44996","lat":"31.20511","category":"68","category_name":"快餐厅","address":"徐汇区永嘉路573弄4号(近乌鲁木齐南路)"},{"poiid":"B2094757D568A6FC409C","title":"MT3酒吧衡山路店","lon":"121.4479519","lat":"31.20690889","category":"172","category_name":"酒吧","address":"衡山路10号甲"},{"poiid":"B2094753D768A2FF449A","title":"ASC 藏酒轩 The Wine Gallery","lon":"121.448669","lat":"31.206657","category":"247","category_name":"餐饮美食","address":"上海市 上海市徐汇区乌鲁木齐南路55号"},{"poiid":"B2094655D26FA5FE4999","title":"永嘉新村","lon":"121.45029","lat":"31.205946","category":"47","category_name":"住宅区","address":"永嘉路580弄1-110号"},{"poiid":"B2094757D065A3F9489F","title":"地铁1号线 常熟路站","lon":"121.451627586","lat":"31.2051945414","category":"500","category_name":"未知分类","address":"上海常熟路"},{"poiid":"B2094654DA6DA4FB499B","title":"宜家百货","lon":"121.45066","lat":"31.2055","category":"117","category_name":"便民商店/便利店","address":""},{"poiid":"B2094757D06FA3FD4598","title":"衡山路","lon":"121.44432","lat":"31.20163","category":"260","category_name":"其他","address":"徐汇区衡山路(衡山路吴兴路)"},{"poiid":"B2094654DA6DA7F9479B","title":"基督教国际礼拜堂","lon":"121.44808","lat":"31.20635","category":"245","category_name":"教堂","address":"徐汇区衡山路53号(近乌鲁木齐路)"},{"poiid":"B2094757D66EA5FA419F","title":"FOUNT BAR","lon":"121.451112586","lat":"31.2060839588","category":"260","category_name":"其他","address":"徐汇区永嘉路570号永嘉庭5号楼1楼511号(近岳阳路)"},{"poiid":"B2094753D76FAAFA449C","title":"上海滩国泰旗舰店","lon":"121.466011","lat":"31.216125","category":"249","category_name":"购物服务","address":"淮海中路868号"},{"poiid":"B209475CD564A7F84292","title":"上海滩新天地店","lon":"121.47463","lat":"31.22164","category":"119","category_name":"商场","address":"\"太仓路181弄新天地北里15号\r\n\""},{"poiid":"B209475CD564A7F8439E","title":"上海滩中信泰富店","lon":"121.45602","lat":"31.22851","category":"119","category_name":"商场","address":"\"南京西路1168号中信泰富广场，店铺号221.\r\n\""},{"poiid":"B2094757D66DA4FD4499","title":"菲芘酒吧","lon":"121.447201886","lat":"31.2057479523","category":"174","category_name":"迪厅","address":"上海衡山路10号甲一层"},{"poiid":"B2094757D568AAF94199","title":"Shari","lon":"121.44823703","lat":"31.20476101","category":"95","category_name":"日本料理","address":"徐汇区永嘉路630号(近乌鲁木齐南路)"},{"poiid":"B2094655D26AABFE469C","title":"SOHOCLUB","lon":"121.44773","lat":"31.20662","category":"247","category_name":"餐饮美食","address":"徐汇区衡山路10号"},{"poiid":"B2094757D06FA1F94893","title":"the roof","lon":"121.45089155","lat":"31.205618961","category":"172","category_name":"酒吧","address":"徐汇区永嘉路570号永嘉庭5号楼4楼(近岳阳路)"},{"poiid":"B2094757D06AA3FA479B","title":"H2","lon":"121.449141","lat":"31.204116","category":"94","category_name":"西餐厅","address":"徐汇区乌鲁木齐南路145号(近永嘉路)"},{"poiid":"B2094757D068ABF5409B","title":"Brown Stone","lon":"121.45122991","lat":"31.206031697","category":"172","category_name":"酒吧","address":"上海永嘉路57０号"},{"poiid":"B2094757D06EAAFF4899","title":"星巴克 衡山路店 Starbucks Cafe","lon":"121.446764054","lat":"31.206216793","category":"260","category_name":"其他","address":"徐汇区衡山路4号领馆广场内(近乌鲁木齐南路)"},{"poiid":"B2094655D265A2FA4098","title":"永嘉庭","lon":"121.45142","lat":"31.20608","category":"46","category_name":"楼宇","address":"永嘉路570"},{"poiid":"B2094757D069A1FB499E","title":"ZAPATA'S","lon":"121.44930898","lat":"31.208128978","category":"500","category_name":"未知分类","address":"上海衡山路5号近东平路"},{"poiid":"B2094757D665AAF8409F","title":"西界酒吧 West Side","lon":"121.447479054","lat":"31.205316793","category":"260","category_name":"其他","address":"徐汇区衡山路237号(近高安路)"},{"poiid":"B2094757D06FA5F44792","title":"Voce Cafe","lon":"121.45129679","lat":"31.206693725","category":"260","category_name":"其他","address":"上海徐汇区永嘉路566号(近岳阳路)"},{"poiid":"B2094757D06FA0FF4399","title":"欧登保龄球馆","lon":"121.44951","lat":"31.20788","category":"171","category_name":"台球厅","address":"徐汇区衡山路10号甲欧登大厦3楼(近乌鲁木齐南路)"},{"poiid":"B2094757D06AA2FB4299","title":"MT3","lon":"121.44685058","lat":"31.205462946","category":"500","category_name":"未知分类","address":"上海衡山路10号"},{"poiid":"B2094750D268A4FE499B","title":"momo牧场","lon":"121.448776","lat":"31.208055","category":"500","category_name":"未知分类","address":null},{"poiid":"B2094757D068A3FA409D","title":"衡山路乌鲁木齐南路","lon":"121.4482784","lat":"31.2070633","category":"500","category_name":"未知分类","address":"上海衡山路乌鲁木齐南路"},{"poiid":"B2094757D469A1F44492","title":"苏荷CD3 SOHO CLUB","lon":"121.448456054","lat":"31.206970793","category":"172","category_name":"酒吧","address":"徐汇区衡山路4号(乌鲁木齐路口)"},{"poiid":"B2094757D068A0F8499F","title":"印度小厨(永嘉店)","lon":"121.45119","lat":"31.20528","category":"102","category_name":"印度风味","address":"徐汇区永嘉路570号永嘉庭1号楼4楼(近岳阳路)"},{"poiid":"B2094757D064A0FC4799","title":"拉妃酒吧","lon":"121.448665586","lat":"31.2074949864","category":"179","category_name":"音乐厅","address":"上海衡山路10号"},{"poiid":"B2094750DA68A4F44298","title":"vita bistro bar","lon":"121.450485","lat":"31.205255","category":"247","category_name":"餐饮美食","address":"徐汇区永嘉路557号花园内(近乌鲁木齐南路)"},{"poiid":"B2094757D069A4F44493","title":"Club Phebe","lon":"121.44689243","lat":"31.205410175","category":"500","category_name":"未知分类","address":"上海衡山路乌鲁木齐路"},{"poiid":"B2094750D665A2FE4299","title":"比萨马上诺(永嘉庭)","lon":"121.451","lat":"31.2057","category":"94","category_name":"西餐厅","address":"徐汇区永嘉路570号111单元(近岳阳路)"},{"poiid":"B2094757D068A4FF459E","title":"巴犀烧烤屋","lon":"121.44698","lat":"31.20507","category":"94","category_name":"西餐厅","address":"徐汇区衡山路4号领馆广场内(近乌鲁木齐南路)"},{"poiid":"B2094655D26EA1FD429D","title":"一千零一夜 1001 Nights Restaurant","lon":"121.446904988","lat":"31.207006173934","category":"247","category_name":"餐饮美食","address":"徐汇区衡山路4号领馆广场内(近乌鲁木齐南路)"},{"poiid":"B2094757D66EA6F5409F","title":"永嘉路","lon":"121.45019258","lat":"31.205445946","category":"500","category_name":"未知分类","address":"上海市徐汇区淮海中路"},{"poiid":"B2094655D26EAAF84199","title":"唐韵茶坊 徐汇店","lon":"121.44775275124","lat":"31.205628558528","category":"66","category_name":"茶艺馆","address":"徐汇区衡山路199号(高安路乌鲁木齐路间)"},{"poiid":"B2094750D269A2F8419A","title":"天泰餐厅 东平店 Simply Thai","lon":"121.450011054","lat":"31.208268783","category":"247","category_name":"餐饮美食","address":"徐汇区东平路5号C座(近岳阳路)"},{"poiid":"B2094750D66EA5FA409B","title":"建国328小馆","lon":"121.44886","lat":"31.204284","category":"76","category_name":"上海菜","address":"徐汇区建国西路328号(近襄阳南路)"},{"poiid":"B2094757D16EA3FB4999","title":"Dione Hair &amp; Make up salon","lon":"121.45089235","lat":"31.205527972","category":"500","category_name":"未知分类","address":"上海永嘉路570号"},{"poiid":"B2094757D065A3FF4092","title":"Brownstone","lon":"121.451477","lat":"31.205856","category":"260","category_name":"其他","address":"徐汇区永嘉路570号永嘉庭311单元(近岳阳路)"},{"poiid":"B2094654DA6DA7F9469E","title":"Starbucks Coffee(衡山路)","lon":"121.44757","lat":"31.20641","category":"65","category_name":"咖啡厅","address":"天平路"},{"poiid":"B2094757D464ABF9439C","title":"棒约翰比萨 衡山店 Papa John's Pizza","lon":"121.44805620007","lat":"31.207111525182","category":"94","category_name":"西餐厅","address":"徐汇区衡山路4号(近乌鲁木齐南路)"},{"poiid":"B2094757D065A7FF4293","title":"高安公馆","lon":"121.44793176","lat":"31.205789923","category":"500","category_name":"未知分类","address":"徐汇区衡山路237号(近永嘉路)"},{"poiid":"B2094757D66CA7FE469E","title":"永嘉别墅","lon":"121.45004958","lat":"31.20516194","category":"47","category_name":"住宅区","address":"徐汇区永嘉路(近乌鲁木齐南路)查看地图"},{"poiid":"B2094757D064A1F4479A","title":"Westside","lon":"121.44829658","lat":"31.20565395","category":"172","category_name":"酒吧","address":"上海市徐汇区衡山路237号"},{"poiid":"B2094757D069A1FC499F","title":"乐加尔松音","lon":"121.44813362","lat":"31.207068655","category":"76","category_name":"上海菜","address":"徐汇区衡山路4号领馆广场2楼(近乌鲁木齐南路)"},{"poiid":"B2094750D665AAFC4192","title":"上海往事","lon":"121.449","lat":"31.2046","category":"76","category_name":"上海菜","address":"徐汇区永嘉路628号(近乌鲁木齐路)"},{"poiid":"B2094757D16AA5FD479B","title":"L's life","lon":"121.449765586","lat":"31.2056559505","category":"67","category_name":"甜品店","address":"徐汇区永嘉路519号(近岳阳路)"},{"poiid":"B2094757D569A2FB429A","title":"衡山路41号芝大厦","lon":"121.4488601","lat":"31.2068901","category":"46","category_name":"楼宇","address":"衡山路41号芝大厦位于徐汇衡山路41号"},{"poiid":"B2094757D468A4FF4293","title":"绝口老弄堂爆鱼","lon":"121.44996","lat":"31.20511","category":"68","category_name":"快餐厅","address":"徐汇区永嘉路573弄4号(近乌鲁木齐南路)"},{"poiid":"B2094757D568A6FC409C","title":"MT3酒吧衡山路店","lon":"121.4479519","lat":"31.20690889","category":"172","category_name":"酒吧","address":"衡山路10号甲"},{"poiid":"B2094753D768A2FF449A","title":"ASC 藏酒轩 The Wine Gallery","lon":"121.448669","lat":"31.206657","category":"247","category_name":"餐饮美食","address":"上海市 上海市徐汇区乌鲁木齐南路55号"},{"poiid":"B2094655D26FA5FE4999","title":"永嘉新村","lon":"121.45029","lat":"31.205946","category":"47","category_name":"住宅区","address":"永嘉路580弄1-110号"},{"poiid":"B2094757D065A3F9489F","title":"地铁1号线 常熟路站","lon":"121.451627586","lat":"31.2051945414","category":"500","category_name":"未知分类","address":"上海常熟路"},{"poiid":"B2094654DA6DA4FB499B","title":"宜家百货","lon":"121.45066","lat":"31.2055","category":"117","category_name":"便民商店/便利店","address":""}]