[{"poiid":"B2094750D365ABFA4392","title":"梅赛得斯-奔驰文化中心","lon":"121.493125","lat":"31.189492","category":"500","category_name":"未知分类","address":"世博大道1200号"},{"poiid":"B2094757D06EAAFB489A","title":"西藏南路地铁站","lon":"121.48955049","lat":"31.201815904","category":"36","category_name":"地铁站","address":"黄浦区西藏南路"},{"poiid":"B2094751D564A0FF429F","title":"王鼎铁板烧精致店","lon":"121.48745","lat":"31.190852","category":"500","category_name":"未知分类","address":"世博大道1368号1LM0304"},{"poiid":"B2094655D36DA1FB4193","title":"西藏南路","lon":"121.48925","lat":"31.20238","category":"38","category_name":"公交车站","address":"上海八号线西藏南路站"},{"poiid":"B2094751D56BA1F5479A","title":"世博源(The River Mall)","lon":"121.491795","lat":"31.187409","category":"247","category_name":"餐饮美食","address":"浦东新区世博大道1368号(近中华艺术宫)"},{"poiid":"B2094654DA68A0FC489F","title":"耀江花园","lon":"121.49187","lat":"31.199152","category":"47","category_name":"住宅区","address":"上海西藏南路1739弄"},{"poiid":"B2094757D06FA4FB409F","title":"世博园二号门","lon":"121.49101012","lat":"31.200848717","category":"260","category_name":"其他","address":"上海世博园二号门西藏南路出入口"},{"poiid":"B2094655D268A5FB499B","title":"上海交通大学口腔医学院九院临床医学院","lon":"121.4868","lat":"31.1995","category":"52","category_name":"高等院校","address":""},{"poiid":"B2094757D16CABF9469B","title":"黄浦江江面","lon":"121.493064","lat":"31.197621","category":"247","category_name":"餐饮美食","address":"上海黄浦江江面"},{"poiid":"B2094757D56CA7F9479D","title":"博古斯学院法国餐厅","lon":"121.49647","lat":"31.20092","category":"247","category_name":"餐饮美食","address":"黄浦区保屯路379号世博会园区法国罗阿大区展馆内(近中山南路)"},{"poiid":"B2094750D56DA6FF439B","title":"x先生密室","lon":"121.486541","lat":"31.200435","category":"500","category_name":"未知分类","address":"卢湾区局门路550号八号桥三期1号楼"},{"poiid":"B2094752D065A0FE449B","title":"王鼎日本料理铁板烧","lon":"121.492686","lat":"31.189287","category":"247","category_name":"餐饮美食","address":"世博大道1368号世博源1LM03-04号铺(近梅赛德斯奔驰文化中心西门)"},{"poiid":"B2094753D665AAF84998","title":"上海儿童艺术剧场","lon":"121.494537","lat":"31.19647","category":"500","category_name":"未知分类","address":"上海市 苗江路800号"},{"poiid":"B2094757D06FABFD4999","title":"全家便利店(西藏南路店)","lon":"121.48975","lat":"31.20234","category":"117","category_name":"便民商店/便利店","address":"黄浦区西藏南路1521号(近中山南一路)"},{"poiid":"B2094655D36DA7F84792","title":"中山南一路西藏南路","lon":"121.48866","lat":"31.20129","category":"38","category_name":"公交车站","address":""},{"poiid":"B2094757D068A6FA4499","title":"世博会中国船舶馆","lon":"121.49313","lat":"31.19636","category":"260","category_name":"其他","address":"上海世博会E片区"},{"poiid":"B2094757D06AA4F94292","title":"coffee bean","lon":"121.48605346","lat":"31.199184417","category":"65","category_name":"咖啡厅","address":"上海8号桥三期"},{"poiid":"B2094751DA6BA0FA419D","title":"世博源巴国布衣","lon":"121.486386","lat":"31.198458","category":"247","category_name":"餐饮美食","address":"世博大道1368号世博源"},{"poiid":"B2094757DB6DABFA4793","title":"莫泰168（上海西藏南路店）—原千岛湖酒店","lon":"121.4901403","lat":"31.19946134","category":"215","category_name":"三星级宾馆","address":"上海市黄浦区西藏南路1735号（近中山南路路口）"},{"poiid":"B2094654DA68A0FC489B","title":"白玉兰家园","lon":"121.49213","lat":"31.200241","category":"47","category_name":"住宅区","address":"白玉兰家园位于黄浦西藏南路1717号(近高雄路口)"},{"poiid":"B2094654DA68A0FC479B","title":"金中苑商务楼","lon":"121.49163","lat":"31.20221","category":"46","category_name":"楼宇","address":"黄浦区南京东路311号"},{"poiid":"B2094654DA68A7F94699","title":"黄金岛大酒店","lon":"121.48628","lat":"31.19932","category":"250","category_name":"公园户外","address":"卢湾区制造局路833弄口(近市第九人民医院)"},{"poiid":"B2094655D26CA3FE469C","title":"上外黄浦外国语小学","lon":"121.49461","lat":"31.20074","category":"56","category_name":"小学","address":"黄浦区半淞园路621号(半淞园路望达路)"},{"poiid":"B2094750DB6AA7F5439D","title":"上海新国际博览中心","lon":"121.493598","lat":"31.189872","category":"500","category_name":"未知分类","address":"浦东新区龙阳路2345号"},{"poiid":"B2094750DA6BA1F44899","title":"9号线陆家浜路","lon":"121.492103","lat":"31.198028","category":"627","category_name":"一般地点标志","address":null},{"poiid":"B2094757D569A7FE439D","title":"绿地广场","lon":"121.49047092","lat":"31.19454102","category":"201","category_name":"城市广场","address":"上海世博园区"},{"poiid":"B2094655D26FA5FC4799","title":"望江苑","lon":"121.4892","lat":"31.198946","category":"47","category_name":"住宅区","address":"高雄路185,189"},{"poiid":"B2094757D569A3FA4799","title":"耀江花园一期","lon":"121.4918669","lat":"31.19915306","category":"47","category_name":"住宅区","address":"上海市黄浦区西藏南路1739号"},{"poiid":"B2094654DA68A0FC4998","title":"淞园大厦","lon":"121.49336","lat":"31.1981","category":"47","category_name":"住宅区","address":"半淞园路698弄2号"},{"poiid":"B2094654DB6BABF84399","title":"千岛湖鱼味馆(西藏南路)","lon":"121.49118","lat":"31.19951","category":"260","category_name":"其他","address":"黄浦区西藏南路1735号千岛湖酒店副楼2楼(近高雄路)"},{"poiid":"B2094757D16CA0F5439A","title":"香港新世界花园一期","lon":"121.48666023","lat":"31.197706047","category":"47","category_name":"住宅区","address":"上海市卢湾区中山南一路500弄"},{"poiid":"B2094750D66EA5F5459F","title":"恒隆广场","lon":"121.49327","lat":"31.198488","category":"249","category_name":"购物服务","address":"南京西路"},{"poiid":"B2094757D16BA6FB4499","title":"上岛咖啡耀江店","lon":"121.49301863","lat":"31.198503324","category":"65","category_name":"咖啡厅","address":"上海半淞园路"},{"poiid":"B2094753D165A3FE4298","title":"上海儿童艺术剧场","lon":"121.490011","lat":"31.198779","category":"500","category_name":"未知分类","address":"上海市 上海市黄浦区苗江路"},{"poiid":"B2094757D069A3F4489A","title":"世博会可口可乐馆","lon":"121.48672","lat":"31.19594","category":"183","category_name":"展览馆","address":"上海世博会D片区"},{"poiid":"B2094655D265AAFB429E","title":"俏江南","lon":"121.49559","lat":"31.19734","category":"71","category_name":"四川菜","address":"上海世博园区"},{"poiid":"B2094752D16DA0F8499C","title":"世博影城2号厅","lon":"121.491875","lat":"31.195005","category":"178","category_name":"电影院","address":null},{"poiid":"B2094654DA68A7FE459B","title":"瞿四小区(瞿溪路)","lon":"121.48677","lat":"31.20107","category":"47","category_name":"住宅区","address":"中山南一路247弄1-24号"},{"poiid":"B2094654DB6BABF84398","title":"上海千岛湖酒店(黄浦店)","lon":"121.49118","lat":"31.19951","category":"215","category_name":"三星级宾馆","address":"黄浦区西藏南路1735号(清流北街西藏南路)"},{"poiid":"B2094757D568A6FE409C","title":"好德便利店(半淞园路)","lon":"121.492516","lat":"31.19815538","category":"117","category_name":"便民商店/便利店","address":"半淞园路645"},{"poiid":"B2094753D765A7FD439E","title":"儿童艺术剧场","lon":"121.493019","lat":"31.19742","category":"500","category_name":"未知分类","address":"上海市 苗江路800号"},{"poiid":"B2094655D268A4F84098","title":"上海交通大学口腔医学院九院临床医学院(南门)","lon":"121.48694","lat":"31.19947","category":"52","category_name":"高等院校","address":""},{"poiid":"B2094752D565ABFB429C","title":"IKEA宜家","lon":"121.490448","lat":"31.199768","category":"249","category_name":"购物服务","address":"徐家匯"},{"poiid":"B2094757DB69A1FA489E","title":"白莲泾公园","lon":"121.495446","lat":"31.196305","category":"250","category_name":"公园户外","address":"世博大道白莲泾路"},{"poiid":"B2094654DA68A7FA419E","title":"望江苑(南门)","lon":"121.48947","lat":"31.1987","category":"47","category_name":"住宅区","address":""},{"poiid":"B2094757D16AABFD4798","title":"苗江路半淞园路","lon":"121.49456024","lat":"31.196464538","category":"500","category_name":"未知分类","address":"上海苗江路半淞园路"},{"poiid":"B2094753D36EA4F44699","title":"上汽荣威儿童艺术中心","lon":"121.489086","lat":"31.199906","category":"500","category_name":"未知分类","address":"上海市 上海市苗江路800号"},{"poiid":"B2094654DA68A0FC499B","title":"欣和圆宾馆","lon":"121.49346","lat":"31.19823","category":"250","category_name":"公园户外","address":"半淞园路688号"},{"poiid":"B2094757D069ABF5489C","title":"上海市荷花池幼儿园","lon":"121.488098145","lat":"31.2027244568","category":"500","category_name":"未知分类","address":"黄浦区瞿溪路468号(瞿溪路西藏南路)"},{"poiid":"B2094655D268A4F8409C","title":"惠祥公寓","lon":"121.48793","lat":"31.199553","category":"47","category_name":"住宅区","address":"制造局路833弄19号"},{"poiid":"B2094750D365ABFA4392","title":"梅赛得斯-奔驰文化中心","lon":"121.493125","lat":"31.189492","category":"500","category_name":"未知分类","address":"世博大道1200号"},{"poiid":"B2094757D06EAAFB489A","title":"西藏南路地铁站","lon":"121.48955049","lat":"31.201815904","category":"36","category_name":"地铁站","address":"黄浦区西藏南路"},{"poiid":"B2094751D564A0FF429F","title":"王鼎铁板烧精致店","lon":"121.48745","lat":"31.190852","category":"500","category_name":"未知分类","address":"世博大道1368号1LM0304"},{"poiid":"B2094655D36DA1FB4193","title":"西藏南路","lon":"121.48925","lat":"31.20238","category":"38","category_name":"公交车站","address":"上海八号线西藏南路站"},{"poiid":"B2094751D56BA1F5479A","title":"世博源(The River Mall)","lon":"121.491795","lat":"31.187409","category":"247","category_name":"餐饮美食","address":"浦东新区世博大道1368号(近中华艺术宫)"},{"poiid":"B2094654DA68A0FC489F","title":"耀江花园","lon":"121.49187","lat":"31.199152","category":"47","category_name":"住宅区","address":"上海西藏南路1739弄"},{"poiid":"B2094757D06FA4FB409F","title":"世博园二号门","lon":"121.49101012","lat":"31.200848717","category":"260","category_name":"其他","address":"上海世博园二号门西藏南路出入口"},{"poiid":"B2094655D268A5FB499B","title":"上海交通大学口腔医学院九院临床医学院","lon":"121.4868","lat":"31.1995","category":"52","category_name":"高等院校","address":""},{"poiid":"B2094757D16CABF9469B","title":"黄浦江江面","lon":"121.493064","lat":"31.197621","category":"247","category_name":"餐饮美食","address":"上海黄浦江江面"},{"poiid":"B2094757D56CA7F9479D","title":"博古斯学院法国餐厅","lon":"121.49647","lat":"31.20092","category":"247","category_name":"餐饮美食","address":"黄浦区保屯路379号世博会园区法国罗阿大区展馆内(近中山南路)"},{"poiid":"B2094750D56DA6FF439B","title":"x先生密室","lon":"121.486541","lat":"31.200435","category":"500","category_name":"未知分类","address":"卢湾区局门路550号八号桥三期1号楼"},{"poiid":"B2094752D065A0FE449B","title":"王鼎日本料理铁板烧","lon":"121.492686","lat":"31.189287","category":"247","category_name":"餐饮美食","address":"世博大道1368号世博源1LM03-04号铺(近梅赛德斯奔驰文化中心西门)"},{"poiid":"B2094753D665AAF84998","title":"上海儿童艺术剧场","lon":"121.494537","lat":"31.19647","category":"500","category_name":"未知分类","address":"上海市 苗江路800号"},{"poiid":"B2094757D06FABFD4999","title":"全家便利店(西藏南路店)","lon":"121.48975","lat":"31.20234","category":"117","category_name":"便民商店/便利店","address":"黄浦区西藏南路1521号(近中山南一路)"},{"poiid":"B2094655D36DA7F84792","title":"中山南一路西藏南路","lon":"121.48866","lat":"31.20129","category":"38","category_name":"公交车站","address":""},{"poiid":"B2094757D068A6FA4499","title":"世博会中国船舶馆","lon":"121.49313","lat":"31.19636","category":"260","category_name":"其他","address":"上海世博会E片区"},{"poiid":"B2094757D06AA4F94292","title":"coffee bean","lon":"121.48605346","lat":"31.199184417","category":"65","category_name":"咖啡厅","address":"上海8号桥三期"},{"poiid":"B2094751DA6BA0FA419D","title":"世博源巴国布衣","lon":"121.486386","lat":"31.198458","category":"247","category_name":"餐饮美食","address":"世博大道1368号世博源"},{"poiid":"B2094757DB6DABFA4793","title":"莫泰168（上海西藏南路店）—原千岛湖酒店","lon":"121.4901403","lat":"31.19946134","category":"215","category_name":"三星级宾馆","address":"上海市黄浦区西藏南路1735号（近中山南路路口）"},{"poiid":"B2094654DA68A0FC489B","title":"白玉兰家园","lon":"121.49213","lat":"31.200241","category":"47","category_name":"住宅区","address":"白玉兰家园位于黄浦西藏南路1717号(近高雄路口)"},{"poiid":"B2094654DA68A0FC479B","title":"金中苑商务楼","lon":"121.49163","lat":"31.20221","category":"46","category_name":"楼宇","address":"黄浦区南京东路311号"},{"poiid":"B2094654DA68A7F94699","title":"黄金岛大酒店","lon":"121.48628","lat":"31.19932","category":"250","category_name":"公园户外","address":"卢湾区制造局路833弄口(近市第九人民医院)"},{"poiid":"B2094655D26CA3FE469C","title":"上外黄浦外国语小学","lon":"121.49461","lat":"31.20074","category":"56","category_name":"小学","address":"黄浦区半淞园路621号(半淞园路望达路)"},{"poiid":"B2094750DB6AA7F5439D","title":"上海新国际博览中心","lon":"121.493598","lat":"31.189872","category":"500","category_name":"未知分类","address":"浦东新区龙阳路2345号"},{"poiid":"B2094750DA6BA1F44899","title":"9号线陆家浜路","lon":"121.492103","lat":"31.198028","category":"627","category_name":"一般地点标志","address":null},{"poiid":"B2094757D569A7FE439D","title":"绿地广场","lon":"121.49047092","lat":"31.19454102","category":"201","category_name":"城市广场","address":"上海世博园区"},{"poiid":"B2094655D26FA5FC4799","title":"望江苑","lon":"121.4892","lat":"31.198946","category":"47","category_name":"住宅区","address":"高雄路185,189"},{"poiid":"B2094757D569A3FA4799","title":"耀江花园一期","lon":"121.4918669","lat":"31.19915306","category":"47","category_name":"住宅区","address":"上海市黄浦区西藏南路1739号"},{"poiid":"B2094654DA68A0FC4998","title":"淞园大厦","lon":"121.49336","lat":"31.1981","category":"47","category_name":"住宅区","address":"半淞园路698弄2号"},{"poiid":"B2094654DB6BABF84399","title":"千岛湖鱼味馆(西藏南路)","lon":"121.49118","lat":"31.19951","category":"260","category_name":"其他","address":"黄浦区西藏南路1735号千岛湖酒店副楼2楼(近高雄路)"},{"poiid":"B2094757D16CA0F5439A","title":"香港新世界花园一期","lon":"121.48666023","lat":"31.197706047","category":"47","category_name":"住宅区","address":"上海市卢湾区中山南一路500弄"},{"poiid":"B2094750D66EA5F5459F","title":"恒隆广场","lon":"121.49327","lat":"31.198488","category":"249","category_name":"购物服务","address":"南京西路"},{"poiid":"B2094757D16BA6FB4499","title":"上岛咖啡耀江店","lon":"121.49301863","lat":"31.198503324","category":"65","category_name":"咖啡厅","address":"上海半淞园路"},{"poiid":"B2094753D165A3FE4298","title":"上海儿童艺术剧场","lon":"121.490011","lat":"31.198779","category":"500","category_name":"未知分类","address":"上海市 上海市黄浦区苗江路"},{"poiid":"B2094757D069A3F4489A","title":"世博会可口可乐馆","lon":"121.48672","lat":"31.19594","category":"183","category_name":"展览馆","address":"上海世博会D片区"},{"poiid":"B2094655D265AAFB429E","title":"俏江南","lon":"121.49559","lat":"31.19734","category":"71","category_name":"四川菜","address":"上海世博园区"},{"poiid":"B2094752D16DA0F8499C","title":"世博影城2号厅","lon":"121.491875","lat":"31.195005","category":"178","category_name":"电影院","address":null},{"poiid":"B2094654DA68A7FE459B","title":"瞿四小区(瞿溪路)","lon":"121.48677","lat":"31.20107","category":"47","category_name":"住宅区","address":"中山南一路247弄1-24号"},{"poiid":"B2094654DB6BABF84398","title":"上海千岛湖酒店(黄浦店)","lon":"121.49118","lat":"31.19951","category":"215","category_name":"三星级宾馆","address":"黄浦区西藏南路1735号(清流北街西藏南路)"},{"poiid":"B2094757D568A6FE409C","title":"好德便利店(半淞园路)","lon":"121.492516","lat":"31.19815538","category":"117","category_name":"便民商店/便利店","address":"半淞园路645"},{"poiid":"B2094753D765A7FD439E","title":"儿童艺术剧场","lon":"121.493019","lat":"31.19742","category":"500","category_name":"未知分类","address":"上海市 苗江路800号"},{"poiid":"B2094655D268A4F84098","title":"上海交通大学口腔医学院九院临床医学院(南门)","lon":"121.48694","lat":"31.19947","category":"52","category_name":"高等院校","address":""},{"poiid":"B2094752D565ABFB429C","title":"IKEA宜家","lon":"121.490448","lat":"31.199768","category":"249","category_name":"购物服务","address":"徐家匯"},{"poiid":"B2094757DB69A1FA489E","title":"白莲泾公园","lon":"121.495446","lat":"31.196305","category":"250","category_name":"公园户外","address":"世博大道白莲泾路"},{"poiid":"B2094654DA68A7FA419E","title":"望江苑(南门)","lon":"121.48947","lat":"31.1987","category":"47","category_name":"住宅区","address":""},{"poiid":"B2094757D16AABFD4798","title":"苗江路半淞园路","lon":"121.49456024","lat":"31.196464538","category":"500","category_name":"未知分类","address":"上海苗江路半淞园路"},{"poiid":"B2094753D36EA4F44699","title":"上汽荣威儿童艺术中心","lon":"121.489086","lat":"31.199906","category":"500","category_name":"未知分类","address":"上海市 上海市苗江路800号"},{"poiid":"B2094654DA68A0FC499B","title":"欣和圆宾馆","lon":"121.49346","lat":"31.19823","category":"250","category_name":"公园户外","address":"半淞园路688号"},{"poiid":"B2094757D069ABF5489C","title":"上海市荷花池幼儿园","lon":"121.488098145","lat":"31.2027244568","category":"500","category_name":"未知分类","address":"黄浦区瞿溪路468号(瞿溪路西藏南路)"},{"poiid":"B2094655D268A4F8409C","title":"惠祥公寓","lon":"121.48793","lat":"31.199553","category":"47","category_name":"住宅区","address":"制造局路833弄19号"},{"poiid":"B2094750D365ABFA4392","title":"梅赛得斯-奔驰文化中心","lon":"121.493125","lat":"31.189492","category":"500","category_name":"未知分类","address":"世博大道1200号"},{"poiid":"B2094757D06EAAFB489A","title":"西藏南路地铁站","lon":"121.48955049","lat":"31.201815904","category":"36","category_name":"地铁站","address":"黄浦区西藏南路"},{"poiid":"B2094751D564A0FF429F","title":"王鼎铁板烧精致店","lon":"121.48745","lat":"31.190852","category":"500","category_name":"未知分类","address":"世博大道1368号1LM0304"},{"poiid":"B2094655D36DA1FB4193","title":"西藏南路","lon":"121.48925","lat":"31.20238","category":"38","category_name":"公交车站","address":"上海八号线西藏南路站"},{"poiid":"B2094751D56BA1F5479A","title":"世博源(The River Mall)","lon":"121.491795","lat":"31.187409","category":"247","category_name":"餐饮美食","address":"浦东新区世博大道1368号(近中华艺术宫)"},{"poiid":"B2094654DA68A0FC489F","title":"耀江花园","lon":"121.49187","lat":"31.199152","category":"47","category_name":"住宅区","address":"上海西藏南路1739弄"},{"poiid":"B2094757D06FA4FB409F","title":"世博园二号门","lon":"121.49101012","lat":"31.200848717","category":"260","category_name":"其他","address":"上海世博园二号门西藏南路出入口"},{"poiid":"B2094655D268A5FB499B","title":"上海交通大学口腔医学院九院临床医学院","lon":"121.4868","lat":"31.1995","category":"52","category_name":"高等院校","address":""},{"poiid":"B2094757D16CABF9469B","title":"黄浦江江面","lon":"121.493064","lat":"31.197621","category":"247","category_name":"餐饮美食","address":"上海黄浦江江面"},{"poiid":"B2094757D56CA7F9479D","title":"博古斯学院法国餐厅","lon":"121.49647","lat":"31.20092","category":"247","category_name":"餐饮美食","address":"黄浦区保屯路379号世博会园区法国罗阿大区展馆内(近中山南路)"},{"poiid":"B2094750D56DA6FF439B","title":"x先生密室","lon":"121.486541","lat":"31.200435","category":"500","category_name":"未知分类","address":"卢湾区局门路550号八号桥三期1号楼"},{"poiid":"B2094752D065A0FE449B","title":"王鼎日本料理铁板烧","lon":"121.492686","lat":"31.189287","category":"247","category_name":"餐饮美食","address":"世博大道1368号世博源1LM03-04号铺(近梅赛德斯奔驰文化中心西门)"},{"poiid":"B2094753D665AAF84998","title":"上海儿童艺术剧场","lon":"121.494537","lat":"31.19647","category":"500","category_name":"未知分类","address":"上海市 苗江路800号"},{"poiid":"B2094757D06FABFD4999","title":"全家便利店(西藏南路店)","lon":"121.48975","lat":"31.20234","category":"117","category_name":"便民商店/便利店","address":"黄浦区西藏南路1521号(近中山南一路)"},{"poiid":"B2094655D36DA7F84792","title":"中山南一路西藏南路","lon":"121.48866","lat":"31.20129","category":"38","category_name":"公交车站","address":""},{"poiid":"B2094757D068A6FA4499","title":"世博会中国船舶馆","lon":"121.49313","lat":"31.19636","category":"260","category_name":"其他","address":"上海世博会E片区"},{"poiid":"B2094757D06AA4F94292","title":"coffee bean","lon":"121.48605346","lat":"31.199184417","category":"65","category_name":"咖啡厅","address":"上海8号桥三期"},{"poiid":"B2094751DA6BA0FA419D","title":"世博源巴国布衣","lon":"121.486386","lat":"31.198458","category":"247","category_name":"餐饮美食","address":"世博大道1368号世博源"},{"poiid":"B2094757DB6DABFA4793","title":"莫泰168（上海西藏南路店）—原千岛湖酒店","lon":"121.4901403","lat":"31.19946134","category":"215","category_name":"三星级宾馆","address":"上海市黄浦区西藏南路1735号（近中山南路路口）"},{"poiid":"B2094654DA68A0FC489B","title":"白玉兰家园","lon":"121.49213","lat":"31.200241","category":"47","category_name":"住宅区","address":"白玉兰家园位于黄浦西藏南路1717号(近高雄路口)"},{"poiid":"B2094654DA68A0FC479B","title":"金中苑商务楼","lon":"121.49163","lat":"31.20221","category":"46","category_name":"楼宇","address":"黄浦区南京东路311号"},{"poiid":"B2094654DA68A7F94699","title":"黄金岛大酒店","lon":"121.48628","lat":"31.19932","category":"250","category_name":"公园户外","address":"卢湾区制造局路833弄口(近市第九人民医院)"},{"poiid":"B2094655D26CA3FE469C","title":"上外黄浦外国语小学","lon":"121.49461","lat":"31.20074","category":"56","category_name":"小学","address":"黄浦区半淞园路621号(半淞园路望达路)"},{"poiid":"B2094750DB6AA7F5439D","title":"上海新国际博览中心","lon":"121.493598","lat":"31.189872","category":"500","category_name":"未知分类","address":"浦东新区龙阳路2345号"},{"poiid":"B2094750DA6BA1F44899","title":"9号线陆家浜路","lon":"121.492103","lat":"31.198028","category":"627","category_name":"一般地点标志","address":null},{"poiid":"B2094757D569A7FE439D","title":"绿地广场","lon":"121.49047092","lat":"31.19454102","category":"201","category_name":"城市广场","address":"上海世博园区"},{"poiid":"B2094655D26FA5FC4799","title":"望江苑","lon":"121.4892","lat":"31.198946","category":"47","category_name":"住宅区","address":"高雄路185,189"},{"poiid":"B2094757D569A3FA4799","title":"耀江花园一期","lon":"121.4918669","lat":"31.19915306","category":"47","category_name":"住宅区","address":"上海市黄浦区西藏南路1739号"},{"poiid":"B2094654DA68A0FC4998","title":"淞园大厦","lon":"121.49336","lat":"31.1981","category":"47","category_name":"住宅区","address":"半淞园路698弄2号"},{"poiid":"B2094654DB6BABF84399","title":"千岛湖鱼味馆(西藏南路)","lon":"121.49118","lat":"31.19951","category":"260","category_name":"其他","address":"黄浦区西藏南路1735号千岛湖酒店副楼2楼(近高雄路)"},{"poiid":"B2094757D16CA0F5439A","title":"香港新世界花园一期","lon":"121.48666023","lat":"31.197706047","category":"47","category_name":"住宅区","address":"上海市卢湾区中山南一路500弄"},{"poiid":"B2094750D66EA5F5459F","title":"恒隆广场","lon":"121.49327","lat":"31.198488","category":"249","category_name":"购物服务","address":"南京西路"},{"poiid":"B2094757D16BA6FB4499","title":"上岛咖啡耀江店","lon":"121.49301863","lat":"31.198503324","category":"65","category_name":"咖啡厅","address":"上海半淞园路"},{"poiid":"B2094753D165A3FE4298","title":"上海儿童艺术剧场","lon":"121.490011","lat":"31.198779","category":"500","category_name":"未知分类","address":"上海市 上海市黄浦区苗江路"},{"poiid":"B2094757D069A3F4489A","title":"世博会可口可乐馆","lon":"121.48672","lat":"31.19594","category":"183","category_name":"展览馆","address":"上海世博会D片区"},{"poiid":"B2094655D265AAFB429E","title":"俏江南","lon":"121.49559","lat":"31.19734","category":"71","category_name":"四川菜","address":"上海世博园区"},{"poiid":"B2094752D16DA0F8499C","title":"世博影城2号厅","lon":"121.491875","lat":"31.195005","category":"178","category_name":"电影院","address":null},{"poiid":"B2094654DA68A7FE459B","title":"瞿四小区(瞿溪路)","lon":"121.48677","lat":"31.20107","category":"47","category_name":"住宅区","address":"中山南一路247弄1-24号"},{"poiid":"B2094654DB6BABF84398","title":"上海千岛湖酒店(黄浦店)","lon":"121.49118","lat":"31.19951","category":"215","category_name":"三星级宾馆","address":"黄浦区西藏南路1735号(清流北街西藏南路)"},{"poiid":"B2094757D568A6FE409C","title":"好德便利店(半淞园路)","lon":"121.492516","lat":"31.19815538","category":"117","category_name":"便民商店/便利店","address":"半淞园路645"},{"poiid":"B2094753D765A7FD439E","title":"儿童艺术剧场","lon":"121.493019","lat":"31.19742","category":"500","category_name":"未知分类","address":"上海市 苗江路800号"},{"poiid":"B2094655D268A4F84098","title":"上海交通大学口腔医学院九院临床医学院(南门)","lon":"121.48694","lat":"31.19947","category":"52","category_name":"高等院校","address":""},{"poiid":"B2094752D565ABFB429C","title":"IKEA宜家","lon":"121.490448","lat":"31.199768","category":"249","category_name":"购物服务","address":"徐家匯"},{"poiid":"B2094757DB69A1FA489E","title":"白莲泾公园","lon":"121.495446","lat":"31.196305","category":"250","category_name":"公园户外","address":"世博大道白莲泾路"},{"poiid":"B2094654DA68A7FA419E","title":"望江苑(南门)","lon":"121.48947","lat":"31.1987","category":"47","category_name":"住宅区","address":""},{"poiid":"B2094757D16AABFD4798","title":"苗江路半淞园路","lon":"121.49456024","lat":"31.196464538","category":"500","category_name":"未知分类","address":"上海苗江路半淞园路"},{"poiid":"B2094753D36EA4F44699","title":"上汽荣威儿童艺术中心","lon":"121.489086","lat":"31.199906","category":"500","category_name":"未知分类","address":"上海市 上海市苗江路800号"},{"poiid":"B2094654DA68A0FC499B","title":"欣和圆宾馆","lon":"121.49346","lat":"31.19823","category":"250","category_name":"公园户外","address":"半淞园路688号"},{"poiid":"B2094757D069ABF5489C","title":"上海市荷花池幼儿园","lon":"121.488098145","lat":"31.2027244568","category":"500","category_name":"未知分类","address":"黄浦区瞿溪路468号(瞿溪路西藏南路)"},{"poiid":"B2094655D268A4F8409C","title":"惠祥公寓","lon":"121.48793","lat":"31.199553","category":"47","category_name":"住宅区","address":"制造局路833弄19号"},{"poiid":"B2094750D365ABFA4392","title":"梅赛得斯-奔驰文化中心","lon":"121.493125","lat":"31.189492","category":"500","category_name":"未知分类","address":"世博大道1200号"},{"poiid":"B2094757D06EAAFB489A","title":"西藏南路地铁站","lon":"121.48955049","lat":"31.201815904","category":"36","category_name":"地铁站","address":"黄浦区西藏南路"},{"poiid":"B2094751D564A0FF429F","title":"王鼎铁板烧精致店","lon":"121.48745","lat":"31.190852","category":"500","category_name":"未知分类","address":"世博大道1368号1LM0304"},{"poiid":"B2094655D36DA1FB4193","title":"西藏南路","lon":"121.48925","lat":"31.20238","category":"38","category_name":"公交车站","address":"上海八号线西藏南路站"},{"poiid":"B2094751D56BA1F5479A","title":"世博源(The River Mall)","lon":"121.491795","lat":"31.187409","category":"247","category_name":"餐饮美食","address":"浦东新区世博大道1368号(近中华艺术宫)"},{"poiid":"B2094654DA68A0FC489F","title":"耀江花园","lon":"121.49187","lat":"31.199152","category":"47","category_name":"住宅区","address":"上海西藏南路1739弄"},{"poiid":"B2094757D06FA4FB409F","title":"世博园二号门","lon":"121.49101012","lat":"31.200848717","category":"260","category_name":"其他","address":"上海世博园二号门西藏南路出入口"},{"poiid":"B2094655D268A5FB499B","title":"上海交通大学口腔医学院九院临床医学院","lon":"121.4868","lat":"31.1995","category":"52","category_name":"高等院校","address":""},{"poiid":"B2094757D16CABF9469B","title":"黄浦江江面","lon":"121.493064","lat":"31.197621","category":"247","category_name":"餐饮美食","address":"上海黄浦江江面"},{"poiid":"B2094757D56CA7F9479D","title":"博古斯学院法国餐厅","lon":"121.49647","lat":"31.20092","category":"247","category_name":"餐饮美食","address":"黄浦区保屯路379号世博会园区法国罗阿大区展馆内(近中山南路)"},{"poiid":"B2094750D56DA6FF439B","title":"x先生密室","lon":"121.486541","lat":"31.200435","category":"500","category_name":"未知分类","address":"卢湾区局门路550号八号桥三期1号楼"},{"poiid":"B2094752D065A0FE449B","title":"王鼎日本料理铁板烧","lon":"121.492686","lat":"31.189287","category":"247","category_name":"餐饮美食","address":"世博大道1368号世博源1LM03-04号铺(近梅赛德斯奔驰文化中心西门)"},{"poiid":"B2094753D665AAF84998","title":"上海儿童艺术剧场","lon":"121.494537","lat":"31.19647","category":"500","category_name":"未知分类","address":"上海市 苗江路800号"},{"poiid":"B2094757D06FABFD4999","title":"全家便利店(西藏南路店)","lon":"121.48975","lat":"31.20234","category":"117","category_name":"便民商店/便利店","address":"黄浦区西藏南路1521号(近中山南一路)"},{"poiid":"B2094655D36DA7F84792","title":"中山南一路西藏南路","lon":"121.48866","lat":"31.20129","category":"38","category_name":"公交车站","address":""},{"poiid":"B2094757D068A6FA4499","title":"世博会中国船舶馆","lon":"121.49313","lat":"31.19636","category":"260","category_name":"其他","address":"上海世博会E片区"},{"poiid":"B2094757D06AA4F94292","title":"coffee bean","lon":"121.48605346","lat":"31.199184417","category":"65","category_name":"咖啡厅","address":"上海8号桥三期"},{"poiid":"B2094751DA6BA0FA419D","title":"世博源巴国布衣","lon":"121.486386","lat":"31.198458","category":"247","category_name":"餐饮美食","address":"世博大道1368号世博源"},{"poiid":"B2094757DB6DABFA4793","title":"莫泰168（上海西藏南路店）—原千岛湖酒店","lon":"121.4901403","lat":"31.19946134","category":"215","category_name":"三星级宾馆","address":"上海市黄浦区西藏南路1735号（近中山南路路口）"},{"poiid":"B2094654DA68A0FC489B","title":"白玉兰家园","lon":"121.49213","lat":"31.200241","category":"47","category_name":"住宅区","address":"白玉兰家园位于黄浦西藏南路1717号(近高雄路口)"},{"poiid":"B2094654DA68A0FC479B","title":"金中苑商务楼","lon":"121.49163","lat":"31.20221","category":"46","category_name":"楼宇","address":"黄浦区南京东路311号"},{"poiid":"B2094654DA68A7F94699","title":"黄金岛大酒店","lon":"121.48628","lat":"31.19932","category":"250","category_name":"公园户外","address":"卢湾区制造局路833弄口(近市第九人民医院)"},{"poiid":"B2094655D26CA3FE469C","title":"上外黄浦外国语小学","lon":"121.49461","lat":"31.20074","category":"56","category_name":"小学","address":"黄浦区半淞园路621号(半淞园路望达路)"},{"poiid":"B2094750DB6AA7F5439D","title":"上海新国际博览中心","lon":"121.493598","lat":"31.189872","category":"500","category_name":"未知分类","address":"浦东新区龙阳路2345号"},{"poiid":"B2094750DA6BA1F44899","title":"9号线陆家浜路","lon":"121.492103","lat":"31.198028","category":"627","category_name":"一般地点标志","address":null},{"poiid":"B2094757D569A7FE439D","title":"绿地广场","lon":"121.49047092","lat":"31.19454102","category":"201","category_name":"城市广场","address":"上海世博园区"},{"poiid":"B2094655D26FA5FC4799","title":"望江苑","lon":"121.4892","lat":"31.198946","category":"47","category_name":"住宅区","address":"高雄路185,189"},{"poiid":"B2094757D569A3FA4799","title":"耀江花园一期","lon":"121.4918669","lat":"31.19915306","category":"47","category_name":"住宅区","address":"上海市黄浦区西藏南路1739号"},{"poiid":"B2094654DA68A0FC4998","title":"淞园大厦","lon":"121.49336","lat":"31.1981","category":"47","category_name":"住宅区","address":"半淞园路698弄2号"},{"poiid":"B2094654DB6BABF84399","title":"千岛湖鱼味馆(西藏南路)","lon":"121.49118","lat":"31.19951","category":"260","category_name":"其他","address":"黄浦区西藏南路1735号千岛湖酒店副楼2楼(近高雄路)"},{"poiid":"B2094757D16CA0F5439A","title":"香港新世界花园一期","lon":"121.48666023","lat":"31.197706047","category":"47","category_name":"住宅区","address":"上海市卢湾区中山南一路500弄"},{"poiid":"B2094750D66EA5F5459F","title":"恒隆广场","lon":"121.49327","lat":"31.198488","category":"249","category_name":"购物服务","address":"南京西路"},{"poiid":"B2094757D16BA6FB4499","title":"上岛咖啡耀江店","lon":"121.49301863","lat":"31.198503324","category":"65","category_name":"咖啡厅","address":"上海半淞园路"},{"poiid":"B2094753D165A3FE4298","title":"上海儿童艺术剧场","lon":"121.490011","lat":"31.198779","category":"500","category_name":"未知分类","address":"上海市 上海市黄浦区苗江路"},{"poiid":"B2094757D069A3F4489A","title":"世博会可口可乐馆","lon":"121.48672","lat":"31.19594","category":"183","category_name":"展览馆","address":"上海世博会D片区"},{"poiid":"B2094655D265AAFB429E","title":"俏江南","lon":"121.49559","lat":"31.19734","category":"71","category_name":"四川菜","address":"上海世博园区"},{"poiid":"B2094752D16DA0F8499C","title":"世博影城2号厅","lon":"121.491875","lat":"31.195005","category":"178","category_name":"电影院","address":null},{"poiid":"B2094654DA68A7FE459B","title":"瞿四小区(瞿溪路)","lon":"121.48677","lat":"31.20107","category":"47","category_name":"住宅区","address":"中山南一路247弄1-24号"},{"poiid":"B2094654DB6BABF84398","title":"上海千岛湖酒店(黄浦店)","lon":"121.49118","lat":"31.19951","category":"215","category_name":"三星级宾馆","address":"黄浦区西藏南路1735号(清流北街西藏南路)"},{"poiid":"B2094757D568A6FE409C","title":"好德便利店(半淞园路)","lon":"121.492516","lat":"31.19815538","category":"117","category_name":"便民商店/便利店","address":"半淞园路645"},{"poiid":"B2094753D765A7FD439E","title":"儿童艺术剧场","lon":"121.493019","lat":"31.19742","category":"500","category_name":"未知分类","address":"上海市 苗江路800号"},{"poiid":"B2094655D268A4F84098","title":"上海交通大学口腔医学院九院临床医学院(南门)","lon":"121.48694","lat":"31.19947","category":"52","category_name":"高等院校","address":""},{"poiid":"B2094752D565ABFB429C","title":"IKEA宜家","lon":"121.490448","lat":"31.199768","category":"249","category_name":"购物服务","address":"徐家匯"},{"poiid":"B2094757DB69A1FA489E","title":"白莲泾公园","lon":"121.495446","lat":"31.196305","category":"250","category_name":"公园户外","address":"世博大道白莲泾路"},{"poiid":"B2094654DA68A7FA419E","title":"望江苑(南门)","lon":"121.48947","lat":"31.1987","category":"47","category_name":"住宅区","address":""},{"poiid":"B2094757D16AABFD4798","title":"苗江路半淞园路","lon":"121.49456024","lat":"31.196464538","category":"500","category_name":"未知分类","address":"上海苗江路半淞园路"},{"poiid":"B2094753D36EA4F44699","title":"上汽荣威儿童艺术中心","lon":"121.489086","lat":"31.199906","category":"500","category_name":"未知分类","address":"上海市 上海市苗江路800号"},{"poiid":"B2094654DA68A0FC499B","title":"欣和圆宾馆","lon":"121.49346","lat":"31.19823","category":"250","category_name":"公园户外","address":"半淞园路688号"},{"poiid":"B2094757D069ABF5489C","title":"上海市荷花池幼儿园","lon":"121.488098145","lat":"31.2027244568","category":"500","category_name":"未知分类","address":"黄浦区瞿溪路468号(瞿溪路西藏南路)"},{"poiid":"B2094655D268A4F8409C","title":"惠祥公寓","lon":"121.48793","lat":"31.199553","category":"47","category_name":"住宅区","address":"制造局路833弄19号"}]