[{"poiid":"B2094655D36DA6FE419E","title":"南浦大桥","lon":"121.49934","lat":"31.20845","category":"38","category_name":"公交车站","address":"黄浦区南马路1410号"},{"poiid":"B2094655D26AA1FA4998","title":"黄浦旅游集散站","lon":"121.50134","lat":"31.20778","category":"35","category_name":"长途汽车站","address":"黄浦区外马路1588号"},{"poiid":"B2094757D06FA2F54399","title":"陆家浜路海潮路","lon":"121.499351","lat":"31.211211","category":"500","category_name":"未知分类","address":"上海陆家浜路海潮路"},{"poiid":"B209475CD564A7F84292","title":"上海滩新天地店","lon":"121.47463","lat":"31.22164","category":"119","category_name":"商场","address":"\"太仓路181弄新天地北里15号\r\n\""},{"poiid":"B2094757D06FA3F4459F","title":"南浦大桥地铁站","lon":"121.49936726","lat":"31.20842377","category":"36","category_name":"地铁站","address":"上海轨道交通 四号线 轨交南浦大桥站 轻轨 4"},{"poiid":"B2094757D06FA0FD499F","title":"玛格萝妮比萨屋 陆家浜店 Magaroni Pizza Studio","lon":"121.49843555489","lat":"31.211402097888","category":"94","category_name":"西餐厅","address":"黄浦区陆家浜路458号(近海潮路)"},{"poiid":"B2094757D064A5FC4492","title":"鼎中鼎澳门豆捞","lon":"121.499069738","lat":"31.2114468999","category":"86","category_name":"火锅店","address":"黄浦区陆家浜路428号(海潮路口)"},{"poiid":"B2094654DB6BABFE4992","title":"弘辉名苑","lon":"121.496","lat":"31.2088","category":"47","category_name":"住宅区","address":"上海市黄浦区西藏南路1501弄"},{"poiid":"B2094757D06AA3F9469D","title":"中福花苑青年汇酒店式公寓","lon":"121.49864","lat":"31.21044","category":"217","category_name":"旅馆招待所","address":"上海黄浦区海潮路93弄(近陆家浜路)  "},{"poiid":"B2094757D068A6FA439E","title":"黄浦区工人文化宫","lon":"121.49624","lat":"31.2076","category":"500","category_name":"未知分类","address":"黄浦区普育东路227号(瞿溪路普育东路)"},{"poiid":"B2094655D26AA5F8449D","title":"大富贵酒楼普育东路店","lon":"121.4959","lat":"31.20773","category":"76","category_name":"上海菜","address":"黄浦区普育东路227号(瞿溪路普育东路)"},{"poiid":"B2094757D06FA4FE459B","title":"肯德基 KFC (海潮店)","lon":"121.498396","lat":"31.211151","category":"68","category_name":"快餐厅","address":"黄浦区陆家浜路436号(近大兴街)"},{"poiid":"B2094757D06FA4FE479A","title":"沃尔玛(陆家浜路店)","lon":"121.498621598","lat":"31.2110543569","category":"118","category_name":"超级市场","address":"黄浦区陆家浜路436号(近海潮路)"},{"poiid":"B2094757D169AAFD4998","title":"海潮新村","lon":"121.497","lat":"31.209507","category":"252","category_name":"楼宇机构","address":"上海市黄浦区陆家浜路普育东路"},{"poiid":"B2094654DA68A0FD4592","title":"上海南浦大桥长途旅游客运站","lon":"121.50129","lat":"31.20767","category":"35","category_name":"长途汽车站","address":"黄浦区外马路1588号(近陆家浜路)"},{"poiid":"B2094757D068A5FE409F","title":"黄浦区旅游集散中心 二楼携程VIP","lon":"121.501064","lat":"31.207764","category":"260","category_name":"其他","address":"上海外马路1588号"},{"poiid":"B2094757D46FA1F8449B","title":"乔家栅 海潮路店","lon":"121.497746","lat":"31.209484","category":"76","category_name":"上海菜","address":"黄浦区海潮路162号(近南浦大桥)"},{"poiid":"B2094757D66BA3F9439B","title":"湘味醇","lon":"121.498131","lat":"31.2103","category":"77","category_name":"湖南菜","address":"黄浦区海潮路63号(近陆家浜路)"},{"poiid":"B2094654DA68A1FB439F","title":"贝蝶专业美发美容院","lon":"121.49622","lat":"31.20896","category":"148","category_name":"美容美发店","address":"国货路137"},{"poiid":"B2094757D068A3FF4592","title":"久斯台球俱乐部(陆家浜路店)","lon":"121.49819","lat":"31.21099","category":"171","category_name":"台球厅","address":"黄浦区陆家浜路456号4楼(近海潮路)"},{"poiid":"B2094655D268ABFF4093","title":"内环南浦大桥立交桥","lon":"121.50024","lat":"31.20819","category":"250","category_name":"公园户外","address":""},{"poiid":"B2094655D264A5FA4192","title":"赛元大厦","lon":"121.49786","lat":"31.21112","category":"46","category_name":"楼宇","address":"朝阳华威桥东北角"},{"poiid":"B2094757D068A3F5429F","title":"董家渡轻纺市场","lon":"121.49964141","lat":"31.21169281","category":"249","category_name":"购物服务","address":"上海陆家浜路399号"},{"poiid":"B2094757D06BA2FE459E","title":"海潮新村仁宝公寓98号楼","lon":"121.497443626","lat":"31.2082715079","category":"47","category_name":"住宅区","address":"上海黄浦区陆家浜路468弄98号(近国货路)"},{"poiid":"B2094751D468A5FA419A","title":"公益新天地","lon":"121.495041","lat":"31.210663","category":"252","category_name":"楼宇机构","address":"普育西路105号"},{"poiid":"B2094757D164AAF44099","title":"南浦公寓","lon":"121.49751","lat":"31.209702","category":"47","category_name":"住宅区","address":"上海陆家浜路468弄58号"},{"poiid":"B2094757D06AA0FF4693","title":"海潮路国货路","lon":"121.49705","lat":"31.208614","category":"249","category_name":"购物服务","address":"上海海潮路国货路路口"},{"poiid":"B2094655D26CAAFC4493","title":"雅士公寓(海潮路)","lon":"121.497","lat":"31.20813","category":"47","category_name":"住宅区","address":"上海市黄浦区国货路118号"},{"poiid":"B2094757D66CAAFD4793","title":"大西北烧烤","lon":"121.49825882","lat":"31.209545571","category":"247","category_name":"餐饮美食","address":"上海普育西路"},{"poiid":"B2094757D068A5F8419F","title":"黄浦区社会保险事业管理中心","lon":"121.501153","lat":"31.210839","category":"252","category_name":"楼宇机构","address":"上海黄浦区陆家浜路265号"},{"poiid":"B2094757DA65A6F5439C","title":"上海市公安局出入境管理局","lon":"121.4988624","lat":"31.2100758","category":"500","category_name":"未知分类","address":"黄浦区"},{"poiid":"B2094757D469A7F4469F","title":"33号茶餐厅","lon":"121.497794","lat":"31.210946","category":"72","category_name":"广东菜","address":"黄浦区陆家浜路458号103室(近海潮路)"},{"poiid":"B2094655D26EABF9499F","title":"新世界假日汇晶酒店","lon":"121.4978","lat":"31.21245","category":"250","category_name":"公园户外","address":"上海黄浦区陆家浜路525号(海潮路)"},{"poiid":"B2094751D06EA3FC449D","title":"金桥家乐福","lon":"121.4979711","lat":"31.2099365","category":"500","category_name":"未知分类","address":"碧云路600号"},{"poiid":"B2094753D46BA3F44398","title":"梅赛德斯奔驰文化中心","lon":"121.497886","lat":"31.209438","category":"500","category_name":"未知分类","address":"上海市 浦东新区世博大道1200号"},{"poiid":"B2094654DB64A5FC499E","title":"味之都 浦江店 Wish Doing","lon":"121.49855001199","lat":"31.21131326048","category":"68","category_name":"快餐厅","address":"黄浦区陆家浜路436号(近海潮路)"},{"poiid":"B2094655D268A0F54692","title":"雅士小区(东门)","lon":"121.49732","lat":"31.20801","category":"47","category_name":"住宅区","address":"海潮路222弄1-5号"},{"poiid":"B2094654DA68A1FB4393","title":"可的(国货路)","lon":"121.49683","lat":"31.20837","category":"117","category_name":"便民商店/便利店","address":"国货路128"},{"poiid":"B2094757D16CA0F94093","title":"黄浦区公安分局出入境办公室","lon":"121.49907409","lat":"31.210474709","category":"500","category_name":"未知分类","address":"上海陆家浜路88号"},{"poiid":"B2094757D169A7F4479B","title":"上海应用技术学院　漕宝路校区图书馆","lon":"121.49659173","lat":"31.208699841","category":"181","category_name":"图书馆","address":"上海漕宝路120号"},{"poiid":"B2094750D66FAAF4419F","title":"黄浦旅游集散中心","lon":"121.496346211174","lat":"31.20948500468508","category":"627","category_name":"一般地点标志","address":"外马路1588号黄浦旅游集散中心"},{"poiid":"B2094757D16BA2F8479D","title":"蓬莱家园","lon":"121.498462","lat":"31.210441","category":"47","category_name":"住宅区","address":"上海瞿溪路301弄"},{"poiid":"B2094655D268A2F9439C","title":"海潮路240弄小区(东门)","lon":"121.4973","lat":"31.20776","category":"47","category_name":"住宅区","address":"海潮路240弄1-2号"},{"poiid":"B2094757D064A2FB489F","title":"中福花苑青年会公寓","lon":"121.499550738","lat":"31.2101788729","category":"252","category_name":"楼宇机构","address":"上海市黄浦区陆家浜路388号"},{"poiid":"B2094655D26CAAFD4499","title":"海潮路240弄1-2号","lon":"121.49712","lat":"31.2077","category":"47","category_name":"住宅区","address":"海潮路240弄1-2号"},{"poiid":"B2094757D065A3FD4092","title":"上行线(南浦大桥店)","lon":"121.49941029","lat":"31.208372562","category":"125","category_name":"书店","address":"上海黄浦区地铁四号线南浦大桥站"},{"poiid":"B2094654DA68A1FA419D","title":"董家渡街道社区图书室","lon":"121.49726","lat":"31.20762","category":"181","category_name":"图书馆","address":""},{"poiid":"B2094654DA68A1FA4099","title":"易斯特-维特","lon":"121.49845","lat":"31.21059","category":"111","category_name":"休闲餐饮场所","address":"海潮路23号中福花苑青年汇公寓酒店3层"},{"poiid":"B2094655D26AA3F84593","title":"健足仙沐","lon":"121.49633","lat":"31.20843","category":"247","category_name":"餐饮美食","address":"黄浦区国货路168号(近四号线南浦大桥站)"},{"poiid":"B2094655D264A5FE479A","title":"见见宠物用品店","lon":"121.49767","lat":"31.20952","category":"129","category_name":"宠物用品店","address":"海潮路160"},{"poiid":"B2094655D36DA6FE419E","title":"南浦大桥","lon":"121.49934","lat":"31.20845","category":"38","category_name":"公交车站","address":"黄浦区南马路1410号"},{"poiid":"B2094655D26AA1FA4998","title":"黄浦旅游集散站","lon":"121.50134","lat":"31.20778","category":"35","category_name":"长途汽车站","address":"黄浦区外马路1588号"},{"poiid":"B2094757D06FA2F54399","title":"陆家浜路海潮路","lon":"121.499351","lat":"31.211211","category":"500","category_name":"未知分类","address":"上海陆家浜路海潮路"},{"poiid":"B209475CD564A7F84292","title":"上海滩新天地店","lon":"121.47463","lat":"31.22164","category":"119","category_name":"商场","address":"\"太仓路181弄新天地北里15号\r\n\""},{"poiid":"B2094757D06FA3F4459F","title":"南浦大桥地铁站","lon":"121.49936726","lat":"31.20842377","category":"36","category_name":"地铁站","address":"上海轨道交通 四号线 轨交南浦大桥站 轻轨 4"},{"poiid":"B2094757D06FA0FD499F","title":"玛格萝妮比萨屋 陆家浜店 Magaroni Pizza Studio","lon":"121.49843555489","lat":"31.211402097888","category":"94","category_name":"西餐厅","address":"黄浦区陆家浜路458号(近海潮路)"},{"poiid":"B2094757D064A5FC4492","title":"鼎中鼎澳门豆捞","lon":"121.499069738","lat":"31.2114468999","category":"86","category_name":"火锅店","address":"黄浦区陆家浜路428号(海潮路口)"},{"poiid":"B2094654DB6BABFE4992","title":"弘辉名苑","lon":"121.496","lat":"31.2088","category":"47","category_name":"住宅区","address":"上海市黄浦区西藏南路1501弄"},{"poiid":"B2094757D06AA3F9469D","title":"中福花苑青年汇酒店式公寓","lon":"121.49864","lat":"31.21044","category":"217","category_name":"旅馆招待所","address":"上海黄浦区海潮路93弄(近陆家浜路)  "},{"poiid":"B2094757D068A6FA439E","title":"黄浦区工人文化宫","lon":"121.49624","lat":"31.2076","category":"500","category_name":"未知分类","address":"黄浦区普育东路227号(瞿溪路普育东路)"},{"poiid":"B2094655D26AA5F8449D","title":"大富贵酒楼普育东路店","lon":"121.4959","lat":"31.20773","category":"76","category_name":"上海菜","address":"黄浦区普育东路227号(瞿溪路普育东路)"},{"poiid":"B2094757D06FA4FE459B","title":"肯德基 KFC (海潮店)","lon":"121.498396","lat":"31.211151","category":"68","category_name":"快餐厅","address":"黄浦区陆家浜路436号(近大兴街)"},{"poiid":"B2094757D06FA4FE479A","title":"沃尔玛(陆家浜路店)","lon":"121.498621598","lat":"31.2110543569","category":"118","category_name":"超级市场","address":"黄浦区陆家浜路436号(近海潮路)"},{"poiid":"B2094757D169AAFD4998","title":"海潮新村","lon":"121.497","lat":"31.209507","category":"252","category_name":"楼宇机构","address":"上海市黄浦区陆家浜路普育东路"},{"poiid":"B2094654DA68A0FD4592","title":"上海南浦大桥长途旅游客运站","lon":"121.50129","lat":"31.20767","category":"35","category_name":"长途汽车站","address":"黄浦区外马路1588号(近陆家浜路)"},{"poiid":"B2094757D068A5FE409F","title":"黄浦区旅游集散中心 二楼携程VIP","lon":"121.501064","lat":"31.207764","category":"260","category_name":"其他","address":"上海外马路1588号"},{"poiid":"B2094757D46FA1F8449B","title":"乔家栅 海潮路店","lon":"121.497746","lat":"31.209484","category":"76","category_name":"上海菜","address":"黄浦区海潮路162号(近南浦大桥)"},{"poiid":"B2094757D66BA3F9439B","title":"湘味醇","lon":"121.498131","lat":"31.2103","category":"77","category_name":"湖南菜","address":"黄浦区海潮路63号(近陆家浜路)"},{"poiid":"B2094654DA68A1FB439F","title":"贝蝶专业美发美容院","lon":"121.49622","lat":"31.20896","category":"148","category_name":"美容美发店","address":"国货路137"},{"poiid":"B2094757D068A3FF4592","title":"久斯台球俱乐部(陆家浜路店)","lon":"121.49819","lat":"31.21099","category":"171","category_name":"台球厅","address":"黄浦区陆家浜路456号4楼(近海潮路)"},{"poiid":"B2094655D268ABFF4093","title":"内环南浦大桥立交桥","lon":"121.50024","lat":"31.20819","category":"250","category_name":"公园户外","address":""},{"poiid":"B2094655D264A5FA4192","title":"赛元大厦","lon":"121.49786","lat":"31.21112","category":"46","category_name":"楼宇","address":"朝阳华威桥东北角"},{"poiid":"B2094757D068A3F5429F","title":"董家渡轻纺市场","lon":"121.49964141","lat":"31.21169281","category":"249","category_name":"购物服务","address":"上海陆家浜路399号"},{"poiid":"B2094757D06BA2FE459E","title":"海潮新村仁宝公寓98号楼","lon":"121.497443626","lat":"31.2082715079","category":"47","category_name":"住宅区","address":"上海黄浦区陆家浜路468弄98号(近国货路)"},{"poiid":"B2094751D468A5FA419A","title":"公益新天地","lon":"121.495041","lat":"31.210663","category":"252","category_name":"楼宇机构","address":"普育西路105号"},{"poiid":"B2094757D164AAF44099","title":"南浦公寓","lon":"121.49751","lat":"31.209702","category":"47","category_name":"住宅区","address":"上海陆家浜路468弄58号"},{"poiid":"B2094757D06AA0FF4693","title":"海潮路国货路","lon":"121.49705","lat":"31.208614","category":"249","category_name":"购物服务","address":"上海海潮路国货路路口"},{"poiid":"B2094655D26CAAFC4493","title":"雅士公寓(海潮路)","lon":"121.497","lat":"31.20813","category":"47","category_name":"住宅区","address":"上海市黄浦区国货路118号"},{"poiid":"B2094757D66CAAFD4793","title":"大西北烧烤","lon":"121.49825882","lat":"31.209545571","category":"247","category_name":"餐饮美食","address":"上海普育西路"},{"poiid":"B2094757D068A5F8419F","title":"黄浦区社会保险事业管理中心","lon":"121.501153","lat":"31.210839","category":"252","category_name":"楼宇机构","address":"上海黄浦区陆家浜路265号"},{"poiid":"B2094757DA65A6F5439C","title":"上海市公安局出入境管理局","lon":"121.4988624","lat":"31.2100758","category":"500","category_name":"未知分类","address":"黄浦区"},{"poiid":"B2094757D469A7F4469F","title":"33号茶餐厅","lon":"121.497794","lat":"31.210946","category":"72","category_name":"广东菜","address":"黄浦区陆家浜路458号103室(近海潮路)"},{"poiid":"B2094655D26EABF9499F","title":"新世界假日汇晶酒店","lon":"121.4978","lat":"31.21245","category":"250","category_name":"公园户外","address":"上海黄浦区陆家浜路525号(海潮路)"},{"poiid":"B2094751D06EA3FC449D","title":"金桥家乐福","lon":"121.4979711","lat":"31.2099365","category":"500","category_name":"未知分类","address":"碧云路600号"},{"poiid":"B2094753D46BA3F44398","title":"梅赛德斯奔驰文化中心","lon":"121.497886","lat":"31.209438","category":"500","category_name":"未知分类","address":"上海市 浦东新区世博大道1200号"},{"poiid":"B2094654DB64A5FC499E","title":"味之都 浦江店 Wish Doing","lon":"121.49855001199","lat":"31.21131326048","category":"68","category_name":"快餐厅","address":"黄浦区陆家浜路436号(近海潮路)"},{"poiid":"B2094655D268A0F54692","title":"雅士小区(东门)","lon":"121.49732","lat":"31.20801","category":"47","category_name":"住宅区","address":"海潮路222弄1-5号"},{"poiid":"B2094654DA68A1FB4393","title":"可的(国货路)","lon":"121.49683","lat":"31.20837","category":"117","category_name":"便民商店/便利店","address":"国货路128"},{"poiid":"B2094757D16CA0F94093","title":"黄浦区公安分局出入境办公室","lon":"121.49907409","lat":"31.210474709","category":"500","category_name":"未知分类","address":"上海陆家浜路88号"},{"poiid":"B2094757D169A7F4479B","title":"上海应用技术学院　漕宝路校区图书馆","lon":"121.49659173","lat":"31.208699841","category":"181","category_name":"图书馆","address":"上海漕宝路120号"},{"poiid":"B2094750D66FAAF4419F","title":"黄浦旅游集散中心","lon":"121.496346211174","lat":"31.20948500468508","category":"627","category_name":"一般地点标志","address":"外马路1588号黄浦旅游集散中心"},{"poiid":"B2094757D16BA2F8479D","title":"蓬莱家园","lon":"121.498462","lat":"31.210441","category":"47","category_name":"住宅区","address":"上海瞿溪路301弄"},{"poiid":"B2094655D268A2F9439C","title":"海潮路240弄小区(东门)","lon":"121.4973","lat":"31.20776","category":"47","category_name":"住宅区","address":"海潮路240弄1-2号"},{"poiid":"B2094757D064A2FB489F","title":"中福花苑青年会公寓","lon":"121.499550738","lat":"31.2101788729","category":"252","category_name":"楼宇机构","address":"上海市黄浦区陆家浜路388号"},{"poiid":"B2094655D26CAAFD4499","title":"海潮路240弄1-2号","lon":"121.49712","lat":"31.2077","category":"47","category_name":"住宅区","address":"海潮路240弄1-2号"},{"poiid":"B2094757D065A3FD4092","title":"上行线(南浦大桥店)","lon":"121.49941029","lat":"31.208372562","category":"125","category_name":"书店","address":"上海黄浦区地铁四号线南浦大桥站"},{"poiid":"B2094654DA68A1FA419D","title":"董家渡街道社区图书室","lon":"121.49726","lat":"31.20762","category":"181","category_name":"图书馆","address":""},{"poiid":"B2094654DA68A1FA4099","title":"易斯特-维特","lon":"121.49845","lat":"31.21059","category":"111","category_name":"休闲餐饮场所","address":"海潮路23号中福花苑青年汇公寓酒店3层"},{"poiid":"B2094655D26AA3F84593","title":"健足仙沐","lon":"121.49633","lat":"31.20843","category":"247","category_name":"餐饮美食","address":"黄浦区国货路168号(近四号线南浦大桥站)"},{"poiid":"B2094655D264A5FE479A","title":"见见宠物用品店","lon":"121.49767","lat":"31.20952","category":"129","category_name":"宠物用品店","address":"海潮路160"},{"poiid":"B2094655D36DA6FE419E","title":"南浦大桥","lon":"121.49934","lat":"31.20845","category":"38","category_name":"公交车站","address":"黄浦区南马路1410号"},{"poiid":"B2094655D26AA1FA4998","title":"黄浦旅游集散站","lon":"121.50134","lat":"31.20778","category":"35","category_name":"长途汽车站","address":"黄浦区外马路1588号"},{"poiid":"B2094757D06FA2F54399","title":"陆家浜路海潮路","lon":"121.499351","lat":"31.211211","category":"500","category_name":"未知分类","address":"上海陆家浜路海潮路"},{"poiid":"B209475CD564A7F84292","title":"上海滩新天地店","lon":"121.47463","lat":"31.22164","category":"119","category_name":"商场","address":"\"太仓路181弄新天地北里15号\r\n\""},{"poiid":"B2094757D06FA3F4459F","title":"南浦大桥地铁站","lon":"121.49936726","lat":"31.20842377","category":"36","category_name":"地铁站","address":"上海轨道交通 四号线 轨交南浦大桥站 轻轨 4"},{"poiid":"B2094757D06FA0FD499F","title":"玛格萝妮比萨屋 陆家浜店 Magaroni Pizza Studio","lon":"121.49843555489","lat":"31.211402097888","category":"94","category_name":"西餐厅","address":"黄浦区陆家浜路458号(近海潮路)"},{"poiid":"B2094757D064A5FC4492","title":"鼎中鼎澳门豆捞","lon":"121.499069738","lat":"31.2114468999","category":"86","category_name":"火锅店","address":"黄浦区陆家浜路428号(海潮路口)"},{"poiid":"B2094654DB6BABFE4992","title":"弘辉名苑","lon":"121.496","lat":"31.2088","category":"47","category_name":"住宅区","address":"上海市黄浦区西藏南路1501弄"},{"poiid":"B2094757D06AA3F9469D","title":"中福花苑青年汇酒店式公寓","lon":"121.49864","lat":"31.21044","category":"217","category_name":"旅馆招待所","address":"上海黄浦区海潮路93弄(近陆家浜路)  "},{"poiid":"B2094757D068A6FA439E","title":"黄浦区工人文化宫","lon":"121.49624","lat":"31.2076","category":"500","category_name":"未知分类","address":"黄浦区普育东路227号(瞿溪路普育东路)"},{"poiid":"B2094655D26AA5F8449D","title":"大富贵酒楼普育东路店","lon":"121.4959","lat":"31.20773","category":"76","category_name":"上海菜","address":"黄浦区普育东路227号(瞿溪路普育东路)"},{"poiid":"B2094757D06FA4FE459B","title":"肯德基 KFC (海潮店)","lon":"121.498396","lat":"31.211151","category":"68","category_name":"快餐厅","address":"黄浦区陆家浜路436号(近大兴街)"},{"poiid":"B2094757D06FA4FE479A","title":"沃尔玛(陆家浜路店)","lon":"121.498621598","lat":"31.2110543569","category":"118","category_name":"超级市场","address":"黄浦区陆家浜路436号(近海潮路)"},{"poiid":"B2094757D169AAFD4998","title":"海潮新村","lon":"121.497","lat":"31.209507","category":"252","category_name":"楼宇机构","address":"上海市黄浦区陆家浜路普育东路"},{"poiid":"B2094654DA68A0FD4592","title":"上海南浦大桥长途旅游客运站","lon":"121.50129","lat":"31.20767","category":"35","category_name":"长途汽车站","address":"黄浦区外马路1588号(近陆家浜路)"},{"poiid":"B2094757D068A5FE409F","title":"黄浦区旅游集散中心 二楼携程VIP","lon":"121.501064","lat":"31.207764","category":"260","category_name":"其他","address":"上海外马路1588号"},{"poiid":"B2094757D46FA1F8449B","title":"乔家栅 海潮路店","lon":"121.497746","lat":"31.209484","category":"76","category_name":"上海菜","address":"黄浦区海潮路162号(近南浦大桥)"},{"poiid":"B2094757D66BA3F9439B","title":"湘味醇","lon":"121.498131","lat":"31.2103","category":"77","category_name":"湖南菜","address":"黄浦区海潮路63号(近陆家浜路)"},{"poiid":"B2094654DA68A1FB439F","title":"贝蝶专业美发美容院","lon":"121.49622","lat":"31.20896","category":"148","category_name":"美容美发店","address":"国货路137"},{"poiid":"B2094757D068A3FF4592","title":"久斯台球俱乐部(陆家浜路店)","lon":"121.49819","lat":"31.21099","category":"171","category_name":"台球厅","address":"黄浦区陆家浜路456号4楼(近海潮路)"},{"poiid":"B2094655D268ABFF4093","title":"内环南浦大桥立交桥","lon":"121.50024","lat":"31.20819","category":"250","category_name":"公园户外","address":""},{"poiid":"B2094655D264A5FA4192","title":"赛元大厦","lon":"121.49786","lat":"31.21112","category":"46","category_name":"楼宇","address":"朝阳华威桥东北角"},{"poiid":"B2094757D068A3F5429F","title":"董家渡轻纺市场","lon":"121.49964141","lat":"31.21169281","category":"249","category_name":"购物服务","address":"上海陆家浜路399号"},{"poiid":"B2094757D06BA2FE459E","title":"海潮新村仁宝公寓98号楼","lon":"121.497443626","lat":"31.2082715079","category":"47","category_name":"住宅区","address":"上海黄浦区陆家浜路468弄98号(近国货路)"},{"poiid":"B2094751D468A5FA419A","title":"公益新天地","lon":"121.495041","lat":"31.210663","category":"252","category_name":"楼宇机构","address":"普育西路105号"},{"poiid":"B2094757D164AAF44099","title":"南浦公寓","lon":"121.49751","lat":"31.209702","category":"47","category_name":"住宅区","address":"上海陆家浜路468弄58号"},{"poiid":"B2094757D06AA0FF4693","title":"海潮路国货路","lon":"121.49705","lat":"31.208614","category":"249","category_name":"购物服务","address":"上海海潮路国货路路口"},{"poiid":"B2094655D26CAAFC4493","title":"雅士公寓(海潮路)","lon":"121.497","lat":"31.20813","category":"47","category_name":"住宅区","address":"上海市黄浦区国货路118号"},{"poiid":"B2094757D66CAAFD4793","title":"大西北烧烤","lon":"121.49825882","lat":"31.209545571","category":"247","category_name":"餐饮美食","address":"上海普育西路"},{"poiid":"B2094757D068A5F8419F","title":"黄浦区社会保险事业管理中心","lon":"121.501153","lat":"31.210839","category":"252","category_name":"楼宇机构","address":"上海黄浦区陆家浜路265号"},{"poiid":"B2094757DA65A6F5439C","title":"上海市公安局出入境管理局","lon":"121.4988624","lat":"31.2100758","category":"500","category_name":"未知分类","address":"黄浦区"},{"poiid":"B2094757D469A7F4469F","title":"33号茶餐厅","lon":"121.497794","lat":"31.210946","category":"72","category_name":"广东菜","address":"黄浦区陆家浜路458号103室(近海潮路)"},{"poiid":"B2094655D26EABF9499F","title":"新世界假日汇晶酒店","lon":"121.4978","lat":"31.21245","category":"250","category_name":"公园户外","address":"上海黄浦区陆家浜路525号(海潮路)"},{"poiid":"B2094751D06EA3FC449D","title":"金桥家乐福","lon":"121.4979711","lat":"31.2099365","category":"500","category_name":"未知分类","address":"碧云路600号"},{"poiid":"B2094753D46BA3F44398","title":"梅赛德斯奔驰文化中心","lon":"121.497886","lat":"31.209438","category":"500","category_name":"未知分类","address":"上海市 浦东新区世博大道1200号"},{"poiid":"B2094654DB64A5FC499E","title":"味之都 浦江店 Wish Doing","lon":"121.49855001199","lat":"31.21131326048","category":"68","category_name":"快餐厅","address":"黄浦区陆家浜路436号(近海潮路)"},{"poiid":"B2094655D268A0F54692","title":"雅士小区(东门)","lon":"121.49732","lat":"31.20801","category":"47","category_name":"住宅区","address":"海潮路222弄1-5号"},{"poiid":"B2094654DA68A1FB4393","title":"可的(国货路)","lon":"121.49683","lat":"31.20837","category":"117","category_name":"便民商店/便利店","address":"国货路128"},{"poiid":"B2094757D16CA0F94093","title":"黄浦区公安分局出入境办公室","lon":"121.49907409","lat":"31.210474709","category":"500","category_name":"未知分类","address":"上海陆家浜路88号"},{"poiid":"B2094757D169A7F4479B","title":"上海应用技术学院　漕宝路校区图书馆","lon":"121.49659173","lat":"31.208699841","category":"181","category_name":"图书馆","address":"上海漕宝路120号"},{"poiid":"B2094750D66FAAF4419F","title":"黄浦旅游集散中心","lon":"121.496346211174","lat":"31.20948500468508","category":"627","category_name":"一般地点标志","address":"外马路1588号黄浦旅游集散中心"},{"poiid":"B2094757D16BA2F8479D","title":"蓬莱家园","lon":"121.498462","lat":"31.210441","category":"47","category_name":"住宅区","address":"上海瞿溪路301弄"},{"poiid":"B2094655D268A2F9439C","title":"海潮路240弄小区(东门)","lon":"121.4973","lat":"31.20776","category":"47","category_name":"住宅区","address":"海潮路240弄1-2号"},{"poiid":"B2094757D064A2FB489F","title":"中福花苑青年会公寓","lon":"121.499550738","lat":"31.2101788729","category":"252","category_name":"楼宇机构","address":"上海市黄浦区陆家浜路388号"},{"poiid":"B2094655D26CAAFD4499","title":"海潮路240弄1-2号","lon":"121.49712","lat":"31.2077","category":"47","category_name":"住宅区","address":"海潮路240弄1-2号"},{"poiid":"B2094757D065A3FD4092","title":"上行线(南浦大桥店)","lon":"121.49941029","lat":"31.208372562","category":"125","category_name":"书店","address":"上海黄浦区地铁四号线南浦大桥站"},{"poiid":"B2094654DA68A1FA419D","title":"董家渡街道社区图书室","lon":"121.49726","lat":"31.20762","category":"181","category_name":"图书馆","address":""},{"poiid":"B2094654DA68A1FA4099","title":"易斯特-维特","lon":"121.49845","lat":"31.21059","category":"111","category_name":"休闲餐饮场所","address":"海潮路23号中福花苑青年汇公寓酒店3层"},{"poiid":"B2094655D26AA3F84593","title":"健足仙沐","lon":"121.49633","lat":"31.20843","category":"247","category_name":"餐饮美食","address":"黄浦区国货路168号(近四号线南浦大桥站)"},{"poiid":"B2094655D264A5FE479A","title":"见见宠物用品店","lon":"121.49767","lat":"31.20952","category":"129","category_name":"宠物用品店","address":"海潮路160"},{"poiid":"B2094655D36DA6FE419E","title":"南浦大桥","lon":"121.49934","lat":"31.20845","category":"38","category_name":"公交车站","address":"黄浦区南马路1410号"},{"poiid":"B2094655D26AA1FA4998","title":"黄浦旅游集散站","lon":"121.50134","lat":"31.20778","category":"35","category_name":"长途汽车站","address":"黄浦区外马路1588号"},{"poiid":"B2094757D06FA2F54399","title":"陆家浜路海潮路","lon":"121.499351","lat":"31.211211","category":"500","category_name":"未知分类","address":"上海陆家浜路海潮路"},{"poiid":"B209475CD564A7F84292","title":"上海滩新天地店","lon":"121.47463","lat":"31.22164","category":"119","category_name":"商场","address":"\"太仓路181弄新天地北里15号\r\n\""},{"poiid":"B2094757D06FA3F4459F","title":"南浦大桥地铁站","lon":"121.49936726","lat":"31.20842377","category":"36","category_name":"地铁站","address":"上海轨道交通 四号线 轨交南浦大桥站 轻轨 4"},{"poiid":"B2094757D06FA0FD499F","title":"玛格萝妮比萨屋 陆家浜店 Magaroni Pizza Studio","lon":"121.49843555489","lat":"31.211402097888","category":"94","category_name":"西餐厅","address":"黄浦区陆家浜路458号(近海潮路)"},{"poiid":"B2094757D064A5FC4492","title":"鼎中鼎澳门豆捞","lon":"121.499069738","lat":"31.2114468999","category":"86","category_name":"火锅店","address":"黄浦区陆家浜路428号(海潮路口)"},{"poiid":"B2094654DB6BABFE4992","title":"弘辉名苑","lon":"121.496","lat":"31.2088","category":"47","category_name":"住宅区","address":"上海市黄浦区西藏南路1501弄"},{"poiid":"B2094757D06AA3F9469D","title":"中福花苑青年汇酒店式公寓","lon":"121.49864","lat":"31.21044","category":"217","category_name":"旅馆招待所","address":"上海黄浦区海潮路93弄(近陆家浜路)  "},{"poiid":"B2094757D068A6FA439E","title":"黄浦区工人文化宫","lon":"121.49624","lat":"31.2076","category":"500","category_name":"未知分类","address":"黄浦区普育东路227号(瞿溪路普育东路)"},{"poiid":"B2094655D26AA5F8449D","title":"大富贵酒楼普育东路店","lon":"121.4959","lat":"31.20773","category":"76","category_name":"上海菜","address":"黄浦区普育东路227号(瞿溪路普育东路)"},{"poiid":"B2094757D06FA4FE459B","title":"肯德基 KFC (海潮店)","lon":"121.498396","lat":"31.211151","category":"68","category_name":"快餐厅","address":"黄浦区陆家浜路436号(近大兴街)"},{"poiid":"B2094757D06FA4FE479A","title":"沃尔玛(陆家浜路店)","lon":"121.498621598","lat":"31.2110543569","category":"118","category_name":"超级市场","address":"黄浦区陆家浜路436号(近海潮路)"},{"poiid":"B2094757D169AAFD4998","title":"海潮新村","lon":"121.497","lat":"31.209507","category":"252","category_name":"楼宇机构","address":"上海市黄浦区陆家浜路普育东路"},{"poiid":"B2094654DA68A0FD4592","title":"上海南浦大桥长途旅游客运站","lon":"121.50129","lat":"31.20767","category":"35","category_name":"长途汽车站","address":"黄浦区外马路1588号(近陆家浜路)"},{"poiid":"B2094757D068A5FE409F","title":"黄浦区旅游集散中心 二楼携程VIP","lon":"121.501064","lat":"31.207764","category":"260","category_name":"其他","address":"上海外马路1588号"},{"poiid":"B2094757D46FA1F8449B","title":"乔家栅 海潮路店","lon":"121.497746","lat":"31.209484","category":"76","category_name":"上海菜","address":"黄浦区海潮路162号(近南浦大桥)"},{"poiid":"B2094757D66BA3F9439B","title":"湘味醇","lon":"121.498131","lat":"31.2103","category":"77","category_name":"湖南菜","address":"黄浦区海潮路63号(近陆家浜路)"},{"poiid":"B2094654DA68A1FB439F","title":"贝蝶专业美发美容院","lon":"121.49622","lat":"31.20896","category":"148","category_name":"美容美发店","address":"国货路137"},{"poiid":"B2094757D068A3FF4592","title":"久斯台球俱乐部(陆家浜路店)","lon":"121.49819","lat":"31.21099","category":"171","category_name":"台球厅","address":"黄浦区陆家浜路456号4楼(近海潮路)"},{"poiid":"B2094655D268ABFF4093","title":"内环南浦大桥立交桥","lon":"121.50024","lat":"31.20819","category":"250","category_name":"公园户外","address":""},{"poiid":"B2094655D264A5FA4192","title":"赛元大厦","lon":"121.49786","lat":"31.21112","category":"46","category_name":"楼宇","address":"朝阳华威桥东北角"},{"poiid":"B2094757D068A3F5429F","title":"董家渡轻纺市场","lon":"121.49964141","lat":"31.21169281","category":"249","category_name":"购物服务","address":"上海陆家浜路399号"},{"poiid":"B2094757D06BA2FE459E","title":"海潮新村仁宝公寓98号楼","lon":"121.497443626","lat":"31.2082715079","category":"47","category_name":"住宅区","address":"上海黄浦区陆家浜路468弄98号(近国货路)"},{"poiid":"B2094751D468A5FA419A","title":"公益新天地","lon":"121.495041","lat":"31.210663","category":"252","category_name":"楼宇机构","address":"普育西路105号"},{"poiid":"B2094757D164AAF44099","title":"南浦公寓","lon":"121.49751","lat":"31.209702","category":"47","category_name":"住宅区","address":"上海陆家浜路468弄58号"},{"poiid":"B2094757D06AA0FF4693","title":"海潮路国货路","lon":"121.49705","lat":"31.208614","category":"249","category_name":"购物服务","address":"上海海潮路国货路路口"},{"poiid":"B2094655D26CAAFC4493","title":"雅士公寓(海潮路)","lon":"121.497","lat":"31.20813","category":"47","category_name":"住宅区","address":"上海市黄浦区国货路118号"},{"poiid":"B2094757D66CAAFD4793","title":"大西北烧烤","lon":"121.49825882","lat":"31.209545571","category":"247","category_name":"餐饮美食","address":"上海普育西路"},{"poiid":"B2094757D068A5F8419F","title":"黄浦区社会保险事业管理中心","lon":"121.501153","lat":"31.210839","category":"252","category_name":"楼宇机构","address":"上海黄浦区陆家浜路265号"},{"poiid":"B2094757DA65A6F5439C","title":"上海市公安局出入境管理局","lon":"121.4988624","lat":"31.2100758","category":"500","category_name":"未知分类","address":"黄浦区"},{"poiid":"B2094757D469A7F4469F","title":"33号茶餐厅","lon":"121.497794","lat":"31.210946","category":"72","category_name":"广东菜","address":"黄浦区陆家浜路458号103室(近海潮路)"},{"poiid":"B2094655D26EABF9499F","title":"新世界假日汇晶酒店","lon":"121.4978","lat":"31.21245","category":"250","category_name":"公园户外","address":"上海黄浦区陆家浜路525号(海潮路)"},{"poiid":"B2094751D06EA3FC449D","title":"金桥家乐福","lon":"121.4979711","lat":"31.2099365","category":"500","category_name":"未知分类","address":"碧云路600号"},{"poiid":"B2094753D46BA3F44398","title":"梅赛德斯奔驰文化中心","lon":"121.497886","lat":"31.209438","category":"500","category_name":"未知分类","address":"上海市 浦东新区世博大道1200号"},{"poiid":"B2094654DB64A5FC499E","title":"味之都 浦江店 Wish Doing","lon":"121.49855001199","lat":"31.21131326048","category":"68","category_name":"快餐厅","address":"黄浦区陆家浜路436号(近海潮路)"},{"poiid":"B2094655D268A0F54692","title":"雅士小区(东门)","lon":"121.49732","lat":"31.20801","category":"47","category_name":"住宅区","address":"海潮路222弄1-5号"},{"poiid":"B2094654DA68A1FB4393","title":"可的(国货路)","lon":"121.49683","lat":"31.20837","category":"117","category_name":"便民商店/便利店","address":"国货路128"},{"poiid":"B2094757D16CA0F94093","title":"黄浦区公安分局出入境办公室","lon":"121.49907409","lat":"31.210474709","category":"500","category_name":"未知分类","address":"上海陆家浜路88号"},{"poiid":"B2094757D169A7F4479B","title":"上海应用技术学院　漕宝路校区图书馆","lon":"121.49659173","lat":"31.208699841","category":"181","category_name":"图书馆","address":"上海漕宝路120号"},{"poiid":"B2094750D66FAAF4419F","title":"黄浦旅游集散中心","lon":"121.496346211174","lat":"31.20948500468508","category":"627","category_name":"一般地点标志","address":"外马路1588号黄浦旅游集散中心"},{"poiid":"B2094757D16BA2F8479D","title":"蓬莱家园","lon":"121.498462","lat":"31.210441","category":"47","category_name":"住宅区","address":"上海瞿溪路301弄"},{"poiid":"B2094655D268A2F9439C","title":"海潮路240弄小区(东门)","lon":"121.4973","lat":"31.20776","category":"47","category_name":"住宅区","address":"海潮路240弄1-2号"},{"poiid":"B2094757D064A2FB489F","title":"中福花苑青年会公寓","lon":"121.499550738","lat":"31.2101788729","category":"252","category_name":"楼宇机构","address":"上海市黄浦区陆家浜路388号"},{"poiid":"B2094655D26CAAFD4499","title":"海潮路240弄1-2号","lon":"121.49712","lat":"31.2077","category":"47","category_name":"住宅区","address":"海潮路240弄1-2号"},{"poiid":"B2094757D065A3FD4092","title":"上行线(南浦大桥店)","lon":"121.49941029","lat":"31.208372562","category":"125","category_name":"书店","address":"上海黄浦区地铁四号线南浦大桥站"},{"poiid":"B2094654DA68A1FA419D","title":"董家渡街道社区图书室","lon":"121.49726","lat":"31.20762","category":"181","category_name":"图书馆","address":""},{"poiid":"B2094654DA68A1FA4099","title":"易斯特-维特","lon":"121.49845","lat":"31.21059","category":"111","category_name":"休闲餐饮场所","address":"海潮路23号中福花苑青年汇公寓酒店3层"},{"poiid":"B2094655D26AA3F84593","title":"健足仙沐","lon":"121.49633","lat":"31.20843","category":"247","category_name":"餐饮美食","address":"黄浦区国货路168号(近四号线南浦大桥站)"},{"poiid":"B2094655D264A5FE479A","title":"见见宠物用品店","lon":"121.49767","lat":"31.20952","category":"129","category_name":"宠物用品店","address":"海潮路160"}]