[{"poiid":"B2094757D06FA5FD439B","title":"银乐迪凯德龙之梦店","lon":"121.48056284","lat":"31.2620589725","category":"170","category_name":"KTV","address":"上海虹口凯德龙之梦"},{"poiid":"B2094757D068A1FE4498","title":"尚一汤(虹口龙之梦店)","lon":"121.476666388","lat":"31.263169685","category":"72","category_name":"广东菜","address":"虹口区西江湾路388号虹口凯德龙之梦购物中心620室(近虹口足球场)"},{"poiid":"B2094757D06EAAF54098","title":"小肥羊(宝山路店)","lon":"121.47968","lat":"31.2654","category":"86","category_name":"火锅店","address":"虹口区宝山路880-888号(近同心路)"},{"poiid":"B2094757D06EAAFA469E","title":"东宝兴路地铁站","lon":"121.47995875","lat":"31.260103405","category":"36","category_name":"地铁站","address":"上海轨道交通 三号线 轨交东宝兴路站 轻轨 3"},{"poiid":"B2094757D06EAAFA4098","title":"绿洲雅宾利","lon":"121.478","lat":"31.2615","category":"47","category_name":"住宅区","address":"上海中兴路止园路"},{"poiid":"B2094655D36CA6F44492","title":"东宝兴路中兴路","lon":"121.47758","lat":"31.26081","category":"38","category_name":"公交车站","address":"上海东宝兴路中兴路"},{"poiid":"B2094757D16DA5FB4593","title":"同心路","lon":"121.477818103","lat":"31.2650953109","category":"500","category_name":"未知分类","address":"上海市虹口区"},{"poiid":"B2094757D068A5F4459E","title":"吴记麻辣火锅 宝山路店","lon":"121.479694054","lat":"31.264398793","category":"247","category_name":"餐饮美食","address":"虹口区宝山路868号(近同心路)"},{"poiid":"B2094757D068A1F54499","title":"德克士(东宝兴路店)","lon":"121.47531","lat":"31.26272","category":"68","category_name":"快餐厅","address":"闸北区东宝兴路777号世纪联华1楼(近芷江中路)"},{"poiid":"B2094757D06FA7F8439B","title":"世纪联华(东宝店)","lon":"121.47573","lat":"31.26202","category":"118","category_name":"超级市场","address":"上海闸北区东宝兴路777号(近芷江中路)"},{"poiid":"B2094757D069A2FB409F","title":"虹祺花苑","lon":"121.47932","lat":"31.265055","category":"47","category_name":"住宅区","address":"上海市虹口区宝山路888弄"},{"poiid":"B2094750D665A3F9469C","title":"鼎中鼎澳门豆捞(东宝兴路店)","lon":"121.475","lat":"31.263","category":"86","category_name":"火锅店","address":"虹口区东宝兴路777号世纪联华1楼(近芷江中路)"},{"poiid":"B2094757D06FABF4419D","title":"怡妮新疆风味","lon":"121.478416103","lat":"31.2658073258","category":"90","category_name":"清真餐馆","address":"虹口区东江湾路98号(近宝山路)"},{"poiid":"B2094757D068A0F94093","title":"市北职业高级中学","lon":"121.47814178","lat":"31.259740829","category":"500","category_name":"未知分类","address":"闸北区宝山路584号(近东宝兴路)"},{"poiid":"B2094750D76EAAF5429F","title":"谷谷鸡象山海鲜城","lon":"121.478","lat":"31.2652","category":"260","category_name":"其他","address":"虹口区天通庵路746号(近横浜路)"},{"poiid":"B2094757D068A5F94799","title":"健康煮(虹口凯德龙之梦店)","lon":"121.475750003","lat":"31.2635136779","category":"86","category_name":"火锅店","address":"上海东江湾路444号凯德龙之梦B栋2楼"},{"poiid":"B2094757D069ABF54193","title":"海伦新苑","lon":"121.47842","lat":"31.262201","category":"47","category_name":"住宅区","address":"上海市虹口区华昌路68弄1-12号"},{"poiid":"B2094757D06BA3F54193","title":"蜀三国","lon":"121.47791754","lat":"31.261876543","category":"71","category_name":"四川菜","address":"虹口区东宝兴路483-487号(近宝山路)"},{"poiid":"B2094757D06AA0FD489C","title":"大桶大足浴(中兴店)","lon":"121.47759","lat":"31.25987","category":"149","category_name":"洗浴推拿场所","address":"闸北区中兴路237号(近东宝兴路)"},{"poiid":"B2094757D16EA0F5469D","title":"天通庵路","lon":"121.476906103","lat":"31.2635822793","category":"500","category_name":"未知分类","address":"上海天通庵路"},{"poiid":"B2094654D56CA6F4459A","title":"胖子大排档","lon":"121.47555","lat":"31.2627","category":"68","category_name":"快餐厅","address":"闸北区芷江支路(东宝兴路芷江中路)"},{"poiid":"B2094753D469A4FE459A","title":"月星•环球港","lon":"121.478042","lat":"31.259443","category":"500","category_name":"未知分类","address":"上海市 普陀区中山北路3300号"},{"poiid":"B2094654D56CA5FD449E","title":"宝虹新苑","lon":"121.47871","lat":"31.263214","category":"47","category_name":"住宅区","address":"朝阳区天辰东路7号"},{"poiid":"B2094757D069A6F54498","title":"小东北烧烤","lon":"121.47581","lat":"31.26189","category":"257","category_name":"中餐厅","address":"闸北区东宝兴路714号(近天通庵路)"},{"poiid":"B2094757D069A1F4419C","title":"金太子形象设计(天通庵路店)","lon":"121.4788","lat":"31.26512","category":"148","category_name":"美容美发店","address":"虹口区天通庵路751号(近同心路)"},{"poiid":"B2094757DB6FAAFF419B","title":"世纪大道地铁站","lon":"121.480201155577","lat":"31.25980006696586","category":"36","category_name":"地铁站","address":"世纪大道"},{"poiid":"B2094757D06AABFB4392","title":"66路东宝兴路站","lon":"121.4782341","lat":"31.261615238","category":"38","category_name":"公交车站","address":"上海市闸北区东宝兴路"},{"poiid":"B2094757D169AAFB4792","title":"好友大排档","lon":"121.4758901","lat":"31.26315927","category":"68","category_name":"快餐厅","address":"闸北区东宝兴路681号(近世纪联华)"},{"poiid":"B2094654DB69A4FB489E","title":"重庆鸡公煲 天通庵路店","lon":"121.47672","lat":"31.26331","category":"71","category_name":"四川菜","address":"虹口区天通庵路746号(横浜路天通庵路)"},{"poiid":"B2094655D26CA0FD459F","title":"华昌公寓","lon":"121.47739","lat":"31.262003","category":"47","category_name":"住宅区","address":"上海市长宁区延安西路1235弄"},{"poiid":"B2094752D36DA5FB409B","title":"觅糖记meetdessert","lon":"121.4766484607424","lat":"31.2635149841269","category":"247","category_name":"餐饮美食","address":"甜爱路11号"},{"poiid":"B2094750D365A7F44599","title":"金逸国际影城","lon":"121.477539","lat":"31.265296","category":"178","category_name":"电影院","address":null},{"poiid":"B2094751D465A2F54092","title":"无乐不作女仆桌游坊","lon":"121.4789240963162","lat":"31.2629264989679","category":"248","category_name":"生活娱乐","address":"四川北路1851号荣欣大厦703室"},{"poiid":"B2094757D065A5F8499A","title":"谷泉酒店","lon":"121.478425131","lat":"31.2649420977","category":"76","category_name":"上海菜","address":"虹口区天通庵路737号(近同心路)"},{"poiid":"B2094655D26AA0F94193","title":"地铁东宝兴路站","lon":"121.47994","lat":"31.26011","category":"36","category_name":"地铁站","address":""},{"poiid":"B2094757D568A0F94899","title":"虹祺花苑底商","lon":"121.4794228","lat":"31.26242694","category":"47","category_name":"住宅区","address":"虹口区宝山路874-880号"},{"poiid":"B2094757D16DA0FE4292","title":"天天大排档","lon":"121.47586","lat":"31.26252","category":"68","category_name":"快餐厅","address":"闸北区芷江支路(东宝兴路芷江中路)"},{"poiid":"B2094750DB6CA1FE409D","title":"甜爱路爱心邮筒","lon":"121.4796136","lat":"31.2639618","category":"500","category_name":"未知分类","address":"甜爱路3号"},{"poiid":"B2094654D56EA2FA459D","title":"金宝大厦","lon":"121.47983","lat":"31.260185","category":"47","category_name":"住宅区","address":"上海市虹口区宝山路623,633号"},{"poiid":"B2094655D26AA7FD419D","title":"BONIYA伯尼雅精致婚纱礼服","lon":"121.4781","lat":"31.26148","category":"247","category_name":"餐饮美食","address":"虹口区华昌路9号金象大厦1004室(近东宝新路中兴路)查看地图"},{"poiid":"B2094655D26AA3FA4398","title":"第二视觉影像机构","lon":"121.4781","lat":"31.26148","category":"247","category_name":"餐饮美食","address":"闸北区华昌路9号1502室(近四川北路)查看地图"},{"poiid":"B2094750D668ABFF479E","title":"第一人民医院住院部","lon":"121.479686","lat":"31.262283","category":"162","category_name":"医院","address":"四川北路"},{"poiid":"B2094757D16EABF9469B","title":"路边烧烤摊","lon":"121.47628","lat":"31.26301","category":"68","category_name":"快餐厅","address":"虹口区天通庵路华昌路口(世纪联华对面)"},{"poiid":"B2094757D168ABF84899","title":"艺土留声艺术手工瓷厅","lon":"121.4802461","lat":"31.262709261","category":"500","category_name":"未知分类","address":"上海虹口区多伦路名人文化街173号"},{"poiid":"B2094654D56EA1F9499E","title":"吉祥咸肉菜饭骨头汤(东宝兴路)","lon":"121.47659","lat":"31.26146","category":"68","category_name":"快餐厅","address":"闸北区东宝兴路618号(近中兴路)"},{"poiid":"B2094753D66EA2F8429A","title":"凯德龙之梦","lon":"121.478496","lat":"31.264044","category":"500","category_name":"未知分类","address":"上海市 四川北路"},{"poiid":"B2094757D06BA3F84798","title":"弘丰新苑","lon":"121.47701","lat":"31.261816","category":"47","category_name":"住宅区","address":"上海中兴路110弄"},{"poiid":"B2094757DB6FAAF84092","title":"多伦路文化街","lon":"121.4772974980264","lat":"31.26489479097656","category":"500","category_name":"未知分类","address":"四川北路多伦路"},{"poiid":"B2094753D26EA7F8429A","title":"绿茶","lon":"121.478503","lat":"31.26385","category":"247","category_name":"餐饮美食","address":"上海市 虹口龙之梦"},{"poiid":"B2094655D26FA0FF489D","title":"弘丰新苑(西门)","lon":"121.47703","lat":"31.26148","category":"47","category_name":"住宅区","address":"东宝兴路645"},{"poiid":"B2094757D06FA5FD439B","title":"银乐迪凯德龙之梦店","lon":"121.48056284","lat":"31.2620589725","category":"170","category_name":"KTV","address":"上海虹口凯德龙之梦"},{"poiid":"B2094757D068A1FE4498","title":"尚一汤(虹口龙之梦店)","lon":"121.476666388","lat":"31.263169685","category":"72","category_name":"广东菜","address":"虹口区西江湾路388号虹口凯德龙之梦购物中心620室(近虹口足球场)"},{"poiid":"B2094757D06EAAF54098","title":"小肥羊(宝山路店)","lon":"121.47968","lat":"31.2654","category":"86","category_name":"火锅店","address":"虹口区宝山路880-888号(近同心路)"},{"poiid":"B2094757D06EAAFA469E","title":"东宝兴路地铁站","lon":"121.47995875","lat":"31.260103405","category":"36","category_name":"地铁站","address":"上海轨道交通 三号线 轨交东宝兴路站 轻轨 3"},{"poiid":"B2094757D06EAAFA4098","title":"绿洲雅宾利","lon":"121.478","lat":"31.2615","category":"47","category_name":"住宅区","address":"上海中兴路止园路"},{"poiid":"B2094655D36CA6F44492","title":"东宝兴路中兴路","lon":"121.47758","lat":"31.26081","category":"38","category_name":"公交车站","address":"上海东宝兴路中兴路"},{"poiid":"B2094757D16DA5FB4593","title":"同心路","lon":"121.477818103","lat":"31.2650953109","category":"500","category_name":"未知分类","address":"上海市虹口区"},{"poiid":"B2094757D068A5F4459E","title":"吴记麻辣火锅 宝山路店","lon":"121.479694054","lat":"31.264398793","category":"247","category_name":"餐饮美食","address":"虹口区宝山路868号(近同心路)"},{"poiid":"B2094757D068A1F54499","title":"德克士(东宝兴路店)","lon":"121.47531","lat":"31.26272","category":"68","category_name":"快餐厅","address":"闸北区东宝兴路777号世纪联华1楼(近芷江中路)"},{"poiid":"B2094757D06FA7F8439B","title":"世纪联华(东宝店)","lon":"121.47573","lat":"31.26202","category":"118","category_name":"超级市场","address":"上海闸北区东宝兴路777号(近芷江中路)"},{"poiid":"B2094757D069A2FB409F","title":"虹祺花苑","lon":"121.47932","lat":"31.265055","category":"47","category_name":"住宅区","address":"上海市虹口区宝山路888弄"},{"poiid":"B2094750D665A3F9469C","title":"鼎中鼎澳门豆捞(东宝兴路店)","lon":"121.475","lat":"31.263","category":"86","category_name":"火锅店","address":"虹口区东宝兴路777号世纪联华1楼(近芷江中路)"},{"poiid":"B2094757D06FABF4419D","title":"怡妮新疆风味","lon":"121.478416103","lat":"31.2658073258","category":"90","category_name":"清真餐馆","address":"虹口区东江湾路98号(近宝山路)"},{"poiid":"B2094757D068A0F94093","title":"市北职业高级中学","lon":"121.47814178","lat":"31.259740829","category":"500","category_name":"未知分类","address":"闸北区宝山路584号(近东宝兴路)"},{"poiid":"B2094750D76EAAF5429F","title":"谷谷鸡象山海鲜城","lon":"121.478","lat":"31.2652","category":"260","category_name":"其他","address":"虹口区天通庵路746号(近横浜路)"},{"poiid":"B2094757D068A5F94799","title":"健康煮(虹口凯德龙之梦店)","lon":"121.475750003","lat":"31.2635136779","category":"86","category_name":"火锅店","address":"上海东江湾路444号凯德龙之梦B栋2楼"},{"poiid":"B2094757D069ABF54193","title":"海伦新苑","lon":"121.47842","lat":"31.262201","category":"47","category_name":"住宅区","address":"上海市虹口区华昌路68弄1-12号"},{"poiid":"B2094757D06BA3F54193","title":"蜀三国","lon":"121.47791754","lat":"31.261876543","category":"71","category_name":"四川菜","address":"虹口区东宝兴路483-487号(近宝山路)"},{"poiid":"B2094757D06AA0FD489C","title":"大桶大足浴(中兴店)","lon":"121.47759","lat":"31.25987","category":"149","category_name":"洗浴推拿场所","address":"闸北区中兴路237号(近东宝兴路)"},{"poiid":"B2094757D16EA0F5469D","title":"天通庵路","lon":"121.476906103","lat":"31.2635822793","category":"500","category_name":"未知分类","address":"上海天通庵路"},{"poiid":"B2094654D56CA6F4459A","title":"胖子大排档","lon":"121.47555","lat":"31.2627","category":"68","category_name":"快餐厅","address":"闸北区芷江支路(东宝兴路芷江中路)"},{"poiid":"B2094753D469A4FE459A","title":"月星•环球港","lon":"121.478042","lat":"31.259443","category":"500","category_name":"未知分类","address":"上海市 普陀区中山北路3300号"},{"poiid":"B2094654D56CA5FD449E","title":"宝虹新苑","lon":"121.47871","lat":"31.263214","category":"47","category_name":"住宅区","address":"朝阳区天辰东路7号"},{"poiid":"B2094757D069A6F54498","title":"小东北烧烤","lon":"121.47581","lat":"31.26189","category":"257","category_name":"中餐厅","address":"闸北区东宝兴路714号(近天通庵路)"},{"poiid":"B2094757D069A1F4419C","title":"金太子形象设计(天通庵路店)","lon":"121.4788","lat":"31.26512","category":"148","category_name":"美容美发店","address":"虹口区天通庵路751号(近同心路)"},{"poiid":"B2094757DB6FAAFF419B","title":"世纪大道地铁站","lon":"121.480201155577","lat":"31.25980006696586","category":"36","category_name":"地铁站","address":"世纪大道"},{"poiid":"B2094757D06AABFB4392","title":"66路东宝兴路站","lon":"121.4782341","lat":"31.261615238","category":"38","category_name":"公交车站","address":"上海市闸北区东宝兴路"},{"poiid":"B2094757D169AAFB4792","title":"好友大排档","lon":"121.4758901","lat":"31.26315927","category":"68","category_name":"快餐厅","address":"闸北区东宝兴路681号(近世纪联华)"},{"poiid":"B2094654DB69A4FB489E","title":"重庆鸡公煲 天通庵路店","lon":"121.47672","lat":"31.26331","category":"71","category_name":"四川菜","address":"虹口区天通庵路746号(横浜路天通庵路)"},{"poiid":"B2094655D26CA0FD459F","title":"华昌公寓","lon":"121.47739","lat":"31.262003","category":"47","category_name":"住宅区","address":"上海市长宁区延安西路1235弄"},{"poiid":"B2094752D36DA5FB409B","title":"觅糖记meetdessert","lon":"121.4766484607424","lat":"31.2635149841269","category":"247","category_name":"餐饮美食","address":"甜爱路11号"},{"poiid":"B2094750D365A7F44599","title":"金逸国际影城","lon":"121.477539","lat":"31.265296","category":"178","category_name":"电影院","address":null},{"poiid":"B2094751D465A2F54092","title":"无乐不作女仆桌游坊","lon":"121.4789240963162","lat":"31.2629264989679","category":"248","category_name":"生活娱乐","address":"四川北路1851号荣欣大厦703室"},{"poiid":"B2094757D065A5F8499A","title":"谷泉酒店","lon":"121.478425131","lat":"31.2649420977","category":"76","category_name":"上海菜","address":"虹口区天通庵路737号(近同心路)"},{"poiid":"B2094655D26AA0F94193","title":"地铁东宝兴路站","lon":"121.47994","lat":"31.26011","category":"36","category_name":"地铁站","address":""},{"poiid":"B2094757D568A0F94899","title":"虹祺花苑底商","lon":"121.4794228","lat":"31.26242694","category":"47","category_name":"住宅区","address":"虹口区宝山路874-880号"},{"poiid":"B2094757D16DA0FE4292","title":"天天大排档","lon":"121.47586","lat":"31.26252","category":"68","category_name":"快餐厅","address":"闸北区芷江支路(东宝兴路芷江中路)"},{"poiid":"B2094750DB6CA1FE409D","title":"甜爱路爱心邮筒","lon":"121.4796136","lat":"31.2639618","category":"500","category_name":"未知分类","address":"甜爱路3号"},{"poiid":"B2094654D56EA2FA459D","title":"金宝大厦","lon":"121.47983","lat":"31.260185","category":"47","category_name":"住宅区","address":"上海市虹口区宝山路623,633号"},{"poiid":"B2094655D26AA7FD419D","title":"BONIYA伯尼雅精致婚纱礼服","lon":"121.4781","lat":"31.26148","category":"247","category_name":"餐饮美食","address":"虹口区华昌路9号金象大厦1004室(近东宝新路中兴路)查看地图"},{"poiid":"B2094655D26AA3FA4398","title":"第二视觉影像机构","lon":"121.4781","lat":"31.26148","category":"247","category_name":"餐饮美食","address":"闸北区华昌路9号1502室(近四川北路)查看地图"},{"poiid":"B2094750D668ABFF479E","title":"第一人民医院住院部","lon":"121.479686","lat":"31.262283","category":"162","category_name":"医院","address":"四川北路"},{"poiid":"B2094757D16EABF9469B","title":"路边烧烤摊","lon":"121.47628","lat":"31.26301","category":"68","category_name":"快餐厅","address":"虹口区天通庵路华昌路口(世纪联华对面)"},{"poiid":"B2094757D168ABF84899","title":"艺土留声艺术手工瓷厅","lon":"121.4802461","lat":"31.262709261","category":"500","category_name":"未知分类","address":"上海虹口区多伦路名人文化街173号"},{"poiid":"B2094654D56EA1F9499E","title":"吉祥咸肉菜饭骨头汤(东宝兴路)","lon":"121.47659","lat":"31.26146","category":"68","category_name":"快餐厅","address":"闸北区东宝兴路618号(近中兴路)"},{"poiid":"B2094753D66EA2F8429A","title":"凯德龙之梦","lon":"121.478496","lat":"31.264044","category":"500","category_name":"未知分类","address":"上海市 四川北路"},{"poiid":"B2094757D06BA3F84798","title":"弘丰新苑","lon":"121.47701","lat":"31.261816","category":"47","category_name":"住宅区","address":"上海中兴路110弄"},{"poiid":"B2094757DB6FAAF84092","title":"多伦路文化街","lon":"121.4772974980264","lat":"31.26489479097656","category":"500","category_name":"未知分类","address":"四川北路多伦路"},{"poiid":"B2094753D26EA7F8429A","title":"绿茶","lon":"121.478503","lat":"31.26385","category":"247","category_name":"餐饮美食","address":"上海市 虹口龙之梦"},{"poiid":"B2094655D26FA0FF489D","title":"弘丰新苑(西门)","lon":"121.47703","lat":"31.26148","category":"47","category_name":"住宅区","address":"东宝兴路645"},{"poiid":"B2094757D06FA5FD439B","title":"银乐迪凯德龙之梦店","lon":"121.48056284","lat":"31.2620589725","category":"170","category_name":"KTV","address":"上海虹口凯德龙之梦"},{"poiid":"B2094757D068A1FE4498","title":"尚一汤(虹口龙之梦店)","lon":"121.476666388","lat":"31.263169685","category":"72","category_name":"广东菜","address":"虹口区西江湾路388号虹口凯德龙之梦购物中心620室(近虹口足球场)"},{"poiid":"B2094757D06EAAF54098","title":"小肥羊(宝山路店)","lon":"121.47968","lat":"31.2654","category":"86","category_name":"火锅店","address":"虹口区宝山路880-888号(近同心路)"},{"poiid":"B2094757D06EAAFA469E","title":"东宝兴路地铁站","lon":"121.47995875","lat":"31.260103405","category":"36","category_name":"地铁站","address":"上海轨道交通 三号线 轨交东宝兴路站 轻轨 3"},{"poiid":"B2094757D06EAAFA4098","title":"绿洲雅宾利","lon":"121.478","lat":"31.2615","category":"47","category_name":"住宅区","address":"上海中兴路止园路"},{"poiid":"B2094655D36CA6F44492","title":"东宝兴路中兴路","lon":"121.47758","lat":"31.26081","category":"38","category_name":"公交车站","address":"上海东宝兴路中兴路"},{"poiid":"B2094757D16DA5FB4593","title":"同心路","lon":"121.477818103","lat":"31.2650953109","category":"500","category_name":"未知分类","address":"上海市虹口区"},{"poiid":"B2094757D068A5F4459E","title":"吴记麻辣火锅 宝山路店","lon":"121.479694054","lat":"31.264398793","category":"247","category_name":"餐饮美食","address":"虹口区宝山路868号(近同心路)"},{"poiid":"B2094757D068A1F54499","title":"德克士(东宝兴路店)","lon":"121.47531","lat":"31.26272","category":"68","category_name":"快餐厅","address":"闸北区东宝兴路777号世纪联华1楼(近芷江中路)"},{"poiid":"B2094757D06FA7F8439B","title":"世纪联华(东宝店)","lon":"121.47573","lat":"31.26202","category":"118","category_name":"超级市场","address":"上海闸北区东宝兴路777号(近芷江中路)"},{"poiid":"B2094757D069A2FB409F","title":"虹祺花苑","lon":"121.47932","lat":"31.265055","category":"47","category_name":"住宅区","address":"上海市虹口区宝山路888弄"},{"poiid":"B2094750D665A3F9469C","title":"鼎中鼎澳门豆捞(东宝兴路店)","lon":"121.475","lat":"31.263","category":"86","category_name":"火锅店","address":"虹口区东宝兴路777号世纪联华1楼(近芷江中路)"},{"poiid":"B2094757D06FABF4419D","title":"怡妮新疆风味","lon":"121.478416103","lat":"31.2658073258","category":"90","category_name":"清真餐馆","address":"虹口区东江湾路98号(近宝山路)"},{"poiid":"B2094757D068A0F94093","title":"市北职业高级中学","lon":"121.47814178","lat":"31.259740829","category":"500","category_name":"未知分类","address":"闸北区宝山路584号(近东宝兴路)"},{"poiid":"B2094750D76EAAF5429F","title":"谷谷鸡象山海鲜城","lon":"121.478","lat":"31.2652","category":"260","category_name":"其他","address":"虹口区天通庵路746号(近横浜路)"},{"poiid":"B2094757D068A5F94799","title":"健康煮(虹口凯德龙之梦店)","lon":"121.475750003","lat":"31.2635136779","category":"86","category_name":"火锅店","address":"上海东江湾路444号凯德龙之梦B栋2楼"},{"poiid":"B2094757D069ABF54193","title":"海伦新苑","lon":"121.47842","lat":"31.262201","category":"47","category_name":"住宅区","address":"上海市虹口区华昌路68弄1-12号"},{"poiid":"B2094757D06BA3F54193","title":"蜀三国","lon":"121.47791754","lat":"31.261876543","category":"71","category_name":"四川菜","address":"虹口区东宝兴路483-487号(近宝山路)"},{"poiid":"B2094757D06AA0FD489C","title":"大桶大足浴(中兴店)","lon":"121.47759","lat":"31.25987","category":"149","category_name":"洗浴推拿场所","address":"闸北区中兴路237号(近东宝兴路)"},{"poiid":"B2094757D16EA0F5469D","title":"天通庵路","lon":"121.476906103","lat":"31.2635822793","category":"500","category_name":"未知分类","address":"上海天通庵路"},{"poiid":"B2094654D56CA6F4459A","title":"胖子大排档","lon":"121.47555","lat":"31.2627","category":"68","category_name":"快餐厅","address":"闸北区芷江支路(东宝兴路芷江中路)"},{"poiid":"B2094753D469A4FE459A","title":"月星•环球港","lon":"121.478042","lat":"31.259443","category":"500","category_name":"未知分类","address":"上海市 普陀区中山北路3300号"},{"poiid":"B2094654D56CA5FD449E","title":"宝虹新苑","lon":"121.47871","lat":"31.263214","category":"47","category_name":"住宅区","address":"朝阳区天辰东路7号"},{"poiid":"B2094757D069A6F54498","title":"小东北烧烤","lon":"121.47581","lat":"31.26189","category":"257","category_name":"中餐厅","address":"闸北区东宝兴路714号(近天通庵路)"},{"poiid":"B2094757D069A1F4419C","title":"金太子形象设计(天通庵路店)","lon":"121.4788","lat":"31.26512","category":"148","category_name":"美容美发店","address":"虹口区天通庵路751号(近同心路)"},{"poiid":"B2094757DB6FAAFF419B","title":"世纪大道地铁站","lon":"121.480201155577","lat":"31.25980006696586","category":"36","category_name":"地铁站","address":"世纪大道"},{"poiid":"B2094757D06AABFB4392","title":"66路东宝兴路站","lon":"121.4782341","lat":"31.261615238","category":"38","category_name":"公交车站","address":"上海市闸北区东宝兴路"},{"poiid":"B2094757D169AAFB4792","title":"好友大排档","lon":"121.4758901","lat":"31.26315927","category":"68","category_name":"快餐厅","address":"闸北区东宝兴路681号(近世纪联华)"},{"poiid":"B2094654DB69A4FB489E","title":"重庆鸡公煲 天通庵路店","lon":"121.47672","lat":"31.26331","category":"71","category_name":"四川菜","address":"虹口区天通庵路746号(横浜路天通庵路)"},{"poiid":"B2094655D26CA0FD459F","title":"华昌公寓","lon":"121.47739","lat":"31.262003","category":"47","category_name":"住宅区","address":"上海市长宁区延安西路1235弄"},{"poiid":"B2094752D36DA5FB409B","title":"觅糖记meetdessert","lon":"121.4766484607424","lat":"31.2635149841269","category":"247","category_name":"餐饮美食","address":"甜爱路11号"},{"poiid":"B2094750D365A7F44599","title":"金逸国际影城","lon":"121.477539","lat":"31.265296","category":"178","category_name":"电影院","address":null},{"poiid":"B2094751D465A2F54092","title":"无乐不作女仆桌游坊","lon":"121.4789240963162","lat":"31.2629264989679","category":"248","category_name":"生活娱乐","address":"四川北路1851号荣欣大厦703室"},{"poiid":"B2094757D065A5F8499A","title":"谷泉酒店","lon":"121.478425131","lat":"31.2649420977","category":"76","category_name":"上海菜","address":"虹口区天通庵路737号(近同心路)"},{"poiid":"B2094655D26AA0F94193","title":"地铁东宝兴路站","lon":"121.47994","lat":"31.26011","category":"36","category_name":"地铁站","address":""},{"poiid":"B2094757D568A0F94899","title":"虹祺花苑底商","lon":"121.4794228","lat":"31.26242694","category":"47","category_name":"住宅区","address":"虹口区宝山路874-880号"},{"poiid":"B2094757D16DA0FE4292","title":"天天大排档","lon":"121.47586","lat":"31.26252","category":"68","category_name":"快餐厅","address":"闸北区芷江支路(东宝兴路芷江中路)"},{"poiid":"B2094750DB6CA1FE409D","title":"甜爱路爱心邮筒","lon":"121.4796136","lat":"31.2639618","category":"500","category_name":"未知分类","address":"甜爱路3号"},{"poiid":"B2094654D56EA2FA459D","title":"金宝大厦","lon":"121.47983","lat":"31.260185","category":"47","category_name":"住宅区","address":"上海市虹口区宝山路623,633号"},{"poiid":"B2094655D26AA7FD419D","title":"BONIYA伯尼雅精致婚纱礼服","lon":"121.4781","lat":"31.26148","category":"247","category_name":"餐饮美食","address":"虹口区华昌路9号金象大厦1004室(近东宝新路中兴路)查看地图"},{"poiid":"B2094655D26AA3FA4398","title":"第二视觉影像机构","lon":"121.4781","lat":"31.26148","category":"247","category_name":"餐饮美食","address":"闸北区华昌路9号1502室(近四川北路)查看地图"},{"poiid":"B2094750D668ABFF479E","title":"第一人民医院住院部","lon":"121.479686","lat":"31.262283","category":"162","category_name":"医院","address":"四川北路"},{"poiid":"B2094757D16EABF9469B","title":"路边烧烤摊","lon":"121.47628","lat":"31.26301","category":"68","category_name":"快餐厅","address":"虹口区天通庵路华昌路口(世纪联华对面)"},{"poiid":"B2094757D168ABF84899","title":"艺土留声艺术手工瓷厅","lon":"121.4802461","lat":"31.262709261","category":"500","category_name":"未知分类","address":"上海虹口区多伦路名人文化街173号"},{"poiid":"B2094654D56EA1F9499E","title":"吉祥咸肉菜饭骨头汤(东宝兴路)","lon":"121.47659","lat":"31.26146","category":"68","category_name":"快餐厅","address":"闸北区东宝兴路618号(近中兴路)"},{"poiid":"B2094753D66EA2F8429A","title":"凯德龙之梦","lon":"121.478496","lat":"31.264044","category":"500","category_name":"未知分类","address":"上海市 四川北路"},{"poiid":"B2094757D06BA3F84798","title":"弘丰新苑","lon":"121.47701","lat":"31.261816","category":"47","category_name":"住宅区","address":"上海中兴路110弄"},{"poiid":"B2094757DB6FAAF84092","title":"多伦路文化街","lon":"121.4772974980264","lat":"31.26489479097656","category":"500","category_name":"未知分类","address":"四川北路多伦路"},{"poiid":"B2094753D26EA7F8429A","title":"绿茶","lon":"121.478503","lat":"31.26385","category":"247","category_name":"餐饮美食","address":"上海市 虹口龙之梦"},{"poiid":"B2094655D26FA0FF489D","title":"弘丰新苑(西门)","lon":"121.47703","lat":"31.26148","category":"47","category_name":"住宅区","address":"东宝兴路645"},{"poiid":"B2094757D06FA5FD439B","title":"银乐迪凯德龙之梦店","lon":"121.48056284","lat":"31.2620589725","category":"170","category_name":"KTV","address":"上海虹口凯德龙之梦"},{"poiid":"B2094757D068A1FE4498","title":"尚一汤(虹口龙之梦店)","lon":"121.476666388","lat":"31.263169685","category":"72","category_name":"广东菜","address":"虹口区西江湾路388号虹口凯德龙之梦购物中心620室(近虹口足球场)"},{"poiid":"B2094757D06EAAF54098","title":"小肥羊(宝山路店)","lon":"121.47968","lat":"31.2654","category":"86","category_name":"火锅店","address":"虹口区宝山路880-888号(近同心路)"},{"poiid":"B2094757D06EAAFA469E","title":"东宝兴路地铁站","lon":"121.47995875","lat":"31.260103405","category":"36","category_name":"地铁站","address":"上海轨道交通 三号线 轨交东宝兴路站 轻轨 3"},{"poiid":"B2094757D06EAAFA4098","title":"绿洲雅宾利","lon":"121.478","lat":"31.2615","category":"47","category_name":"住宅区","address":"上海中兴路止园路"},{"poiid":"B2094655D36CA6F44492","title":"东宝兴路中兴路","lon":"121.47758","lat":"31.26081","category":"38","category_name":"公交车站","address":"上海东宝兴路中兴路"},{"poiid":"B2094757D16DA5FB4593","title":"同心路","lon":"121.477818103","lat":"31.2650953109","category":"500","category_name":"未知分类","address":"上海市虹口区"},{"poiid":"B2094757D068A5F4459E","title":"吴记麻辣火锅 宝山路店","lon":"121.479694054","lat":"31.264398793","category":"247","category_name":"餐饮美食","address":"虹口区宝山路868号(近同心路)"},{"poiid":"B2094757D068A1F54499","title":"德克士(东宝兴路店)","lon":"121.47531","lat":"31.26272","category":"68","category_name":"快餐厅","address":"闸北区东宝兴路777号世纪联华1楼(近芷江中路)"},{"poiid":"B2094757D06FA7F8439B","title":"世纪联华(东宝店)","lon":"121.47573","lat":"31.26202","category":"118","category_name":"超级市场","address":"上海闸北区东宝兴路777号(近芷江中路)"},{"poiid":"B2094757D069A2FB409F","title":"虹祺花苑","lon":"121.47932","lat":"31.265055","category":"47","category_name":"住宅区","address":"上海市虹口区宝山路888弄"},{"poiid":"B2094750D665A3F9469C","title":"鼎中鼎澳门豆捞(东宝兴路店)","lon":"121.475","lat":"31.263","category":"86","category_name":"火锅店","address":"虹口区东宝兴路777号世纪联华1楼(近芷江中路)"},{"poiid":"B2094757D06FABF4419D","title":"怡妮新疆风味","lon":"121.478416103","lat":"31.2658073258","category":"90","category_name":"清真餐馆","address":"虹口区东江湾路98号(近宝山路)"},{"poiid":"B2094757D068A0F94093","title":"市北职业高级中学","lon":"121.47814178","lat":"31.259740829","category":"500","category_name":"未知分类","address":"闸北区宝山路584号(近东宝兴路)"},{"poiid":"B2094750D76EAAF5429F","title":"谷谷鸡象山海鲜城","lon":"121.478","lat":"31.2652","category":"260","category_name":"其他","address":"虹口区天通庵路746号(近横浜路)"},{"poiid":"B2094757D068A5F94799","title":"健康煮(虹口凯德龙之梦店)","lon":"121.475750003","lat":"31.2635136779","category":"86","category_name":"火锅店","address":"上海东江湾路444号凯德龙之梦B栋2楼"},{"poiid":"B2094757D069ABF54193","title":"海伦新苑","lon":"121.47842","lat":"31.262201","category":"47","category_name":"住宅区","address":"上海市虹口区华昌路68弄1-12号"},{"poiid":"B2094757D06BA3F54193","title":"蜀三国","lon":"121.47791754","lat":"31.261876543","category":"71","category_name":"四川菜","address":"虹口区东宝兴路483-487号(近宝山路)"},{"poiid":"B2094757D06AA0FD489C","title":"大桶大足浴(中兴店)","lon":"121.47759","lat":"31.25987","category":"149","category_name":"洗浴推拿场所","address":"闸北区中兴路237号(近东宝兴路)"},{"poiid":"B2094757D16EA0F5469D","title":"天通庵路","lon":"121.476906103","lat":"31.2635822793","category":"500","category_name":"未知分类","address":"上海天通庵路"},{"poiid":"B2094654D56CA6F4459A","title":"胖子大排档","lon":"121.47555","lat":"31.2627","category":"68","category_name":"快餐厅","address":"闸北区芷江支路(东宝兴路芷江中路)"},{"poiid":"B2094753D469A4FE459A","title":"月星•环球港","lon":"121.478042","lat":"31.259443","category":"500","category_name":"未知分类","address":"上海市 普陀区中山北路3300号"},{"poiid":"B2094654D56CA5FD449E","title":"宝虹新苑","lon":"121.47871","lat":"31.263214","category":"47","category_name":"住宅区","address":"朝阳区天辰东路7号"},{"poiid":"B2094757D069A6F54498","title":"小东北烧烤","lon":"121.47581","lat":"31.26189","category":"257","category_name":"中餐厅","address":"闸北区东宝兴路714号(近天通庵路)"},{"poiid":"B2094757D069A1F4419C","title":"金太子形象设计(天通庵路店)","lon":"121.4788","lat":"31.26512","category":"148","category_name":"美容美发店","address":"虹口区天通庵路751号(近同心路)"},{"poiid":"B2094757DB6FAAFF419B","title":"世纪大道地铁站","lon":"121.480201155577","lat":"31.25980006696586","category":"36","category_name":"地铁站","address":"世纪大道"},{"poiid":"B2094757D06AABFB4392","title":"66路东宝兴路站","lon":"121.4782341","lat":"31.261615238","category":"38","category_name":"公交车站","address":"上海市闸北区东宝兴路"},{"poiid":"B2094757D169AAFB4792","title":"好友大排档","lon":"121.4758901","lat":"31.26315927","category":"68","category_name":"快餐厅","address":"闸北区东宝兴路681号(近世纪联华)"},{"poiid":"B2094654DB69A4FB489E","title":"重庆鸡公煲 天通庵路店","lon":"121.47672","lat":"31.26331","category":"71","category_name":"四川菜","address":"虹口区天通庵路746号(横浜路天通庵路)"},{"poiid":"B2094655D26CA0FD459F","title":"华昌公寓","lon":"121.47739","lat":"31.262003","category":"47","category_name":"住宅区","address":"上海市长宁区延安西路1235弄"},{"poiid":"B2094752D36DA5FB409B","title":"觅糖记meetdessert","lon":"121.4766484607424","lat":"31.2635149841269","category":"247","category_name":"餐饮美食","address":"甜爱路11号"},{"poiid":"B2094750D365A7F44599","title":"金逸国际影城","lon":"121.477539","lat":"31.265296","category":"178","category_name":"电影院","address":null},{"poiid":"B2094751D465A2F54092","title":"无乐不作女仆桌游坊","lon":"121.4789240963162","lat":"31.2629264989679","category":"248","category_name":"生活娱乐","address":"四川北路1851号荣欣大厦703室"},{"poiid":"B2094757D065A5F8499A","title":"谷泉酒店","lon":"121.478425131","lat":"31.2649420977","category":"76","category_name":"上海菜","address":"虹口区天通庵路737号(近同心路)"},{"poiid":"B2094655D26AA0F94193","title":"地铁东宝兴路站","lon":"121.47994","lat":"31.26011","category":"36","category_name":"地铁站","address":""},{"poiid":"B2094757D568A0F94899","title":"虹祺花苑底商","lon":"121.4794228","lat":"31.26242694","category":"47","category_name":"住宅区","address":"虹口区宝山路874-880号"},{"poiid":"B2094757D16DA0FE4292","title":"天天大排档","lon":"121.47586","lat":"31.26252","category":"68","category_name":"快餐厅","address":"闸北区芷江支路(东宝兴路芷江中路)"},{"poiid":"B2094750DB6CA1FE409D","title":"甜爱路爱心邮筒","lon":"121.4796136","lat":"31.2639618","category":"500","category_name":"未知分类","address":"甜爱路3号"},{"poiid":"B2094654D56EA2FA459D","title":"金宝大厦","lon":"121.47983","lat":"31.260185","category":"47","category_name":"住宅区","address":"上海市虹口区宝山路623,633号"},{"poiid":"B2094655D26AA7FD419D","title":"BONIYA伯尼雅精致婚纱礼服","lon":"121.4781","lat":"31.26148","category":"247","category_name":"餐饮美食","address":"虹口区华昌路9号金象大厦1004室(近东宝新路中兴路)查看地图"},{"poiid":"B2094655D26AA3FA4398","title":"第二视觉影像机构","lon":"121.4781","lat":"31.26148","category":"247","category_name":"餐饮美食","address":"闸北区华昌路9号1502室(近四川北路)查看地图"},{"poiid":"B2094750D668ABFF479E","title":"第一人民医院住院部","lon":"121.479686","lat":"31.262283","category":"162","category_name":"医院","address":"四川北路"},{"poiid":"B2094757D16EABF9469B","title":"路边烧烤摊","lon":"121.47628","lat":"31.26301","category":"68","category_name":"快餐厅","address":"虹口区天通庵路华昌路口(世纪联华对面)"},{"poiid":"B2094757D168ABF84899","title":"艺土留声艺术手工瓷厅","lon":"121.4802461","lat":"31.262709261","category":"500","category_name":"未知分类","address":"上海虹口区多伦路名人文化街173号"},{"poiid":"B2094654D56EA1F9499E","title":"吉祥咸肉菜饭骨头汤(东宝兴路)","lon":"121.47659","lat":"31.26146","category":"68","category_name":"快餐厅","address":"闸北区东宝兴路618号(近中兴路)"},{"poiid":"B2094753D66EA2F8429A","title":"凯德龙之梦","lon":"121.478496","lat":"31.264044","category":"500","category_name":"未知分类","address":"上海市 四川北路"},{"poiid":"B2094757D06BA3F84798","title":"弘丰新苑","lon":"121.47701","lat":"31.261816","category":"47","category_name":"住宅区","address":"上海中兴路110弄"},{"poiid":"B2094757DB6FAAF84092","title":"多伦路文化街","lon":"121.4772974980264","lat":"31.26489479097656","category":"500","category_name":"未知分类","address":"四川北路多伦路"},{"poiid":"B2094753D26EA7F8429A","title":"绿茶","lon":"121.478503","lat":"31.26385","category":"247","category_name":"餐饮美食","address":"上海市 虹口龙之梦"},{"poiid":"B2094655D26FA0FF489D","title":"弘丰新苑(西门)","lon":"121.47703","lat":"31.26148","category":"47","category_name":"住宅区","address":"东宝兴路645"}]