[{"poiid":"B2094654DA6BA1F54192","title":"上海机场培训中心(虹珠苑)","lon":"121.03344","lat":"31.1057","category":"190","category_name":"培训机构","address":""},{"poiid":"B2094757D16BAAF5499A","title":"泰安公寓","lon":"121.03448","lat":"31.127426","category":"47","category_name":"住宅区","address":"石家浜路150弄"},{"poiid":"B2094654DA6BA1F44993","title":"上海国际高尔夫球乡村俱乐部","lon":"121.01869","lat":"31.12475","category":"206","category_name":"高尔夫相关","address":"青浦区朱家角绿湖路961号(东方绿舟朱家角)"},{"poiid":"B2094757D16DA6F5429A","title":"百福来饭店","lon":"121.02188251","lat":"31.124660985","category":"257","category_name":"中餐厅","address":"上海国际高尔夫球场正门口"},{"poiid":"B2094757D66DA7F94093","title":"淀滨酒家","lon":"121.03509454","lat":"31.131598958","category":"76","category_name":"上海菜","address":"青浦区浦泰路368弄18号"},{"poiid":"B2094655D36DA6FC4193","title":"漕华路淀山湖大道","lon":"121.03842","lat":"31.12466","category":"38","category_name":"公交车站","address":""},{"poiid":"B2094757D66DA3F5459F","title":"湖庭〔LAGOONA〕游艇高尔夫滨水大宅","lon":"121.03752899","lat":"31.124242782","category":"500","category_name":"未知分类","address":"上海朱家角绿湖路999弄"},{"poiid":"B2094753DB6BA6FE449E","title":"朱家角人民医院","lon":"121.043991","lat":"31.125686","category":"162","category_name":"医院","address":"上海市 朱家角石家浜东路99号"},{"poiid":"B2094655D36DA7FA4499","title":"珠溪路新盛路","lon":"121.04431","lat":"31.12157","category":"38","category_name":"公交车站","address":""},{"poiid":"B2094750D56AA1F9449C","title":"中信泰富朱家角新城翠苑","lon":"121.044574","lat":"31.116259","category":"47","category_name":"住宅区","address":"青浦区朱家角珠溪路张家圩路"},{"poiid":"B2094757D168A4F4489C","title":"上海机场活动中心","lon":"121.02843582","lat":"31.107483013","category":"46","category_name":"楼宇","address":"上海青浦区沪青平公路"},{"poiid":"B2094757D168A6FA419D","title":"东方绿舟体育训练基地招待所(红房子)","lon":"121.01748444","lat":"31.111529013","category":"500","category_name":"未知分类","address":"上海市青浦区盈朱路289号"},{"poiid":"B2094751D564A2FE4093","title":"中国民航上海区域管制中心","lon":"121.021328","lat":"31.107679","category":"252","category_name":"楼宇机构","address":null}]