[{"poiid":"B2094757D16CA0FC4598","title":"松隐禅寺","lon":"121.245235","lat":"30.899773","category":"244","category_name":"寺庙道观","address":"上海金山区华严塔路"},{"poiid":"B2094655D26BA2FB429E","title":"松隐","lon":"121.2408","lat":"30.89505","category":"38","category_name":"公交车站","address":""},{"poiid":"B2094654DB68A1FB4992","title":"松隐山庄","lon":"121.24523","lat":"30.89977","category":"207","category_name":"度假疗养场所","address":""},{"poiid":"B2094654DB68A1F4429B","title":"上海交大南洋附属(金山)中学","lon":"121.24486","lat":"30.8912","category":"55","category_name":"中学","address":""},{"poiid":"B2094654DB68A1FB499B","title":"华严寺","lon":"121.24469","lat":"30.90382","category":"244","category_name":"寺庙道观","address":""},{"poiid":"B2094654DB68A0FE499A","title":"华梅科技园","lon":"121.2667","lat":"30.91422","category":"45","category_name":"产业园区","address":""},{"poiid":"B2094654DB68A0FF449F","title":"上海斯可络压缩机有限公司(亭枫公路)","lon":"121.25941","lat":"30.89315","category":"263","category_name":"公司","address":""},{"poiid":"B2094655D26FA4FD429A","title":"交通大学教育集团金山校区","lon":"121.24501","lat":"30.89418","category":"253","category_name":"校园生活","address":""},{"poiid":"B2094757D66AABFC4693","title":"惠诚海鲜大酒店","lon":"121.246418","lat":"30.891763","category":"88","category_name":"海鲜酒楼","address":"亭林镇松隐大街483号近320国道"}]