[{"poiid":"B2094757D069ABF9479F","title":"浦东国际机场T2 Hope Star Cafe","lon":"121.798446","lat":"31.163578","category":"21","category_name":"飞机场","address":"上海浦东新区机场镇启航路900号浦东国际机场  "},{"poiid":"B2094654DB64A6FB4198","title":"上海航空酒店(浦东机场店)","lon":"121.78715","lat":"31.17864","category":"214","category_name":"四星级宾馆","address":"浦东新区江镇路1909号(启航路口)"},{"poiid":"B2094757D068A1FD4098","title":"上海浦东国际机场海关","lon":"121.795981","lat":"31.16424","category":"21","category_name":"飞机场","address":"上海启航路858号"},{"poiid":"B2094757D069A2FB489E","title":"锦江之星(浦东国际机场店)","lon":"121.78958","lat":"31.17653","category":"216","category_name":"经济型连锁酒店","address":"浦东新区启航路8号浦东国际机场(近河滨北路)"},{"poiid":"B2094654DB69A4FD4998","title":"锦江之星(浦东机场二店)","lon":"121.79516","lat":"31.17314","category":"216","category_name":"经济型连锁酒店","address":"浦东新区启航路900号浦东国际机场内(近机场大道)"},{"poiid":"B2094757D06FA0F54093","title":"海天三路地铁站","lon":"121.79707111","lat":"31.168318929","category":"36","category_name":"地铁站","address":"上海轨道交通 二号线 轨交海天三路站 2"},{"poiid":"B2094757D069A7FE409F","title":"浦东机场海关第一监管仓库","lon":"121.785757892","lat":"31.1744892165","category":"21","category_name":"飞机场","address":"上海浦东机场海关第一监管仓库"},{"poiid":"B2094757D66CA5FA4798","title":"浦东国际机场T2航站楼C86号登机口","lon":"121.79844665","lat":"31.163578033","category":"21","category_name":"飞机场","address":"上海浦东新区启航路900号浦东国际机场"},{"poiid":"B2094655D36CA0FB479A","title":"机场(北大门)","lon":"121.78185","lat":"31.17656","category":"38","category_name":"公交车站","address":""},{"poiid":"B2094757D064A4F44292","title":"S1迎宾高速华夏高架路出口","lon":"121.777353485","lat":"31.1875789441","category":"500","category_name":"未知分类","address":"S1迎宾高速华夏高架路出(上海市区方向)"},{"poiid":"B2094654DA6BA1FA469B","title":"上海浦东国际机场综合办公区","lon":"121.79036","lat":"31.17147","category":"46","category_name":"楼宇","address":"安航路200"},{"poiid":"B2094655D26EABF4479E","title":"金龙轩(浦东机场店)","lon":"121.78714","lat":"31.17864","category":"75","category_name":"浙江菜","address":"浦东新区浦东机场江镇路1909号上航假日酒店2楼"},{"poiid":"B2094751D56FABFA409D","title":"東莊海岸高爾夫球場","lon":"121.791222","lat":"31.179166","category":"500","category_name":"未知分类","address":"東啟航路"},{"poiid":"B2094757D068A1F94692","title":"安检护卫保障部","lon":"121.79269199","lat":"31.165994031","category":"46","category_name":"楼宇","address":"上海安航路558号"},{"poiid":"B2094757D16AA4F9409E","title":"上海浦东国际机场海关第一监管仓储区","lon":"121.785507202","lat":"31.1752716348","category":"46","category_name":"楼宇","address":"上海护航路一号"},{"poiid":"B2094757D169A4FC459A","title":"浦东国际机场港龙国泰休息室","lon":"121.80244849","lat":"31.1783613","category":"21","category_name":"飞机场","address":"上海浦东国际机场T2航站楼D68号"},{"poiid":"B2094753D764A6FB4592","title":"上海东庄海岸高尔夫俱乐部","lon":"121.795143","lat":"31.179904","category":"251","category_name":"出行住宿","address":"上海市浦东新区东启航路99号"},{"poiid":"B2094757D465A4F54393","title":"必胜客 浦东机场店 Pizza Hut","lon":"121.782267","lat":"31.179269","category":"98","category_name":"意式菜品餐厅","address":"启航路900号浦东国际机场2楼近海天一路"},{"poiid":"B2094654DA6BA1FA489E","title":"上海地质科普馆","lon":"121.7833","lat":"31.17751","category":"186","category_name":"科技馆","address":"浦东新区川沙机场镇华洲路1号(近江镇路)"},{"poiid":"B2094757D16FA2F9489E","title":"Kuehne   Nagel","lon":"121.78637789","lat":"31.181300164","category":"500","category_name":"未知分类","address":"上海航空酒店商务楼B座5-6楼"},{"poiid":"B2094757D568AAFA429F","title":"Shanghai Links","lon":"121.794605","lat":"31.18886778","category":"47","category_name":"住宅区","address":"ShanghaiLinks位于浦东LingBaiRoad"},{"poiid":"B2094752D06FABF8499C","title":"上海浦东国际机场","lon":"121.786674","lat":"31.177875","category":"500","category_name":"未知分类","address":null},{"poiid":"B2094654DB65A3FC469D","title":"上海东航之星田园风光酒店","lon":"121.77736","lat":"31.18447","category":"260","category_name":"其他","address":"浦东新区川沙华洲路16号(近迎宾大道)"},{"poiid":"B2094757D064A3F54793","title":"吉祥大观园","lon":"121.784833992","lat":"31.1776632855","category":"500","category_name":"未知分类","address":"上海市浦东新区八一河东路"},{"poiid":"B2094757D065A6FE469F","title":"浦东机场保障部","lon":"121.790255","lat":"31.172184216","category":"21","category_name":"飞机场","address":"上海安航路200号"},{"poiid":"B2094654DB64A3F4479E","title":"上海浦东凌空农艺大观园","lon":"121.77804","lat":"31.17772","category":"250","category_name":"公园户外","address":"浦东新区华洲路1号(近浦东国际机场北大门)"},{"poiid":"B2094654DA6BA1FA489B","title":"翔远大酒店","lon":"121.78398","lat":"31.17797","category":"250","category_name":"公园户外","address":"浦东新区机场镇江镇路新龙村新龙宅100号"},{"poiid":"B2094757D065A2F44699","title":"浦东机场工作区航服楼","lon":"121.78973499","lat":"31.169864782","category":"21","category_name":"飞机场","address":"上海浦东机场工作区安航路518号"},{"poiid":"B2094757D169A2FA4699","title":"中外运空运发展股份有限公司 华东分公司","lon":"121.786484492","lat":"31.1812068627","category":"263","category_name":"公司","address":"上海市浦东新区海天一路301号"},{"poiid":"B2094757D068A1FF4093","title":"国航上海飞行员公寓","lon":"121.795167","lat":"31.173149","category":"217","category_name":"旅馆招待所","address":"上海浦东机场基地二路2号"},{"poiid":"B2094654DA6BA1FA429F","title":"上海浦东临空出口农业园区","lon":"121.78378","lat":"31.17736","category":"45","category_name":"产业园区","address":""},{"poiid":"B2094757D16EA0F94193","title":"浦东机场T2航站楼行李装卸区","lon":"121.798446655","lat":"31.1636543274","category":"21","category_name":"飞机场","address":"上海浦东新区启航路900号"},{"poiid":"B209475CD76FA5FE489B","title":"上海长江迷笛音乐节","lon":"121.786117","lat":"31.196102","category":"500","category_name":"未知分类","address":"上海市 浦东三甲港"},{"poiid":"B2094654DA6BA1FA499C","title":"上海东方地质博物馆","lon":"121.78228","lat":"31.17696","category":"182","category_name":"博物馆","address":""},{"poiid":"B2094655D36DA6FD439F","title":"海天三路","lon":"121.79705","lat":"31.16835","category":"38","category_name":"公交车站","address":""},{"poiid":"B2094757D165A7F94799","title":"上海浦东国际机场航空服务分公司航服楼","lon":"121.78575789","lat":"31.169540808","category":"46","category_name":"楼宇","address":"上海浦东新区安航路518号"},{"poiid":"B2094655D36CA2FD469D","title":"浦东国际机场第一餐厅","lon":"121.79739","lat":"31.16541","category":"68","category_name":"快餐厅","address":"浦东新区启航路866号(海天四路启航路)"},{"poiid":"B2094757D66FA3FD479D","title":"新亚大包","lon":"121.79272299","lat":"31.170766035","category":"247","category_name":"餐饮美食","address":"上海火車站南广场"},{"poiid":"B2094751DA65A3F9439F","title":"上海浦东机场T2 C54","lon":"121.795851","lat":"31.170072","category":"500","category_name":"未知分类","address":null},{"poiid":"B2094757D66CA4F8429F","title":"Geodis wilson","lon":"121.78538799","lat":"31.174537217","category":"500","category_name":"未知分类","address":"上海市浦东新区海天一路500号"},{"poiid":"B2094654DA6BA1FA4592","title":"民航华东空中交通管理局浦东办公楼","lon":"121.79528","lat":"31.16744","category":"46","category_name":"楼宇","address":"海天三路99"},{"poiid":"B2094757D069A2FD4593","title":"DHL Global Forwarding PVG Office","lon":"121.780512522","lat":"31.1735306587","category":"500","category_name":"未知分类","address":"上海海天一路303号 C库3楼"},{"poiid":"B2094757D16CA2FE4493","title":"东方航空食品有限公司","lon":"121.792723992","lat":"31.168952096","category":"263","category_name":"公司","address":"上海市浦东新区安航路"},{"poiid":"B2094757D16FA1FE4993","title":"汪喵村","lon":"121.78139","lat":"31.17648","category":"500","category_name":"未知分类","address":"上海浦东新区华洲路1号(近浦东机场)  "},{"poiid":"B2094757D169A1F9419B","title":"上海国际机场股份有限公司","lon":"121.797405992","lat":"31.1636619809","category":"46","category_name":"楼宇","address":"上海市浦东新区启航路500号"},{"poiid":"B2094757D068A2F4439B","title":"好戏连台(浦东机场店)","lon":"121.796109","lat":"31.163962","category":"68","category_name":"快餐厅","address":"上海浦东机场2楼磁悬浮旁"},{"poiid":"B2094655D36CA0FB469B","title":"机场镇北大门","lon":"121.77834","lat":"31.17658","category":"38","category_name":"公交车站","address":""},{"poiid":"B2094757D168A1F9489E","title":"上海机场出入境边防检查站新大楼","lon":"121.79487824","lat":"31.164181742","category":"46","category_name":"楼宇","address":"上海启航路800号(近海天四路)"},{"poiid":"B2094752D06DA7FE439B","title":"上海浦东国际机场T2航站楼","lon":"121.793686","lat":"31.167278","category":"500","category_name":"未知分类","address":null},{"poiid":"B2094655D36CA0F5469D","title":"华洲路晨阳路","lon":"121.77694","lat":"31.17947","category":"38","category_name":"公交车站","address":""},{"poiid":"B2094757D069ABF9479F","title":"浦东国际机场T2 Hope Star Cafe","lon":"121.798446","lat":"31.163578","category":"21","category_name":"飞机场","address":"上海浦东新区机场镇启航路900号浦东国际机场  "},{"poiid":"B2094654DB64A6FB4198","title":"上海航空酒店(浦东机场店)","lon":"121.78715","lat":"31.17864","category":"214","category_name":"四星级宾馆","address":"浦东新区江镇路1909号(启航路口)"},{"poiid":"B2094757D068A1FD4098","title":"上海浦东国际机场海关","lon":"121.795981","lat":"31.16424","category":"21","category_name":"飞机场","address":"上海启航路858号"},{"poiid":"B2094757D069A2FB489E","title":"锦江之星(浦东国际机场店)","lon":"121.78958","lat":"31.17653","category":"216","category_name":"经济型连锁酒店","address":"浦东新区启航路8号浦东国际机场(近河滨北路)"},{"poiid":"B2094654DB69A4FD4998","title":"锦江之星(浦东机场二店)","lon":"121.79516","lat":"31.17314","category":"216","category_name":"经济型连锁酒店","address":"浦东新区启航路900号浦东国际机场内(近机场大道)"},{"poiid":"B2094757D06FA0F54093","title":"海天三路地铁站","lon":"121.79707111","lat":"31.168318929","category":"36","category_name":"地铁站","address":"上海轨道交通 二号线 轨交海天三路站 2"},{"poiid":"B2094757D069A7FE409F","title":"浦东机场海关第一监管仓库","lon":"121.785757892","lat":"31.1744892165","category":"21","category_name":"飞机场","address":"上海浦东机场海关第一监管仓库"},{"poiid":"B2094757D66CA5FA4798","title":"浦东国际机场T2航站楼C86号登机口","lon":"121.79844665","lat":"31.163578033","category":"21","category_name":"飞机场","address":"上海浦东新区启航路900号浦东国际机场"},{"poiid":"B2094655D36CA0FB479A","title":"机场(北大门)","lon":"121.78185","lat":"31.17656","category":"38","category_name":"公交车站","address":""},{"poiid":"B2094757D064A4F44292","title":"S1迎宾高速华夏高架路出口","lon":"121.777353485","lat":"31.1875789441","category":"500","category_name":"未知分类","address":"S1迎宾高速华夏高架路出(上海市区方向)"},{"poiid":"B2094654DA6BA1FA469B","title":"上海浦东国际机场综合办公区","lon":"121.79036","lat":"31.17147","category":"46","category_name":"楼宇","address":"安航路200"},{"poiid":"B2094655D26EABF4479E","title":"金龙轩(浦东机场店)","lon":"121.78714","lat":"31.17864","category":"75","category_name":"浙江菜","address":"浦东新区浦东机场江镇路1909号上航假日酒店2楼"},{"poiid":"B2094751D56FABFA409D","title":"東莊海岸高爾夫球場","lon":"121.791222","lat":"31.179166","category":"500","category_name":"未知分类","address":"東啟航路"},{"poiid":"B2094757D068A1F94692","title":"安检护卫保障部","lon":"121.79269199","lat":"31.165994031","category":"46","category_name":"楼宇","address":"上海安航路558号"},{"poiid":"B2094757D16AA4F9409E","title":"上海浦东国际机场海关第一监管仓储区","lon":"121.785507202","lat":"31.1752716348","category":"46","category_name":"楼宇","address":"上海护航路一号"},{"poiid":"B2094757D169A4FC459A","title":"浦东国际机场港龙国泰休息室","lon":"121.80244849","lat":"31.1783613","category":"21","category_name":"飞机场","address":"上海浦东国际机场T2航站楼D68号"},{"poiid":"B2094753D764A6FB4592","title":"上海东庄海岸高尔夫俱乐部","lon":"121.795143","lat":"31.179904","category":"251","category_name":"出行住宿","address":"上海市浦东新区东启航路99号"},{"poiid":"B2094757D465A4F54393","title":"必胜客 浦东机场店 Pizza Hut","lon":"121.782267","lat":"31.179269","category":"98","category_name":"意式菜品餐厅","address":"启航路900号浦东国际机场2楼近海天一路"},{"poiid":"B2094654DA6BA1FA489E","title":"上海地质科普馆","lon":"121.7833","lat":"31.17751","category":"186","category_name":"科技馆","address":"浦东新区川沙机场镇华洲路1号(近江镇路)"},{"poiid":"B2094757D16FA2F9489E","title":"Kuehne   Nagel","lon":"121.78637789","lat":"31.181300164","category":"500","category_name":"未知分类","address":"上海航空酒店商务楼B座5-6楼"},{"poiid":"B2094757D568AAFA429F","title":"Shanghai Links","lon":"121.794605","lat":"31.18886778","category":"47","category_name":"住宅区","address":"ShanghaiLinks位于浦东LingBaiRoad"},{"poiid":"B2094752D06FABF8499C","title":"上海浦东国际机场","lon":"121.786674","lat":"31.177875","category":"500","category_name":"未知分类","address":null},{"poiid":"B2094654DB65A3FC469D","title":"上海东航之星田园风光酒店","lon":"121.77736","lat":"31.18447","category":"260","category_name":"其他","address":"浦东新区川沙华洲路16号(近迎宾大道)"},{"poiid":"B2094757D064A3F54793","title":"吉祥大观园","lon":"121.784833992","lat":"31.1776632855","category":"500","category_name":"未知分类","address":"上海市浦东新区八一河东路"},{"poiid":"B2094757D065A6FE469F","title":"浦东机场保障部","lon":"121.790255","lat":"31.172184216","category":"21","category_name":"飞机场","address":"上海安航路200号"},{"poiid":"B2094654DB64A3F4479E","title":"上海浦东凌空农艺大观园","lon":"121.77804","lat":"31.17772","category":"250","category_name":"公园户外","address":"浦东新区华洲路1号(近浦东国际机场北大门)"},{"poiid":"B2094654DA6BA1FA489B","title":"翔远大酒店","lon":"121.78398","lat":"31.17797","category":"250","category_name":"公园户外","address":"浦东新区机场镇江镇路新龙村新龙宅100号"},{"poiid":"B2094757D065A2F44699","title":"浦东机场工作区航服楼","lon":"121.78973499","lat":"31.169864782","category":"21","category_name":"飞机场","address":"上海浦东机场工作区安航路518号"},{"poiid":"B2094757D169A2FA4699","title":"中外运空运发展股份有限公司 华东分公司","lon":"121.786484492","lat":"31.1812068627","category":"263","category_name":"公司","address":"上海市浦东新区海天一路301号"},{"poiid":"B2094757D068A1FF4093","title":"国航上海飞行员公寓","lon":"121.795167","lat":"31.173149","category":"217","category_name":"旅馆招待所","address":"上海浦东机场基地二路2号"},{"poiid":"B2094654DA6BA1FA429F","title":"上海浦东临空出口农业园区","lon":"121.78378","lat":"31.17736","category":"45","category_name":"产业园区","address":""},{"poiid":"B2094757D16EA0F94193","title":"浦东机场T2航站楼行李装卸区","lon":"121.798446655","lat":"31.1636543274","category":"21","category_name":"飞机场","address":"上海浦东新区启航路900号"},{"poiid":"B209475CD76FA5FE489B","title":"上海长江迷笛音乐节","lon":"121.786117","lat":"31.196102","category":"500","category_name":"未知分类","address":"上海市 浦东三甲港"},{"poiid":"B2094654DA6BA1FA499C","title":"上海东方地质博物馆","lon":"121.78228","lat":"31.17696","category":"182","category_name":"博物馆","address":""},{"poiid":"B2094655D36DA6FD439F","title":"海天三路","lon":"121.79705","lat":"31.16835","category":"38","category_name":"公交车站","address":""},{"poiid":"B2094757D165A7F94799","title":"上海浦东国际机场航空服务分公司航服楼","lon":"121.78575789","lat":"31.169540808","category":"46","category_name":"楼宇","address":"上海浦东新区安航路518号"},{"poiid":"B2094655D36CA2FD469D","title":"浦东国际机场第一餐厅","lon":"121.79739","lat":"31.16541","category":"68","category_name":"快餐厅","address":"浦东新区启航路866号(海天四路启航路)"},{"poiid":"B2094757D66FA3FD479D","title":"新亚大包","lon":"121.79272299","lat":"31.170766035","category":"247","category_name":"餐饮美食","address":"上海火車站南广场"},{"poiid":"B2094751DA65A3F9439F","title":"上海浦东机场T2 C54","lon":"121.795851","lat":"31.170072","category":"500","category_name":"未知分类","address":null},{"poiid":"B2094757D66CA4F8429F","title":"Geodis wilson","lon":"121.78538799","lat":"31.174537217","category":"500","category_name":"未知分类","address":"上海市浦东新区海天一路500号"},{"poiid":"B2094654DA6BA1FA4592","title":"民航华东空中交通管理局浦东办公楼","lon":"121.79528","lat":"31.16744","category":"46","category_name":"楼宇","address":"海天三路99"},{"poiid":"B2094757D069A2FD4593","title":"DHL Global Forwarding PVG Office","lon":"121.780512522","lat":"31.1735306587","category":"500","category_name":"未知分类","address":"上海海天一路303号 C库3楼"},{"poiid":"B2094757D16CA2FE4493","title":"东方航空食品有限公司","lon":"121.792723992","lat":"31.168952096","category":"263","category_name":"公司","address":"上海市浦东新区安航路"},{"poiid":"B2094757D16FA1FE4993","title":"汪喵村","lon":"121.78139","lat":"31.17648","category":"500","category_name":"未知分类","address":"上海浦东新区华洲路1号(近浦东机场)  "},{"poiid":"B2094757D169A1F9419B","title":"上海国际机场股份有限公司","lon":"121.797405992","lat":"31.1636619809","category":"46","category_name":"楼宇","address":"上海市浦东新区启航路500号"},{"poiid":"B2094757D068A2F4439B","title":"好戏连台(浦东机场店)","lon":"121.796109","lat":"31.163962","category":"68","category_name":"快餐厅","address":"上海浦东机场2楼磁悬浮旁"},{"poiid":"B2094655D36CA0FB469B","title":"机场镇北大门","lon":"121.77834","lat":"31.17658","category":"38","category_name":"公交车站","address":""},{"poiid":"B2094757D168A1F9489E","title":"上海机场出入境边防检查站新大楼","lon":"121.79487824","lat":"31.164181742","category":"46","category_name":"楼宇","address":"上海启航路800号(近海天四路)"},{"poiid":"B2094752D06DA7FE439B","title":"上海浦东国际机场T2航站楼","lon":"121.793686","lat":"31.167278","category":"500","category_name":"未知分类","address":null},{"poiid":"B2094655D36CA0F5469D","title":"华洲路晨阳路","lon":"121.77694","lat":"31.17947","category":"38","category_name":"公交车站","address":""}]