[{"poiid":"B2094757D06EABF54493","title":"翔殷路地铁站","lon":"121.53197866","lat":"31.305146989","category":"36","category_name":"地铁站","address":"杨浦区翔殷路"},{"poiid":"B2094757D068A7F4469B","title":"长海医院住院部","lon":"121.527867794","lat":"31.3088527016","category":"162","category_name":"医院","address":"上海杨浦区长海路174号(中原路)"},{"poiid":"B2094757D06FAAFD439B","title":"翔殷路","lon":"121.531976","lat":"31.30513","category":"260","category_name":"其他","address":"上海杨浦区翔殷路"},{"poiid":"B2094757D16BABFC429D","title":"第二军医大学校园","lon":"121.5283081","lat":"31.309152232","category":"500","category_name":"未知分类","address":"上海市杨浦区长海路174号"},{"poiid":"B2094757D068A1FD4699","title":"第二军医大学附属东方肝胆外科医院","lon":"121.52937","lat":"31.30994","category":"162","category_name":"医院","address":"杨浦区长海路225号(近中原路)"},{"poiid":"B2094655D26AABF9449B","title":"上海锦雪苑酒店原上海第二军医大学锦雪苑酒店","lon":"121.53309","lat":"31.3051","category":"250","category_name":"公园户外","address":"翔殷路631号"},{"poiid":"B2094750D26DA2F84699","title":"五角场","lon":"121.5277200893403","lat":"31.30725801490106","category":"500","category_name":"未知分类","address":null},{"poiid":"B2094757D06FA5FF449B","title":"上海市科技管理学校","lon":"121.535282","lat":"31.310527","category":"260","category_name":"其他","address":"上海杨浦区民星路435号"},{"poiid":"B2094654DB64A6FA4098","title":"洋人阿婆五角场店","lon":"121.53222","lat":"31.30251","category":"76","category_name":"上海菜","address":"杨浦区营口路868号(安波路口)"},{"poiid":"B2094757D069AAFB489F","title":"莱茵半岛","lon":"121.536226","lat":"31.307452","category":"47","category_name":"住宅区","address":"上海市杨浦区翔殷路378号"},{"poiid":"B2094757D068A0F94699","title":"有家川菜(民星路店)","lon":"121.534144","lat":"31.311687","category":"71","category_name":"四川菜","address":"杨浦区民星路560号(近中原路)"},{"poiid":"B2094757D068AAF4439E","title":"上海电视大学(中原分部)","lon":"121.53246","lat":"31.31066","category":"52","category_name":"高等院校","address":"杨浦区中原路42号(近民星路)"},{"poiid":"B2094654D56FAAFE4498","title":"长海新村","lon":"121.53296","lat":"31.309042","category":"47","category_name":"住宅区","address":"上海市杨浦区中原路32弄"},{"poiid":"B2094654D56FAAFA4198","title":"浙西名菜府","lon":"121.53385","lat":"31.3052","category":"76","category_name":"上海菜","address":"杨浦区翔殷路577号海外宾馆内(沙岗路口)"},{"poiid":"B2094655D26AA0FA429B","title":"地铁翔殷路站","lon":"121.53197","lat":"31.30513","category":"36","category_name":"地铁站","address":""},{"poiid":"B2094654DB65A7FA4599","title":"上海东方肝胆医院","lon":"121.53343","lat":"31.30813","category":"162","category_name":"医院","address":"杨浦区长海路225号"},{"poiid":"B2094757D064A4FC499C","title":"一品尊爵台球馆","lon":"121.532545103","lat":"31.306472176","category":"171","category_name":"台球厅","address":"杨浦区中原路21号2楼(近翔殷路)"},{"poiid":"B2094757D068A3FE459B","title":"全家便利(中原路店)","lon":"121.53207882","lat":"31.306752326","category":"117","category_name":"便民商店/便利店","address":"上海杨浦区中原路11号(近翔殷路)"},{"poiid":"B2094655D26AAAF8409B","title":"锦雪苑大酒店风味餐厅","lon":"121.53309","lat":"31.3051","category":"71","category_name":"四川菜","address":"杨浦区翔殷路631号(近地铁翔殷路站)"},{"poiid":"B2094655D26FA5FF4593","title":"上海金融学院","lon":"121.53621","lat":"31.31103","category":"671","category_name":"高校中心点","address":"民星路465"},{"poiid":"B2094655D268ABFD499F","title":"新翔公寓","lon":"121.53252","lat":"31.305626","category":"46","category_name":"楼宇","address":"杨浦区翔殷路578弄"},{"poiid":"B2094757D16DA7FC4093","title":"第二军医大学长海医院临床教学中心","lon":"121.5320321","lat":"31.309430237","category":"162","category_name":"医院","address":"上海市杨浦区长海路"},{"poiid":"B2094654D56FA7FE439A","title":"天工麻辣烫 中原路","lon":"121.53218","lat":"31.31378","category":"68","category_name":"快餐厅","address":"杨浦区中原路58号欧尚超市旁(近民星路)"},{"poiid":"B2094750D76EA4F4479E","title":"味多美(中原路店)","lon":"121.532","lat":"31.3061","category":"112","category_name":"糕饼店","address":"杨浦区中原路13号(近翔殷路)"},{"poiid":"B2094757D065A3FE439F","title":"第二军医大学教学馆","lon":"121.53365063","lat":"31.308352865","category":"500","category_name":"未知分类","address":"上海翔殷路800号"},{"poiid":"B2094655D36DA7F9439C","title":"中原路翔殷路","lon":"121.53201","lat":"31.30623","category":"38","category_name":"公交车站","address":""},{"poiid":"B2094757D66BABFF4993","title":"蜀膳传火锅传奇 民星路店","lon":"121.534531","lat":"31.311895","category":"86","category_name":"火锅店","address":"杨浦区民星路560号(近中原路)"},{"poiid":"B2094757D064AAFF479F","title":"重庆鸡公煲(中原路店)","lon":"121.53243","lat":"31.31144","category":"71","category_name":"四川菜","address":"杨浦区中原路(近民星路)"},{"poiid":"B2094655D26AAAFF499D","title":"锦雪苑大酒店自助餐","lon":"121.53309","lat":"31.3051","category":"268","category_name":"自助","address":"杨浦区翔殷路631号(近营口路)"},{"poiid":"B2094757D16EA6FD459B","title":"中原路(营口路)翔殷路站(公交28,139,577,522,813,726,870,桥三)","lon":"121.53197941","lat":"31.3062934274","category":"38","category_name":"公交车站","address":"上海市杨浦区中原路翔殷路"},{"poiid":"B2094757D66FA1FC419B","title":"第二军医大学附属长海医院中医科","lon":"121.527223997","lat":"31.3081795348","category":"162","category_name":"医院","address":"上海长海医院4楼"},{"poiid":"B2094757D16BA4F9469E","title":"长海医院药学部","lon":"121.5308281","lat":"31.308735223","category":"162","category_name":"医院","address":"上海市杨浦区长海路"},{"poiid":"B2094757D06BA4FA4098","title":"稻田寿司","lon":"121.535531054","lat":"31.311848793","category":"95","category_name":"日本料理","address":"杨浦区民星路530号(近中原路)"},{"poiid":"B2094757D16EA6F54199","title":"颐丰悠闲会所","lon":"121.5320126","lat":"31.307084631","category":"500","category_name":"未知分类","address":"上海中原路翔殷路"},{"poiid":"B2094757D169A3FD4193","title":"二军大家属集中营","lon":"121.531899","lat":"31.306702","category":"500","category_name":"未知分类","address":"上海中原路翔殷路"},{"poiid":"B2094757D464A7F9469D","title":"川亨菜馆","lon":"121.533012054","lat":"31.305577793","category":"71","category_name":"四川菜","address":"杨浦区翔殷路601号(近沙岗路)"},{"poiid":"B2094757D064ABFE439C","title":"南北和餐厅","lon":"121.53374549153","lat":"31.306058761099","category":"71","category_name":"四川菜","address":"杨浦区翔殷路582号(近中原路)"},{"poiid":"B209475CD76CA4FF429C","title":"二军大游泳馆","lon":"121.532012","lat":"31.307205","category":"220","category_name":"运动场所","address":"上海市 中原路21号"},{"poiid":"B2094757D66CA0FE469B","title":"联华超市","lon":"121.532845403","lat":"31.3063369965","category":"118","category_name":"超级市场","address":"杨浦区佳木斯路488号(近营口路)"},{"poiid":"B2094654D56FAAFC499A","title":"长海一村","lon":"121.53006","lat":"31.311691","category":"47","category_name":"住宅区","address":"长海一村1-62号"},{"poiid":"B2094757D069AAF9409B","title":"伊加伊 中原店","lon":"121.532258054","lat":"31.311365793","category":"68","category_name":"快餐厅","address":"杨浦区中原路83号(近民星路)"},{"poiid":"B2094655D26EA0FD4392","title":"医大东村(南门)","lon":"121.53449","lat":"31.30615","category":"47","category_name":"住宅区","address":"翔殷路578弄1-46号"},{"poiid":"B2094757D568A5FE4598","title":"硕和国际","lon":"121.536","lat":"31.3081","category":"46","category_name":"楼宇","address":"安波路569号(近营口路)"},{"poiid":"B2094655D26BA3FE429F","title":"锦园商务会所KTV","lon":"121.53309","lat":"31.3051","category":"170","category_name":"KTV","address":"杨浦区翔殷路631号(近营口路)"},{"poiid":"B2094757D065ABFF499F","title":"打倒小清新伪文艺主义装逼青年","lon":"121.532680692","lat":"31.3084371081","category":"500","category_name":"未知分类","address":"北京眼看着伪文青们就跟浇了大粪的庄稼似的噌噌地往外冒，我发自内心地想给他们一人一铁锹斩草除根不留后患，然后铲平了盖新房"},{"poiid":"B2094757D16BAAF4419B","title":"第二军医大学研究生楼","lon":"121.530468103","lat":"31.3087129229","category":"500","category_name":"未知分类","address":"上海长海路168"},{"poiid":"B2094655D26CA5FF4998","title":"天天唱吧茶苑No.19","lon":"121.53295","lat":"31.30566","category":"170","category_name":"KTV","address":""},{"poiid":"B2094757D568A0FD429D","title":"中国工商银行(中原路)","lon":"121.53170844","lat":"31.30671549","category":"150","category_name":"银行","address":"中国上海市杨浦区中原路"},{"poiid":"B2094757D168A5F44792","title":"海外宾馆","lon":"121.5353691","lat":"31.304698138","category":"217","category_name":"旅馆招待所","address":"杨浦区翔殷路577号(近中原路)"},{"poiid":"B2094655D36DA1F44999","title":"翔殷路沙岗路","lon":"121.5337","lat":"31.30544","category":"38","category_name":"公交车站","address":""},{"poiid":"B2094757D06EABF54493","title":"翔殷路地铁站","lon":"121.53197866","lat":"31.305146989","category":"36","category_name":"地铁站","address":"杨浦区翔殷路"},{"poiid":"B2094757D068A7F4469B","title":"长海医院住院部","lon":"121.527867794","lat":"31.3088527016","category":"162","category_name":"医院","address":"上海杨浦区长海路174号(中原路)"},{"poiid":"B2094757D06FAAFD439B","title":"翔殷路","lon":"121.531976","lat":"31.30513","category":"260","category_name":"其他","address":"上海杨浦区翔殷路"},{"poiid":"B2094757D16BABFC429D","title":"第二军医大学校园","lon":"121.5283081","lat":"31.309152232","category":"500","category_name":"未知分类","address":"上海市杨浦区长海路174号"},{"poiid":"B2094757D068A1FD4699","title":"第二军医大学附属东方肝胆外科医院","lon":"121.52937","lat":"31.30994","category":"162","category_name":"医院","address":"杨浦区长海路225号(近中原路)"},{"poiid":"B2094655D26AABF9449B","title":"上海锦雪苑酒店原上海第二军医大学锦雪苑酒店","lon":"121.53309","lat":"31.3051","category":"250","category_name":"公园户外","address":"翔殷路631号"},{"poiid":"B2094750D26DA2F84699","title":"五角场","lon":"121.5277200893403","lat":"31.30725801490106","category":"500","category_name":"未知分类","address":null},{"poiid":"B2094757D06FA5FF449B","title":"上海市科技管理学校","lon":"121.535282","lat":"31.310527","category":"260","category_name":"其他","address":"上海杨浦区民星路435号"},{"poiid":"B2094654DB64A6FA4098","title":"洋人阿婆五角场店","lon":"121.53222","lat":"31.30251","category":"76","category_name":"上海菜","address":"杨浦区营口路868号(安波路口)"},{"poiid":"B2094757D069AAFB489F","title":"莱茵半岛","lon":"121.536226","lat":"31.307452","category":"47","category_name":"住宅区","address":"上海市杨浦区翔殷路378号"},{"poiid":"B2094757D068A0F94699","title":"有家川菜(民星路店)","lon":"121.534144","lat":"31.311687","category":"71","category_name":"四川菜","address":"杨浦区民星路560号(近中原路)"},{"poiid":"B2094757D068AAF4439E","title":"上海电视大学(中原分部)","lon":"121.53246","lat":"31.31066","category":"52","category_name":"高等院校","address":"杨浦区中原路42号(近民星路)"},{"poiid":"B2094654D56FAAFE4498","title":"长海新村","lon":"121.53296","lat":"31.309042","category":"47","category_name":"住宅区","address":"上海市杨浦区中原路32弄"},{"poiid":"B2094654D56FAAFA4198","title":"浙西名菜府","lon":"121.53385","lat":"31.3052","category":"76","category_name":"上海菜","address":"杨浦区翔殷路577号海外宾馆内(沙岗路口)"},{"poiid":"B2094655D26AA0FA429B","title":"地铁翔殷路站","lon":"121.53197","lat":"31.30513","category":"36","category_name":"地铁站","address":""},{"poiid":"B2094654DB65A7FA4599","title":"上海东方肝胆医院","lon":"121.53343","lat":"31.30813","category":"162","category_name":"医院","address":"杨浦区长海路225号"},{"poiid":"B2094757D064A4FC499C","title":"一品尊爵台球馆","lon":"121.532545103","lat":"31.306472176","category":"171","category_name":"台球厅","address":"杨浦区中原路21号2楼(近翔殷路)"},{"poiid":"B2094757D068A3FE459B","title":"全家便利(中原路店)","lon":"121.53207882","lat":"31.306752326","category":"117","category_name":"便民商店/便利店","address":"上海杨浦区中原路11号(近翔殷路)"},{"poiid":"B2094655D26AAAF8409B","title":"锦雪苑大酒店风味餐厅","lon":"121.53309","lat":"31.3051","category":"71","category_name":"四川菜","address":"杨浦区翔殷路631号(近地铁翔殷路站)"},{"poiid":"B2094655D26FA5FF4593","title":"上海金融学院","lon":"121.53621","lat":"31.31103","category":"671","category_name":"高校中心点","address":"民星路465"},{"poiid":"B2094655D268ABFD499F","title":"新翔公寓","lon":"121.53252","lat":"31.305626","category":"46","category_name":"楼宇","address":"杨浦区翔殷路578弄"},{"poiid":"B2094757D16DA7FC4093","title":"第二军医大学长海医院临床教学中心","lon":"121.5320321","lat":"31.309430237","category":"162","category_name":"医院","address":"上海市杨浦区长海路"},{"poiid":"B2094654D56FA7FE439A","title":"天工麻辣烫 中原路","lon":"121.53218","lat":"31.31378","category":"68","category_name":"快餐厅","address":"杨浦区中原路58号欧尚超市旁(近民星路)"},{"poiid":"B2094750D76EA4F4479E","title":"味多美(中原路店)","lon":"121.532","lat":"31.3061","category":"112","category_name":"糕饼店","address":"杨浦区中原路13号(近翔殷路)"},{"poiid":"B2094757D065A3FE439F","title":"第二军医大学教学馆","lon":"121.53365063","lat":"31.308352865","category":"500","category_name":"未知分类","address":"上海翔殷路800号"},{"poiid":"B2094655D36DA7F9439C","title":"中原路翔殷路","lon":"121.53201","lat":"31.30623","category":"38","category_name":"公交车站","address":""},{"poiid":"B2094757D66BABFF4993","title":"蜀膳传火锅传奇 民星路店","lon":"121.534531","lat":"31.311895","category":"86","category_name":"火锅店","address":"杨浦区民星路560号(近中原路)"},{"poiid":"B2094757D064AAFF479F","title":"重庆鸡公煲(中原路店)","lon":"121.53243","lat":"31.31144","category":"71","category_name":"四川菜","address":"杨浦区中原路(近民星路)"},{"poiid":"B2094655D26AAAFF499D","title":"锦雪苑大酒店自助餐","lon":"121.53309","lat":"31.3051","category":"268","category_name":"自助","address":"杨浦区翔殷路631号(近营口路)"},{"poiid":"B2094757D16EA6FD459B","title":"中原路(营口路)翔殷路站(公交28,139,577,522,813,726,870,桥三)","lon":"121.53197941","lat":"31.3062934274","category":"38","category_name":"公交车站","address":"上海市杨浦区中原路翔殷路"},{"poiid":"B2094757D66FA1FC419B","title":"第二军医大学附属长海医院中医科","lon":"121.527223997","lat":"31.3081795348","category":"162","category_name":"医院","address":"上海长海医院4楼"},{"poiid":"B2094757D16BA4F9469E","title":"长海医院药学部","lon":"121.5308281","lat":"31.308735223","category":"162","category_name":"医院","address":"上海市杨浦区长海路"},{"poiid":"B2094757D06BA4FA4098","title":"稻田寿司","lon":"121.535531054","lat":"31.311848793","category":"95","category_name":"日本料理","address":"杨浦区民星路530号(近中原路)"},{"poiid":"B2094757D16EA6F54199","title":"颐丰悠闲会所","lon":"121.5320126","lat":"31.307084631","category":"500","category_name":"未知分类","address":"上海中原路翔殷路"},{"poiid":"B2094757D169A3FD4193","title":"二军大家属集中营","lon":"121.531899","lat":"31.306702","category":"500","category_name":"未知分类","address":"上海中原路翔殷路"},{"poiid":"B2094757D464A7F9469D","title":"川亨菜馆","lon":"121.533012054","lat":"31.305577793","category":"71","category_name":"四川菜","address":"杨浦区翔殷路601号(近沙岗路)"},{"poiid":"B2094757D064ABFE439C","title":"南北和餐厅","lon":"121.53374549153","lat":"31.306058761099","category":"71","category_name":"四川菜","address":"杨浦区翔殷路582号(近中原路)"},{"poiid":"B209475CD76CA4FF429C","title":"二军大游泳馆","lon":"121.532012","lat":"31.307205","category":"220","category_name":"运动场所","address":"上海市 中原路21号"},{"poiid":"B2094757D66CA0FE469B","title":"联华超市","lon":"121.532845403","lat":"31.3063369965","category":"118","category_name":"超级市场","address":"杨浦区佳木斯路488号(近营口路)"},{"poiid":"B2094654D56FAAFC499A","title":"长海一村","lon":"121.53006","lat":"31.311691","category":"47","category_name":"住宅区","address":"长海一村1-62号"},{"poiid":"B2094757D069AAF9409B","title":"伊加伊 中原店","lon":"121.532258054","lat":"31.311365793","category":"68","category_name":"快餐厅","address":"杨浦区中原路83号(近民星路)"},{"poiid":"B2094655D26EA0FD4392","title":"医大东村(南门)","lon":"121.53449","lat":"31.30615","category":"47","category_name":"住宅区","address":"翔殷路578弄1-46号"},{"poiid":"B2094757D568A5FE4598","title":"硕和国际","lon":"121.536","lat":"31.3081","category":"46","category_name":"楼宇","address":"安波路569号(近营口路)"},{"poiid":"B2094655D26BA3FE429F","title":"锦园商务会所KTV","lon":"121.53309","lat":"31.3051","category":"170","category_name":"KTV","address":"杨浦区翔殷路631号(近营口路)"},{"poiid":"B2094757D065ABFF499F","title":"打倒小清新伪文艺主义装逼青年","lon":"121.532680692","lat":"31.3084371081","category":"500","category_name":"未知分类","address":"北京眼看着伪文青们就跟浇了大粪的庄稼似的噌噌地往外冒，我发自内心地想给他们一人一铁锹斩草除根不留后患，然后铲平了盖新房"},{"poiid":"B2094757D16BAAF4419B","title":"第二军医大学研究生楼","lon":"121.530468103","lat":"31.3087129229","category":"500","category_name":"未知分类","address":"上海长海路168"},{"poiid":"B2094655D26CA5FF4998","title":"天天唱吧茶苑No.19","lon":"121.53295","lat":"31.30566","category":"170","category_name":"KTV","address":""},{"poiid":"B2094757D568A0FD429D","title":"中国工商银行(中原路)","lon":"121.53170844","lat":"31.30671549","category":"150","category_name":"银行","address":"中国上海市杨浦区中原路"},{"poiid":"B2094757D168A5F44792","title":"海外宾馆","lon":"121.5353691","lat":"31.304698138","category":"217","category_name":"旅馆招待所","address":"杨浦区翔殷路577号(近中原路)"},{"poiid":"B2094655D36DA1F44999","title":"翔殷路沙岗路","lon":"121.5337","lat":"31.30544","category":"38","category_name":"公交车站","address":""},{"poiid":"B2094757D06EABF54493","title":"翔殷路地铁站","lon":"121.53197866","lat":"31.305146989","category":"36","category_name":"地铁站","address":"杨浦区翔殷路"},{"poiid":"B2094757D068A7F4469B","title":"长海医院住院部","lon":"121.527867794","lat":"31.3088527016","category":"162","category_name":"医院","address":"上海杨浦区长海路174号(中原路)"},{"poiid":"B2094757D06FAAFD439B","title":"翔殷路","lon":"121.531976","lat":"31.30513","category":"260","category_name":"其他","address":"上海杨浦区翔殷路"},{"poiid":"B2094757D16BABFC429D","title":"第二军医大学校园","lon":"121.5283081","lat":"31.309152232","category":"500","category_name":"未知分类","address":"上海市杨浦区长海路174号"},{"poiid":"B2094757D068A1FD4699","title":"第二军医大学附属东方肝胆外科医院","lon":"121.52937","lat":"31.30994","category":"162","category_name":"医院","address":"杨浦区长海路225号(近中原路)"},{"poiid":"B2094655D26AABF9449B","title":"上海锦雪苑酒店原上海第二军医大学锦雪苑酒店","lon":"121.53309","lat":"31.3051","category":"250","category_name":"公园户外","address":"翔殷路631号"},{"poiid":"B2094750D26DA2F84699","title":"五角场","lon":"121.5277200893403","lat":"31.30725801490106","category":"500","category_name":"未知分类","address":null},{"poiid":"B2094757D06FA5FF449B","title":"上海市科技管理学校","lon":"121.535282","lat":"31.310527","category":"260","category_name":"其他","address":"上海杨浦区民星路435号"},{"poiid":"B2094654DB64A6FA4098","title":"洋人阿婆五角场店","lon":"121.53222","lat":"31.30251","category":"76","category_name":"上海菜","address":"杨浦区营口路868号(安波路口)"},{"poiid":"B2094757D069AAFB489F","title":"莱茵半岛","lon":"121.536226","lat":"31.307452","category":"47","category_name":"住宅区","address":"上海市杨浦区翔殷路378号"},{"poiid":"B2094757D068A0F94699","title":"有家川菜(民星路店)","lon":"121.534144","lat":"31.311687","category":"71","category_name":"四川菜","address":"杨浦区民星路560号(近中原路)"},{"poiid":"B2094757D068AAF4439E","title":"上海电视大学(中原分部)","lon":"121.53246","lat":"31.31066","category":"52","category_name":"高等院校","address":"杨浦区中原路42号(近民星路)"},{"poiid":"B2094654D56FAAFE4498","title":"长海新村","lon":"121.53296","lat":"31.309042","category":"47","category_name":"住宅区","address":"上海市杨浦区中原路32弄"},{"poiid":"B2094654D56FAAFA4198","title":"浙西名菜府","lon":"121.53385","lat":"31.3052","category":"76","category_name":"上海菜","address":"杨浦区翔殷路577号海外宾馆内(沙岗路口)"},{"poiid":"B2094655D26AA0FA429B","title":"地铁翔殷路站","lon":"121.53197","lat":"31.30513","category":"36","category_name":"地铁站","address":""},{"poiid":"B2094654DB65A7FA4599","title":"上海东方肝胆医院","lon":"121.53343","lat":"31.30813","category":"162","category_name":"医院","address":"杨浦区长海路225号"},{"poiid":"B2094757D064A4FC499C","title":"一品尊爵台球馆","lon":"121.532545103","lat":"31.306472176","category":"171","category_name":"台球厅","address":"杨浦区中原路21号2楼(近翔殷路)"},{"poiid":"B2094757D068A3FE459B","title":"全家便利(中原路店)","lon":"121.53207882","lat":"31.306752326","category":"117","category_name":"便民商店/便利店","address":"上海杨浦区中原路11号(近翔殷路)"},{"poiid":"B2094655D26AAAF8409B","title":"锦雪苑大酒店风味餐厅","lon":"121.53309","lat":"31.3051","category":"71","category_name":"四川菜","address":"杨浦区翔殷路631号(近地铁翔殷路站)"},{"poiid":"B2094655D26FA5FF4593","title":"上海金融学院","lon":"121.53621","lat":"31.31103","category":"671","category_name":"高校中心点","address":"民星路465"},{"poiid":"B2094655D268ABFD499F","title":"新翔公寓","lon":"121.53252","lat":"31.305626","category":"46","category_name":"楼宇","address":"杨浦区翔殷路578弄"},{"poiid":"B2094757D16DA7FC4093","title":"第二军医大学长海医院临床教学中心","lon":"121.5320321","lat":"31.309430237","category":"162","category_name":"医院","address":"上海市杨浦区长海路"},{"poiid":"B2094654D56FA7FE439A","title":"天工麻辣烫 中原路","lon":"121.53218","lat":"31.31378","category":"68","category_name":"快餐厅","address":"杨浦区中原路58号欧尚超市旁(近民星路)"},{"poiid":"B2094750D76EA4F4479E","title":"味多美(中原路店)","lon":"121.532","lat":"31.3061","category":"112","category_name":"糕饼店","address":"杨浦区中原路13号(近翔殷路)"},{"poiid":"B2094757D065A3FE439F","title":"第二军医大学教学馆","lon":"121.53365063","lat":"31.308352865","category":"500","category_name":"未知分类","address":"上海翔殷路800号"},{"poiid":"B2094655D36DA7F9439C","title":"中原路翔殷路","lon":"121.53201","lat":"31.30623","category":"38","category_name":"公交车站","address":""},{"poiid":"B2094757D66BABFF4993","title":"蜀膳传火锅传奇 民星路店","lon":"121.534531","lat":"31.311895","category":"86","category_name":"火锅店","address":"杨浦区民星路560号(近中原路)"},{"poiid":"B2094757D064AAFF479F","title":"重庆鸡公煲(中原路店)","lon":"121.53243","lat":"31.31144","category":"71","category_name":"四川菜","address":"杨浦区中原路(近民星路)"},{"poiid":"B2094655D26AAAFF499D","title":"锦雪苑大酒店自助餐","lon":"121.53309","lat":"31.3051","category":"268","category_name":"自助","address":"杨浦区翔殷路631号(近营口路)"},{"poiid":"B2094757D16EA6FD459B","title":"中原路(营口路)翔殷路站(公交28,139,577,522,813,726,870,桥三)","lon":"121.53197941","lat":"31.3062934274","category":"38","category_name":"公交车站","address":"上海市杨浦区中原路翔殷路"},{"poiid":"B2094757D66FA1FC419B","title":"第二军医大学附属长海医院中医科","lon":"121.527223997","lat":"31.3081795348","category":"162","category_name":"医院","address":"上海长海医院4楼"},{"poiid":"B2094757D16BA4F9469E","title":"长海医院药学部","lon":"121.5308281","lat":"31.308735223","category":"162","category_name":"医院","address":"上海市杨浦区长海路"},{"poiid":"B2094757D06BA4FA4098","title":"稻田寿司","lon":"121.535531054","lat":"31.311848793","category":"95","category_name":"日本料理","address":"杨浦区民星路530号(近中原路)"},{"poiid":"B2094757D16EA6F54199","title":"颐丰悠闲会所","lon":"121.5320126","lat":"31.307084631","category":"500","category_name":"未知分类","address":"上海中原路翔殷路"},{"poiid":"B2094757D169A3FD4193","title":"二军大家属集中营","lon":"121.531899","lat":"31.306702","category":"500","category_name":"未知分类","address":"上海中原路翔殷路"},{"poiid":"B2094757D464A7F9469D","title":"川亨菜馆","lon":"121.533012054","lat":"31.305577793","category":"71","category_name":"四川菜","address":"杨浦区翔殷路601号(近沙岗路)"},{"poiid":"B2094757D064ABFE439C","title":"南北和餐厅","lon":"121.53374549153","lat":"31.306058761099","category":"71","category_name":"四川菜","address":"杨浦区翔殷路582号(近中原路)"},{"poiid":"B209475CD76CA4FF429C","title":"二军大游泳馆","lon":"121.532012","lat":"31.307205","category":"220","category_name":"运动场所","address":"上海市 中原路21号"},{"poiid":"B2094757D66CA0FE469B","title":"联华超市","lon":"121.532845403","lat":"31.3063369965","category":"118","category_name":"超级市场","address":"杨浦区佳木斯路488号(近营口路)"},{"poiid":"B2094654D56FAAFC499A","title":"长海一村","lon":"121.53006","lat":"31.311691","category":"47","category_name":"住宅区","address":"长海一村1-62号"},{"poiid":"B2094757D069AAF9409B","title":"伊加伊 中原店","lon":"121.532258054","lat":"31.311365793","category":"68","category_name":"快餐厅","address":"杨浦区中原路83号(近民星路)"},{"poiid":"B2094655D26EA0FD4392","title":"医大东村(南门)","lon":"121.53449","lat":"31.30615","category":"47","category_name":"住宅区","address":"翔殷路578弄1-46号"},{"poiid":"B2094757D568A5FE4598","title":"硕和国际","lon":"121.536","lat":"31.3081","category":"46","category_name":"楼宇","address":"安波路569号(近营口路)"},{"poiid":"B2094655D26BA3FE429F","title":"锦园商务会所KTV","lon":"121.53309","lat":"31.3051","category":"170","category_name":"KTV","address":"杨浦区翔殷路631号(近营口路)"},{"poiid":"B2094757D065ABFF499F","title":"打倒小清新伪文艺主义装逼青年","lon":"121.532680692","lat":"31.3084371081","category":"500","category_name":"未知分类","address":"北京眼看着伪文青们就跟浇了大粪的庄稼似的噌噌地往外冒，我发自内心地想给他们一人一铁锹斩草除根不留后患，然后铲平了盖新房"},{"poiid":"B2094757D16BAAF4419B","title":"第二军医大学研究生楼","lon":"121.530468103","lat":"31.3087129229","category":"500","category_name":"未知分类","address":"上海长海路168"},{"poiid":"B2094655D26CA5FF4998","title":"天天唱吧茶苑No.19","lon":"121.53295","lat":"31.30566","category":"170","category_name":"KTV","address":""},{"poiid":"B2094757D568A0FD429D","title":"中国工商银行(中原路)","lon":"121.53170844","lat":"31.30671549","category":"150","category_name":"银行","address":"中国上海市杨浦区中原路"},{"poiid":"B2094757D168A5F44792","title":"海外宾馆","lon":"121.5353691","lat":"31.304698138","category":"217","category_name":"旅馆招待所","address":"杨浦区翔殷路577号(近中原路)"},{"poiid":"B2094655D36DA1F44999","title":"翔殷路沙岗路","lon":"121.5337","lat":"31.30544","category":"38","category_name":"公交车站","address":""},{"poiid":"B2094757D06EABF54493","title":"翔殷路地铁站","lon":"121.53197866","lat":"31.305146989","category":"36","category_name":"地铁站","address":"杨浦区翔殷路"},{"poiid":"B2094757D068A7F4469B","title":"长海医院住院部","lon":"121.527867794","lat":"31.3088527016","category":"162","category_name":"医院","address":"上海杨浦区长海路174号(中原路)"},{"poiid":"B2094757D06FAAFD439B","title":"翔殷路","lon":"121.531976","lat":"31.30513","category":"260","category_name":"其他","address":"上海杨浦区翔殷路"},{"poiid":"B2094757D16BABFC429D","title":"第二军医大学校园","lon":"121.5283081","lat":"31.309152232","category":"500","category_name":"未知分类","address":"上海市杨浦区长海路174号"},{"poiid":"B2094757D068A1FD4699","title":"第二军医大学附属东方肝胆外科医院","lon":"121.52937","lat":"31.30994","category":"162","category_name":"医院","address":"杨浦区长海路225号(近中原路)"},{"poiid":"B2094655D26AABF9449B","title":"上海锦雪苑酒店原上海第二军医大学锦雪苑酒店","lon":"121.53309","lat":"31.3051","category":"250","category_name":"公园户外","address":"翔殷路631号"},{"poiid":"B2094750D26DA2F84699","title":"五角场","lon":"121.5277200893403","lat":"31.30725801490106","category":"500","category_name":"未知分类","address":null},{"poiid":"B2094757D06FA5FF449B","title":"上海市科技管理学校","lon":"121.535282","lat":"31.310527","category":"260","category_name":"其他","address":"上海杨浦区民星路435号"},{"poiid":"B2094654DB64A6FA4098","title":"洋人阿婆五角场店","lon":"121.53222","lat":"31.30251","category":"76","category_name":"上海菜","address":"杨浦区营口路868号(安波路口)"},{"poiid":"B2094757D069AAFB489F","title":"莱茵半岛","lon":"121.536226","lat":"31.307452","category":"47","category_name":"住宅区","address":"上海市杨浦区翔殷路378号"},{"poiid":"B2094757D068A0F94699","title":"有家川菜(民星路店)","lon":"121.534144","lat":"31.311687","category":"71","category_name":"四川菜","address":"杨浦区民星路560号(近中原路)"},{"poiid":"B2094757D068AAF4439E","title":"上海电视大学(中原分部)","lon":"121.53246","lat":"31.31066","category":"52","category_name":"高等院校","address":"杨浦区中原路42号(近民星路)"},{"poiid":"B2094654D56FAAFE4498","title":"长海新村","lon":"121.53296","lat":"31.309042","category":"47","category_name":"住宅区","address":"上海市杨浦区中原路32弄"},{"poiid":"B2094654D56FAAFA4198","title":"浙西名菜府","lon":"121.53385","lat":"31.3052","category":"76","category_name":"上海菜","address":"杨浦区翔殷路577号海外宾馆内(沙岗路口)"},{"poiid":"B2094655D26AA0FA429B","title":"地铁翔殷路站","lon":"121.53197","lat":"31.30513","category":"36","category_name":"地铁站","address":""},{"poiid":"B2094654DB65A7FA4599","title":"上海东方肝胆医院","lon":"121.53343","lat":"31.30813","category":"162","category_name":"医院","address":"杨浦区长海路225号"},{"poiid":"B2094757D064A4FC499C","title":"一品尊爵台球馆","lon":"121.532545103","lat":"31.306472176","category":"171","category_name":"台球厅","address":"杨浦区中原路21号2楼(近翔殷路)"},{"poiid":"B2094757D068A3FE459B","title":"全家便利(中原路店)","lon":"121.53207882","lat":"31.306752326","category":"117","category_name":"便民商店/便利店","address":"上海杨浦区中原路11号(近翔殷路)"},{"poiid":"B2094655D26AAAF8409B","title":"锦雪苑大酒店风味餐厅","lon":"121.53309","lat":"31.3051","category":"71","category_name":"四川菜","address":"杨浦区翔殷路631号(近地铁翔殷路站)"},{"poiid":"B2094655D26FA5FF4593","title":"上海金融学院","lon":"121.53621","lat":"31.31103","category":"671","category_name":"高校中心点","address":"民星路465"},{"poiid":"B2094655D268ABFD499F","title":"新翔公寓","lon":"121.53252","lat":"31.305626","category":"46","category_name":"楼宇","address":"杨浦区翔殷路578弄"},{"poiid":"B2094757D16DA7FC4093","title":"第二军医大学长海医院临床教学中心","lon":"121.5320321","lat":"31.309430237","category":"162","category_name":"医院","address":"上海市杨浦区长海路"},{"poiid":"B2094654D56FA7FE439A","title":"天工麻辣烫 中原路","lon":"121.53218","lat":"31.31378","category":"68","category_name":"快餐厅","address":"杨浦区中原路58号欧尚超市旁(近民星路)"},{"poiid":"B2094750D76EA4F4479E","title":"味多美(中原路店)","lon":"121.532","lat":"31.3061","category":"112","category_name":"糕饼店","address":"杨浦区中原路13号(近翔殷路)"},{"poiid":"B2094757D065A3FE439F","title":"第二军医大学教学馆","lon":"121.53365063","lat":"31.308352865","category":"500","category_name":"未知分类","address":"上海翔殷路800号"},{"poiid":"B2094655D36DA7F9439C","title":"中原路翔殷路","lon":"121.53201","lat":"31.30623","category":"38","category_name":"公交车站","address":""},{"poiid":"B2094757D66BABFF4993","title":"蜀膳传火锅传奇 民星路店","lon":"121.534531","lat":"31.311895","category":"86","category_name":"火锅店","address":"杨浦区民星路560号(近中原路)"},{"poiid":"B2094757D064AAFF479F","title":"重庆鸡公煲(中原路店)","lon":"121.53243","lat":"31.31144","category":"71","category_name":"四川菜","address":"杨浦区中原路(近民星路)"},{"poiid":"B2094655D26AAAFF499D","title":"锦雪苑大酒店自助餐","lon":"121.53309","lat":"31.3051","category":"268","category_name":"自助","address":"杨浦区翔殷路631号(近营口路)"},{"poiid":"B2094757D16EA6FD459B","title":"中原路(营口路)翔殷路站(公交28,139,577,522,813,726,870,桥三)","lon":"121.53197941","lat":"31.3062934274","category":"38","category_name":"公交车站","address":"上海市杨浦区中原路翔殷路"},{"poiid":"B2094757D66FA1FC419B","title":"第二军医大学附属长海医院中医科","lon":"121.527223997","lat":"31.3081795348","category":"162","category_name":"医院","address":"上海长海医院4楼"},{"poiid":"B2094757D16BA4F9469E","title":"长海医院药学部","lon":"121.5308281","lat":"31.308735223","category":"162","category_name":"医院","address":"上海市杨浦区长海路"},{"poiid":"B2094757D06BA4FA4098","title":"稻田寿司","lon":"121.535531054","lat":"31.311848793","category":"95","category_name":"日本料理","address":"杨浦区民星路530号(近中原路)"},{"poiid":"B2094757D16EA6F54199","title":"颐丰悠闲会所","lon":"121.5320126","lat":"31.307084631","category":"500","category_name":"未知分类","address":"上海中原路翔殷路"},{"poiid":"B2094757D169A3FD4193","title":"二军大家属集中营","lon":"121.531899","lat":"31.306702","category":"500","category_name":"未知分类","address":"上海中原路翔殷路"},{"poiid":"B2094757D464A7F9469D","title":"川亨菜馆","lon":"121.533012054","lat":"31.305577793","category":"71","category_name":"四川菜","address":"杨浦区翔殷路601号(近沙岗路)"},{"poiid":"B2094757D064ABFE439C","title":"南北和餐厅","lon":"121.53374549153","lat":"31.306058761099","category":"71","category_name":"四川菜","address":"杨浦区翔殷路582号(近中原路)"},{"poiid":"B209475CD76CA4FF429C","title":"二军大游泳馆","lon":"121.532012","lat":"31.307205","category":"220","category_name":"运动场所","address":"上海市 中原路21号"},{"poiid":"B2094757D66CA0FE469B","title":"联华超市","lon":"121.532845403","lat":"31.3063369965","category":"118","category_name":"超级市场","address":"杨浦区佳木斯路488号(近营口路)"},{"poiid":"B2094654D56FAAFC499A","title":"长海一村","lon":"121.53006","lat":"31.311691","category":"47","category_name":"住宅区","address":"长海一村1-62号"},{"poiid":"B2094757D069AAF9409B","title":"伊加伊 中原店","lon":"121.532258054","lat":"31.311365793","category":"68","category_name":"快餐厅","address":"杨浦区中原路83号(近民星路)"},{"poiid":"B2094655D26EA0FD4392","title":"医大东村(南门)","lon":"121.53449","lat":"31.30615","category":"47","category_name":"住宅区","address":"翔殷路578弄1-46号"},{"poiid":"B2094757D568A5FE4598","title":"硕和国际","lon":"121.536","lat":"31.3081","category":"46","category_name":"楼宇","address":"安波路569号(近营口路)"},{"poiid":"B2094655D26BA3FE429F","title":"锦园商务会所KTV","lon":"121.53309","lat":"31.3051","category":"170","category_name":"KTV","address":"杨浦区翔殷路631号(近营口路)"},{"poiid":"B2094757D065ABFF499F","title":"打倒小清新伪文艺主义装逼青年","lon":"121.532680692","lat":"31.3084371081","category":"500","category_name":"未知分类","address":"北京眼看着伪文青们就跟浇了大粪的庄稼似的噌噌地往外冒，我发自内心地想给他们一人一铁锹斩草除根不留后患，然后铲平了盖新房"},{"poiid":"B2094757D16BAAF4419B","title":"第二军医大学研究生楼","lon":"121.530468103","lat":"31.3087129229","category":"500","category_name":"未知分类","address":"上海长海路168"},{"poiid":"B2094655D26CA5FF4998","title":"天天唱吧茶苑No.19","lon":"121.53295","lat":"31.30566","category":"170","category_name":"KTV","address":""},{"poiid":"B2094757D568A0FD429D","title":"中国工商银行(中原路)","lon":"121.53170844","lat":"31.30671549","category":"150","category_name":"银行","address":"中国上海市杨浦区中原路"},{"poiid":"B2094757D168A5F44792","title":"海外宾馆","lon":"121.5353691","lat":"31.304698138","category":"217","category_name":"旅馆招待所","address":"杨浦区翔殷路577号(近中原路)"},{"poiid":"B2094655D36DA1F44999","title":"翔殷路沙岗路","lon":"121.5337","lat":"31.30544","category":"38","category_name":"公交车站","address":""}]