[{"poiid":"B2094757D06EAAF84199","title":"梅龙镇伊势丹广场","lon":"121.45681952","lat":"31.228880108","category":"119","category_name":"商场","address":"上海静安区南京西路1038号梅龙镇广场(近江宁路)"},{"poiid":"B2094757D06EAAF94192","title":"伊秀手握寿司(吴江路店)","lon":"121.45843146","lat":"31.229081993","category":"95","category_name":"日本料理","address":"静安区吴江路269号湟普汇3楼304-305单元(泰兴路吴江路)"},{"poiid":"B2094654DA6CA1F54793","title":"环艺电影城","lon":"121.45679","lat":"31.22907","category":"178","category_name":"电影院","address":"上海市静安区南京西路1038号梅龙镇广场10楼"},{"poiid":"B2094753D76FAAFA449C","title":"上海滩国泰旗舰店","lon":"121.466011","lat":"31.216125","category":"249","category_name":"购物服务","address":"淮海中路868号"},{"poiid":"B209475CD564A7F84292","title":"上海滩新天地店","lon":"121.47463","lat":"31.22164","category":"119","category_name":"商场","address":"\"太仓路181弄新天地北里15号\r\n\""},{"poiid":"B209475CD564A7F8439E","title":"上海滩中信泰富店","lon":"121.45602","lat":"31.22851","category":"119","category_name":"商场","address":"\"南京西路1168号中信泰富广场，店铺号221.\r\n\""},{"poiid":"B2094757D06FA3FC4698","title":"枣子树(江宁店)","lon":"121.456622771","lat":"31.2296432097","category":"89","category_name":"中式素餐馆","address":"静安区奉贤路258号(美琪剧院旁)"},{"poiid":"B2094757D06EAAFE419A","title":"优衣库(南京西路店)","lon":"121.458728","lat":"31.229372","category":"141","category_name":"服装鞋帽皮具店","address":"上海市静安区南京西路969号（地铁2号线南京西路站1、4号出口）"},{"poiid":"B2094654DB6BA6F54392","title":"梅龙镇商厦(南汇路)","lon":"121.45703","lat":"31.22942","category":"46","category_name":"楼宇","address":"南京西路1038号"},{"poiid":"B2094655D268A3FB4898","title":"麻辣诱惑 梅龙镇广场店 Spice Spirit","lon":"121.456538054","lat":"31.228397793","category":"71","category_name":"四川菜","address":"静安区南京西路1038号梅龙镇广场7楼(近江宁路)"},{"poiid":"B2094757D06FA1F44193","title":"翡翠酒家 梅龙镇店 Crystal Jade","lon":"121.45665764809","lat":"31.228605488824","category":"72","category_name":"广东菜","address":"静安区南京西路1038号梅龙镇广场7楼(近江宁路)"},{"poiid":"B2094757D16CA3F94793","title":"卡乐星","lon":"121.458848738","lat":"31.2292552793","category":"94","category_name":"西餐厅","address":"静安区吴江路169号四季坊150单元(近泰兴路)"},{"poiid":"B2094757D06FA3F44898","title":"甜蜜蜜(南京西路店)","lon":"121.45788","lat":"31.22816","category":"67","category_name":"甜品店","address":"静安区南京西路1001号凯司令2楼(梅龙镇广场斜对面)"},{"poiid":"B2094757D06FA5FF4792","title":"美国驻上海总领事馆(Consulate General of the United States in Shanghai)","lon":"121.45674315","lat":"31.228797151","category":"46","category_name":"楼宇","address":"上海徐汇区淮海中路1469号(近乌鲁木齐南路)"},{"poiid":"B2094752DB69AAF94292","title":"澳门肥仔文猪骨煲","lon":"121.456581","lat":"31.230287","category":"247","category_name":"餐饮美食","address":"上海市 上海市南汇路77号"},{"poiid":"B2094757D06FA6F44693","title":"哈根达斯(梅龙镇店)","lon":"121.45737","lat":"31.22847","category":"113","category_name":"冷饮店","address":"静安区南京西路1038号梅龙镇广场1楼109C-D(近江宁路)"},{"poiid":"B2094757D06BA1F84692","title":"美国驻上海大使馆签证中心","lon":"121.457179","lat":"31.229477","category":"500","category_name":"未知分类","address":"上海市南京西路梅陇镇广场"},{"poiid":"B2094757D06FA6F9489C","title":"代官山(南京西路店)","lon":"121.45798903","lat":"31.228981173","category":"260","category_name":"其他","address":"静安区吴江路269号湟普汇208单元(近吴江路南京西路)"},{"poiid":"B2094757D06FA0F84298","title":"圆苑酒家(梅陇镇店)","lon":"121.45652866","lat":"31.229180824","category":"75","category_name":"浙江菜","address":"静安区南京西路1038号梅龙镇广场4楼(近江宁路)"},{"poiid":"B2094757D06FA1FA4093","title":"伊秀寿司","lon":"121.45877773","lat":"31.229138276","category":"247","category_name":"餐饮美食","address":"上海市静安区吴江路"},{"poiid":"B2094757D06FA2F5409F","title":"弄堂小馄饨","lon":"121.45834","lat":"31.22876","category":"68","category_name":"快餐厅","address":"静安区南京西路1025弄静安别墅107号(近茂名北路)"},{"poiid":"B2094757D66BA3F4489F","title":"燕庭","lon":"121.457583","lat":"31.2290992","category":"72","category_name":"广东菜","address":"静安区南汇路10弄15号(近南京西路)"},{"poiid":"B2094757DA64AAFD4993","title":"梅陇镇伊势丹商场(Westgate Tower)","lon":"121.456645","lat":"31.229242","category":"252","category_name":"楼宇机构","address":"南京西路1038号"},{"poiid":"B2094654DA6CA1F5499F","title":"河河亭铁板烧日本料理(南京西路)","lon":"121.45678","lat":"31.22907","category":"269","category_name":"烧烤","address":"静安区南京西路1038号梅龙镇广场5楼(近江宁路)"},{"poiid":"B2094757D069A2FC439B","title":"稻•绿洲泰国时尚餐厅","lon":"121.45864873","lat":"31.228559264","category":"99","category_name":"泰国／越南菜品餐厅","address":"上海市静安区茂名北路吴江路269号皇普汇1楼"},{"poiid":"B2094654DB69A0FA499E","title":"凯司令西餐馆","lon":"121.45799135349","lat":"31.228824346383","category":"247","category_name":"餐饮美食","address":"静安区南京西路1001号3楼(近江宁路)"},{"poiid":"B2094654DB6AA2FC459D","title":"一茶一坐(南京西路店)","lon":"121.458","lat":"31.22918","category":"260","category_name":"其他","address":"静安区南京西路996号2楼(近南汇路)"},{"poiid":"B2094757D06AA1FB429D","title":"上海少年儿童图书馆","lon":"121.458372567","lat":"31.2296641258","category":"181","category_name":"图书馆","address":"静安区南京西路962号(近茂名北路)"},{"poiid":"B2094757D065A2FF479A","title":"美国领事馆签证处","lon":"121.456695138","lat":"31.2288976717","category":"252","category_name":"楼宇机构","address":"静安区南京西路1038号梅龙镇广场8楼(近江宁路)"},{"poiid":"B2094757DB6FA1FF429A","title":"鲜芋仙(四季坊店)","lon":"121.4586149423584","lat":"31.229132465841996","category":"67","category_name":"甜品店","address":"静安区吴江路269号湟普汇1楼(近茂名北路)"},{"poiid":"B2094654DA6CA1F5489F","title":"异人馆","lon":"121.456538054","lat":"31.228397793","category":"95","category_name":"日本料理","address":"静安区南京西路1038号梅龙镇广场7楼(近江宁路)"},{"poiid":"B2094757D06FA0FE4599","title":"寿司处武贞(梅龙镇店)","lon":"121.45699","lat":"31.22835","category":"95","category_name":"日本料理","address":"上海静安区南京西路1038号梅龙镇广场B1楼  "},{"poiid":"B2094654DB6AA7F54993","title":"赛百味 吴江路店 Subway","lon":"121.459811054","lat":"31.229479793","category":"94","category_name":"西餐厅","address":"吴江路269号湟普汇1A101单元近茂名路"},{"poiid":"B2094757D56DAAF44398","title":"代官山吴江路店","lon":"121.458543738","lat":"31.2291892779","category":"96","category_name":"韩国料理","address":"上海吴江路湟普汇"},{"poiid":"B2094757D469A2FD419F","title":"肯德基 吴江路店 KFC","lon":"121.458911054","lat":"31.229248793","category":"68","category_name":"快餐厅","address":"静安区吴江路269号经典茂名商城2楼(近茂名北路)"},{"poiid":"B2094757D068A6FA4398","title":"银亭 Gintei  teppanyaki","lon":"121.4580654395","lat":"31.230427698102","category":"95","category_name":"日本料理","address":"静安区南汇路75号(近北京西路)"},{"poiid":"B2094750D664A4F54792","title":"徐家庄千岛湖鱼头王","lon":"121.457","lat":"31.2298","category":"76","category_name":"上海菜","address":"静安区南汇路52号(近梅龙镇广场)"},{"poiid":"B2094655D26BA3FE439E","title":"汉堡王 梅龙镇店 Burger King","lon":"121.456526054","lat":"31.228408793","category":"68","category_name":"快餐厅","address":"静安区南京西路1038号梅龙镇广场B1楼(近江宁路)"},{"poiid":"B2094757D06AABFB419E","title":"SPICE HAIR","lon":"121.45744","lat":"31.2292","category":"500","category_name":"未知分类","address":"上海静安区南京西路1038号梅陇镇伊势丹4楼  "},{"poiid":"B2094757DA68A0FB409A","title":"CHOCOOLATE（南京西路旗舰店）","lon":"121.458075866103","lat":"31.2290917247828","category":"255","category_name":"专卖店","address":"上海市静安区南京西路1009-1021号2-3层"},{"poiid":"B2094757D06BA3F54492","title":"Godiva(梅龙镇广场店)","lon":"121.45701","lat":"31.22834","category":"67","category_name":"甜品店","address":"静安区南京西路1038号梅龙镇广场1楼3号商铺(近江宁路)"},{"poiid":"B2094757D465ABF8499B","title":"勝圆日本料理","lon":"121.456502","lat":"31.229761","category":"247","category_name":"餐饮美食","address":"静安区奉贤路286号(近江宁路)"},{"poiid":"B2094751D56CA3FD469B","title":"COSTA COFFEE(环艺影城店)","lon":"121.45669","lat":"31.22864","category":"65","category_name":"咖啡厅","address":"静安区南京西路1038号梅龙镇广场10楼B区(近江宁路)"},{"poiid":"B2094757D464ABF8479A","title":"长寿面","lon":"121.45771","lat":"31.22886","category":"68","category_name":"快餐厅","address":"静安区北京西路1278号(近西康路)"},{"poiid":"B2094757D66BA3FA4792","title":"老树茶舍","lon":"121.4577234","lat":"31.2288506","category":"66","category_name":"茶艺馆","address":"南京西路1025弄83号近南汇路"},{"poiid":"B2094655D26AA1FE4498","title":"王磊形象公社梅龙镇2店","lon":"121.45672","lat":"31.22862","category":"247","category_name":"餐饮美食","address":"静安区南京西路1038号梅龙镇广场801座(近江宁路)"},{"poiid":"B2094750D364A3FB449F","title":"枣子树（江宁店）","lon":"121.45681012159","lat":"31.229761827581","category":"95","category_name":"日本料理","address":"奉贤路258号(美琪大戏院旁)"},{"poiid":"B2094750D268A1FB449F","title":"豪廚粵菜吴江店","lon":"121.458778","lat":"31.229549","category":"247","category_name":"餐饮美食","address":"静安区吴江路269号湟普汇306号"},{"poiid":"B2094757D06FA1F5409F","title":"大食代(梅龙镇店)","lon":"121.4574","lat":"31.22901","category":"68","category_name":"快餐厅","address":"上海静安区南京西路1038号梅龙镇广场B1楼(近江宁路)  "},{"poiid":"B2094757D06FABFF439B","title":"葡吉 南京西路店 PUCCI Bakery","lon":"121.456538054","lat":"31.228397793","category":"112","category_name":"糕饼店","address":"静安区南京西路1038号梅龙镇广场3楼(近江宁路)"},{"poiid":"B2094757D06EAAF84199","title":"梅龙镇伊势丹广场","lon":"121.45681952","lat":"31.228880108","category":"119","category_name":"商场","address":"上海静安区南京西路1038号梅龙镇广场(近江宁路)"},{"poiid":"B2094757D06EAAF94192","title":"伊秀手握寿司(吴江路店)","lon":"121.45843146","lat":"31.229081993","category":"95","category_name":"日本料理","address":"静安区吴江路269号湟普汇3楼304-305单元(泰兴路吴江路)"},{"poiid":"B2094654DA6CA1F54793","title":"环艺电影城","lon":"121.45679","lat":"31.22907","category":"178","category_name":"电影院","address":"上海市静安区南京西路1038号梅龙镇广场10楼"},{"poiid":"B2094753D76FAAFA449C","title":"上海滩国泰旗舰店","lon":"121.466011","lat":"31.216125","category":"249","category_name":"购物服务","address":"淮海中路868号"},{"poiid":"B209475CD564A7F84292","title":"上海滩新天地店","lon":"121.47463","lat":"31.22164","category":"119","category_name":"商场","address":"\"太仓路181弄新天地北里15号\r\n\""},{"poiid":"B209475CD564A7F8439E","title":"上海滩中信泰富店","lon":"121.45602","lat":"31.22851","category":"119","category_name":"商场","address":"\"南京西路1168号中信泰富广场，店铺号221.\r\n\""},{"poiid":"B2094757D06FA3FC4698","title":"枣子树(江宁店)","lon":"121.456622771","lat":"31.2296432097","category":"89","category_name":"中式素餐馆","address":"静安区奉贤路258号(美琪剧院旁)"},{"poiid":"B2094757D06EAAFE419A","title":"优衣库(南京西路店)","lon":"121.458728","lat":"31.229372","category":"141","category_name":"服装鞋帽皮具店","address":"上海市静安区南京西路969号（地铁2号线南京西路站1、4号出口）"},{"poiid":"B2094654DB6BA6F54392","title":"梅龙镇商厦(南汇路)","lon":"121.45703","lat":"31.22942","category":"46","category_name":"楼宇","address":"南京西路1038号"},{"poiid":"B2094655D268A3FB4898","title":"麻辣诱惑 梅龙镇广场店 Spice Spirit","lon":"121.456538054","lat":"31.228397793","category":"71","category_name":"四川菜","address":"静安区南京西路1038号梅龙镇广场7楼(近江宁路)"},{"poiid":"B2094757D06FA1F44193","title":"翡翠酒家 梅龙镇店 Crystal Jade","lon":"121.45665764809","lat":"31.228605488824","category":"72","category_name":"广东菜","address":"静安区南京西路1038号梅龙镇广场7楼(近江宁路)"},{"poiid":"B2094757D16CA3F94793","title":"卡乐星","lon":"121.458848738","lat":"31.2292552793","category":"94","category_name":"西餐厅","address":"静安区吴江路169号四季坊150单元(近泰兴路)"},{"poiid":"B2094757D06FA3F44898","title":"甜蜜蜜(南京西路店)","lon":"121.45788","lat":"31.22816","category":"67","category_name":"甜品店","address":"静安区南京西路1001号凯司令2楼(梅龙镇广场斜对面)"},{"poiid":"B2094757D06FA5FF4792","title":"美国驻上海总领事馆(Consulate General of the United States in Shanghai)","lon":"121.45674315","lat":"31.228797151","category":"46","category_name":"楼宇","address":"上海徐汇区淮海中路1469号(近乌鲁木齐南路)"},{"poiid":"B2094752DB69AAF94292","title":"澳门肥仔文猪骨煲","lon":"121.456581","lat":"31.230287","category":"247","category_name":"餐饮美食","address":"上海市 上海市南汇路77号"},{"poiid":"B2094757D06FA6F44693","title":"哈根达斯(梅龙镇店)","lon":"121.45737","lat":"31.22847","category":"113","category_name":"冷饮店","address":"静安区南京西路1038号梅龙镇广场1楼109C-D(近江宁路)"},{"poiid":"B2094757D06BA1F84692","title":"美国驻上海大使馆签证中心","lon":"121.457179","lat":"31.229477","category":"500","category_name":"未知分类","address":"上海市南京西路梅陇镇广场"},{"poiid":"B2094757D06FA6F9489C","title":"代官山(南京西路店)","lon":"121.45798903","lat":"31.228981173","category":"260","category_name":"其他","address":"静安区吴江路269号湟普汇208单元(近吴江路南京西路)"},{"poiid":"B2094757D06FA0F84298","title":"圆苑酒家(梅陇镇店)","lon":"121.45652866","lat":"31.229180824","category":"75","category_name":"浙江菜","address":"静安区南京西路1038号梅龙镇广场4楼(近江宁路)"},{"poiid":"B2094757D06FA1FA4093","title":"伊秀寿司","lon":"121.45877773","lat":"31.229138276","category":"247","category_name":"餐饮美食","address":"上海市静安区吴江路"},{"poiid":"B2094757D06FA2F5409F","title":"弄堂小馄饨","lon":"121.45834","lat":"31.22876","category":"68","category_name":"快餐厅","address":"静安区南京西路1025弄静安别墅107号(近茂名北路)"},{"poiid":"B2094757D66BA3F4489F","title":"燕庭","lon":"121.457583","lat":"31.2290992","category":"72","category_name":"广东菜","address":"静安区南汇路10弄15号(近南京西路)"},{"poiid":"B2094757DA64AAFD4993","title":"梅陇镇伊势丹商场(Westgate Tower)","lon":"121.456645","lat":"31.229242","category":"252","category_name":"楼宇机构","address":"南京西路1038号"},{"poiid":"B2094654DA6CA1F5499F","title":"河河亭铁板烧日本料理(南京西路)","lon":"121.45678","lat":"31.22907","category":"269","category_name":"烧烤","address":"静安区南京西路1038号梅龙镇广场5楼(近江宁路)"},{"poiid":"B2094757D069A2FC439B","title":"稻•绿洲泰国时尚餐厅","lon":"121.45864873","lat":"31.228559264","category":"99","category_name":"泰国／越南菜品餐厅","address":"上海市静安区茂名北路吴江路269号皇普汇1楼"},{"poiid":"B2094654DB69A0FA499E","title":"凯司令西餐馆","lon":"121.45799135349","lat":"31.228824346383","category":"247","category_name":"餐饮美食","address":"静安区南京西路1001号3楼(近江宁路)"},{"poiid":"B2094654DB6AA2FC459D","title":"一茶一坐(南京西路店)","lon":"121.458","lat":"31.22918","category":"260","category_name":"其他","address":"静安区南京西路996号2楼(近南汇路)"},{"poiid":"B2094757D06AA1FB429D","title":"上海少年儿童图书馆","lon":"121.458372567","lat":"31.2296641258","category":"181","category_name":"图书馆","address":"静安区南京西路962号(近茂名北路)"},{"poiid":"B2094757D065A2FF479A","title":"美国领事馆签证处","lon":"121.456695138","lat":"31.2288976717","category":"252","category_name":"楼宇机构","address":"静安区南京西路1038号梅龙镇广场8楼(近江宁路)"},{"poiid":"B2094757DB6FA1FF429A","title":"鲜芋仙(四季坊店)","lon":"121.4586149423584","lat":"31.229132465841996","category":"67","category_name":"甜品店","address":"静安区吴江路269号湟普汇1楼(近茂名北路)"},{"poiid":"B2094654DA6CA1F5489F","title":"异人馆","lon":"121.456538054","lat":"31.228397793","category":"95","category_name":"日本料理","address":"静安区南京西路1038号梅龙镇广场7楼(近江宁路)"},{"poiid":"B2094757D06FA0FE4599","title":"寿司处武贞(梅龙镇店)","lon":"121.45699","lat":"31.22835","category":"95","category_name":"日本料理","address":"上海静安区南京西路1038号梅龙镇广场B1楼  "},{"poiid":"B2094654DB6AA7F54993","title":"赛百味 吴江路店 Subway","lon":"121.459811054","lat":"31.229479793","category":"94","category_name":"西餐厅","address":"吴江路269号湟普汇1A101单元近茂名路"},{"poiid":"B2094757D56DAAF44398","title":"代官山吴江路店","lon":"121.458543738","lat":"31.2291892779","category":"96","category_name":"韩国料理","address":"上海吴江路湟普汇"},{"poiid":"B2094757D469A2FD419F","title":"肯德基 吴江路店 KFC","lon":"121.458911054","lat":"31.229248793","category":"68","category_name":"快餐厅","address":"静安区吴江路269号经典茂名商城2楼(近茂名北路)"},{"poiid":"B2094757D068A6FA4398","title":"银亭 Gintei  teppanyaki","lon":"121.4580654395","lat":"31.230427698102","category":"95","category_name":"日本料理","address":"静安区南汇路75号(近北京西路)"},{"poiid":"B2094750D664A4F54792","title":"徐家庄千岛湖鱼头王","lon":"121.457","lat":"31.2298","category":"76","category_name":"上海菜","address":"静安区南汇路52号(近梅龙镇广场)"},{"poiid":"B2094655D26BA3FE439E","title":"汉堡王 梅龙镇店 Burger King","lon":"121.456526054","lat":"31.228408793","category":"68","category_name":"快餐厅","address":"静安区南京西路1038号梅龙镇广场B1楼(近江宁路)"},{"poiid":"B2094757D06AABFB419E","title":"SPICE HAIR","lon":"121.45744","lat":"31.2292","category":"500","category_name":"未知分类","address":"上海静安区南京西路1038号梅陇镇伊势丹4楼  "},{"poiid":"B2094757DA68A0FB409A","title":"CHOCOOLATE（南京西路旗舰店）","lon":"121.458075866103","lat":"31.2290917247828","category":"255","category_name":"专卖店","address":"上海市静安区南京西路1009-1021号2-3层"},{"poiid":"B2094757D06BA3F54492","title":"Godiva(梅龙镇广场店)","lon":"121.45701","lat":"31.22834","category":"67","category_name":"甜品店","address":"静安区南京西路1038号梅龙镇广场1楼3号商铺(近江宁路)"},{"poiid":"B2094757D465ABF8499B","title":"勝圆日本料理","lon":"121.456502","lat":"31.229761","category":"247","category_name":"餐饮美食","address":"静安区奉贤路286号(近江宁路)"},{"poiid":"B2094751D56CA3FD469B","title":"COSTA COFFEE(环艺影城店)","lon":"121.45669","lat":"31.22864","category":"65","category_name":"咖啡厅","address":"静安区南京西路1038号梅龙镇广场10楼B区(近江宁路)"},{"poiid":"B2094757D464ABF8479A","title":"长寿面","lon":"121.45771","lat":"31.22886","category":"68","category_name":"快餐厅","address":"静安区北京西路1278号(近西康路)"},{"poiid":"B2094757D66BA3FA4792","title":"老树茶舍","lon":"121.4577234","lat":"31.2288506","category":"66","category_name":"茶艺馆","address":"南京西路1025弄83号近南汇路"},{"poiid":"B2094655D26AA1FE4498","title":"王磊形象公社梅龙镇2店","lon":"121.45672","lat":"31.22862","category":"247","category_name":"餐饮美食","address":"静安区南京西路1038号梅龙镇广场801座(近江宁路)"},{"poiid":"B2094750D364A3FB449F","title":"枣子树（江宁店）","lon":"121.45681012159","lat":"31.229761827581","category":"95","category_name":"日本料理","address":"奉贤路258号(美琪大戏院旁)"},{"poiid":"B2094750D268A1FB449F","title":"豪廚粵菜吴江店","lon":"121.458778","lat":"31.229549","category":"247","category_name":"餐饮美食","address":"静安区吴江路269号湟普汇306号"},{"poiid":"B2094757D06FA1F5409F","title":"大食代(梅龙镇店)","lon":"121.4574","lat":"31.22901","category":"68","category_name":"快餐厅","address":"上海静安区南京西路1038号梅龙镇广场B1楼(近江宁路)  "},{"poiid":"B2094757D06FABFF439B","title":"葡吉 南京西路店 PUCCI Bakery","lon":"121.456538054","lat":"31.228397793","category":"112","category_name":"糕饼店","address":"静安区南京西路1038号梅龙镇广场3楼(近江宁路)"},{"poiid":"B2094757D06EAAF84199","title":"梅龙镇伊势丹广场","lon":"121.45681952","lat":"31.228880108","category":"119","category_name":"商场","address":"上海静安区南京西路1038号梅龙镇广场(近江宁路)"},{"poiid":"B2094757D06EAAF94192","title":"伊秀手握寿司(吴江路店)","lon":"121.45843146","lat":"31.229081993","category":"95","category_name":"日本料理","address":"静安区吴江路269号湟普汇3楼304-305单元(泰兴路吴江路)"},{"poiid":"B2094654DA6CA1F54793","title":"环艺电影城","lon":"121.45679","lat":"31.22907","category":"178","category_name":"电影院","address":"上海市静安区南京西路1038号梅龙镇广场10楼"},{"poiid":"B2094753D76FAAFA449C","title":"上海滩国泰旗舰店","lon":"121.466011","lat":"31.216125","category":"249","category_name":"购物服务","address":"淮海中路868号"},{"poiid":"B209475CD564A7F84292","title":"上海滩新天地店","lon":"121.47463","lat":"31.22164","category":"119","category_name":"商场","address":"\"太仓路181弄新天地北里15号\r\n\""},{"poiid":"B209475CD564A7F8439E","title":"上海滩中信泰富店","lon":"121.45602","lat":"31.22851","category":"119","category_name":"商场","address":"\"南京西路1168号中信泰富广场，店铺号221.\r\n\""},{"poiid":"B2094757D06FA3FC4698","title":"枣子树(江宁店)","lon":"121.456622771","lat":"31.2296432097","category":"89","category_name":"中式素餐馆","address":"静安区奉贤路258号(美琪剧院旁)"},{"poiid":"B2094757D06EAAFE419A","title":"优衣库(南京西路店)","lon":"121.458728","lat":"31.229372","category":"141","category_name":"服装鞋帽皮具店","address":"上海市静安区南京西路969号（地铁2号线南京西路站1、4号出口）"},{"poiid":"B2094654DB6BA6F54392","title":"梅龙镇商厦(南汇路)","lon":"121.45703","lat":"31.22942","category":"46","category_name":"楼宇","address":"南京西路1038号"},{"poiid":"B2094655D268A3FB4898","title":"麻辣诱惑 梅龙镇广场店 Spice Spirit","lon":"121.456538054","lat":"31.228397793","category":"71","category_name":"四川菜","address":"静安区南京西路1038号梅龙镇广场7楼(近江宁路)"},{"poiid":"B2094757D06FA1F44193","title":"翡翠酒家 梅龙镇店 Crystal Jade","lon":"121.45665764809","lat":"31.228605488824","category":"72","category_name":"广东菜","address":"静安区南京西路1038号梅龙镇广场7楼(近江宁路)"},{"poiid":"B2094757D16CA3F94793","title":"卡乐星","lon":"121.458848738","lat":"31.2292552793","category":"94","category_name":"西餐厅","address":"静安区吴江路169号四季坊150单元(近泰兴路)"},{"poiid":"B2094757D06FA3F44898","title":"甜蜜蜜(南京西路店)","lon":"121.45788","lat":"31.22816","category":"67","category_name":"甜品店","address":"静安区南京西路1001号凯司令2楼(梅龙镇广场斜对面)"},{"poiid":"B2094757D06FA5FF4792","title":"美国驻上海总领事馆(Consulate General of the United States in Shanghai)","lon":"121.45674315","lat":"31.228797151","category":"46","category_name":"楼宇","address":"上海徐汇区淮海中路1469号(近乌鲁木齐南路)"},{"poiid":"B2094752DB69AAF94292","title":"澳门肥仔文猪骨煲","lon":"121.456581","lat":"31.230287","category":"247","category_name":"餐饮美食","address":"上海市 上海市南汇路77号"},{"poiid":"B2094757D06FA6F44693","title":"哈根达斯(梅龙镇店)","lon":"121.45737","lat":"31.22847","category":"113","category_name":"冷饮店","address":"静安区南京西路1038号梅龙镇广场1楼109C-D(近江宁路)"},{"poiid":"B2094757D06BA1F84692","title":"美国驻上海大使馆签证中心","lon":"121.457179","lat":"31.229477","category":"500","category_name":"未知分类","address":"上海市南京西路梅陇镇广场"},{"poiid":"B2094757D06FA6F9489C","title":"代官山(南京西路店)","lon":"121.45798903","lat":"31.228981173","category":"260","category_name":"其他","address":"静安区吴江路269号湟普汇208单元(近吴江路南京西路)"},{"poiid":"B2094757D06FA0F84298","title":"圆苑酒家(梅陇镇店)","lon":"121.45652866","lat":"31.229180824","category":"75","category_name":"浙江菜","address":"静安区南京西路1038号梅龙镇广场4楼(近江宁路)"},{"poiid":"B2094757D06FA1FA4093","title":"伊秀寿司","lon":"121.45877773","lat":"31.229138276","category":"247","category_name":"餐饮美食","address":"上海市静安区吴江路"},{"poiid":"B2094757D06FA2F5409F","title":"弄堂小馄饨","lon":"121.45834","lat":"31.22876","category":"68","category_name":"快餐厅","address":"静安区南京西路1025弄静安别墅107号(近茂名北路)"},{"poiid":"B2094757D66BA3F4489F","title":"燕庭","lon":"121.457583","lat":"31.2290992","category":"72","category_name":"广东菜","address":"静安区南汇路10弄15号(近南京西路)"},{"poiid":"B2094757DA64AAFD4993","title":"梅陇镇伊势丹商场(Westgate Tower)","lon":"121.456645","lat":"31.229242","category":"252","category_name":"楼宇机构","address":"南京西路1038号"},{"poiid":"B2094654DA6CA1F5499F","title":"河河亭铁板烧日本料理(南京西路)","lon":"121.45678","lat":"31.22907","category":"269","category_name":"烧烤","address":"静安区南京西路1038号梅龙镇广场5楼(近江宁路)"},{"poiid":"B2094757D069A2FC439B","title":"稻•绿洲泰国时尚餐厅","lon":"121.45864873","lat":"31.228559264","category":"99","category_name":"泰国／越南菜品餐厅","address":"上海市静安区茂名北路吴江路269号皇普汇1楼"},{"poiid":"B2094654DB69A0FA499E","title":"凯司令西餐馆","lon":"121.45799135349","lat":"31.228824346383","category":"247","category_name":"餐饮美食","address":"静安区南京西路1001号3楼(近江宁路)"},{"poiid":"B2094654DB6AA2FC459D","title":"一茶一坐(南京西路店)","lon":"121.458","lat":"31.22918","category":"260","category_name":"其他","address":"静安区南京西路996号2楼(近南汇路)"},{"poiid":"B2094757D06AA1FB429D","title":"上海少年儿童图书馆","lon":"121.458372567","lat":"31.2296641258","category":"181","category_name":"图书馆","address":"静安区南京西路962号(近茂名北路)"},{"poiid":"B2094757D065A2FF479A","title":"美国领事馆签证处","lon":"121.456695138","lat":"31.2288976717","category":"252","category_name":"楼宇机构","address":"静安区南京西路1038号梅龙镇广场8楼(近江宁路)"},{"poiid":"B2094757DB6FA1FF429A","title":"鲜芋仙(四季坊店)","lon":"121.4586149423584","lat":"31.229132465841996","category":"67","category_name":"甜品店","address":"静安区吴江路269号湟普汇1楼(近茂名北路)"},{"poiid":"B2094654DA6CA1F5489F","title":"异人馆","lon":"121.456538054","lat":"31.228397793","category":"95","category_name":"日本料理","address":"静安区南京西路1038号梅龙镇广场7楼(近江宁路)"},{"poiid":"B2094757D06FA0FE4599","title":"寿司处武贞(梅龙镇店)","lon":"121.45699","lat":"31.22835","category":"95","category_name":"日本料理","address":"上海静安区南京西路1038号梅龙镇广场B1楼  "},{"poiid":"B2094654DB6AA7F54993","title":"赛百味 吴江路店 Subway","lon":"121.459811054","lat":"31.229479793","category":"94","category_name":"西餐厅","address":"吴江路269号湟普汇1A101单元近茂名路"},{"poiid":"B2094757D56DAAF44398","title":"代官山吴江路店","lon":"121.458543738","lat":"31.2291892779","category":"96","category_name":"韩国料理","address":"上海吴江路湟普汇"},{"poiid":"B2094757D469A2FD419F","title":"肯德基 吴江路店 KFC","lon":"121.458911054","lat":"31.229248793","category":"68","category_name":"快餐厅","address":"静安区吴江路269号经典茂名商城2楼(近茂名北路)"},{"poiid":"B2094757D068A6FA4398","title":"银亭 Gintei  teppanyaki","lon":"121.4580654395","lat":"31.230427698102","category":"95","category_name":"日本料理","address":"静安区南汇路75号(近北京西路)"},{"poiid":"B2094750D664A4F54792","title":"徐家庄千岛湖鱼头王","lon":"121.457","lat":"31.2298","category":"76","category_name":"上海菜","address":"静安区南汇路52号(近梅龙镇广场)"},{"poiid":"B2094655D26BA3FE439E","title":"汉堡王 梅龙镇店 Burger King","lon":"121.456526054","lat":"31.228408793","category":"68","category_name":"快餐厅","address":"静安区南京西路1038号梅龙镇广场B1楼(近江宁路)"},{"poiid":"B2094757D06AABFB419E","title":"SPICE HAIR","lon":"121.45744","lat":"31.2292","category":"500","category_name":"未知分类","address":"上海静安区南京西路1038号梅陇镇伊势丹4楼  "},{"poiid":"B2094757DA68A0FB409A","title":"CHOCOOLATE（南京西路旗舰店）","lon":"121.458075866103","lat":"31.2290917247828","category":"255","category_name":"专卖店","address":"上海市静安区南京西路1009-1021号2-3层"},{"poiid":"B2094757D06BA3F54492","title":"Godiva(梅龙镇广场店)","lon":"121.45701","lat":"31.22834","category":"67","category_name":"甜品店","address":"静安区南京西路1038号梅龙镇广场1楼3号商铺(近江宁路)"},{"poiid":"B2094757D465ABF8499B","title":"勝圆日本料理","lon":"121.456502","lat":"31.229761","category":"247","category_name":"餐饮美食","address":"静安区奉贤路286号(近江宁路)"},{"poiid":"B2094751D56CA3FD469B","title":"COSTA COFFEE(环艺影城店)","lon":"121.45669","lat":"31.22864","category":"65","category_name":"咖啡厅","address":"静安区南京西路1038号梅龙镇广场10楼B区(近江宁路)"},{"poiid":"B2094757D464ABF8479A","title":"长寿面","lon":"121.45771","lat":"31.22886","category":"68","category_name":"快餐厅","address":"静安区北京西路1278号(近西康路)"},{"poiid":"B2094757D66BA3FA4792","title":"老树茶舍","lon":"121.4577234","lat":"31.2288506","category":"66","category_name":"茶艺馆","address":"南京西路1025弄83号近南汇路"},{"poiid":"B2094655D26AA1FE4498","title":"王磊形象公社梅龙镇2店","lon":"121.45672","lat":"31.22862","category":"247","category_name":"餐饮美食","address":"静安区南京西路1038号梅龙镇广场801座(近江宁路)"},{"poiid":"B2094750D364A3FB449F","title":"枣子树（江宁店）","lon":"121.45681012159","lat":"31.229761827581","category":"95","category_name":"日本料理","address":"奉贤路258号(美琪大戏院旁)"},{"poiid":"B2094750D268A1FB449F","title":"豪廚粵菜吴江店","lon":"121.458778","lat":"31.229549","category":"247","category_name":"餐饮美食","address":"静安区吴江路269号湟普汇306号"},{"poiid":"B2094757D06FA1F5409F","title":"大食代(梅龙镇店)","lon":"121.4574","lat":"31.22901","category":"68","category_name":"快餐厅","address":"上海静安区南京西路1038号梅龙镇广场B1楼(近江宁路)  "},{"poiid":"B2094757D06FABFF439B","title":"葡吉 南京西路店 PUCCI Bakery","lon":"121.456538054","lat":"31.228397793","category":"112","category_name":"糕饼店","address":"静安区南京西路1038号梅龙镇广场3楼(近江宁路)"},{"poiid":"B2094757D06EAAF84199","title":"梅龙镇伊势丹广场","lon":"121.45681952","lat":"31.228880108","category":"119","category_name":"商场","address":"上海静安区南京西路1038号梅龙镇广场(近江宁路)"},{"poiid":"B2094757D06EAAF94192","title":"伊秀手握寿司(吴江路店)","lon":"121.45843146","lat":"31.229081993","category":"95","category_name":"日本料理","address":"静安区吴江路269号湟普汇3楼304-305单元(泰兴路吴江路)"},{"poiid":"B2094654DA6CA1F54793","title":"环艺电影城","lon":"121.45679","lat":"31.22907","category":"178","category_name":"电影院","address":"上海市静安区南京西路1038号梅龙镇广场10楼"},{"poiid":"B2094753D76FAAFA449C","title":"上海滩国泰旗舰店","lon":"121.466011","lat":"31.216125","category":"249","category_name":"购物服务","address":"淮海中路868号"},{"poiid":"B209475CD564A7F84292","title":"上海滩新天地店","lon":"121.47463","lat":"31.22164","category":"119","category_name":"商场","address":"\"太仓路181弄新天地北里15号\r\n\""},{"poiid":"B209475CD564A7F8439E","title":"上海滩中信泰富店","lon":"121.45602","lat":"31.22851","category":"119","category_name":"商场","address":"\"南京西路1168号中信泰富广场，店铺号221.\r\n\""},{"poiid":"B2094757D06FA3FC4698","title":"枣子树(江宁店)","lon":"121.456622771","lat":"31.2296432097","category":"89","category_name":"中式素餐馆","address":"静安区奉贤路258号(美琪剧院旁)"},{"poiid":"B2094757D06EAAFE419A","title":"优衣库(南京西路店)","lon":"121.458728","lat":"31.229372","category":"141","category_name":"服装鞋帽皮具店","address":"上海市静安区南京西路969号（地铁2号线南京西路站1、4号出口）"},{"poiid":"B2094654DB6BA6F54392","title":"梅龙镇商厦(南汇路)","lon":"121.45703","lat":"31.22942","category":"46","category_name":"楼宇","address":"南京西路1038号"},{"poiid":"B2094655D268A3FB4898","title":"麻辣诱惑 梅龙镇广场店 Spice Spirit","lon":"121.456538054","lat":"31.228397793","category":"71","category_name":"四川菜","address":"静安区南京西路1038号梅龙镇广场7楼(近江宁路)"},{"poiid":"B2094757D06FA1F44193","title":"翡翠酒家 梅龙镇店 Crystal Jade","lon":"121.45665764809","lat":"31.228605488824","category":"72","category_name":"广东菜","address":"静安区南京西路1038号梅龙镇广场7楼(近江宁路)"},{"poiid":"B2094757D16CA3F94793","title":"卡乐星","lon":"121.458848738","lat":"31.2292552793","category":"94","category_name":"西餐厅","address":"静安区吴江路169号四季坊150单元(近泰兴路)"},{"poiid":"B2094757D06FA3F44898","title":"甜蜜蜜(南京西路店)","lon":"121.45788","lat":"31.22816","category":"67","category_name":"甜品店","address":"静安区南京西路1001号凯司令2楼(梅龙镇广场斜对面)"},{"poiid":"B2094757D06FA5FF4792","title":"美国驻上海总领事馆(Consulate General of the United States in Shanghai)","lon":"121.45674315","lat":"31.228797151","category":"46","category_name":"楼宇","address":"上海徐汇区淮海中路1469号(近乌鲁木齐南路)"},{"poiid":"B2094752DB69AAF94292","title":"澳门肥仔文猪骨煲","lon":"121.456581","lat":"31.230287","category":"247","category_name":"餐饮美食","address":"上海市 上海市南汇路77号"},{"poiid":"B2094757D06FA6F44693","title":"哈根达斯(梅龙镇店)","lon":"121.45737","lat":"31.22847","category":"113","category_name":"冷饮店","address":"静安区南京西路1038号梅龙镇广场1楼109C-D(近江宁路)"},{"poiid":"B2094757D06BA1F84692","title":"美国驻上海大使馆签证中心","lon":"121.457179","lat":"31.229477","category":"500","category_name":"未知分类","address":"上海市南京西路梅陇镇广场"},{"poiid":"B2094757D06FA6F9489C","title":"代官山(南京西路店)","lon":"121.45798903","lat":"31.228981173","category":"260","category_name":"其他","address":"静安区吴江路269号湟普汇208单元(近吴江路南京西路)"},{"poiid":"B2094757D06FA0F84298","title":"圆苑酒家(梅陇镇店)","lon":"121.45652866","lat":"31.229180824","category":"75","category_name":"浙江菜","address":"静安区南京西路1038号梅龙镇广场4楼(近江宁路)"},{"poiid":"B2094757D06FA1FA4093","title":"伊秀寿司","lon":"121.45877773","lat":"31.229138276","category":"247","category_name":"餐饮美食","address":"上海市静安区吴江路"},{"poiid":"B2094757D06FA2F5409F","title":"弄堂小馄饨","lon":"121.45834","lat":"31.22876","category":"68","category_name":"快餐厅","address":"静安区南京西路1025弄静安别墅107号(近茂名北路)"},{"poiid":"B2094757D66BA3F4489F","title":"燕庭","lon":"121.457583","lat":"31.2290992","category":"72","category_name":"广东菜","address":"静安区南汇路10弄15号(近南京西路)"},{"poiid":"B2094757DA64AAFD4993","title":"梅陇镇伊势丹商场(Westgate Tower)","lon":"121.456645","lat":"31.229242","category":"252","category_name":"楼宇机构","address":"南京西路1038号"},{"poiid":"B2094654DA6CA1F5499F","title":"河河亭铁板烧日本料理(南京西路)","lon":"121.45678","lat":"31.22907","category":"269","category_name":"烧烤","address":"静安区南京西路1038号梅龙镇广场5楼(近江宁路)"},{"poiid":"B2094757D069A2FC439B","title":"稻•绿洲泰国时尚餐厅","lon":"121.45864873","lat":"31.228559264","category":"99","category_name":"泰国／越南菜品餐厅","address":"上海市静安区茂名北路吴江路269号皇普汇1楼"},{"poiid":"B2094654DB69A0FA499E","title":"凯司令西餐馆","lon":"121.45799135349","lat":"31.228824346383","category":"247","category_name":"餐饮美食","address":"静安区南京西路1001号3楼(近江宁路)"},{"poiid":"B2094654DB6AA2FC459D","title":"一茶一坐(南京西路店)","lon":"121.458","lat":"31.22918","category":"260","category_name":"其他","address":"静安区南京西路996号2楼(近南汇路)"},{"poiid":"B2094757D06AA1FB429D","title":"上海少年儿童图书馆","lon":"121.458372567","lat":"31.2296641258","category":"181","category_name":"图书馆","address":"静安区南京西路962号(近茂名北路)"},{"poiid":"B2094757D065A2FF479A","title":"美国领事馆签证处","lon":"121.456695138","lat":"31.2288976717","category":"252","category_name":"楼宇机构","address":"静安区南京西路1038号梅龙镇广场8楼(近江宁路)"},{"poiid":"B2094757DB6FA1FF429A","title":"鲜芋仙(四季坊店)","lon":"121.4586149423584","lat":"31.229132465841996","category":"67","category_name":"甜品店","address":"静安区吴江路269号湟普汇1楼(近茂名北路)"},{"poiid":"B2094654DA6CA1F5489F","title":"异人馆","lon":"121.456538054","lat":"31.228397793","category":"95","category_name":"日本料理","address":"静安区南京西路1038号梅龙镇广场7楼(近江宁路)"},{"poiid":"B2094757D06FA0FE4599","title":"寿司处武贞(梅龙镇店)","lon":"121.45699","lat":"31.22835","category":"95","category_name":"日本料理","address":"上海静安区南京西路1038号梅龙镇广场B1楼  "},{"poiid":"B2094654DB6AA7F54993","title":"赛百味 吴江路店 Subway","lon":"121.459811054","lat":"31.229479793","category":"94","category_name":"西餐厅","address":"吴江路269号湟普汇1A101单元近茂名路"},{"poiid":"B2094757D56DAAF44398","title":"代官山吴江路店","lon":"121.458543738","lat":"31.2291892779","category":"96","category_name":"韩国料理","address":"上海吴江路湟普汇"},{"poiid":"B2094757D469A2FD419F","title":"肯德基 吴江路店 KFC","lon":"121.458911054","lat":"31.229248793","category":"68","category_name":"快餐厅","address":"静安区吴江路269号经典茂名商城2楼(近茂名北路)"},{"poiid":"B2094757D068A6FA4398","title":"银亭 Gintei  teppanyaki","lon":"121.4580654395","lat":"31.230427698102","category":"95","category_name":"日本料理","address":"静安区南汇路75号(近北京西路)"},{"poiid":"B2094750D664A4F54792","title":"徐家庄千岛湖鱼头王","lon":"121.457","lat":"31.2298","category":"76","category_name":"上海菜","address":"静安区南汇路52号(近梅龙镇广场)"},{"poiid":"B2094655D26BA3FE439E","title":"汉堡王 梅龙镇店 Burger King","lon":"121.456526054","lat":"31.228408793","category":"68","category_name":"快餐厅","address":"静安区南京西路1038号梅龙镇广场B1楼(近江宁路)"},{"poiid":"B2094757D06AABFB419E","title":"SPICE HAIR","lon":"121.45744","lat":"31.2292","category":"500","category_name":"未知分类","address":"上海静安区南京西路1038号梅陇镇伊势丹4楼  "},{"poiid":"B2094757DA68A0FB409A","title":"CHOCOOLATE（南京西路旗舰店）","lon":"121.458075866103","lat":"31.2290917247828","category":"255","category_name":"专卖店","address":"上海市静安区南京西路1009-1021号2-3层"},{"poiid":"B2094757D06BA3F54492","title":"Godiva(梅龙镇广场店)","lon":"121.45701","lat":"31.22834","category":"67","category_name":"甜品店","address":"静安区南京西路1038号梅龙镇广场1楼3号商铺(近江宁路)"},{"poiid":"B2094757D465ABF8499B","title":"勝圆日本料理","lon":"121.456502","lat":"31.229761","category":"247","category_name":"餐饮美食","address":"静安区奉贤路286号(近江宁路)"},{"poiid":"B2094751D56CA3FD469B","title":"COSTA COFFEE(环艺影城店)","lon":"121.45669","lat":"31.22864","category":"65","category_name":"咖啡厅","address":"静安区南京西路1038号梅龙镇广场10楼B区(近江宁路)"},{"poiid":"B2094757D464ABF8479A","title":"长寿面","lon":"121.45771","lat":"31.22886","category":"68","category_name":"快餐厅","address":"静安区北京西路1278号(近西康路)"},{"poiid":"B2094757D66BA3FA4792","title":"老树茶舍","lon":"121.4577234","lat":"31.2288506","category":"66","category_name":"茶艺馆","address":"南京西路1025弄83号近南汇路"},{"poiid":"B2094655D26AA1FE4498","title":"王磊形象公社梅龙镇2店","lon":"121.45672","lat":"31.22862","category":"247","category_name":"餐饮美食","address":"静安区南京西路1038号梅龙镇广场801座(近江宁路)"},{"poiid":"B2094750D364A3FB449F","title":"枣子树（江宁店）","lon":"121.45681012159","lat":"31.229761827581","category":"95","category_name":"日本料理","address":"奉贤路258号(美琪大戏院旁)"},{"poiid":"B2094750D268A1FB449F","title":"豪廚粵菜吴江店","lon":"121.458778","lat":"31.229549","category":"247","category_name":"餐饮美食","address":"静安区吴江路269号湟普汇306号"},{"poiid":"B2094757D06FA1F5409F","title":"大食代(梅龙镇店)","lon":"121.4574","lat":"31.22901","category":"68","category_name":"快餐厅","address":"上海静安区南京西路1038号梅龙镇广场B1楼(近江宁路)  "},{"poiid":"B2094757D06FABFF439B","title":"葡吉 南京西路店 PUCCI Bakery","lon":"121.456538054","lat":"31.228397793","category":"112","category_name":"糕饼店","address":"静安区南京西路1038号梅龙镇广场3楼(近江宁路)"},{"poiid":"B2094757D06EAAF84199","title":"梅龙镇伊势丹广场","lon":"121.45681952","lat":"31.228880108","category":"119","category_name":"商场","address":"上海静安区南京西路1038号梅龙镇广场(近江宁路)"},{"poiid":"B2094757D06EAAF94192","title":"伊秀手握寿司(吴江路店)","lon":"121.45843146","lat":"31.229081993","category":"95","category_name":"日本料理","address":"静安区吴江路269号湟普汇3楼304-305单元(泰兴路吴江路)"},{"poiid":"B2094654DA6CA1F54793","title":"环艺电影城","lon":"121.45679","lat":"31.22907","category":"178","category_name":"电影院","address":"上海市静安区南京西路1038号梅龙镇广场10楼"},{"poiid":"B2094753D76FAAFA449C","title":"上海滩国泰旗舰店","lon":"121.466011","lat":"31.216125","category":"249","category_name":"购物服务","address":"淮海中路868号"},{"poiid":"B209475CD564A7F84292","title":"上海滩新天地店","lon":"121.47463","lat":"31.22164","category":"119","category_name":"商场","address":"\"太仓路181弄新天地北里15号\r\n\""},{"poiid":"B209475CD564A7F8439E","title":"上海滩中信泰富店","lon":"121.45602","lat":"31.22851","category":"119","category_name":"商场","address":"\"南京西路1168号中信泰富广场，店铺号221.\r\n\""},{"poiid":"B2094757D06FA3FC4698","title":"枣子树(江宁店)","lon":"121.456622771","lat":"31.2296432097","category":"89","category_name":"中式素餐馆","address":"静安区奉贤路258号(美琪剧院旁)"},{"poiid":"B2094757D06EAAFE419A","title":"优衣库(南京西路店)","lon":"121.458728","lat":"31.229372","category":"141","category_name":"服装鞋帽皮具店","address":"上海市静安区南京西路969号（地铁2号线南京西路站1、4号出口）"},{"poiid":"B2094654DB6BA6F54392","title":"梅龙镇商厦(南汇路)","lon":"121.45703","lat":"31.22942","category":"46","category_name":"楼宇","address":"南京西路1038号"},{"poiid":"B2094655D268A3FB4898","title":"麻辣诱惑 梅龙镇广场店 Spice Spirit","lon":"121.456538054","lat":"31.228397793","category":"71","category_name":"四川菜","address":"静安区南京西路1038号梅龙镇广场7楼(近江宁路)"},{"poiid":"B2094757D06FA1F44193","title":"翡翠酒家 梅龙镇店 Crystal Jade","lon":"121.45665764809","lat":"31.228605488824","category":"72","category_name":"广东菜","address":"静安区南京西路1038号梅龙镇广场7楼(近江宁路)"},{"poiid":"B2094757D16CA3F94793","title":"卡乐星","lon":"121.458848738","lat":"31.2292552793","category":"94","category_name":"西餐厅","address":"静安区吴江路169号四季坊150单元(近泰兴路)"},{"poiid":"B2094757D06FA3F44898","title":"甜蜜蜜(南京西路店)","lon":"121.45788","lat":"31.22816","category":"67","category_name":"甜品店","address":"静安区南京西路1001号凯司令2楼(梅龙镇广场斜对面)"},{"poiid":"B2094757D06FA5FF4792","title":"美国驻上海总领事馆(Consulate General of the United States in Shanghai)","lon":"121.45674315","lat":"31.228797151","category":"46","category_name":"楼宇","address":"上海徐汇区淮海中路1469号(近乌鲁木齐南路)"},{"poiid":"B2094752DB69AAF94292","title":"澳门肥仔文猪骨煲","lon":"121.456581","lat":"31.230287","category":"247","category_name":"餐饮美食","address":"上海市 上海市南汇路77号"},{"poiid":"B2094757D06FA6F44693","title":"哈根达斯(梅龙镇店)","lon":"121.45737","lat":"31.22847","category":"113","category_name":"冷饮店","address":"静安区南京西路1038号梅龙镇广场1楼109C-D(近江宁路)"},{"poiid":"B2094757D06BA1F84692","title":"美国驻上海大使馆签证中心","lon":"121.457179","lat":"31.229477","category":"500","category_name":"未知分类","address":"上海市南京西路梅陇镇广场"},{"poiid":"B2094757D06FA6F9489C","title":"代官山(南京西路店)","lon":"121.45798903","lat":"31.228981173","category":"260","category_name":"其他","address":"静安区吴江路269号湟普汇208单元(近吴江路南京西路)"},{"poiid":"B2094757D06FA0F84298","title":"圆苑酒家(梅陇镇店)","lon":"121.45652866","lat":"31.229180824","category":"75","category_name":"浙江菜","address":"静安区南京西路1038号梅龙镇广场4楼(近江宁路)"},{"poiid":"B2094757D06FA1FA4093","title":"伊秀寿司","lon":"121.45877773","lat":"31.229138276","category":"247","category_name":"餐饮美食","address":"上海市静安区吴江路"},{"poiid":"B2094757D06FA2F5409F","title":"弄堂小馄饨","lon":"121.45834","lat":"31.22876","category":"68","category_name":"快餐厅","address":"静安区南京西路1025弄静安别墅107号(近茂名北路)"},{"poiid":"B2094757D66BA3F4489F","title":"燕庭","lon":"121.457583","lat":"31.2290992","category":"72","category_name":"广东菜","address":"静安区南汇路10弄15号(近南京西路)"},{"poiid":"B2094757DA64AAFD4993","title":"梅陇镇伊势丹商场(Westgate Tower)","lon":"121.456645","lat":"31.229242","category":"252","category_name":"楼宇机构","address":"南京西路1038号"},{"poiid":"B2094654DA6CA1F5499F","title":"河河亭铁板烧日本料理(南京西路)","lon":"121.45678","lat":"31.22907","category":"269","category_name":"烧烤","address":"静安区南京西路1038号梅龙镇广场5楼(近江宁路)"},{"poiid":"B2094757D069A2FC439B","title":"稻•绿洲泰国时尚餐厅","lon":"121.45864873","lat":"31.228559264","category":"99","category_name":"泰国／越南菜品餐厅","address":"上海市静安区茂名北路吴江路269号皇普汇1楼"},{"poiid":"B2094654DB69A0FA499E","title":"凯司令西餐馆","lon":"121.45799135349","lat":"31.228824346383","category":"247","category_name":"餐饮美食","address":"静安区南京西路1001号3楼(近江宁路)"},{"poiid":"B2094654DB6AA2FC459D","title":"一茶一坐(南京西路店)","lon":"121.458","lat":"31.22918","category":"260","category_name":"其他","address":"静安区南京西路996号2楼(近南汇路)"},{"poiid":"B2094757D06AA1FB429D","title":"上海少年儿童图书馆","lon":"121.458372567","lat":"31.2296641258","category":"181","category_name":"图书馆","address":"静安区南京西路962号(近茂名北路)"},{"poiid":"B2094757D065A2FF479A","title":"美国领事馆签证处","lon":"121.456695138","lat":"31.2288976717","category":"252","category_name":"楼宇机构","address":"静安区南京西路1038号梅龙镇广场8楼(近江宁路)"},{"poiid":"B2094757DB6FA1FF429A","title":"鲜芋仙(四季坊店)","lon":"121.4586149423584","lat":"31.229132465841996","category":"67","category_name":"甜品店","address":"静安区吴江路269号湟普汇1楼(近茂名北路)"},{"poiid":"B2094654DA6CA1F5489F","title":"异人馆","lon":"121.456538054","lat":"31.228397793","category":"95","category_name":"日本料理","address":"静安区南京西路1038号梅龙镇广场7楼(近江宁路)"},{"poiid":"B2094757D06FA0FE4599","title":"寿司处武贞(梅龙镇店)","lon":"121.45699","lat":"31.22835","category":"95","category_name":"日本料理","address":"上海静安区南京西路1038号梅龙镇广场B1楼  "},{"poiid":"B2094654DB6AA7F54993","title":"赛百味 吴江路店 Subway","lon":"121.459811054","lat":"31.229479793","category":"94","category_name":"西餐厅","address":"吴江路269号湟普汇1A101单元近茂名路"},{"poiid":"B2094757D56DAAF44398","title":"代官山吴江路店","lon":"121.458543738","lat":"31.2291892779","category":"96","category_name":"韩国料理","address":"上海吴江路湟普汇"},{"poiid":"B2094757D469A2FD419F","title":"肯德基 吴江路店 KFC","lon":"121.458911054","lat":"31.229248793","category":"68","category_name":"快餐厅","address":"静安区吴江路269号经典茂名商城2楼(近茂名北路)"},{"poiid":"B2094757D068A6FA4398","title":"银亭 Gintei  teppanyaki","lon":"121.4580654395","lat":"31.230427698102","category":"95","category_name":"日本料理","address":"静安区南汇路75号(近北京西路)"},{"poiid":"B2094750D664A4F54792","title":"徐家庄千岛湖鱼头王","lon":"121.457","lat":"31.2298","category":"76","category_name":"上海菜","address":"静安区南汇路52号(近梅龙镇广场)"},{"poiid":"B2094655D26BA3FE439E","title":"汉堡王 梅龙镇店 Burger King","lon":"121.456526054","lat":"31.228408793","category":"68","category_name":"快餐厅","address":"静安区南京西路1038号梅龙镇广场B1楼(近江宁路)"},{"poiid":"B2094757D06AABFB419E","title":"SPICE HAIR","lon":"121.45744","lat":"31.2292","category":"500","category_name":"未知分类","address":"上海静安区南京西路1038号梅陇镇伊势丹4楼  "},{"poiid":"B2094757DA68A0FB409A","title":"CHOCOOLATE（南京西路旗舰店）","lon":"121.458075866103","lat":"31.2290917247828","category":"255","category_name":"专卖店","address":"上海市静安区南京西路1009-1021号2-3层"},{"poiid":"B2094757D06BA3F54492","title":"Godiva(梅龙镇广场店)","lon":"121.45701","lat":"31.22834","category":"67","category_name":"甜品店","address":"静安区南京西路1038号梅龙镇广场1楼3号商铺(近江宁路)"},{"poiid":"B2094757D465ABF8499B","title":"勝圆日本料理","lon":"121.456502","lat":"31.229761","category":"247","category_name":"餐饮美食","address":"静安区奉贤路286号(近江宁路)"},{"poiid":"B2094751D56CA3FD469B","title":"COSTA COFFEE(环艺影城店)","lon":"121.45669","lat":"31.22864","category":"65","category_name":"咖啡厅","address":"静安区南京西路1038号梅龙镇广场10楼B区(近江宁路)"},{"poiid":"B2094757D464ABF8479A","title":"长寿面","lon":"121.45771","lat":"31.22886","category":"68","category_name":"快餐厅","address":"静安区北京西路1278号(近西康路)"},{"poiid":"B2094757D66BA3FA4792","title":"老树茶舍","lon":"121.4577234","lat":"31.2288506","category":"66","category_name":"茶艺馆","address":"南京西路1025弄83号近南汇路"},{"poiid":"B2094655D26AA1FE4498","title":"王磊形象公社梅龙镇2店","lon":"121.45672","lat":"31.22862","category":"247","category_name":"餐饮美食","address":"静安区南京西路1038号梅龙镇广场801座(近江宁路)"},{"poiid":"B2094750D364A3FB449F","title":"枣子树（江宁店）","lon":"121.45681012159","lat":"31.229761827581","category":"95","category_name":"日本料理","address":"奉贤路258号(美琪大戏院旁)"},{"poiid":"B2094750D268A1FB449F","title":"豪廚粵菜吴江店","lon":"121.458778","lat":"31.229549","category":"247","category_name":"餐饮美食","address":"静安区吴江路269号湟普汇306号"},{"poiid":"B2094757D06FA1F5409F","title":"大食代(梅龙镇店)","lon":"121.4574","lat":"31.22901","category":"68","category_name":"快餐厅","address":"上海静安区南京西路1038号梅龙镇广场B1楼(近江宁路)  "},{"poiid":"B2094757D06FABFF439B","title":"葡吉 南京西路店 PUCCI Bakery","lon":"121.456538054","lat":"31.228397793","category":"112","category_name":"糕饼店","address":"静安区南京西路1038号梅龙镇广场3楼(近江宁路)"}]