[{"poiid":"B2094654DB6AA6FF439D","title":"方塔公园","lon":"121.24581","lat":"31.00652","category":"196","category_name":"公园","address":"松江区中山东路235路"},{"poiid":"B2094757D068A4FC4593","title":"松江二中","lon":"121.247600486","lat":"31.0086362483","category":"55","category_name":"中学","address":"上海市松江区中山东路250号"},{"poiid":"B2094654DB64A0FD439D","title":"易初莲花购物中心","lon":"121.24114","lat":"31.01773","category":"118","category_name":"超级市场","address":"松江区松江荣乐中路8号"},{"poiid":"B2094757D068A7FD4099","title":"卜蜂莲花(松江岳阳店)","lon":"121.24351","lat":"31.01668","category":"118","category_name":"超级市场","address":"松江区荣乐中路8号"},{"poiid":"B2094655D268A2F8459E","title":"绿地伯顿广场","lon":"121.24660055340769","lat":"31.01704298003939","category":"46","category_name":"楼宇","address":"松江区荣乐东路2369弄"},{"poiid":"B2094654DB6EA3F54292","title":"樟馨家园","lon":"121.23857","lat":"31.011311","category":"47","category_name":"住宅区","address":"上海市松江区松乐路88弄"},{"poiid":"B2094757D06AA4FE469B","title":"肯德基 KFC (方舟店)","lon":"121.240858","lat":"31.017601","category":"500","category_name":"未知分类","address":"松江区荣乐中路8号"},{"poiid":"B2094757D664A1F8489E","title":"七欣天迷宗蟹 松江店","lon":"121.243638054","lat":"31.013775793","category":"86","category_name":"火锅店","address":"松江区环城东路980号(近沪松路)"},{"poiid":"B2094757D465A6FF4898","title":"新招鲜本地鸡窝 松江店","lon":"121.254414054","lat":"31.005491793","category":"86","category_name":"火锅店","address":"松江区环城路976弄54号(近松东茶叶市场)"},{"poiid":"B2094654DB6EA2FF479D","title":"松江方塔","lon":"121.24651","lat":"31.00557","category":"240","category_name":"国家级景点","address":""},{"poiid":"B2094654DB6EA2FE469A","title":"荣都公寓(东侧)","lon":"121.24581","lat":"31.01423","category":"47","category_name":"住宅区","address":"沪松路17弄1-8号"},{"poiid":"B2094654DB6EA2FD459D","title":"通波小区(荣乐中路)","lon":"121.23902","lat":"31.01689","category":"47","category_name":"住宅区","address":"荣乐中路32弄"},{"poiid":"B2094655D26DA6FD4498","title":"花园浜小区","lon":"121.243","lat":"31.0153","category":"47","category_name":"住宅区","address":"仓汇路400弄"},{"poiid":"B2094654DB6EA2FE469C","title":"两岸咖啡·西餐(松江·环城路)","lon":"121.24507","lat":"31.01319","category":"94","category_name":"西餐厅","address":""},{"poiid":"B2094654DB6EA2FE4699","title":"平高商业广场","lon":"121.24423","lat":"31.01356","category":"119","category_name":"商场","address":""},{"poiid":"B2094750D76FA5F44992","title":"山沟沟土菜馆","lon":"121.247","lat":"31.0069","category":"87","category_name":"特色／地方风味餐厅","address":"松江区中山东路235号方塔附近"},{"poiid":"B2094757D66CA3FA4499","title":"同济城市雅筑","lon":"121.24692","lat":"31.013661","category":"47","category_name":"住宅区","address":"松江环城路860号(靠近方塔北路)"},{"poiid":"B2094757D464A0F9499C","title":"鲁山人","lon":"121.23868008277","lat":"31.007122656877","category":"95","category_name":"日本料理","address":"松江区普照路71号(中山东路中山中路)"},{"poiid":"B2094757D165AAFF4693","title":"乐都路","lon":"121.23887486","lat":"31.013645639","category":"500","category_name":"未知分类","address":"上海乐都路"},{"poiid":"B2094654DB6EA2FE489E","title":"松江二中(集团)初级中学","lon":"121.24608","lat":"31.01066","category":"55","category_name":"中学","address":""},{"poiid":"B2094753D36EA1F44592","title":"首尔焖鲜汇(乐颂坊店)","lon":"121.239766","lat":"31.006933","category":"86","category_name":"火锅店","address":"松汇中路568号乐颂坊B座303单元(近普照路)"},{"poiid":"B2094757D56EA0F9489A","title":"松江二中食堂","lon":"121.2452245","lat":"31.00858483","category":"68","category_name":"快餐厅","address":"松江区中山东路250号(近方塔北路)"},{"poiid":"B2094654DB69A6F84998","title":"普政苑","lon":"121.246","lat":"31.0116","category":"47","category_name":"住宅区","address":"松江区普照路75弄"},{"poiid":"B2094751D56CA0FF4992","title":"竹筷子农家菜(乐都路店)","lon":"121.24085","lat":"31.01372","category":"87","category_name":"特色／地方风味餐厅","address":"松江区乐都路9弄(近袜子弄)"},{"poiid":"B2094654DB6EA2FE489A","title":"九峰实验学校","lon":"121.24749","lat":"31.01071","category":"55","category_name":"中学","address":"松江区方塔北路319"},{"poiid":"B2094655D36CA7FE459A","title":"沪松公路","lon":"121.24245","lat":"31.01373","category":"38","category_name":"公交车站","address":""},{"poiid":"B2094655D268A6F9489C","title":"北内路绿地","lon":"121.24162","lat":"31.01296","category":"196","category_name":"公园","address":""},{"poiid":"B2094655D36DA7F8449E","title":"中山东路","lon":"121.24404","lat":"31.00703","category":"38","category_name":"公交车站","address":""},{"poiid":"B2094655D268A6FA469A","title":"松江二中游泳馆","lon":"121.24337","lat":"31.00927","category":"231","category_name":"游泳馆","address":"松江区中山东路250号松江二中"},{"poiid":"B2094655D26FABF5499F","title":"小忠羊肉庄","lon":"121.23796","lat":"31.01413","category":"86","category_name":"火锅店","address":"松江区乐都路102弄13号"},{"poiid":"B2094655D264A2F54698","title":"月夏香樟林","lon":"121.23857","lat":"31.01131","category":"47","category_name":"住宅区","address":"上海市松江区松乐路88弄"},{"poiid":"B2094757D16FA6F8419C","title":"松江博物馆","lon":"121.24649601","lat":"31.00604726","category":"179","category_name":"音乐厅","address":"松江区松江中山东路233号"},{"poiid":"B2094655D36CA1F84092","title":"龙潭苑","lon":"121.239","lat":"31.0157","category":"38","category_name":"公交车站","address":"中山二路182弄"},{"poiid":"B2094654DB69A5F84293","title":"文峰美容美发(环城路店)","lon":"121.24736","lat":"31.01177","category":"148","category_name":"美容美发店","address":"青浦区环城路401-407号(靠松东路)"},{"poiid":"B2094654DB6EA2FC429F","title":"松荣 松江店","lon":"121.23871060014","lat":"31.006320293222","category":"95","category_name":"日本料理","address":"松江区普照路81号(中山东路中山中路)"},{"poiid":"B2094654DB6DAAF44692","title":"松江区教师进修学院","lon":"121.24869","lat":"31.01007","category":"53","category_name":"成人教育","address":"方塔北路318"},{"poiid":"B2094654DB65AAFA469E","title":"松江区民办九峰中学","lon":"121.2475","lat":"31.01071","category":"55","category_name":"中学","address":"松江区方塔北路319号"},{"poiid":"B2094757D16EA4F5479B","title":"呷哺呷哺(松江卜蜂莲花荣乐餐厅)","lon":"121.241108053","lat":"31.017171277","category":"86","category_name":"火锅店","address":"松江区荣乐中路8号卜蜂莲花2A-04室"},{"poiid":"B2094757D66EA2F84692","title":"竹筷子","lon":"121.24711246","lat":"31.011658096","category":"500","category_name":"未知分类","address":"上海乐都路"},{"poiid":"B2094655D268A6FD419B","title":"荣都公寓(东一门)","lon":"121.2436","lat":"31.01501","category":"47","category_name":"住宅区","address":"泸松路11弄"},{"poiid":"B2094655D268A5F94798","title":"菜花泾25弄小区","lon":"121.2409","lat":"31.01264","category":"47","category_name":"住宅区","address":"菜花泾25弄"},{"poiid":"B2094757D66DA7F44499","title":"新石器盘古烤肉","lon":"121.240959767","lat":"31.0177071289","category":"96","category_name":"韩国料理","address":"上海松江区荣乐中路"},{"poiid":"B2094654DB6EA3F54498","title":"月厦新天地","lon":"121.244","lat":"31.0161","category":"46","category_name":"楼宇","address":"松乐路128号"},{"poiid":"B2094654DB64A0FC459F","title":"流金岁月","lon":"121.24254","lat":"31.01412","category":"170","category_name":"KTV","address":""},{"poiid":"B2094757D168A3FC4299","title":"松临日本料理·铁板烧","lon":"121.239858467","lat":"31.0066479861","category":"247","category_name":"餐饮美食","address":"上海松江中山中路77号平高世贸中心7F"},{"poiid":"B2094654DB6EA2FF489A","title":"松江科技馆","lon":"121.24504","lat":"31.00654","category":"186","category_name":"科技馆","address":"中山东路237"},{"poiid":"B2094757D16EA0FE4792","title":"九峰实验中学","lon":"121.24777","lat":"31.01044","category":"253","category_name":"校园生活","address":"松江区中山街道方塔北路319号(方塔北路松江环城路)"},{"poiid":"B2094655D268A6FD4898","title":"荣都公寓东侧(西门)","lon":"121.24404","lat":"31.0147","category":"47","category_name":"住宅区","address":"沪松路20弄"},{"poiid":"B2094757D16AA3FC4392","title":"哈里欧咖啡 松江店 Hecto Coffee","lon":"121.24080009389","lat":"31.013781300341","category":"260","category_name":"其他","address":"松江区乐都路北门街1号(乐都路松江环城路)"},{"poiid":"B2094655D26FABFB479C","title":"快客No.5233","lon":"121.24032","lat":"31.01315","category":"117","category_name":"便民商店/便利店","address":""},{"poiid":"B2094654DB6AA6FF439D","title":"方塔公园","lon":"121.24581","lat":"31.00652","category":"196","category_name":"公园","address":"松江区中山东路235路"},{"poiid":"B2094757D068A4FC4593","title":"松江二中","lon":"121.247600486","lat":"31.0086362483","category":"55","category_name":"中学","address":"上海市松江区中山东路250号"},{"poiid":"B2094654DB64A0FD439D","title":"易初莲花购物中心","lon":"121.24114","lat":"31.01773","category":"118","category_name":"超级市场","address":"松江区松江荣乐中路8号"},{"poiid":"B2094757D068A7FD4099","title":"卜蜂莲花(松江岳阳店)","lon":"121.24351","lat":"31.01668","category":"118","category_name":"超级市场","address":"松江区荣乐中路8号"},{"poiid":"B2094655D268A2F8459E","title":"绿地伯顿广场","lon":"121.24660055340769","lat":"31.01704298003939","category":"46","category_name":"楼宇","address":"松江区荣乐东路2369弄"},{"poiid":"B2094654DB6EA3F54292","title":"樟馨家园","lon":"121.23857","lat":"31.011311","category":"47","category_name":"住宅区","address":"上海市松江区松乐路88弄"},{"poiid":"B2094757D06AA4FE469B","title":"肯德基 KFC (方舟店)","lon":"121.240858","lat":"31.017601","category":"500","category_name":"未知分类","address":"松江区荣乐中路8号"},{"poiid":"B2094757D664A1F8489E","title":"七欣天迷宗蟹 松江店","lon":"121.243638054","lat":"31.013775793","category":"86","category_name":"火锅店","address":"松江区环城东路980号(近沪松路)"},{"poiid":"B2094757D465A6FF4898","title":"新招鲜本地鸡窝 松江店","lon":"121.254414054","lat":"31.005491793","category":"86","category_name":"火锅店","address":"松江区环城路976弄54号(近松东茶叶市场)"},{"poiid":"B2094654DB6EA2FF479D","title":"松江方塔","lon":"121.24651","lat":"31.00557","category":"240","category_name":"国家级景点","address":""},{"poiid":"B2094654DB6EA2FE469A","title":"荣都公寓(东侧)","lon":"121.24581","lat":"31.01423","category":"47","category_name":"住宅区","address":"沪松路17弄1-8号"},{"poiid":"B2094654DB6EA2FD459D","title":"通波小区(荣乐中路)","lon":"121.23902","lat":"31.01689","category":"47","category_name":"住宅区","address":"荣乐中路32弄"},{"poiid":"B2094655D26DA6FD4498","title":"花园浜小区","lon":"121.243","lat":"31.0153","category":"47","category_name":"住宅区","address":"仓汇路400弄"},{"poiid":"B2094654DB6EA2FE469C","title":"两岸咖啡·西餐(松江·环城路)","lon":"121.24507","lat":"31.01319","category":"94","category_name":"西餐厅","address":""},{"poiid":"B2094654DB6EA2FE4699","title":"平高商业广场","lon":"121.24423","lat":"31.01356","category":"119","category_name":"商场","address":""},{"poiid":"B2094750D76FA5F44992","title":"山沟沟土菜馆","lon":"121.247","lat":"31.0069","category":"87","category_name":"特色／地方风味餐厅","address":"松江区中山东路235号方塔附近"},{"poiid":"B2094757D66CA3FA4499","title":"同济城市雅筑","lon":"121.24692","lat":"31.013661","category":"47","category_name":"住宅区","address":"松江环城路860号(靠近方塔北路)"},{"poiid":"B2094757D464A0F9499C","title":"鲁山人","lon":"121.23868008277","lat":"31.007122656877","category":"95","category_name":"日本料理","address":"松江区普照路71号(中山东路中山中路)"},{"poiid":"B2094757D165AAFF4693","title":"乐都路","lon":"121.23887486","lat":"31.013645639","category":"500","category_name":"未知分类","address":"上海乐都路"},{"poiid":"B2094654DB6EA2FE489E","title":"松江二中(集团)初级中学","lon":"121.24608","lat":"31.01066","category":"55","category_name":"中学","address":""},{"poiid":"B2094753D36EA1F44592","title":"首尔焖鲜汇(乐颂坊店)","lon":"121.239766","lat":"31.006933","category":"86","category_name":"火锅店","address":"松汇中路568号乐颂坊B座303单元(近普照路)"},{"poiid":"B2094757D56EA0F9489A","title":"松江二中食堂","lon":"121.2452245","lat":"31.00858483","category":"68","category_name":"快餐厅","address":"松江区中山东路250号(近方塔北路)"},{"poiid":"B2094654DB69A6F84998","title":"普政苑","lon":"121.246","lat":"31.0116","category":"47","category_name":"住宅区","address":"松江区普照路75弄"},{"poiid":"B2094751D56CA0FF4992","title":"竹筷子农家菜(乐都路店)","lon":"121.24085","lat":"31.01372","category":"87","category_name":"特色／地方风味餐厅","address":"松江区乐都路9弄(近袜子弄)"},{"poiid":"B2094654DB6EA2FE489A","title":"九峰实验学校","lon":"121.24749","lat":"31.01071","category":"55","category_name":"中学","address":"松江区方塔北路319"},{"poiid":"B2094655D36CA7FE459A","title":"沪松公路","lon":"121.24245","lat":"31.01373","category":"38","category_name":"公交车站","address":""},{"poiid":"B2094655D268A6F9489C","title":"北内路绿地","lon":"121.24162","lat":"31.01296","category":"196","category_name":"公园","address":""},{"poiid":"B2094655D36DA7F8449E","title":"中山东路","lon":"121.24404","lat":"31.00703","category":"38","category_name":"公交车站","address":""},{"poiid":"B2094655D268A6FA469A","title":"松江二中游泳馆","lon":"121.24337","lat":"31.00927","category":"231","category_name":"游泳馆","address":"松江区中山东路250号松江二中"},{"poiid":"B2094655D26FABF5499F","title":"小忠羊肉庄","lon":"121.23796","lat":"31.01413","category":"86","category_name":"火锅店","address":"松江区乐都路102弄13号"},{"poiid":"B2094655D264A2F54698","title":"月夏香樟林","lon":"121.23857","lat":"31.01131","category":"47","category_name":"住宅区","address":"上海市松江区松乐路88弄"},{"poiid":"B2094757D16FA6F8419C","title":"松江博物馆","lon":"121.24649601","lat":"31.00604726","category":"179","category_name":"音乐厅","address":"松江区松江中山东路233号"},{"poiid":"B2094655D36CA1F84092","title":"龙潭苑","lon":"121.239","lat":"31.0157","category":"38","category_name":"公交车站","address":"中山二路182弄"},{"poiid":"B2094654DB69A5F84293","title":"文峰美容美发(环城路店)","lon":"121.24736","lat":"31.01177","category":"148","category_name":"美容美发店","address":"青浦区环城路401-407号(靠松东路)"},{"poiid":"B2094654DB6EA2FC429F","title":"松荣 松江店","lon":"121.23871060014","lat":"31.006320293222","category":"95","category_name":"日本料理","address":"松江区普照路81号(中山东路中山中路)"},{"poiid":"B2094654DB6DAAF44692","title":"松江区教师进修学院","lon":"121.24869","lat":"31.01007","category":"53","category_name":"成人教育","address":"方塔北路318"},{"poiid":"B2094654DB65AAFA469E","title":"松江区民办九峰中学","lon":"121.2475","lat":"31.01071","category":"55","category_name":"中学","address":"松江区方塔北路319号"},{"poiid":"B2094757D16EA4F5479B","title":"呷哺呷哺(松江卜蜂莲花荣乐餐厅)","lon":"121.241108053","lat":"31.017171277","category":"86","category_name":"火锅店","address":"松江区荣乐中路8号卜蜂莲花2A-04室"},{"poiid":"B2094757D66EA2F84692","title":"竹筷子","lon":"121.24711246","lat":"31.011658096","category":"500","category_name":"未知分类","address":"上海乐都路"},{"poiid":"B2094655D268A6FD419B","title":"荣都公寓(东一门)","lon":"121.2436","lat":"31.01501","category":"47","category_name":"住宅区","address":"泸松路11弄"},{"poiid":"B2094655D268A5F94798","title":"菜花泾25弄小区","lon":"121.2409","lat":"31.01264","category":"47","category_name":"住宅区","address":"菜花泾25弄"},{"poiid":"B2094757D66DA7F44499","title":"新石器盘古烤肉","lon":"121.240959767","lat":"31.0177071289","category":"96","category_name":"韩国料理","address":"上海松江区荣乐中路"},{"poiid":"B2094654DB6EA3F54498","title":"月厦新天地","lon":"121.244","lat":"31.0161","category":"46","category_name":"楼宇","address":"松乐路128号"},{"poiid":"B2094654DB64A0FC459F","title":"流金岁月","lon":"121.24254","lat":"31.01412","category":"170","category_name":"KTV","address":""},{"poiid":"B2094757D168A3FC4299","title":"松临日本料理·铁板烧","lon":"121.239858467","lat":"31.0066479861","category":"247","category_name":"餐饮美食","address":"上海松江中山中路77号平高世贸中心7F"},{"poiid":"B2094654DB6EA2FF489A","title":"松江科技馆","lon":"121.24504","lat":"31.00654","category":"186","category_name":"科技馆","address":"中山东路237"},{"poiid":"B2094757D16EA0FE4792","title":"九峰实验中学","lon":"121.24777","lat":"31.01044","category":"253","category_name":"校园生活","address":"松江区中山街道方塔北路319号(方塔北路松江环城路)"},{"poiid":"B2094655D268A6FD4898","title":"荣都公寓东侧(西门)","lon":"121.24404","lat":"31.0147","category":"47","category_name":"住宅区","address":"沪松路20弄"},{"poiid":"B2094757D16AA3FC4392","title":"哈里欧咖啡 松江店 Hecto Coffee","lon":"121.24080009389","lat":"31.013781300341","category":"260","category_name":"其他","address":"松江区乐都路北门街1号(乐都路松江环城路)"},{"poiid":"B2094655D26FABFB479C","title":"快客No.5233","lon":"121.24032","lat":"31.01315","category":"117","category_name":"便民商店/便利店","address":""},{"poiid":"B2094654DB6AA6FF439D","title":"方塔公园","lon":"121.24581","lat":"31.00652","category":"196","category_name":"公园","address":"松江区中山东路235路"},{"poiid":"B2094757D068A4FC4593","title":"松江二中","lon":"121.247600486","lat":"31.0086362483","category":"55","category_name":"中学","address":"上海市松江区中山东路250号"},{"poiid":"B2094654DB64A0FD439D","title":"易初莲花购物中心","lon":"121.24114","lat":"31.01773","category":"118","category_name":"超级市场","address":"松江区松江荣乐中路8号"},{"poiid":"B2094757D068A7FD4099","title":"卜蜂莲花(松江岳阳店)","lon":"121.24351","lat":"31.01668","category":"118","category_name":"超级市场","address":"松江区荣乐中路8号"},{"poiid":"B2094655D268A2F8459E","title":"绿地伯顿广场","lon":"121.24660055340769","lat":"31.01704298003939","category":"46","category_name":"楼宇","address":"松江区荣乐东路2369弄"},{"poiid":"B2094654DB6EA3F54292","title":"樟馨家园","lon":"121.23857","lat":"31.011311","category":"47","category_name":"住宅区","address":"上海市松江区松乐路88弄"},{"poiid":"B2094757D06AA4FE469B","title":"肯德基 KFC (方舟店)","lon":"121.240858","lat":"31.017601","category":"500","category_name":"未知分类","address":"松江区荣乐中路8号"},{"poiid":"B2094757D664A1F8489E","title":"七欣天迷宗蟹 松江店","lon":"121.243638054","lat":"31.013775793","category":"86","category_name":"火锅店","address":"松江区环城东路980号(近沪松路)"},{"poiid":"B2094757D465A6FF4898","title":"新招鲜本地鸡窝 松江店","lon":"121.254414054","lat":"31.005491793","category":"86","category_name":"火锅店","address":"松江区环城路976弄54号(近松东茶叶市场)"},{"poiid":"B2094654DB6EA2FF479D","title":"松江方塔","lon":"121.24651","lat":"31.00557","category":"240","category_name":"国家级景点","address":""},{"poiid":"B2094654DB6EA2FE469A","title":"荣都公寓(东侧)","lon":"121.24581","lat":"31.01423","category":"47","category_name":"住宅区","address":"沪松路17弄1-8号"},{"poiid":"B2094654DB6EA2FD459D","title":"通波小区(荣乐中路)","lon":"121.23902","lat":"31.01689","category":"47","category_name":"住宅区","address":"荣乐中路32弄"},{"poiid":"B2094655D26DA6FD4498","title":"花园浜小区","lon":"121.243","lat":"31.0153","category":"47","category_name":"住宅区","address":"仓汇路400弄"},{"poiid":"B2094654DB6EA2FE469C","title":"两岸咖啡·西餐(松江·环城路)","lon":"121.24507","lat":"31.01319","category":"94","category_name":"西餐厅","address":""},{"poiid":"B2094654DB6EA2FE4699","title":"平高商业广场","lon":"121.24423","lat":"31.01356","category":"119","category_name":"商场","address":""},{"poiid":"B2094750D76FA5F44992","title":"山沟沟土菜馆","lon":"121.247","lat":"31.0069","category":"87","category_name":"特色／地方风味餐厅","address":"松江区中山东路235号方塔附近"},{"poiid":"B2094757D66CA3FA4499","title":"同济城市雅筑","lon":"121.24692","lat":"31.013661","category":"47","category_name":"住宅区","address":"松江环城路860号(靠近方塔北路)"},{"poiid":"B2094757D464A0F9499C","title":"鲁山人","lon":"121.23868008277","lat":"31.007122656877","category":"95","category_name":"日本料理","address":"松江区普照路71号(中山东路中山中路)"},{"poiid":"B2094757D165AAFF4693","title":"乐都路","lon":"121.23887486","lat":"31.013645639","category":"500","category_name":"未知分类","address":"上海乐都路"},{"poiid":"B2094654DB6EA2FE489E","title":"松江二中(集团)初级中学","lon":"121.24608","lat":"31.01066","category":"55","category_name":"中学","address":""},{"poiid":"B2094753D36EA1F44592","title":"首尔焖鲜汇(乐颂坊店)","lon":"121.239766","lat":"31.006933","category":"86","category_name":"火锅店","address":"松汇中路568号乐颂坊B座303单元(近普照路)"},{"poiid":"B2094757D56EA0F9489A","title":"松江二中食堂","lon":"121.2452245","lat":"31.00858483","category":"68","category_name":"快餐厅","address":"松江区中山东路250号(近方塔北路)"},{"poiid":"B2094654DB69A6F84998","title":"普政苑","lon":"121.246","lat":"31.0116","category":"47","category_name":"住宅区","address":"松江区普照路75弄"},{"poiid":"B2094751D56CA0FF4992","title":"竹筷子农家菜(乐都路店)","lon":"121.24085","lat":"31.01372","category":"87","category_name":"特色／地方风味餐厅","address":"松江区乐都路9弄(近袜子弄)"},{"poiid":"B2094654DB6EA2FE489A","title":"九峰实验学校","lon":"121.24749","lat":"31.01071","category":"55","category_name":"中学","address":"松江区方塔北路319"},{"poiid":"B2094655D36CA7FE459A","title":"沪松公路","lon":"121.24245","lat":"31.01373","category":"38","category_name":"公交车站","address":""},{"poiid":"B2094655D268A6F9489C","title":"北内路绿地","lon":"121.24162","lat":"31.01296","category":"196","category_name":"公园","address":""},{"poiid":"B2094655D36DA7F8449E","title":"中山东路","lon":"121.24404","lat":"31.00703","category":"38","category_name":"公交车站","address":""},{"poiid":"B2094655D268A6FA469A","title":"松江二中游泳馆","lon":"121.24337","lat":"31.00927","category":"231","category_name":"游泳馆","address":"松江区中山东路250号松江二中"},{"poiid":"B2094655D26FABF5499F","title":"小忠羊肉庄","lon":"121.23796","lat":"31.01413","category":"86","category_name":"火锅店","address":"松江区乐都路102弄13号"},{"poiid":"B2094655D264A2F54698","title":"月夏香樟林","lon":"121.23857","lat":"31.01131","category":"47","category_name":"住宅区","address":"上海市松江区松乐路88弄"},{"poiid":"B2094757D16FA6F8419C","title":"松江博物馆","lon":"121.24649601","lat":"31.00604726","category":"179","category_name":"音乐厅","address":"松江区松江中山东路233号"},{"poiid":"B2094655D36CA1F84092","title":"龙潭苑","lon":"121.239","lat":"31.0157","category":"38","category_name":"公交车站","address":"中山二路182弄"},{"poiid":"B2094654DB69A5F84293","title":"文峰美容美发(环城路店)","lon":"121.24736","lat":"31.01177","category":"148","category_name":"美容美发店","address":"青浦区环城路401-407号(靠松东路)"},{"poiid":"B2094654DB6EA2FC429F","title":"松荣 松江店","lon":"121.23871060014","lat":"31.006320293222","category":"95","category_name":"日本料理","address":"松江区普照路81号(中山东路中山中路)"},{"poiid":"B2094654DB6DAAF44692","title":"松江区教师进修学院","lon":"121.24869","lat":"31.01007","category":"53","category_name":"成人教育","address":"方塔北路318"},{"poiid":"B2094654DB65AAFA469E","title":"松江区民办九峰中学","lon":"121.2475","lat":"31.01071","category":"55","category_name":"中学","address":"松江区方塔北路319号"},{"poiid":"B2094757D16EA4F5479B","title":"呷哺呷哺(松江卜蜂莲花荣乐餐厅)","lon":"121.241108053","lat":"31.017171277","category":"86","category_name":"火锅店","address":"松江区荣乐中路8号卜蜂莲花2A-04室"},{"poiid":"B2094757D66EA2F84692","title":"竹筷子","lon":"121.24711246","lat":"31.011658096","category":"500","category_name":"未知分类","address":"上海乐都路"},{"poiid":"B2094655D268A6FD419B","title":"荣都公寓(东一门)","lon":"121.2436","lat":"31.01501","category":"47","category_name":"住宅区","address":"泸松路11弄"},{"poiid":"B2094655D268A5F94798","title":"菜花泾25弄小区","lon":"121.2409","lat":"31.01264","category":"47","category_name":"住宅区","address":"菜花泾25弄"},{"poiid":"B2094757D66DA7F44499","title":"新石器盘古烤肉","lon":"121.240959767","lat":"31.0177071289","category":"96","category_name":"韩国料理","address":"上海松江区荣乐中路"},{"poiid":"B2094654DB6EA3F54498","title":"月厦新天地","lon":"121.244","lat":"31.0161","category":"46","category_name":"楼宇","address":"松乐路128号"},{"poiid":"B2094654DB64A0FC459F","title":"流金岁月","lon":"121.24254","lat":"31.01412","category":"170","category_name":"KTV","address":""},{"poiid":"B2094757D168A3FC4299","title":"松临日本料理·铁板烧","lon":"121.239858467","lat":"31.0066479861","category":"247","category_name":"餐饮美食","address":"上海松江中山中路77号平高世贸中心7F"},{"poiid":"B2094654DB6EA2FF489A","title":"松江科技馆","lon":"121.24504","lat":"31.00654","category":"186","category_name":"科技馆","address":"中山东路237"},{"poiid":"B2094757D16EA0FE4792","title":"九峰实验中学","lon":"121.24777","lat":"31.01044","category":"253","category_name":"校园生活","address":"松江区中山街道方塔北路319号(方塔北路松江环城路)"},{"poiid":"B2094655D268A6FD4898","title":"荣都公寓东侧(西门)","lon":"121.24404","lat":"31.0147","category":"47","category_name":"住宅区","address":"沪松路20弄"},{"poiid":"B2094757D16AA3FC4392","title":"哈里欧咖啡 松江店 Hecto Coffee","lon":"121.24080009389","lat":"31.013781300341","category":"260","category_name":"其他","address":"松江区乐都路北门街1号(乐都路松江环城路)"},{"poiid":"B2094655D26FABFB479C","title":"快客No.5233","lon":"121.24032","lat":"31.01315","category":"117","category_name":"便民商店/便利店","address":""},{"poiid":"B2094654DB6AA6FF439D","title":"方塔公园","lon":"121.24581","lat":"31.00652","category":"196","category_name":"公园","address":"松江区中山东路235路"},{"poiid":"B2094757D068A4FC4593","title":"松江二中","lon":"121.247600486","lat":"31.0086362483","category":"55","category_name":"中学","address":"上海市松江区中山东路250号"},{"poiid":"B2094654DB64A0FD439D","title":"易初莲花购物中心","lon":"121.24114","lat":"31.01773","category":"118","category_name":"超级市场","address":"松江区松江荣乐中路8号"},{"poiid":"B2094757D068A7FD4099","title":"卜蜂莲花(松江岳阳店)","lon":"121.24351","lat":"31.01668","category":"118","category_name":"超级市场","address":"松江区荣乐中路8号"},{"poiid":"B2094655D268A2F8459E","title":"绿地伯顿广场","lon":"121.24660055340769","lat":"31.01704298003939","category":"46","category_name":"楼宇","address":"松江区荣乐东路2369弄"},{"poiid":"B2094654DB6EA3F54292","title":"樟馨家园","lon":"121.23857","lat":"31.011311","category":"47","category_name":"住宅区","address":"上海市松江区松乐路88弄"},{"poiid":"B2094757D06AA4FE469B","title":"肯德基 KFC (方舟店)","lon":"121.240858","lat":"31.017601","category":"500","category_name":"未知分类","address":"松江区荣乐中路8号"},{"poiid":"B2094757D664A1F8489E","title":"七欣天迷宗蟹 松江店","lon":"121.243638054","lat":"31.013775793","category":"86","category_name":"火锅店","address":"松江区环城东路980号(近沪松路)"},{"poiid":"B2094757D465A6FF4898","title":"新招鲜本地鸡窝 松江店","lon":"121.254414054","lat":"31.005491793","category":"86","category_name":"火锅店","address":"松江区环城路976弄54号(近松东茶叶市场)"},{"poiid":"B2094654DB6EA2FF479D","title":"松江方塔","lon":"121.24651","lat":"31.00557","category":"240","category_name":"国家级景点","address":""},{"poiid":"B2094654DB6EA2FE469A","title":"荣都公寓(东侧)","lon":"121.24581","lat":"31.01423","category":"47","category_name":"住宅区","address":"沪松路17弄1-8号"},{"poiid":"B2094654DB6EA2FD459D","title":"通波小区(荣乐中路)","lon":"121.23902","lat":"31.01689","category":"47","category_name":"住宅区","address":"荣乐中路32弄"},{"poiid":"B2094655D26DA6FD4498","title":"花园浜小区","lon":"121.243","lat":"31.0153","category":"47","category_name":"住宅区","address":"仓汇路400弄"},{"poiid":"B2094654DB6EA2FE469C","title":"两岸咖啡·西餐(松江·环城路)","lon":"121.24507","lat":"31.01319","category":"94","category_name":"西餐厅","address":""},{"poiid":"B2094654DB6EA2FE4699","title":"平高商业广场","lon":"121.24423","lat":"31.01356","category":"119","category_name":"商场","address":""},{"poiid":"B2094750D76FA5F44992","title":"山沟沟土菜馆","lon":"121.247","lat":"31.0069","category":"87","category_name":"特色／地方风味餐厅","address":"松江区中山东路235号方塔附近"},{"poiid":"B2094757D66CA3FA4499","title":"同济城市雅筑","lon":"121.24692","lat":"31.013661","category":"47","category_name":"住宅区","address":"松江环城路860号(靠近方塔北路)"},{"poiid":"B2094757D464A0F9499C","title":"鲁山人","lon":"121.23868008277","lat":"31.007122656877","category":"95","category_name":"日本料理","address":"松江区普照路71号(中山东路中山中路)"},{"poiid":"B2094757D165AAFF4693","title":"乐都路","lon":"121.23887486","lat":"31.013645639","category":"500","category_name":"未知分类","address":"上海乐都路"},{"poiid":"B2094654DB6EA2FE489E","title":"松江二中(集团)初级中学","lon":"121.24608","lat":"31.01066","category":"55","category_name":"中学","address":""},{"poiid":"B2094753D36EA1F44592","title":"首尔焖鲜汇(乐颂坊店)","lon":"121.239766","lat":"31.006933","category":"86","category_name":"火锅店","address":"松汇中路568号乐颂坊B座303单元(近普照路)"},{"poiid":"B2094757D56EA0F9489A","title":"松江二中食堂","lon":"121.2452245","lat":"31.00858483","category":"68","category_name":"快餐厅","address":"松江区中山东路250号(近方塔北路)"},{"poiid":"B2094654DB69A6F84998","title":"普政苑","lon":"121.246","lat":"31.0116","category":"47","category_name":"住宅区","address":"松江区普照路75弄"},{"poiid":"B2094751D56CA0FF4992","title":"竹筷子农家菜(乐都路店)","lon":"121.24085","lat":"31.01372","category":"87","category_name":"特色／地方风味餐厅","address":"松江区乐都路9弄(近袜子弄)"},{"poiid":"B2094654DB6EA2FE489A","title":"九峰实验学校","lon":"121.24749","lat":"31.01071","category":"55","category_name":"中学","address":"松江区方塔北路319"},{"poiid":"B2094655D36CA7FE459A","title":"沪松公路","lon":"121.24245","lat":"31.01373","category":"38","category_name":"公交车站","address":""},{"poiid":"B2094655D268A6F9489C","title":"北内路绿地","lon":"121.24162","lat":"31.01296","category":"196","category_name":"公园","address":""},{"poiid":"B2094655D36DA7F8449E","title":"中山东路","lon":"121.24404","lat":"31.00703","category":"38","category_name":"公交车站","address":""},{"poiid":"B2094655D268A6FA469A","title":"松江二中游泳馆","lon":"121.24337","lat":"31.00927","category":"231","category_name":"游泳馆","address":"松江区中山东路250号松江二中"},{"poiid":"B2094655D26FABF5499F","title":"小忠羊肉庄","lon":"121.23796","lat":"31.01413","category":"86","category_name":"火锅店","address":"松江区乐都路102弄13号"},{"poiid":"B2094655D264A2F54698","title":"月夏香樟林","lon":"121.23857","lat":"31.01131","category":"47","category_name":"住宅区","address":"上海市松江区松乐路88弄"},{"poiid":"B2094757D16FA6F8419C","title":"松江博物馆","lon":"121.24649601","lat":"31.00604726","category":"179","category_name":"音乐厅","address":"松江区松江中山东路233号"},{"poiid":"B2094655D36CA1F84092","title":"龙潭苑","lon":"121.239","lat":"31.0157","category":"38","category_name":"公交车站","address":"中山二路182弄"},{"poiid":"B2094654DB69A5F84293","title":"文峰美容美发(环城路店)","lon":"121.24736","lat":"31.01177","category":"148","category_name":"美容美发店","address":"青浦区环城路401-407号(靠松东路)"},{"poiid":"B2094654DB6EA2FC429F","title":"松荣 松江店","lon":"121.23871060014","lat":"31.006320293222","category":"95","category_name":"日本料理","address":"松江区普照路81号(中山东路中山中路)"},{"poiid":"B2094654DB6DAAF44692","title":"松江区教师进修学院","lon":"121.24869","lat":"31.01007","category":"53","category_name":"成人教育","address":"方塔北路318"},{"poiid":"B2094654DB65AAFA469E","title":"松江区民办九峰中学","lon":"121.2475","lat":"31.01071","category":"55","category_name":"中学","address":"松江区方塔北路319号"},{"poiid":"B2094757D16EA4F5479B","title":"呷哺呷哺(松江卜蜂莲花荣乐餐厅)","lon":"121.241108053","lat":"31.017171277","category":"86","category_name":"火锅店","address":"松江区荣乐中路8号卜蜂莲花2A-04室"},{"poiid":"B2094757D66EA2F84692","title":"竹筷子","lon":"121.24711246","lat":"31.011658096","category":"500","category_name":"未知分类","address":"上海乐都路"},{"poiid":"B2094655D268A6FD419B","title":"荣都公寓(东一门)","lon":"121.2436","lat":"31.01501","category":"47","category_name":"住宅区","address":"泸松路11弄"},{"poiid":"B2094655D268A5F94798","title":"菜花泾25弄小区","lon":"121.2409","lat":"31.01264","category":"47","category_name":"住宅区","address":"菜花泾25弄"},{"poiid":"B2094757D66DA7F44499","title":"新石器盘古烤肉","lon":"121.240959767","lat":"31.0177071289","category":"96","category_name":"韩国料理","address":"上海松江区荣乐中路"},{"poiid":"B2094654DB6EA3F54498","title":"月厦新天地","lon":"121.244","lat":"31.0161","category":"46","category_name":"楼宇","address":"松乐路128号"},{"poiid":"B2094654DB64A0FC459F","title":"流金岁月","lon":"121.24254","lat":"31.01412","category":"170","category_name":"KTV","address":""},{"poiid":"B2094757D168A3FC4299","title":"松临日本料理·铁板烧","lon":"121.239858467","lat":"31.0066479861","category":"247","category_name":"餐饮美食","address":"上海松江中山中路77号平高世贸中心7F"},{"poiid":"B2094654DB6EA2FF489A","title":"松江科技馆","lon":"121.24504","lat":"31.00654","category":"186","category_name":"科技馆","address":"中山东路237"},{"poiid":"B2094757D16EA0FE4792","title":"九峰实验中学","lon":"121.24777","lat":"31.01044","category":"253","category_name":"校园生活","address":"松江区中山街道方塔北路319号(方塔北路松江环城路)"},{"poiid":"B2094655D268A6FD4898","title":"荣都公寓东侧(西门)","lon":"121.24404","lat":"31.0147","category":"47","category_name":"住宅区","address":"沪松路20弄"},{"poiid":"B2094757D16AA3FC4392","title":"哈里欧咖啡 松江店 Hecto Coffee","lon":"121.24080009389","lat":"31.013781300341","category":"260","category_name":"其他","address":"松江区乐都路北门街1号(乐都路松江环城路)"},{"poiid":"B2094655D26FABFB479C","title":"快客No.5233","lon":"121.24032","lat":"31.01315","category":"117","category_name":"便民商店/便利店","address":""}]