[{"poiid":"B2094655D26BA0FD479D","title":"世博洲际酒店","lon":"121.50538","lat":"31.19933","category":"213","category_name":"五星级宾馆","address":"浦东新区雪野路1188号(近南码头路)"},{"poiid":"B2094655D36DA6FE419E","title":"南浦大桥","lon":"121.49934","lat":"31.20845","category":"38","category_name":"公交车站","address":"黄浦区南马路1410号"},{"poiid":"B2094655D26AA1FA4998","title":"黄浦旅游集散站","lon":"121.50134","lat":"31.20778","category":"35","category_name":"长途汽车站","address":"黄浦区外马路1588号"},{"poiid":"B2094655D264A7FA4899","title":"幸福码头","lon":"121.50506","lat":"31.21097","category":"47","category_name":"住宅区","address":"黄浦区中山南路1029号幸福码头5号楼(近多稼路)"},{"poiid":"B2094757D06FA0F8439A","title":"宝莱纳餐厅(世博店)","lon":"121.504113332","lat":"31.1982851473","category":"260","category_name":"其他","address":"浦东新区世博大道555号1-2楼(近雪野路)"},{"poiid":"B2094757D06FA2FB459A","title":"艾福敦酒店 (Eiffelton Riverside Hotel Pudong Shanghai)","lon":"121.509251618","lat":"31.2056334725","category":"217","category_name":"旅馆招待所","address":"浦东新区浦明路1888号(近浦建路)"},{"poiid":"B2094757D06FA7FD4298","title":"薇拉宫邸(浦东店)","lon":"121.50889556","lat":"31.207375193","category":"95","category_name":"日本料理","address":"上海浦明路1888号5号楼"},{"poiid":"B2094757D06FA1F94793","title":"南码头轮渡","lon":"121.50582772","lat":"31.202802396","category":"260","category_name":"其他","address":"上海浦东新区南码头路1号摆渡口"},{"poiid":"B2094757D06FA4F4429B","title":"上海市第二人民医院","lon":"121.50425317","lat":"31.210314152","category":"162","category_name":"医院","address":"黄浦区多稼路1号(近中山南路)"},{"poiid":"B2094757D06FA3F4459F","title":"南浦大桥地铁站","lon":"121.49936726","lat":"31.20842377","category":"36","category_name":"地铁站","address":"上海轨道交通 四号线 轨交南浦大桥站 轻轨 4"},{"poiid":"B2094757D16CA2FD469D","title":"上海亚廷游艇会","lon":"121.505592","lat":"31.209361","category":"260","category_name":"其他","address":"黄浦区外马路1162号(近南浦大桥浦西桥墩)"},{"poiid":"B2094750DB69A3FD4993","title":"镭战大联盟","lon":"121.501408","lat":"31.204725","category":"248","category_name":"生活娱乐","address":"黄浦区外马路1353号(近南浦大桥)"},{"poiid":"B2094655D268A1FA459F","title":"东江高尔夫会所","lon":"121.51033","lat":"31.2083","category":"206","category_name":"高尔夫相关","address":"小南码头路5号"},{"poiid":"B2094757D169ABFE449D","title":"巴富仕游艇会","lon":"121.505978738","lat":"31.2121359146","category":"500","category_name":"未知分类","address":"上海市黄浦区幸福码头创意园区"},{"poiid":"B2094757DB68A5FA409B","title":"罗曼园高级婚礼会馆 外滩雅致英伦馆","lon":"121.50477647781","lat":"31.210635939807","category":"247","category_name":"餐饮美食","address":"长宁区中山西路1011号(近虹桥路)查看地图"},{"poiid":"B2094654DA68A0FD469D","title":"帝龙海鲜舫","lon":"121.50427282682","lat":"31.206678575885","category":"76","category_name":"上海菜","address":"黄浦区外马路1333号(近南浦大桥)"},{"poiid":"B2094757D068A3FB4892","title":"云餐厅(世博店)","lon":"121.49891375","lat":"31.200957366","category":"260","category_name":"其他","address":"黄浦区南车站路世博园城市未来馆7-8楼(近半淞园路9月份营业)"},{"poiid":"B2094757D065A6FC4692","title":"HAVEN","lon":"121.50305603","lat":"31.211066691","category":"97","category_name":"法式菜品餐厅","address":"黄浦区中山南路1029号幸福码头3号楼(近多稼路)"},{"poiid":"B2094757DA6EABFB4999","title":"薇拉宫邸私人婚礼会所(南浦店)","lon":"121.509479","lat":"31.2066410000002","category":"248","category_name":"生活娱乐","address":"浦东新区浦明路1888号5号楼(近南浦大桥)查看地图"},{"poiid":"B2094654DA68A0FD4592","title":"上海南浦大桥长途旅游客运站","lon":"121.50129","lat":"31.20767","category":"35","category_name":"长途汽车站","address":"黄浦区外马路1588号(近陆家浜路)"},{"poiid":"B2094757D069AAFD4699","title":"东江高尔夫","lon":"121.50941473","lat":"31.205573774","category":"500","category_name":"未知分类","address":"上海市南码头路5号"},{"poiid":"B2094757D068A5FE409F","title":"黄浦区旅游集散中心 二楼携程VIP","lon":"121.501064","lat":"31.207764","category":"260","category_name":"其他","address":"上海外马路1588号"},{"poiid":"B2094757D16DA2F9429C","title":"优艾贝国际月子会所","lon":"121.511133338","lat":"31.2068565021","category":"248","category_name":"生活娱乐","address":"浦东新区浦明路1888号(近南浦大桥)"},{"poiid":"B209475CD768A0FF4499","title":"pulupulu主题游戏馆","lon":"121.504699","lat":"31.203042","category":"500","category_name":"未知分类","address":"上海市 苗江路139号"},{"poiid":"B2094757D569A3FA4198","title":"南码头","lon":"121.511367","lat":"31.205579","category":"201","category_name":"城市广场","address":"浦明路1888"},{"poiid":"B2094750DA64ABFE469E","title":"上海当代艺术博物馆","lon":"121.499153","lat":"31.200927","category":"500","category_name":"未知分类","address":null},{"poiid":"B2094757D16CA4FF4198","title":"外码头上海创意产业聚集区","lon":"121.505065","lat":"31.208697","category":"46","category_name":"楼宇","address":"上海黄浦区外马路1178号"},{"poiid":"B2094753D76AA6FC499B","title":"宝燕壹号(滨江店)","lon":"121.51101","lat":"31.20368","category":"75","category_name":"浙江菜","address":"上海市浦东新区浦明路1999号云天地美食休闲广场内"},{"poiid":"B209475DD66AA7FE429C","title":"Pulupulu主题游戏馆","lon":"121.500289","lat":"31.205091","category":"248","category_name":"生活娱乐","address":"上海市 黄浦区苗江路139号"},{"poiid":"B2094654DA68A0FD4698","title":"海狮大厦","lon":"121.50265","lat":"31.20692","category":"46","category_name":"楼宇","address":"徐汇区田林路300号"},{"poiid":"B2094757D66EA7F54698","title":"南浦大桥引桥","lon":"121.50467189","lat":"31.205788251","category":"500","category_name":"未知分类","address":"上海南浦大桥"},{"poiid":"B2094654DB6AA6FF419F","title":"南码头渡口","lon":"121.50591","lat":"31.20227","category":"34","category_name":"港口码头","address":""},{"poiid":"B2094757D064A0F94999","title":"黄浦区交警队","lon":"121.502949","lat":"31.208994","category":"500","category_name":"未知分类","address":"上海丰记码头街78号"},{"poiid":"B2094750D16BA1FD409D","title":"虹口足球场","lon":"121.5032644966952","lat":"31.20336783101407","category":"220","category_name":"运动场所","address":null},{"poiid":"B2094750D76FA3FC4993","title":"和容轩","lon":"121.511","lat":"31.2056","category":"76","category_name":"上海菜","address":"浦东新区浦明路1888号15号楼3楼(近微山路)"},{"poiid":"B2094655D265A0F5439E","title":"幸福码头(西门)","lon":"121.50463","lat":"31.21119","category":"47","category_name":"住宅区","address":"中山南路1029号"},{"poiid":"B2094654DA68A0FD469E","title":"黄浦公安分局交警支队业务接待受理点","lon":"121.50264","lat":"31.20692","category":"248","category_name":"生活娱乐","address":"陆家浜路88号海狮大厦"},{"poiid":"B2094757D068A5F8419F","title":"黄浦区社会保险事业管理中心","lon":"121.501153","lat":"31.210839","category":"252","category_name":"楼宇机构","address":"上海黄浦区陆家浜路265号"},{"poiid":"B2094750DB68A2FC4499","title":"浦江.四季 Seasons on the Bund","lon":"121.508255","lat":"31.206165","category":"247","category_name":"餐饮美食","address":"浦东新区浦明路1888弄21号(近东江高尔夫球场)"},{"poiid":"B2094757D064A0F8459B","title":"一一八八 Cafe 1188","lon":"121.505704","lat":"31.2001","category":"247","category_name":"餐饮美食","address":"雪野路1188号世博洲际酒店1楼内近南码头路"},{"poiid":"B2094655D268ABFF4093","title":"内环南浦大桥立交桥","lon":"121.50024","lat":"31.20819","category":"250","category_name":"公园户外","address":""},{"poiid":"B2094757D168A4FB4793","title":"43路终点站","lon":"121.505664","lat":"31.20537","category":"38","category_name":"公交车站","address":"上海南浦大桥"},{"poiid":"B2094757D064AAF8449B","title":"公交65路","lon":"121.50361633","lat":"31.206497192","category":"38","category_name":"公交车站","address":"上海南浦大桥-北区汽车站"},{"poiid":"B2094757D76DA0F4439B","title":"巴赛丽意大利餐厅 Basilico","lon":"121.505704","lat":"31.20014","category":"94","category_name":"西餐厅","address":"浦东新区雪野路1188号世博洲际酒店内(近世博大道)"},{"poiid":"B2094654DB69A7F94299","title":"西三小区","lon":"121.50658","lat":"31.200727","category":"47","category_name":"住宅区","address":"浦东新区西三小区"},{"poiid":"B2094757D168A6FB449E","title":"黄浦区出入境管理办公室","lon":"121.504542738","lat":"31.2036637341","category":"500","category_name":"未知分类","address":"上海市黄浦区陆家浜路88号"},{"poiid":"B2094654DA68A0FD469F","title":"帝龙","lon":"121.50285","lat":"31.20672","category":"170","category_name":"KTV","address":"陆家浜路18号"},{"poiid":"B2094655D268A1FA4699","title":"如家快捷酒店上海南外滩店","lon":"121.50653","lat":"31.21198","category":"216","category_name":"经济型连锁酒店","address":"黄浦区中山南路943号(董家渡口)"},{"poiid":"B2094655D268A6FF4993","title":"黄浦交通违章受理队","lon":"121.5033","lat":"31.20581","category":"250","category_name":"公园户外","address":""},{"poiid":"B2094757D164AAF84192","title":"沪军营路公交枢纽","lon":"121.501061619","lat":"31.2059114971","category":"38","category_name":"公交车站","address":"上海南浦大桥沪军营路"},{"poiid":"B2094655D26BA0FD479D","title":"世博洲际酒店","lon":"121.50538","lat":"31.19933","category":"213","category_name":"五星级宾馆","address":"浦东新区雪野路1188号(近南码头路)"},{"poiid":"B2094655D36DA6FE419E","title":"南浦大桥","lon":"121.49934","lat":"31.20845","category":"38","category_name":"公交车站","address":"黄浦区南马路1410号"},{"poiid":"B2094655D26AA1FA4998","title":"黄浦旅游集散站","lon":"121.50134","lat":"31.20778","category":"35","category_name":"长途汽车站","address":"黄浦区外马路1588号"},{"poiid":"B2094655D264A7FA4899","title":"幸福码头","lon":"121.50506","lat":"31.21097","category":"47","category_name":"住宅区","address":"黄浦区中山南路1029号幸福码头5号楼(近多稼路)"},{"poiid":"B2094757D06FA0F8439A","title":"宝莱纳餐厅(世博店)","lon":"121.504113332","lat":"31.1982851473","category":"260","category_name":"其他","address":"浦东新区世博大道555号1-2楼(近雪野路)"},{"poiid":"B2094757D06FA2FB459A","title":"艾福敦酒店 (Eiffelton Riverside Hotel Pudong Shanghai)","lon":"121.509251618","lat":"31.2056334725","category":"217","category_name":"旅馆招待所","address":"浦东新区浦明路1888号(近浦建路)"},{"poiid":"B2094757D06FA7FD4298","title":"薇拉宫邸(浦东店)","lon":"121.50889556","lat":"31.207375193","category":"95","category_name":"日本料理","address":"上海浦明路1888号5号楼"},{"poiid":"B2094757D06FA1F94793","title":"南码头轮渡","lon":"121.50582772","lat":"31.202802396","category":"260","category_name":"其他","address":"上海浦东新区南码头路1号摆渡口"},{"poiid":"B2094757D06FA4F4429B","title":"上海市第二人民医院","lon":"121.50425317","lat":"31.210314152","category":"162","category_name":"医院","address":"黄浦区多稼路1号(近中山南路)"},{"poiid":"B2094757D06FA3F4459F","title":"南浦大桥地铁站","lon":"121.49936726","lat":"31.20842377","category":"36","category_name":"地铁站","address":"上海轨道交通 四号线 轨交南浦大桥站 轻轨 4"},{"poiid":"B2094757D16CA2FD469D","title":"上海亚廷游艇会","lon":"121.505592","lat":"31.209361","category":"260","category_name":"其他","address":"黄浦区外马路1162号(近南浦大桥浦西桥墩)"},{"poiid":"B2094750DB69A3FD4993","title":"镭战大联盟","lon":"121.501408","lat":"31.204725","category":"248","category_name":"生活娱乐","address":"黄浦区外马路1353号(近南浦大桥)"},{"poiid":"B2094655D268A1FA459F","title":"东江高尔夫会所","lon":"121.51033","lat":"31.2083","category":"206","category_name":"高尔夫相关","address":"小南码头路5号"},{"poiid":"B2094757D169ABFE449D","title":"巴富仕游艇会","lon":"121.505978738","lat":"31.2121359146","category":"500","category_name":"未知分类","address":"上海市黄浦区幸福码头创意园区"},{"poiid":"B2094757DB68A5FA409B","title":"罗曼园高级婚礼会馆 外滩雅致英伦馆","lon":"121.50477647781","lat":"31.210635939807","category":"247","category_name":"餐饮美食","address":"长宁区中山西路1011号(近虹桥路)查看地图"},{"poiid":"B2094654DA68A0FD469D","title":"帝龙海鲜舫","lon":"121.50427282682","lat":"31.206678575885","category":"76","category_name":"上海菜","address":"黄浦区外马路1333号(近南浦大桥)"},{"poiid":"B2094757D068A3FB4892","title":"云餐厅(世博店)","lon":"121.49891375","lat":"31.200957366","category":"260","category_name":"其他","address":"黄浦区南车站路世博园城市未来馆7-8楼(近半淞园路9月份营业)"},{"poiid":"B2094757D065A6FC4692","title":"HAVEN","lon":"121.50305603","lat":"31.211066691","category":"97","category_name":"法式菜品餐厅","address":"黄浦区中山南路1029号幸福码头3号楼(近多稼路)"},{"poiid":"B2094757DA6EABFB4999","title":"薇拉宫邸私人婚礼会所(南浦店)","lon":"121.509479","lat":"31.2066410000002","category":"248","category_name":"生活娱乐","address":"浦东新区浦明路1888号5号楼(近南浦大桥)查看地图"},{"poiid":"B2094654DA68A0FD4592","title":"上海南浦大桥长途旅游客运站","lon":"121.50129","lat":"31.20767","category":"35","category_name":"长途汽车站","address":"黄浦区外马路1588号(近陆家浜路)"},{"poiid":"B2094757D069AAFD4699","title":"东江高尔夫","lon":"121.50941473","lat":"31.205573774","category":"500","category_name":"未知分类","address":"上海市南码头路5号"},{"poiid":"B2094757D068A5FE409F","title":"黄浦区旅游集散中心 二楼携程VIP","lon":"121.501064","lat":"31.207764","category":"260","category_name":"其他","address":"上海外马路1588号"},{"poiid":"B2094757D16DA2F9429C","title":"优艾贝国际月子会所","lon":"121.511133338","lat":"31.2068565021","category":"248","category_name":"生活娱乐","address":"浦东新区浦明路1888号(近南浦大桥)"},{"poiid":"B209475CD768A0FF4499","title":"pulupulu主题游戏馆","lon":"121.504699","lat":"31.203042","category":"500","category_name":"未知分类","address":"上海市 苗江路139号"},{"poiid":"B2094757D569A3FA4198","title":"南码头","lon":"121.511367","lat":"31.205579","category":"201","category_name":"城市广场","address":"浦明路1888"},{"poiid":"B2094750DA64ABFE469E","title":"上海当代艺术博物馆","lon":"121.499153","lat":"31.200927","category":"500","category_name":"未知分类","address":null},{"poiid":"B2094757D16CA4FF4198","title":"外码头上海创意产业聚集区","lon":"121.505065","lat":"31.208697","category":"46","category_name":"楼宇","address":"上海黄浦区外马路1178号"},{"poiid":"B2094753D76AA6FC499B","title":"宝燕壹号(滨江店)","lon":"121.51101","lat":"31.20368","category":"75","category_name":"浙江菜","address":"上海市浦东新区浦明路1999号云天地美食休闲广场内"},{"poiid":"B209475DD66AA7FE429C","title":"Pulupulu主题游戏馆","lon":"121.500289","lat":"31.205091","category":"248","category_name":"生活娱乐","address":"上海市 黄浦区苗江路139号"},{"poiid":"B2094654DA68A0FD4698","title":"海狮大厦","lon":"121.50265","lat":"31.20692","category":"46","category_name":"楼宇","address":"徐汇区田林路300号"},{"poiid":"B2094757D66EA7F54698","title":"南浦大桥引桥","lon":"121.50467189","lat":"31.205788251","category":"500","category_name":"未知分类","address":"上海南浦大桥"},{"poiid":"B2094654DB6AA6FF419F","title":"南码头渡口","lon":"121.50591","lat":"31.20227","category":"34","category_name":"港口码头","address":""},{"poiid":"B2094757D064A0F94999","title":"黄浦区交警队","lon":"121.502949","lat":"31.208994","category":"500","category_name":"未知分类","address":"上海丰记码头街78号"},{"poiid":"B2094750D16BA1FD409D","title":"虹口足球场","lon":"121.5032644966952","lat":"31.20336783101407","category":"220","category_name":"运动场所","address":null},{"poiid":"B2094750D76FA3FC4993","title":"和容轩","lon":"121.511","lat":"31.2056","category":"76","category_name":"上海菜","address":"浦东新区浦明路1888号15号楼3楼(近微山路)"},{"poiid":"B2094655D265A0F5439E","title":"幸福码头(西门)","lon":"121.50463","lat":"31.21119","category":"47","category_name":"住宅区","address":"中山南路1029号"},{"poiid":"B2094654DA68A0FD469E","title":"黄浦公安分局交警支队业务接待受理点","lon":"121.50264","lat":"31.20692","category":"248","category_name":"生活娱乐","address":"陆家浜路88号海狮大厦"},{"poiid":"B2094757D068A5F8419F","title":"黄浦区社会保险事业管理中心","lon":"121.501153","lat":"31.210839","category":"252","category_name":"楼宇机构","address":"上海黄浦区陆家浜路265号"},{"poiid":"B2094750DB68A2FC4499","title":"浦江.四季 Seasons on the Bund","lon":"121.508255","lat":"31.206165","category":"247","category_name":"餐饮美食","address":"浦东新区浦明路1888弄21号(近东江高尔夫球场)"},{"poiid":"B2094757D064A0F8459B","title":"一一八八 Cafe 1188","lon":"121.505704","lat":"31.2001","category":"247","category_name":"餐饮美食","address":"雪野路1188号世博洲际酒店1楼内近南码头路"},{"poiid":"B2094655D268ABFF4093","title":"内环南浦大桥立交桥","lon":"121.50024","lat":"31.20819","category":"250","category_name":"公园户外","address":""},{"poiid":"B2094757D168A4FB4793","title":"43路终点站","lon":"121.505664","lat":"31.20537","category":"38","category_name":"公交车站","address":"上海南浦大桥"},{"poiid":"B2094757D064AAF8449B","title":"公交65路","lon":"121.50361633","lat":"31.206497192","category":"38","category_name":"公交车站","address":"上海南浦大桥-北区汽车站"},{"poiid":"B2094757D76DA0F4439B","title":"巴赛丽意大利餐厅 Basilico","lon":"121.505704","lat":"31.20014","category":"94","category_name":"西餐厅","address":"浦东新区雪野路1188号世博洲际酒店内(近世博大道)"},{"poiid":"B2094654DB69A7F94299","title":"西三小区","lon":"121.50658","lat":"31.200727","category":"47","category_name":"住宅区","address":"浦东新区西三小区"},{"poiid":"B2094757D168A6FB449E","title":"黄浦区出入境管理办公室","lon":"121.504542738","lat":"31.2036637341","category":"500","category_name":"未知分类","address":"上海市黄浦区陆家浜路88号"},{"poiid":"B2094654DA68A0FD469F","title":"帝龙","lon":"121.50285","lat":"31.20672","category":"170","category_name":"KTV","address":"陆家浜路18号"},{"poiid":"B2094655D268A1FA4699","title":"如家快捷酒店上海南外滩店","lon":"121.50653","lat":"31.21198","category":"216","category_name":"经济型连锁酒店","address":"黄浦区中山南路943号(董家渡口)"},{"poiid":"B2094655D268A6FF4993","title":"黄浦交通违章受理队","lon":"121.5033","lat":"31.20581","category":"250","category_name":"公园户外","address":""},{"poiid":"B2094757D164AAF84192","title":"沪军营路公交枢纽","lon":"121.501061619","lat":"31.2059114971","category":"38","category_name":"公交车站","address":"上海南浦大桥沪军营路"},{"poiid":"B2094655D26BA0FD479D","title":"世博洲际酒店","lon":"121.50538","lat":"31.19933","category":"213","category_name":"五星级宾馆","address":"浦东新区雪野路1188号(近南码头路)"},{"poiid":"B2094655D36DA6FE419E","title":"南浦大桥","lon":"121.49934","lat":"31.20845","category":"38","category_name":"公交车站","address":"黄浦区南马路1410号"},{"poiid":"B2094655D26AA1FA4998","title":"黄浦旅游集散站","lon":"121.50134","lat":"31.20778","category":"35","category_name":"长途汽车站","address":"黄浦区外马路1588号"},{"poiid":"B2094655D264A7FA4899","title":"幸福码头","lon":"121.50506","lat":"31.21097","category":"47","category_name":"住宅区","address":"黄浦区中山南路1029号幸福码头5号楼(近多稼路)"},{"poiid":"B2094757D06FA0F8439A","title":"宝莱纳餐厅(世博店)","lon":"121.504113332","lat":"31.1982851473","category":"260","category_name":"其他","address":"浦东新区世博大道555号1-2楼(近雪野路)"},{"poiid":"B2094757D06FA2FB459A","title":"艾福敦酒店 (Eiffelton Riverside Hotel Pudong Shanghai)","lon":"121.509251618","lat":"31.2056334725","category":"217","category_name":"旅馆招待所","address":"浦东新区浦明路1888号(近浦建路)"},{"poiid":"B2094757D06FA7FD4298","title":"薇拉宫邸(浦东店)","lon":"121.50889556","lat":"31.207375193","category":"95","category_name":"日本料理","address":"上海浦明路1888号5号楼"},{"poiid":"B2094757D06FA1F94793","title":"南码头轮渡","lon":"121.50582772","lat":"31.202802396","category":"260","category_name":"其他","address":"上海浦东新区南码头路1号摆渡口"},{"poiid":"B2094757D06FA4F4429B","title":"上海市第二人民医院","lon":"121.50425317","lat":"31.210314152","category":"162","category_name":"医院","address":"黄浦区多稼路1号(近中山南路)"},{"poiid":"B2094757D06FA3F4459F","title":"南浦大桥地铁站","lon":"121.49936726","lat":"31.20842377","category":"36","category_name":"地铁站","address":"上海轨道交通 四号线 轨交南浦大桥站 轻轨 4"},{"poiid":"B2094757D16CA2FD469D","title":"上海亚廷游艇会","lon":"121.505592","lat":"31.209361","category":"260","category_name":"其他","address":"黄浦区外马路1162号(近南浦大桥浦西桥墩)"},{"poiid":"B2094750DB69A3FD4993","title":"镭战大联盟","lon":"121.501408","lat":"31.204725","category":"248","category_name":"生活娱乐","address":"黄浦区外马路1353号(近南浦大桥)"},{"poiid":"B2094655D268A1FA459F","title":"东江高尔夫会所","lon":"121.51033","lat":"31.2083","category":"206","category_name":"高尔夫相关","address":"小南码头路5号"},{"poiid":"B2094757D169ABFE449D","title":"巴富仕游艇会","lon":"121.505978738","lat":"31.2121359146","category":"500","category_name":"未知分类","address":"上海市黄浦区幸福码头创意园区"},{"poiid":"B2094757DB68A5FA409B","title":"罗曼园高级婚礼会馆 外滩雅致英伦馆","lon":"121.50477647781","lat":"31.210635939807","category":"247","category_name":"餐饮美食","address":"长宁区中山西路1011号(近虹桥路)查看地图"},{"poiid":"B2094654DA68A0FD469D","title":"帝龙海鲜舫","lon":"121.50427282682","lat":"31.206678575885","category":"76","category_name":"上海菜","address":"黄浦区外马路1333号(近南浦大桥)"},{"poiid":"B2094757D068A3FB4892","title":"云餐厅(世博店)","lon":"121.49891375","lat":"31.200957366","category":"260","category_name":"其他","address":"黄浦区南车站路世博园城市未来馆7-8楼(近半淞园路9月份营业)"},{"poiid":"B2094757D065A6FC4692","title":"HAVEN","lon":"121.50305603","lat":"31.211066691","category":"97","category_name":"法式菜品餐厅","address":"黄浦区中山南路1029号幸福码头3号楼(近多稼路)"},{"poiid":"B2094757DA6EABFB4999","title":"薇拉宫邸私人婚礼会所(南浦店)","lon":"121.509479","lat":"31.2066410000002","category":"248","category_name":"生活娱乐","address":"浦东新区浦明路1888号5号楼(近南浦大桥)查看地图"},{"poiid":"B2094654DA68A0FD4592","title":"上海南浦大桥长途旅游客运站","lon":"121.50129","lat":"31.20767","category":"35","category_name":"长途汽车站","address":"黄浦区外马路1588号(近陆家浜路)"},{"poiid":"B2094757D069AAFD4699","title":"东江高尔夫","lon":"121.50941473","lat":"31.205573774","category":"500","category_name":"未知分类","address":"上海市南码头路5号"},{"poiid":"B2094757D068A5FE409F","title":"黄浦区旅游集散中心 二楼携程VIP","lon":"121.501064","lat":"31.207764","category":"260","category_name":"其他","address":"上海外马路1588号"},{"poiid":"B2094757D16DA2F9429C","title":"优艾贝国际月子会所","lon":"121.511133338","lat":"31.2068565021","category":"248","category_name":"生活娱乐","address":"浦东新区浦明路1888号(近南浦大桥)"},{"poiid":"B209475CD768A0FF4499","title":"pulupulu主题游戏馆","lon":"121.504699","lat":"31.203042","category":"500","category_name":"未知分类","address":"上海市 苗江路139号"},{"poiid":"B2094757D569A3FA4198","title":"南码头","lon":"121.511367","lat":"31.205579","category":"201","category_name":"城市广场","address":"浦明路1888"},{"poiid":"B2094750DA64ABFE469E","title":"上海当代艺术博物馆","lon":"121.499153","lat":"31.200927","category":"500","category_name":"未知分类","address":null},{"poiid":"B2094757D16CA4FF4198","title":"外码头上海创意产业聚集区","lon":"121.505065","lat":"31.208697","category":"46","category_name":"楼宇","address":"上海黄浦区外马路1178号"},{"poiid":"B2094753D76AA6FC499B","title":"宝燕壹号(滨江店)","lon":"121.51101","lat":"31.20368","category":"75","category_name":"浙江菜","address":"上海市浦东新区浦明路1999号云天地美食休闲广场内"},{"poiid":"B209475DD66AA7FE429C","title":"Pulupulu主题游戏馆","lon":"121.500289","lat":"31.205091","category":"248","category_name":"生活娱乐","address":"上海市 黄浦区苗江路139号"},{"poiid":"B2094654DA68A0FD4698","title":"海狮大厦","lon":"121.50265","lat":"31.20692","category":"46","category_name":"楼宇","address":"徐汇区田林路300号"},{"poiid":"B2094757D66EA7F54698","title":"南浦大桥引桥","lon":"121.50467189","lat":"31.205788251","category":"500","category_name":"未知分类","address":"上海南浦大桥"},{"poiid":"B2094654DB6AA6FF419F","title":"南码头渡口","lon":"121.50591","lat":"31.20227","category":"34","category_name":"港口码头","address":""},{"poiid":"B2094757D064A0F94999","title":"黄浦区交警队","lon":"121.502949","lat":"31.208994","category":"500","category_name":"未知分类","address":"上海丰记码头街78号"},{"poiid":"B2094750D16BA1FD409D","title":"虹口足球场","lon":"121.5032644966952","lat":"31.20336783101407","category":"220","category_name":"运动场所","address":null},{"poiid":"B2094750D76FA3FC4993","title":"和容轩","lon":"121.511","lat":"31.2056","category":"76","category_name":"上海菜","address":"浦东新区浦明路1888号15号楼3楼(近微山路)"},{"poiid":"B2094655D265A0F5439E","title":"幸福码头(西门)","lon":"121.50463","lat":"31.21119","category":"47","category_name":"住宅区","address":"中山南路1029号"},{"poiid":"B2094654DA68A0FD469E","title":"黄浦公安分局交警支队业务接待受理点","lon":"121.50264","lat":"31.20692","category":"248","category_name":"生活娱乐","address":"陆家浜路88号海狮大厦"},{"poiid":"B2094757D068A5F8419F","title":"黄浦区社会保险事业管理中心","lon":"121.501153","lat":"31.210839","category":"252","category_name":"楼宇机构","address":"上海黄浦区陆家浜路265号"},{"poiid":"B2094750DB68A2FC4499","title":"浦江.四季 Seasons on the Bund","lon":"121.508255","lat":"31.206165","category":"247","category_name":"餐饮美食","address":"浦东新区浦明路1888弄21号(近东江高尔夫球场)"},{"poiid":"B2094757D064A0F8459B","title":"一一八八 Cafe 1188","lon":"121.505704","lat":"31.2001","category":"247","category_name":"餐饮美食","address":"雪野路1188号世博洲际酒店1楼内近南码头路"},{"poiid":"B2094655D268ABFF4093","title":"内环南浦大桥立交桥","lon":"121.50024","lat":"31.20819","category":"250","category_name":"公园户外","address":""},{"poiid":"B2094757D168A4FB4793","title":"43路终点站","lon":"121.505664","lat":"31.20537","category":"38","category_name":"公交车站","address":"上海南浦大桥"},{"poiid":"B2094757D064AAF8449B","title":"公交65路","lon":"121.50361633","lat":"31.206497192","category":"38","category_name":"公交车站","address":"上海南浦大桥-北区汽车站"},{"poiid":"B2094757D76DA0F4439B","title":"巴赛丽意大利餐厅 Basilico","lon":"121.505704","lat":"31.20014","category":"94","category_name":"西餐厅","address":"浦东新区雪野路1188号世博洲际酒店内(近世博大道)"},{"poiid":"B2094654DB69A7F94299","title":"西三小区","lon":"121.50658","lat":"31.200727","category":"47","category_name":"住宅区","address":"浦东新区西三小区"},{"poiid":"B2094757D168A6FB449E","title":"黄浦区出入境管理办公室","lon":"121.504542738","lat":"31.2036637341","category":"500","category_name":"未知分类","address":"上海市黄浦区陆家浜路88号"},{"poiid":"B2094654DA68A0FD469F","title":"帝龙","lon":"121.50285","lat":"31.20672","category":"170","category_name":"KTV","address":"陆家浜路18号"},{"poiid":"B2094655D268A1FA4699","title":"如家快捷酒店上海南外滩店","lon":"121.50653","lat":"31.21198","category":"216","category_name":"经济型连锁酒店","address":"黄浦区中山南路943号(董家渡口)"},{"poiid":"B2094655D268A6FF4993","title":"黄浦交通违章受理队","lon":"121.5033","lat":"31.20581","category":"250","category_name":"公园户外","address":""},{"poiid":"B2094757D164AAF84192","title":"沪军营路公交枢纽","lon":"121.501061619","lat":"31.2059114971","category":"38","category_name":"公交车站","address":"上海南浦大桥沪军营路"},{"poiid":"B2094655D26BA0FD479D","title":"世博洲际酒店","lon":"121.50538","lat":"31.19933","category":"213","category_name":"五星级宾馆","address":"浦东新区雪野路1188号(近南码头路)"},{"poiid":"B2094655D36DA6FE419E","title":"南浦大桥","lon":"121.49934","lat":"31.20845","category":"38","category_name":"公交车站","address":"黄浦区南马路1410号"},{"poiid":"B2094655D26AA1FA4998","title":"黄浦旅游集散站","lon":"121.50134","lat":"31.20778","category":"35","category_name":"长途汽车站","address":"黄浦区外马路1588号"},{"poiid":"B2094655D264A7FA4899","title":"幸福码头","lon":"121.50506","lat":"31.21097","category":"47","category_name":"住宅区","address":"黄浦区中山南路1029号幸福码头5号楼(近多稼路)"},{"poiid":"B2094757D06FA0F8439A","title":"宝莱纳餐厅(世博店)","lon":"121.504113332","lat":"31.1982851473","category":"260","category_name":"其他","address":"浦东新区世博大道555号1-2楼(近雪野路)"},{"poiid":"B2094757D06FA2FB459A","title":"艾福敦酒店 (Eiffelton Riverside Hotel Pudong Shanghai)","lon":"121.509251618","lat":"31.2056334725","category":"217","category_name":"旅馆招待所","address":"浦东新区浦明路1888号(近浦建路)"},{"poiid":"B2094757D06FA7FD4298","title":"薇拉宫邸(浦东店)","lon":"121.50889556","lat":"31.207375193","category":"95","category_name":"日本料理","address":"上海浦明路1888号5号楼"},{"poiid":"B2094757D06FA1F94793","title":"南码头轮渡","lon":"121.50582772","lat":"31.202802396","category":"260","category_name":"其他","address":"上海浦东新区南码头路1号摆渡口"},{"poiid":"B2094757D06FA4F4429B","title":"上海市第二人民医院","lon":"121.50425317","lat":"31.210314152","category":"162","category_name":"医院","address":"黄浦区多稼路1号(近中山南路)"},{"poiid":"B2094757D06FA3F4459F","title":"南浦大桥地铁站","lon":"121.49936726","lat":"31.20842377","category":"36","category_name":"地铁站","address":"上海轨道交通 四号线 轨交南浦大桥站 轻轨 4"},{"poiid":"B2094757D16CA2FD469D","title":"上海亚廷游艇会","lon":"121.505592","lat":"31.209361","category":"260","category_name":"其他","address":"黄浦区外马路1162号(近南浦大桥浦西桥墩)"},{"poiid":"B2094750DB69A3FD4993","title":"镭战大联盟","lon":"121.501408","lat":"31.204725","category":"248","category_name":"生活娱乐","address":"黄浦区外马路1353号(近南浦大桥)"},{"poiid":"B2094655D268A1FA459F","title":"东江高尔夫会所","lon":"121.51033","lat":"31.2083","category":"206","category_name":"高尔夫相关","address":"小南码头路5号"},{"poiid":"B2094757D169ABFE449D","title":"巴富仕游艇会","lon":"121.505978738","lat":"31.2121359146","category":"500","category_name":"未知分类","address":"上海市黄浦区幸福码头创意园区"},{"poiid":"B2094757DB68A5FA409B","title":"罗曼园高级婚礼会馆 外滩雅致英伦馆","lon":"121.50477647781","lat":"31.210635939807","category":"247","category_name":"餐饮美食","address":"长宁区中山西路1011号(近虹桥路)查看地图"},{"poiid":"B2094654DA68A0FD469D","title":"帝龙海鲜舫","lon":"121.50427282682","lat":"31.206678575885","category":"76","category_name":"上海菜","address":"黄浦区外马路1333号(近南浦大桥)"},{"poiid":"B2094757D068A3FB4892","title":"云餐厅(世博店)","lon":"121.49891375","lat":"31.200957366","category":"260","category_name":"其他","address":"黄浦区南车站路世博园城市未来馆7-8楼(近半淞园路9月份营业)"},{"poiid":"B2094757D065A6FC4692","title":"HAVEN","lon":"121.50305603","lat":"31.211066691","category":"97","category_name":"法式菜品餐厅","address":"黄浦区中山南路1029号幸福码头3号楼(近多稼路)"},{"poiid":"B2094757DA6EABFB4999","title":"薇拉宫邸私人婚礼会所(南浦店)","lon":"121.509479","lat":"31.2066410000002","category":"248","category_name":"生活娱乐","address":"浦东新区浦明路1888号5号楼(近南浦大桥)查看地图"},{"poiid":"B2094654DA68A0FD4592","title":"上海南浦大桥长途旅游客运站","lon":"121.50129","lat":"31.20767","category":"35","category_name":"长途汽车站","address":"黄浦区外马路1588号(近陆家浜路)"},{"poiid":"B2094757D069AAFD4699","title":"东江高尔夫","lon":"121.50941473","lat":"31.205573774","category":"500","category_name":"未知分类","address":"上海市南码头路5号"},{"poiid":"B2094757D068A5FE409F","title":"黄浦区旅游集散中心 二楼携程VIP","lon":"121.501064","lat":"31.207764","category":"260","category_name":"其他","address":"上海外马路1588号"},{"poiid":"B2094757D16DA2F9429C","title":"优艾贝国际月子会所","lon":"121.511133338","lat":"31.2068565021","category":"248","category_name":"生活娱乐","address":"浦东新区浦明路1888号(近南浦大桥)"},{"poiid":"B209475CD768A0FF4499","title":"pulupulu主题游戏馆","lon":"121.504699","lat":"31.203042","category":"500","category_name":"未知分类","address":"上海市 苗江路139号"},{"poiid":"B2094757D569A3FA4198","title":"南码头","lon":"121.511367","lat":"31.205579","category":"201","category_name":"城市广场","address":"浦明路1888"},{"poiid":"B2094750DA64ABFE469E","title":"上海当代艺术博物馆","lon":"121.499153","lat":"31.200927","category":"500","category_name":"未知分类","address":null},{"poiid":"B2094757D16CA4FF4198","title":"外码头上海创意产业聚集区","lon":"121.505065","lat":"31.208697","category":"46","category_name":"楼宇","address":"上海黄浦区外马路1178号"},{"poiid":"B2094753D76AA6FC499B","title":"宝燕壹号(滨江店)","lon":"121.51101","lat":"31.20368","category":"75","category_name":"浙江菜","address":"上海市浦东新区浦明路1999号云天地美食休闲广场内"},{"poiid":"B209475DD66AA7FE429C","title":"Pulupulu主题游戏馆","lon":"121.500289","lat":"31.205091","category":"248","category_name":"生活娱乐","address":"上海市 黄浦区苗江路139号"},{"poiid":"B2094654DA68A0FD4698","title":"海狮大厦","lon":"121.50265","lat":"31.20692","category":"46","category_name":"楼宇","address":"徐汇区田林路300号"},{"poiid":"B2094757D66EA7F54698","title":"南浦大桥引桥","lon":"121.50467189","lat":"31.205788251","category":"500","category_name":"未知分类","address":"上海南浦大桥"},{"poiid":"B2094654DB6AA6FF419F","title":"南码头渡口","lon":"121.50591","lat":"31.20227","category":"34","category_name":"港口码头","address":""},{"poiid":"B2094757D064A0F94999","title":"黄浦区交警队","lon":"121.502949","lat":"31.208994","category":"500","category_name":"未知分类","address":"上海丰记码头街78号"},{"poiid":"B2094750D16BA1FD409D","title":"虹口足球场","lon":"121.5032644966952","lat":"31.20336783101407","category":"220","category_name":"运动场所","address":null},{"poiid":"B2094750D76FA3FC4993","title":"和容轩","lon":"121.511","lat":"31.2056","category":"76","category_name":"上海菜","address":"浦东新区浦明路1888号15号楼3楼(近微山路)"},{"poiid":"B2094655D265A0F5439E","title":"幸福码头(西门)","lon":"121.50463","lat":"31.21119","category":"47","category_name":"住宅区","address":"中山南路1029号"},{"poiid":"B2094654DA68A0FD469E","title":"黄浦公安分局交警支队业务接待受理点","lon":"121.50264","lat":"31.20692","category":"248","category_name":"生活娱乐","address":"陆家浜路88号海狮大厦"},{"poiid":"B2094757D068A5F8419F","title":"黄浦区社会保险事业管理中心","lon":"121.501153","lat":"31.210839","category":"252","category_name":"楼宇机构","address":"上海黄浦区陆家浜路265号"},{"poiid":"B2094750DB68A2FC4499","title":"浦江.四季 Seasons on the Bund","lon":"121.508255","lat":"31.206165","category":"247","category_name":"餐饮美食","address":"浦东新区浦明路1888弄21号(近东江高尔夫球场)"},{"poiid":"B2094757D064A0F8459B","title":"一一八八 Cafe 1188","lon":"121.505704","lat":"31.2001","category":"247","category_name":"餐饮美食","address":"雪野路1188号世博洲际酒店1楼内近南码头路"},{"poiid":"B2094655D268ABFF4093","title":"内环南浦大桥立交桥","lon":"121.50024","lat":"31.20819","category":"250","category_name":"公园户外","address":""},{"poiid":"B2094757D168A4FB4793","title":"43路终点站","lon":"121.505664","lat":"31.20537","category":"38","category_name":"公交车站","address":"上海南浦大桥"},{"poiid":"B2094757D064AAF8449B","title":"公交65路","lon":"121.50361633","lat":"31.206497192","category":"38","category_name":"公交车站","address":"上海南浦大桥-北区汽车站"},{"poiid":"B2094757D76DA0F4439B","title":"巴赛丽意大利餐厅 Basilico","lon":"121.505704","lat":"31.20014","category":"94","category_name":"西餐厅","address":"浦东新区雪野路1188号世博洲际酒店内(近世博大道)"},{"poiid":"B2094654DB69A7F94299","title":"西三小区","lon":"121.50658","lat":"31.200727","category":"47","category_name":"住宅区","address":"浦东新区西三小区"},{"poiid":"B2094757D168A6FB449E","title":"黄浦区出入境管理办公室","lon":"121.504542738","lat":"31.2036637341","category":"500","category_name":"未知分类","address":"上海市黄浦区陆家浜路88号"},{"poiid":"B2094654DA68A0FD469F","title":"帝龙","lon":"121.50285","lat":"31.20672","category":"170","category_name":"KTV","address":"陆家浜路18号"},{"poiid":"B2094655D268A1FA4699","title":"如家快捷酒店上海南外滩店","lon":"121.50653","lat":"31.21198","category":"216","category_name":"经济型连锁酒店","address":"黄浦区中山南路943号(董家渡口)"},{"poiid":"B2094655D268A6FF4993","title":"黄浦交通违章受理队","lon":"121.5033","lat":"31.20581","category":"250","category_name":"公园户外","address":""},{"poiid":"B2094757D164AAF84192","title":"沪军营路公交枢纽","lon":"121.501061619","lat":"31.2059114971","category":"38","category_name":"公交车站","address":"上海南浦大桥沪军营路"}]