[{"poiid":"B2094654D569A4F4469D","title":"长宁区中心医院","lon":"121.37709335276122","lat":"31.208426558908037","category":"162","category_name":"医院","address":"长宁区仙霞路1111号(近林泉路)"},{"poiid":"B2094757D06FA4FF469C","title":"上海和睦家医院","lon":"121.376266031","lat":"31.208341498","category":"162","category_name":"医院","address":"哈密路442号铭晖商务楼601-604、609"},{"poiid":"B2094757D06BA2FC449E","title":"长宁区中心医院急诊部","lon":"121.377094512","lat":"31.2084245186","category":"162","category_name":"医院","address":"上海长宁区仙霞路1111号(近林泉路)"},{"poiid":"B2094757DA6EABF8439F","title":"17.5影院(北虹路店)","lon":"121.37688","lat":"31.214945","category":"178","category_name":"电影院","address":"长宁区北虹路1068号4楼(近2号线北新泾地铁站)"},{"poiid":"B2094757D06FA1FE459A","title":"延安中学","lon":"121.37963","lat":"31.20991","category":"55","category_name":"中学","address":"长宁区茅台路1111号(茅台路双流路)"},{"poiid":"B2094757D06FABFF419C","title":"西郊百联卡通尼乐园","lon":"121.371774532","lat":"31.2110243879","category":"500","category_name":"未知分类","address":"上海西郊百联四楼"},{"poiid":"B2094757D06AA2FE4999","title":"西郊5号","lon":"121.37692","lat":"31.20522","category":"47","category_name":"住宅区","address":"长宁区虹古路669号(近青溪路西郊宾馆四号门一侧)"},{"poiid":"B2094750D76EA5F5449B","title":"西贝西北菜(百联西郊店)","lon":"121.372","lat":"31.2078","category":"84","category_name":"西北菜","address":"长宁区仙霞西路88号百联西郊购物中心南区3楼(近哈密路)"},{"poiid":"B2094752D36DA3F8419A","title":"17.5北虹广场影城","lon":"121.37678951025009","lat":"31.21515273321473","category":"178","category_name":"电影院","address":"上海长宁区北虹路1068号第四层B区(世纪联华)"},{"poiid":"B2094757D06FA6FC4692","title":"长宁区中心医院住院部","lon":"121.37709529","lat":"31.208426746","category":"162","category_name":"医院","address":"上海市长宁区仙霞路1111号(近林泉路)"},{"poiid":"B2094654DB6BA0FC449C","title":"如家快捷酒店(上海虹桥北虹路店)","lon":"121.37634","lat":"31.21165","category":"216","category_name":"经济型连锁酒店","address":"上海市长宁区北虹路1129号(近天山路)"},{"poiid":"B2094655D26FA4F84799","title":"上海西郊宾馆东湖公寓酒店","lon":"121.37792","lat":"31.20489","category":"250","category_name":"公园户外","address":"上海市长宁区虹古路619号(近青溪路)"},{"poiid":"B2094757D069A3FA459B","title":"新农庄(仙霞路店)","lon":"121.37434","lat":"31.20749","category":"76","category_name":"上海菜","address":"长宁区仙霞路1181号(林泉路口)"},{"poiid":"B2094757D16DA1FB4892","title":"长中心输液室","lon":"121.37839049","lat":"31.208851247","category":"162","category_name":"医院","address":"上海仙霞路1111"},{"poiid":"B2094757D66DA1FC4193","title":"俊记餐厅","lon":"121.37681","lat":"31.20972","category":"68","category_name":"快餐厅","address":"长宁区林泉路537号(近泉口路)"},{"poiid":"B2094757D16BA5FF479F","title":"长宁区中心医院特需门诊","lon":"121.375803586","lat":"31.2074649858","category":"162","category_name":"医院","address":"上海市长宁区仙霞路1111号(近林泉路)"},{"poiid":"B2094654D569A4F44493","title":"鑫光商务中心","lon":"121.37648","lat":"31.21008","category":"46","category_name":"楼宇","address":"林泉路537号"},{"poiid":"B2094655D26CA5F54492","title":"虹康三期","lon":"121.3717","lat":"31.21156","category":"47","category_name":"住宅区","address":"上海泉口路109弄"},{"poiid":"B2094654D569A4F4489A","title":"红宝石 仙霞店 Ruby","lon":"121.376869054","lat":"31.208060793","category":"67","category_name":"甜品店","address":"长宁区仙霞路1007号(北虹路与青溪路之间)"},{"poiid":"B2094751D569A7F5479C","title":"柚子林碳火烤肉","lon":"121.3769629","lat":"31.2096943","category":"247","category_name":"餐饮美食","address":"威宁路55号"},{"poiid":"B2094757D168A2F84798","title":"闻广教育","lon":"121.374775586","lat":"31.2110600561","category":"500","category_name":"未知分类","address":"长宁区哈密路446号铭晖商务楼内(近泉口路口)"},{"poiid":"B2094757D06FA6FE419B","title":"世纪联华(天山店)","lon":"121.37688663","lat":"31.214867087","category":"118","category_name":"超级市场","address":"长宁区北虹路1068号(北虹路哈密路)"},{"poiid":"B2094757D464A0F5449B","title":"新德记","lon":"121.3757703963","lat":"31.207665003279","category":"72","category_name":"广东菜","address":"长宁区仙霞路1088弄15号(近青溪路)"},{"poiid":"B2094655D36CA5F5429D","title":"北虹路茅台路","lon":"121.37753","lat":"31.21004","category":"38","category_name":"公交车站","address":""},{"poiid":"B2094655D26FA0F5429F","title":"天祥大厦(南一门)","lon":"121.37754","lat":"31.211","category":"46","category_name":"楼宇","address":"茅台路1068号"},{"poiid":"B2094655D26BABFB4393","title":"海上花园","lon":"121.377107","lat":"31.210892","category":"47","category_name":"住宅区","address":"上海市长宁区淮阴路518号"},{"poiid":"B2094757D069A5F84993","title":"长中心急诊住院处","lon":"121.37756558","lat":"31.208024996","category":"162","category_name":"医院","address":"上海市长宁区仙霞路1111"},{"poiid":"B2094654D569A4F44593","title":"上海市(复旦大学附属)公共卫生临床中心长宁区分中心","lon":"121.37647","lat":"31.20895","category":"162","category_name":"医院","address":""},{"poiid":"B2094654D569ABFD409D","title":"铭晖西郊苑","lon":"121.37551","lat":"31.212334","category":"47","category_name":"住宅区","address":"上海市长宁区哈密路398弄"},{"poiid":"B2094654D569AAFB4293","title":"御墅名邸国际酒店","lon":"121.377","lat":"31.211","category":"250","category_name":"公园户外","address":"长宁区剑河路668号(近哈密路)"},{"poiid":"B2094757D064A0F9489B","title":"汉庭快捷酒店(哈密路店)","lon":"121.37522758","lat":"31.213401919","category":"217","category_name":"旅馆招待所","address":"上海长宁区哈密路388号(近新渔东路)"},{"poiid":"B2094654D569A4F4439F","title":"好德No.264","lon":"121.37539","lat":"31.21091","category":"117","category_name":"便民商店/便利店","address":"泉口路32号"},{"poiid":"B2094752DA68A5F8409E","title":"上海市长宁中心医院","lon":"121.373209","lat":"31.210185","category":"162","category_name":"医院","address":"上海市 仙霞路1111号"},{"poiid":"B2094655D264A5F4489E","title":"臻记","lon":"121.37582","lat":"31.20762","category":"68","category_name":"快餐厅","address":"长宁区仙霞路1122号(近林泉路)"},{"poiid":"B2094757D06BABFE4492","title":"长宁区中心医院住院部三楼内科","lon":"121.37745328","lat":"31.208376403","category":"162","category_name":"医院","address":"上海仙霞路1111号"},{"poiid":"B2094654D569ABFD479D","title":"鑫光之家","lon":"121.37367","lat":"31.21068","category":"76","category_name":"上海菜","address":"长宁区哈密路468号(近泉口路)"},{"poiid":"B2094757D069A5FE489B","title":"长宁区中心医院住院部三楼外科","lon":"121.37738658","lat":"31.208351403","category":"162","category_name":"医院","address":"上海长宁区中心医院住院部三楼外科"},{"poiid":"B2094654D569A4F44898","title":"北虹公寓","lon":"121.3784","lat":"31.208519","category":"47","category_name":"住宅区","address":"仙霞路1001弄1-20号"},{"poiid":"B2094654D569A4FB4493","title":"佳辰假日酒店","lon":"121.37915","lat":"31.211","category":"250","category_name":"公园户外","address":"长宁区茅台路1006号(近威宁路)"},{"poiid":"B2094757D168ABF54493","title":"新泾派出所","lon":"121.373479686","lat":"31.2102758408","category":"609","category_name":"警察局","address":"上海剑河路500号"},{"poiid":"B2094757D069A7F44799","title":"茅台路天祥大厦","lon":"121.378112793","lat":"31.2110481262","category":"500","category_name":"未知分类","address":"上海茅台路1068号"},{"poiid":"B2094654D569ABFD489B","title":"永馨小区","lon":"121.37349","lat":"31.209143","category":"47","category_name":"住宅区","address":"哈密路500弄9-35号"},{"poiid":"B2094757D06AA7FA409A","title":"上海市长宁区泉口路109弄","lon":"121.373554811","lat":"31.2106570482","category":"500","category_name":"未知分类","address":"上海市长宁区泉口路"},{"poiid":"B2094654D569A4F4459D","title":"鑫洁汽车美容装潢中心","lon":"121.37612","lat":"31.2094","category":"159","category_name":"汽车维修","address":"临泉路453"},{"poiid":"B2094757D76CA1F4479A","title":"来伊份 仙霞路二店","lon":"121.37883","lat":"31.20776","category":"68","category_name":"快餐厅","address":"长宁区仙霞路981号(近北虹路)"},{"poiid":"B2094757D66EA7F44199","title":"长宁区中心医院六楼手术室","lon":"121.37614508","lat":"31.207882194","category":"162","category_name":"医院","address":"上海仙霞路1111号"},{"poiid":"B2094757D66DAAFC479E","title":"圣安东尼宠物康复医院","lon":"121.37465","lat":"31.21211","category":"162","category_name":"医院","address":"长宁区哈密路440号(哈密路泉口路)"},{"poiid":"B2094757D169A5FA479F","title":"长宁区中心医院多功能厅","lon":"121.37711958","lat":"31.207933895","category":"162","category_name":"医院","address":"上海仙霞路"},{"poiid":"B2094757D16FA4FE499E","title":"好不容易...好不容易...","lon":"121.37734858","lat":"31.209196019","category":"500","category_name":"未知分类","address":"上海好不容易"},{"poiid":"B2094757D06AA3F4429B","title":"中环线仙霞路下匝道","lon":"121.375711","lat":"31.211895","category":"260","category_name":"其他","address":"上海市长宁区仙霞路北虹路口"},{"poiid":"B2094654D569A4F4469D","title":"长宁区中心医院","lon":"121.37709335276122","lat":"31.208426558908037","category":"162","category_name":"医院","address":"长宁区仙霞路1111号(近林泉路)"},{"poiid":"B2094757D06FA4FF469C","title":"上海和睦家医院","lon":"121.376266031","lat":"31.208341498","category":"162","category_name":"医院","address":"哈密路442号铭晖商务楼601-604、609"},{"poiid":"B2094757D06BA2FC449E","title":"长宁区中心医院急诊部","lon":"121.377094512","lat":"31.2084245186","category":"162","category_name":"医院","address":"上海长宁区仙霞路1111号(近林泉路)"},{"poiid":"B2094757DA6EABF8439F","title":"17.5影院(北虹路店)","lon":"121.37688","lat":"31.214945","category":"178","category_name":"电影院","address":"长宁区北虹路1068号4楼(近2号线北新泾地铁站)"},{"poiid":"B2094757D06FA1FE459A","title":"延安中学","lon":"121.37963","lat":"31.20991","category":"55","category_name":"中学","address":"长宁区茅台路1111号(茅台路双流路)"},{"poiid":"B2094757D06FABFF419C","title":"西郊百联卡通尼乐园","lon":"121.371774532","lat":"31.2110243879","category":"500","category_name":"未知分类","address":"上海西郊百联四楼"},{"poiid":"B2094757D06AA2FE4999","title":"西郊5号","lon":"121.37692","lat":"31.20522","category":"47","category_name":"住宅区","address":"长宁区虹古路669号(近青溪路西郊宾馆四号门一侧)"},{"poiid":"B2094750D76EA5F5449B","title":"西贝西北菜(百联西郊店)","lon":"121.372","lat":"31.2078","category":"84","category_name":"西北菜","address":"长宁区仙霞西路88号百联西郊购物中心南区3楼(近哈密路)"},{"poiid":"B2094752D36DA3F8419A","title":"17.5北虹广场影城","lon":"121.37678951025009","lat":"31.21515273321473","category":"178","category_name":"电影院","address":"上海长宁区北虹路1068号第四层B区(世纪联华)"},{"poiid":"B2094757D06FA6FC4692","title":"长宁区中心医院住院部","lon":"121.37709529","lat":"31.208426746","category":"162","category_name":"医院","address":"上海市长宁区仙霞路1111号(近林泉路)"},{"poiid":"B2094654DB6BA0FC449C","title":"如家快捷酒店(上海虹桥北虹路店)","lon":"121.37634","lat":"31.21165","category":"216","category_name":"经济型连锁酒店","address":"上海市长宁区北虹路1129号(近天山路)"},{"poiid":"B2094655D26FA4F84799","title":"上海西郊宾馆东湖公寓酒店","lon":"121.37792","lat":"31.20489","category":"250","category_name":"公园户外","address":"上海市长宁区虹古路619号(近青溪路)"},{"poiid":"B2094757D069A3FA459B","title":"新农庄(仙霞路店)","lon":"121.37434","lat":"31.20749","category":"76","category_name":"上海菜","address":"长宁区仙霞路1181号(林泉路口)"},{"poiid":"B2094757D16DA1FB4892","title":"长中心输液室","lon":"121.37839049","lat":"31.208851247","category":"162","category_name":"医院","address":"上海仙霞路1111"},{"poiid":"B2094757D66DA1FC4193","title":"俊记餐厅","lon":"121.37681","lat":"31.20972","category":"68","category_name":"快餐厅","address":"长宁区林泉路537号(近泉口路)"},{"poiid":"B2094757D16BA5FF479F","title":"长宁区中心医院特需门诊","lon":"121.375803586","lat":"31.2074649858","category":"162","category_name":"医院","address":"上海市长宁区仙霞路1111号(近林泉路)"},{"poiid":"B2094654D569A4F44493","title":"鑫光商务中心","lon":"121.37648","lat":"31.21008","category":"46","category_name":"楼宇","address":"林泉路537号"},{"poiid":"B2094655D26CA5F54492","title":"虹康三期","lon":"121.3717","lat":"31.21156","category":"47","category_name":"住宅区","address":"上海泉口路109弄"},{"poiid":"B2094654D569A4F4489A","title":"红宝石 仙霞店 Ruby","lon":"121.376869054","lat":"31.208060793","category":"67","category_name":"甜品店","address":"长宁区仙霞路1007号(北虹路与青溪路之间)"},{"poiid":"B2094751D569A7F5479C","title":"柚子林碳火烤肉","lon":"121.3769629","lat":"31.2096943","category":"247","category_name":"餐饮美食","address":"威宁路55号"},{"poiid":"B2094757D168A2F84798","title":"闻广教育","lon":"121.374775586","lat":"31.2110600561","category":"500","category_name":"未知分类","address":"长宁区哈密路446号铭晖商务楼内(近泉口路口)"},{"poiid":"B2094757D06FA6FE419B","title":"世纪联华(天山店)","lon":"121.37688663","lat":"31.214867087","category":"118","category_name":"超级市场","address":"长宁区北虹路1068号(北虹路哈密路)"},{"poiid":"B2094757D464A0F5449B","title":"新德记","lon":"121.3757703963","lat":"31.207665003279","category":"72","category_name":"广东菜","address":"长宁区仙霞路1088弄15号(近青溪路)"},{"poiid":"B2094655D36CA5F5429D","title":"北虹路茅台路","lon":"121.37753","lat":"31.21004","category":"38","category_name":"公交车站","address":""},{"poiid":"B2094655D26FA0F5429F","title":"天祥大厦(南一门)","lon":"121.37754","lat":"31.211","category":"46","category_name":"楼宇","address":"茅台路1068号"},{"poiid":"B2094655D26BABFB4393","title":"海上花园","lon":"121.377107","lat":"31.210892","category":"47","category_name":"住宅区","address":"上海市长宁区淮阴路518号"},{"poiid":"B2094757D069A5F84993","title":"长中心急诊住院处","lon":"121.37756558","lat":"31.208024996","category":"162","category_name":"医院","address":"上海市长宁区仙霞路1111"},{"poiid":"B2094654D569A4F44593","title":"上海市(复旦大学附属)公共卫生临床中心长宁区分中心","lon":"121.37647","lat":"31.20895","category":"162","category_name":"医院","address":""},{"poiid":"B2094654D569ABFD409D","title":"铭晖西郊苑","lon":"121.37551","lat":"31.212334","category":"47","category_name":"住宅区","address":"上海市长宁区哈密路398弄"},{"poiid":"B2094654D569AAFB4293","title":"御墅名邸国际酒店","lon":"121.377","lat":"31.211","category":"250","category_name":"公园户外","address":"长宁区剑河路668号(近哈密路)"},{"poiid":"B2094757D064A0F9489B","title":"汉庭快捷酒店(哈密路店)","lon":"121.37522758","lat":"31.213401919","category":"217","category_name":"旅馆招待所","address":"上海长宁区哈密路388号(近新渔东路)"},{"poiid":"B2094654D569A4F4439F","title":"好德No.264","lon":"121.37539","lat":"31.21091","category":"117","category_name":"便民商店/便利店","address":"泉口路32号"},{"poiid":"B2094752DA68A5F8409E","title":"上海市长宁中心医院","lon":"121.373209","lat":"31.210185","category":"162","category_name":"医院","address":"上海市 仙霞路1111号"},{"poiid":"B2094655D264A5F4489E","title":"臻记","lon":"121.37582","lat":"31.20762","category":"68","category_name":"快餐厅","address":"长宁区仙霞路1122号(近林泉路)"},{"poiid":"B2094757D06BABFE4492","title":"长宁区中心医院住院部三楼内科","lon":"121.37745328","lat":"31.208376403","category":"162","category_name":"医院","address":"上海仙霞路1111号"},{"poiid":"B2094654D569ABFD479D","title":"鑫光之家","lon":"121.37367","lat":"31.21068","category":"76","category_name":"上海菜","address":"长宁区哈密路468号(近泉口路)"},{"poiid":"B2094757D069A5FE489B","title":"长宁区中心医院住院部三楼外科","lon":"121.37738658","lat":"31.208351403","category":"162","category_name":"医院","address":"上海长宁区中心医院住院部三楼外科"},{"poiid":"B2094654D569A4F44898","title":"北虹公寓","lon":"121.3784","lat":"31.208519","category":"47","category_name":"住宅区","address":"仙霞路1001弄1-20号"},{"poiid":"B2094654D569A4FB4493","title":"佳辰假日酒店","lon":"121.37915","lat":"31.211","category":"250","category_name":"公园户外","address":"长宁区茅台路1006号(近威宁路)"},{"poiid":"B2094757D168ABF54493","title":"新泾派出所","lon":"121.373479686","lat":"31.2102758408","category":"609","category_name":"警察局","address":"上海剑河路500号"},{"poiid":"B2094757D069A7F44799","title":"茅台路天祥大厦","lon":"121.378112793","lat":"31.2110481262","category":"500","category_name":"未知分类","address":"上海茅台路1068号"},{"poiid":"B2094654D569ABFD489B","title":"永馨小区","lon":"121.37349","lat":"31.209143","category":"47","category_name":"住宅区","address":"哈密路500弄9-35号"},{"poiid":"B2094757D06AA7FA409A","title":"上海市长宁区泉口路109弄","lon":"121.373554811","lat":"31.2106570482","category":"500","category_name":"未知分类","address":"上海市长宁区泉口路"},{"poiid":"B2094654D569A4F4459D","title":"鑫洁汽车美容装潢中心","lon":"121.37612","lat":"31.2094","category":"159","category_name":"汽车维修","address":"临泉路453"},{"poiid":"B2094757D76CA1F4479A","title":"来伊份 仙霞路二店","lon":"121.37883","lat":"31.20776","category":"68","category_name":"快餐厅","address":"长宁区仙霞路981号(近北虹路)"},{"poiid":"B2094757D66EA7F44199","title":"长宁区中心医院六楼手术室","lon":"121.37614508","lat":"31.207882194","category":"162","category_name":"医院","address":"上海仙霞路1111号"},{"poiid":"B2094757D66DAAFC479E","title":"圣安东尼宠物康复医院","lon":"121.37465","lat":"31.21211","category":"162","category_name":"医院","address":"长宁区哈密路440号(哈密路泉口路)"},{"poiid":"B2094757D169A5FA479F","title":"长宁区中心医院多功能厅","lon":"121.37711958","lat":"31.207933895","category":"162","category_name":"医院","address":"上海仙霞路"},{"poiid":"B2094757D16FA4FE499E","title":"好不容易...好不容易...","lon":"121.37734858","lat":"31.209196019","category":"500","category_name":"未知分类","address":"上海好不容易"},{"poiid":"B2094757D06AA3F4429B","title":"中环线仙霞路下匝道","lon":"121.375711","lat":"31.211895","category":"260","category_name":"其他","address":"上海市长宁区仙霞路北虹路口"},{"poiid":"B2094654D569A4F4469D","title":"长宁区中心医院","lon":"121.37709335276122","lat":"31.208426558908037","category":"162","category_name":"医院","address":"长宁区仙霞路1111号(近林泉路)"},{"poiid":"B2094757D06FA4FF469C","title":"上海和睦家医院","lon":"121.376266031","lat":"31.208341498","category":"162","category_name":"医院","address":"哈密路442号铭晖商务楼601-604、609"},{"poiid":"B2094757D06BA2FC449E","title":"长宁区中心医院急诊部","lon":"121.377094512","lat":"31.2084245186","category":"162","category_name":"医院","address":"上海长宁区仙霞路1111号(近林泉路)"},{"poiid":"B2094757DA6EABF8439F","title":"17.5影院(北虹路店)","lon":"121.37688","lat":"31.214945","category":"178","category_name":"电影院","address":"长宁区北虹路1068号4楼(近2号线北新泾地铁站)"},{"poiid":"B2094757D06FA1FE459A","title":"延安中学","lon":"121.37963","lat":"31.20991","category":"55","category_name":"中学","address":"长宁区茅台路1111号(茅台路双流路)"},{"poiid":"B2094757D06FABFF419C","title":"西郊百联卡通尼乐园","lon":"121.371774532","lat":"31.2110243879","category":"500","category_name":"未知分类","address":"上海西郊百联四楼"},{"poiid":"B2094757D06AA2FE4999","title":"西郊5号","lon":"121.37692","lat":"31.20522","category":"47","category_name":"住宅区","address":"长宁区虹古路669号(近青溪路西郊宾馆四号门一侧)"},{"poiid":"B2094750D76EA5F5449B","title":"西贝西北菜(百联西郊店)","lon":"121.372","lat":"31.2078","category":"84","category_name":"西北菜","address":"长宁区仙霞西路88号百联西郊购物中心南区3楼(近哈密路)"},{"poiid":"B2094752D36DA3F8419A","title":"17.5北虹广场影城","lon":"121.37678951025009","lat":"31.21515273321473","category":"178","category_name":"电影院","address":"上海长宁区北虹路1068号第四层B区(世纪联华)"},{"poiid":"B2094757D06FA6FC4692","title":"长宁区中心医院住院部","lon":"121.37709529","lat":"31.208426746","category":"162","category_name":"医院","address":"上海市长宁区仙霞路1111号(近林泉路)"},{"poiid":"B2094654DB6BA0FC449C","title":"如家快捷酒店(上海虹桥北虹路店)","lon":"121.37634","lat":"31.21165","category":"216","category_name":"经济型连锁酒店","address":"上海市长宁区北虹路1129号(近天山路)"},{"poiid":"B2094655D26FA4F84799","title":"上海西郊宾馆东湖公寓酒店","lon":"121.37792","lat":"31.20489","category":"250","category_name":"公园户外","address":"上海市长宁区虹古路619号(近青溪路)"},{"poiid":"B2094757D069A3FA459B","title":"新农庄(仙霞路店)","lon":"121.37434","lat":"31.20749","category":"76","category_name":"上海菜","address":"长宁区仙霞路1181号(林泉路口)"},{"poiid":"B2094757D16DA1FB4892","title":"长中心输液室","lon":"121.37839049","lat":"31.208851247","category":"162","category_name":"医院","address":"上海仙霞路1111"},{"poiid":"B2094757D66DA1FC4193","title":"俊记餐厅","lon":"121.37681","lat":"31.20972","category":"68","category_name":"快餐厅","address":"长宁区林泉路537号(近泉口路)"},{"poiid":"B2094757D16BA5FF479F","title":"长宁区中心医院特需门诊","lon":"121.375803586","lat":"31.2074649858","category":"162","category_name":"医院","address":"上海市长宁区仙霞路1111号(近林泉路)"},{"poiid":"B2094654D569A4F44493","title":"鑫光商务中心","lon":"121.37648","lat":"31.21008","category":"46","category_name":"楼宇","address":"林泉路537号"},{"poiid":"B2094655D26CA5F54492","title":"虹康三期","lon":"121.3717","lat":"31.21156","category":"47","category_name":"住宅区","address":"上海泉口路109弄"},{"poiid":"B2094654D569A4F4489A","title":"红宝石 仙霞店 Ruby","lon":"121.376869054","lat":"31.208060793","category":"67","category_name":"甜品店","address":"长宁区仙霞路1007号(北虹路与青溪路之间)"},{"poiid":"B2094751D569A7F5479C","title":"柚子林碳火烤肉","lon":"121.3769629","lat":"31.2096943","category":"247","category_name":"餐饮美食","address":"威宁路55号"},{"poiid":"B2094757D168A2F84798","title":"闻广教育","lon":"121.374775586","lat":"31.2110600561","category":"500","category_name":"未知分类","address":"长宁区哈密路446号铭晖商务楼内(近泉口路口)"},{"poiid":"B2094757D06FA6FE419B","title":"世纪联华(天山店)","lon":"121.37688663","lat":"31.214867087","category":"118","category_name":"超级市场","address":"长宁区北虹路1068号(北虹路哈密路)"},{"poiid":"B2094757D464A0F5449B","title":"新德记","lon":"121.3757703963","lat":"31.207665003279","category":"72","category_name":"广东菜","address":"长宁区仙霞路1088弄15号(近青溪路)"},{"poiid":"B2094655D36CA5F5429D","title":"北虹路茅台路","lon":"121.37753","lat":"31.21004","category":"38","category_name":"公交车站","address":""},{"poiid":"B2094655D26FA0F5429F","title":"天祥大厦(南一门)","lon":"121.37754","lat":"31.211","category":"46","category_name":"楼宇","address":"茅台路1068号"},{"poiid":"B2094655D26BABFB4393","title":"海上花园","lon":"121.377107","lat":"31.210892","category":"47","category_name":"住宅区","address":"上海市长宁区淮阴路518号"},{"poiid":"B2094757D069A5F84993","title":"长中心急诊住院处","lon":"121.37756558","lat":"31.208024996","category":"162","category_name":"医院","address":"上海市长宁区仙霞路1111"},{"poiid":"B2094654D569A4F44593","title":"上海市(复旦大学附属)公共卫生临床中心长宁区分中心","lon":"121.37647","lat":"31.20895","category":"162","category_name":"医院","address":""},{"poiid":"B2094654D569ABFD409D","title":"铭晖西郊苑","lon":"121.37551","lat":"31.212334","category":"47","category_name":"住宅区","address":"上海市长宁区哈密路398弄"},{"poiid":"B2094654D569AAFB4293","title":"御墅名邸国际酒店","lon":"121.377","lat":"31.211","category":"250","category_name":"公园户外","address":"长宁区剑河路668号(近哈密路)"},{"poiid":"B2094757D064A0F9489B","title":"汉庭快捷酒店(哈密路店)","lon":"121.37522758","lat":"31.213401919","category":"217","category_name":"旅馆招待所","address":"上海长宁区哈密路388号(近新渔东路)"},{"poiid":"B2094654D569A4F4439F","title":"好德No.264","lon":"121.37539","lat":"31.21091","category":"117","category_name":"便民商店/便利店","address":"泉口路32号"},{"poiid":"B2094752DA68A5F8409E","title":"上海市长宁中心医院","lon":"121.373209","lat":"31.210185","category":"162","category_name":"医院","address":"上海市 仙霞路1111号"},{"poiid":"B2094655D264A5F4489E","title":"臻记","lon":"121.37582","lat":"31.20762","category":"68","category_name":"快餐厅","address":"长宁区仙霞路1122号(近林泉路)"},{"poiid":"B2094757D06BABFE4492","title":"长宁区中心医院住院部三楼内科","lon":"121.37745328","lat":"31.208376403","category":"162","category_name":"医院","address":"上海仙霞路1111号"},{"poiid":"B2094654D569ABFD479D","title":"鑫光之家","lon":"121.37367","lat":"31.21068","category":"76","category_name":"上海菜","address":"长宁区哈密路468号(近泉口路)"},{"poiid":"B2094757D069A5FE489B","title":"长宁区中心医院住院部三楼外科","lon":"121.37738658","lat":"31.208351403","category":"162","category_name":"医院","address":"上海长宁区中心医院住院部三楼外科"},{"poiid":"B2094654D569A4F44898","title":"北虹公寓","lon":"121.3784","lat":"31.208519","category":"47","category_name":"住宅区","address":"仙霞路1001弄1-20号"},{"poiid":"B2094654D569A4FB4493","title":"佳辰假日酒店","lon":"121.37915","lat":"31.211","category":"250","category_name":"公园户外","address":"长宁区茅台路1006号(近威宁路)"},{"poiid":"B2094757D168ABF54493","title":"新泾派出所","lon":"121.373479686","lat":"31.2102758408","category":"609","category_name":"警察局","address":"上海剑河路500号"},{"poiid":"B2094757D069A7F44799","title":"茅台路天祥大厦","lon":"121.378112793","lat":"31.2110481262","category":"500","category_name":"未知分类","address":"上海茅台路1068号"},{"poiid":"B2094654D569ABFD489B","title":"永馨小区","lon":"121.37349","lat":"31.209143","category":"47","category_name":"住宅区","address":"哈密路500弄9-35号"},{"poiid":"B2094757D06AA7FA409A","title":"上海市长宁区泉口路109弄","lon":"121.373554811","lat":"31.2106570482","category":"500","category_name":"未知分类","address":"上海市长宁区泉口路"},{"poiid":"B2094654D569A4F4459D","title":"鑫洁汽车美容装潢中心","lon":"121.37612","lat":"31.2094","category":"159","category_name":"汽车维修","address":"临泉路453"},{"poiid":"B2094757D76CA1F4479A","title":"来伊份 仙霞路二店","lon":"121.37883","lat":"31.20776","category":"68","category_name":"快餐厅","address":"长宁区仙霞路981号(近北虹路)"},{"poiid":"B2094757D66EA7F44199","title":"长宁区中心医院六楼手术室","lon":"121.37614508","lat":"31.207882194","category":"162","category_name":"医院","address":"上海仙霞路1111号"},{"poiid":"B2094757D66DAAFC479E","title":"圣安东尼宠物康复医院","lon":"121.37465","lat":"31.21211","category":"162","category_name":"医院","address":"长宁区哈密路440号(哈密路泉口路)"},{"poiid":"B2094757D169A5FA479F","title":"长宁区中心医院多功能厅","lon":"121.37711958","lat":"31.207933895","category":"162","category_name":"医院","address":"上海仙霞路"},{"poiid":"B2094757D16FA4FE499E","title":"好不容易...好不容易...","lon":"121.37734858","lat":"31.209196019","category":"500","category_name":"未知分类","address":"上海好不容易"},{"poiid":"B2094757D06AA3F4429B","title":"中环线仙霞路下匝道","lon":"121.375711","lat":"31.211895","category":"260","category_name":"其他","address":"上海市长宁区仙霞路北虹路口"},{"poiid":"B2094654D569A4F4469D","title":"长宁区中心医院","lon":"121.37709335276122","lat":"31.208426558908037","category":"162","category_name":"医院","address":"长宁区仙霞路1111号(近林泉路)"},{"poiid":"B2094757D06FA4FF469C","title":"上海和睦家医院","lon":"121.376266031","lat":"31.208341498","category":"162","category_name":"医院","address":"哈密路442号铭晖商务楼601-604、609"},{"poiid":"B2094757D06BA2FC449E","title":"长宁区中心医院急诊部","lon":"121.377094512","lat":"31.2084245186","category":"162","category_name":"医院","address":"上海长宁区仙霞路1111号(近林泉路)"},{"poiid":"B2094757DA6EABF8439F","title":"17.5影院(北虹路店)","lon":"121.37688","lat":"31.214945","category":"178","category_name":"电影院","address":"长宁区北虹路1068号4楼(近2号线北新泾地铁站)"},{"poiid":"B2094757D06FA1FE459A","title":"延安中学","lon":"121.37963","lat":"31.20991","category":"55","category_name":"中学","address":"长宁区茅台路1111号(茅台路双流路)"},{"poiid":"B2094757D06FABFF419C","title":"西郊百联卡通尼乐园","lon":"121.371774532","lat":"31.2110243879","category":"500","category_name":"未知分类","address":"上海西郊百联四楼"},{"poiid":"B2094757D06AA2FE4999","title":"西郊5号","lon":"121.37692","lat":"31.20522","category":"47","category_name":"住宅区","address":"长宁区虹古路669号(近青溪路西郊宾馆四号门一侧)"},{"poiid":"B2094750D76EA5F5449B","title":"西贝西北菜(百联西郊店)","lon":"121.372","lat":"31.2078","category":"84","category_name":"西北菜","address":"长宁区仙霞西路88号百联西郊购物中心南区3楼(近哈密路)"},{"poiid":"B2094752D36DA3F8419A","title":"17.5北虹广场影城","lon":"121.37678951025009","lat":"31.21515273321473","category":"178","category_name":"电影院","address":"上海长宁区北虹路1068号第四层B区(世纪联华)"},{"poiid":"B2094757D06FA6FC4692","title":"长宁区中心医院住院部","lon":"121.37709529","lat":"31.208426746","category":"162","category_name":"医院","address":"上海市长宁区仙霞路1111号(近林泉路)"},{"poiid":"B2094654DB6BA0FC449C","title":"如家快捷酒店(上海虹桥北虹路店)","lon":"121.37634","lat":"31.21165","category":"216","category_name":"经济型连锁酒店","address":"上海市长宁区北虹路1129号(近天山路)"},{"poiid":"B2094655D26FA4F84799","title":"上海西郊宾馆东湖公寓酒店","lon":"121.37792","lat":"31.20489","category":"250","category_name":"公园户外","address":"上海市长宁区虹古路619号(近青溪路)"},{"poiid":"B2094757D069A3FA459B","title":"新农庄(仙霞路店)","lon":"121.37434","lat":"31.20749","category":"76","category_name":"上海菜","address":"长宁区仙霞路1181号(林泉路口)"},{"poiid":"B2094757D16DA1FB4892","title":"长中心输液室","lon":"121.37839049","lat":"31.208851247","category":"162","category_name":"医院","address":"上海仙霞路1111"},{"poiid":"B2094757D66DA1FC4193","title":"俊记餐厅","lon":"121.37681","lat":"31.20972","category":"68","category_name":"快餐厅","address":"长宁区林泉路537号(近泉口路)"},{"poiid":"B2094757D16BA5FF479F","title":"长宁区中心医院特需门诊","lon":"121.375803586","lat":"31.2074649858","category":"162","category_name":"医院","address":"上海市长宁区仙霞路1111号(近林泉路)"},{"poiid":"B2094654D569A4F44493","title":"鑫光商务中心","lon":"121.37648","lat":"31.21008","category":"46","category_name":"楼宇","address":"林泉路537号"},{"poiid":"B2094655D26CA5F54492","title":"虹康三期","lon":"121.3717","lat":"31.21156","category":"47","category_name":"住宅区","address":"上海泉口路109弄"},{"poiid":"B2094654D569A4F4489A","title":"红宝石 仙霞店 Ruby","lon":"121.376869054","lat":"31.208060793","category":"67","category_name":"甜品店","address":"长宁区仙霞路1007号(北虹路与青溪路之间)"},{"poiid":"B2094751D569A7F5479C","title":"柚子林碳火烤肉","lon":"121.3769629","lat":"31.2096943","category":"247","category_name":"餐饮美食","address":"威宁路55号"},{"poiid":"B2094757D168A2F84798","title":"闻广教育","lon":"121.374775586","lat":"31.2110600561","category":"500","category_name":"未知分类","address":"长宁区哈密路446号铭晖商务楼内(近泉口路口)"},{"poiid":"B2094757D06FA6FE419B","title":"世纪联华(天山店)","lon":"121.37688663","lat":"31.214867087","category":"118","category_name":"超级市场","address":"长宁区北虹路1068号(北虹路哈密路)"},{"poiid":"B2094757D464A0F5449B","title":"新德记","lon":"121.3757703963","lat":"31.207665003279","category":"72","category_name":"广东菜","address":"长宁区仙霞路1088弄15号(近青溪路)"},{"poiid":"B2094655D36CA5F5429D","title":"北虹路茅台路","lon":"121.37753","lat":"31.21004","category":"38","category_name":"公交车站","address":""},{"poiid":"B2094655D26FA0F5429F","title":"天祥大厦(南一门)","lon":"121.37754","lat":"31.211","category":"46","category_name":"楼宇","address":"茅台路1068号"},{"poiid":"B2094655D26BABFB4393","title":"海上花园","lon":"121.377107","lat":"31.210892","category":"47","category_name":"住宅区","address":"上海市长宁区淮阴路518号"},{"poiid":"B2094757D069A5F84993","title":"长中心急诊住院处","lon":"121.37756558","lat":"31.208024996","category":"162","category_name":"医院","address":"上海市长宁区仙霞路1111"},{"poiid":"B2094654D569A4F44593","title":"上海市(复旦大学附属)公共卫生临床中心长宁区分中心","lon":"121.37647","lat":"31.20895","category":"162","category_name":"医院","address":""},{"poiid":"B2094654D569ABFD409D","title":"铭晖西郊苑","lon":"121.37551","lat":"31.212334","category":"47","category_name":"住宅区","address":"上海市长宁区哈密路398弄"},{"poiid":"B2094654D569AAFB4293","title":"御墅名邸国际酒店","lon":"121.377","lat":"31.211","category":"250","category_name":"公园户外","address":"长宁区剑河路668号(近哈密路)"},{"poiid":"B2094757D064A0F9489B","title":"汉庭快捷酒店(哈密路店)","lon":"121.37522758","lat":"31.213401919","category":"217","category_name":"旅馆招待所","address":"上海长宁区哈密路388号(近新渔东路)"},{"poiid":"B2094654D569A4F4439F","title":"好德No.264","lon":"121.37539","lat":"31.21091","category":"117","category_name":"便民商店/便利店","address":"泉口路32号"},{"poiid":"B2094752DA68A5F8409E","title":"上海市长宁中心医院","lon":"121.373209","lat":"31.210185","category":"162","category_name":"医院","address":"上海市 仙霞路1111号"},{"poiid":"B2094655D264A5F4489E","title":"臻记","lon":"121.37582","lat":"31.20762","category":"68","category_name":"快餐厅","address":"长宁区仙霞路1122号(近林泉路)"},{"poiid":"B2094757D06BABFE4492","title":"长宁区中心医院住院部三楼内科","lon":"121.37745328","lat":"31.208376403","category":"162","category_name":"医院","address":"上海仙霞路1111号"},{"poiid":"B2094654D569ABFD479D","title":"鑫光之家","lon":"121.37367","lat":"31.21068","category":"76","category_name":"上海菜","address":"长宁区哈密路468号(近泉口路)"},{"poiid":"B2094757D069A5FE489B","title":"长宁区中心医院住院部三楼外科","lon":"121.37738658","lat":"31.208351403","category":"162","category_name":"医院","address":"上海长宁区中心医院住院部三楼外科"},{"poiid":"B2094654D569A4F44898","title":"北虹公寓","lon":"121.3784","lat":"31.208519","category":"47","category_name":"住宅区","address":"仙霞路1001弄1-20号"},{"poiid":"B2094654D569A4FB4493","title":"佳辰假日酒店","lon":"121.37915","lat":"31.211","category":"250","category_name":"公园户外","address":"长宁区茅台路1006号(近威宁路)"},{"poiid":"B2094757D168ABF54493","title":"新泾派出所","lon":"121.373479686","lat":"31.2102758408","category":"609","category_name":"警察局","address":"上海剑河路500号"},{"poiid":"B2094757D069A7F44799","title":"茅台路天祥大厦","lon":"121.378112793","lat":"31.2110481262","category":"500","category_name":"未知分类","address":"上海茅台路1068号"},{"poiid":"B2094654D569ABFD489B","title":"永馨小区","lon":"121.37349","lat":"31.209143","category":"47","category_name":"住宅区","address":"哈密路500弄9-35号"},{"poiid":"B2094757D06AA7FA409A","title":"上海市长宁区泉口路109弄","lon":"121.373554811","lat":"31.2106570482","category":"500","category_name":"未知分类","address":"上海市长宁区泉口路"},{"poiid":"B2094654D569A4F4459D","title":"鑫洁汽车美容装潢中心","lon":"121.37612","lat":"31.2094","category":"159","category_name":"汽车维修","address":"临泉路453"},{"poiid":"B2094757D76CA1F4479A","title":"来伊份 仙霞路二店","lon":"121.37883","lat":"31.20776","category":"68","category_name":"快餐厅","address":"长宁区仙霞路981号(近北虹路)"},{"poiid":"B2094757D66EA7F44199","title":"长宁区中心医院六楼手术室","lon":"121.37614508","lat":"31.207882194","category":"162","category_name":"医院","address":"上海仙霞路1111号"},{"poiid":"B2094757D66DAAFC479E","title":"圣安东尼宠物康复医院","lon":"121.37465","lat":"31.21211","category":"162","category_name":"医院","address":"长宁区哈密路440号(哈密路泉口路)"},{"poiid":"B2094757D169A5FA479F","title":"长宁区中心医院多功能厅","lon":"121.37711958","lat":"31.207933895","category":"162","category_name":"医院","address":"上海仙霞路"},{"poiid":"B2094757D16FA4FE499E","title":"好不容易...好不容易...","lon":"121.37734858","lat":"31.209196019","category":"500","category_name":"未知分类","address":"上海好不容易"},{"poiid":"B2094757D06AA3F4429B","title":"中环线仙霞路下匝道","lon":"121.375711","lat":"31.211895","category":"260","category_name":"其他","address":"上海市长宁区仙霞路北虹路口"}]