[{"poiid":"B2094655D269A4FB479F","title":"哈根达斯(南京东路店)","lon":"121.48087","lat":"31.23567","category":"113","category_name":"冷饮店","address":"黄浦区南京东路505号索菲特海仑宾馆1楼(近福建中路)"},{"poiid":"B2094757D06EAAF8459F","title":"上海书城(福州路店)","lon":"121.481493449","lat":"31.2332937367","category":"125","category_name":"书店","address":"黄浦区福州路465号(近福建中路)"},{"poiid":"B2094654DA6FA5F44192","title":"渝信川菜(华盛大厦店)","lon":"121.48265","lat":"31.23582","category":"71","category_name":"四川菜","address":"黄浦区九江路399号华盛大厦5楼(近山西南路)"},{"poiid":"B2094753D76FAAFA449C","title":"上海滩国泰旗舰店","lon":"121.466011","lat":"31.216125","category":"249","category_name":"购物服务","address":"淮海中路868号"},{"poiid":"B209475CD564A7F84292","title":"上海滩新天地店","lon":"121.47463","lat":"31.22164","category":"119","category_name":"商场","address":"\"太仓路181弄新天地北里15号\r\n\""},{"poiid":"B209475CD564A7F8439E","title":"上海滩中信泰富店","lon":"121.45602","lat":"31.22851","category":"119","category_name":"商场","address":"\"南京西路1168号中信泰富广场，店铺号221.\r\n\""},{"poiid":"B209475CD564A7F84392","title":"上海滩浦东香格里拉店","lon":"121.50058","lat":"31.23634","category":"119","category_name":"商场","address":"浦东富成路33号香格里拉酒店内大堂层"},{"poiid":"B2094757D06FA3FB4299","title":"上海大酒店","lon":"121.48121","lat":"31.23489","category":"213","category_name":"五星级宾馆","address":"黄浦区九江路505号(近福建中路)"},{"poiid":"B2094757D06FA0FA4499","title":"大马头茶餐厅","lon":"121.482732","lat":"31.235167","category":"72","category_name":"广东菜","address":"黄浦区九江路399号华盛大厦1楼(近地铁2号线4号口)"},{"poiid":"B2094757D06FA7FF489E","title":"王宝和大酒店","lon":"121.48086","lat":"31.23463","category":"217","category_name":"旅馆招待所","address":"黄浦区九江路555号(近福建中路)"},{"poiid":"B2094757D06AA4FD429B","title":"好乐迪","lon":"121.481533518","lat":"31.2356146948","category":"500","category_name":"未知分类","address":"上海南京东路479号"},{"poiid":"B2094654DA6FABFF4598","title":"上海书城","lon":"121.48145","lat":"31.2333","category":"125","category_name":"书店","address":"福州路456"},{"poiid":"B2094750D26EA4FE4099","title":"三人行骨头王火锅 南京东路二店","lon":"121.48115","lat":"31.23593","category":"86","category_name":"火锅店","address":"黄浦区南京东路479号新世界休闲港湾3-4楼(近福建中路)"},{"poiid":"B2094654DB6BABFD4292","title":"CoCo壱番屋(九江路店)","lon":"121.48282","lat":"31.23544","category":"95","category_name":"日本料理","address":"黄浦区汉口路399号华盛大厦103室(近山西南路)"},{"poiid":"B2094757D06FA3F44693","title":"悦来大酒店","lon":"121.4829","lat":"31.23501","category":"76","category_name":"上海菜","address":"黄浦区汉口路398号华盛大厦4楼(置地广场对面)"},{"poiid":"B2094752D66BAAFF439C","title":"胖达人手感烘焙","lon":"121.480831","lat":"31.235388","category":"247","category_name":"餐饮美食","address":"福建中路353号"},{"poiid":"B2094654DB65A6F94992","title":"上海索菲特海仑宾馆","lon":"121.48085","lat":"31.23567","category":"214","category_name":"四星级宾馆","address":"黄浦区南京东路505号索菲特海仑宾馆内(近福建中路)"},{"poiid":"B2094757D06FA2F5439A","title":"必胜客(先施店)","lon":"121.4802334","lat":"31.2357621","category":"94","category_name":"西餐厅","address":"黄浦区南京东路479号新世界先施休闲港湾1楼(近福建中路)"},{"poiid":"B2094654DB69ABFA4599","title":"上海外文书店(原版书店)","lon":"121.48305","lat":"31.23415","category":"125","category_name":"书店","address":"黄浦区福州路390号4楼(近上海书城)"},{"poiid":"B2094757D06FAAF4469A","title":"哈根达斯（Haagen.Dazs）海伦宾馆","lon":"121.480832","lat":"31.235417","category":"217","category_name":"旅馆招待所","address":"上海南京路步行街海伦宾馆1楼"},{"poiid":"B2094655D26EABFC4793","title":"星巴克(上海书城店)","lon":"121.481477","lat":"31.2334932","category":"260","category_name":"其他","address":"黄浦区福州路465号上海书城2楼(近福建中路)"},{"poiid":"B2094654DB69A4FC4092","title":"好乐迪(南东店)","lon":"121.48132","lat":"31.23593","category":"170","category_name":"KTV","address":"黄浦区南京东路479号新世界先施休闲港湾6-7楼(近福建中路)"},{"poiid":"B2094757D065A3F94593","title":"一之春","lon":"121.481300054","lat":"31.233554793","category":"68","category_name":"快餐厅","address":"黄浦区福州路528号(近来福士)"},{"poiid":"B2094757D06FA4F94698","title":"干锅居(南京东路店)","lon":"121.48088","lat":"31.23562","category":"83","category_name":"云贵菜","address":"黄浦区南京东路479号新世界休闲港湾3楼(近福建中路)"},{"poiid":"B2094757D068A3FA4098","title":"禾绿回转寿司(南京东路店)","lon":"121.48143","lat":"31.23563","category":"95","category_name":"日本料理","address":"黄浦区南京东路479号新世界先施休闲港湾4楼(近福建中路)"},{"poiid":"B2094654DA6FA5F54592","title":"振鼎鸡 福州路店","lon":"121.481516054","lat":"31.233358793","category":"68","category_name":"快餐厅","address":"黄浦区福州路440号(近福建中路)"},{"poiid":"B2094757D068A2F9419B","title":"三马路酒楼","lon":"121.482737","lat":"31.235036","category":"75","category_name":"浙江菜","address":"黄浦区汉口路413号(近山西南路)"},{"poiid":"B2094654DB6AA6F84798","title":"上海吴宫大酒店","lon":"121.48212","lat":"31.23358","category":"76","category_name":"上海菜","address":"黄浦区福州路431号(近福建中路)"},{"poiid":"B2094654DB69A6F4479D","title":"吉野家  先施店","lon":"121.48124","lat":"31.23602","category":"95","category_name":"日本料理","address":"黄浦区南京东路479号先施休闲广场1楼(近福建中路)"},{"poiid":"B2094654DA6FA5FF469E","title":"亚马逊巴西烤肉","lon":"121.48132","lat":"31.23593","category":"94","category_name":"西餐厅","address":"黄浦区南京东路479号新世界先施休闲港湾8楼(近福建中路)"},{"poiid":"B2094757D16FA5FA429F","title":"好乐迪量贩式KTV(南京东路店)","lon":"121.481903738","lat":"31.23538941","category":"170","category_name":"KTV","address":"上海黄浦区南京东路479号新世界先施休闲港湾6-7楼(近福建中路)"},{"poiid":"B2094757D66DA4F5459D","title":"味千拉面","lon":"121.482595738","lat":"31.2351284045","category":"247","category_name":"餐饮美食","address":"上海南京东路300号名人购物中心B1层"},{"poiid":"B2094655D264A1F94298","title":"桃源乡足道","lon":"121.48115","lat":"31.23594","category":"149","category_name":"洗浴推拿场所","address":"黄浦区南京东路479号新世界先施休闲港湾5楼(近福建中路)"},{"poiid":"B2094654DA6FA5FF4599","title":"康乃馨食府","lon":"121.48087","lat":"31.23567","category":"76","category_name":"上海菜","address":"黄浦区南京东路505号索菲特海仑宾馆3楼(近福建中路)"},{"poiid":"B2094757D064AAFB409F","title":"大码头茶餐厅","lon":"121.482632738","lat":"31.2359394218","category":"500","category_name":"未知分类","address":"上海市黄浦区牛庄路"},{"poiid":"B2094654DA6FA5F5459F","title":"中外运大厦","lon":"121.48178","lat":"31.23399","category":"46","category_name":"楼宇","address":"卫清西路139_149号等"},{"poiid":"B2094654DA6FA5FF4699","title":"新世界休闲港湾","lon":"121.48114","lat":"31.23594","category":"46","category_name":"楼宇","address":"黄浦区南京东路479号新世界先施休闲港湾内(近福建中路)"},{"poiid":"B2094757DA69A2FD489C","title":"上海外文书店日文部","lon":"121.48303","lat":"31.23411","category":"119","category_name":"商场","address":"福州路390号4楼"},{"poiid":"B2094757D568ABF44198","title":"巴贝拉第一食品店","lon":"121.4766","lat":"31.23524","category":"94","category_name":"西餐厅","address":"黄浦区南京东路720号第一食品3楼H203(近贵州路)"},{"poiid":"B2094655D26AA1F44992","title":"索菲特海仑酒店","lon":"121.48087","lat":"31.23567","category":"250","category_name":"公园户外","address":"黄浦区南京东路505号(近福建中路)"},{"poiid":"B2094655D26FA6F94798","title":"肯德基","lon":"121.48151","lat":"31.2361","category":"68","category_name":"快餐厅","address":"虹口区四川北路850号(塘沽路口)"},{"poiid":"B2094757D06FA2F44898","title":"汇佳量贩桌游咖啡馆(汉口路店)","lon":"121.4815","lat":"31.234","category":"175","category_name":"棋牌室","address":"上海黄浦区汉口路547号(湖北路口)"},{"poiid":"B2094654DA6FABFF4493","title":"上海古籍书店","lon":"121.4828","lat":"31.2338","category":"125","category_name":"书店","address":"黄浦区福州路401号(近上海书城)"},{"poiid":"B2094757D06FA1FB479A","title":"银岛棋牌桌球(山西南路店)","lon":"121.48313","lat":"31.2353","category":"171","category_name":"台球厅","address":"上海黄浦区山西南路99号华盛商务大厦27-29楼(置地广场对面)"},{"poiid":"B2094654DB69AAFA4399","title":"磨磨茶茶","lon":"121.48185800627","lat":"31.233738243004","category":"110","category_name":"其他亚洲菜","address":"黄浦区福州路452号(近福建中路)"},{"poiid":"B2094757D464A0F94498","title":"吴越人家 南京东路店","lon":"121.48088029002","lat":"31.235500449758","category":"76","category_name":"上海菜","address":"黄浦区南京东路479号新世界先施休闲港湾内(近福建中路)"},{"poiid":"B2094757D06FA7FF4293","title":"大饼和他的朋友们","lon":"121.48134","lat":"31.23397","category":"175","category_name":"棋牌室","address":"黄浦区福建中路225号中悦大厦7楼(近轨交一号线人民广场站14号口)"},{"poiid":"B2094750DA6EA7F44499","title":"三人行","lon":"121.481491","lat":"31.236122","category":"247","category_name":"餐饮美食","address":"南京東路"},{"poiid":"B2094757D065A6FD469B","title":"酷酷璐章鱼小丸子","lon":"121.482498138","lat":"31.2358916207","category":"257","category_name":"中餐厅","address":"上海黄浦区南京东路414号"},{"poiid":"B2094752D76FA1F4479F","title":"星巴克福建中路店","lon":"121.482845","lat":"31.234606","category":"247","category_name":"餐饮美食","address":"福建中路353號"},{"poiid":"B2094655D269A4FB479F","title":"哈根达斯(南京东路店)","lon":"121.48087","lat":"31.23567","category":"113","category_name":"冷饮店","address":"黄浦区南京东路505号索菲特海仑宾馆1楼(近福建中路)"},{"poiid":"B2094757D06EAAF8459F","title":"上海书城(福州路店)","lon":"121.481493449","lat":"31.2332937367","category":"125","category_name":"书店","address":"黄浦区福州路465号(近福建中路)"},{"poiid":"B2094654DA6FA5F44192","title":"渝信川菜(华盛大厦店)","lon":"121.48265","lat":"31.23582","category":"71","category_name":"四川菜","address":"黄浦区九江路399号华盛大厦5楼(近山西南路)"},{"poiid":"B2094753D76FAAFA449C","title":"上海滩国泰旗舰店","lon":"121.466011","lat":"31.216125","category":"249","category_name":"购物服务","address":"淮海中路868号"},{"poiid":"B209475CD564A7F84292","title":"上海滩新天地店","lon":"121.47463","lat":"31.22164","category":"119","category_name":"商场","address":"\"太仓路181弄新天地北里15号\r\n\""},{"poiid":"B209475CD564A7F8439E","title":"上海滩中信泰富店","lon":"121.45602","lat":"31.22851","category":"119","category_name":"商场","address":"\"南京西路1168号中信泰富广场，店铺号221.\r\n\""},{"poiid":"B209475CD564A7F84392","title":"上海滩浦东香格里拉店","lon":"121.50058","lat":"31.23634","category":"119","category_name":"商场","address":"浦东富成路33号香格里拉酒店内大堂层"},{"poiid":"B2094757D06FA3FB4299","title":"上海大酒店","lon":"121.48121","lat":"31.23489","category":"213","category_name":"五星级宾馆","address":"黄浦区九江路505号(近福建中路)"},{"poiid":"B2094757D06FA0FA4499","title":"大马头茶餐厅","lon":"121.482732","lat":"31.235167","category":"72","category_name":"广东菜","address":"黄浦区九江路399号华盛大厦1楼(近地铁2号线4号口)"},{"poiid":"B2094757D06FA7FF489E","title":"王宝和大酒店","lon":"121.48086","lat":"31.23463","category":"217","category_name":"旅馆招待所","address":"黄浦区九江路555号(近福建中路)"},{"poiid":"B2094757D06AA4FD429B","title":"好乐迪","lon":"121.481533518","lat":"31.2356146948","category":"500","category_name":"未知分类","address":"上海南京东路479号"},{"poiid":"B2094654DA6FABFF4598","title":"上海书城","lon":"121.48145","lat":"31.2333","category":"125","category_name":"书店","address":"福州路456"},{"poiid":"B2094750D26EA4FE4099","title":"三人行骨头王火锅 南京东路二店","lon":"121.48115","lat":"31.23593","category":"86","category_name":"火锅店","address":"黄浦区南京东路479号新世界休闲港湾3-4楼(近福建中路)"},{"poiid":"B2094654DB6BABFD4292","title":"CoCo壱番屋(九江路店)","lon":"121.48282","lat":"31.23544","category":"95","category_name":"日本料理","address":"黄浦区汉口路399号华盛大厦103室(近山西南路)"},{"poiid":"B2094757D06FA3F44693","title":"悦来大酒店","lon":"121.4829","lat":"31.23501","category":"76","category_name":"上海菜","address":"黄浦区汉口路398号华盛大厦4楼(置地广场对面)"},{"poiid":"B2094752D66BAAFF439C","title":"胖达人手感烘焙","lon":"121.480831","lat":"31.235388","category":"247","category_name":"餐饮美食","address":"福建中路353号"},{"poiid":"B2094654DB65A6F94992","title":"上海索菲特海仑宾馆","lon":"121.48085","lat":"31.23567","category":"214","category_name":"四星级宾馆","address":"黄浦区南京东路505号索菲特海仑宾馆内(近福建中路)"},{"poiid":"B2094757D06FA2F5439A","title":"必胜客(先施店)","lon":"121.4802334","lat":"31.2357621","category":"94","category_name":"西餐厅","address":"黄浦区南京东路479号新世界先施休闲港湾1楼(近福建中路)"},{"poiid":"B2094654DB69ABFA4599","title":"上海外文书店(原版书店)","lon":"121.48305","lat":"31.23415","category":"125","category_name":"书店","address":"黄浦区福州路390号4楼(近上海书城)"},{"poiid":"B2094757D06FAAF4469A","title":"哈根达斯（Haagen.Dazs）海伦宾馆","lon":"121.480832","lat":"31.235417","category":"217","category_name":"旅馆招待所","address":"上海南京路步行街海伦宾馆1楼"},{"poiid":"B2094655D26EABFC4793","title":"星巴克(上海书城店)","lon":"121.481477","lat":"31.2334932","category":"260","category_name":"其他","address":"黄浦区福州路465号上海书城2楼(近福建中路)"},{"poiid":"B2094654DB69A4FC4092","title":"好乐迪(南东店)","lon":"121.48132","lat":"31.23593","category":"170","category_name":"KTV","address":"黄浦区南京东路479号新世界先施休闲港湾6-7楼(近福建中路)"},{"poiid":"B2094757D065A3F94593","title":"一之春","lon":"121.481300054","lat":"31.233554793","category":"68","category_name":"快餐厅","address":"黄浦区福州路528号(近来福士)"},{"poiid":"B2094757D06FA4F94698","title":"干锅居(南京东路店)","lon":"121.48088","lat":"31.23562","category":"83","category_name":"云贵菜","address":"黄浦区南京东路479号新世界休闲港湾3楼(近福建中路)"},{"poiid":"B2094757D068A3FA4098","title":"禾绿回转寿司(南京东路店)","lon":"121.48143","lat":"31.23563","category":"95","category_name":"日本料理","address":"黄浦区南京东路479号新世界先施休闲港湾4楼(近福建中路)"},{"poiid":"B2094654DA6FA5F54592","title":"振鼎鸡 福州路店","lon":"121.481516054","lat":"31.233358793","category":"68","category_name":"快餐厅","address":"黄浦区福州路440号(近福建中路)"},{"poiid":"B2094757D068A2F9419B","title":"三马路酒楼","lon":"121.482737","lat":"31.235036","category":"75","category_name":"浙江菜","address":"黄浦区汉口路413号(近山西南路)"},{"poiid":"B2094654DB6AA6F84798","title":"上海吴宫大酒店","lon":"121.48212","lat":"31.23358","category":"76","category_name":"上海菜","address":"黄浦区福州路431号(近福建中路)"},{"poiid":"B2094654DB69A6F4479D","title":"吉野家  先施店","lon":"121.48124","lat":"31.23602","category":"95","category_name":"日本料理","address":"黄浦区南京东路479号先施休闲广场1楼(近福建中路)"},{"poiid":"B2094654DA6FA5FF469E","title":"亚马逊巴西烤肉","lon":"121.48132","lat":"31.23593","category":"94","category_name":"西餐厅","address":"黄浦区南京东路479号新世界先施休闲港湾8楼(近福建中路)"},{"poiid":"B2094757D16FA5FA429F","title":"好乐迪量贩式KTV(南京东路店)","lon":"121.481903738","lat":"31.23538941","category":"170","category_name":"KTV","address":"上海黄浦区南京东路479号新世界先施休闲港湾6-7楼(近福建中路)"},{"poiid":"B2094757D66DA4F5459D","title":"味千拉面","lon":"121.482595738","lat":"31.2351284045","category":"247","category_name":"餐饮美食","address":"上海南京东路300号名人购物中心B1层"},{"poiid":"B2094655D264A1F94298","title":"桃源乡足道","lon":"121.48115","lat":"31.23594","category":"149","category_name":"洗浴推拿场所","address":"黄浦区南京东路479号新世界先施休闲港湾5楼(近福建中路)"},{"poiid":"B2094654DA6FA5FF4599","title":"康乃馨食府","lon":"121.48087","lat":"31.23567","category":"76","category_name":"上海菜","address":"黄浦区南京东路505号索菲特海仑宾馆3楼(近福建中路)"},{"poiid":"B2094757D064AAFB409F","title":"大码头茶餐厅","lon":"121.482632738","lat":"31.2359394218","category":"500","category_name":"未知分类","address":"上海市黄浦区牛庄路"},{"poiid":"B2094654DA6FA5F5459F","title":"中外运大厦","lon":"121.48178","lat":"31.23399","category":"46","category_name":"楼宇","address":"卫清西路139_149号等"},{"poiid":"B2094654DA6FA5FF4699","title":"新世界休闲港湾","lon":"121.48114","lat":"31.23594","category":"46","category_name":"楼宇","address":"黄浦区南京东路479号新世界先施休闲港湾内(近福建中路)"},{"poiid":"B2094757DA69A2FD489C","title":"上海外文书店日文部","lon":"121.48303","lat":"31.23411","category":"119","category_name":"商场","address":"福州路390号4楼"},{"poiid":"B2094757D568ABF44198","title":"巴贝拉第一食品店","lon":"121.4766","lat":"31.23524","category":"94","category_name":"西餐厅","address":"黄浦区南京东路720号第一食品3楼H203(近贵州路)"},{"poiid":"B2094655D26AA1F44992","title":"索菲特海仑酒店","lon":"121.48087","lat":"31.23567","category":"250","category_name":"公园户外","address":"黄浦区南京东路505号(近福建中路)"},{"poiid":"B2094655D26FA6F94798","title":"肯德基","lon":"121.48151","lat":"31.2361","category":"68","category_name":"快餐厅","address":"虹口区四川北路850号(塘沽路口)"},{"poiid":"B2094757D06FA2F44898","title":"汇佳量贩桌游咖啡馆(汉口路店)","lon":"121.4815","lat":"31.234","category":"175","category_name":"棋牌室","address":"上海黄浦区汉口路547号(湖北路口)"},{"poiid":"B2094654DA6FABFF4493","title":"上海古籍书店","lon":"121.4828","lat":"31.2338","category":"125","category_name":"书店","address":"黄浦区福州路401号(近上海书城)"},{"poiid":"B2094757D06FA1FB479A","title":"银岛棋牌桌球(山西南路店)","lon":"121.48313","lat":"31.2353","category":"171","category_name":"台球厅","address":"上海黄浦区山西南路99号华盛商务大厦27-29楼(置地广场对面)"},{"poiid":"B2094654DB69AAFA4399","title":"磨磨茶茶","lon":"121.48185800627","lat":"31.233738243004","category":"110","category_name":"其他亚洲菜","address":"黄浦区福州路452号(近福建中路)"},{"poiid":"B2094757D464A0F94498","title":"吴越人家 南京东路店","lon":"121.48088029002","lat":"31.235500449758","category":"76","category_name":"上海菜","address":"黄浦区南京东路479号新世界先施休闲港湾内(近福建中路)"},{"poiid":"B2094757D06FA7FF4293","title":"大饼和他的朋友们","lon":"121.48134","lat":"31.23397","category":"175","category_name":"棋牌室","address":"黄浦区福建中路225号中悦大厦7楼(近轨交一号线人民广场站14号口)"},{"poiid":"B2094750DA6EA7F44499","title":"三人行","lon":"121.481491","lat":"31.236122","category":"247","category_name":"餐饮美食","address":"南京東路"},{"poiid":"B2094757D065A6FD469B","title":"酷酷璐章鱼小丸子","lon":"121.482498138","lat":"31.2358916207","category":"257","category_name":"中餐厅","address":"上海黄浦区南京东路414号"},{"poiid":"B2094752D76FA1F4479F","title":"星巴克福建中路店","lon":"121.482845","lat":"31.234606","category":"247","category_name":"餐饮美食","address":"福建中路353號"},{"poiid":"B2094655D269A4FB479F","title":"哈根达斯(南京东路店)","lon":"121.48087","lat":"31.23567","category":"113","category_name":"冷饮店","address":"黄浦区南京东路505号索菲特海仑宾馆1楼(近福建中路)"},{"poiid":"B2094757D06EAAF8459F","title":"上海书城(福州路店)","lon":"121.481493449","lat":"31.2332937367","category":"125","category_name":"书店","address":"黄浦区福州路465号(近福建中路)"},{"poiid":"B2094654DA6FA5F44192","title":"渝信川菜(华盛大厦店)","lon":"121.48265","lat":"31.23582","category":"71","category_name":"四川菜","address":"黄浦区九江路399号华盛大厦5楼(近山西南路)"},{"poiid":"B2094753D76FAAFA449C","title":"上海滩国泰旗舰店","lon":"121.466011","lat":"31.216125","category":"249","category_name":"购物服务","address":"淮海中路868号"},{"poiid":"B209475CD564A7F84292","title":"上海滩新天地店","lon":"121.47463","lat":"31.22164","category":"119","category_name":"商场","address":"\"太仓路181弄新天地北里15号\r\n\""},{"poiid":"B209475CD564A7F8439E","title":"上海滩中信泰富店","lon":"121.45602","lat":"31.22851","category":"119","category_name":"商场","address":"\"南京西路1168号中信泰富广场，店铺号221.\r\n\""},{"poiid":"B209475CD564A7F84392","title":"上海滩浦东香格里拉店","lon":"121.50058","lat":"31.23634","category":"119","category_name":"商场","address":"浦东富成路33号香格里拉酒店内大堂层"},{"poiid":"B2094757D06FA3FB4299","title":"上海大酒店","lon":"121.48121","lat":"31.23489","category":"213","category_name":"五星级宾馆","address":"黄浦区九江路505号(近福建中路)"},{"poiid":"B2094757D06FA0FA4499","title":"大马头茶餐厅","lon":"121.482732","lat":"31.235167","category":"72","category_name":"广东菜","address":"黄浦区九江路399号华盛大厦1楼(近地铁2号线4号口)"},{"poiid":"B2094757D06FA7FF489E","title":"王宝和大酒店","lon":"121.48086","lat":"31.23463","category":"217","category_name":"旅馆招待所","address":"黄浦区九江路555号(近福建中路)"},{"poiid":"B2094757D06AA4FD429B","title":"好乐迪","lon":"121.481533518","lat":"31.2356146948","category":"500","category_name":"未知分类","address":"上海南京东路479号"},{"poiid":"B2094654DA6FABFF4598","title":"上海书城","lon":"121.48145","lat":"31.2333","category":"125","category_name":"书店","address":"福州路456"},{"poiid":"B2094750D26EA4FE4099","title":"三人行骨头王火锅 南京东路二店","lon":"121.48115","lat":"31.23593","category":"86","category_name":"火锅店","address":"黄浦区南京东路479号新世界休闲港湾3-4楼(近福建中路)"},{"poiid":"B2094654DB6BABFD4292","title":"CoCo壱番屋(九江路店)","lon":"121.48282","lat":"31.23544","category":"95","category_name":"日本料理","address":"黄浦区汉口路399号华盛大厦103室(近山西南路)"},{"poiid":"B2094757D06FA3F44693","title":"悦来大酒店","lon":"121.4829","lat":"31.23501","category":"76","category_name":"上海菜","address":"黄浦区汉口路398号华盛大厦4楼(置地广场对面)"},{"poiid":"B2094752D66BAAFF439C","title":"胖达人手感烘焙","lon":"121.480831","lat":"31.235388","category":"247","category_name":"餐饮美食","address":"福建中路353号"},{"poiid":"B2094654DB65A6F94992","title":"上海索菲特海仑宾馆","lon":"121.48085","lat":"31.23567","category":"214","category_name":"四星级宾馆","address":"黄浦区南京东路505号索菲特海仑宾馆内(近福建中路)"},{"poiid":"B2094757D06FA2F5439A","title":"必胜客(先施店)","lon":"121.4802334","lat":"31.2357621","category":"94","category_name":"西餐厅","address":"黄浦区南京东路479号新世界先施休闲港湾1楼(近福建中路)"},{"poiid":"B2094654DB69ABFA4599","title":"上海外文书店(原版书店)","lon":"121.48305","lat":"31.23415","category":"125","category_name":"书店","address":"黄浦区福州路390号4楼(近上海书城)"},{"poiid":"B2094757D06FAAF4469A","title":"哈根达斯（Haagen.Dazs）海伦宾馆","lon":"121.480832","lat":"31.235417","category":"217","category_name":"旅馆招待所","address":"上海南京路步行街海伦宾馆1楼"},{"poiid":"B2094655D26EABFC4793","title":"星巴克(上海书城店)","lon":"121.481477","lat":"31.2334932","category":"260","category_name":"其他","address":"黄浦区福州路465号上海书城2楼(近福建中路)"},{"poiid":"B2094654DB69A4FC4092","title":"好乐迪(南东店)","lon":"121.48132","lat":"31.23593","category":"170","category_name":"KTV","address":"黄浦区南京东路479号新世界先施休闲港湾6-7楼(近福建中路)"},{"poiid":"B2094757D065A3F94593","title":"一之春","lon":"121.481300054","lat":"31.233554793","category":"68","category_name":"快餐厅","address":"黄浦区福州路528号(近来福士)"},{"poiid":"B2094757D06FA4F94698","title":"干锅居(南京东路店)","lon":"121.48088","lat":"31.23562","category":"83","category_name":"云贵菜","address":"黄浦区南京东路479号新世界休闲港湾3楼(近福建中路)"},{"poiid":"B2094757D068A3FA4098","title":"禾绿回转寿司(南京东路店)","lon":"121.48143","lat":"31.23563","category":"95","category_name":"日本料理","address":"黄浦区南京东路479号新世界先施休闲港湾4楼(近福建中路)"},{"poiid":"B2094654DA6FA5F54592","title":"振鼎鸡 福州路店","lon":"121.481516054","lat":"31.233358793","category":"68","category_name":"快餐厅","address":"黄浦区福州路440号(近福建中路)"},{"poiid":"B2094757D068A2F9419B","title":"三马路酒楼","lon":"121.482737","lat":"31.235036","category":"75","category_name":"浙江菜","address":"黄浦区汉口路413号(近山西南路)"},{"poiid":"B2094654DB6AA6F84798","title":"上海吴宫大酒店","lon":"121.48212","lat":"31.23358","category":"76","category_name":"上海菜","address":"黄浦区福州路431号(近福建中路)"},{"poiid":"B2094654DB69A6F4479D","title":"吉野家  先施店","lon":"121.48124","lat":"31.23602","category":"95","category_name":"日本料理","address":"黄浦区南京东路479号先施休闲广场1楼(近福建中路)"},{"poiid":"B2094654DA6FA5FF469E","title":"亚马逊巴西烤肉","lon":"121.48132","lat":"31.23593","category":"94","category_name":"西餐厅","address":"黄浦区南京东路479号新世界先施休闲港湾8楼(近福建中路)"},{"poiid":"B2094757D16FA5FA429F","title":"好乐迪量贩式KTV(南京东路店)","lon":"121.481903738","lat":"31.23538941","category":"170","category_name":"KTV","address":"上海黄浦区南京东路479号新世界先施休闲港湾6-7楼(近福建中路)"},{"poiid":"B2094757D66DA4F5459D","title":"味千拉面","lon":"121.482595738","lat":"31.2351284045","category":"247","category_name":"餐饮美食","address":"上海南京东路300号名人购物中心B1层"},{"poiid":"B2094655D264A1F94298","title":"桃源乡足道","lon":"121.48115","lat":"31.23594","category":"149","category_name":"洗浴推拿场所","address":"黄浦区南京东路479号新世界先施休闲港湾5楼(近福建中路)"},{"poiid":"B2094654DA6FA5FF4599","title":"康乃馨食府","lon":"121.48087","lat":"31.23567","category":"76","category_name":"上海菜","address":"黄浦区南京东路505号索菲特海仑宾馆3楼(近福建中路)"},{"poiid":"B2094757D064AAFB409F","title":"大码头茶餐厅","lon":"121.482632738","lat":"31.2359394218","category":"500","category_name":"未知分类","address":"上海市黄浦区牛庄路"},{"poiid":"B2094654DA6FA5F5459F","title":"中外运大厦","lon":"121.48178","lat":"31.23399","category":"46","category_name":"楼宇","address":"卫清西路139_149号等"},{"poiid":"B2094654DA6FA5FF4699","title":"新世界休闲港湾","lon":"121.48114","lat":"31.23594","category":"46","category_name":"楼宇","address":"黄浦区南京东路479号新世界先施休闲港湾内(近福建中路)"},{"poiid":"B2094757DA69A2FD489C","title":"上海外文书店日文部","lon":"121.48303","lat":"31.23411","category":"119","category_name":"商场","address":"福州路390号4楼"},{"poiid":"B2094757D568ABF44198","title":"巴贝拉第一食品店","lon":"121.4766","lat":"31.23524","category":"94","category_name":"西餐厅","address":"黄浦区南京东路720号第一食品3楼H203(近贵州路)"},{"poiid":"B2094655D26AA1F44992","title":"索菲特海仑酒店","lon":"121.48087","lat":"31.23567","category":"250","category_name":"公园户外","address":"黄浦区南京东路505号(近福建中路)"},{"poiid":"B2094655D26FA6F94798","title":"肯德基","lon":"121.48151","lat":"31.2361","category":"68","category_name":"快餐厅","address":"虹口区四川北路850号(塘沽路口)"},{"poiid":"B2094757D06FA2F44898","title":"汇佳量贩桌游咖啡馆(汉口路店)","lon":"121.4815","lat":"31.234","category":"175","category_name":"棋牌室","address":"上海黄浦区汉口路547号(湖北路口)"},{"poiid":"B2094654DA6FABFF4493","title":"上海古籍书店","lon":"121.4828","lat":"31.2338","category":"125","category_name":"书店","address":"黄浦区福州路401号(近上海书城)"},{"poiid":"B2094757D06FA1FB479A","title":"银岛棋牌桌球(山西南路店)","lon":"121.48313","lat":"31.2353","category":"171","category_name":"台球厅","address":"上海黄浦区山西南路99号华盛商务大厦27-29楼(置地广场对面)"},{"poiid":"B2094654DB69AAFA4399","title":"磨磨茶茶","lon":"121.48185800627","lat":"31.233738243004","category":"110","category_name":"其他亚洲菜","address":"黄浦区福州路452号(近福建中路)"},{"poiid":"B2094757D464A0F94498","title":"吴越人家 南京东路店","lon":"121.48088029002","lat":"31.235500449758","category":"76","category_name":"上海菜","address":"黄浦区南京东路479号新世界先施休闲港湾内(近福建中路)"},{"poiid":"B2094757D06FA7FF4293","title":"大饼和他的朋友们","lon":"121.48134","lat":"31.23397","category":"175","category_name":"棋牌室","address":"黄浦区福建中路225号中悦大厦7楼(近轨交一号线人民广场站14号口)"},{"poiid":"B2094750DA6EA7F44499","title":"三人行","lon":"121.481491","lat":"31.236122","category":"247","category_name":"餐饮美食","address":"南京東路"},{"poiid":"B2094757D065A6FD469B","title":"酷酷璐章鱼小丸子","lon":"121.482498138","lat":"31.2358916207","category":"257","category_name":"中餐厅","address":"上海黄浦区南京东路414号"},{"poiid":"B2094752D76FA1F4479F","title":"星巴克福建中路店","lon":"121.482845","lat":"31.234606","category":"247","category_name":"餐饮美食","address":"福建中路353號"},{"poiid":"B2094655D269A4FB479F","title":"哈根达斯(南京东路店)","lon":"121.48087","lat":"31.23567","category":"113","category_name":"冷饮店","address":"黄浦区南京东路505号索菲特海仑宾馆1楼(近福建中路)"},{"poiid":"B2094757D06EAAF8459F","title":"上海书城(福州路店)","lon":"121.481493449","lat":"31.2332937367","category":"125","category_name":"书店","address":"黄浦区福州路465号(近福建中路)"},{"poiid":"B2094654DA6FA5F44192","title":"渝信川菜(华盛大厦店)","lon":"121.48265","lat":"31.23582","category":"71","category_name":"四川菜","address":"黄浦区九江路399号华盛大厦5楼(近山西南路)"},{"poiid":"B2094753D76FAAFA449C","title":"上海滩国泰旗舰店","lon":"121.466011","lat":"31.216125","category":"249","category_name":"购物服务","address":"淮海中路868号"},{"poiid":"B209475CD564A7F84292","title":"上海滩新天地店","lon":"121.47463","lat":"31.22164","category":"119","category_name":"商场","address":"\"太仓路181弄新天地北里15号\r\n\""},{"poiid":"B209475CD564A7F8439E","title":"上海滩中信泰富店","lon":"121.45602","lat":"31.22851","category":"119","category_name":"商场","address":"\"南京西路1168号中信泰富广场，店铺号221.\r\n\""},{"poiid":"B209475CD564A7F84392","title":"上海滩浦东香格里拉店","lon":"121.50058","lat":"31.23634","category":"119","category_name":"商场","address":"浦东富成路33号香格里拉酒店内大堂层"},{"poiid":"B2094757D06FA3FB4299","title":"上海大酒店","lon":"121.48121","lat":"31.23489","category":"213","category_name":"五星级宾馆","address":"黄浦区九江路505号(近福建中路)"},{"poiid":"B2094757D06FA0FA4499","title":"大马头茶餐厅","lon":"121.482732","lat":"31.235167","category":"72","category_name":"广东菜","address":"黄浦区九江路399号华盛大厦1楼(近地铁2号线4号口)"},{"poiid":"B2094757D06FA7FF489E","title":"王宝和大酒店","lon":"121.48086","lat":"31.23463","category":"217","category_name":"旅馆招待所","address":"黄浦区九江路555号(近福建中路)"},{"poiid":"B2094757D06AA4FD429B","title":"好乐迪","lon":"121.481533518","lat":"31.2356146948","category":"500","category_name":"未知分类","address":"上海南京东路479号"},{"poiid":"B2094654DA6FABFF4598","title":"上海书城","lon":"121.48145","lat":"31.2333","category":"125","category_name":"书店","address":"福州路456"},{"poiid":"B2094750D26EA4FE4099","title":"三人行骨头王火锅 南京东路二店","lon":"121.48115","lat":"31.23593","category":"86","category_name":"火锅店","address":"黄浦区南京东路479号新世界休闲港湾3-4楼(近福建中路)"},{"poiid":"B2094654DB6BABFD4292","title":"CoCo壱番屋(九江路店)","lon":"121.48282","lat":"31.23544","category":"95","category_name":"日本料理","address":"黄浦区汉口路399号华盛大厦103室(近山西南路)"},{"poiid":"B2094757D06FA3F44693","title":"悦来大酒店","lon":"121.4829","lat":"31.23501","category":"76","category_name":"上海菜","address":"黄浦区汉口路398号华盛大厦4楼(置地广场对面)"},{"poiid":"B2094752D66BAAFF439C","title":"胖达人手感烘焙","lon":"121.480831","lat":"31.235388","category":"247","category_name":"餐饮美食","address":"福建中路353号"},{"poiid":"B2094654DB65A6F94992","title":"上海索菲特海仑宾馆","lon":"121.48085","lat":"31.23567","category":"214","category_name":"四星级宾馆","address":"黄浦区南京东路505号索菲特海仑宾馆内(近福建中路)"},{"poiid":"B2094757D06FA2F5439A","title":"必胜客(先施店)","lon":"121.4802334","lat":"31.2357621","category":"94","category_name":"西餐厅","address":"黄浦区南京东路479号新世界先施休闲港湾1楼(近福建中路)"},{"poiid":"B2094654DB69ABFA4599","title":"上海外文书店(原版书店)","lon":"121.48305","lat":"31.23415","category":"125","category_name":"书店","address":"黄浦区福州路390号4楼(近上海书城)"},{"poiid":"B2094757D06FAAF4469A","title":"哈根达斯（Haagen.Dazs）海伦宾馆","lon":"121.480832","lat":"31.235417","category":"217","category_name":"旅馆招待所","address":"上海南京路步行街海伦宾馆1楼"},{"poiid":"B2094655D26EABFC4793","title":"星巴克(上海书城店)","lon":"121.481477","lat":"31.2334932","category":"260","category_name":"其他","address":"黄浦区福州路465号上海书城2楼(近福建中路)"},{"poiid":"B2094654DB69A4FC4092","title":"好乐迪(南东店)","lon":"121.48132","lat":"31.23593","category":"170","category_name":"KTV","address":"黄浦区南京东路479号新世界先施休闲港湾6-7楼(近福建中路)"},{"poiid":"B2094757D065A3F94593","title":"一之春","lon":"121.481300054","lat":"31.233554793","category":"68","category_name":"快餐厅","address":"黄浦区福州路528号(近来福士)"},{"poiid":"B2094757D06FA4F94698","title":"干锅居(南京东路店)","lon":"121.48088","lat":"31.23562","category":"83","category_name":"云贵菜","address":"黄浦区南京东路479号新世界休闲港湾3楼(近福建中路)"},{"poiid":"B2094757D068A3FA4098","title":"禾绿回转寿司(南京东路店)","lon":"121.48143","lat":"31.23563","category":"95","category_name":"日本料理","address":"黄浦区南京东路479号新世界先施休闲港湾4楼(近福建中路)"},{"poiid":"B2094654DA6FA5F54592","title":"振鼎鸡 福州路店","lon":"121.481516054","lat":"31.233358793","category":"68","category_name":"快餐厅","address":"黄浦区福州路440号(近福建中路)"},{"poiid":"B2094757D068A2F9419B","title":"三马路酒楼","lon":"121.482737","lat":"31.235036","category":"75","category_name":"浙江菜","address":"黄浦区汉口路413号(近山西南路)"},{"poiid":"B2094654DB6AA6F84798","title":"上海吴宫大酒店","lon":"121.48212","lat":"31.23358","category":"76","category_name":"上海菜","address":"黄浦区福州路431号(近福建中路)"},{"poiid":"B2094654DB69A6F4479D","title":"吉野家  先施店","lon":"121.48124","lat":"31.23602","category":"95","category_name":"日本料理","address":"黄浦区南京东路479号先施休闲广场1楼(近福建中路)"},{"poiid":"B2094654DA6FA5FF469E","title":"亚马逊巴西烤肉","lon":"121.48132","lat":"31.23593","category":"94","category_name":"西餐厅","address":"黄浦区南京东路479号新世界先施休闲港湾8楼(近福建中路)"},{"poiid":"B2094757D16FA5FA429F","title":"好乐迪量贩式KTV(南京东路店)","lon":"121.481903738","lat":"31.23538941","category":"170","category_name":"KTV","address":"上海黄浦区南京东路479号新世界先施休闲港湾6-7楼(近福建中路)"},{"poiid":"B2094757D66DA4F5459D","title":"味千拉面","lon":"121.482595738","lat":"31.2351284045","category":"247","category_name":"餐饮美食","address":"上海南京东路300号名人购物中心B1层"},{"poiid":"B2094655D264A1F94298","title":"桃源乡足道","lon":"121.48115","lat":"31.23594","category":"149","category_name":"洗浴推拿场所","address":"黄浦区南京东路479号新世界先施休闲港湾5楼(近福建中路)"},{"poiid":"B2094654DA6FA5FF4599","title":"康乃馨食府","lon":"121.48087","lat":"31.23567","category":"76","category_name":"上海菜","address":"黄浦区南京东路505号索菲特海仑宾馆3楼(近福建中路)"},{"poiid":"B2094757D064AAFB409F","title":"大码头茶餐厅","lon":"121.482632738","lat":"31.2359394218","category":"500","category_name":"未知分类","address":"上海市黄浦区牛庄路"},{"poiid":"B2094654DA6FA5F5459F","title":"中外运大厦","lon":"121.48178","lat":"31.23399","category":"46","category_name":"楼宇","address":"卫清西路139_149号等"},{"poiid":"B2094654DA6FA5FF4699","title":"新世界休闲港湾","lon":"121.48114","lat":"31.23594","category":"46","category_name":"楼宇","address":"黄浦区南京东路479号新世界先施休闲港湾内(近福建中路)"},{"poiid":"B2094757DA69A2FD489C","title":"上海外文书店日文部","lon":"121.48303","lat":"31.23411","category":"119","category_name":"商场","address":"福州路390号4楼"},{"poiid":"B2094757D568ABF44198","title":"巴贝拉第一食品店","lon":"121.4766","lat":"31.23524","category":"94","category_name":"西餐厅","address":"黄浦区南京东路720号第一食品3楼H203(近贵州路)"},{"poiid":"B2094655D26AA1F44992","title":"索菲特海仑酒店","lon":"121.48087","lat":"31.23567","category":"250","category_name":"公园户外","address":"黄浦区南京东路505号(近福建中路)"},{"poiid":"B2094655D26FA6F94798","title":"肯德基","lon":"121.48151","lat":"31.2361","category":"68","category_name":"快餐厅","address":"虹口区四川北路850号(塘沽路口)"},{"poiid":"B2094757D06FA2F44898","title":"汇佳量贩桌游咖啡馆(汉口路店)","lon":"121.4815","lat":"31.234","category":"175","category_name":"棋牌室","address":"上海黄浦区汉口路547号(湖北路口)"},{"poiid":"B2094654DA6FABFF4493","title":"上海古籍书店","lon":"121.4828","lat":"31.2338","category":"125","category_name":"书店","address":"黄浦区福州路401号(近上海书城)"},{"poiid":"B2094757D06FA1FB479A","title":"银岛棋牌桌球(山西南路店)","lon":"121.48313","lat":"31.2353","category":"171","category_name":"台球厅","address":"上海黄浦区山西南路99号华盛商务大厦27-29楼(置地广场对面)"},{"poiid":"B2094654DB69AAFA4399","title":"磨磨茶茶","lon":"121.48185800627","lat":"31.233738243004","category":"110","category_name":"其他亚洲菜","address":"黄浦区福州路452号(近福建中路)"},{"poiid":"B2094757D464A0F94498","title":"吴越人家 南京东路店","lon":"121.48088029002","lat":"31.235500449758","category":"76","category_name":"上海菜","address":"黄浦区南京东路479号新世界先施休闲港湾内(近福建中路)"},{"poiid":"B2094757D06FA7FF4293","title":"大饼和他的朋友们","lon":"121.48134","lat":"31.23397","category":"175","category_name":"棋牌室","address":"黄浦区福建中路225号中悦大厦7楼(近轨交一号线人民广场站14号口)"},{"poiid":"B2094750DA6EA7F44499","title":"三人行","lon":"121.481491","lat":"31.236122","category":"247","category_name":"餐饮美食","address":"南京東路"},{"poiid":"B2094757D065A6FD469B","title":"酷酷璐章鱼小丸子","lon":"121.482498138","lat":"31.2358916207","category":"257","category_name":"中餐厅","address":"上海黄浦区南京东路414号"},{"poiid":"B2094752D76FA1F4479F","title":"星巴克福建中路店","lon":"121.482845","lat":"31.234606","category":"247","category_name":"餐饮美食","address":"福建中路353號"},{"poiid":"B2094655D269A4FB479F","title":"哈根达斯(南京东路店)","lon":"121.48087","lat":"31.23567","category":"113","category_name":"冷饮店","address":"黄浦区南京东路505号索菲特海仑宾馆1楼(近福建中路)"},{"poiid":"B2094757D06EAAF8459F","title":"上海书城(福州路店)","lon":"121.481493449","lat":"31.2332937367","category":"125","category_name":"书店","address":"黄浦区福州路465号(近福建中路)"},{"poiid":"B2094654DA6FA5F44192","title":"渝信川菜(华盛大厦店)","lon":"121.48265","lat":"31.23582","category":"71","category_name":"四川菜","address":"黄浦区九江路399号华盛大厦5楼(近山西南路)"},{"poiid":"B2094753D76FAAFA449C","title":"上海滩国泰旗舰店","lon":"121.466011","lat":"31.216125","category":"249","category_name":"购物服务","address":"淮海中路868号"},{"poiid":"B209475CD564A7F84292","title":"上海滩新天地店","lon":"121.47463","lat":"31.22164","category":"119","category_name":"商场","address":"\"太仓路181弄新天地北里15号\r\n\""},{"poiid":"B209475CD564A7F8439E","title":"上海滩中信泰富店","lon":"121.45602","lat":"31.22851","category":"119","category_name":"商场","address":"\"南京西路1168号中信泰富广场，店铺号221.\r\n\""},{"poiid":"B209475CD564A7F84392","title":"上海滩浦东香格里拉店","lon":"121.50058","lat":"31.23634","category":"119","category_name":"商场","address":"浦东富成路33号香格里拉酒店内大堂层"},{"poiid":"B2094757D06FA3FB4299","title":"上海大酒店","lon":"121.48121","lat":"31.23489","category":"213","category_name":"五星级宾馆","address":"黄浦区九江路505号(近福建中路)"},{"poiid":"B2094757D06FA0FA4499","title":"大马头茶餐厅","lon":"121.482732","lat":"31.235167","category":"72","category_name":"广东菜","address":"黄浦区九江路399号华盛大厦1楼(近地铁2号线4号口)"},{"poiid":"B2094757D06FA7FF489E","title":"王宝和大酒店","lon":"121.48086","lat":"31.23463","category":"217","category_name":"旅馆招待所","address":"黄浦区九江路555号(近福建中路)"},{"poiid":"B2094757D06AA4FD429B","title":"好乐迪","lon":"121.481533518","lat":"31.2356146948","category":"500","category_name":"未知分类","address":"上海南京东路479号"},{"poiid":"B2094654DA6FABFF4598","title":"上海书城","lon":"121.48145","lat":"31.2333","category":"125","category_name":"书店","address":"福州路456"},{"poiid":"B2094750D26EA4FE4099","title":"三人行骨头王火锅 南京东路二店","lon":"121.48115","lat":"31.23593","category":"86","category_name":"火锅店","address":"黄浦区南京东路479号新世界休闲港湾3-4楼(近福建中路)"},{"poiid":"B2094654DB6BABFD4292","title":"CoCo壱番屋(九江路店)","lon":"121.48282","lat":"31.23544","category":"95","category_name":"日本料理","address":"黄浦区汉口路399号华盛大厦103室(近山西南路)"},{"poiid":"B2094757D06FA3F44693","title":"悦来大酒店","lon":"121.4829","lat":"31.23501","category":"76","category_name":"上海菜","address":"黄浦区汉口路398号华盛大厦4楼(置地广场对面)"},{"poiid":"B2094752D66BAAFF439C","title":"胖达人手感烘焙","lon":"121.480831","lat":"31.235388","category":"247","category_name":"餐饮美食","address":"福建中路353号"},{"poiid":"B2094654DB65A6F94992","title":"上海索菲特海仑宾馆","lon":"121.48085","lat":"31.23567","category":"214","category_name":"四星级宾馆","address":"黄浦区南京东路505号索菲特海仑宾馆内(近福建中路)"},{"poiid":"B2094757D06FA2F5439A","title":"必胜客(先施店)","lon":"121.4802334","lat":"31.2357621","category":"94","category_name":"西餐厅","address":"黄浦区南京东路479号新世界先施休闲港湾1楼(近福建中路)"},{"poiid":"B2094654DB69ABFA4599","title":"上海外文书店(原版书店)","lon":"121.48305","lat":"31.23415","category":"125","category_name":"书店","address":"黄浦区福州路390号4楼(近上海书城)"},{"poiid":"B2094757D06FAAF4469A","title":"哈根达斯（Haagen.Dazs）海伦宾馆","lon":"121.480832","lat":"31.235417","category":"217","category_name":"旅馆招待所","address":"上海南京路步行街海伦宾馆1楼"},{"poiid":"B2094655D26EABFC4793","title":"星巴克(上海书城店)","lon":"121.481477","lat":"31.2334932","category":"260","category_name":"其他","address":"黄浦区福州路465号上海书城2楼(近福建中路)"},{"poiid":"B2094654DB69A4FC4092","title":"好乐迪(南东店)","lon":"121.48132","lat":"31.23593","category":"170","category_name":"KTV","address":"黄浦区南京东路479号新世界先施休闲港湾6-7楼(近福建中路)"},{"poiid":"B2094757D065A3F94593","title":"一之春","lon":"121.481300054","lat":"31.233554793","category":"68","category_name":"快餐厅","address":"黄浦区福州路528号(近来福士)"},{"poiid":"B2094757D06FA4F94698","title":"干锅居(南京东路店)","lon":"121.48088","lat":"31.23562","category":"83","category_name":"云贵菜","address":"黄浦区南京东路479号新世界休闲港湾3楼(近福建中路)"},{"poiid":"B2094757D068A3FA4098","title":"禾绿回转寿司(南京东路店)","lon":"121.48143","lat":"31.23563","category":"95","category_name":"日本料理","address":"黄浦区南京东路479号新世界先施休闲港湾4楼(近福建中路)"},{"poiid":"B2094654DA6FA5F54592","title":"振鼎鸡 福州路店","lon":"121.481516054","lat":"31.233358793","category":"68","category_name":"快餐厅","address":"黄浦区福州路440号(近福建中路)"},{"poiid":"B2094757D068A2F9419B","title":"三马路酒楼","lon":"121.482737","lat":"31.235036","category":"75","category_name":"浙江菜","address":"黄浦区汉口路413号(近山西南路)"},{"poiid":"B2094654DB6AA6F84798","title":"上海吴宫大酒店","lon":"121.48212","lat":"31.23358","category":"76","category_name":"上海菜","address":"黄浦区福州路431号(近福建中路)"},{"poiid":"B2094654DB69A6F4479D","title":"吉野家  先施店","lon":"121.48124","lat":"31.23602","category":"95","category_name":"日本料理","address":"黄浦区南京东路479号先施休闲广场1楼(近福建中路)"},{"poiid":"B2094654DA6FA5FF469E","title":"亚马逊巴西烤肉","lon":"121.48132","lat":"31.23593","category":"94","category_name":"西餐厅","address":"黄浦区南京东路479号新世界先施休闲港湾8楼(近福建中路)"},{"poiid":"B2094757D16FA5FA429F","title":"好乐迪量贩式KTV(南京东路店)","lon":"121.481903738","lat":"31.23538941","category":"170","category_name":"KTV","address":"上海黄浦区南京东路479号新世界先施休闲港湾6-7楼(近福建中路)"},{"poiid":"B2094757D66DA4F5459D","title":"味千拉面","lon":"121.482595738","lat":"31.2351284045","category":"247","category_name":"餐饮美食","address":"上海南京东路300号名人购物中心B1层"},{"poiid":"B2094655D264A1F94298","title":"桃源乡足道","lon":"121.48115","lat":"31.23594","category":"149","category_name":"洗浴推拿场所","address":"黄浦区南京东路479号新世界先施休闲港湾5楼(近福建中路)"},{"poiid":"B2094654DA6FA5FF4599","title":"康乃馨食府","lon":"121.48087","lat":"31.23567","category":"76","category_name":"上海菜","address":"黄浦区南京东路505号索菲特海仑宾馆3楼(近福建中路)"},{"poiid":"B2094757D064AAFB409F","title":"大码头茶餐厅","lon":"121.482632738","lat":"31.2359394218","category":"500","category_name":"未知分类","address":"上海市黄浦区牛庄路"},{"poiid":"B2094654DA6FA5F5459F","title":"中外运大厦","lon":"121.48178","lat":"31.23399","category":"46","category_name":"楼宇","address":"卫清西路139_149号等"},{"poiid":"B2094654DA6FA5FF4699","title":"新世界休闲港湾","lon":"121.48114","lat":"31.23594","category":"46","category_name":"楼宇","address":"黄浦区南京东路479号新世界先施休闲港湾内(近福建中路)"},{"poiid":"B2094757DA69A2FD489C","title":"上海外文书店日文部","lon":"121.48303","lat":"31.23411","category":"119","category_name":"商场","address":"福州路390号4楼"},{"poiid":"B2094757D568ABF44198","title":"巴贝拉第一食品店","lon":"121.4766","lat":"31.23524","category":"94","category_name":"西餐厅","address":"黄浦区南京东路720号第一食品3楼H203(近贵州路)"},{"poiid":"B2094655D26AA1F44992","title":"索菲特海仑酒店","lon":"121.48087","lat":"31.23567","category":"250","category_name":"公园户外","address":"黄浦区南京东路505号(近福建中路)"},{"poiid":"B2094655D26FA6F94798","title":"肯德基","lon":"121.48151","lat":"31.2361","category":"68","category_name":"快餐厅","address":"虹口区四川北路850号(塘沽路口)"},{"poiid":"B2094757D06FA2F44898","title":"汇佳量贩桌游咖啡馆(汉口路店)","lon":"121.4815","lat":"31.234","category":"175","category_name":"棋牌室","address":"上海黄浦区汉口路547号(湖北路口)"},{"poiid":"B2094654DA6FABFF4493","title":"上海古籍书店","lon":"121.4828","lat":"31.2338","category":"125","category_name":"书店","address":"黄浦区福州路401号(近上海书城)"},{"poiid":"B2094757D06FA1FB479A","title":"银岛棋牌桌球(山西南路店)","lon":"121.48313","lat":"31.2353","category":"171","category_name":"台球厅","address":"上海黄浦区山西南路99号华盛商务大厦27-29楼(置地广场对面)"},{"poiid":"B2094654DB69AAFA4399","title":"磨磨茶茶","lon":"121.48185800627","lat":"31.233738243004","category":"110","category_name":"其他亚洲菜","address":"黄浦区福州路452号(近福建中路)"},{"poiid":"B2094757D464A0F94498","title":"吴越人家 南京东路店","lon":"121.48088029002","lat":"31.235500449758","category":"76","category_name":"上海菜","address":"黄浦区南京东路479号新世界先施休闲港湾内(近福建中路)"},{"poiid":"B2094757D06FA7FF4293","title":"大饼和他的朋友们","lon":"121.48134","lat":"31.23397","category":"175","category_name":"棋牌室","address":"黄浦区福建中路225号中悦大厦7楼(近轨交一号线人民广场站14号口)"},{"poiid":"B2094750DA6EA7F44499","title":"三人行","lon":"121.481491","lat":"31.236122","category":"247","category_name":"餐饮美食","address":"南京東路"},{"poiid":"B2094757D065A6FD469B","title":"酷酷璐章鱼小丸子","lon":"121.482498138","lat":"31.2358916207","category":"257","category_name":"中餐厅","address":"上海黄浦区南京东路414号"},{"poiid":"B2094752D76FA1F4479F","title":"星巴克福建中路店","lon":"121.482845","lat":"31.234606","category":"247","category_name":"餐饮美食","address":"福建中路353號"}]