[{"poiid":"B2094654DB6AAAFF469F","title":"上海外国语大学","lon":"121.48271","lat":"31.27654","category":"671","category_name":"高校中心点","address":"上海市虹口区大连西路550号"},{"poiid":"B2094654D56CA1FC4799","title":"上海外国语大学生活区","lon":"121.48577","lat":"31.27796","category":"47","category_name":"住宅区","address":"东体育会路411"},{"poiid":"B2094757D065ABF9459E","title":"上海外国语大学虹口校区","lon":"121.482817","lat":"31.275316","category":"500","category_name":"未知分类","address":"虹口区大连西路550号(近东体育会路)"},{"poiid":"B2094757D568AAF54899","title":"上海外国语大学贤达经济人文学院","lon":"121.4844739","lat":"31.27817111","category":"671","category_name":"高校中心点","address":"东体育会路390号"},{"poiid":"B2094757D068A7FE4998","title":"西北狼烧烤","lon":"121.488008103","lat":"31.2755975304","category":"247","category_name":"餐饮美食","address":"上海虹口足球场旁"},{"poiid":"B2094757D069A1F4429E","title":"八号线虹口足球场站","lon":"121.486136503","lat":"31.2728143722","category":"500","category_name":"未知分类","address":"上海八号线虹口足球场站"},{"poiid":"B2094757D06FA5FC4692","title":"大连西路曲阳路","lon":"121.488515","lat":"31.27648","category":"500","category_name":"未知分类","address":"上海100。959。70。937。751。310。79。848。"},{"poiid":"B2094757D068A2F9439E","title":"虹口区牙病防治所","lon":"121.48649","lat":"31.27398","category":"162","category_name":"医院","address":"虹口区欧阳路571号(近大连西路)"},{"poiid":"B2094757D06FA1FA429E","title":"彩虹寿司(东体育会路总店)","lon":"121.48581","lat":"31.27832","category":"95","category_name":"日本料理","address":"虹口区东体育会路412号(近玉田路)"},{"poiid":"B2094655D26EA7FF4298","title":"梅园村酒家(虹口店)","lon":"121.48823","lat":"31.2764","category":"76","category_name":"上海菜","address":"虹口区大连西路255号(近曲阳路)"},{"poiid":"B2094757D06FA7F4429E","title":"嘉和国际大厦","lon":"121.48520494983","lat":"31.275291764831","category":"46","category_name":"楼宇","address":"浦东新区金湘路225弄"},{"poiid":"B2094757D06FA6FF4493","title":"北郊高级中学","lon":"121.48976","lat":"31.2753","category":"55","category_name":"中学","address":"虹口区曲阳路497号(近大连西路)"},{"poiid":"B2094654D56EA0FF4793","title":"上海外国语大学(东门)","lon":"121.48381","lat":"31.27703","category":"656","category_name":"大门","address":"东体育会路340"},{"poiid":"B2094757D06FABFE489E","title":"虹口区教师进修学院","lon":"121.486546","lat":"31.273132","category":"253","category_name":"校园生活","address":"上海虹口区欧阳路502号"},{"poiid":"B2094757D06FA5F4489C","title":"上外贤达经济人文学院","lon":"121.484745","lat":"31.277795","category":"671","category_name":"高校中心点","address":"上海东体育会路390号"},{"poiid":"B2094757D069A1F8419A","title":"上海市虹口区房地产交易中心","lon":"121.484502","lat":"31.27703","category":"260","category_name":"其他","address":"上海东体育会路359号"},{"poiid":"B2094757D068A2FF479F","title":"巴麦隆烤肉(虹口店)","lon":"121.48625","lat":"31.27947","category":"68","category_name":"快餐厅","address":"虹口区东体育会路442号(近玉田路)"},{"poiid":"B2094757D068A4F84099","title":"敬亭盲人保健按摩","lon":"121.48734","lat":"31.27599","category":"149","category_name":"洗浴推拿场所","address":"虹口区大连西路261号中原证券大厦1楼(近曲阳路站)"},{"poiid":"B2094654D56CA6F8439F","title":"鲁迅公园(北门)","lon":"121.48374","lat":"31.27492","category":"656","category_name":"大门","address":"大连西路345"},{"poiid":"B2094750D26AA2FB4199","title":"牛排哈特","lon":"121.4866","lat":"31.2795","category":"94","category_name":"西餐厅","address":"虹口区玉田路433号(东体育会路口)"},{"poiid":"B2094757D464AAF54393","title":"艾罗玛咖啡 东体育会路店 Aroma Coffee","lon":"121.48404","lat":"31.27554","category":"260","category_name":"其他","address":"虹口区东体育会路306号(近大连西路)"},{"poiid":"B2094757D065A6F54393","title":"金涮盘","lon":"121.486897103","lat":"31.2753595254","category":"86","category_name":"火锅店","address":"上海市虹口区凯德龙之梦购物中心5F"},{"poiid":"B2094654D56CA0F9489A","title":"欧阳名邸","lon":"121.48741","lat":"31.274374","category":"47","category_name":"住宅区","address":"上海市虹口区欧阳路571号(近大连西路)"},{"poiid":"B2094654D56CA0F9449A","title":"山水苑","lon":"121.48629","lat":"31.275454","category":"47","category_name":"住宅区","address":"山水苑位于虹口虹口欧阳路681弄"},{"poiid":"B2094757D06AA6FA4793","title":"朱屺瞻艺术馆","lon":"121.48645","lat":"31.27411","category":"179","category_name":"音乐厅","address":"虹口区欧阳路580号"},{"poiid":"B2094757D06AA2FF439A","title":"上外逸夫会堂","lon":"121.482903","lat":"31.275323","category":"500","category_name":"未知分类","address":"上海外国语大学"},{"poiid":"B2094757D064A3FF4198","title":"玉田町","lon":"121.48629","lat":"31.27993","category":"95","category_name":"日本料理","address":"虹口区东体育会路434号(东体育会路玉田路)"},{"poiid":"B2094757D06BA4FC4593","title":"象山海鲜","lon":"121.488563533","lat":"31.2736898305","category":"500","category_name":"未知分类","address":"虹口区山阴路175号(近四川北路)"},{"poiid":"B2094757D065A7FA429C","title":"曲阳西南小区","lon":"121.488105103","lat":"31.2766605526","category":"500","category_name":"未知分类","address":"上海市虹口区大连西路250弄"},{"poiid":"B2094655D26FA4FE4893","title":"嘉兰大厦","lon":"121.488","lat":"31.2741","category":"46","category_name":"楼宇","address":"四川北路2261、2263号"},{"poiid":"B2094654D56CA1FE409E","title":"上海市工商行政管理局虹口分局","lon":"121.48586","lat":"31.2765","category":"250","category_name":"公园户外","address":"大连西路296号华敏大厦"},{"poiid":"B2094655D26FA0F54992","title":"华敏大厦(南一门)","lon":"121.48591","lat":"31.27637","category":"46","category_name":"楼宇","address":"大连西路296"},{"poiid":"B209475CD16FA5F4459D","title":"虹口区凯德龙之梦","lon":"121.487045","lat":"31.276876","category":"500","category_name":"未知分类","address":"上海市 虹口区西江湾路"},{"poiid":"B2094757D16BA5F54999","title":"新奇骨头王","lon":"121.485843103","lat":"31.2755945304","category":"247","category_name":"餐饮美食","address":"上海市虹口区广灵二路"},{"poiid":"B2094654D56CA0F9459B","title":"欧九小区","lon":"121.48709","lat":"31.274914","category":"47","category_name":"住宅区","address":"欧阳路587弄1号-13号"},{"poiid":"B2094757D06BA0FF4593","title":"安利精致生活馆(大连西路店)","lon":"121.48758","lat":"31.27631","category":"122","category_name":"个人用品/化妆品店","address":"虹口区大连西路259号(近曲阳路站)"},{"poiid":"B2094757D06BA0F8439A","title":"木屋北大荒人","lon":"121.486101487","lat":"31.2794370396","category":"82","category_name":"东北菜","address":"虹口区东体育会路427号(近玉田路)"},{"poiid":"B2094757D16FA4F8429C","title":"罗森便利(欧阳店)","lon":"121.4860382","lat":"31.275583267","category":"117","category_name":"便民商店/便利店","address":"上海虹口区欧阳路695号"},{"poiid":"B2094757D16FA0F84593","title":"100路欧阳路大连西路站","lon":"121.486245","lat":"31.274832","category":"38","category_name":"公交车站","address":"上海欧阳路大连西路"},{"poiid":"B2094751D36DA0F9499D","title":"欧阳店","lon":"121.48698","lat":"31.27387","category":"87","category_name":"特色／地方风味餐厅","address":"虹口区欧阳路561号(近大连西路)"},{"poiid":"B2094654D56CA0F9439F","title":"上海市公安局水上公安分局交通警察大队入口","lon":"121.48589","lat":"31.27581","category":"250","category_name":"公园户外","address":""},{"poiid":"B2094757D064A3F8459D","title":"上海阿姨香酥鸡摊","lon":"121.48638","lat":"31.27917","category":"68","category_name":"快餐厅","address":"虹口区东体育会路413弄新北郊中学斜对面(旭昌日杂店门口)"},{"poiid":"B2094655D265ABFF4599","title":"同茂兴苏氏面菜馆上外店","lon":"121.48406","lat":"31.27582","category":"68","category_name":"快餐厅","address":"虹口区东体育会路318号(大连西路欧阳路)"},{"poiid":"B2094655D26CA1F9469E","title":"文宇公寓","lon":"121.48791","lat":"31.276251","category":"47","category_name":"住宅区","address":"大连西路257弄1-5号"},{"poiid":"B2094751DB6CA4F4439F","title":"矮胖子良心油条(四川北路店)","lon":"121.48538","lat":"31.27689","category":"68","category_name":"快餐厅","address":"虹口区四川北路(川公路口)"},{"poiid":"B2094750D76EA4F54592","title":"味多美(大连西路店)","lon":"121.489","lat":"31.2764","category":"112","category_name":"糕饼店","address":"虹口区大连西路247号(近曲阳路)"},{"poiid":"B2094654D56CA6FE469C","title":"樱苑别墅","lon":"121.487","lat":"31.275","category":"47","category_name":"住宅区","address":"四川北路2365号"},{"poiid":"B2094655D26BABFA4398","title":"逸夫图书馆","lon":"121.48302","lat":"31.2774","category":"181","category_name":"图书馆","address":""},{"poiid":"B2094757D16BA4FC4392","title":"冰火工坊麻辣烫","lon":"121.487979103","lat":"31.2755915303","category":"247","category_name":"餐饮美食","address":"上海市虹口区曲阳路"},{"poiid":"B2094757D06BA3FB4899","title":"唐之印象","lon":"121.48689","lat":"31.27375","category":"500","category_name":"未知分类","address":"虹口区欧阳路561号(近大连西路)"},{"poiid":"B2094654DB6AAAFF469F","title":"上海外国语大学","lon":"121.48271","lat":"31.27654","category":"671","category_name":"高校中心点","address":"上海市虹口区大连西路550号"},{"poiid":"B2094654D56CA1FC4799","title":"上海外国语大学生活区","lon":"121.48577","lat":"31.27796","category":"47","category_name":"住宅区","address":"东体育会路411"},{"poiid":"B2094757D065ABF9459E","title":"上海外国语大学虹口校区","lon":"121.482817","lat":"31.275316","category":"500","category_name":"未知分类","address":"虹口区大连西路550号(近东体育会路)"},{"poiid":"B2094757D568AAF54899","title":"上海外国语大学贤达经济人文学院","lon":"121.4844739","lat":"31.27817111","category":"671","category_name":"高校中心点","address":"东体育会路390号"},{"poiid":"B2094757D068A7FE4998","title":"西北狼烧烤","lon":"121.488008103","lat":"31.2755975304","category":"247","category_name":"餐饮美食","address":"上海虹口足球场旁"},{"poiid":"B2094757D069A1F4429E","title":"八号线虹口足球场站","lon":"121.486136503","lat":"31.2728143722","category":"500","category_name":"未知分类","address":"上海八号线虹口足球场站"},{"poiid":"B2094757D06FA5FC4692","title":"大连西路曲阳路","lon":"121.488515","lat":"31.27648","category":"500","category_name":"未知分类","address":"上海100。959。70。937。751。310。79。848。"},{"poiid":"B2094757D068A2F9439E","title":"虹口区牙病防治所","lon":"121.48649","lat":"31.27398","category":"162","category_name":"医院","address":"虹口区欧阳路571号(近大连西路)"},{"poiid":"B2094757D06FA1FA429E","title":"彩虹寿司(东体育会路总店)","lon":"121.48581","lat":"31.27832","category":"95","category_name":"日本料理","address":"虹口区东体育会路412号(近玉田路)"},{"poiid":"B2094655D26EA7FF4298","title":"梅园村酒家(虹口店)","lon":"121.48823","lat":"31.2764","category":"76","category_name":"上海菜","address":"虹口区大连西路255号(近曲阳路)"},{"poiid":"B2094757D06FA7F4429E","title":"嘉和国际大厦","lon":"121.48520494983","lat":"31.275291764831","category":"46","category_name":"楼宇","address":"浦东新区金湘路225弄"},{"poiid":"B2094757D06FA6FF4493","title":"北郊高级中学","lon":"121.48976","lat":"31.2753","category":"55","category_name":"中学","address":"虹口区曲阳路497号(近大连西路)"},{"poiid":"B2094654D56EA0FF4793","title":"上海外国语大学(东门)","lon":"121.48381","lat":"31.27703","category":"656","category_name":"大门","address":"东体育会路340"},{"poiid":"B2094757D06FABFE489E","title":"虹口区教师进修学院","lon":"121.486546","lat":"31.273132","category":"253","category_name":"校园生活","address":"上海虹口区欧阳路502号"},{"poiid":"B2094757D06FA5F4489C","title":"上外贤达经济人文学院","lon":"121.484745","lat":"31.277795","category":"671","category_name":"高校中心点","address":"上海东体育会路390号"},{"poiid":"B2094757D069A1F8419A","title":"上海市虹口区房地产交易中心","lon":"121.484502","lat":"31.27703","category":"260","category_name":"其他","address":"上海东体育会路359号"},{"poiid":"B2094757D068A2FF479F","title":"巴麦隆烤肉(虹口店)","lon":"121.48625","lat":"31.27947","category":"68","category_name":"快餐厅","address":"虹口区东体育会路442号(近玉田路)"},{"poiid":"B2094757D068A4F84099","title":"敬亭盲人保健按摩","lon":"121.48734","lat":"31.27599","category":"149","category_name":"洗浴推拿场所","address":"虹口区大连西路261号中原证券大厦1楼(近曲阳路站)"},{"poiid":"B2094654D56CA6F8439F","title":"鲁迅公园(北门)","lon":"121.48374","lat":"31.27492","category":"656","category_name":"大门","address":"大连西路345"},{"poiid":"B2094750D26AA2FB4199","title":"牛排哈特","lon":"121.4866","lat":"31.2795","category":"94","category_name":"西餐厅","address":"虹口区玉田路433号(东体育会路口)"},{"poiid":"B2094757D464AAF54393","title":"艾罗玛咖啡 东体育会路店 Aroma Coffee","lon":"121.48404","lat":"31.27554","category":"260","category_name":"其他","address":"虹口区东体育会路306号(近大连西路)"},{"poiid":"B2094757D065A6F54393","title":"金涮盘","lon":"121.486897103","lat":"31.2753595254","category":"86","category_name":"火锅店","address":"上海市虹口区凯德龙之梦购物中心5F"},{"poiid":"B2094654D56CA0F9489A","title":"欧阳名邸","lon":"121.48741","lat":"31.274374","category":"47","category_name":"住宅区","address":"上海市虹口区欧阳路571号(近大连西路)"},{"poiid":"B2094654D56CA0F9449A","title":"山水苑","lon":"121.48629","lat":"31.275454","category":"47","category_name":"住宅区","address":"山水苑位于虹口虹口欧阳路681弄"},{"poiid":"B2094757D06AA6FA4793","title":"朱屺瞻艺术馆","lon":"121.48645","lat":"31.27411","category":"179","category_name":"音乐厅","address":"虹口区欧阳路580号"},{"poiid":"B2094757D06AA2FF439A","title":"上外逸夫会堂","lon":"121.482903","lat":"31.275323","category":"500","category_name":"未知分类","address":"上海外国语大学"},{"poiid":"B2094757D064A3FF4198","title":"玉田町","lon":"121.48629","lat":"31.27993","category":"95","category_name":"日本料理","address":"虹口区东体育会路434号(东体育会路玉田路)"},{"poiid":"B2094757D06BA4FC4593","title":"象山海鲜","lon":"121.488563533","lat":"31.2736898305","category":"500","category_name":"未知分类","address":"虹口区山阴路175号(近四川北路)"},{"poiid":"B2094757D065A7FA429C","title":"曲阳西南小区","lon":"121.488105103","lat":"31.2766605526","category":"500","category_name":"未知分类","address":"上海市虹口区大连西路250弄"},{"poiid":"B2094655D26FA4FE4893","title":"嘉兰大厦","lon":"121.488","lat":"31.2741","category":"46","category_name":"楼宇","address":"四川北路2261、2263号"},{"poiid":"B2094654D56CA1FE409E","title":"上海市工商行政管理局虹口分局","lon":"121.48586","lat":"31.2765","category":"250","category_name":"公园户外","address":"大连西路296号华敏大厦"},{"poiid":"B2094655D26FA0F54992","title":"华敏大厦(南一门)","lon":"121.48591","lat":"31.27637","category":"46","category_name":"楼宇","address":"大连西路296"},{"poiid":"B209475CD16FA5F4459D","title":"虹口区凯德龙之梦","lon":"121.487045","lat":"31.276876","category":"500","category_name":"未知分类","address":"上海市 虹口区西江湾路"},{"poiid":"B2094757D16BA5F54999","title":"新奇骨头王","lon":"121.485843103","lat":"31.2755945304","category":"247","category_name":"餐饮美食","address":"上海市虹口区广灵二路"},{"poiid":"B2094654D56CA0F9459B","title":"欧九小区","lon":"121.48709","lat":"31.274914","category":"47","category_name":"住宅区","address":"欧阳路587弄1号-13号"},{"poiid":"B2094757D06BA0FF4593","title":"安利精致生活馆(大连西路店)","lon":"121.48758","lat":"31.27631","category":"122","category_name":"个人用品/化妆品店","address":"虹口区大连西路259号(近曲阳路站)"},{"poiid":"B2094757D06BA0F8439A","title":"木屋北大荒人","lon":"121.486101487","lat":"31.2794370396","category":"82","category_name":"东北菜","address":"虹口区东体育会路427号(近玉田路)"},{"poiid":"B2094757D16FA4F8429C","title":"罗森便利(欧阳店)","lon":"121.4860382","lat":"31.275583267","category":"117","category_name":"便民商店/便利店","address":"上海虹口区欧阳路695号"},{"poiid":"B2094757D16FA0F84593","title":"100路欧阳路大连西路站","lon":"121.486245","lat":"31.274832","category":"38","category_name":"公交车站","address":"上海欧阳路大连西路"},{"poiid":"B2094751D36DA0F9499D","title":"欧阳店","lon":"121.48698","lat":"31.27387","category":"87","category_name":"特色／地方风味餐厅","address":"虹口区欧阳路561号(近大连西路)"},{"poiid":"B2094654D56CA0F9439F","title":"上海市公安局水上公安分局交通警察大队入口","lon":"121.48589","lat":"31.27581","category":"250","category_name":"公园户外","address":""},{"poiid":"B2094757D064A3F8459D","title":"上海阿姨香酥鸡摊","lon":"121.48638","lat":"31.27917","category":"68","category_name":"快餐厅","address":"虹口区东体育会路413弄新北郊中学斜对面(旭昌日杂店门口)"},{"poiid":"B2094655D265ABFF4599","title":"同茂兴苏氏面菜馆上外店","lon":"121.48406","lat":"31.27582","category":"68","category_name":"快餐厅","address":"虹口区东体育会路318号(大连西路欧阳路)"},{"poiid":"B2094655D26CA1F9469E","title":"文宇公寓","lon":"121.48791","lat":"31.276251","category":"47","category_name":"住宅区","address":"大连西路257弄1-5号"},{"poiid":"B2094751DB6CA4F4439F","title":"矮胖子良心油条(四川北路店)","lon":"121.48538","lat":"31.27689","category":"68","category_name":"快餐厅","address":"虹口区四川北路(川公路口)"},{"poiid":"B2094750D76EA4F54592","title":"味多美(大连西路店)","lon":"121.489","lat":"31.2764","category":"112","category_name":"糕饼店","address":"虹口区大连西路247号(近曲阳路)"},{"poiid":"B2094654D56CA6FE469C","title":"樱苑别墅","lon":"121.487","lat":"31.275","category":"47","category_name":"住宅区","address":"四川北路2365号"},{"poiid":"B2094655D26BABFA4398","title":"逸夫图书馆","lon":"121.48302","lat":"31.2774","category":"181","category_name":"图书馆","address":""},{"poiid":"B2094757D16BA4FC4392","title":"冰火工坊麻辣烫","lon":"121.487979103","lat":"31.2755915303","category":"247","category_name":"餐饮美食","address":"上海市虹口区曲阳路"},{"poiid":"B2094757D06BA3FB4899","title":"唐之印象","lon":"121.48689","lat":"31.27375","category":"500","category_name":"未知分类","address":"虹口区欧阳路561号(近大连西路)"},{"poiid":"B2094654DB6AAAFF469F","title":"上海外国语大学","lon":"121.48271","lat":"31.27654","category":"671","category_name":"高校中心点","address":"上海市虹口区大连西路550号"},{"poiid":"B2094654D56CA1FC4799","title":"上海外国语大学生活区","lon":"121.48577","lat":"31.27796","category":"47","category_name":"住宅区","address":"东体育会路411"},{"poiid":"B2094757D065ABF9459E","title":"上海外国语大学虹口校区","lon":"121.482817","lat":"31.275316","category":"500","category_name":"未知分类","address":"虹口区大连西路550号(近东体育会路)"},{"poiid":"B2094757D568AAF54899","title":"上海外国语大学贤达经济人文学院","lon":"121.4844739","lat":"31.27817111","category":"671","category_name":"高校中心点","address":"东体育会路390号"},{"poiid":"B2094757D068A7FE4998","title":"西北狼烧烤","lon":"121.488008103","lat":"31.2755975304","category":"247","category_name":"餐饮美食","address":"上海虹口足球场旁"},{"poiid":"B2094757D069A1F4429E","title":"八号线虹口足球场站","lon":"121.486136503","lat":"31.2728143722","category":"500","category_name":"未知分类","address":"上海八号线虹口足球场站"},{"poiid":"B2094757D06FA5FC4692","title":"大连西路曲阳路","lon":"121.488515","lat":"31.27648","category":"500","category_name":"未知分类","address":"上海100。959。70。937。751。310。79。848。"},{"poiid":"B2094757D068A2F9439E","title":"虹口区牙病防治所","lon":"121.48649","lat":"31.27398","category":"162","category_name":"医院","address":"虹口区欧阳路571号(近大连西路)"},{"poiid":"B2094757D06FA1FA429E","title":"彩虹寿司(东体育会路总店)","lon":"121.48581","lat":"31.27832","category":"95","category_name":"日本料理","address":"虹口区东体育会路412号(近玉田路)"},{"poiid":"B2094655D26EA7FF4298","title":"梅园村酒家(虹口店)","lon":"121.48823","lat":"31.2764","category":"76","category_name":"上海菜","address":"虹口区大连西路255号(近曲阳路)"},{"poiid":"B2094757D06FA7F4429E","title":"嘉和国际大厦","lon":"121.48520494983","lat":"31.275291764831","category":"46","category_name":"楼宇","address":"浦东新区金湘路225弄"},{"poiid":"B2094757D06FA6FF4493","title":"北郊高级中学","lon":"121.48976","lat":"31.2753","category":"55","category_name":"中学","address":"虹口区曲阳路497号(近大连西路)"},{"poiid":"B2094654D56EA0FF4793","title":"上海外国语大学(东门)","lon":"121.48381","lat":"31.27703","category":"656","category_name":"大门","address":"东体育会路340"},{"poiid":"B2094757D06FABFE489E","title":"虹口区教师进修学院","lon":"121.486546","lat":"31.273132","category":"253","category_name":"校园生活","address":"上海虹口区欧阳路502号"},{"poiid":"B2094757D06FA5F4489C","title":"上外贤达经济人文学院","lon":"121.484745","lat":"31.277795","category":"671","category_name":"高校中心点","address":"上海东体育会路390号"},{"poiid":"B2094757D069A1F8419A","title":"上海市虹口区房地产交易中心","lon":"121.484502","lat":"31.27703","category":"260","category_name":"其他","address":"上海东体育会路359号"},{"poiid":"B2094757D068A2FF479F","title":"巴麦隆烤肉(虹口店)","lon":"121.48625","lat":"31.27947","category":"68","category_name":"快餐厅","address":"虹口区东体育会路442号(近玉田路)"},{"poiid":"B2094757D068A4F84099","title":"敬亭盲人保健按摩","lon":"121.48734","lat":"31.27599","category":"149","category_name":"洗浴推拿场所","address":"虹口区大连西路261号中原证券大厦1楼(近曲阳路站)"},{"poiid":"B2094654D56CA6F8439F","title":"鲁迅公园(北门)","lon":"121.48374","lat":"31.27492","category":"656","category_name":"大门","address":"大连西路345"},{"poiid":"B2094750D26AA2FB4199","title":"牛排哈特","lon":"121.4866","lat":"31.2795","category":"94","category_name":"西餐厅","address":"虹口区玉田路433号(东体育会路口)"},{"poiid":"B2094757D464AAF54393","title":"艾罗玛咖啡 东体育会路店 Aroma Coffee","lon":"121.48404","lat":"31.27554","category":"260","category_name":"其他","address":"虹口区东体育会路306号(近大连西路)"},{"poiid":"B2094757D065A6F54393","title":"金涮盘","lon":"121.486897103","lat":"31.2753595254","category":"86","category_name":"火锅店","address":"上海市虹口区凯德龙之梦购物中心5F"},{"poiid":"B2094654D56CA0F9489A","title":"欧阳名邸","lon":"121.48741","lat":"31.274374","category":"47","category_name":"住宅区","address":"上海市虹口区欧阳路571号(近大连西路)"},{"poiid":"B2094654D56CA0F9449A","title":"山水苑","lon":"121.48629","lat":"31.275454","category":"47","category_name":"住宅区","address":"山水苑位于虹口虹口欧阳路681弄"},{"poiid":"B2094757D06AA6FA4793","title":"朱屺瞻艺术馆","lon":"121.48645","lat":"31.27411","category":"179","category_name":"音乐厅","address":"虹口区欧阳路580号"},{"poiid":"B2094757D06AA2FF439A","title":"上外逸夫会堂","lon":"121.482903","lat":"31.275323","category":"500","category_name":"未知分类","address":"上海外国语大学"},{"poiid":"B2094757D064A3FF4198","title":"玉田町","lon":"121.48629","lat":"31.27993","category":"95","category_name":"日本料理","address":"虹口区东体育会路434号(东体育会路玉田路)"},{"poiid":"B2094757D06BA4FC4593","title":"象山海鲜","lon":"121.488563533","lat":"31.2736898305","category":"500","category_name":"未知分类","address":"虹口区山阴路175号(近四川北路)"},{"poiid":"B2094757D065A7FA429C","title":"曲阳西南小区","lon":"121.488105103","lat":"31.2766605526","category":"500","category_name":"未知分类","address":"上海市虹口区大连西路250弄"},{"poiid":"B2094655D26FA4FE4893","title":"嘉兰大厦","lon":"121.488","lat":"31.2741","category":"46","category_name":"楼宇","address":"四川北路2261、2263号"},{"poiid":"B2094654D56CA1FE409E","title":"上海市工商行政管理局虹口分局","lon":"121.48586","lat":"31.2765","category":"250","category_name":"公园户外","address":"大连西路296号华敏大厦"},{"poiid":"B2094655D26FA0F54992","title":"华敏大厦(南一门)","lon":"121.48591","lat":"31.27637","category":"46","category_name":"楼宇","address":"大连西路296"},{"poiid":"B209475CD16FA5F4459D","title":"虹口区凯德龙之梦","lon":"121.487045","lat":"31.276876","category":"500","category_name":"未知分类","address":"上海市 虹口区西江湾路"},{"poiid":"B2094757D16BA5F54999","title":"新奇骨头王","lon":"121.485843103","lat":"31.2755945304","category":"247","category_name":"餐饮美食","address":"上海市虹口区广灵二路"},{"poiid":"B2094654D56CA0F9459B","title":"欧九小区","lon":"121.48709","lat":"31.274914","category":"47","category_name":"住宅区","address":"欧阳路587弄1号-13号"},{"poiid":"B2094757D06BA0FF4593","title":"安利精致生活馆(大连西路店)","lon":"121.48758","lat":"31.27631","category":"122","category_name":"个人用品/化妆品店","address":"虹口区大连西路259号(近曲阳路站)"},{"poiid":"B2094757D06BA0F8439A","title":"木屋北大荒人","lon":"121.486101487","lat":"31.2794370396","category":"82","category_name":"东北菜","address":"虹口区东体育会路427号(近玉田路)"},{"poiid":"B2094757D16FA4F8429C","title":"罗森便利(欧阳店)","lon":"121.4860382","lat":"31.275583267","category":"117","category_name":"便民商店/便利店","address":"上海虹口区欧阳路695号"},{"poiid":"B2094757D16FA0F84593","title":"100路欧阳路大连西路站","lon":"121.486245","lat":"31.274832","category":"38","category_name":"公交车站","address":"上海欧阳路大连西路"},{"poiid":"B2094751D36DA0F9499D","title":"欧阳店","lon":"121.48698","lat":"31.27387","category":"87","category_name":"特色／地方风味餐厅","address":"虹口区欧阳路561号(近大连西路)"},{"poiid":"B2094654D56CA0F9439F","title":"上海市公安局水上公安分局交通警察大队入口","lon":"121.48589","lat":"31.27581","category":"250","category_name":"公园户外","address":""},{"poiid":"B2094757D064A3F8459D","title":"上海阿姨香酥鸡摊","lon":"121.48638","lat":"31.27917","category":"68","category_name":"快餐厅","address":"虹口区东体育会路413弄新北郊中学斜对面(旭昌日杂店门口)"},{"poiid":"B2094655D265ABFF4599","title":"同茂兴苏氏面菜馆上外店","lon":"121.48406","lat":"31.27582","category":"68","category_name":"快餐厅","address":"虹口区东体育会路318号(大连西路欧阳路)"},{"poiid":"B2094655D26CA1F9469E","title":"文宇公寓","lon":"121.48791","lat":"31.276251","category":"47","category_name":"住宅区","address":"大连西路257弄1-5号"},{"poiid":"B2094751DB6CA4F4439F","title":"矮胖子良心油条(四川北路店)","lon":"121.48538","lat":"31.27689","category":"68","category_name":"快餐厅","address":"虹口区四川北路(川公路口)"},{"poiid":"B2094750D76EA4F54592","title":"味多美(大连西路店)","lon":"121.489","lat":"31.2764","category":"112","category_name":"糕饼店","address":"虹口区大连西路247号(近曲阳路)"},{"poiid":"B2094654D56CA6FE469C","title":"樱苑别墅","lon":"121.487","lat":"31.275","category":"47","category_name":"住宅区","address":"四川北路2365号"},{"poiid":"B2094655D26BABFA4398","title":"逸夫图书馆","lon":"121.48302","lat":"31.2774","category":"181","category_name":"图书馆","address":""},{"poiid":"B2094757D16BA4FC4392","title":"冰火工坊麻辣烫","lon":"121.487979103","lat":"31.2755915303","category":"247","category_name":"餐饮美食","address":"上海市虹口区曲阳路"},{"poiid":"B2094757D06BA3FB4899","title":"唐之印象","lon":"121.48689","lat":"31.27375","category":"500","category_name":"未知分类","address":"虹口区欧阳路561号(近大连西路)"},{"poiid":"B2094654DB6AAAFF469F","title":"上海外国语大学","lon":"121.48271","lat":"31.27654","category":"671","category_name":"高校中心点","address":"上海市虹口区大连西路550号"},{"poiid":"B2094654D56CA1FC4799","title":"上海外国语大学生活区","lon":"121.48577","lat":"31.27796","category":"47","category_name":"住宅区","address":"东体育会路411"},{"poiid":"B2094757D065ABF9459E","title":"上海外国语大学虹口校区","lon":"121.482817","lat":"31.275316","category":"500","category_name":"未知分类","address":"虹口区大连西路550号(近东体育会路)"},{"poiid":"B2094757D568AAF54899","title":"上海外国语大学贤达经济人文学院","lon":"121.4844739","lat":"31.27817111","category":"671","category_name":"高校中心点","address":"东体育会路390号"},{"poiid":"B2094757D068A7FE4998","title":"西北狼烧烤","lon":"121.488008103","lat":"31.2755975304","category":"247","category_name":"餐饮美食","address":"上海虹口足球场旁"},{"poiid":"B2094757D069A1F4429E","title":"八号线虹口足球场站","lon":"121.486136503","lat":"31.2728143722","category":"500","category_name":"未知分类","address":"上海八号线虹口足球场站"},{"poiid":"B2094757D06FA5FC4692","title":"大连西路曲阳路","lon":"121.488515","lat":"31.27648","category":"500","category_name":"未知分类","address":"上海100。959。70。937。751。310。79。848。"},{"poiid":"B2094757D068A2F9439E","title":"虹口区牙病防治所","lon":"121.48649","lat":"31.27398","category":"162","category_name":"医院","address":"虹口区欧阳路571号(近大连西路)"},{"poiid":"B2094757D06FA1FA429E","title":"彩虹寿司(东体育会路总店)","lon":"121.48581","lat":"31.27832","category":"95","category_name":"日本料理","address":"虹口区东体育会路412号(近玉田路)"},{"poiid":"B2094655D26EA7FF4298","title":"梅园村酒家(虹口店)","lon":"121.48823","lat":"31.2764","category":"76","category_name":"上海菜","address":"虹口区大连西路255号(近曲阳路)"},{"poiid":"B2094757D06FA7F4429E","title":"嘉和国际大厦","lon":"121.48520494983","lat":"31.275291764831","category":"46","category_name":"楼宇","address":"浦东新区金湘路225弄"},{"poiid":"B2094757D06FA6FF4493","title":"北郊高级中学","lon":"121.48976","lat":"31.2753","category":"55","category_name":"中学","address":"虹口区曲阳路497号(近大连西路)"},{"poiid":"B2094654D56EA0FF4793","title":"上海外国语大学(东门)","lon":"121.48381","lat":"31.27703","category":"656","category_name":"大门","address":"东体育会路340"},{"poiid":"B2094757D06FABFE489E","title":"虹口区教师进修学院","lon":"121.486546","lat":"31.273132","category":"253","category_name":"校园生活","address":"上海虹口区欧阳路502号"},{"poiid":"B2094757D06FA5F4489C","title":"上外贤达经济人文学院","lon":"121.484745","lat":"31.277795","category":"671","category_name":"高校中心点","address":"上海东体育会路390号"},{"poiid":"B2094757D069A1F8419A","title":"上海市虹口区房地产交易中心","lon":"121.484502","lat":"31.27703","category":"260","category_name":"其他","address":"上海东体育会路359号"},{"poiid":"B2094757D068A2FF479F","title":"巴麦隆烤肉(虹口店)","lon":"121.48625","lat":"31.27947","category":"68","category_name":"快餐厅","address":"虹口区东体育会路442号(近玉田路)"},{"poiid":"B2094757D068A4F84099","title":"敬亭盲人保健按摩","lon":"121.48734","lat":"31.27599","category":"149","category_name":"洗浴推拿场所","address":"虹口区大连西路261号中原证券大厦1楼(近曲阳路站)"},{"poiid":"B2094654D56CA6F8439F","title":"鲁迅公园(北门)","lon":"121.48374","lat":"31.27492","category":"656","category_name":"大门","address":"大连西路345"},{"poiid":"B2094750D26AA2FB4199","title":"牛排哈特","lon":"121.4866","lat":"31.2795","category":"94","category_name":"西餐厅","address":"虹口区玉田路433号(东体育会路口)"},{"poiid":"B2094757D464AAF54393","title":"艾罗玛咖啡 东体育会路店 Aroma Coffee","lon":"121.48404","lat":"31.27554","category":"260","category_name":"其他","address":"虹口区东体育会路306号(近大连西路)"},{"poiid":"B2094757D065A6F54393","title":"金涮盘","lon":"121.486897103","lat":"31.2753595254","category":"86","category_name":"火锅店","address":"上海市虹口区凯德龙之梦购物中心5F"},{"poiid":"B2094654D56CA0F9489A","title":"欧阳名邸","lon":"121.48741","lat":"31.274374","category":"47","category_name":"住宅区","address":"上海市虹口区欧阳路571号(近大连西路)"},{"poiid":"B2094654D56CA0F9449A","title":"山水苑","lon":"121.48629","lat":"31.275454","category":"47","category_name":"住宅区","address":"山水苑位于虹口虹口欧阳路681弄"},{"poiid":"B2094757D06AA6FA4793","title":"朱屺瞻艺术馆","lon":"121.48645","lat":"31.27411","category":"179","category_name":"音乐厅","address":"虹口区欧阳路580号"},{"poiid":"B2094757D06AA2FF439A","title":"上外逸夫会堂","lon":"121.482903","lat":"31.275323","category":"500","category_name":"未知分类","address":"上海外国语大学"},{"poiid":"B2094757D064A3FF4198","title":"玉田町","lon":"121.48629","lat":"31.27993","category":"95","category_name":"日本料理","address":"虹口区东体育会路434号(东体育会路玉田路)"},{"poiid":"B2094757D06BA4FC4593","title":"象山海鲜","lon":"121.488563533","lat":"31.2736898305","category":"500","category_name":"未知分类","address":"虹口区山阴路175号(近四川北路)"},{"poiid":"B2094757D065A7FA429C","title":"曲阳西南小区","lon":"121.488105103","lat":"31.2766605526","category":"500","category_name":"未知分类","address":"上海市虹口区大连西路250弄"},{"poiid":"B2094655D26FA4FE4893","title":"嘉兰大厦","lon":"121.488","lat":"31.2741","category":"46","category_name":"楼宇","address":"四川北路2261、2263号"},{"poiid":"B2094654D56CA1FE409E","title":"上海市工商行政管理局虹口分局","lon":"121.48586","lat":"31.2765","category":"250","category_name":"公园户外","address":"大连西路296号华敏大厦"},{"poiid":"B2094655D26FA0F54992","title":"华敏大厦(南一门)","lon":"121.48591","lat":"31.27637","category":"46","category_name":"楼宇","address":"大连西路296"},{"poiid":"B209475CD16FA5F4459D","title":"虹口区凯德龙之梦","lon":"121.487045","lat":"31.276876","category":"500","category_name":"未知分类","address":"上海市 虹口区西江湾路"},{"poiid":"B2094757D16BA5F54999","title":"新奇骨头王","lon":"121.485843103","lat":"31.2755945304","category":"247","category_name":"餐饮美食","address":"上海市虹口区广灵二路"},{"poiid":"B2094654D56CA0F9459B","title":"欧九小区","lon":"121.48709","lat":"31.274914","category":"47","category_name":"住宅区","address":"欧阳路587弄1号-13号"},{"poiid":"B2094757D06BA0FF4593","title":"安利精致生活馆(大连西路店)","lon":"121.48758","lat":"31.27631","category":"122","category_name":"个人用品/化妆品店","address":"虹口区大连西路259号(近曲阳路站)"},{"poiid":"B2094757D06BA0F8439A","title":"木屋北大荒人","lon":"121.486101487","lat":"31.2794370396","category":"82","category_name":"东北菜","address":"虹口区东体育会路427号(近玉田路)"},{"poiid":"B2094757D16FA4F8429C","title":"罗森便利(欧阳店)","lon":"121.4860382","lat":"31.275583267","category":"117","category_name":"便民商店/便利店","address":"上海虹口区欧阳路695号"},{"poiid":"B2094757D16FA0F84593","title":"100路欧阳路大连西路站","lon":"121.486245","lat":"31.274832","category":"38","category_name":"公交车站","address":"上海欧阳路大连西路"},{"poiid":"B2094751D36DA0F9499D","title":"欧阳店","lon":"121.48698","lat":"31.27387","category":"87","category_name":"特色／地方风味餐厅","address":"虹口区欧阳路561号(近大连西路)"},{"poiid":"B2094654D56CA0F9439F","title":"上海市公安局水上公安分局交通警察大队入口","lon":"121.48589","lat":"31.27581","category":"250","category_name":"公园户外","address":""},{"poiid":"B2094757D064A3F8459D","title":"上海阿姨香酥鸡摊","lon":"121.48638","lat":"31.27917","category":"68","category_name":"快餐厅","address":"虹口区东体育会路413弄新北郊中学斜对面(旭昌日杂店门口)"},{"poiid":"B2094655D265ABFF4599","title":"同茂兴苏氏面菜馆上外店","lon":"121.48406","lat":"31.27582","category":"68","category_name":"快餐厅","address":"虹口区东体育会路318号(大连西路欧阳路)"},{"poiid":"B2094655D26CA1F9469E","title":"文宇公寓","lon":"121.48791","lat":"31.276251","category":"47","category_name":"住宅区","address":"大连西路257弄1-5号"},{"poiid":"B2094751DB6CA4F4439F","title":"矮胖子良心油条(四川北路店)","lon":"121.48538","lat":"31.27689","category":"68","category_name":"快餐厅","address":"虹口区四川北路(川公路口)"},{"poiid":"B2094750D76EA4F54592","title":"味多美(大连西路店)","lon":"121.489","lat":"31.2764","category":"112","category_name":"糕饼店","address":"虹口区大连西路247号(近曲阳路)"},{"poiid":"B2094654D56CA6FE469C","title":"樱苑别墅","lon":"121.487","lat":"31.275","category":"47","category_name":"住宅区","address":"四川北路2365号"},{"poiid":"B2094655D26BABFA4398","title":"逸夫图书馆","lon":"121.48302","lat":"31.2774","category":"181","category_name":"图书馆","address":""},{"poiid":"B2094757D16BA4FC4392","title":"冰火工坊麻辣烫","lon":"121.487979103","lat":"31.2755915303","category":"247","category_name":"餐饮美食","address":"上海市虹口区曲阳路"},{"poiid":"B2094757D06BA3FB4899","title":"唐之印象","lon":"121.48689","lat":"31.27375","category":"500","category_name":"未知分类","address":"虹口区欧阳路561号(近大连西路)"}]