[{"poiid":"B2094750D664A4FA419A","title":"耳光馄饨","lon":"121.481","lat":"31.216","category":"68","category_name":"快餐厅","address":"黄浦区肇周路209-213号(近合肥路)"},{"poiid":"B2094757D06FA3F5499C","title":"红房子妇产科医院产科楼","lon":"121.48381805","lat":"31.212343215","category":"162","category_name":"医院","address":"上海市黄浦区大林路358号"},{"poiid":"B2094757D06FA0F84699","title":"红房子妇产科医院","lon":"121.48329615","lat":"31.214054702","category":"162","category_name":"医院","address":"上海黄浦区方斜路419号"},{"poiid":"B2094753D76FAAFA449C","title":"上海滩国泰旗舰店","lon":"121.466011","lat":"31.216125","category":"249","category_name":"购物服务","address":"淮海中路868号"},{"poiid":"B209475CD564A7F84292","title":"上海滩新天地店","lon":"121.47463","lat":"31.22164","category":"119","category_name":"商场","address":"\"太仓路181弄新天地北里15号\r\n\""},{"poiid":"B209475CD564A7F8439E","title":"上海滩中信泰富店","lon":"121.45602","lat":"31.22851","category":"119","category_name":"商场","address":"\"南京西路1168号中信泰富广场，店铺号221.\r\n\""},{"poiid":"B209475CD564A7F84392","title":"上海滩浦东香格里拉店","lon":"121.50058","lat":"31.23634","category":"119","category_name":"商场","address":"浦东富成路33号香格里拉酒店内大堂层"},{"poiid":"B2094757D068A2FB4692","title":"辣肉丝面馆","lon":"121.482194054","lat":"31.216874793","category":"68","category_name":"快餐厅","address":"黄浦区肇周路106号(近吉安路)"},{"poiid":"B2094757D66FA7FA4499","title":"阿婆粢饭糕","lon":"121.482015738","lat":"31.2140172676","category":"247","category_name":"餐饮美食","address":"上海市卢湾区肇周路近合肥路"},{"poiid":"B2094757D06FA3FF479D","title":"长脚汤面","lon":"121.480717","lat":"31.216623","category":"68","category_name":"快餐厅","address":"卢湾区肇周路166弄弄堂里(近济南路)"},{"poiid":"B2094654DB65A3F84599","title":"上海市红房子妇产科医院门诊部","lon":"121.48278","lat":"31.21204","category":"162","category_name":"医院","address":"方斜路566号"},{"poiid":"B2094654DA6EA7F84999","title":"易买得(老西门店)","lon":"121.48337","lat":"31.21698","category":"118","category_name":"超级市场","address":"黄浦区西藏南路666号(西藏南路肇周路)"},{"poiid":"B2094757D16CA7F84792","title":"肇周路","lon":"121.480401738","lat":"31.2139469532","category":"500","category_name":"未知分类","address":"上海市卢湾区"},{"poiid":"B2094757D06FA1FF4392","title":"麟笼坊特色小笼包(建国东路店)","lon":"121.48073","lat":"31.21366","category":"68","category_name":"快餐厅","address":"卢湾区建国东路10号(近肇周路口)"},{"poiid":"B2094752D76AA2F5459F","title":"韵色","lon":"121.483653","lat":"31.212159","category":"247","category_name":"餐饮美食","address":"方斜路446号"},{"poiid":"B2094750D365A5FE4698","title":"阿婆豆浆油条","lon":"121.482063","lat":"31.214328","category":"247","category_name":"餐饮美食","address":"卢湾区肇周路309号(建国新路口)"},{"poiid":"B2094757D16CA5FC459F","title":"肇州路馄饨","lon":"121.48104573","lat":"31.215022976","category":"500","category_name":"未知分类","address":"上海肇州路合肥路"},{"poiid":"B2094757D06AA2FB459F","title":"十号线老西门站","lon":"121.481291738","lat":"31.2153389828","category":"500","category_name":"未知分类","address":"上海老西门"},{"poiid":"B2094655D26AA7FA449C","title":"黄浦轮滑馆羽毛球馆","lon":"121.48444","lat":"31.21289","category":"247","category_name":"餐饮美食","address":"黄浦区大林路235号黄浦轮滑馆4楼(近西藏南路)"},{"poiid":"B2094757D068A1FA479D","title":"跃民大酒店 西藏南路店","lon":"121.48464","lat":"31.21509","category":"76","category_name":"上海菜","address":"黄浦区西藏南路770号(近陆家浜路)"},{"poiid":"B2094757D06FAAF4419B","title":"沪南体育活动中心","lon":"121.48268","lat":"31.21256","category":"220","category_name":"运动场所","address":"黄浦区方斜路515号(近大吉路)"},{"poiid":"B2094753D76AA7F8459F","title":"韵色","lon":"121.482657","lat":"31.213799","category":"76","category_name":"上海菜","address":"上海市黄浦区方斜路446号(近建国新路)"},{"poiid":"B2094757D069A3F8429B","title":"老西门新苑","lon":"121.483051","lat":"31.216619","category":"47","category_name":"住宅区","address":"上海市黄浦区西藏南路688弄会所内"},{"poiid":"B2094757D069A1F54192","title":"安基大厦","lon":"121.48481881","lat":"31.214868763","category":"46","category_name":"楼宇","address":"朝阳区天辰东路7号"},{"poiid":"B2094654DB64A5FD409B","title":"斯巴顿健身会所(老西门店)","lon":"121.48316","lat":"31.21657","category":"221","category_name":"健身中心","address":"黄浦区西藏南路688弄15号(近复兴中路)"},{"poiid":"B2094654DB64A5F5439E","title":"如家快捷酒店(上海陆家浜路店)","lon":"121.48309","lat":"31.21245","category":"216","category_name":"经济型连锁酒店","address":"上海市黄浦区大林路265号(近方斜路红房子医院)"},{"poiid":"B2094654DA6EA7F5489C","title":"复旦大学上海市红房子妇产科医院","lon":"121.48274","lat":"31.21366","category":"162","category_name":"医院","address":"方斜路419"},{"poiid":"B2094655D36CA0F9489F","title":"建国新路方斜路","lon":"121.4831","lat":"31.21472","category":"38","category_name":"公交车站","address":""},{"poiid":"B2094654DA6EA0F94492","title":"永惠商务楼","lon":"121.48498","lat":"31.21592","category":"46","category_name":"楼宇","address":"上海市长宁区仙霞路369号"},{"poiid":"B2094750D768A0F5439D","title":"老刘烧烤","lon":"121.482","lat":"31.2135","category":"68","category_name":"快餐厅","address":"黄浦区大吉路华联超市门口(方斜路口)"},{"poiid":"B2094757D069A1FB499D","title":"万有全海鲜大酒店","lon":"121.482403054","lat":"31.212869793","category":"76","category_name":"上海菜","address":"黄浦区方斜路515号(近大吉路)"},{"poiid":"B2094654DA6EA7F44398","title":"上海市红房子妇产科医院","lon":"121.48354","lat":"31.21214","category":"162","category_name":"医院","address":"大林路358"},{"poiid":"B2094654DA6EA7F8499C","title":"惠达大厦","lon":"121.4840164","lat":"31.21635627","category":"46","category_name":"楼宇","address":"惠达大厦位于卢湾西藏南路748号"},{"poiid":"B2094655D264A6FB489A","title":"宽道","lon":"121.48329","lat":"31.21405","category":"247","category_name":"餐饮美食","address":"黄浦区方斜路419号(方斜路复兴东路)"},{"poiid":"B2094655D26EA0F5459F","title":"大吉小区","lon":"121.48407","lat":"31.21443","category":"47","category_name":"住宅区","address":"大吉路173弄13-30号"},{"poiid":"B2094757DB6DA4FD4392","title":"上海青瓷主题酒店","lon":"121.481594145","lat":"31.216474009","category":"216","category_name":"经济型连锁酒店","address":"黄浦区肇周路153号(近唐家湾路)"},{"poiid":"B2094757D06AA4FB4998","title":"健维医疗","lon":"121.484773878","lat":"31.2146867747","category":"162","category_name":"医院","address":"黄浦区西藏南路770号安基大厦群房5楼(近建国新路)"},{"poiid":"B2094654DA6EA7F5489D","title":"上海市红十字妇产科医院","lon":"121.48329","lat":"31.21405","category":"162","category_name":"医院","address":"方斜路419号"},{"poiid":"B2094655D26AA3FF429A","title":"沪南体育馆篮球场","lon":"121.48317","lat":"31.21317","category":"247","category_name":"餐饮美食","address":"黄浦区方斜路505号沪南体育馆内(大吉路方斜路)"},{"poiid":"B2094655D36CA1F44299","title":"老西门肇周路","lon":"121.48394","lat":"31.2149","category":"38","category_name":"公交车站","address":""},{"poiid":"B2094654DA6EA7F94093","title":"老西门新苑(3号门)","lon":"121.48365","lat":"31.21578","category":"47","category_name":"住宅区","address":"老西门"},{"poiid":"B2094752D36BA7F5409B","title":"上海老面馆","lon":"121.48399","lat":"31.21451","category":"68","category_name":"快餐厅","address":"卢湾区合肥路93号"},{"poiid":"B2094757D16CAAF84299","title":"福禄贝尔婚纱影楼","lon":"121.485253568","lat":"31.2155173066","category":"500","category_name":"未知分类","address":"上海西藏南路771号"},{"poiid":"B2094757D16FAAFC4392","title":"人生奥斯卡","lon":"121.48525","lat":"31.21565","category":"178","category_name":"电影院","address":"卢湾区徐家汇路518号福苑楼806F室(近南京银行)"},{"poiid":"B2094654DA6EA7F5499D","title":"安基大厦实华公寓","lon":"121.48434","lat":"31.214525","category":"47","category_name":"住宅区","address":"建国新路1号"},{"poiid":"B2094757D66DAAFF499F","title":"冷馄饨","lon":"121.48063773","lat":"31.215786992","category":"247","category_name":"餐饮美食","address":"上海肇周路"},{"poiid":"B2094654DA6EA7F4439F","title":"苏州藏书羊肉馆(方斜路)","lon":"121.48436","lat":"31.21596","category":"87","category_name":"特色／地方风味餐厅","address":"黄浦区方斜路16号(近复兴中路)"},{"poiid":"B2094750D76EA3F54698","title":"阿鑫面馆","lon":"121.481","lat":"31.2154","category":"68","category_name":"快餐厅","address":"黄浦区肇周路231-237号(近建国中路)"},{"poiid":"B2094654DA6EA7F5499F","title":"大吉小区(后门)","lon":"121.48401","lat":"31.21473","category":"47","category_name":"住宅区","address":"大吉路173弄13-30号"},{"poiid":"B2094750DA6EA1F5469D","title":"哈尼甜品","lon":"121.482162","lat":"31.213146","category":"67","category_name":"甜品店","address":"黄浦区大吉路283号(近方斜路)"},{"poiid":"B2094750D664A4FA419A","title":"耳光馄饨","lon":"121.481","lat":"31.216","category":"68","category_name":"快餐厅","address":"黄浦区肇周路209-213号(近合肥路)"},{"poiid":"B2094757D06FA3F5499C","title":"红房子妇产科医院产科楼","lon":"121.48381805","lat":"31.212343215","category":"162","category_name":"医院","address":"上海市黄浦区大林路358号"},{"poiid":"B2094757D06FA0F84699","title":"红房子妇产科医院","lon":"121.48329615","lat":"31.214054702","category":"162","category_name":"医院","address":"上海黄浦区方斜路419号"},{"poiid":"B2094753D76FAAFA449C","title":"上海滩国泰旗舰店","lon":"121.466011","lat":"31.216125","category":"249","category_name":"购物服务","address":"淮海中路868号"},{"poiid":"B209475CD564A7F84292","title":"上海滩新天地店","lon":"121.47463","lat":"31.22164","category":"119","category_name":"商场","address":"\"太仓路181弄新天地北里15号\r\n\""},{"poiid":"B209475CD564A7F8439E","title":"上海滩中信泰富店","lon":"121.45602","lat":"31.22851","category":"119","category_name":"商场","address":"\"南京西路1168号中信泰富广场，店铺号221.\r\n\""},{"poiid":"B209475CD564A7F84392","title":"上海滩浦东香格里拉店","lon":"121.50058","lat":"31.23634","category":"119","category_name":"商场","address":"浦东富成路33号香格里拉酒店内大堂层"},{"poiid":"B2094757D068A2FB4692","title":"辣肉丝面馆","lon":"121.482194054","lat":"31.216874793","category":"68","category_name":"快餐厅","address":"黄浦区肇周路106号(近吉安路)"},{"poiid":"B2094757D66FA7FA4499","title":"阿婆粢饭糕","lon":"121.482015738","lat":"31.2140172676","category":"247","category_name":"餐饮美食","address":"上海市卢湾区肇周路近合肥路"},{"poiid":"B2094757D06FA3FF479D","title":"长脚汤面","lon":"121.480717","lat":"31.216623","category":"68","category_name":"快餐厅","address":"卢湾区肇周路166弄弄堂里(近济南路)"},{"poiid":"B2094654DB65A3F84599","title":"上海市红房子妇产科医院门诊部","lon":"121.48278","lat":"31.21204","category":"162","category_name":"医院","address":"方斜路566号"},{"poiid":"B2094654DA6EA7F84999","title":"易买得(老西门店)","lon":"121.48337","lat":"31.21698","category":"118","category_name":"超级市场","address":"黄浦区西藏南路666号(西藏南路肇周路)"},{"poiid":"B2094757D16CA7F84792","title":"肇周路","lon":"121.480401738","lat":"31.2139469532","category":"500","category_name":"未知分类","address":"上海市卢湾区"},{"poiid":"B2094757D06FA1FF4392","title":"麟笼坊特色小笼包(建国东路店)","lon":"121.48073","lat":"31.21366","category":"68","category_name":"快餐厅","address":"卢湾区建国东路10号(近肇周路口)"},{"poiid":"B2094752D76AA2F5459F","title":"韵色","lon":"121.483653","lat":"31.212159","category":"247","category_name":"餐饮美食","address":"方斜路446号"},{"poiid":"B2094750D365A5FE4698","title":"阿婆豆浆油条","lon":"121.482063","lat":"31.214328","category":"247","category_name":"餐饮美食","address":"卢湾区肇周路309号(建国新路口)"},{"poiid":"B2094757D16CA5FC459F","title":"肇州路馄饨","lon":"121.48104573","lat":"31.215022976","category":"500","category_name":"未知分类","address":"上海肇州路合肥路"},{"poiid":"B2094757D06AA2FB459F","title":"十号线老西门站","lon":"121.481291738","lat":"31.2153389828","category":"500","category_name":"未知分类","address":"上海老西门"},{"poiid":"B2094655D26AA7FA449C","title":"黄浦轮滑馆羽毛球馆","lon":"121.48444","lat":"31.21289","category":"247","category_name":"餐饮美食","address":"黄浦区大林路235号黄浦轮滑馆4楼(近西藏南路)"},{"poiid":"B2094757D068A1FA479D","title":"跃民大酒店 西藏南路店","lon":"121.48464","lat":"31.21509","category":"76","category_name":"上海菜","address":"黄浦区西藏南路770号(近陆家浜路)"},{"poiid":"B2094757D06FAAF4419B","title":"沪南体育活动中心","lon":"121.48268","lat":"31.21256","category":"220","category_name":"运动场所","address":"黄浦区方斜路515号(近大吉路)"},{"poiid":"B2094753D76AA7F8459F","title":"韵色","lon":"121.482657","lat":"31.213799","category":"76","category_name":"上海菜","address":"上海市黄浦区方斜路446号(近建国新路)"},{"poiid":"B2094757D069A3F8429B","title":"老西门新苑","lon":"121.483051","lat":"31.216619","category":"47","category_name":"住宅区","address":"上海市黄浦区西藏南路688弄会所内"},{"poiid":"B2094757D069A1F54192","title":"安基大厦","lon":"121.48481881","lat":"31.214868763","category":"46","category_name":"楼宇","address":"朝阳区天辰东路7号"},{"poiid":"B2094654DB64A5FD409B","title":"斯巴顿健身会所(老西门店)","lon":"121.48316","lat":"31.21657","category":"221","category_name":"健身中心","address":"黄浦区西藏南路688弄15号(近复兴中路)"},{"poiid":"B2094654DB64A5F5439E","title":"如家快捷酒店(上海陆家浜路店)","lon":"121.48309","lat":"31.21245","category":"216","category_name":"经济型连锁酒店","address":"上海市黄浦区大林路265号(近方斜路红房子医院)"},{"poiid":"B2094654DA6EA7F5489C","title":"复旦大学上海市红房子妇产科医院","lon":"121.48274","lat":"31.21366","category":"162","category_name":"医院","address":"方斜路419"},{"poiid":"B2094655D36CA0F9489F","title":"建国新路方斜路","lon":"121.4831","lat":"31.21472","category":"38","category_name":"公交车站","address":""},{"poiid":"B2094654DA6EA0F94492","title":"永惠商务楼","lon":"121.48498","lat":"31.21592","category":"46","category_name":"楼宇","address":"上海市长宁区仙霞路369号"},{"poiid":"B2094750D768A0F5439D","title":"老刘烧烤","lon":"121.482","lat":"31.2135","category":"68","category_name":"快餐厅","address":"黄浦区大吉路华联超市门口(方斜路口)"},{"poiid":"B2094757D069A1FB499D","title":"万有全海鲜大酒店","lon":"121.482403054","lat":"31.212869793","category":"76","category_name":"上海菜","address":"黄浦区方斜路515号(近大吉路)"},{"poiid":"B2094654DA6EA7F44398","title":"上海市红房子妇产科医院","lon":"121.48354","lat":"31.21214","category":"162","category_name":"医院","address":"大林路358"},{"poiid":"B2094654DA6EA7F8499C","title":"惠达大厦","lon":"121.4840164","lat":"31.21635627","category":"46","category_name":"楼宇","address":"惠达大厦位于卢湾西藏南路748号"},{"poiid":"B2094655D264A6FB489A","title":"宽道","lon":"121.48329","lat":"31.21405","category":"247","category_name":"餐饮美食","address":"黄浦区方斜路419号(方斜路复兴东路)"},{"poiid":"B2094655D26EA0F5459F","title":"大吉小区","lon":"121.48407","lat":"31.21443","category":"47","category_name":"住宅区","address":"大吉路173弄13-30号"},{"poiid":"B2094757DB6DA4FD4392","title":"上海青瓷主题酒店","lon":"121.481594145","lat":"31.216474009","category":"216","category_name":"经济型连锁酒店","address":"黄浦区肇周路153号(近唐家湾路)"},{"poiid":"B2094757D06AA4FB4998","title":"健维医疗","lon":"121.484773878","lat":"31.2146867747","category":"162","category_name":"医院","address":"黄浦区西藏南路770号安基大厦群房5楼(近建国新路)"},{"poiid":"B2094654DA6EA7F5489D","title":"上海市红十字妇产科医院","lon":"121.48329","lat":"31.21405","category":"162","category_name":"医院","address":"方斜路419号"},{"poiid":"B2094655D26AA3FF429A","title":"沪南体育馆篮球场","lon":"121.48317","lat":"31.21317","category":"247","category_name":"餐饮美食","address":"黄浦区方斜路505号沪南体育馆内(大吉路方斜路)"},{"poiid":"B2094655D36CA1F44299","title":"老西门肇周路","lon":"121.48394","lat":"31.2149","category":"38","category_name":"公交车站","address":""},{"poiid":"B2094654DA6EA7F94093","title":"老西门新苑(3号门)","lon":"121.48365","lat":"31.21578","category":"47","category_name":"住宅区","address":"老西门"},{"poiid":"B2094752D36BA7F5409B","title":"上海老面馆","lon":"121.48399","lat":"31.21451","category":"68","category_name":"快餐厅","address":"卢湾区合肥路93号"},{"poiid":"B2094757D16CAAF84299","title":"福禄贝尔婚纱影楼","lon":"121.485253568","lat":"31.2155173066","category":"500","category_name":"未知分类","address":"上海西藏南路771号"},{"poiid":"B2094757D16FAAFC4392","title":"人生奥斯卡","lon":"121.48525","lat":"31.21565","category":"178","category_name":"电影院","address":"卢湾区徐家汇路518号福苑楼806F室(近南京银行)"},{"poiid":"B2094654DA6EA7F5499D","title":"安基大厦实华公寓","lon":"121.48434","lat":"31.214525","category":"47","category_name":"住宅区","address":"建国新路1号"},{"poiid":"B2094757D66DAAFF499F","title":"冷馄饨","lon":"121.48063773","lat":"31.215786992","category":"247","category_name":"餐饮美食","address":"上海肇周路"},{"poiid":"B2094654DA6EA7F4439F","title":"苏州藏书羊肉馆(方斜路)","lon":"121.48436","lat":"31.21596","category":"87","category_name":"特色／地方风味餐厅","address":"黄浦区方斜路16号(近复兴中路)"},{"poiid":"B2094750D76EA3F54698","title":"阿鑫面馆","lon":"121.481","lat":"31.2154","category":"68","category_name":"快餐厅","address":"黄浦区肇周路231-237号(近建国中路)"},{"poiid":"B2094654DA6EA7F5499F","title":"大吉小区(后门)","lon":"121.48401","lat":"31.21473","category":"47","category_name":"住宅区","address":"大吉路173弄13-30号"},{"poiid":"B2094750DA6EA1F5469D","title":"哈尼甜品","lon":"121.482162","lat":"31.213146","category":"67","category_name":"甜品店","address":"黄浦区大吉路283号(近方斜路)"},{"poiid":"B2094750D664A4FA419A","title":"耳光馄饨","lon":"121.481","lat":"31.216","category":"68","category_name":"快餐厅","address":"黄浦区肇周路209-213号(近合肥路)"},{"poiid":"B2094757D06FA3F5499C","title":"红房子妇产科医院产科楼","lon":"121.48381805","lat":"31.212343215","category":"162","category_name":"医院","address":"上海市黄浦区大林路358号"},{"poiid":"B2094757D06FA0F84699","title":"红房子妇产科医院","lon":"121.48329615","lat":"31.214054702","category":"162","category_name":"医院","address":"上海黄浦区方斜路419号"},{"poiid":"B2094753D76FAAFA449C","title":"上海滩国泰旗舰店","lon":"121.466011","lat":"31.216125","category":"249","category_name":"购物服务","address":"淮海中路868号"},{"poiid":"B209475CD564A7F84292","title":"上海滩新天地店","lon":"121.47463","lat":"31.22164","category":"119","category_name":"商场","address":"\"太仓路181弄新天地北里15号\r\n\""},{"poiid":"B209475CD564A7F8439E","title":"上海滩中信泰富店","lon":"121.45602","lat":"31.22851","category":"119","category_name":"商场","address":"\"南京西路1168号中信泰富广场，店铺号221.\r\n\""},{"poiid":"B209475CD564A7F84392","title":"上海滩浦东香格里拉店","lon":"121.50058","lat":"31.23634","category":"119","category_name":"商场","address":"浦东富成路33号香格里拉酒店内大堂层"},{"poiid":"B2094757D068A2FB4692","title":"辣肉丝面馆","lon":"121.482194054","lat":"31.216874793","category":"68","category_name":"快餐厅","address":"黄浦区肇周路106号(近吉安路)"},{"poiid":"B2094757D66FA7FA4499","title":"阿婆粢饭糕","lon":"121.482015738","lat":"31.2140172676","category":"247","category_name":"餐饮美食","address":"上海市卢湾区肇周路近合肥路"},{"poiid":"B2094757D06FA3FF479D","title":"长脚汤面","lon":"121.480717","lat":"31.216623","category":"68","category_name":"快餐厅","address":"卢湾区肇周路166弄弄堂里(近济南路)"},{"poiid":"B2094654DB65A3F84599","title":"上海市红房子妇产科医院门诊部","lon":"121.48278","lat":"31.21204","category":"162","category_name":"医院","address":"方斜路566号"},{"poiid":"B2094654DA6EA7F84999","title":"易买得(老西门店)","lon":"121.48337","lat":"31.21698","category":"118","category_name":"超级市场","address":"黄浦区西藏南路666号(西藏南路肇周路)"},{"poiid":"B2094757D16CA7F84792","title":"肇周路","lon":"121.480401738","lat":"31.2139469532","category":"500","category_name":"未知分类","address":"上海市卢湾区"},{"poiid":"B2094757D06FA1FF4392","title":"麟笼坊特色小笼包(建国东路店)","lon":"121.48073","lat":"31.21366","category":"68","category_name":"快餐厅","address":"卢湾区建国东路10号(近肇周路口)"},{"poiid":"B2094752D76AA2F5459F","title":"韵色","lon":"121.483653","lat":"31.212159","category":"247","category_name":"餐饮美食","address":"方斜路446号"},{"poiid":"B2094750D365A5FE4698","title":"阿婆豆浆油条","lon":"121.482063","lat":"31.214328","category":"247","category_name":"餐饮美食","address":"卢湾区肇周路309号(建国新路口)"},{"poiid":"B2094757D16CA5FC459F","title":"肇州路馄饨","lon":"121.48104573","lat":"31.215022976","category":"500","category_name":"未知分类","address":"上海肇州路合肥路"},{"poiid":"B2094757D06AA2FB459F","title":"十号线老西门站","lon":"121.481291738","lat":"31.2153389828","category":"500","category_name":"未知分类","address":"上海老西门"},{"poiid":"B2094655D26AA7FA449C","title":"黄浦轮滑馆羽毛球馆","lon":"121.48444","lat":"31.21289","category":"247","category_name":"餐饮美食","address":"黄浦区大林路235号黄浦轮滑馆4楼(近西藏南路)"},{"poiid":"B2094757D068A1FA479D","title":"跃民大酒店 西藏南路店","lon":"121.48464","lat":"31.21509","category":"76","category_name":"上海菜","address":"黄浦区西藏南路770号(近陆家浜路)"},{"poiid":"B2094757D06FAAF4419B","title":"沪南体育活动中心","lon":"121.48268","lat":"31.21256","category":"220","category_name":"运动场所","address":"黄浦区方斜路515号(近大吉路)"},{"poiid":"B2094753D76AA7F8459F","title":"韵色","lon":"121.482657","lat":"31.213799","category":"76","category_name":"上海菜","address":"上海市黄浦区方斜路446号(近建国新路)"},{"poiid":"B2094757D069A3F8429B","title":"老西门新苑","lon":"121.483051","lat":"31.216619","category":"47","category_name":"住宅区","address":"上海市黄浦区西藏南路688弄会所内"},{"poiid":"B2094757D069A1F54192","title":"安基大厦","lon":"121.48481881","lat":"31.214868763","category":"46","category_name":"楼宇","address":"朝阳区天辰东路7号"},{"poiid":"B2094654DB64A5FD409B","title":"斯巴顿健身会所(老西门店)","lon":"121.48316","lat":"31.21657","category":"221","category_name":"健身中心","address":"黄浦区西藏南路688弄15号(近复兴中路)"},{"poiid":"B2094654DB64A5F5439E","title":"如家快捷酒店(上海陆家浜路店)","lon":"121.48309","lat":"31.21245","category":"216","category_name":"经济型连锁酒店","address":"上海市黄浦区大林路265号(近方斜路红房子医院)"},{"poiid":"B2094654DA6EA7F5489C","title":"复旦大学上海市红房子妇产科医院","lon":"121.48274","lat":"31.21366","category":"162","category_name":"医院","address":"方斜路419"},{"poiid":"B2094655D36CA0F9489F","title":"建国新路方斜路","lon":"121.4831","lat":"31.21472","category":"38","category_name":"公交车站","address":""},{"poiid":"B2094654DA6EA0F94492","title":"永惠商务楼","lon":"121.48498","lat":"31.21592","category":"46","category_name":"楼宇","address":"上海市长宁区仙霞路369号"},{"poiid":"B2094750D768A0F5439D","title":"老刘烧烤","lon":"121.482","lat":"31.2135","category":"68","category_name":"快餐厅","address":"黄浦区大吉路华联超市门口(方斜路口)"},{"poiid":"B2094757D069A1FB499D","title":"万有全海鲜大酒店","lon":"121.482403054","lat":"31.212869793","category":"76","category_name":"上海菜","address":"黄浦区方斜路515号(近大吉路)"},{"poiid":"B2094654DA6EA7F44398","title":"上海市红房子妇产科医院","lon":"121.48354","lat":"31.21214","category":"162","category_name":"医院","address":"大林路358"},{"poiid":"B2094654DA6EA7F8499C","title":"惠达大厦","lon":"121.4840164","lat":"31.21635627","category":"46","category_name":"楼宇","address":"惠达大厦位于卢湾西藏南路748号"},{"poiid":"B2094655D264A6FB489A","title":"宽道","lon":"121.48329","lat":"31.21405","category":"247","category_name":"餐饮美食","address":"黄浦区方斜路419号(方斜路复兴东路)"},{"poiid":"B2094655D26EA0F5459F","title":"大吉小区","lon":"121.48407","lat":"31.21443","category":"47","category_name":"住宅区","address":"大吉路173弄13-30号"},{"poiid":"B2094757DB6DA4FD4392","title":"上海青瓷主题酒店","lon":"121.481594145","lat":"31.216474009","category":"216","category_name":"经济型连锁酒店","address":"黄浦区肇周路153号(近唐家湾路)"},{"poiid":"B2094757D06AA4FB4998","title":"健维医疗","lon":"121.484773878","lat":"31.2146867747","category":"162","category_name":"医院","address":"黄浦区西藏南路770号安基大厦群房5楼(近建国新路)"},{"poiid":"B2094654DA6EA7F5489D","title":"上海市红十字妇产科医院","lon":"121.48329","lat":"31.21405","category":"162","category_name":"医院","address":"方斜路419号"},{"poiid":"B2094655D26AA3FF429A","title":"沪南体育馆篮球场","lon":"121.48317","lat":"31.21317","category":"247","category_name":"餐饮美食","address":"黄浦区方斜路505号沪南体育馆内(大吉路方斜路)"},{"poiid":"B2094655D36CA1F44299","title":"老西门肇周路","lon":"121.48394","lat":"31.2149","category":"38","category_name":"公交车站","address":""},{"poiid":"B2094654DA6EA7F94093","title":"老西门新苑(3号门)","lon":"121.48365","lat":"31.21578","category":"47","category_name":"住宅区","address":"老西门"},{"poiid":"B2094752D36BA7F5409B","title":"上海老面馆","lon":"121.48399","lat":"31.21451","category":"68","category_name":"快餐厅","address":"卢湾区合肥路93号"},{"poiid":"B2094757D16CAAF84299","title":"福禄贝尔婚纱影楼","lon":"121.485253568","lat":"31.2155173066","category":"500","category_name":"未知分类","address":"上海西藏南路771号"},{"poiid":"B2094757D16FAAFC4392","title":"人生奥斯卡","lon":"121.48525","lat":"31.21565","category":"178","category_name":"电影院","address":"卢湾区徐家汇路518号福苑楼806F室(近南京银行)"},{"poiid":"B2094654DA6EA7F5499D","title":"安基大厦实华公寓","lon":"121.48434","lat":"31.214525","category":"47","category_name":"住宅区","address":"建国新路1号"},{"poiid":"B2094757D66DAAFF499F","title":"冷馄饨","lon":"121.48063773","lat":"31.215786992","category":"247","category_name":"餐饮美食","address":"上海肇周路"},{"poiid":"B2094654DA6EA7F4439F","title":"苏州藏书羊肉馆(方斜路)","lon":"121.48436","lat":"31.21596","category":"87","category_name":"特色／地方风味餐厅","address":"黄浦区方斜路16号(近复兴中路)"},{"poiid":"B2094750D76EA3F54698","title":"阿鑫面馆","lon":"121.481","lat":"31.2154","category":"68","category_name":"快餐厅","address":"黄浦区肇周路231-237号(近建国中路)"},{"poiid":"B2094654DA6EA7F5499F","title":"大吉小区(后门)","lon":"121.48401","lat":"31.21473","category":"47","category_name":"住宅区","address":"大吉路173弄13-30号"},{"poiid":"B2094750DA6EA1F5469D","title":"哈尼甜品","lon":"121.482162","lat":"31.213146","category":"67","category_name":"甜品店","address":"黄浦区大吉路283号(近方斜路)"},{"poiid":"B2094750D664A4FA419A","title":"耳光馄饨","lon":"121.481","lat":"31.216","category":"68","category_name":"快餐厅","address":"黄浦区肇周路209-213号(近合肥路)"},{"poiid":"B2094757D06FA3F5499C","title":"红房子妇产科医院产科楼","lon":"121.48381805","lat":"31.212343215","category":"162","category_name":"医院","address":"上海市黄浦区大林路358号"},{"poiid":"B2094757D06FA0F84699","title":"红房子妇产科医院","lon":"121.48329615","lat":"31.214054702","category":"162","category_name":"医院","address":"上海黄浦区方斜路419号"},{"poiid":"B2094753D76FAAFA449C","title":"上海滩国泰旗舰店","lon":"121.466011","lat":"31.216125","category":"249","category_name":"购物服务","address":"淮海中路868号"},{"poiid":"B209475CD564A7F84292","title":"上海滩新天地店","lon":"121.47463","lat":"31.22164","category":"119","category_name":"商场","address":"\"太仓路181弄新天地北里15号\r\n\""},{"poiid":"B209475CD564A7F8439E","title":"上海滩中信泰富店","lon":"121.45602","lat":"31.22851","category":"119","category_name":"商场","address":"\"南京西路1168号中信泰富广场，店铺号221.\r\n\""},{"poiid":"B209475CD564A7F84392","title":"上海滩浦东香格里拉店","lon":"121.50058","lat":"31.23634","category":"119","category_name":"商场","address":"浦东富成路33号香格里拉酒店内大堂层"},{"poiid":"B2094757D068A2FB4692","title":"辣肉丝面馆","lon":"121.482194054","lat":"31.216874793","category":"68","category_name":"快餐厅","address":"黄浦区肇周路106号(近吉安路)"},{"poiid":"B2094757D66FA7FA4499","title":"阿婆粢饭糕","lon":"121.482015738","lat":"31.2140172676","category":"247","category_name":"餐饮美食","address":"上海市卢湾区肇周路近合肥路"},{"poiid":"B2094757D06FA3FF479D","title":"长脚汤面","lon":"121.480717","lat":"31.216623","category":"68","category_name":"快餐厅","address":"卢湾区肇周路166弄弄堂里(近济南路)"},{"poiid":"B2094654DB65A3F84599","title":"上海市红房子妇产科医院门诊部","lon":"121.48278","lat":"31.21204","category":"162","category_name":"医院","address":"方斜路566号"},{"poiid":"B2094654DA6EA7F84999","title":"易买得(老西门店)","lon":"121.48337","lat":"31.21698","category":"118","category_name":"超级市场","address":"黄浦区西藏南路666号(西藏南路肇周路)"},{"poiid":"B2094757D16CA7F84792","title":"肇周路","lon":"121.480401738","lat":"31.2139469532","category":"500","category_name":"未知分类","address":"上海市卢湾区"},{"poiid":"B2094757D06FA1FF4392","title":"麟笼坊特色小笼包(建国东路店)","lon":"121.48073","lat":"31.21366","category":"68","category_name":"快餐厅","address":"卢湾区建国东路10号(近肇周路口)"},{"poiid":"B2094752D76AA2F5459F","title":"韵色","lon":"121.483653","lat":"31.212159","category":"247","category_name":"餐饮美食","address":"方斜路446号"},{"poiid":"B2094750D365A5FE4698","title":"阿婆豆浆油条","lon":"121.482063","lat":"31.214328","category":"247","category_name":"餐饮美食","address":"卢湾区肇周路309号(建国新路口)"},{"poiid":"B2094757D16CA5FC459F","title":"肇州路馄饨","lon":"121.48104573","lat":"31.215022976","category":"500","category_name":"未知分类","address":"上海肇州路合肥路"},{"poiid":"B2094757D06AA2FB459F","title":"十号线老西门站","lon":"121.481291738","lat":"31.2153389828","category":"500","category_name":"未知分类","address":"上海老西门"},{"poiid":"B2094655D26AA7FA449C","title":"黄浦轮滑馆羽毛球馆","lon":"121.48444","lat":"31.21289","category":"247","category_name":"餐饮美食","address":"黄浦区大林路235号黄浦轮滑馆4楼(近西藏南路)"},{"poiid":"B2094757D068A1FA479D","title":"跃民大酒店 西藏南路店","lon":"121.48464","lat":"31.21509","category":"76","category_name":"上海菜","address":"黄浦区西藏南路770号(近陆家浜路)"},{"poiid":"B2094757D06FAAF4419B","title":"沪南体育活动中心","lon":"121.48268","lat":"31.21256","category":"220","category_name":"运动场所","address":"黄浦区方斜路515号(近大吉路)"},{"poiid":"B2094753D76AA7F8459F","title":"韵色","lon":"121.482657","lat":"31.213799","category":"76","category_name":"上海菜","address":"上海市黄浦区方斜路446号(近建国新路)"},{"poiid":"B2094757D069A3F8429B","title":"老西门新苑","lon":"121.483051","lat":"31.216619","category":"47","category_name":"住宅区","address":"上海市黄浦区西藏南路688弄会所内"},{"poiid":"B2094757D069A1F54192","title":"安基大厦","lon":"121.48481881","lat":"31.214868763","category":"46","category_name":"楼宇","address":"朝阳区天辰东路7号"},{"poiid":"B2094654DB64A5FD409B","title":"斯巴顿健身会所(老西门店)","lon":"121.48316","lat":"31.21657","category":"221","category_name":"健身中心","address":"黄浦区西藏南路688弄15号(近复兴中路)"},{"poiid":"B2094654DB64A5F5439E","title":"如家快捷酒店(上海陆家浜路店)","lon":"121.48309","lat":"31.21245","category":"216","category_name":"经济型连锁酒店","address":"上海市黄浦区大林路265号(近方斜路红房子医院)"},{"poiid":"B2094654DA6EA7F5489C","title":"复旦大学上海市红房子妇产科医院","lon":"121.48274","lat":"31.21366","category":"162","category_name":"医院","address":"方斜路419"},{"poiid":"B2094655D36CA0F9489F","title":"建国新路方斜路","lon":"121.4831","lat":"31.21472","category":"38","category_name":"公交车站","address":""},{"poiid":"B2094654DA6EA0F94492","title":"永惠商务楼","lon":"121.48498","lat":"31.21592","category":"46","category_name":"楼宇","address":"上海市长宁区仙霞路369号"},{"poiid":"B2094750D768A0F5439D","title":"老刘烧烤","lon":"121.482","lat":"31.2135","category":"68","category_name":"快餐厅","address":"黄浦区大吉路华联超市门口(方斜路口)"},{"poiid":"B2094757D069A1FB499D","title":"万有全海鲜大酒店","lon":"121.482403054","lat":"31.212869793","category":"76","category_name":"上海菜","address":"黄浦区方斜路515号(近大吉路)"},{"poiid":"B2094654DA6EA7F44398","title":"上海市红房子妇产科医院","lon":"121.48354","lat":"31.21214","category":"162","category_name":"医院","address":"大林路358"},{"poiid":"B2094654DA6EA7F8499C","title":"惠达大厦","lon":"121.4840164","lat":"31.21635627","category":"46","category_name":"楼宇","address":"惠达大厦位于卢湾西藏南路748号"},{"poiid":"B2094655D264A6FB489A","title":"宽道","lon":"121.48329","lat":"31.21405","category":"247","category_name":"餐饮美食","address":"黄浦区方斜路419号(方斜路复兴东路)"},{"poiid":"B2094655D26EA0F5459F","title":"大吉小区","lon":"121.48407","lat":"31.21443","category":"47","category_name":"住宅区","address":"大吉路173弄13-30号"},{"poiid":"B2094757DB6DA4FD4392","title":"上海青瓷主题酒店","lon":"121.481594145","lat":"31.216474009","category":"216","category_name":"经济型连锁酒店","address":"黄浦区肇周路153号(近唐家湾路)"},{"poiid":"B2094757D06AA4FB4998","title":"健维医疗","lon":"121.484773878","lat":"31.2146867747","category":"162","category_name":"医院","address":"黄浦区西藏南路770号安基大厦群房5楼(近建国新路)"},{"poiid":"B2094654DA6EA7F5489D","title":"上海市红十字妇产科医院","lon":"121.48329","lat":"31.21405","category":"162","category_name":"医院","address":"方斜路419号"},{"poiid":"B2094655D26AA3FF429A","title":"沪南体育馆篮球场","lon":"121.48317","lat":"31.21317","category":"247","category_name":"餐饮美食","address":"黄浦区方斜路505号沪南体育馆内(大吉路方斜路)"},{"poiid":"B2094655D36CA1F44299","title":"老西门肇周路","lon":"121.48394","lat":"31.2149","category":"38","category_name":"公交车站","address":""},{"poiid":"B2094654DA6EA7F94093","title":"老西门新苑(3号门)","lon":"121.48365","lat":"31.21578","category":"47","category_name":"住宅区","address":"老西门"},{"poiid":"B2094752D36BA7F5409B","title":"上海老面馆","lon":"121.48399","lat":"31.21451","category":"68","category_name":"快餐厅","address":"卢湾区合肥路93号"},{"poiid":"B2094757D16CAAF84299","title":"福禄贝尔婚纱影楼","lon":"121.485253568","lat":"31.2155173066","category":"500","category_name":"未知分类","address":"上海西藏南路771号"},{"poiid":"B2094757D16FAAFC4392","title":"人生奥斯卡","lon":"121.48525","lat":"31.21565","category":"178","category_name":"电影院","address":"卢湾区徐家汇路518号福苑楼806F室(近南京银行)"},{"poiid":"B2094654DA6EA7F5499D","title":"安基大厦实华公寓","lon":"121.48434","lat":"31.214525","category":"47","category_name":"住宅区","address":"建国新路1号"},{"poiid":"B2094757D66DAAFF499F","title":"冷馄饨","lon":"121.48063773","lat":"31.215786992","category":"247","category_name":"餐饮美食","address":"上海肇周路"},{"poiid":"B2094654DA6EA7F4439F","title":"苏州藏书羊肉馆(方斜路)","lon":"121.48436","lat":"31.21596","category":"87","category_name":"特色／地方风味餐厅","address":"黄浦区方斜路16号(近复兴中路)"},{"poiid":"B2094750D76EA3F54698","title":"阿鑫面馆","lon":"121.481","lat":"31.2154","category":"68","category_name":"快餐厅","address":"黄浦区肇周路231-237号(近建国中路)"},{"poiid":"B2094654DA6EA7F5499F","title":"大吉小区(后门)","lon":"121.48401","lat":"31.21473","category":"47","category_name":"住宅区","address":"大吉路173弄13-30号"},{"poiid":"B2094750DA6EA1F5469D","title":"哈尼甜品","lon":"121.482162","lat":"31.213146","category":"67","category_name":"甜品店","address":"黄浦区大吉路283号(近方斜路)"}]