[{"poiid":"B2094757D06EAAF84399","title":"广兰路地铁站","lon":"121.61999759","lat":"31.210776628","category":"36","category_name":"地铁站","address":"上海轨道交通二号线广兰路站"},{"poiid":"B2094757D06EAAF94799","title":"妈妈糖休闲咖啡馆 mamatown","lon":"121.62242","lat":"31.21869","category":"94","category_name":"西餐厅","address":"浦东新区青桐路199弄中芯花园23号"},{"poiid":"B2094757D06FA1FC499C","title":"动漫博物馆","lon":"121.611773","lat":"31.212253","category":"182","category_name":"博物馆","address":"浦东新区张江路69号(近丹桂路)"},{"poiid":"B2094757D06FA1F54498","title":"永达国际汽车广场","lon":"121.62713285","lat":"31.222678767","category":"500","category_name":"未知分类","address":"上海龙东大道2777号"},{"poiid":"B2094757D068A2FB4592","title":"台北雅厨","lon":"121.62232","lat":"31.21868","category":"91","category_name":"台湾菜","address":"浦东新区青桐路199弄中芯花园15号(近广兰路)"},{"poiid":"B2094655D36DA6FD439B","title":"广兰路","lon":"121.61996","lat":"31.21077","category":"38","category_name":"公交车站","address":""},{"poiid":"B2094757D06FA0FF409F","title":"阳光花城","lon":"121.62379","lat":"31.207195","category":"500","category_name":"未知分类","address":"上海市浦东新区紫薇路667弄"},{"poiid":"B2094757D068A7F8409D","title":"展讯豪生酒店","lon":"121.62515517","lat":"31.206159597","category":"217","category_name":"旅馆招待所","address":"上海市浦东新区祖冲之路2288弄（近申江路）"},{"poiid":"B2094757D06FA4F4479E","title":"友乐达台北精致面馆(张江店)","lon":"121.62252","lat":"31.21871","category":"68","category_name":"快餐厅","address":"浦东新区青桐路199弄中芯花园17号(近广兰路)"},{"poiid":"B2094757D465A3F9409B","title":"深山老屋 张江路店","lon":"121.61209","lat":"31.21124","category":"260","category_name":"其他","address":"浦东新区张江路91号(近龙东大道)"},{"poiid":"B2094655D36DA1F4479E","title":"香楠小区","lon":"121.61279","lat":"31.216309","category":"47","category_name":"住宅区","address":"上海香楠路199弄"},{"poiid":"B2094654DA6AA5FD409F","title":"中芯花园","lon":"121.6208","lat":"31.218477","category":"47","category_name":"住宅区","address":"浦东新区丹桂路345弄"},{"poiid":"B2094757D06AA3FB479E","title":"感恩堂","lon":"121.62321","lat":"31.21502","category":"500","category_name":"未知分类","address":"浦东新区丹桂路700号(丹桂路青桐路)"},{"poiid":"B2094757D06FA7F4489D","title":"张江行政服务中心","lon":"121.61096954","lat":"31.213911056","category":"46","category_name":"楼宇","address":"上海张江路39号"},{"poiid":"B2094757D06AA4FA4692","title":"展讯中心","lon":"121.634","lat":"31.2169","category":"500","category_name":"未知分类","address":"上海浦东新区张江高科祖冲之路2288弄1号楼"},{"poiid":"B2094757D06BAAFD479C","title":"中共上海市浦东新区区委党校","lon":"121.62418597","lat":"31.219276804","category":"260","category_name":"其他","address":"上海市浦东新区龙东大道"},{"poiid":"B2094655D26BA0FE4293","title":"日月光水岸花园","lon":"121.62192","lat":"31.216284","category":"47","category_name":"住宅区","address":"浦东新区张江青桐路408弄(近丹桂路)"},{"poiid":"B2094757D069A5FE489C","title":"威尔士健身会所(张江店)","lon":"121.62643","lat":"31.20966","category":"221","category_name":"健身中心","address":"浦东新区祖冲之路2288号(近申江路)"},{"poiid":"B2094655D36CA6F5469B","title":"丹桂路青桐路","lon":"121.62229","lat":"31.21546","category":"38","category_name":"公交车站","address":""},{"poiid":"B2094757D069A1FB439B","title":"容源大酒店","lon":"121.620157963","lat":"31.2053299054","category":"72","category_name":"广东菜","address":"浦东新区广兰路1080号(紫薇路口)"},{"poiid":"B2094757D069A5FE4493","title":"青霞酒家(青桐路店)","lon":"121.61733","lat":"31.21833","category":"76","category_name":"上海菜","address":"浦东新区青桐路2号(中芯学校对面)"},{"poiid":"B2094757D069A6FA4398","title":"台北馅饼粥","lon":"121.62218","lat":"31.219033","category":"91","category_name":"台湾菜","address":"浦东新区青桐路199弄中芯花园16号"},{"poiid":"B2094757D16FA3FC439B","title":"世和商务中心","lon":"121.62624997","lat":"31.213459668","category":"500","category_name":"未知分类","address":"上海市浦东新区祖冲之路2277弄"},{"poiid":"B2094654DA6AA5FE4499","title":"东郊华庭","lon":"121.62417","lat":"31.217127","category":"47","category_name":"住宅区","address":"上海市浦东新区青铜路333号"},{"poiid":"B2094757D069A6F84498","title":"佳思多食品料理店(张江店)","lon":"121.6148","lat":"31.2139","category":"91","category_name":"台湾菜","address":"浦东新区香楠路399弄2号会所1楼东区(丹桂路香楠路)"},{"poiid":"B2094757D069ABFC4092","title":"张江中学足球场","lon":"121.6172","lat":"31.20647","category":"253","category_name":"校园生活","address":"浦东新区江东路54号张江体育中心"},{"poiid":"B2094654DA6AA5FE459F","title":"汤臣豪庭(香楠路)","lon":"121.61635","lat":"31.21997","category":"47","category_name":"住宅区","address":"广兰路50弄1-54号"},{"poiid":"B2094757D065A0FD409C","title":"蜀悦渔乡 青桐路店","lon":"121.62227","lat":"31.21903","category":"71","category_name":"四川菜","address":"浦东新区青桐路199弄中芯花园19号(近中芯美食广场)"},{"poiid":"B2094655D36DA7FB449E","title":"祖冲之路申江路","lon":"121.6266","lat":"31.21147","category":"38","category_name":"公交车站","address":""},{"poiid":"B2094757D16DA0FB459F","title":"张记台味","lon":"121.62629389","lat":"31.2164938005","category":"500","category_name":"未知分类","address":"浦东新区张江科技园区青桐路199弄18号"},{"poiid":"B2094757D66CA6F8499C","title":"城市经典 四期。高迪","lon":"121.619221975","lat":"31.2138426774","category":"500","category_name":"未知分类","address":"上海市浦东新区广兰路"},{"poiid":"B2094757D064AAF5499F","title":"瑞慈健康管理中心(张东路店)","lon":"121.6329","lat":"31.21723","category":"162","category_name":"医院","address":"上海浦东新区张东路1388号15幢(近丹桂路)"},{"poiid":"B2094757D06AA5F54799","title":"锦江之星(张江店)","lon":"121.61236","lat":"31.21097","category":"500","category_name":"未知分类","address":"上海市浦东新区张江路91号"},{"poiid":"B2094750D568ABF84299","title":"上海天之骄子","lon":"121.62937","lat":"31.211645","category":"47","category_name":"住宅区","address":"浦东祖冲之路2305号(盛夏路口)"},{"poiid":"B2094655D36CA6F5469A","title":"丹桂路广兰路","lon":"121.61894","lat":"31.21518","category":"38","category_name":"公交车站","address":""},{"poiid":"B2094757D065ABFC4899","title":"张江有轨电车1路广兰路祖冲之路站","lon":"121.618309631","lat":"31.2099641454","category":"36","category_name":"地铁站","address":"上海浦东新区广兰路祖冲之路交会口"},{"poiid":"B2094654DA6AA5F94892","title":"兰沁苑","lon":"121.62245","lat":"31.205448","category":"47","category_name":"住宅区","address":"紫薇路750弄"},{"poiid":"B2094757D064A1FF409D","title":"创意大厦","lon":"121.619","lat":"31.2136","category":"252","category_name":"楼宇机构","address":"上海祖冲之路1559号"},{"poiid":"B2094757D16FA1F8439A","title":"中芯学校","lon":"121.617676375","lat":"31.2201014738","category":"253","category_name":"校园生活","address":"上海青桐路169号"},{"poiid":"B2094757D568A0F9409E","title":"川鸿川菜馆","lon":"121.6175611","lat":"31.21861194","category":"71","category_name":"四川菜","address":"浦东新区广兰路香楠小区青桐路10号(中芯学校对面)"},{"poiid":"B2094757D16BA5FA4899","title":"红廊","lon":"121.62895","lat":"31.21183","category":"268","category_name":"自助","address":"浦东新区祖冲之路2288弄上海展讯豪生酒店1楼(近申江路)"},{"poiid":"B2094655D265A5F4459D","title":"格林豪泰酒店上海张江店","lon":"121.62062","lat":"31.20499","category":"216","category_name":"经济型连锁酒店","address":"浦东新区广兰路1090号"},{"poiid":"B2094757D06BA0FF429B","title":"荣耀书房","lon":"121.62182","lat":"31.21852","category":"125","category_name":"书店","address":"浦东新区青桐路195号(近广兰路)"},{"poiid":"B2094654DB69AAF5439F","title":"交江大楼","lon":"121.619659","lat":"31.211054","category":"46","category_name":"楼宇","address":"上海市浦东新区川北公路3042号"},{"poiid":"B2094654DA6AA5FD4099","title":"零点美发美容设计有限公司No.02","lon":"121.62122","lat":"31.219","category":"148","category_name":"美容美发店","address":"青桐路185"},{"poiid":"B2094654DA6AA5FC469C","title":"快客(广兰路)","lon":"121.6178","lat":"31.21625","category":"117","category_name":"便民商店/便利店","address":""},{"poiid":"B2094757D069A6FF4793","title":"夏宫别墅会所","lon":"121.61552429","lat":"31.210952758","category":"500","category_name":"未知分类","address":"上海香楠路488号"},{"poiid":"B2094654DA6AA5FE479B","title":"小区(青桐路)","lon":"121.61818","lat":"31.21767","category":"47","category_name":"住宅区","address":""},{"poiid":"B2094751D56CA6F94499","title":"钱万隆","lon":"121.61791","lat":"31.21051","category":"76","category_name":"上海菜","address":"浦东新区广兰路778号"},{"poiid":"B2094757D165ABFE419D","title":"张江有轨电车1路丹桂路张东路站","lon":"121.618444675","lat":"31.2134392679","category":"500","category_name":"未知分类","address":"上海丹桂路张东路"},{"poiid":"B2094757D06EAAF84399","title":"广兰路地铁站","lon":"121.61999759","lat":"31.210776628","category":"36","category_name":"地铁站","address":"上海轨道交通二号线广兰路站"},{"poiid":"B2094757D06EAAF94799","title":"妈妈糖休闲咖啡馆 mamatown","lon":"121.62242","lat":"31.21869","category":"94","category_name":"西餐厅","address":"浦东新区青桐路199弄中芯花园23号"},{"poiid":"B2094757D06FA1FC499C","title":"动漫博物馆","lon":"121.611773","lat":"31.212253","category":"182","category_name":"博物馆","address":"浦东新区张江路69号(近丹桂路)"},{"poiid":"B2094757D06FA1F54498","title":"永达国际汽车广场","lon":"121.62713285","lat":"31.222678767","category":"500","category_name":"未知分类","address":"上海龙东大道2777号"},{"poiid":"B2094757D068A2FB4592","title":"台北雅厨","lon":"121.62232","lat":"31.21868","category":"91","category_name":"台湾菜","address":"浦东新区青桐路199弄中芯花园15号(近广兰路)"},{"poiid":"B2094655D36DA6FD439B","title":"广兰路","lon":"121.61996","lat":"31.21077","category":"38","category_name":"公交车站","address":""},{"poiid":"B2094757D06FA0FF409F","title":"阳光花城","lon":"121.62379","lat":"31.207195","category":"500","category_name":"未知分类","address":"上海市浦东新区紫薇路667弄"},{"poiid":"B2094757D068A7F8409D","title":"展讯豪生酒店","lon":"121.62515517","lat":"31.206159597","category":"217","category_name":"旅馆招待所","address":"上海市浦东新区祖冲之路2288弄（近申江路）"},{"poiid":"B2094757D06FA4F4479E","title":"友乐达台北精致面馆(张江店)","lon":"121.62252","lat":"31.21871","category":"68","category_name":"快餐厅","address":"浦东新区青桐路199弄中芯花园17号(近广兰路)"},{"poiid":"B2094757D465A3F9409B","title":"深山老屋 张江路店","lon":"121.61209","lat":"31.21124","category":"260","category_name":"其他","address":"浦东新区张江路91号(近龙东大道)"},{"poiid":"B2094655D36DA1F4479E","title":"香楠小区","lon":"121.61279","lat":"31.216309","category":"47","category_name":"住宅区","address":"上海香楠路199弄"},{"poiid":"B2094654DA6AA5FD409F","title":"中芯花园","lon":"121.6208","lat":"31.218477","category":"47","category_name":"住宅区","address":"浦东新区丹桂路345弄"},{"poiid":"B2094757D06AA3FB479E","title":"感恩堂","lon":"121.62321","lat":"31.21502","category":"500","category_name":"未知分类","address":"浦东新区丹桂路700号(丹桂路青桐路)"},{"poiid":"B2094757D06FA7F4489D","title":"张江行政服务中心","lon":"121.61096954","lat":"31.213911056","category":"46","category_name":"楼宇","address":"上海张江路39号"},{"poiid":"B2094757D06AA4FA4692","title":"展讯中心","lon":"121.634","lat":"31.2169","category":"500","category_name":"未知分类","address":"上海浦东新区张江高科祖冲之路2288弄1号楼"},{"poiid":"B2094757D06BAAFD479C","title":"中共上海市浦东新区区委党校","lon":"121.62418597","lat":"31.219276804","category":"260","category_name":"其他","address":"上海市浦东新区龙东大道"},{"poiid":"B2094655D26BA0FE4293","title":"日月光水岸花园","lon":"121.62192","lat":"31.216284","category":"47","category_name":"住宅区","address":"浦东新区张江青桐路408弄(近丹桂路)"},{"poiid":"B2094757D069A5FE489C","title":"威尔士健身会所(张江店)","lon":"121.62643","lat":"31.20966","category":"221","category_name":"健身中心","address":"浦东新区祖冲之路2288号(近申江路)"},{"poiid":"B2094655D36CA6F5469B","title":"丹桂路青桐路","lon":"121.62229","lat":"31.21546","category":"38","category_name":"公交车站","address":""},{"poiid":"B2094757D069A1FB439B","title":"容源大酒店","lon":"121.620157963","lat":"31.2053299054","category":"72","category_name":"广东菜","address":"浦东新区广兰路1080号(紫薇路口)"},{"poiid":"B2094757D069A5FE4493","title":"青霞酒家(青桐路店)","lon":"121.61733","lat":"31.21833","category":"76","category_name":"上海菜","address":"浦东新区青桐路2号(中芯学校对面)"},{"poiid":"B2094757D069A6FA4398","title":"台北馅饼粥","lon":"121.62218","lat":"31.219033","category":"91","category_name":"台湾菜","address":"浦东新区青桐路199弄中芯花园16号"},{"poiid":"B2094757D16FA3FC439B","title":"世和商务中心","lon":"121.62624997","lat":"31.213459668","category":"500","category_name":"未知分类","address":"上海市浦东新区祖冲之路2277弄"},{"poiid":"B2094654DA6AA5FE4499","title":"东郊华庭","lon":"121.62417","lat":"31.217127","category":"47","category_name":"住宅区","address":"上海市浦东新区青铜路333号"},{"poiid":"B2094757D069A6F84498","title":"佳思多食品料理店(张江店)","lon":"121.6148","lat":"31.2139","category":"91","category_name":"台湾菜","address":"浦东新区香楠路399弄2号会所1楼东区(丹桂路香楠路)"},{"poiid":"B2094757D069ABFC4092","title":"张江中学足球场","lon":"121.6172","lat":"31.20647","category":"253","category_name":"校园生活","address":"浦东新区江东路54号张江体育中心"},{"poiid":"B2094654DA6AA5FE459F","title":"汤臣豪庭(香楠路)","lon":"121.61635","lat":"31.21997","category":"47","category_name":"住宅区","address":"广兰路50弄1-54号"},{"poiid":"B2094757D065A0FD409C","title":"蜀悦渔乡 青桐路店","lon":"121.62227","lat":"31.21903","category":"71","category_name":"四川菜","address":"浦东新区青桐路199弄中芯花园19号(近中芯美食广场)"},{"poiid":"B2094655D36DA7FB449E","title":"祖冲之路申江路","lon":"121.6266","lat":"31.21147","category":"38","category_name":"公交车站","address":""},{"poiid":"B2094757D16DA0FB459F","title":"张记台味","lon":"121.62629389","lat":"31.2164938005","category":"500","category_name":"未知分类","address":"浦东新区张江科技园区青桐路199弄18号"},{"poiid":"B2094757D66CA6F8499C","title":"城市经典 四期。高迪","lon":"121.619221975","lat":"31.2138426774","category":"500","category_name":"未知分类","address":"上海市浦东新区广兰路"},{"poiid":"B2094757D064AAF5499F","title":"瑞慈健康管理中心(张东路店)","lon":"121.6329","lat":"31.21723","category":"162","category_name":"医院","address":"上海浦东新区张东路1388号15幢(近丹桂路)"},{"poiid":"B2094757D06AA5F54799","title":"锦江之星(张江店)","lon":"121.61236","lat":"31.21097","category":"500","category_name":"未知分类","address":"上海市浦东新区张江路91号"},{"poiid":"B2094750D568ABF84299","title":"上海天之骄子","lon":"121.62937","lat":"31.211645","category":"47","category_name":"住宅区","address":"浦东祖冲之路2305号(盛夏路口)"},{"poiid":"B2094655D36CA6F5469A","title":"丹桂路广兰路","lon":"121.61894","lat":"31.21518","category":"38","category_name":"公交车站","address":""},{"poiid":"B2094757D065ABFC4899","title":"张江有轨电车1路广兰路祖冲之路站","lon":"121.618309631","lat":"31.2099641454","category":"36","category_name":"地铁站","address":"上海浦东新区广兰路祖冲之路交会口"},{"poiid":"B2094654DA6AA5F94892","title":"兰沁苑","lon":"121.62245","lat":"31.205448","category":"47","category_name":"住宅区","address":"紫薇路750弄"},{"poiid":"B2094757D064A1FF409D","title":"创意大厦","lon":"121.619","lat":"31.2136","category":"252","category_name":"楼宇机构","address":"上海祖冲之路1559号"},{"poiid":"B2094757D16FA1F8439A","title":"中芯学校","lon":"121.617676375","lat":"31.2201014738","category":"253","category_name":"校园生活","address":"上海青桐路169号"},{"poiid":"B2094757D568A0F9409E","title":"川鸿川菜馆","lon":"121.6175611","lat":"31.21861194","category":"71","category_name":"四川菜","address":"浦东新区广兰路香楠小区青桐路10号(中芯学校对面)"},{"poiid":"B2094757D16BA5FA4899","title":"红廊","lon":"121.62895","lat":"31.21183","category":"268","category_name":"自助","address":"浦东新区祖冲之路2288弄上海展讯豪生酒店1楼(近申江路)"},{"poiid":"B2094655D265A5F4459D","title":"格林豪泰酒店上海张江店","lon":"121.62062","lat":"31.20499","category":"216","category_name":"经济型连锁酒店","address":"浦东新区广兰路1090号"},{"poiid":"B2094757D06BA0FF429B","title":"荣耀书房","lon":"121.62182","lat":"31.21852","category":"125","category_name":"书店","address":"浦东新区青桐路195号(近广兰路)"},{"poiid":"B2094654DB69AAF5439F","title":"交江大楼","lon":"121.619659","lat":"31.211054","category":"46","category_name":"楼宇","address":"上海市浦东新区川北公路3042号"},{"poiid":"B2094654DA6AA5FD4099","title":"零点美发美容设计有限公司No.02","lon":"121.62122","lat":"31.219","category":"148","category_name":"美容美发店","address":"青桐路185"},{"poiid":"B2094654DA6AA5FC469C","title":"快客(广兰路)","lon":"121.6178","lat":"31.21625","category":"117","category_name":"便民商店/便利店","address":""},{"poiid":"B2094757D069A6FF4793","title":"夏宫别墅会所","lon":"121.61552429","lat":"31.210952758","category":"500","category_name":"未知分类","address":"上海香楠路488号"},{"poiid":"B2094654DA6AA5FE479B","title":"小区(青桐路)","lon":"121.61818","lat":"31.21767","category":"47","category_name":"住宅区","address":""},{"poiid":"B2094751D56CA6F94499","title":"钱万隆","lon":"121.61791","lat":"31.21051","category":"76","category_name":"上海菜","address":"浦东新区广兰路778号"},{"poiid":"B2094757D165ABFE419D","title":"张江有轨电车1路丹桂路张东路站","lon":"121.618444675","lat":"31.2134392679","category":"500","category_name":"未知分类","address":"上海丹桂路张东路"},{"poiid":"B2094757D06EAAF84399","title":"广兰路地铁站","lon":"121.61999759","lat":"31.210776628","category":"36","category_name":"地铁站","address":"上海轨道交通二号线广兰路站"},{"poiid":"B2094757D06EAAF94799","title":"妈妈糖休闲咖啡馆 mamatown","lon":"121.62242","lat":"31.21869","category":"94","category_name":"西餐厅","address":"浦东新区青桐路199弄中芯花园23号"},{"poiid":"B2094757D06FA1FC499C","title":"动漫博物馆","lon":"121.611773","lat":"31.212253","category":"182","category_name":"博物馆","address":"浦东新区张江路69号(近丹桂路)"},{"poiid":"B2094757D06FA1F54498","title":"永达国际汽车广场","lon":"121.62713285","lat":"31.222678767","category":"500","category_name":"未知分类","address":"上海龙东大道2777号"},{"poiid":"B2094757D068A2FB4592","title":"台北雅厨","lon":"121.62232","lat":"31.21868","category":"91","category_name":"台湾菜","address":"浦东新区青桐路199弄中芯花园15号(近广兰路)"},{"poiid":"B2094655D36DA6FD439B","title":"广兰路","lon":"121.61996","lat":"31.21077","category":"38","category_name":"公交车站","address":""},{"poiid":"B2094757D06FA0FF409F","title":"阳光花城","lon":"121.62379","lat":"31.207195","category":"500","category_name":"未知分类","address":"上海市浦东新区紫薇路667弄"},{"poiid":"B2094757D068A7F8409D","title":"展讯豪生酒店","lon":"121.62515517","lat":"31.206159597","category":"217","category_name":"旅馆招待所","address":"上海市浦东新区祖冲之路2288弄（近申江路）"},{"poiid":"B2094757D06FA4F4479E","title":"友乐达台北精致面馆(张江店)","lon":"121.62252","lat":"31.21871","category":"68","category_name":"快餐厅","address":"浦东新区青桐路199弄中芯花园17号(近广兰路)"},{"poiid":"B2094757D465A3F9409B","title":"深山老屋 张江路店","lon":"121.61209","lat":"31.21124","category":"260","category_name":"其他","address":"浦东新区张江路91号(近龙东大道)"},{"poiid":"B2094655D36DA1F4479E","title":"香楠小区","lon":"121.61279","lat":"31.216309","category":"47","category_name":"住宅区","address":"上海香楠路199弄"},{"poiid":"B2094654DA6AA5FD409F","title":"中芯花园","lon":"121.6208","lat":"31.218477","category":"47","category_name":"住宅区","address":"浦东新区丹桂路345弄"},{"poiid":"B2094757D06AA3FB479E","title":"感恩堂","lon":"121.62321","lat":"31.21502","category":"500","category_name":"未知分类","address":"浦东新区丹桂路700号(丹桂路青桐路)"},{"poiid":"B2094757D06FA7F4489D","title":"张江行政服务中心","lon":"121.61096954","lat":"31.213911056","category":"46","category_name":"楼宇","address":"上海张江路39号"},{"poiid":"B2094757D06AA4FA4692","title":"展讯中心","lon":"121.634","lat":"31.2169","category":"500","category_name":"未知分类","address":"上海浦东新区张江高科祖冲之路2288弄1号楼"},{"poiid":"B2094757D06BAAFD479C","title":"中共上海市浦东新区区委党校","lon":"121.62418597","lat":"31.219276804","category":"260","category_name":"其他","address":"上海市浦东新区龙东大道"},{"poiid":"B2094655D26BA0FE4293","title":"日月光水岸花园","lon":"121.62192","lat":"31.216284","category":"47","category_name":"住宅区","address":"浦东新区张江青桐路408弄(近丹桂路)"},{"poiid":"B2094757D069A5FE489C","title":"威尔士健身会所(张江店)","lon":"121.62643","lat":"31.20966","category":"221","category_name":"健身中心","address":"浦东新区祖冲之路2288号(近申江路)"},{"poiid":"B2094655D36CA6F5469B","title":"丹桂路青桐路","lon":"121.62229","lat":"31.21546","category":"38","category_name":"公交车站","address":""},{"poiid":"B2094757D069A1FB439B","title":"容源大酒店","lon":"121.620157963","lat":"31.2053299054","category":"72","category_name":"广东菜","address":"浦东新区广兰路1080号(紫薇路口)"},{"poiid":"B2094757D069A5FE4493","title":"青霞酒家(青桐路店)","lon":"121.61733","lat":"31.21833","category":"76","category_name":"上海菜","address":"浦东新区青桐路2号(中芯学校对面)"},{"poiid":"B2094757D069A6FA4398","title":"台北馅饼粥","lon":"121.62218","lat":"31.219033","category":"91","category_name":"台湾菜","address":"浦东新区青桐路199弄中芯花园16号"},{"poiid":"B2094757D16FA3FC439B","title":"世和商务中心","lon":"121.62624997","lat":"31.213459668","category":"500","category_name":"未知分类","address":"上海市浦东新区祖冲之路2277弄"},{"poiid":"B2094654DA6AA5FE4499","title":"东郊华庭","lon":"121.62417","lat":"31.217127","category":"47","category_name":"住宅区","address":"上海市浦东新区青铜路333号"},{"poiid":"B2094757D069A6F84498","title":"佳思多食品料理店(张江店)","lon":"121.6148","lat":"31.2139","category":"91","category_name":"台湾菜","address":"浦东新区香楠路399弄2号会所1楼东区(丹桂路香楠路)"},{"poiid":"B2094757D069ABFC4092","title":"张江中学足球场","lon":"121.6172","lat":"31.20647","category":"253","category_name":"校园生活","address":"浦东新区江东路54号张江体育中心"},{"poiid":"B2094654DA6AA5FE459F","title":"汤臣豪庭(香楠路)","lon":"121.61635","lat":"31.21997","category":"47","category_name":"住宅区","address":"广兰路50弄1-54号"},{"poiid":"B2094757D065A0FD409C","title":"蜀悦渔乡 青桐路店","lon":"121.62227","lat":"31.21903","category":"71","category_name":"四川菜","address":"浦东新区青桐路199弄中芯花园19号(近中芯美食广场)"},{"poiid":"B2094655D36DA7FB449E","title":"祖冲之路申江路","lon":"121.6266","lat":"31.21147","category":"38","category_name":"公交车站","address":""},{"poiid":"B2094757D16DA0FB459F","title":"张记台味","lon":"121.62629389","lat":"31.2164938005","category":"500","category_name":"未知分类","address":"浦东新区张江科技园区青桐路199弄18号"},{"poiid":"B2094757D66CA6F8499C","title":"城市经典 四期。高迪","lon":"121.619221975","lat":"31.2138426774","category":"500","category_name":"未知分类","address":"上海市浦东新区广兰路"},{"poiid":"B2094757D064AAF5499F","title":"瑞慈健康管理中心(张东路店)","lon":"121.6329","lat":"31.21723","category":"162","category_name":"医院","address":"上海浦东新区张东路1388号15幢(近丹桂路)"},{"poiid":"B2094757D06AA5F54799","title":"锦江之星(张江店)","lon":"121.61236","lat":"31.21097","category":"500","category_name":"未知分类","address":"上海市浦东新区张江路91号"},{"poiid":"B2094750D568ABF84299","title":"上海天之骄子","lon":"121.62937","lat":"31.211645","category":"47","category_name":"住宅区","address":"浦东祖冲之路2305号(盛夏路口)"},{"poiid":"B2094655D36CA6F5469A","title":"丹桂路广兰路","lon":"121.61894","lat":"31.21518","category":"38","category_name":"公交车站","address":""},{"poiid":"B2094757D065ABFC4899","title":"张江有轨电车1路广兰路祖冲之路站","lon":"121.618309631","lat":"31.2099641454","category":"36","category_name":"地铁站","address":"上海浦东新区广兰路祖冲之路交会口"},{"poiid":"B2094654DA6AA5F94892","title":"兰沁苑","lon":"121.62245","lat":"31.205448","category":"47","category_name":"住宅区","address":"紫薇路750弄"},{"poiid":"B2094757D064A1FF409D","title":"创意大厦","lon":"121.619","lat":"31.2136","category":"252","category_name":"楼宇机构","address":"上海祖冲之路1559号"},{"poiid":"B2094757D16FA1F8439A","title":"中芯学校","lon":"121.617676375","lat":"31.2201014738","category":"253","category_name":"校园生活","address":"上海青桐路169号"},{"poiid":"B2094757D568A0F9409E","title":"川鸿川菜馆","lon":"121.6175611","lat":"31.21861194","category":"71","category_name":"四川菜","address":"浦东新区广兰路香楠小区青桐路10号(中芯学校对面)"},{"poiid":"B2094757D16BA5FA4899","title":"红廊","lon":"121.62895","lat":"31.21183","category":"268","category_name":"自助","address":"浦东新区祖冲之路2288弄上海展讯豪生酒店1楼(近申江路)"},{"poiid":"B2094655D265A5F4459D","title":"格林豪泰酒店上海张江店","lon":"121.62062","lat":"31.20499","category":"216","category_name":"经济型连锁酒店","address":"浦东新区广兰路1090号"},{"poiid":"B2094757D06BA0FF429B","title":"荣耀书房","lon":"121.62182","lat":"31.21852","category":"125","category_name":"书店","address":"浦东新区青桐路195号(近广兰路)"},{"poiid":"B2094654DB69AAF5439F","title":"交江大楼","lon":"121.619659","lat":"31.211054","category":"46","category_name":"楼宇","address":"上海市浦东新区川北公路3042号"},{"poiid":"B2094654DA6AA5FD4099","title":"零点美发美容设计有限公司No.02","lon":"121.62122","lat":"31.219","category":"148","category_name":"美容美发店","address":"青桐路185"},{"poiid":"B2094654DA6AA5FC469C","title":"快客(广兰路)","lon":"121.6178","lat":"31.21625","category":"117","category_name":"便民商店/便利店","address":""},{"poiid":"B2094757D069A6FF4793","title":"夏宫别墅会所","lon":"121.61552429","lat":"31.210952758","category":"500","category_name":"未知分类","address":"上海香楠路488号"},{"poiid":"B2094654DA6AA5FE479B","title":"小区(青桐路)","lon":"121.61818","lat":"31.21767","category":"47","category_name":"住宅区","address":""},{"poiid":"B2094751D56CA6F94499","title":"钱万隆","lon":"121.61791","lat":"31.21051","category":"76","category_name":"上海菜","address":"浦东新区广兰路778号"},{"poiid":"B2094757D165ABFE419D","title":"张江有轨电车1路丹桂路张东路站","lon":"121.618444675","lat":"31.2134392679","category":"500","category_name":"未知分类","address":"上海丹桂路张东路"},{"poiid":"B2094757D06EAAF84399","title":"广兰路地铁站","lon":"121.61999759","lat":"31.210776628","category":"36","category_name":"地铁站","address":"上海轨道交通二号线广兰路站"},{"poiid":"B2094757D06EAAF94799","title":"妈妈糖休闲咖啡馆 mamatown","lon":"121.62242","lat":"31.21869","category":"94","category_name":"西餐厅","address":"浦东新区青桐路199弄中芯花园23号"},{"poiid":"B2094757D06FA1FC499C","title":"动漫博物馆","lon":"121.611773","lat":"31.212253","category":"182","category_name":"博物馆","address":"浦东新区张江路69号(近丹桂路)"},{"poiid":"B2094757D06FA1F54498","title":"永达国际汽车广场","lon":"121.62713285","lat":"31.222678767","category":"500","category_name":"未知分类","address":"上海龙东大道2777号"},{"poiid":"B2094757D068A2FB4592","title":"台北雅厨","lon":"121.62232","lat":"31.21868","category":"91","category_name":"台湾菜","address":"浦东新区青桐路199弄中芯花园15号(近广兰路)"},{"poiid":"B2094655D36DA6FD439B","title":"广兰路","lon":"121.61996","lat":"31.21077","category":"38","category_name":"公交车站","address":""},{"poiid":"B2094757D06FA0FF409F","title":"阳光花城","lon":"121.62379","lat":"31.207195","category":"500","category_name":"未知分类","address":"上海市浦东新区紫薇路667弄"},{"poiid":"B2094757D068A7F8409D","title":"展讯豪生酒店","lon":"121.62515517","lat":"31.206159597","category":"217","category_name":"旅馆招待所","address":"上海市浦东新区祖冲之路2288弄（近申江路）"},{"poiid":"B2094757D06FA4F4479E","title":"友乐达台北精致面馆(张江店)","lon":"121.62252","lat":"31.21871","category":"68","category_name":"快餐厅","address":"浦东新区青桐路199弄中芯花园17号(近广兰路)"},{"poiid":"B2094757D465A3F9409B","title":"深山老屋 张江路店","lon":"121.61209","lat":"31.21124","category":"260","category_name":"其他","address":"浦东新区张江路91号(近龙东大道)"},{"poiid":"B2094655D36DA1F4479E","title":"香楠小区","lon":"121.61279","lat":"31.216309","category":"47","category_name":"住宅区","address":"上海香楠路199弄"},{"poiid":"B2094654DA6AA5FD409F","title":"中芯花园","lon":"121.6208","lat":"31.218477","category":"47","category_name":"住宅区","address":"浦东新区丹桂路345弄"},{"poiid":"B2094757D06AA3FB479E","title":"感恩堂","lon":"121.62321","lat":"31.21502","category":"500","category_name":"未知分类","address":"浦东新区丹桂路700号(丹桂路青桐路)"},{"poiid":"B2094757D06FA7F4489D","title":"张江行政服务中心","lon":"121.61096954","lat":"31.213911056","category":"46","category_name":"楼宇","address":"上海张江路39号"},{"poiid":"B2094757D06AA4FA4692","title":"展讯中心","lon":"121.634","lat":"31.2169","category":"500","category_name":"未知分类","address":"上海浦东新区张江高科祖冲之路2288弄1号楼"},{"poiid":"B2094757D06BAAFD479C","title":"中共上海市浦东新区区委党校","lon":"121.62418597","lat":"31.219276804","category":"260","category_name":"其他","address":"上海市浦东新区龙东大道"},{"poiid":"B2094655D26BA0FE4293","title":"日月光水岸花园","lon":"121.62192","lat":"31.216284","category":"47","category_name":"住宅区","address":"浦东新区张江青桐路408弄(近丹桂路)"},{"poiid":"B2094757D069A5FE489C","title":"威尔士健身会所(张江店)","lon":"121.62643","lat":"31.20966","category":"221","category_name":"健身中心","address":"浦东新区祖冲之路2288号(近申江路)"},{"poiid":"B2094655D36CA6F5469B","title":"丹桂路青桐路","lon":"121.62229","lat":"31.21546","category":"38","category_name":"公交车站","address":""},{"poiid":"B2094757D069A1FB439B","title":"容源大酒店","lon":"121.620157963","lat":"31.2053299054","category":"72","category_name":"广东菜","address":"浦东新区广兰路1080号(紫薇路口)"},{"poiid":"B2094757D069A5FE4493","title":"青霞酒家(青桐路店)","lon":"121.61733","lat":"31.21833","category":"76","category_name":"上海菜","address":"浦东新区青桐路2号(中芯学校对面)"},{"poiid":"B2094757D069A6FA4398","title":"台北馅饼粥","lon":"121.62218","lat":"31.219033","category":"91","category_name":"台湾菜","address":"浦东新区青桐路199弄中芯花园16号"},{"poiid":"B2094757D16FA3FC439B","title":"世和商务中心","lon":"121.62624997","lat":"31.213459668","category":"500","category_name":"未知分类","address":"上海市浦东新区祖冲之路2277弄"},{"poiid":"B2094654DA6AA5FE4499","title":"东郊华庭","lon":"121.62417","lat":"31.217127","category":"47","category_name":"住宅区","address":"上海市浦东新区青铜路333号"},{"poiid":"B2094757D069A6F84498","title":"佳思多食品料理店(张江店)","lon":"121.6148","lat":"31.2139","category":"91","category_name":"台湾菜","address":"浦东新区香楠路399弄2号会所1楼东区(丹桂路香楠路)"},{"poiid":"B2094757D069ABFC4092","title":"张江中学足球场","lon":"121.6172","lat":"31.20647","category":"253","category_name":"校园生活","address":"浦东新区江东路54号张江体育中心"},{"poiid":"B2094654DA6AA5FE459F","title":"汤臣豪庭(香楠路)","lon":"121.61635","lat":"31.21997","category":"47","category_name":"住宅区","address":"广兰路50弄1-54号"},{"poiid":"B2094757D065A0FD409C","title":"蜀悦渔乡 青桐路店","lon":"121.62227","lat":"31.21903","category":"71","category_name":"四川菜","address":"浦东新区青桐路199弄中芯花园19号(近中芯美食广场)"},{"poiid":"B2094655D36DA7FB449E","title":"祖冲之路申江路","lon":"121.6266","lat":"31.21147","category":"38","category_name":"公交车站","address":""},{"poiid":"B2094757D16DA0FB459F","title":"张记台味","lon":"121.62629389","lat":"31.2164938005","category":"500","category_name":"未知分类","address":"浦东新区张江科技园区青桐路199弄18号"},{"poiid":"B2094757D66CA6F8499C","title":"城市经典 四期。高迪","lon":"121.619221975","lat":"31.2138426774","category":"500","category_name":"未知分类","address":"上海市浦东新区广兰路"},{"poiid":"B2094757D064AAF5499F","title":"瑞慈健康管理中心(张东路店)","lon":"121.6329","lat":"31.21723","category":"162","category_name":"医院","address":"上海浦东新区张东路1388号15幢(近丹桂路)"},{"poiid":"B2094757D06AA5F54799","title":"锦江之星(张江店)","lon":"121.61236","lat":"31.21097","category":"500","category_name":"未知分类","address":"上海市浦东新区张江路91号"},{"poiid":"B2094750D568ABF84299","title":"上海天之骄子","lon":"121.62937","lat":"31.211645","category":"47","category_name":"住宅区","address":"浦东祖冲之路2305号(盛夏路口)"},{"poiid":"B2094655D36CA6F5469A","title":"丹桂路广兰路","lon":"121.61894","lat":"31.21518","category":"38","category_name":"公交车站","address":""},{"poiid":"B2094757D065ABFC4899","title":"张江有轨电车1路广兰路祖冲之路站","lon":"121.618309631","lat":"31.2099641454","category":"36","category_name":"地铁站","address":"上海浦东新区广兰路祖冲之路交会口"},{"poiid":"B2094654DA6AA5F94892","title":"兰沁苑","lon":"121.62245","lat":"31.205448","category":"47","category_name":"住宅区","address":"紫薇路750弄"},{"poiid":"B2094757D064A1FF409D","title":"创意大厦","lon":"121.619","lat":"31.2136","category":"252","category_name":"楼宇机构","address":"上海祖冲之路1559号"},{"poiid":"B2094757D16FA1F8439A","title":"中芯学校","lon":"121.617676375","lat":"31.2201014738","category":"253","category_name":"校园生活","address":"上海青桐路169号"},{"poiid":"B2094757D568A0F9409E","title":"川鸿川菜馆","lon":"121.6175611","lat":"31.21861194","category":"71","category_name":"四川菜","address":"浦东新区广兰路香楠小区青桐路10号(中芯学校对面)"},{"poiid":"B2094757D16BA5FA4899","title":"红廊","lon":"121.62895","lat":"31.21183","category":"268","category_name":"自助","address":"浦东新区祖冲之路2288弄上海展讯豪生酒店1楼(近申江路)"},{"poiid":"B2094655D265A5F4459D","title":"格林豪泰酒店上海张江店","lon":"121.62062","lat":"31.20499","category":"216","category_name":"经济型连锁酒店","address":"浦东新区广兰路1090号"},{"poiid":"B2094757D06BA0FF429B","title":"荣耀书房","lon":"121.62182","lat":"31.21852","category":"125","category_name":"书店","address":"浦东新区青桐路195号(近广兰路)"},{"poiid":"B2094654DB69AAF5439F","title":"交江大楼","lon":"121.619659","lat":"31.211054","category":"46","category_name":"楼宇","address":"上海市浦东新区川北公路3042号"},{"poiid":"B2094654DA6AA5FD4099","title":"零点美发美容设计有限公司No.02","lon":"121.62122","lat":"31.219","category":"148","category_name":"美容美发店","address":"青桐路185"},{"poiid":"B2094654DA6AA5FC469C","title":"快客(广兰路)","lon":"121.6178","lat":"31.21625","category":"117","category_name":"便民商店/便利店","address":""},{"poiid":"B2094757D069A6FF4793","title":"夏宫别墅会所","lon":"121.61552429","lat":"31.210952758","category":"500","category_name":"未知分类","address":"上海香楠路488号"},{"poiid":"B2094654DA6AA5FE479B","title":"小区(青桐路)","lon":"121.61818","lat":"31.21767","category":"47","category_name":"住宅区","address":""},{"poiid":"B2094751D56CA6F94499","title":"钱万隆","lon":"121.61791","lat":"31.21051","category":"76","category_name":"上海菜","address":"浦东新区广兰路778号"},{"poiid":"B2094757D165ABFE419D","title":"张江有轨电车1路丹桂路张东路站","lon":"121.618444675","lat":"31.2134392679","category":"500","category_name":"未知分类","address":"上海丹桂路张东路"}]