[{"poiid":"B2094757D06FA2FB459F","title":"小肥羊(成山路店)","lon":"121.50605","lat":"31.17167","category":"86","category_name":"火锅店","address":"浦东新区成山路436号2楼(近云台路)"},{"poiid":"B2094757D06FA6FE409C","title":"昌里花园","lon":"121.50532","lat":"31.176899","category":"47","category_name":"住宅区","address":"上海市浦东新区昌里东路71弄"},{"poiid":"B2094757D06FA1F54398","title":"沃尔玛(上南齐河店)","lon":"121.503158536","lat":"31.1784074908","category":"118","category_name":"超级市场","address":"浦东新区齐河路258号(齐河路云台路)"},{"poiid":"B2094757D06FABFF499A","title":"巴贝拉(成山路店)","lon":"121.50586","lat":"31.172","category":"94","category_name":"西餐厅","address":"浦东新区成山路436号3楼(近云台路)"},{"poiid":"B2094757D06FA4FE4899","title":"跃民海鲜船菜(成山路店)","lon":"121.50296","lat":"31.17199","category":"260","category_name":"其他","address":"浦东新区成山路345号(近洪山路)"},{"poiid":"B2094757D06FA1F9469B","title":"DQ冰雪皇后(成山店)","lon":"121.507459","lat":"31.172098","category":"113","category_name":"冷饮店","address":"上海浦东新区锦尊路521号（近巴黎春天百货）"},{"poiid":"B2094654DB69A5FF489A","title":"味千拉面(成山路店)","lon":"121.50584","lat":"31.17199","category":"95","category_name":"日本料理","address":"浦东新区成山路436号(近云台路)"},{"poiid":"B2094757D568A4F44398","title":"现代映象-昌里花园","lon":"121.5034481","lat":"31.17818","category":"47","category_name":"住宅区","address":"现代映象―昌里花园位于浦东云台路179号"},{"poiid":"B2094757D069A5F5459B","title":"巴黎贝甜(成山店)","lon":"121.506628","lat":"31.172058","category":"67","category_name":"甜品店","address":"浦东新区成山路472号(近世纪联华)"},{"poiid":"B2094750DB6CA2F44398","title":"鲜芋仙浦东成山店","lon":"121.505157","lat":"31.173311","category":"67","category_name":"甜品店","address":"浦东新区成山路462号浦东商场1楼A区(近云台路)"},{"poiid":"B2094757D465A1F5489C","title":"肯德基 成山路店 KFC","lon":"121.507720054","lat":"31.172257793","category":"247","category_name":"餐饮美食","address":"浦东新区成山路432号(近云台路)"},{"poiid":"B2094757D068A4FE479D","title":"上南中学","lon":"121.50254","lat":"31.17541","category":"55","category_name":"中学","address":"上海浦东新区昌里路93弄1号  "},{"poiid":"B2094654DA69A3FA439E","title":"世纪联华(成山路)","lon":"121.50702","lat":"31.17208","category":"118","category_name":"超级市场","address":"浦东新区成山路480号(近云台路)"},{"poiid":"B2094757D16FA7FD489E","title":"浦东新区周家渡地段医院","lon":"121.508960738","lat":"31.1768931643","category":"162","category_name":"医院","address":"上海浦东新"},{"poiid":"B2094654DA6AA2F8409E","title":"云台二小区","lon":"121.50871","lat":"31.1753","category":"47","category_name":"住宅区","address":"昌里东路190弄1-36号"},{"poiid":"B2094655D26BA4FC4598","title":"格林豪泰酒店上海成山路店","lon":"121.50828","lat":"31.17208","category":"216","category_name":"经济型连锁酒店","address":"浦东新区成山路558-1号(东明路口)"},{"poiid":"B2094750D56FAAFD449D","title":"DQ冰雪皇后(浦东商场店)","lon":"121.507","lat":"31.1719","category":"113","category_name":"冷饮店","address":"浦东新区成山路500号浦东商场1楼(近云台路)"},{"poiid":"B2094757D068A0F8419F","title":"避风塘茶楼(昌里店)","lon":"121.50165","lat":"31.17536","category":"260","category_name":"其他","address":"浦东新区昌里路107号(近洪山路)"},{"poiid":"B2094757D06BA7FD4298","title":"活力无限运动健身中心","lon":"121.506453","lat":"31.176359","category":"148","category_name":"美容美发店","address":"浦东新区昌里东路117号(近云莲路)"},{"poiid":"B2094757D069A3F84798","title":"四海游龙(成山路店)","lon":"121.50565","lat":"31.17149","category":"257","category_name":"中餐厅","address":"浦东新区成山路411号(云台路口)"},{"poiid":"B2094654DA6AA2F84598","title":"云台一小区","lon":"121.50602","lat":"31.17509","category":"47","category_name":"住宅区","address":"上海浦东新区昌里东路80弄"},{"poiid":"B2094654DA6AA2F8449A","title":"颐品居(成山路)","lon":"121.50611","lat":"31.17247","category":"86","category_name":"火锅店","address":"浦东新区成山路439号(近云台路)"},{"poiid":"B2094757D66BABF44592","title":"岳阳楼记 云台路店","lon":"121.50422487987","lat":"31.17461022881","category":"77","category_name":"湖南菜","address":"浦东新区云台路267号(近成山路)"},{"poiid":"B2094654DA68A0F8449E","title":"上南七村八村","lon":"121.50253","lat":"31.17364","category":"47","category_name":"住宅区","address":"洪山路237弄"},{"poiid":"B2094757D16CA7FF4693","title":"成山苑","lon":"121.50640779","lat":"31.174488421","category":"47","category_name":"住宅区","address":"上海成山路475弄"},{"poiid":"B2094654DB65A6F9429C","title":"避风塘 昌里店","lon":"121.500625054","lat":"31.175711793","category":"111","category_name":"休闲餐饮场所","address":"浦东新区昌里东路294号(近东明路)"},{"poiid":"B2094757D069A3FD4893","title":"云台路花鸟市场","lon":"121.50487","lat":"31.17323","category":"249","category_name":"购物服务","address":"浦东新区云台路260号(近成山路)"},{"poiid":"B2094654DA6AA2F8419E","title":"新亚大包 昌里店","lon":"121.509641054","lat":"31.175951793","category":"68","category_name":"快餐厅","address":"浦东新区东明路1096号(昌里东路口)"},{"poiid":"B2094757DA6EAAF94599","title":"顶鲜汤包(昌里路店)","lon":"121.505088000003","lat":"31.1759399999999","category":"68","category_name":"快餐厅","address":"浦东新区昌里东路38号(近云台路)"},{"poiid":"B2094654DA6AA2F8459A","title":"上钢新村幼儿园海贝园","lon":"121.50534","lat":"31.17483","category":"57","category_name":"幼儿园","address":"昌里东路80弄62号"},{"poiid":"B2094750D665A0F4409F","title":"千岛湖老淳野生鱼庄","lon":"121.506","lat":"31.1725","category":"87","category_name":"特色／地方风味餐厅","address":"浦东新区成山路419号(近云台路)"},{"poiid":"B2094757D465A4FC4699","title":"重庆鸡公煲 成山店","lon":"121.505971054","lat":"31.172516793","category":"71","category_name":"四川菜","address":"浦东新区成山路423号(近云台路)"},{"poiid":"B2094757D064A6FB449B","title":"旺佳宠物诊所","lon":"121.50292214","lat":"31.172073596","category":"668","category_name":"诊所","address":"上海市浦东新区成山路365号"},{"poiid":"B2094757D069A1FB4393","title":"周家渡派出所","lon":"121.50838473","lat":"31.176638158","category":"609","category_name":"警察局","address":"昌里东路185号-1"},{"poiid":"B2094654DB64A4F44792","title":"周家渡街道社区文化广场","lon":"121.50585","lat":"31.17404","category":"201","category_name":"城市广场","address":"昌里东路80弄61号"},{"poiid":"B2094654DB6BABF54793","title":"上岛咖啡 成山路店 UBC Coffee","lon":"121.504735054","lat":"31.172151793","category":"260","category_name":"其他","address":"浦东新区成山路436号2楼(近云台路)"},{"poiid":"B2094654DB6BABF84699","title":"上海市浦东新区新世界实验小学","lon":"121.50418","lat":"31.17506","category":"56","category_name":"小学","address":"浦东新区云台路230号(昌里东路昌里路)"},{"poiid":"B2094654DA6AA2F8449D","title":"云台小学","lon":"121.50688","lat":"31.17463","category":"56","category_name":"小学","address":"浦东新区昌里东路80弄(昌里东路云莲路)"},{"poiid":"B2094654DA6AA2FF4199","title":"秦记汤包昌里店","lon":"121.50511","lat":"31.17582","category":"257","category_name":"中餐厅","address":"昌里东路38"},{"poiid":"B2094655D36CA5FA419A","title":"昌里路云台路","lon":"121.50365","lat":"31.17576","category":"38","category_name":"公交车站","address":""},{"poiid":"B2094655D36CA5FA419F","title":"昌里东路云台路","lon":"121.50507","lat":"31.17598","category":"38","category_name":"公交车站","address":""},{"poiid":"B2094757D06BA5F9449C","title":"雷格斯(Regus)上海永银大厦","lon":"121.50763773","lat":"31.174601115","category":"46","category_name":"楼宇","address":"上海卢湾区桃源路85号 永银大厦3楼 200021"},{"poiid":"B2094757D069A0F5459E","title":"上南七村","lon":"121.50276","lat":"31.174721","category":"500","category_name":"未知分类","address":"上海昌里路洪山路"},{"poiid":"B2094655D36CA5FA419B","title":"昌里路云莲路","lon":"121.50729","lat":"31.17635","category":"38","category_name":"公交车站","address":""},{"poiid":"B2094655D36CA5FE4993","title":"成山路云台路","lon":"121.506","lat":"31.17236","category":"38","category_name":"公交车站","address":""},{"poiid":"B2094757D16DA4FD489F","title":"浦东新世界实验小学","lon":"121.50419673","lat":"31.175625137","category":"500","category_name":"未知分类","address":"上海市浦东新区云台路230号"},{"poiid":"B2094655D26FAAF94699","title":"浦东交警支队事故科东明事故受理点","lon":"121.50996","lat":"31.1744","category":"250","category_name":"公园户外","address":""},{"poiid":"B2094757D665A0F4409A","title":"湘楚情 成山路店","lon":"121.503844054","lat":"31.172706793","category":"77","category_name":"湖南菜","address":"浦东新区成山路429号(近云台路)"},{"poiid":"B2094757D065ABFE479B","title":"家得利超市(昌里店)","lon":"121.50717","lat":"31.17604","category":"118","category_name":"超级市场","address":"浦东新区昌里东路119号(近云莲路)"},{"poiid":"B2094757D06AA0FB4298","title":"上南六村","lon":"121.50181","lat":"31.176195","category":"500","category_name":"未知分类","address":"上海浦东齐河路28弄齐河路10弄,洪山路164号"},{"poiid":"B2094757D06FA2FB459F","title":"小肥羊(成山路店)","lon":"121.50605","lat":"31.17167","category":"86","category_name":"火锅店","address":"浦东新区成山路436号2楼(近云台路)"},{"poiid":"B2094757D06FA6FE409C","title":"昌里花园","lon":"121.50532","lat":"31.176899","category":"47","category_name":"住宅区","address":"上海市浦东新区昌里东路71弄"},{"poiid":"B2094757D06FA1F54398","title":"沃尔玛(上南齐河店)","lon":"121.503158536","lat":"31.1784074908","category":"118","category_name":"超级市场","address":"浦东新区齐河路258号(齐河路云台路)"},{"poiid":"B2094757D06FABFF499A","title":"巴贝拉(成山路店)","lon":"121.50586","lat":"31.172","category":"94","category_name":"西餐厅","address":"浦东新区成山路436号3楼(近云台路)"},{"poiid":"B2094757D06FA4FE4899","title":"跃民海鲜船菜(成山路店)","lon":"121.50296","lat":"31.17199","category":"260","category_name":"其他","address":"浦东新区成山路345号(近洪山路)"},{"poiid":"B2094757D06FA1F9469B","title":"DQ冰雪皇后(成山店)","lon":"121.507459","lat":"31.172098","category":"113","category_name":"冷饮店","address":"上海浦东新区锦尊路521号（近巴黎春天百货）"},{"poiid":"B2094654DB69A5FF489A","title":"味千拉面(成山路店)","lon":"121.50584","lat":"31.17199","category":"95","category_name":"日本料理","address":"浦东新区成山路436号(近云台路)"},{"poiid":"B2094757D568A4F44398","title":"现代映象-昌里花园","lon":"121.5034481","lat":"31.17818","category":"47","category_name":"住宅区","address":"现代映象―昌里花园位于浦东云台路179号"},{"poiid":"B2094757D069A5F5459B","title":"巴黎贝甜(成山店)","lon":"121.506628","lat":"31.172058","category":"67","category_name":"甜品店","address":"浦东新区成山路472号(近世纪联华)"},{"poiid":"B2094750DB6CA2F44398","title":"鲜芋仙浦东成山店","lon":"121.505157","lat":"31.173311","category":"67","category_name":"甜品店","address":"浦东新区成山路462号浦东商场1楼A区(近云台路)"},{"poiid":"B2094757D465A1F5489C","title":"肯德基 成山路店 KFC","lon":"121.507720054","lat":"31.172257793","category":"247","category_name":"餐饮美食","address":"浦东新区成山路432号(近云台路)"},{"poiid":"B2094757D068A4FE479D","title":"上南中学","lon":"121.50254","lat":"31.17541","category":"55","category_name":"中学","address":"上海浦东新区昌里路93弄1号  "},{"poiid":"B2094654DA69A3FA439E","title":"世纪联华(成山路)","lon":"121.50702","lat":"31.17208","category":"118","category_name":"超级市场","address":"浦东新区成山路480号(近云台路)"},{"poiid":"B2094757D16FA7FD489E","title":"浦东新区周家渡地段医院","lon":"121.508960738","lat":"31.1768931643","category":"162","category_name":"医院","address":"上海浦东新"},{"poiid":"B2094654DA6AA2F8409E","title":"云台二小区","lon":"121.50871","lat":"31.1753","category":"47","category_name":"住宅区","address":"昌里东路190弄1-36号"},{"poiid":"B2094655D26BA4FC4598","title":"格林豪泰酒店上海成山路店","lon":"121.50828","lat":"31.17208","category":"216","category_name":"经济型连锁酒店","address":"浦东新区成山路558-1号(东明路口)"},{"poiid":"B2094750D56FAAFD449D","title":"DQ冰雪皇后(浦东商场店)","lon":"121.507","lat":"31.1719","category":"113","category_name":"冷饮店","address":"浦东新区成山路500号浦东商场1楼(近云台路)"},{"poiid":"B2094757D068A0F8419F","title":"避风塘茶楼(昌里店)","lon":"121.50165","lat":"31.17536","category":"260","category_name":"其他","address":"浦东新区昌里路107号(近洪山路)"},{"poiid":"B2094757D06BA7FD4298","title":"活力无限运动健身中心","lon":"121.506453","lat":"31.176359","category":"148","category_name":"美容美发店","address":"浦东新区昌里东路117号(近云莲路)"},{"poiid":"B2094757D069A3F84798","title":"四海游龙(成山路店)","lon":"121.50565","lat":"31.17149","category":"257","category_name":"中餐厅","address":"浦东新区成山路411号(云台路口)"},{"poiid":"B2094654DA6AA2F84598","title":"云台一小区","lon":"121.50602","lat":"31.17509","category":"47","category_name":"住宅区","address":"上海浦东新区昌里东路80弄"},{"poiid":"B2094654DA6AA2F8449A","title":"颐品居(成山路)","lon":"121.50611","lat":"31.17247","category":"86","category_name":"火锅店","address":"浦东新区成山路439号(近云台路)"},{"poiid":"B2094757D66BABF44592","title":"岳阳楼记 云台路店","lon":"121.50422487987","lat":"31.17461022881","category":"77","category_name":"湖南菜","address":"浦东新区云台路267号(近成山路)"},{"poiid":"B2094654DA68A0F8449E","title":"上南七村八村","lon":"121.50253","lat":"31.17364","category":"47","category_name":"住宅区","address":"洪山路237弄"},{"poiid":"B2094757D16CA7FF4693","title":"成山苑","lon":"121.50640779","lat":"31.174488421","category":"47","category_name":"住宅区","address":"上海成山路475弄"},{"poiid":"B2094654DB65A6F9429C","title":"避风塘 昌里店","lon":"121.500625054","lat":"31.175711793","category":"111","category_name":"休闲餐饮场所","address":"浦东新区昌里东路294号(近东明路)"},{"poiid":"B2094757D069A3FD4893","title":"云台路花鸟市场","lon":"121.50487","lat":"31.17323","category":"249","category_name":"购物服务","address":"浦东新区云台路260号(近成山路)"},{"poiid":"B2094654DA6AA2F8419E","title":"新亚大包 昌里店","lon":"121.509641054","lat":"31.175951793","category":"68","category_name":"快餐厅","address":"浦东新区东明路1096号(昌里东路口)"},{"poiid":"B2094757DA6EAAF94599","title":"顶鲜汤包(昌里路店)","lon":"121.505088000003","lat":"31.1759399999999","category":"68","category_name":"快餐厅","address":"浦东新区昌里东路38号(近云台路)"},{"poiid":"B2094654DA6AA2F8459A","title":"上钢新村幼儿园海贝园","lon":"121.50534","lat":"31.17483","category":"57","category_name":"幼儿园","address":"昌里东路80弄62号"},{"poiid":"B2094750D665A0F4409F","title":"千岛湖老淳野生鱼庄","lon":"121.506","lat":"31.1725","category":"87","category_name":"特色／地方风味餐厅","address":"浦东新区成山路419号(近云台路)"},{"poiid":"B2094757D465A4FC4699","title":"重庆鸡公煲 成山店","lon":"121.505971054","lat":"31.172516793","category":"71","category_name":"四川菜","address":"浦东新区成山路423号(近云台路)"},{"poiid":"B2094757D064A6FB449B","title":"旺佳宠物诊所","lon":"121.50292214","lat":"31.172073596","category":"668","category_name":"诊所","address":"上海市浦东新区成山路365号"},{"poiid":"B2094757D069A1FB4393","title":"周家渡派出所","lon":"121.50838473","lat":"31.176638158","category":"609","category_name":"警察局","address":"昌里东路185号-1"},{"poiid":"B2094654DB64A4F44792","title":"周家渡街道社区文化广场","lon":"121.50585","lat":"31.17404","category":"201","category_name":"城市广场","address":"昌里东路80弄61号"},{"poiid":"B2094654DB6BABF54793","title":"上岛咖啡 成山路店 UBC Coffee","lon":"121.504735054","lat":"31.172151793","category":"260","category_name":"其他","address":"浦东新区成山路436号2楼(近云台路)"},{"poiid":"B2094654DB6BABF84699","title":"上海市浦东新区新世界实验小学","lon":"121.50418","lat":"31.17506","category":"56","category_name":"小学","address":"浦东新区云台路230号(昌里东路昌里路)"},{"poiid":"B2094654DA6AA2F8449D","title":"云台小学","lon":"121.50688","lat":"31.17463","category":"56","category_name":"小学","address":"浦东新区昌里东路80弄(昌里东路云莲路)"},{"poiid":"B2094654DA6AA2FF4199","title":"秦记汤包昌里店","lon":"121.50511","lat":"31.17582","category":"257","category_name":"中餐厅","address":"昌里东路38"},{"poiid":"B2094655D36CA5FA419A","title":"昌里路云台路","lon":"121.50365","lat":"31.17576","category":"38","category_name":"公交车站","address":""},{"poiid":"B2094655D36CA5FA419F","title":"昌里东路云台路","lon":"121.50507","lat":"31.17598","category":"38","category_name":"公交车站","address":""},{"poiid":"B2094757D06BA5F9449C","title":"雷格斯(Regus)上海永银大厦","lon":"121.50763773","lat":"31.174601115","category":"46","category_name":"楼宇","address":"上海卢湾区桃源路85号 永银大厦3楼 200021"},{"poiid":"B2094757D069A0F5459E","title":"上南七村","lon":"121.50276","lat":"31.174721","category":"500","category_name":"未知分类","address":"上海昌里路洪山路"},{"poiid":"B2094655D36CA5FA419B","title":"昌里路云莲路","lon":"121.50729","lat":"31.17635","category":"38","category_name":"公交车站","address":""},{"poiid":"B2094655D36CA5FE4993","title":"成山路云台路","lon":"121.506","lat":"31.17236","category":"38","category_name":"公交车站","address":""},{"poiid":"B2094757D16DA4FD489F","title":"浦东新世界实验小学","lon":"121.50419673","lat":"31.175625137","category":"500","category_name":"未知分类","address":"上海市浦东新区云台路230号"},{"poiid":"B2094655D26FAAF94699","title":"浦东交警支队事故科东明事故受理点","lon":"121.50996","lat":"31.1744","category":"250","category_name":"公园户外","address":""},{"poiid":"B2094757D665A0F4409A","title":"湘楚情 成山路店","lon":"121.503844054","lat":"31.172706793","category":"77","category_name":"湖南菜","address":"浦东新区成山路429号(近云台路)"},{"poiid":"B2094757D065ABFE479B","title":"家得利超市(昌里店)","lon":"121.50717","lat":"31.17604","category":"118","category_name":"超级市场","address":"浦东新区昌里东路119号(近云莲路)"},{"poiid":"B2094757D06AA0FB4298","title":"上南六村","lon":"121.50181","lat":"31.176195","category":"500","category_name":"未知分类","address":"上海浦东齐河路28弄齐河路10弄,洪山路164号"},{"poiid":"B2094757D06FA2FB459F","title":"小肥羊(成山路店)","lon":"121.50605","lat":"31.17167","category":"86","category_name":"火锅店","address":"浦东新区成山路436号2楼(近云台路)"},{"poiid":"B2094757D06FA6FE409C","title":"昌里花园","lon":"121.50532","lat":"31.176899","category":"47","category_name":"住宅区","address":"上海市浦东新区昌里东路71弄"},{"poiid":"B2094757D06FA1F54398","title":"沃尔玛(上南齐河店)","lon":"121.503158536","lat":"31.1784074908","category":"118","category_name":"超级市场","address":"浦东新区齐河路258号(齐河路云台路)"},{"poiid":"B2094757D06FABFF499A","title":"巴贝拉(成山路店)","lon":"121.50586","lat":"31.172","category":"94","category_name":"西餐厅","address":"浦东新区成山路436号3楼(近云台路)"},{"poiid":"B2094757D06FA4FE4899","title":"跃民海鲜船菜(成山路店)","lon":"121.50296","lat":"31.17199","category":"260","category_name":"其他","address":"浦东新区成山路345号(近洪山路)"},{"poiid":"B2094757D06FA1F9469B","title":"DQ冰雪皇后(成山店)","lon":"121.507459","lat":"31.172098","category":"113","category_name":"冷饮店","address":"上海浦东新区锦尊路521号（近巴黎春天百货）"},{"poiid":"B2094654DB69A5FF489A","title":"味千拉面(成山路店)","lon":"121.50584","lat":"31.17199","category":"95","category_name":"日本料理","address":"浦东新区成山路436号(近云台路)"},{"poiid":"B2094757D568A4F44398","title":"现代映象-昌里花园","lon":"121.5034481","lat":"31.17818","category":"47","category_name":"住宅区","address":"现代映象―昌里花园位于浦东云台路179号"},{"poiid":"B2094757D069A5F5459B","title":"巴黎贝甜(成山店)","lon":"121.506628","lat":"31.172058","category":"67","category_name":"甜品店","address":"浦东新区成山路472号(近世纪联华)"},{"poiid":"B2094750DB6CA2F44398","title":"鲜芋仙浦东成山店","lon":"121.505157","lat":"31.173311","category":"67","category_name":"甜品店","address":"浦东新区成山路462号浦东商场1楼A区(近云台路)"},{"poiid":"B2094757D465A1F5489C","title":"肯德基 成山路店 KFC","lon":"121.507720054","lat":"31.172257793","category":"247","category_name":"餐饮美食","address":"浦东新区成山路432号(近云台路)"},{"poiid":"B2094757D068A4FE479D","title":"上南中学","lon":"121.50254","lat":"31.17541","category":"55","category_name":"中学","address":"上海浦东新区昌里路93弄1号  "},{"poiid":"B2094654DA69A3FA439E","title":"世纪联华(成山路)","lon":"121.50702","lat":"31.17208","category":"118","category_name":"超级市场","address":"浦东新区成山路480号(近云台路)"},{"poiid":"B2094757D16FA7FD489E","title":"浦东新区周家渡地段医院","lon":"121.508960738","lat":"31.1768931643","category":"162","category_name":"医院","address":"上海浦东新"},{"poiid":"B2094654DA6AA2F8409E","title":"云台二小区","lon":"121.50871","lat":"31.1753","category":"47","category_name":"住宅区","address":"昌里东路190弄1-36号"},{"poiid":"B2094655D26BA4FC4598","title":"格林豪泰酒店上海成山路店","lon":"121.50828","lat":"31.17208","category":"216","category_name":"经济型连锁酒店","address":"浦东新区成山路558-1号(东明路口)"},{"poiid":"B2094750D56FAAFD449D","title":"DQ冰雪皇后(浦东商场店)","lon":"121.507","lat":"31.1719","category":"113","category_name":"冷饮店","address":"浦东新区成山路500号浦东商场1楼(近云台路)"},{"poiid":"B2094757D068A0F8419F","title":"避风塘茶楼(昌里店)","lon":"121.50165","lat":"31.17536","category":"260","category_name":"其他","address":"浦东新区昌里路107号(近洪山路)"},{"poiid":"B2094757D06BA7FD4298","title":"活力无限运动健身中心","lon":"121.506453","lat":"31.176359","category":"148","category_name":"美容美发店","address":"浦东新区昌里东路117号(近云莲路)"},{"poiid":"B2094757D069A3F84798","title":"四海游龙(成山路店)","lon":"121.50565","lat":"31.17149","category":"257","category_name":"中餐厅","address":"浦东新区成山路411号(云台路口)"},{"poiid":"B2094654DA6AA2F84598","title":"云台一小区","lon":"121.50602","lat":"31.17509","category":"47","category_name":"住宅区","address":"上海浦东新区昌里东路80弄"},{"poiid":"B2094654DA6AA2F8449A","title":"颐品居(成山路)","lon":"121.50611","lat":"31.17247","category":"86","category_name":"火锅店","address":"浦东新区成山路439号(近云台路)"},{"poiid":"B2094757D66BABF44592","title":"岳阳楼记 云台路店","lon":"121.50422487987","lat":"31.17461022881","category":"77","category_name":"湖南菜","address":"浦东新区云台路267号(近成山路)"},{"poiid":"B2094654DA68A0F8449E","title":"上南七村八村","lon":"121.50253","lat":"31.17364","category":"47","category_name":"住宅区","address":"洪山路237弄"},{"poiid":"B2094757D16CA7FF4693","title":"成山苑","lon":"121.50640779","lat":"31.174488421","category":"47","category_name":"住宅区","address":"上海成山路475弄"},{"poiid":"B2094654DB65A6F9429C","title":"避风塘 昌里店","lon":"121.500625054","lat":"31.175711793","category":"111","category_name":"休闲餐饮场所","address":"浦东新区昌里东路294号(近东明路)"},{"poiid":"B2094757D069A3FD4893","title":"云台路花鸟市场","lon":"121.50487","lat":"31.17323","category":"249","category_name":"购物服务","address":"浦东新区云台路260号(近成山路)"},{"poiid":"B2094654DA6AA2F8419E","title":"新亚大包 昌里店","lon":"121.509641054","lat":"31.175951793","category":"68","category_name":"快餐厅","address":"浦东新区东明路1096号(昌里东路口)"},{"poiid":"B2094757DA6EAAF94599","title":"顶鲜汤包(昌里路店)","lon":"121.505088000003","lat":"31.1759399999999","category":"68","category_name":"快餐厅","address":"浦东新区昌里东路38号(近云台路)"},{"poiid":"B2094654DA6AA2F8459A","title":"上钢新村幼儿园海贝园","lon":"121.50534","lat":"31.17483","category":"57","category_name":"幼儿园","address":"昌里东路80弄62号"},{"poiid":"B2094750D665A0F4409F","title":"千岛湖老淳野生鱼庄","lon":"121.506","lat":"31.1725","category":"87","category_name":"特色／地方风味餐厅","address":"浦东新区成山路419号(近云台路)"},{"poiid":"B2094757D465A4FC4699","title":"重庆鸡公煲 成山店","lon":"121.505971054","lat":"31.172516793","category":"71","category_name":"四川菜","address":"浦东新区成山路423号(近云台路)"},{"poiid":"B2094757D064A6FB449B","title":"旺佳宠物诊所","lon":"121.50292214","lat":"31.172073596","category":"668","category_name":"诊所","address":"上海市浦东新区成山路365号"},{"poiid":"B2094757D069A1FB4393","title":"周家渡派出所","lon":"121.50838473","lat":"31.176638158","category":"609","category_name":"警察局","address":"昌里东路185号-1"},{"poiid":"B2094654DB64A4F44792","title":"周家渡街道社区文化广场","lon":"121.50585","lat":"31.17404","category":"201","category_name":"城市广场","address":"昌里东路80弄61号"},{"poiid":"B2094654DB6BABF54793","title":"上岛咖啡 成山路店 UBC Coffee","lon":"121.504735054","lat":"31.172151793","category":"260","category_name":"其他","address":"浦东新区成山路436号2楼(近云台路)"},{"poiid":"B2094654DB6BABF84699","title":"上海市浦东新区新世界实验小学","lon":"121.50418","lat":"31.17506","category":"56","category_name":"小学","address":"浦东新区云台路230号(昌里东路昌里路)"},{"poiid":"B2094654DA6AA2F8449D","title":"云台小学","lon":"121.50688","lat":"31.17463","category":"56","category_name":"小学","address":"浦东新区昌里东路80弄(昌里东路云莲路)"},{"poiid":"B2094654DA6AA2FF4199","title":"秦记汤包昌里店","lon":"121.50511","lat":"31.17582","category":"257","category_name":"中餐厅","address":"昌里东路38"},{"poiid":"B2094655D36CA5FA419A","title":"昌里路云台路","lon":"121.50365","lat":"31.17576","category":"38","category_name":"公交车站","address":""},{"poiid":"B2094655D36CA5FA419F","title":"昌里东路云台路","lon":"121.50507","lat":"31.17598","category":"38","category_name":"公交车站","address":""},{"poiid":"B2094757D06BA5F9449C","title":"雷格斯(Regus)上海永银大厦","lon":"121.50763773","lat":"31.174601115","category":"46","category_name":"楼宇","address":"上海卢湾区桃源路85号 永银大厦3楼 200021"},{"poiid":"B2094757D069A0F5459E","title":"上南七村","lon":"121.50276","lat":"31.174721","category":"500","category_name":"未知分类","address":"上海昌里路洪山路"},{"poiid":"B2094655D36CA5FA419B","title":"昌里路云莲路","lon":"121.50729","lat":"31.17635","category":"38","category_name":"公交车站","address":""},{"poiid":"B2094655D36CA5FE4993","title":"成山路云台路","lon":"121.506","lat":"31.17236","category":"38","category_name":"公交车站","address":""},{"poiid":"B2094757D16DA4FD489F","title":"浦东新世界实验小学","lon":"121.50419673","lat":"31.175625137","category":"500","category_name":"未知分类","address":"上海市浦东新区云台路230号"},{"poiid":"B2094655D26FAAF94699","title":"浦东交警支队事故科东明事故受理点","lon":"121.50996","lat":"31.1744","category":"250","category_name":"公园户外","address":""},{"poiid":"B2094757D665A0F4409A","title":"湘楚情 成山路店","lon":"121.503844054","lat":"31.172706793","category":"77","category_name":"湖南菜","address":"浦东新区成山路429号(近云台路)"},{"poiid":"B2094757D065ABFE479B","title":"家得利超市(昌里店)","lon":"121.50717","lat":"31.17604","category":"118","category_name":"超级市场","address":"浦东新区昌里东路119号(近云莲路)"},{"poiid":"B2094757D06AA0FB4298","title":"上南六村","lon":"121.50181","lat":"31.176195","category":"500","category_name":"未知分类","address":"上海浦东齐河路28弄齐河路10弄,洪山路164号"},{"poiid":"B2094757D06FA2FB459F","title":"小肥羊(成山路店)","lon":"121.50605","lat":"31.17167","category":"86","category_name":"火锅店","address":"浦东新区成山路436号2楼(近云台路)"},{"poiid":"B2094757D06FA6FE409C","title":"昌里花园","lon":"121.50532","lat":"31.176899","category":"47","category_name":"住宅区","address":"上海市浦东新区昌里东路71弄"},{"poiid":"B2094757D06FA1F54398","title":"沃尔玛(上南齐河店)","lon":"121.503158536","lat":"31.1784074908","category":"118","category_name":"超级市场","address":"浦东新区齐河路258号(齐河路云台路)"},{"poiid":"B2094757D06FABFF499A","title":"巴贝拉(成山路店)","lon":"121.50586","lat":"31.172","category":"94","category_name":"西餐厅","address":"浦东新区成山路436号3楼(近云台路)"},{"poiid":"B2094757D06FA4FE4899","title":"跃民海鲜船菜(成山路店)","lon":"121.50296","lat":"31.17199","category":"260","category_name":"其他","address":"浦东新区成山路345号(近洪山路)"},{"poiid":"B2094757D06FA1F9469B","title":"DQ冰雪皇后(成山店)","lon":"121.507459","lat":"31.172098","category":"113","category_name":"冷饮店","address":"上海浦东新区锦尊路521号（近巴黎春天百货）"},{"poiid":"B2094654DB69A5FF489A","title":"味千拉面(成山路店)","lon":"121.50584","lat":"31.17199","category":"95","category_name":"日本料理","address":"浦东新区成山路436号(近云台路)"},{"poiid":"B2094757D568A4F44398","title":"现代映象-昌里花园","lon":"121.5034481","lat":"31.17818","category":"47","category_name":"住宅区","address":"现代映象―昌里花园位于浦东云台路179号"},{"poiid":"B2094757D069A5F5459B","title":"巴黎贝甜(成山店)","lon":"121.506628","lat":"31.172058","category":"67","category_name":"甜品店","address":"浦东新区成山路472号(近世纪联华)"},{"poiid":"B2094750DB6CA2F44398","title":"鲜芋仙浦东成山店","lon":"121.505157","lat":"31.173311","category":"67","category_name":"甜品店","address":"浦东新区成山路462号浦东商场1楼A区(近云台路)"},{"poiid":"B2094757D465A1F5489C","title":"肯德基 成山路店 KFC","lon":"121.507720054","lat":"31.172257793","category":"247","category_name":"餐饮美食","address":"浦东新区成山路432号(近云台路)"},{"poiid":"B2094757D068A4FE479D","title":"上南中学","lon":"121.50254","lat":"31.17541","category":"55","category_name":"中学","address":"上海浦东新区昌里路93弄1号  "},{"poiid":"B2094654DA69A3FA439E","title":"世纪联华(成山路)","lon":"121.50702","lat":"31.17208","category":"118","category_name":"超级市场","address":"浦东新区成山路480号(近云台路)"},{"poiid":"B2094757D16FA7FD489E","title":"浦东新区周家渡地段医院","lon":"121.508960738","lat":"31.1768931643","category":"162","category_name":"医院","address":"上海浦东新"},{"poiid":"B2094654DA6AA2F8409E","title":"云台二小区","lon":"121.50871","lat":"31.1753","category":"47","category_name":"住宅区","address":"昌里东路190弄1-36号"},{"poiid":"B2094655D26BA4FC4598","title":"格林豪泰酒店上海成山路店","lon":"121.50828","lat":"31.17208","category":"216","category_name":"经济型连锁酒店","address":"浦东新区成山路558-1号(东明路口)"},{"poiid":"B2094750D56FAAFD449D","title":"DQ冰雪皇后(浦东商场店)","lon":"121.507","lat":"31.1719","category":"113","category_name":"冷饮店","address":"浦东新区成山路500号浦东商场1楼(近云台路)"},{"poiid":"B2094757D068A0F8419F","title":"避风塘茶楼(昌里店)","lon":"121.50165","lat":"31.17536","category":"260","category_name":"其他","address":"浦东新区昌里路107号(近洪山路)"},{"poiid":"B2094757D06BA7FD4298","title":"活力无限运动健身中心","lon":"121.506453","lat":"31.176359","category":"148","category_name":"美容美发店","address":"浦东新区昌里东路117号(近云莲路)"},{"poiid":"B2094757D069A3F84798","title":"四海游龙(成山路店)","lon":"121.50565","lat":"31.17149","category":"257","category_name":"中餐厅","address":"浦东新区成山路411号(云台路口)"},{"poiid":"B2094654DA6AA2F84598","title":"云台一小区","lon":"121.50602","lat":"31.17509","category":"47","category_name":"住宅区","address":"上海浦东新区昌里东路80弄"},{"poiid":"B2094654DA6AA2F8449A","title":"颐品居(成山路)","lon":"121.50611","lat":"31.17247","category":"86","category_name":"火锅店","address":"浦东新区成山路439号(近云台路)"},{"poiid":"B2094757D66BABF44592","title":"岳阳楼记 云台路店","lon":"121.50422487987","lat":"31.17461022881","category":"77","category_name":"湖南菜","address":"浦东新区云台路267号(近成山路)"},{"poiid":"B2094654DA68A0F8449E","title":"上南七村八村","lon":"121.50253","lat":"31.17364","category":"47","category_name":"住宅区","address":"洪山路237弄"},{"poiid":"B2094757D16CA7FF4693","title":"成山苑","lon":"121.50640779","lat":"31.174488421","category":"47","category_name":"住宅区","address":"上海成山路475弄"},{"poiid":"B2094654DB65A6F9429C","title":"避风塘 昌里店","lon":"121.500625054","lat":"31.175711793","category":"111","category_name":"休闲餐饮场所","address":"浦东新区昌里东路294号(近东明路)"},{"poiid":"B2094757D069A3FD4893","title":"云台路花鸟市场","lon":"121.50487","lat":"31.17323","category":"249","category_name":"购物服务","address":"浦东新区云台路260号(近成山路)"},{"poiid":"B2094654DA6AA2F8419E","title":"新亚大包 昌里店","lon":"121.509641054","lat":"31.175951793","category":"68","category_name":"快餐厅","address":"浦东新区东明路1096号(昌里东路口)"},{"poiid":"B2094757DA6EAAF94599","title":"顶鲜汤包(昌里路店)","lon":"121.505088000003","lat":"31.1759399999999","category":"68","category_name":"快餐厅","address":"浦东新区昌里东路38号(近云台路)"},{"poiid":"B2094654DA6AA2F8459A","title":"上钢新村幼儿园海贝园","lon":"121.50534","lat":"31.17483","category":"57","category_name":"幼儿园","address":"昌里东路80弄62号"},{"poiid":"B2094750D665A0F4409F","title":"千岛湖老淳野生鱼庄","lon":"121.506","lat":"31.1725","category":"87","category_name":"特色／地方风味餐厅","address":"浦东新区成山路419号(近云台路)"},{"poiid":"B2094757D465A4FC4699","title":"重庆鸡公煲 成山店","lon":"121.505971054","lat":"31.172516793","category":"71","category_name":"四川菜","address":"浦东新区成山路423号(近云台路)"},{"poiid":"B2094757D064A6FB449B","title":"旺佳宠物诊所","lon":"121.50292214","lat":"31.172073596","category":"668","category_name":"诊所","address":"上海市浦东新区成山路365号"},{"poiid":"B2094757D069A1FB4393","title":"周家渡派出所","lon":"121.50838473","lat":"31.176638158","category":"609","category_name":"警察局","address":"昌里东路185号-1"},{"poiid":"B2094654DB64A4F44792","title":"周家渡街道社区文化广场","lon":"121.50585","lat":"31.17404","category":"201","category_name":"城市广场","address":"昌里东路80弄61号"},{"poiid":"B2094654DB6BABF54793","title":"上岛咖啡 成山路店 UBC Coffee","lon":"121.504735054","lat":"31.172151793","category":"260","category_name":"其他","address":"浦东新区成山路436号2楼(近云台路)"},{"poiid":"B2094654DB6BABF84699","title":"上海市浦东新区新世界实验小学","lon":"121.50418","lat":"31.17506","category":"56","category_name":"小学","address":"浦东新区云台路230号(昌里东路昌里路)"},{"poiid":"B2094654DA6AA2F8449D","title":"云台小学","lon":"121.50688","lat":"31.17463","category":"56","category_name":"小学","address":"浦东新区昌里东路80弄(昌里东路云莲路)"},{"poiid":"B2094654DA6AA2FF4199","title":"秦记汤包昌里店","lon":"121.50511","lat":"31.17582","category":"257","category_name":"中餐厅","address":"昌里东路38"},{"poiid":"B2094655D36CA5FA419A","title":"昌里路云台路","lon":"121.50365","lat":"31.17576","category":"38","category_name":"公交车站","address":""},{"poiid":"B2094655D36CA5FA419F","title":"昌里东路云台路","lon":"121.50507","lat":"31.17598","category":"38","category_name":"公交车站","address":""},{"poiid":"B2094757D06BA5F9449C","title":"雷格斯(Regus)上海永银大厦","lon":"121.50763773","lat":"31.174601115","category":"46","category_name":"楼宇","address":"上海卢湾区桃源路85号 永银大厦3楼 200021"},{"poiid":"B2094757D069A0F5459E","title":"上南七村","lon":"121.50276","lat":"31.174721","category":"500","category_name":"未知分类","address":"上海昌里路洪山路"},{"poiid":"B2094655D36CA5FA419B","title":"昌里路云莲路","lon":"121.50729","lat":"31.17635","category":"38","category_name":"公交车站","address":""},{"poiid":"B2094655D36CA5FE4993","title":"成山路云台路","lon":"121.506","lat":"31.17236","category":"38","category_name":"公交车站","address":""},{"poiid":"B2094757D16DA4FD489F","title":"浦东新世界实验小学","lon":"121.50419673","lat":"31.175625137","category":"500","category_name":"未知分类","address":"上海市浦东新区云台路230号"},{"poiid":"B2094655D26FAAF94699","title":"浦东交警支队事故科东明事故受理点","lon":"121.50996","lat":"31.1744","category":"250","category_name":"公园户外","address":""},{"poiid":"B2094757D665A0F4409A","title":"湘楚情 成山路店","lon":"121.503844054","lat":"31.172706793","category":"77","category_name":"湖南菜","address":"浦东新区成山路429号(近云台路)"},{"poiid":"B2094757D065ABFE479B","title":"家得利超市(昌里店)","lon":"121.50717","lat":"31.17604","category":"118","category_name":"超级市场","address":"浦东新区昌里东路119号(近云莲路)"},{"poiid":"B2094757D06AA0FB4298","title":"上南六村","lon":"121.50181","lat":"31.176195","category":"500","category_name":"未知分类","address":"上海浦东齐河路28弄齐河路10弄,洪山路164号"}]