[{"poiid":"B2094757D06EAAFB499E","title":"宜山路地铁站","lon":"121.427427","lat":"31.186073","category":"36","category_name":"地铁站","address":"上海轨道交通 三号线 四号线 九号线 轨交宜山路站 轻轨 3 4 9"},{"poiid":"B2094750DB65AAF44098","title":"锅源","lon":"121.4282","lat":"31.18523","category":"268","category_name":"自助","address":"徐汇区宜山路425号光启城购物中心4楼(近中山西路)"},{"poiid":"B2094750D76CA3F94498","title":"57℃湘(光启城店)","lon":"121.428","lat":"31.184","category":"77","category_name":"湖南菜","address":"徐汇区宜山路455号光启城时尚购物中心4楼(近中山西路)"},{"poiid":"B2094757D06FA4FB439B","title":"上海商学院(徐汇校区)","lon":"121.429358","lat":"31.182399","category":"671","category_name":"高校中心点","address":"徐汇区中山西路2271号(近宜家家居)"},{"poiid":"B2094750D76FAAFC4793","title":"哈根达斯(光启城店)","lon":"121.428","lat":"31.184","category":"113","category_name":"冷饮店","address":"徐汇区宜山路455号光启城内(近凯进路)"},{"poiid":"B2094750D76FA0FA459D","title":"居食屋和民(光启城店)","lon":"121.42604","lat":"31.1816","category":"95","category_name":"日本料理","address":"徐汇区宜山路455号光启城购物中心4楼"},{"poiid":"B2094757D06AAAF8499D","title":"榕港海鲜大酒楼(徐汇店)","lon":"121.428776309","lat":"31.1860026055","category":"88","category_name":"海鲜酒楼","address":"徐汇区凯旋路2588号(近3号线宜山路站)"},{"poiid":"B2094750D565A1FF479C","title":"银乐迪（光启城）","lon":"121.427352","lat":"31.183515","category":"248","category_name":"生活娱乐","address":"宜山路455号"},{"poiid":"B2094750D76EA6FB4193","title":"旺池(光启城店)","lon":"121.428","lat":"31.184","category":"71","category_name":"四川菜","address":"徐汇区宜山路425号光启城时尚购物中心4楼(近中山西路)"},{"poiid":"B2094750D768A1FA4798","title":"香港狮子山下(光启城店)","lon":"121.428","lat":"31.1852","category":"72","category_name":"广东菜","address":"徐汇区宜山路425号光启城购物中心5楼"},{"poiid":"B2094750D268A3F8429F","title":"重庆小天鹅","lon":"121.428588","lat":"31.184179","category":"247","category_name":"餐饮美食","address":"徐汇区宜山路455号光启城时尚购物中心5楼(近凯旋路)"},{"poiid":"B2094750DA6DABF9439F","title":"避风塘（光启城店）","lon":"121.428039","lat":"31.184455","category":"72","category_name":"广东菜","address":"徐汇区宜山路455号光启城4楼(近中山西路)"},{"poiid":"B2094757DB69A1FB439E","title":"陈记堂食铺","lon":"121.4283297","lat":"31.1860324","category":"67","category_name":"甜品店","address":"徐汇区宜山路425号光启城时尚购物中心B1楼78号铺(近凯进路)"},{"poiid":"B2094757D068A3FB409B","title":"文定生活广场","lon":"121.431322829","lat":"31.185167802","category":"123","category_name":"家具建材市场","address":"徐汇区文定路204号(近凯旋路)"},{"poiid":"B2094655D268A3FB499A","title":"汇鑫国际","lon":"121.43058","lat":"31.18747","category":"47","category_name":"住宅区","address":"上海市徐汇区宜山路333号"},{"poiid":"B2094757D069A0F9419B","title":"Giorgios Cafe 'N'  Bar","lon":"121.43115533","lat":"31.184498071","category":"94","category_name":"西餐厅","address":"徐汇区文定路204号文定生活广场内(近凯旋路)"},{"poiid":"B2094750D76EA7F54793","title":"吾米粥海鲜火锅(光启城店)","lon":"121.428","lat":"31.184","category":"86","category_name":"火锅店","address":"徐汇区宜山路455号光启城时尚购物中心4楼426铺(近中山西路)"},{"poiid":"B2094750D665A2F8469F","title":"胡椒厨房","lon":"121.428","lat":"31.184","category":"94","category_name":"西餐厅","address":"徐汇区宜山路455号光启城时尚购物中心5楼(近中山西路)"},{"poiid":"B2094757D06FABF54093","title":"东北农家小院","lon":"121.429811","lat":"31.181968","category":"82","category_name":"东北菜","address":"徐汇区中山西路2331号(近宜山路)"},{"poiid":"B2094750D664A1FD469D","title":"villa&hutkafe(光启城店)","lon":"121.428","lat":"31.1852","category":"269","category_name":"烧烤","address":"宜山路425号光启城购物中心1楼"},{"poiid":"B2094757D06FA6FA419E","title":"台北101桌球馆","lon":"121.43274","lat":"31.18626","category":"171","category_name":"台球厅","address":"徐汇区文定路218号5楼(近蒲汇塘路)"},{"poiid":"B2094750D268A0FC489F","title":"品尚豆捞","lon":"121.429969","lat":"31.183994","category":"86","category_name":"火锅店","address":"徐汇区宜山路425号光启城购物中心5楼"},{"poiid":"B2094655D26FA6FA4092","title":"田林十四村","lon":"121.43","lat":"31.182","category":"47","category_name":"住宅区","address":"田林十四村"},{"poiid":"B2094757D06FA6F5429F","title":"家饰佳","lon":"121.42721","lat":"31.18364","category":"123","category_name":"家具建材市场","address":"徐汇区宜山路450号(近中山西路)"},{"poiid":"B2094750D76EA4F9459E","title":"味千拉面(光启城店)","lon":"121.428","lat":"31.184","category":"95","category_name":"日本料理","address":"徐汇区宜山路455号光启城时尚购物中心B2楼(近中山西路)"},{"poiid":"B2094750D76FA6F54199","title":"佳家汤包(光启城店)","lon":"121.428","lat":"31.1852","category":"68","category_name":"快餐厅","address":"徐汇区宜山路425号光启城时尚购物中心B2楼(近凯进路)"},{"poiid":"B2094750D76EA6F54898","title":"小杨生煎(光启城店)","lon":"121.42604","lat":"31.1816","category":"68","category_name":"快餐厅","address":"徐汇区宜山路455号光启城时尚购物中心B2楼(近地铁9号线宜山路站)"},{"poiid":"B2094757D06BA0FF4098","title":"东方既白(宜山路店)","lon":"121.427835103","lat":"31.1862249466","category":"68","category_name":"快餐厅","address":"上海徐汇区宜山路轨道交通3、4号线地铁站(肯德基旁边)"},{"poiid":"B2094751D36EA1F54799","title":"小山城麻辣香锅(光启城店)","lon":"121.42832","lat":"31.18603","category":"71","category_name":"四川菜","address":"徐汇区宜山路425号光启城B2楼(近中山西路)"},{"poiid":"B2094750D76EAAF9469F","title":"呷哺呷哺(光启城店)","lon":"121.428","lat":"31.1852","category":"86","category_name":"火锅店","address":"徐汇区宜山路425号光启城时尚购物中心B2楼81号商铺(近地铁9号线宜山路站)"},{"poiid":"B2094654DA6CABFA4299","title":"文定天下苑","lon":"121.43065","lat":"31.184736","category":"47","category_name":"住宅区","address":"文定路288弄1-8号"},{"poiid":"B2094757D168A3F4499B","title":"乐伴湾KTV","lon":"121.430836586","lat":"31.1839145256","category":"170","category_name":"KTV","address":"上海宜山路凯旋路"},{"poiid":"B2094757D064ABF84893","title":"纽宾凯国际酒店","lon":"121.431897","lat":"31.184538","category":"217","category_name":"旅馆招待所","address":"上海文定路219号"},{"poiid":"B2094750D664A0F54793","title":"麦当劳(光启城店)","lon":"121.428","lat":"31.1852","category":"68","category_name":"快餐厅","address":"徐汇区宜山路425号光启城购物中心B2楼(近中山西路)"},{"poiid":"B2094757DA6EA4FB429E","title":"乐伴湾量贩式KTV(凯旋路店)","lon":"121.429708","lat":"31.1848689999999","category":"170","category_name":"KTV","address":"徐汇区凯旋路2588号兴力达装饰城5楼(近宜山路地铁站)"},{"poiid":"B2094750D665A6FC4799","title":"金古镇汤圆","lon":"121.42604","lat":"31.1816","category":"68","category_name":"快餐厅","address":"徐汇区宜山路455号光启城时尚购物中心B1楼82号商铺(近凯进路)"},{"poiid":"B2094757DB68AAFA479B","title":"禾绿回转寿司 光启城","lon":"121.4283297","lat":"31.1860324","category":"95","category_name":"日本料理","address":"徐汇区宜山路425号光启城购物中心5楼"},{"poiid":"B2094654DB6BA5FF459C","title":"肯德基(宜山店)","lon":"121.42774","lat":"31.18617","category":"68","category_name":"快餐厅","address":"徐汇区宜山路586号(近钦州路)"},{"poiid":"B2094757DB6FA7F44492","title":"萨莉亚","lon":"121.4282","lat":"31.18523","category":"94","category_name":"西餐厅","address":"徐汇区宜山路425号光启城购物中心5楼"},{"poiid":"B2094750D76DABFD459B","title":"家味螺蛳粉(凯旋路店)","lon":"121.429","lat":"31.1853","category":"68","category_name":"快餐厅","address":"徐汇区凯旋路2588号兴力达装饰城6楼(近宜山路地铁站)"},{"poiid":"B2094654DA6CAAFF4598","title":"博洛尼·家居体验馆","lon":"121.42959","lat":"31.18533","category":"123","category_name":"家具建材市场","address":""},{"poiid":"B2094750D76FA0FF429F","title":"澳门粥面庄","lon":"121.428","lat":"31.1852","category":"72","category_name":"广东菜","address":"宜山路425号光启城购物中心B2楼(近中山西路)"},{"poiid":"B2094654DB65A4FD4492","title":"兴力达装饰家具城","lon":"121.42973","lat":"31.18483","category":"123","category_name":"家具建材市场","address":"凯旋路2588号"},{"poiid":"B2094757DB69A2F4459F","title":"大力夯咖喱(光启城店)","lon":"121.42949763633851","lat":"31.18424580987956","category":"111","category_name":"休闲餐饮场所","address":"徐汇区凯进路259号5楼516室"},{"poiid":"B2094757D069A2FD459A","title":"徐汇晶典大厦","lon":"121.43014526","lat":"31.181966781","category":"46","category_name":"楼宇","address":"上海中山西路2281号"},{"poiid":"B2094654DA6CAAF4409A","title":"七建大厦","lon":"121.42758","lat":"31.18392","category":"46","category_name":"楼宇","address":"北一环与亳州路交叉口(庐阳区政府对面)"},{"poiid":"B2094655D264A0FE459C","title":"文定天下","lon":"121.43066","lat":"31.18473","category":"47","category_name":"住宅区","address":"上海市长宁区延安西路1235弄"},{"poiid":"B209475CD06BA5FA4593","title":"陈记甜品窝 光启城店","lon":"121.42874","lat":"31.18419","category":"67","category_name":"甜品店","address":"宜山路425号光启城时尚购物中心B1楼78号铺(近凯进路)"},{"poiid":"B2094751D56DA0FE4192","title":"芋贵人甜品店(光启城店)","lon":"121.42759","lat":"31.18395","category":"67","category_name":"甜品店","address":"徐汇区宜山路455号光启城B2楼33-34室"},{"poiid":"B2094750D26EAAFE4098","title":"和米堂 光启城店","lon":"121.4283297","lat":"31.1860324","category":"95","category_name":"日本料理","address":"徐汇区宜山路425号光启城B2东京街54号铺(近中山西路)"},{"poiid":"B2094757D06EAAFB499E","title":"宜山路地铁站","lon":"121.427427","lat":"31.186073","category":"36","category_name":"地铁站","address":"上海轨道交通 三号线 四号线 九号线 轨交宜山路站 轻轨 3 4 9"},{"poiid":"B2094750DB65AAF44098","title":"锅源","lon":"121.4282","lat":"31.18523","category":"268","category_name":"自助","address":"徐汇区宜山路425号光启城购物中心4楼(近中山西路)"},{"poiid":"B2094750D76CA3F94498","title":"57℃湘(光启城店)","lon":"121.428","lat":"31.184","category":"77","category_name":"湖南菜","address":"徐汇区宜山路455号光启城时尚购物中心4楼(近中山西路)"},{"poiid":"B2094757D06FA4FB439B","title":"上海商学院(徐汇校区)","lon":"121.429358","lat":"31.182399","category":"671","category_name":"高校中心点","address":"徐汇区中山西路2271号(近宜家家居)"},{"poiid":"B2094750D76FAAFC4793","title":"哈根达斯(光启城店)","lon":"121.428","lat":"31.184","category":"113","category_name":"冷饮店","address":"徐汇区宜山路455号光启城内(近凯进路)"},{"poiid":"B2094750D76FA0FA459D","title":"居食屋和民(光启城店)","lon":"121.42604","lat":"31.1816","category":"95","category_name":"日本料理","address":"徐汇区宜山路455号光启城购物中心4楼"},{"poiid":"B2094757D06AAAF8499D","title":"榕港海鲜大酒楼(徐汇店)","lon":"121.428776309","lat":"31.1860026055","category":"88","category_name":"海鲜酒楼","address":"徐汇区凯旋路2588号(近3号线宜山路站)"},{"poiid":"B2094750D565A1FF479C","title":"银乐迪（光启城）","lon":"121.427352","lat":"31.183515","category":"248","category_name":"生活娱乐","address":"宜山路455号"},{"poiid":"B2094750D76EA6FB4193","title":"旺池(光启城店)","lon":"121.428","lat":"31.184","category":"71","category_name":"四川菜","address":"徐汇区宜山路425号光启城时尚购物中心4楼(近中山西路)"},{"poiid":"B2094750D768A1FA4798","title":"香港狮子山下(光启城店)","lon":"121.428","lat":"31.1852","category":"72","category_name":"广东菜","address":"徐汇区宜山路425号光启城购物中心5楼"},{"poiid":"B2094750D268A3F8429F","title":"重庆小天鹅","lon":"121.428588","lat":"31.184179","category":"247","category_name":"餐饮美食","address":"徐汇区宜山路455号光启城时尚购物中心5楼(近凯旋路)"},{"poiid":"B2094750DA6DABF9439F","title":"避风塘（光启城店）","lon":"121.428039","lat":"31.184455","category":"72","category_name":"广东菜","address":"徐汇区宜山路455号光启城4楼(近中山西路)"},{"poiid":"B2094757DB69A1FB439E","title":"陈记堂食铺","lon":"121.4283297","lat":"31.1860324","category":"67","category_name":"甜品店","address":"徐汇区宜山路425号光启城时尚购物中心B1楼78号铺(近凯进路)"},{"poiid":"B2094757D068A3FB409B","title":"文定生活广场","lon":"121.431322829","lat":"31.185167802","category":"123","category_name":"家具建材市场","address":"徐汇区文定路204号(近凯旋路)"},{"poiid":"B2094655D268A3FB499A","title":"汇鑫国际","lon":"121.43058","lat":"31.18747","category":"47","category_name":"住宅区","address":"上海市徐汇区宜山路333号"},{"poiid":"B2094757D069A0F9419B","title":"Giorgios Cafe 'N'  Bar","lon":"121.43115533","lat":"31.184498071","category":"94","category_name":"西餐厅","address":"徐汇区文定路204号文定生活广场内(近凯旋路)"},{"poiid":"B2094750D76EA7F54793","title":"吾米粥海鲜火锅(光启城店)","lon":"121.428","lat":"31.184","category":"86","category_name":"火锅店","address":"徐汇区宜山路455号光启城时尚购物中心4楼426铺(近中山西路)"},{"poiid":"B2094750D665A2F8469F","title":"胡椒厨房","lon":"121.428","lat":"31.184","category":"94","category_name":"西餐厅","address":"徐汇区宜山路455号光启城时尚购物中心5楼(近中山西路)"},{"poiid":"B2094757D06FABF54093","title":"东北农家小院","lon":"121.429811","lat":"31.181968","category":"82","category_name":"东北菜","address":"徐汇区中山西路2331号(近宜山路)"},{"poiid":"B2094750D664A1FD469D","title":"villa&hutkafe(光启城店)","lon":"121.428","lat":"31.1852","category":"269","category_name":"烧烤","address":"宜山路425号光启城购物中心1楼"},{"poiid":"B2094757D06FA6FA419E","title":"台北101桌球馆","lon":"121.43274","lat":"31.18626","category":"171","category_name":"台球厅","address":"徐汇区文定路218号5楼(近蒲汇塘路)"},{"poiid":"B2094750D268A0FC489F","title":"品尚豆捞","lon":"121.429969","lat":"31.183994","category":"86","category_name":"火锅店","address":"徐汇区宜山路425号光启城购物中心5楼"},{"poiid":"B2094655D26FA6FA4092","title":"田林十四村","lon":"121.43","lat":"31.182","category":"47","category_name":"住宅区","address":"田林十四村"},{"poiid":"B2094757D06FA6F5429F","title":"家饰佳","lon":"121.42721","lat":"31.18364","category":"123","category_name":"家具建材市场","address":"徐汇区宜山路450号(近中山西路)"},{"poiid":"B2094750D76EA4F9459E","title":"味千拉面(光启城店)","lon":"121.428","lat":"31.184","category":"95","category_name":"日本料理","address":"徐汇区宜山路455号光启城时尚购物中心B2楼(近中山西路)"},{"poiid":"B2094750D76FA6F54199","title":"佳家汤包(光启城店)","lon":"121.428","lat":"31.1852","category":"68","category_name":"快餐厅","address":"徐汇区宜山路425号光启城时尚购物中心B2楼(近凯进路)"},{"poiid":"B2094750D76EA6F54898","title":"小杨生煎(光启城店)","lon":"121.42604","lat":"31.1816","category":"68","category_name":"快餐厅","address":"徐汇区宜山路455号光启城时尚购物中心B2楼(近地铁9号线宜山路站)"},{"poiid":"B2094757D06BA0FF4098","title":"东方既白(宜山路店)","lon":"121.427835103","lat":"31.1862249466","category":"68","category_name":"快餐厅","address":"上海徐汇区宜山路轨道交通3、4号线地铁站(肯德基旁边)"},{"poiid":"B2094751D36EA1F54799","title":"小山城麻辣香锅(光启城店)","lon":"121.42832","lat":"31.18603","category":"71","category_name":"四川菜","address":"徐汇区宜山路425号光启城B2楼(近中山西路)"},{"poiid":"B2094750D76EAAF9469F","title":"呷哺呷哺(光启城店)","lon":"121.428","lat":"31.1852","category":"86","category_name":"火锅店","address":"徐汇区宜山路425号光启城时尚购物中心B2楼81号商铺(近地铁9号线宜山路站)"},{"poiid":"B2094654DA6CABFA4299","title":"文定天下苑","lon":"121.43065","lat":"31.184736","category":"47","category_name":"住宅区","address":"文定路288弄1-8号"},{"poiid":"B2094757D168A3F4499B","title":"乐伴湾KTV","lon":"121.430836586","lat":"31.1839145256","category":"170","category_name":"KTV","address":"上海宜山路凯旋路"},{"poiid":"B2094757D064ABF84893","title":"纽宾凯国际酒店","lon":"121.431897","lat":"31.184538","category":"217","category_name":"旅馆招待所","address":"上海文定路219号"},{"poiid":"B2094750D664A0F54793","title":"麦当劳(光启城店)","lon":"121.428","lat":"31.1852","category":"68","category_name":"快餐厅","address":"徐汇区宜山路425号光启城购物中心B2楼(近中山西路)"},{"poiid":"B2094757DA6EA4FB429E","title":"乐伴湾量贩式KTV(凯旋路店)","lon":"121.429708","lat":"31.1848689999999","category":"170","category_name":"KTV","address":"徐汇区凯旋路2588号兴力达装饰城5楼(近宜山路地铁站)"},{"poiid":"B2094750D665A6FC4799","title":"金古镇汤圆","lon":"121.42604","lat":"31.1816","category":"68","category_name":"快餐厅","address":"徐汇区宜山路455号光启城时尚购物中心B1楼82号商铺(近凯进路)"},{"poiid":"B2094757DB68AAFA479B","title":"禾绿回转寿司 光启城","lon":"121.4283297","lat":"31.1860324","category":"95","category_name":"日本料理","address":"徐汇区宜山路425号光启城购物中心5楼"},{"poiid":"B2094654DB6BA5FF459C","title":"肯德基(宜山店)","lon":"121.42774","lat":"31.18617","category":"68","category_name":"快餐厅","address":"徐汇区宜山路586号(近钦州路)"},{"poiid":"B2094757DB6FA7F44492","title":"萨莉亚","lon":"121.4282","lat":"31.18523","category":"94","category_name":"西餐厅","address":"徐汇区宜山路425号光启城购物中心5楼"},{"poiid":"B2094750D76DABFD459B","title":"家味螺蛳粉(凯旋路店)","lon":"121.429","lat":"31.1853","category":"68","category_name":"快餐厅","address":"徐汇区凯旋路2588号兴力达装饰城6楼(近宜山路地铁站)"},{"poiid":"B2094654DA6CAAFF4598","title":"博洛尼·家居体验馆","lon":"121.42959","lat":"31.18533","category":"123","category_name":"家具建材市场","address":""},{"poiid":"B2094750D76FA0FF429F","title":"澳门粥面庄","lon":"121.428","lat":"31.1852","category":"72","category_name":"广东菜","address":"宜山路425号光启城购物中心B2楼(近中山西路)"},{"poiid":"B2094654DB65A4FD4492","title":"兴力达装饰家具城","lon":"121.42973","lat":"31.18483","category":"123","category_name":"家具建材市场","address":"凯旋路2588号"},{"poiid":"B2094757DB69A2F4459F","title":"大力夯咖喱(光启城店)","lon":"121.42949763633851","lat":"31.18424580987956","category":"111","category_name":"休闲餐饮场所","address":"徐汇区凯进路259号5楼516室"},{"poiid":"B2094757D069A2FD459A","title":"徐汇晶典大厦","lon":"121.43014526","lat":"31.181966781","category":"46","category_name":"楼宇","address":"上海中山西路2281号"},{"poiid":"B2094654DA6CAAF4409A","title":"七建大厦","lon":"121.42758","lat":"31.18392","category":"46","category_name":"楼宇","address":"北一环与亳州路交叉口(庐阳区政府对面)"},{"poiid":"B2094655D264A0FE459C","title":"文定天下","lon":"121.43066","lat":"31.18473","category":"47","category_name":"住宅区","address":"上海市长宁区延安西路1235弄"},{"poiid":"B209475CD06BA5FA4593","title":"陈记甜品窝 光启城店","lon":"121.42874","lat":"31.18419","category":"67","category_name":"甜品店","address":"宜山路425号光启城时尚购物中心B1楼78号铺(近凯进路)"},{"poiid":"B2094751D56DA0FE4192","title":"芋贵人甜品店(光启城店)","lon":"121.42759","lat":"31.18395","category":"67","category_name":"甜品店","address":"徐汇区宜山路455号光启城B2楼33-34室"},{"poiid":"B2094750D26EAAFE4098","title":"和米堂 光启城店","lon":"121.4283297","lat":"31.1860324","category":"95","category_name":"日本料理","address":"徐汇区宜山路425号光启城B2东京街54号铺(近中山西路)"},{"poiid":"B2094757D06EAAFB499E","title":"宜山路地铁站","lon":"121.427427","lat":"31.186073","category":"36","category_name":"地铁站","address":"上海轨道交通 三号线 四号线 九号线 轨交宜山路站 轻轨 3 4 9"},{"poiid":"B2094750DB65AAF44098","title":"锅源","lon":"121.4282","lat":"31.18523","category":"268","category_name":"自助","address":"徐汇区宜山路425号光启城购物中心4楼(近中山西路)"},{"poiid":"B2094750D76CA3F94498","title":"57℃湘(光启城店)","lon":"121.428","lat":"31.184","category":"77","category_name":"湖南菜","address":"徐汇区宜山路455号光启城时尚购物中心4楼(近中山西路)"},{"poiid":"B2094757D06FA4FB439B","title":"上海商学院(徐汇校区)","lon":"121.429358","lat":"31.182399","category":"671","category_name":"高校中心点","address":"徐汇区中山西路2271号(近宜家家居)"},{"poiid":"B2094750D76FAAFC4793","title":"哈根达斯(光启城店)","lon":"121.428","lat":"31.184","category":"113","category_name":"冷饮店","address":"徐汇区宜山路455号光启城内(近凯进路)"},{"poiid":"B2094750D76FA0FA459D","title":"居食屋和民(光启城店)","lon":"121.42604","lat":"31.1816","category":"95","category_name":"日本料理","address":"徐汇区宜山路455号光启城购物中心4楼"},{"poiid":"B2094757D06AAAF8499D","title":"榕港海鲜大酒楼(徐汇店)","lon":"121.428776309","lat":"31.1860026055","category":"88","category_name":"海鲜酒楼","address":"徐汇区凯旋路2588号(近3号线宜山路站)"},{"poiid":"B2094750D565A1FF479C","title":"银乐迪（光启城）","lon":"121.427352","lat":"31.183515","category":"248","category_name":"生活娱乐","address":"宜山路455号"},{"poiid":"B2094750D76EA6FB4193","title":"旺池(光启城店)","lon":"121.428","lat":"31.184","category":"71","category_name":"四川菜","address":"徐汇区宜山路425号光启城时尚购物中心4楼(近中山西路)"},{"poiid":"B2094750D768A1FA4798","title":"香港狮子山下(光启城店)","lon":"121.428","lat":"31.1852","category":"72","category_name":"广东菜","address":"徐汇区宜山路425号光启城购物中心5楼"},{"poiid":"B2094750D268A3F8429F","title":"重庆小天鹅","lon":"121.428588","lat":"31.184179","category":"247","category_name":"餐饮美食","address":"徐汇区宜山路455号光启城时尚购物中心5楼(近凯旋路)"},{"poiid":"B2094750DA6DABF9439F","title":"避风塘（光启城店）","lon":"121.428039","lat":"31.184455","category":"72","category_name":"广东菜","address":"徐汇区宜山路455号光启城4楼(近中山西路)"},{"poiid":"B2094757DB69A1FB439E","title":"陈记堂食铺","lon":"121.4283297","lat":"31.1860324","category":"67","category_name":"甜品店","address":"徐汇区宜山路425号光启城时尚购物中心B1楼78号铺(近凯进路)"},{"poiid":"B2094757D068A3FB409B","title":"文定生活广场","lon":"121.431322829","lat":"31.185167802","category":"123","category_name":"家具建材市场","address":"徐汇区文定路204号(近凯旋路)"},{"poiid":"B2094655D268A3FB499A","title":"汇鑫国际","lon":"121.43058","lat":"31.18747","category":"47","category_name":"住宅区","address":"上海市徐汇区宜山路333号"},{"poiid":"B2094757D069A0F9419B","title":"Giorgios Cafe 'N'  Bar","lon":"121.43115533","lat":"31.184498071","category":"94","category_name":"西餐厅","address":"徐汇区文定路204号文定生活广场内(近凯旋路)"},{"poiid":"B2094750D76EA7F54793","title":"吾米粥海鲜火锅(光启城店)","lon":"121.428","lat":"31.184","category":"86","category_name":"火锅店","address":"徐汇区宜山路455号光启城时尚购物中心4楼426铺(近中山西路)"},{"poiid":"B2094750D665A2F8469F","title":"胡椒厨房","lon":"121.428","lat":"31.184","category":"94","category_name":"西餐厅","address":"徐汇区宜山路455号光启城时尚购物中心5楼(近中山西路)"},{"poiid":"B2094757D06FABF54093","title":"东北农家小院","lon":"121.429811","lat":"31.181968","category":"82","category_name":"东北菜","address":"徐汇区中山西路2331号(近宜山路)"},{"poiid":"B2094750D664A1FD469D","title":"villa&hutkafe(光启城店)","lon":"121.428","lat":"31.1852","category":"269","category_name":"烧烤","address":"宜山路425号光启城购物中心1楼"},{"poiid":"B2094757D06FA6FA419E","title":"台北101桌球馆","lon":"121.43274","lat":"31.18626","category":"171","category_name":"台球厅","address":"徐汇区文定路218号5楼(近蒲汇塘路)"},{"poiid":"B2094750D268A0FC489F","title":"品尚豆捞","lon":"121.429969","lat":"31.183994","category":"86","category_name":"火锅店","address":"徐汇区宜山路425号光启城购物中心5楼"},{"poiid":"B2094655D26FA6FA4092","title":"田林十四村","lon":"121.43","lat":"31.182","category":"47","category_name":"住宅区","address":"田林十四村"},{"poiid":"B2094757D06FA6F5429F","title":"家饰佳","lon":"121.42721","lat":"31.18364","category":"123","category_name":"家具建材市场","address":"徐汇区宜山路450号(近中山西路)"},{"poiid":"B2094750D76EA4F9459E","title":"味千拉面(光启城店)","lon":"121.428","lat":"31.184","category":"95","category_name":"日本料理","address":"徐汇区宜山路455号光启城时尚购物中心B2楼(近中山西路)"},{"poiid":"B2094750D76FA6F54199","title":"佳家汤包(光启城店)","lon":"121.428","lat":"31.1852","category":"68","category_name":"快餐厅","address":"徐汇区宜山路425号光启城时尚购物中心B2楼(近凯进路)"},{"poiid":"B2094750D76EA6F54898","title":"小杨生煎(光启城店)","lon":"121.42604","lat":"31.1816","category":"68","category_name":"快餐厅","address":"徐汇区宜山路455号光启城时尚购物中心B2楼(近地铁9号线宜山路站)"},{"poiid":"B2094757D06BA0FF4098","title":"东方既白(宜山路店)","lon":"121.427835103","lat":"31.1862249466","category":"68","category_name":"快餐厅","address":"上海徐汇区宜山路轨道交通3、4号线地铁站(肯德基旁边)"},{"poiid":"B2094751D36EA1F54799","title":"小山城麻辣香锅(光启城店)","lon":"121.42832","lat":"31.18603","category":"71","category_name":"四川菜","address":"徐汇区宜山路425号光启城B2楼(近中山西路)"},{"poiid":"B2094750D76EAAF9469F","title":"呷哺呷哺(光启城店)","lon":"121.428","lat":"31.1852","category":"86","category_name":"火锅店","address":"徐汇区宜山路425号光启城时尚购物中心B2楼81号商铺(近地铁9号线宜山路站)"},{"poiid":"B2094654DA6CABFA4299","title":"文定天下苑","lon":"121.43065","lat":"31.184736","category":"47","category_name":"住宅区","address":"文定路288弄1-8号"},{"poiid":"B2094757D168A3F4499B","title":"乐伴湾KTV","lon":"121.430836586","lat":"31.1839145256","category":"170","category_name":"KTV","address":"上海宜山路凯旋路"},{"poiid":"B2094757D064ABF84893","title":"纽宾凯国际酒店","lon":"121.431897","lat":"31.184538","category":"217","category_name":"旅馆招待所","address":"上海文定路219号"},{"poiid":"B2094750D664A0F54793","title":"麦当劳(光启城店)","lon":"121.428","lat":"31.1852","category":"68","category_name":"快餐厅","address":"徐汇区宜山路425号光启城购物中心B2楼(近中山西路)"},{"poiid":"B2094757DA6EA4FB429E","title":"乐伴湾量贩式KTV(凯旋路店)","lon":"121.429708","lat":"31.1848689999999","category":"170","category_name":"KTV","address":"徐汇区凯旋路2588号兴力达装饰城5楼(近宜山路地铁站)"},{"poiid":"B2094750D665A6FC4799","title":"金古镇汤圆","lon":"121.42604","lat":"31.1816","category":"68","category_name":"快餐厅","address":"徐汇区宜山路455号光启城时尚购物中心B1楼82号商铺(近凯进路)"},{"poiid":"B2094757DB68AAFA479B","title":"禾绿回转寿司 光启城","lon":"121.4283297","lat":"31.1860324","category":"95","category_name":"日本料理","address":"徐汇区宜山路425号光启城购物中心5楼"},{"poiid":"B2094654DB6BA5FF459C","title":"肯德基(宜山店)","lon":"121.42774","lat":"31.18617","category":"68","category_name":"快餐厅","address":"徐汇区宜山路586号(近钦州路)"},{"poiid":"B2094757DB6FA7F44492","title":"萨莉亚","lon":"121.4282","lat":"31.18523","category":"94","category_name":"西餐厅","address":"徐汇区宜山路425号光启城购物中心5楼"},{"poiid":"B2094750D76DABFD459B","title":"家味螺蛳粉(凯旋路店)","lon":"121.429","lat":"31.1853","category":"68","category_name":"快餐厅","address":"徐汇区凯旋路2588号兴力达装饰城6楼(近宜山路地铁站)"},{"poiid":"B2094654DA6CAAFF4598","title":"博洛尼·家居体验馆","lon":"121.42959","lat":"31.18533","category":"123","category_name":"家具建材市场","address":""},{"poiid":"B2094750D76FA0FF429F","title":"澳门粥面庄","lon":"121.428","lat":"31.1852","category":"72","category_name":"广东菜","address":"宜山路425号光启城购物中心B2楼(近中山西路)"},{"poiid":"B2094654DB65A4FD4492","title":"兴力达装饰家具城","lon":"121.42973","lat":"31.18483","category":"123","category_name":"家具建材市场","address":"凯旋路2588号"},{"poiid":"B2094757DB69A2F4459F","title":"大力夯咖喱(光启城店)","lon":"121.42949763633851","lat":"31.18424580987956","category":"111","category_name":"休闲餐饮场所","address":"徐汇区凯进路259号5楼516室"},{"poiid":"B2094757D069A2FD459A","title":"徐汇晶典大厦","lon":"121.43014526","lat":"31.181966781","category":"46","category_name":"楼宇","address":"上海中山西路2281号"},{"poiid":"B2094654DA6CAAF4409A","title":"七建大厦","lon":"121.42758","lat":"31.18392","category":"46","category_name":"楼宇","address":"北一环与亳州路交叉口(庐阳区政府对面)"},{"poiid":"B2094655D264A0FE459C","title":"文定天下","lon":"121.43066","lat":"31.18473","category":"47","category_name":"住宅区","address":"上海市长宁区延安西路1235弄"},{"poiid":"B209475CD06BA5FA4593","title":"陈记甜品窝 光启城店","lon":"121.42874","lat":"31.18419","category":"67","category_name":"甜品店","address":"宜山路425号光启城时尚购物中心B1楼78号铺(近凯进路)"},{"poiid":"B2094751D56DA0FE4192","title":"芋贵人甜品店(光启城店)","lon":"121.42759","lat":"31.18395","category":"67","category_name":"甜品店","address":"徐汇区宜山路455号光启城B2楼33-34室"},{"poiid":"B2094750D26EAAFE4098","title":"和米堂 光启城店","lon":"121.4283297","lat":"31.1860324","category":"95","category_name":"日本料理","address":"徐汇区宜山路425号光启城B2东京街54号铺(近中山西路)"},{"poiid":"B2094757D06EAAFB499E","title":"宜山路地铁站","lon":"121.427427","lat":"31.186073","category":"36","category_name":"地铁站","address":"上海轨道交通 三号线 四号线 九号线 轨交宜山路站 轻轨 3 4 9"},{"poiid":"B2094750DB65AAF44098","title":"锅源","lon":"121.4282","lat":"31.18523","category":"268","category_name":"自助","address":"徐汇区宜山路425号光启城购物中心4楼(近中山西路)"},{"poiid":"B2094750D76CA3F94498","title":"57℃湘(光启城店)","lon":"121.428","lat":"31.184","category":"77","category_name":"湖南菜","address":"徐汇区宜山路455号光启城时尚购物中心4楼(近中山西路)"},{"poiid":"B2094757D06FA4FB439B","title":"上海商学院(徐汇校区)","lon":"121.429358","lat":"31.182399","category":"671","category_name":"高校中心点","address":"徐汇区中山西路2271号(近宜家家居)"},{"poiid":"B2094750D76FAAFC4793","title":"哈根达斯(光启城店)","lon":"121.428","lat":"31.184","category":"113","category_name":"冷饮店","address":"徐汇区宜山路455号光启城内(近凯进路)"},{"poiid":"B2094750D76FA0FA459D","title":"居食屋和民(光启城店)","lon":"121.42604","lat":"31.1816","category":"95","category_name":"日本料理","address":"徐汇区宜山路455号光启城购物中心4楼"},{"poiid":"B2094757D06AAAF8499D","title":"榕港海鲜大酒楼(徐汇店)","lon":"121.428776309","lat":"31.1860026055","category":"88","category_name":"海鲜酒楼","address":"徐汇区凯旋路2588号(近3号线宜山路站)"},{"poiid":"B2094750D565A1FF479C","title":"银乐迪（光启城）","lon":"121.427352","lat":"31.183515","category":"248","category_name":"生活娱乐","address":"宜山路455号"},{"poiid":"B2094750D76EA6FB4193","title":"旺池(光启城店)","lon":"121.428","lat":"31.184","category":"71","category_name":"四川菜","address":"徐汇区宜山路425号光启城时尚购物中心4楼(近中山西路)"},{"poiid":"B2094750D768A1FA4798","title":"香港狮子山下(光启城店)","lon":"121.428","lat":"31.1852","category":"72","category_name":"广东菜","address":"徐汇区宜山路425号光启城购物中心5楼"},{"poiid":"B2094750D268A3F8429F","title":"重庆小天鹅","lon":"121.428588","lat":"31.184179","category":"247","category_name":"餐饮美食","address":"徐汇区宜山路455号光启城时尚购物中心5楼(近凯旋路)"},{"poiid":"B2094750DA6DABF9439F","title":"避风塘（光启城店）","lon":"121.428039","lat":"31.184455","category":"72","category_name":"广东菜","address":"徐汇区宜山路455号光启城4楼(近中山西路)"},{"poiid":"B2094757DB69A1FB439E","title":"陈记堂食铺","lon":"121.4283297","lat":"31.1860324","category":"67","category_name":"甜品店","address":"徐汇区宜山路425号光启城时尚购物中心B1楼78号铺(近凯进路)"},{"poiid":"B2094757D068A3FB409B","title":"文定生活广场","lon":"121.431322829","lat":"31.185167802","category":"123","category_name":"家具建材市场","address":"徐汇区文定路204号(近凯旋路)"},{"poiid":"B2094655D268A3FB499A","title":"汇鑫国际","lon":"121.43058","lat":"31.18747","category":"47","category_name":"住宅区","address":"上海市徐汇区宜山路333号"},{"poiid":"B2094757D069A0F9419B","title":"Giorgios Cafe 'N'  Bar","lon":"121.43115533","lat":"31.184498071","category":"94","category_name":"西餐厅","address":"徐汇区文定路204号文定生活广场内(近凯旋路)"},{"poiid":"B2094750D76EA7F54793","title":"吾米粥海鲜火锅(光启城店)","lon":"121.428","lat":"31.184","category":"86","category_name":"火锅店","address":"徐汇区宜山路455号光启城时尚购物中心4楼426铺(近中山西路)"},{"poiid":"B2094750D665A2F8469F","title":"胡椒厨房","lon":"121.428","lat":"31.184","category":"94","category_name":"西餐厅","address":"徐汇区宜山路455号光启城时尚购物中心5楼(近中山西路)"},{"poiid":"B2094757D06FABF54093","title":"东北农家小院","lon":"121.429811","lat":"31.181968","category":"82","category_name":"东北菜","address":"徐汇区中山西路2331号(近宜山路)"},{"poiid":"B2094750D664A1FD469D","title":"villa&hutkafe(光启城店)","lon":"121.428","lat":"31.1852","category":"269","category_name":"烧烤","address":"宜山路425号光启城购物中心1楼"},{"poiid":"B2094757D06FA6FA419E","title":"台北101桌球馆","lon":"121.43274","lat":"31.18626","category":"171","category_name":"台球厅","address":"徐汇区文定路218号5楼(近蒲汇塘路)"},{"poiid":"B2094750D268A0FC489F","title":"品尚豆捞","lon":"121.429969","lat":"31.183994","category":"86","category_name":"火锅店","address":"徐汇区宜山路425号光启城购物中心5楼"},{"poiid":"B2094655D26FA6FA4092","title":"田林十四村","lon":"121.43","lat":"31.182","category":"47","category_name":"住宅区","address":"田林十四村"},{"poiid":"B2094757D06FA6F5429F","title":"家饰佳","lon":"121.42721","lat":"31.18364","category":"123","category_name":"家具建材市场","address":"徐汇区宜山路450号(近中山西路)"},{"poiid":"B2094750D76EA4F9459E","title":"味千拉面(光启城店)","lon":"121.428","lat":"31.184","category":"95","category_name":"日本料理","address":"徐汇区宜山路455号光启城时尚购物中心B2楼(近中山西路)"},{"poiid":"B2094750D76FA6F54199","title":"佳家汤包(光启城店)","lon":"121.428","lat":"31.1852","category":"68","category_name":"快餐厅","address":"徐汇区宜山路425号光启城时尚购物中心B2楼(近凯进路)"},{"poiid":"B2094750D76EA6F54898","title":"小杨生煎(光启城店)","lon":"121.42604","lat":"31.1816","category":"68","category_name":"快餐厅","address":"徐汇区宜山路455号光启城时尚购物中心B2楼(近地铁9号线宜山路站)"},{"poiid":"B2094757D06BA0FF4098","title":"东方既白(宜山路店)","lon":"121.427835103","lat":"31.1862249466","category":"68","category_name":"快餐厅","address":"上海徐汇区宜山路轨道交通3、4号线地铁站(肯德基旁边)"},{"poiid":"B2094751D36EA1F54799","title":"小山城麻辣香锅(光启城店)","lon":"121.42832","lat":"31.18603","category":"71","category_name":"四川菜","address":"徐汇区宜山路425号光启城B2楼(近中山西路)"},{"poiid":"B2094750D76EAAF9469F","title":"呷哺呷哺(光启城店)","lon":"121.428","lat":"31.1852","category":"86","category_name":"火锅店","address":"徐汇区宜山路425号光启城时尚购物中心B2楼81号商铺(近地铁9号线宜山路站)"},{"poiid":"B2094654DA6CABFA4299","title":"文定天下苑","lon":"121.43065","lat":"31.184736","category":"47","category_name":"住宅区","address":"文定路288弄1-8号"},{"poiid":"B2094757D168A3F4499B","title":"乐伴湾KTV","lon":"121.430836586","lat":"31.1839145256","category":"170","category_name":"KTV","address":"上海宜山路凯旋路"},{"poiid":"B2094757D064ABF84893","title":"纽宾凯国际酒店","lon":"121.431897","lat":"31.184538","category":"217","category_name":"旅馆招待所","address":"上海文定路219号"},{"poiid":"B2094750D664A0F54793","title":"麦当劳(光启城店)","lon":"121.428","lat":"31.1852","category":"68","category_name":"快餐厅","address":"徐汇区宜山路425号光启城购物中心B2楼(近中山西路)"},{"poiid":"B2094757DA6EA4FB429E","title":"乐伴湾量贩式KTV(凯旋路店)","lon":"121.429708","lat":"31.1848689999999","category":"170","category_name":"KTV","address":"徐汇区凯旋路2588号兴力达装饰城5楼(近宜山路地铁站)"},{"poiid":"B2094750D665A6FC4799","title":"金古镇汤圆","lon":"121.42604","lat":"31.1816","category":"68","category_name":"快餐厅","address":"徐汇区宜山路455号光启城时尚购物中心B1楼82号商铺(近凯进路)"},{"poiid":"B2094757DB68AAFA479B","title":"禾绿回转寿司 光启城","lon":"121.4283297","lat":"31.1860324","category":"95","category_name":"日本料理","address":"徐汇区宜山路425号光启城购物中心5楼"},{"poiid":"B2094654DB6BA5FF459C","title":"肯德基(宜山店)","lon":"121.42774","lat":"31.18617","category":"68","category_name":"快餐厅","address":"徐汇区宜山路586号(近钦州路)"},{"poiid":"B2094757DB6FA7F44492","title":"萨莉亚","lon":"121.4282","lat":"31.18523","category":"94","category_name":"西餐厅","address":"徐汇区宜山路425号光启城购物中心5楼"},{"poiid":"B2094750D76DABFD459B","title":"家味螺蛳粉(凯旋路店)","lon":"121.429","lat":"31.1853","category":"68","category_name":"快餐厅","address":"徐汇区凯旋路2588号兴力达装饰城6楼(近宜山路地铁站)"},{"poiid":"B2094654DA6CAAFF4598","title":"博洛尼·家居体验馆","lon":"121.42959","lat":"31.18533","category":"123","category_name":"家具建材市场","address":""},{"poiid":"B2094750D76FA0FF429F","title":"澳门粥面庄","lon":"121.428","lat":"31.1852","category":"72","category_name":"广东菜","address":"宜山路425号光启城购物中心B2楼(近中山西路)"},{"poiid":"B2094654DB65A4FD4492","title":"兴力达装饰家具城","lon":"121.42973","lat":"31.18483","category":"123","category_name":"家具建材市场","address":"凯旋路2588号"},{"poiid":"B2094757DB69A2F4459F","title":"大力夯咖喱(光启城店)","lon":"121.42949763633851","lat":"31.18424580987956","category":"111","category_name":"休闲餐饮场所","address":"徐汇区凯进路259号5楼516室"},{"poiid":"B2094757D069A2FD459A","title":"徐汇晶典大厦","lon":"121.43014526","lat":"31.181966781","category":"46","category_name":"楼宇","address":"上海中山西路2281号"},{"poiid":"B2094654DA6CAAF4409A","title":"七建大厦","lon":"121.42758","lat":"31.18392","category":"46","category_name":"楼宇","address":"北一环与亳州路交叉口(庐阳区政府对面)"},{"poiid":"B2094655D264A0FE459C","title":"文定天下","lon":"121.43066","lat":"31.18473","category":"47","category_name":"住宅区","address":"上海市长宁区延安西路1235弄"},{"poiid":"B209475CD06BA5FA4593","title":"陈记甜品窝 光启城店","lon":"121.42874","lat":"31.18419","category":"67","category_name":"甜品店","address":"宜山路425号光启城时尚购物中心B1楼78号铺(近凯进路)"},{"poiid":"B2094751D56DA0FE4192","title":"芋贵人甜品店(光启城店)","lon":"121.42759","lat":"31.18395","category":"67","category_name":"甜品店","address":"徐汇区宜山路455号光启城B2楼33-34室"},{"poiid":"B2094750D26EAAFE4098","title":"和米堂 光启城店","lon":"121.4283297","lat":"31.1860324","category":"95","category_name":"日本料理","address":"徐汇区宜山路425号光启城B2东京街54号铺(近中山西路)"}]