[{"poiid":"B2094654DA68A3FD4898","title":"仙乐斯广场","lon":"121.475","lat":"31.2372","category":"119","category_name":"商场","address":"静安区南京西路388号(近黄陂北路)"},{"poiid":"B2094752D669A1FD4893","title":"新白鹿","lon":"121.476334","lat":"31.236145","category":"247","category_name":"餐饮美食","address":"南京路步行街東方商廈9樓"},{"poiid":"B2094757D06EAAFB4392","title":"新光影艺苑","lon":"121.476544","lat":"31.236791","category":"178","category_name":"电影院","address":"宁波路586号(南京路步行街食品一店后)"},{"poiid":"B2094753D76FAAFA449C","title":"上海滩国泰旗舰店","lon":"121.466011","lat":"31.216125","category":"249","category_name":"购物服务","address":"淮海中路868号"},{"poiid":"B209475CD564A7F84292","title":"上海滩新天地店","lon":"121.47463","lat":"31.22164","category":"119","category_name":"商场","address":"\"太仓路181弄新天地北里15号\r\n\""},{"poiid":"B209475CD564A7F8439E","title":"上海滩中信泰富店","lon":"121.45602","lat":"31.22851","category":"119","category_name":"商场","address":"\"南京西路1168号中信泰富广场，店铺号221.\r\n\""},{"poiid":"B209475CD564A7F84392","title":"上海滩浦东香格里拉店","lon":"121.50058","lat":"31.23634","category":"119","category_name":"商场","address":"浦东富成路33号香格里拉酒店内大堂层"},{"poiid":"B2094654DA6FA2F4469E","title":"上海科技京城西楼","lon":"121.47714","lat":"31.23902","category":"46","category_name":"楼宇","address":"北京东路689"},{"poiid":"B2094757D06FA0FE419F","title":"黄浦剧场","lon":"121.47558845576759","lat":"31.238431640532156","category":"179","category_name":"音乐厅","address":"黄浦区北京东路780号(近西藏南路)"},{"poiid":"B2094751DA6EA7FA419A","title":"泰妃阁（第一食品商店4楼）","lon":"121.47723","lat":"31.237643","category":"247","category_name":"餐饮美食","address":"黄浦区南京东路720号第一食品4楼(近贵州路)"},{"poiid":"B2094655D26BA4F94992","title":"小杨生煎浙江中路店","lon":"121.47714","lat":"31.23752","category":"68","category_name":"快餐厅","address":"黄浦区浙江中路486号(牛庄路口)"},{"poiid":"B2094757D06FA5FE489E","title":"泰寿司","lon":"121.474998474","lat":"31.2366771698","category":"268","category_name":"自助","address":"黄浦区六合路98号(近南京东路)"},{"poiid":"B2094757D068A7F9499E","title":"上海商贸旅游职业技能培训中心","lon":"121.475323","lat":"31.23728","category":"500","category_name":"未知分类","address":"上海贵州路189号"},{"poiid":"B2094750DB65AAFB489A","title":"大悦城","lon":"121.476074","lat":"31.24032","category":"500","category_name":"未知分类","address":null},{"poiid":"B2094757D06FA1FE499B","title":"新贝乐比萨屋(六合路店)","lon":"121.47519","lat":"31.23638","category":"94","category_name":"西餐厅","address":"上海黄浦区六合路98号(近南京东路)"},{"poiid":"B2094655D26BA1F54992","title":"峻岭广场","lon":"121.474","lat":"31.2383","category":"252","category_name":"楼宇机构","address":"成都北路500号"},{"poiid":"B2094757DB6CA4F44398","title":"桂源铺丝袜奶茶（浙江中路店）","lon":"121.47762","lat":"31.23647","category":"67","category_name":"甜品店","address":"黄浦区浙江中路425号(近天津路)"},{"poiid":"B2094751D56AA2F44092","title":"西提牛排","lon":"121.476018","lat":"31.238767","category":"247","category_name":"餐饮美食","address":"南京东路"},{"poiid":"B2094751D26BA0FA4792","title":"陆家嘴","lon":"121.47600802","lat":"31.23881901999999","category":"500","category_name":"未知分类","address":"上海"},{"poiid":"B2094757D16EA6FD439A","title":"市百一店顺风大酒店","lon":"121.475067738","lat":"31.2362594286","category":"75","category_name":"浙江菜","address":"上海南京路"},{"poiid":"B2094757D16EABFA479F","title":"黄埔剧场","lon":"121.475590538","lat":"31.2397237024","category":"248","category_name":"生活娱乐","address":"上海北京东路780号"},{"poiid":"B2094654DA6FA2F4469F","title":"上海赛格电子市场","lon":"121.4778","lat":"31.23912","category":"138","category_name":"家电电子卖场","address":"黄浦区北京东路668号科技京城B1-4楼(近福建中路)"},{"poiid":"B2094757D065A7FD429A","title":"厦门路尊德里","lon":"121.475797","lat":"31.239779","category":"47","category_name":"住宅区","address":"上海厦门路靠近浙江中路"},{"poiid":"B2094752D76CA3FE4792","title":"胖达人手感烘焙","lon":"121.477489","lat":"31.23685","category":"247","category_name":"餐饮美食","address":"上海市福建中路353号"},{"poiid":"B2094750DB6CA4FA419B","title":"上海市，黄浦区，南京路步行街","lon":"121.4748171","lat":"31.2371356","category":"500","category_name":"未知分类","address":null},{"poiid":"B2094655D26BA0FB4693","title":"好泳包子亭","lon":"121.4761","lat":"31.2368","category":"68","category_name":"快餐厅","address":"黄浦区贵州路174号(近宁波路)"},{"poiid":"B2094654DB6AA6F84298","title":"上海铁道宾馆","lon":"121.47609","lat":"31.23679","category":"250","category_name":"公园户外","address":"黄浦区贵州路160号(近宁波路)"},{"poiid":"B2094655D26AA1FB499B","title":"新世界日语培训学校六合路分部","lon":"121.47495","lat":"31.23663","category":"247","category_name":"餐饮美食","address":"黄浦区六合路98号港陆黄浦中心4楼(近宁波路)"},{"poiid":"B2094654DB6BA4F44992","title":"新世界大酒店","lon":"121.47656","lat":"31.23728","category":"74","category_name":"江苏菜","address":"黄浦区广西北路492号(近牛庄路)"},{"poiid":"B2094757DB6CA5FB4592","title":"人民公园","lon":"121.47746785","lat":"31.23880107","category":"196","category_name":"公园","address":"福建中路"},{"poiid":"B2094654DA6FA1FB499D","title":"日月大酒店","lon":"121.47717340622","lat":"31.235621420992","category":"76","category_name":"上海菜","address":"黄浦区广西北路485号(近宁波路)"},{"poiid":"B2094757D16AA1FE489B","title":"鸡排超人","lon":"121.476543338","lat":"31.2363382303","category":"68","category_name":"快餐厅","address":"黄浦区广西北路441号(近天津路)"},{"poiid":"B2094654DA6FA1F9479B","title":"台园圆圆香云吞 贵州路店","lon":"121.47656117744","lat":"31.236553525421","category":"68","category_name":"快餐厅","address":"黄浦区贵州路127号(近天津路)"},{"poiid":"B2094752D56FA1FC429D","title":"怡乡春竹","lon":"121.478354","lat":"31.237705","category":"247","category_name":"餐饮美食","address":"九江路399号华盛大厦三楼"},{"poiid":"B2094757D064A4FB489E","title":"小公主亲蛙撞奶","lon":"121.477685738","lat":"31.2367844398","category":"113","category_name":"冷饮店","address":"黄浦区浙江中路465号(近牛庄路)"},{"poiid":"B2094757D06EAAFF4792","title":"HTC上海Office","lon":"121.478","lat":"31.2391","category":"138","category_name":"家电电子卖场","address":"上海北京东路668号科技京城西楼25层"},{"poiid":"B2094757D06AABFF419A","title":"好爱椒","lon":"121.476441738","lat":"31.2382864718","category":"247","category_name":"餐饮美食","address":"上海贵州路(铁道宾馆2楼)"},{"poiid":"B2094757D16EA3FC479F","title":"第一食品商店","lon":"121.47736773","lat":"31.236495433","category":"249","category_name":"购物服务","address":"上海市黄浦区西藏中路"},{"poiid":"B2094757D469A1FD449A","title":"浙江中路重庆鸡公煲","lon":"121.478184","lat":"31.237175","category":"86","category_name":"火锅店","address":"黄浦区浙江中路235号(近汉口路)"},{"poiid":"B209475DD66CAAF4459D","title":"牧羊少年咖啡茶馆","lon":"121.475135","lat":"31.236476","category":"247","category_name":"餐饮美食","address":"上海市 黄浦区六合路98号"},{"poiid":"B2094654DA6FA0FE409C","title":"河畔明珠","lon":"121.47536","lat":"31.240377","category":"47","category_name":"住宅区","address":"上海市黄浦区南苏州路881号"},{"poiid":"B2094757DB69A6FF4898","title":"新贝乐意式休闲餐厅 六合路店","lon":"121.474722","lat":"31.236606","category":"94","category_name":"西餐厅","address":"黄浦区六合路98号(近南京东路)"},{"poiid":"B2094654DA6FA1FB4893","title":"凯丽面王","lon":"121.476674","lat":"31.236539","category":"68","category_name":"快餐厅","address":"黄浦区广西北路424号(近南京东路)"},{"poiid":"B2094757D569A2FA419A","title":"Stage量贩式KTV","lon":"121.4747389","lat":"31.23702806","category":"170","category_name":"KTV","address":"六合路158号"},{"poiid":"B2094654DA6FA1FF4492","title":"上海科技京城B区","lon":"121.47696","lat":"31.23949","category":"46","category_name":"楼宇","address":"浙江中路598"},{"poiid":"B2094750D76CA6FE4992","title":"好爱椒时尚川菜(贵州路店)","lon":"121.476","lat":"31.2367","category":"71","category_name":"四川菜","address":"黄浦区贵州路160号铁道宾馆2楼(近宁波路)"},{"poiid":"B2094757D068ABFA4893","title":"上海市音乐幼儿园","lon":"121.474718","lat":"31.239423","category":"57","category_name":"幼儿园","address":"黄浦区厦门路180号"},{"poiid":"B2094655D26BA6FF439E","title":"重庆鸡公煲山城烤鱼","lon":"121.47645","lat":"31.23599","category":"71","category_name":"四川菜","address":"黄浦区天津路479号(近浙江中路)"},{"poiid":"B2094757D469A7FE499B","title":"兴隆餐厅 天津路店","lon":"121.476392","lat":"31.236238","category":"76","category_name":"上海菜","address":"黄浦区天津路528号(广西北路天津路)"},{"poiid":"B2094757D064A2FD4092","title":"大旺旺特色馄饨 贵州路店","lon":"121.47595","lat":"31.23672","category":"68","category_name":"快餐厅","address":"黄浦区贵州路150号(近宁波路)"},{"poiid":"B2094654DA68A3FD4898","title":"仙乐斯广场","lon":"121.475","lat":"31.2372","category":"119","category_name":"商场","address":"静安区南京西路388号(近黄陂北路)"},{"poiid":"B2094752D669A1FD4893","title":"新白鹿","lon":"121.476334","lat":"31.236145","category":"247","category_name":"餐饮美食","address":"南京路步行街東方商廈9樓"},{"poiid":"B2094757D06EAAFB4392","title":"新光影艺苑","lon":"121.476544","lat":"31.236791","category":"178","category_name":"电影院","address":"宁波路586号(南京路步行街食品一店后)"},{"poiid":"B2094753D76FAAFA449C","title":"上海滩国泰旗舰店","lon":"121.466011","lat":"31.216125","category":"249","category_name":"购物服务","address":"淮海中路868号"},{"poiid":"B209475CD564A7F84292","title":"上海滩新天地店","lon":"121.47463","lat":"31.22164","category":"119","category_name":"商场","address":"\"太仓路181弄新天地北里15号\r\n\""},{"poiid":"B209475CD564A7F8439E","title":"上海滩中信泰富店","lon":"121.45602","lat":"31.22851","category":"119","category_name":"商场","address":"\"南京西路1168号中信泰富广场，店铺号221.\r\n\""},{"poiid":"B209475CD564A7F84392","title":"上海滩浦东香格里拉店","lon":"121.50058","lat":"31.23634","category":"119","category_name":"商场","address":"浦东富成路33号香格里拉酒店内大堂层"},{"poiid":"B2094654DA6FA2F4469E","title":"上海科技京城西楼","lon":"121.47714","lat":"31.23902","category":"46","category_name":"楼宇","address":"北京东路689"},{"poiid":"B2094757D06FA0FE419F","title":"黄浦剧场","lon":"121.47558845576759","lat":"31.238431640532156","category":"179","category_name":"音乐厅","address":"黄浦区北京东路780号(近西藏南路)"},{"poiid":"B2094751DA6EA7FA419A","title":"泰妃阁（第一食品商店4楼）","lon":"121.47723","lat":"31.237643","category":"247","category_name":"餐饮美食","address":"黄浦区南京东路720号第一食品4楼(近贵州路)"},{"poiid":"B2094655D26BA4F94992","title":"小杨生煎浙江中路店","lon":"121.47714","lat":"31.23752","category":"68","category_name":"快餐厅","address":"黄浦区浙江中路486号(牛庄路口)"},{"poiid":"B2094757D06FA5FE489E","title":"泰寿司","lon":"121.474998474","lat":"31.2366771698","category":"268","category_name":"自助","address":"黄浦区六合路98号(近南京东路)"},{"poiid":"B2094757D068A7F9499E","title":"上海商贸旅游职业技能培训中心","lon":"121.475323","lat":"31.23728","category":"500","category_name":"未知分类","address":"上海贵州路189号"},{"poiid":"B2094750DB65AAFB489A","title":"大悦城","lon":"121.476074","lat":"31.24032","category":"500","category_name":"未知分类","address":null},{"poiid":"B2094757D06FA1FE499B","title":"新贝乐比萨屋(六合路店)","lon":"121.47519","lat":"31.23638","category":"94","category_name":"西餐厅","address":"上海黄浦区六合路98号(近南京东路)"},{"poiid":"B2094655D26BA1F54992","title":"峻岭广场","lon":"121.474","lat":"31.2383","category":"252","category_name":"楼宇机构","address":"成都北路500号"},{"poiid":"B2094757DB6CA4F44398","title":"桂源铺丝袜奶茶（浙江中路店）","lon":"121.47762","lat":"31.23647","category":"67","category_name":"甜品店","address":"黄浦区浙江中路425号(近天津路)"},{"poiid":"B2094751D56AA2F44092","title":"西提牛排","lon":"121.476018","lat":"31.238767","category":"247","category_name":"餐饮美食","address":"南京东路"},{"poiid":"B2094751D26BA0FA4792","title":"陆家嘴","lon":"121.47600802","lat":"31.23881901999999","category":"500","category_name":"未知分类","address":"上海"},{"poiid":"B2094757D16EA6FD439A","title":"市百一店顺风大酒店","lon":"121.475067738","lat":"31.2362594286","category":"75","category_name":"浙江菜","address":"上海南京路"},{"poiid":"B2094757D16EABFA479F","title":"黄埔剧场","lon":"121.475590538","lat":"31.2397237024","category":"248","category_name":"生活娱乐","address":"上海北京东路780号"},{"poiid":"B2094654DA6FA2F4469F","title":"上海赛格电子市场","lon":"121.4778","lat":"31.23912","category":"138","category_name":"家电电子卖场","address":"黄浦区北京东路668号科技京城B1-4楼(近福建中路)"},{"poiid":"B2094757D065A7FD429A","title":"厦门路尊德里","lon":"121.475797","lat":"31.239779","category":"47","category_name":"住宅区","address":"上海厦门路靠近浙江中路"},{"poiid":"B2094752D76CA3FE4792","title":"胖达人手感烘焙","lon":"121.477489","lat":"31.23685","category":"247","category_name":"餐饮美食","address":"上海市福建中路353号"},{"poiid":"B2094750DB6CA4FA419B","title":"上海市，黄浦区，南京路步行街","lon":"121.4748171","lat":"31.2371356","category":"500","category_name":"未知分类","address":null},{"poiid":"B2094655D26BA0FB4693","title":"好泳包子亭","lon":"121.4761","lat":"31.2368","category":"68","category_name":"快餐厅","address":"黄浦区贵州路174号(近宁波路)"},{"poiid":"B2094654DB6AA6F84298","title":"上海铁道宾馆","lon":"121.47609","lat":"31.23679","category":"250","category_name":"公园户外","address":"黄浦区贵州路160号(近宁波路)"},{"poiid":"B2094655D26AA1FB499B","title":"新世界日语培训学校六合路分部","lon":"121.47495","lat":"31.23663","category":"247","category_name":"餐饮美食","address":"黄浦区六合路98号港陆黄浦中心4楼(近宁波路)"},{"poiid":"B2094654DB6BA4F44992","title":"新世界大酒店","lon":"121.47656","lat":"31.23728","category":"74","category_name":"江苏菜","address":"黄浦区广西北路492号(近牛庄路)"},{"poiid":"B2094757DB6CA5FB4592","title":"人民公园","lon":"121.47746785","lat":"31.23880107","category":"196","category_name":"公园","address":"福建中路"},{"poiid":"B2094654DA6FA1FB499D","title":"日月大酒店","lon":"121.47717340622","lat":"31.235621420992","category":"76","category_name":"上海菜","address":"黄浦区广西北路485号(近宁波路)"},{"poiid":"B2094757D16AA1FE489B","title":"鸡排超人","lon":"121.476543338","lat":"31.2363382303","category":"68","category_name":"快餐厅","address":"黄浦区广西北路441号(近天津路)"},{"poiid":"B2094654DA6FA1F9479B","title":"台园圆圆香云吞 贵州路店","lon":"121.47656117744","lat":"31.236553525421","category":"68","category_name":"快餐厅","address":"黄浦区贵州路127号(近天津路)"},{"poiid":"B2094752D56FA1FC429D","title":"怡乡春竹","lon":"121.478354","lat":"31.237705","category":"247","category_name":"餐饮美食","address":"九江路399号华盛大厦三楼"},{"poiid":"B2094757D064A4FB489E","title":"小公主亲蛙撞奶","lon":"121.477685738","lat":"31.2367844398","category":"113","category_name":"冷饮店","address":"黄浦区浙江中路465号(近牛庄路)"},{"poiid":"B2094757D06EAAFF4792","title":"HTC上海Office","lon":"121.478","lat":"31.2391","category":"138","category_name":"家电电子卖场","address":"上海北京东路668号科技京城西楼25层"},{"poiid":"B2094757D06AABFF419A","title":"好爱椒","lon":"121.476441738","lat":"31.2382864718","category":"247","category_name":"餐饮美食","address":"上海贵州路(铁道宾馆2楼)"},{"poiid":"B2094757D16EA3FC479F","title":"第一食品商店","lon":"121.47736773","lat":"31.236495433","category":"249","category_name":"购物服务","address":"上海市黄浦区西藏中路"},{"poiid":"B2094757D469A1FD449A","title":"浙江中路重庆鸡公煲","lon":"121.478184","lat":"31.237175","category":"86","category_name":"火锅店","address":"黄浦区浙江中路235号(近汉口路)"},{"poiid":"B209475DD66CAAF4459D","title":"牧羊少年咖啡茶馆","lon":"121.475135","lat":"31.236476","category":"247","category_name":"餐饮美食","address":"上海市 黄浦区六合路98号"},{"poiid":"B2094654DA6FA0FE409C","title":"河畔明珠","lon":"121.47536","lat":"31.240377","category":"47","category_name":"住宅区","address":"上海市黄浦区南苏州路881号"},{"poiid":"B2094757DB69A6FF4898","title":"新贝乐意式休闲餐厅 六合路店","lon":"121.474722","lat":"31.236606","category":"94","category_name":"西餐厅","address":"黄浦区六合路98号(近南京东路)"},{"poiid":"B2094654DA6FA1FB4893","title":"凯丽面王","lon":"121.476674","lat":"31.236539","category":"68","category_name":"快餐厅","address":"黄浦区广西北路424号(近南京东路)"},{"poiid":"B2094757D569A2FA419A","title":"Stage量贩式KTV","lon":"121.4747389","lat":"31.23702806","category":"170","category_name":"KTV","address":"六合路158号"},{"poiid":"B2094654DA6FA1FF4492","title":"上海科技京城B区","lon":"121.47696","lat":"31.23949","category":"46","category_name":"楼宇","address":"浙江中路598"},{"poiid":"B2094750D76CA6FE4992","title":"好爱椒时尚川菜(贵州路店)","lon":"121.476","lat":"31.2367","category":"71","category_name":"四川菜","address":"黄浦区贵州路160号铁道宾馆2楼(近宁波路)"},{"poiid":"B2094757D068ABFA4893","title":"上海市音乐幼儿园","lon":"121.474718","lat":"31.239423","category":"57","category_name":"幼儿园","address":"黄浦区厦门路180号"},{"poiid":"B2094655D26BA6FF439E","title":"重庆鸡公煲山城烤鱼","lon":"121.47645","lat":"31.23599","category":"71","category_name":"四川菜","address":"黄浦区天津路479号(近浙江中路)"},{"poiid":"B2094757D469A7FE499B","title":"兴隆餐厅 天津路店","lon":"121.476392","lat":"31.236238","category":"76","category_name":"上海菜","address":"黄浦区天津路528号(广西北路天津路)"},{"poiid":"B2094757D064A2FD4092","title":"大旺旺特色馄饨 贵州路店","lon":"121.47595","lat":"31.23672","category":"68","category_name":"快餐厅","address":"黄浦区贵州路150号(近宁波路)"},{"poiid":"B2094654DA68A3FD4898","title":"仙乐斯广场","lon":"121.475","lat":"31.2372","category":"119","category_name":"商场","address":"静安区南京西路388号(近黄陂北路)"},{"poiid":"B2094752D669A1FD4893","title":"新白鹿","lon":"121.476334","lat":"31.236145","category":"247","category_name":"餐饮美食","address":"南京路步行街東方商廈9樓"},{"poiid":"B2094757D06EAAFB4392","title":"新光影艺苑","lon":"121.476544","lat":"31.236791","category":"178","category_name":"电影院","address":"宁波路586号(南京路步行街食品一店后)"},{"poiid":"B2094753D76FAAFA449C","title":"上海滩国泰旗舰店","lon":"121.466011","lat":"31.216125","category":"249","category_name":"购物服务","address":"淮海中路868号"},{"poiid":"B209475CD564A7F84292","title":"上海滩新天地店","lon":"121.47463","lat":"31.22164","category":"119","category_name":"商场","address":"\"太仓路181弄新天地北里15号\r\n\""},{"poiid":"B209475CD564A7F8439E","title":"上海滩中信泰富店","lon":"121.45602","lat":"31.22851","category":"119","category_name":"商场","address":"\"南京西路1168号中信泰富广场，店铺号221.\r\n\""},{"poiid":"B209475CD564A7F84392","title":"上海滩浦东香格里拉店","lon":"121.50058","lat":"31.23634","category":"119","category_name":"商场","address":"浦东富成路33号香格里拉酒店内大堂层"},{"poiid":"B2094654DA6FA2F4469E","title":"上海科技京城西楼","lon":"121.47714","lat":"31.23902","category":"46","category_name":"楼宇","address":"北京东路689"},{"poiid":"B2094757D06FA0FE419F","title":"黄浦剧场","lon":"121.47558845576759","lat":"31.238431640532156","category":"179","category_name":"音乐厅","address":"黄浦区北京东路780号(近西藏南路)"},{"poiid":"B2094751DA6EA7FA419A","title":"泰妃阁（第一食品商店4楼）","lon":"121.47723","lat":"31.237643","category":"247","category_name":"餐饮美食","address":"黄浦区南京东路720号第一食品4楼(近贵州路)"},{"poiid":"B2094655D26BA4F94992","title":"小杨生煎浙江中路店","lon":"121.47714","lat":"31.23752","category":"68","category_name":"快餐厅","address":"黄浦区浙江中路486号(牛庄路口)"},{"poiid":"B2094757D06FA5FE489E","title":"泰寿司","lon":"121.474998474","lat":"31.2366771698","category":"268","category_name":"自助","address":"黄浦区六合路98号(近南京东路)"},{"poiid":"B2094757D068A7F9499E","title":"上海商贸旅游职业技能培训中心","lon":"121.475323","lat":"31.23728","category":"500","category_name":"未知分类","address":"上海贵州路189号"},{"poiid":"B2094750DB65AAFB489A","title":"大悦城","lon":"121.476074","lat":"31.24032","category":"500","category_name":"未知分类","address":null},{"poiid":"B2094757D06FA1FE499B","title":"新贝乐比萨屋(六合路店)","lon":"121.47519","lat":"31.23638","category":"94","category_name":"西餐厅","address":"上海黄浦区六合路98号(近南京东路)"},{"poiid":"B2094655D26BA1F54992","title":"峻岭广场","lon":"121.474","lat":"31.2383","category":"252","category_name":"楼宇机构","address":"成都北路500号"},{"poiid":"B2094757DB6CA4F44398","title":"桂源铺丝袜奶茶（浙江中路店）","lon":"121.47762","lat":"31.23647","category":"67","category_name":"甜品店","address":"黄浦区浙江中路425号(近天津路)"},{"poiid":"B2094751D56AA2F44092","title":"西提牛排","lon":"121.476018","lat":"31.238767","category":"247","category_name":"餐饮美食","address":"南京东路"},{"poiid":"B2094751D26BA0FA4792","title":"陆家嘴","lon":"121.47600802","lat":"31.23881901999999","category":"500","category_name":"未知分类","address":"上海"},{"poiid":"B2094757D16EA6FD439A","title":"市百一店顺风大酒店","lon":"121.475067738","lat":"31.2362594286","category":"75","category_name":"浙江菜","address":"上海南京路"},{"poiid":"B2094757D16EABFA479F","title":"黄埔剧场","lon":"121.475590538","lat":"31.2397237024","category":"248","category_name":"生活娱乐","address":"上海北京东路780号"},{"poiid":"B2094654DA6FA2F4469F","title":"上海赛格电子市场","lon":"121.4778","lat":"31.23912","category":"138","category_name":"家电电子卖场","address":"黄浦区北京东路668号科技京城B1-4楼(近福建中路)"},{"poiid":"B2094757D065A7FD429A","title":"厦门路尊德里","lon":"121.475797","lat":"31.239779","category":"47","category_name":"住宅区","address":"上海厦门路靠近浙江中路"},{"poiid":"B2094752D76CA3FE4792","title":"胖达人手感烘焙","lon":"121.477489","lat":"31.23685","category":"247","category_name":"餐饮美食","address":"上海市福建中路353号"},{"poiid":"B2094750DB6CA4FA419B","title":"上海市，黄浦区，南京路步行街","lon":"121.4748171","lat":"31.2371356","category":"500","category_name":"未知分类","address":null},{"poiid":"B2094655D26BA0FB4693","title":"好泳包子亭","lon":"121.4761","lat":"31.2368","category":"68","category_name":"快餐厅","address":"黄浦区贵州路174号(近宁波路)"},{"poiid":"B2094654DB6AA6F84298","title":"上海铁道宾馆","lon":"121.47609","lat":"31.23679","category":"250","category_name":"公园户外","address":"黄浦区贵州路160号(近宁波路)"},{"poiid":"B2094655D26AA1FB499B","title":"新世界日语培训学校六合路分部","lon":"121.47495","lat":"31.23663","category":"247","category_name":"餐饮美食","address":"黄浦区六合路98号港陆黄浦中心4楼(近宁波路)"},{"poiid":"B2094654DB6BA4F44992","title":"新世界大酒店","lon":"121.47656","lat":"31.23728","category":"74","category_name":"江苏菜","address":"黄浦区广西北路492号(近牛庄路)"},{"poiid":"B2094757DB6CA5FB4592","title":"人民公园","lon":"121.47746785","lat":"31.23880107","category":"196","category_name":"公园","address":"福建中路"},{"poiid":"B2094654DA6FA1FB499D","title":"日月大酒店","lon":"121.47717340622","lat":"31.235621420992","category":"76","category_name":"上海菜","address":"黄浦区广西北路485号(近宁波路)"},{"poiid":"B2094757D16AA1FE489B","title":"鸡排超人","lon":"121.476543338","lat":"31.2363382303","category":"68","category_name":"快餐厅","address":"黄浦区广西北路441号(近天津路)"},{"poiid":"B2094654DA6FA1F9479B","title":"台园圆圆香云吞 贵州路店","lon":"121.47656117744","lat":"31.236553525421","category":"68","category_name":"快餐厅","address":"黄浦区贵州路127号(近天津路)"},{"poiid":"B2094752D56FA1FC429D","title":"怡乡春竹","lon":"121.478354","lat":"31.237705","category":"247","category_name":"餐饮美食","address":"九江路399号华盛大厦三楼"},{"poiid":"B2094757D064A4FB489E","title":"小公主亲蛙撞奶","lon":"121.477685738","lat":"31.2367844398","category":"113","category_name":"冷饮店","address":"黄浦区浙江中路465号(近牛庄路)"},{"poiid":"B2094757D06EAAFF4792","title":"HTC上海Office","lon":"121.478","lat":"31.2391","category":"138","category_name":"家电电子卖场","address":"上海北京东路668号科技京城西楼25层"},{"poiid":"B2094757D06AABFF419A","title":"好爱椒","lon":"121.476441738","lat":"31.2382864718","category":"247","category_name":"餐饮美食","address":"上海贵州路(铁道宾馆2楼)"},{"poiid":"B2094757D16EA3FC479F","title":"第一食品商店","lon":"121.47736773","lat":"31.236495433","category":"249","category_name":"购物服务","address":"上海市黄浦区西藏中路"},{"poiid":"B2094757D469A1FD449A","title":"浙江中路重庆鸡公煲","lon":"121.478184","lat":"31.237175","category":"86","category_name":"火锅店","address":"黄浦区浙江中路235号(近汉口路)"},{"poiid":"B209475DD66CAAF4459D","title":"牧羊少年咖啡茶馆","lon":"121.475135","lat":"31.236476","category":"247","category_name":"餐饮美食","address":"上海市 黄浦区六合路98号"},{"poiid":"B2094654DA6FA0FE409C","title":"河畔明珠","lon":"121.47536","lat":"31.240377","category":"47","category_name":"住宅区","address":"上海市黄浦区南苏州路881号"},{"poiid":"B2094757DB69A6FF4898","title":"新贝乐意式休闲餐厅 六合路店","lon":"121.474722","lat":"31.236606","category":"94","category_name":"西餐厅","address":"黄浦区六合路98号(近南京东路)"},{"poiid":"B2094654DA6FA1FB4893","title":"凯丽面王","lon":"121.476674","lat":"31.236539","category":"68","category_name":"快餐厅","address":"黄浦区广西北路424号(近南京东路)"},{"poiid":"B2094757D569A2FA419A","title":"Stage量贩式KTV","lon":"121.4747389","lat":"31.23702806","category":"170","category_name":"KTV","address":"六合路158号"},{"poiid":"B2094654DA6FA1FF4492","title":"上海科技京城B区","lon":"121.47696","lat":"31.23949","category":"46","category_name":"楼宇","address":"浙江中路598"},{"poiid":"B2094750D76CA6FE4992","title":"好爱椒时尚川菜(贵州路店)","lon":"121.476","lat":"31.2367","category":"71","category_name":"四川菜","address":"黄浦区贵州路160号铁道宾馆2楼(近宁波路)"},{"poiid":"B2094757D068ABFA4893","title":"上海市音乐幼儿园","lon":"121.474718","lat":"31.239423","category":"57","category_name":"幼儿园","address":"黄浦区厦门路180号"},{"poiid":"B2094655D26BA6FF439E","title":"重庆鸡公煲山城烤鱼","lon":"121.47645","lat":"31.23599","category":"71","category_name":"四川菜","address":"黄浦区天津路479号(近浙江中路)"},{"poiid":"B2094757D469A7FE499B","title":"兴隆餐厅 天津路店","lon":"121.476392","lat":"31.236238","category":"76","category_name":"上海菜","address":"黄浦区天津路528号(广西北路天津路)"},{"poiid":"B2094757D064A2FD4092","title":"大旺旺特色馄饨 贵州路店","lon":"121.47595","lat":"31.23672","category":"68","category_name":"快餐厅","address":"黄浦区贵州路150号(近宁波路)"},{"poiid":"B2094654DA68A3FD4898","title":"仙乐斯广场","lon":"121.475","lat":"31.2372","category":"119","category_name":"商场","address":"静安区南京西路388号(近黄陂北路)"},{"poiid":"B2094752D669A1FD4893","title":"新白鹿","lon":"121.476334","lat":"31.236145","category":"247","category_name":"餐饮美食","address":"南京路步行街東方商廈9樓"},{"poiid":"B2094757D06EAAFB4392","title":"新光影艺苑","lon":"121.476544","lat":"31.236791","category":"178","category_name":"电影院","address":"宁波路586号(南京路步行街食品一店后)"},{"poiid":"B2094753D76FAAFA449C","title":"上海滩国泰旗舰店","lon":"121.466011","lat":"31.216125","category":"249","category_name":"购物服务","address":"淮海中路868号"},{"poiid":"B209475CD564A7F84292","title":"上海滩新天地店","lon":"121.47463","lat":"31.22164","category":"119","category_name":"商场","address":"\"太仓路181弄新天地北里15号\r\n\""},{"poiid":"B209475CD564A7F8439E","title":"上海滩中信泰富店","lon":"121.45602","lat":"31.22851","category":"119","category_name":"商场","address":"\"南京西路1168号中信泰富广场，店铺号221.\r\n\""},{"poiid":"B209475CD564A7F84392","title":"上海滩浦东香格里拉店","lon":"121.50058","lat":"31.23634","category":"119","category_name":"商场","address":"浦东富成路33号香格里拉酒店内大堂层"},{"poiid":"B2094654DA6FA2F4469E","title":"上海科技京城西楼","lon":"121.47714","lat":"31.23902","category":"46","category_name":"楼宇","address":"北京东路689"},{"poiid":"B2094757D06FA0FE419F","title":"黄浦剧场","lon":"121.47558845576759","lat":"31.238431640532156","category":"179","category_name":"音乐厅","address":"黄浦区北京东路780号(近西藏南路)"},{"poiid":"B2094751DA6EA7FA419A","title":"泰妃阁（第一食品商店4楼）","lon":"121.47723","lat":"31.237643","category":"247","category_name":"餐饮美食","address":"黄浦区南京东路720号第一食品4楼(近贵州路)"},{"poiid":"B2094655D26BA4F94992","title":"小杨生煎浙江中路店","lon":"121.47714","lat":"31.23752","category":"68","category_name":"快餐厅","address":"黄浦区浙江中路486号(牛庄路口)"},{"poiid":"B2094757D06FA5FE489E","title":"泰寿司","lon":"121.474998474","lat":"31.2366771698","category":"268","category_name":"自助","address":"黄浦区六合路98号(近南京东路)"},{"poiid":"B2094757D068A7F9499E","title":"上海商贸旅游职业技能培训中心","lon":"121.475323","lat":"31.23728","category":"500","category_name":"未知分类","address":"上海贵州路189号"},{"poiid":"B2094750DB65AAFB489A","title":"大悦城","lon":"121.476074","lat":"31.24032","category":"500","category_name":"未知分类","address":null},{"poiid":"B2094757D06FA1FE499B","title":"新贝乐比萨屋(六合路店)","lon":"121.47519","lat":"31.23638","category":"94","category_name":"西餐厅","address":"上海黄浦区六合路98号(近南京东路)"},{"poiid":"B2094655D26BA1F54992","title":"峻岭广场","lon":"121.474","lat":"31.2383","category":"252","category_name":"楼宇机构","address":"成都北路500号"},{"poiid":"B2094757DB6CA4F44398","title":"桂源铺丝袜奶茶（浙江中路店）","lon":"121.47762","lat":"31.23647","category":"67","category_name":"甜品店","address":"黄浦区浙江中路425号(近天津路)"},{"poiid":"B2094751D56AA2F44092","title":"西提牛排","lon":"121.476018","lat":"31.238767","category":"247","category_name":"餐饮美食","address":"南京东路"},{"poiid":"B2094751D26BA0FA4792","title":"陆家嘴","lon":"121.47600802","lat":"31.23881901999999","category":"500","category_name":"未知分类","address":"上海"},{"poiid":"B2094757D16EA6FD439A","title":"市百一店顺风大酒店","lon":"121.475067738","lat":"31.2362594286","category":"75","category_name":"浙江菜","address":"上海南京路"},{"poiid":"B2094757D16EABFA479F","title":"黄埔剧场","lon":"121.475590538","lat":"31.2397237024","category":"248","category_name":"生活娱乐","address":"上海北京东路780号"},{"poiid":"B2094654DA6FA2F4469F","title":"上海赛格电子市场","lon":"121.4778","lat":"31.23912","category":"138","category_name":"家电电子卖场","address":"黄浦区北京东路668号科技京城B1-4楼(近福建中路)"},{"poiid":"B2094757D065A7FD429A","title":"厦门路尊德里","lon":"121.475797","lat":"31.239779","category":"47","category_name":"住宅区","address":"上海厦门路靠近浙江中路"},{"poiid":"B2094752D76CA3FE4792","title":"胖达人手感烘焙","lon":"121.477489","lat":"31.23685","category":"247","category_name":"餐饮美食","address":"上海市福建中路353号"},{"poiid":"B2094750DB6CA4FA419B","title":"上海市，黄浦区，南京路步行街","lon":"121.4748171","lat":"31.2371356","category":"500","category_name":"未知分类","address":null},{"poiid":"B2094655D26BA0FB4693","title":"好泳包子亭","lon":"121.4761","lat":"31.2368","category":"68","category_name":"快餐厅","address":"黄浦区贵州路174号(近宁波路)"},{"poiid":"B2094654DB6AA6F84298","title":"上海铁道宾馆","lon":"121.47609","lat":"31.23679","category":"250","category_name":"公园户外","address":"黄浦区贵州路160号(近宁波路)"},{"poiid":"B2094655D26AA1FB499B","title":"新世界日语培训学校六合路分部","lon":"121.47495","lat":"31.23663","category":"247","category_name":"餐饮美食","address":"黄浦区六合路98号港陆黄浦中心4楼(近宁波路)"},{"poiid":"B2094654DB6BA4F44992","title":"新世界大酒店","lon":"121.47656","lat":"31.23728","category":"74","category_name":"江苏菜","address":"黄浦区广西北路492号(近牛庄路)"},{"poiid":"B2094757DB6CA5FB4592","title":"人民公园","lon":"121.47746785","lat":"31.23880107","category":"196","category_name":"公园","address":"福建中路"},{"poiid":"B2094654DA6FA1FB499D","title":"日月大酒店","lon":"121.47717340622","lat":"31.235621420992","category":"76","category_name":"上海菜","address":"黄浦区广西北路485号(近宁波路)"},{"poiid":"B2094757D16AA1FE489B","title":"鸡排超人","lon":"121.476543338","lat":"31.2363382303","category":"68","category_name":"快餐厅","address":"黄浦区广西北路441号(近天津路)"},{"poiid":"B2094654DA6FA1F9479B","title":"台园圆圆香云吞 贵州路店","lon":"121.47656117744","lat":"31.236553525421","category":"68","category_name":"快餐厅","address":"黄浦区贵州路127号(近天津路)"},{"poiid":"B2094752D56FA1FC429D","title":"怡乡春竹","lon":"121.478354","lat":"31.237705","category":"247","category_name":"餐饮美食","address":"九江路399号华盛大厦三楼"},{"poiid":"B2094757D064A4FB489E","title":"小公主亲蛙撞奶","lon":"121.477685738","lat":"31.2367844398","category":"113","category_name":"冷饮店","address":"黄浦区浙江中路465号(近牛庄路)"},{"poiid":"B2094757D06EAAFF4792","title":"HTC上海Office","lon":"121.478","lat":"31.2391","category":"138","category_name":"家电电子卖场","address":"上海北京东路668号科技京城西楼25层"},{"poiid":"B2094757D06AABFF419A","title":"好爱椒","lon":"121.476441738","lat":"31.2382864718","category":"247","category_name":"餐饮美食","address":"上海贵州路(铁道宾馆2楼)"},{"poiid":"B2094757D16EA3FC479F","title":"第一食品商店","lon":"121.47736773","lat":"31.236495433","category":"249","category_name":"购物服务","address":"上海市黄浦区西藏中路"},{"poiid":"B2094757D469A1FD449A","title":"浙江中路重庆鸡公煲","lon":"121.478184","lat":"31.237175","category":"86","category_name":"火锅店","address":"黄浦区浙江中路235号(近汉口路)"},{"poiid":"B209475DD66CAAF4459D","title":"牧羊少年咖啡茶馆","lon":"121.475135","lat":"31.236476","category":"247","category_name":"餐饮美食","address":"上海市 黄浦区六合路98号"},{"poiid":"B2094654DA6FA0FE409C","title":"河畔明珠","lon":"121.47536","lat":"31.240377","category":"47","category_name":"住宅区","address":"上海市黄浦区南苏州路881号"},{"poiid":"B2094757DB69A6FF4898","title":"新贝乐意式休闲餐厅 六合路店","lon":"121.474722","lat":"31.236606","category":"94","category_name":"西餐厅","address":"黄浦区六合路98号(近南京东路)"},{"poiid":"B2094654DA6FA1FB4893","title":"凯丽面王","lon":"121.476674","lat":"31.236539","category":"68","category_name":"快餐厅","address":"黄浦区广西北路424号(近南京东路)"},{"poiid":"B2094757D569A2FA419A","title":"Stage量贩式KTV","lon":"121.4747389","lat":"31.23702806","category":"170","category_name":"KTV","address":"六合路158号"},{"poiid":"B2094654DA6FA1FF4492","title":"上海科技京城B区","lon":"121.47696","lat":"31.23949","category":"46","category_name":"楼宇","address":"浙江中路598"},{"poiid":"B2094750D76CA6FE4992","title":"好爱椒时尚川菜(贵州路店)","lon":"121.476","lat":"31.2367","category":"71","category_name":"四川菜","address":"黄浦区贵州路160号铁道宾馆2楼(近宁波路)"},{"poiid":"B2094757D068ABFA4893","title":"上海市音乐幼儿园","lon":"121.474718","lat":"31.239423","category":"57","category_name":"幼儿园","address":"黄浦区厦门路180号"},{"poiid":"B2094655D26BA6FF439E","title":"重庆鸡公煲山城烤鱼","lon":"121.47645","lat":"31.23599","category":"71","category_name":"四川菜","address":"黄浦区天津路479号(近浙江中路)"},{"poiid":"B2094757D469A7FE499B","title":"兴隆餐厅 天津路店","lon":"121.476392","lat":"31.236238","category":"76","category_name":"上海菜","address":"黄浦区天津路528号(广西北路天津路)"},{"poiid":"B2094757D064A2FD4092","title":"大旺旺特色馄饨 贵州路店","lon":"121.47595","lat":"31.23672","category":"68","category_name":"快餐厅","address":"黄浦区贵州路150号(近宁波路)"},{"poiid":"B2094654DA68A3FD4898","title":"仙乐斯广场","lon":"121.475","lat":"31.2372","category":"119","category_name":"商场","address":"静安区南京西路388号(近黄陂北路)"},{"poiid":"B2094752D669A1FD4893","title":"新白鹿","lon":"121.476334","lat":"31.236145","category":"247","category_name":"餐饮美食","address":"南京路步行街東方商廈9樓"},{"poiid":"B2094757D06EAAFB4392","title":"新光影艺苑","lon":"121.476544","lat":"31.236791","category":"178","category_name":"电影院","address":"宁波路586号(南京路步行街食品一店后)"},{"poiid":"B2094753D76FAAFA449C","title":"上海滩国泰旗舰店","lon":"121.466011","lat":"31.216125","category":"249","category_name":"购物服务","address":"淮海中路868号"},{"poiid":"B209475CD564A7F84292","title":"上海滩新天地店","lon":"121.47463","lat":"31.22164","category":"119","category_name":"商场","address":"\"太仓路181弄新天地北里15号\r\n\""},{"poiid":"B209475CD564A7F8439E","title":"上海滩中信泰富店","lon":"121.45602","lat":"31.22851","category":"119","category_name":"商场","address":"\"南京西路1168号中信泰富广场，店铺号221.\r\n\""},{"poiid":"B209475CD564A7F84392","title":"上海滩浦东香格里拉店","lon":"121.50058","lat":"31.23634","category":"119","category_name":"商场","address":"浦东富成路33号香格里拉酒店内大堂层"},{"poiid":"B2094654DA6FA2F4469E","title":"上海科技京城西楼","lon":"121.47714","lat":"31.23902","category":"46","category_name":"楼宇","address":"北京东路689"},{"poiid":"B2094757D06FA0FE419F","title":"黄浦剧场","lon":"121.47558845576759","lat":"31.238431640532156","category":"179","category_name":"音乐厅","address":"黄浦区北京东路780号(近西藏南路)"},{"poiid":"B2094751DA6EA7FA419A","title":"泰妃阁（第一食品商店4楼）","lon":"121.47723","lat":"31.237643","category":"247","category_name":"餐饮美食","address":"黄浦区南京东路720号第一食品4楼(近贵州路)"},{"poiid":"B2094655D26BA4F94992","title":"小杨生煎浙江中路店","lon":"121.47714","lat":"31.23752","category":"68","category_name":"快餐厅","address":"黄浦区浙江中路486号(牛庄路口)"},{"poiid":"B2094757D06FA5FE489E","title":"泰寿司","lon":"121.474998474","lat":"31.2366771698","category":"268","category_name":"自助","address":"黄浦区六合路98号(近南京东路)"},{"poiid":"B2094757D068A7F9499E","title":"上海商贸旅游职业技能培训中心","lon":"121.475323","lat":"31.23728","category":"500","category_name":"未知分类","address":"上海贵州路189号"},{"poiid":"B2094750DB65AAFB489A","title":"大悦城","lon":"121.476074","lat":"31.24032","category":"500","category_name":"未知分类","address":null},{"poiid":"B2094757D06FA1FE499B","title":"新贝乐比萨屋(六合路店)","lon":"121.47519","lat":"31.23638","category":"94","category_name":"西餐厅","address":"上海黄浦区六合路98号(近南京东路)"},{"poiid":"B2094655D26BA1F54992","title":"峻岭广场","lon":"121.474","lat":"31.2383","category":"252","category_name":"楼宇机构","address":"成都北路500号"},{"poiid":"B2094757DB6CA4F44398","title":"桂源铺丝袜奶茶（浙江中路店）","lon":"121.47762","lat":"31.23647","category":"67","category_name":"甜品店","address":"黄浦区浙江中路425号(近天津路)"},{"poiid":"B2094751D56AA2F44092","title":"西提牛排","lon":"121.476018","lat":"31.238767","category":"247","category_name":"餐饮美食","address":"南京东路"},{"poiid":"B2094751D26BA0FA4792","title":"陆家嘴","lon":"121.47600802","lat":"31.23881901999999","category":"500","category_name":"未知分类","address":"上海"},{"poiid":"B2094757D16EA6FD439A","title":"市百一店顺风大酒店","lon":"121.475067738","lat":"31.2362594286","category":"75","category_name":"浙江菜","address":"上海南京路"},{"poiid":"B2094757D16EABFA479F","title":"黄埔剧场","lon":"121.475590538","lat":"31.2397237024","category":"248","category_name":"生活娱乐","address":"上海北京东路780号"},{"poiid":"B2094654DA6FA2F4469F","title":"上海赛格电子市场","lon":"121.4778","lat":"31.23912","category":"138","category_name":"家电电子卖场","address":"黄浦区北京东路668号科技京城B1-4楼(近福建中路)"},{"poiid":"B2094757D065A7FD429A","title":"厦门路尊德里","lon":"121.475797","lat":"31.239779","category":"47","category_name":"住宅区","address":"上海厦门路靠近浙江中路"},{"poiid":"B2094752D76CA3FE4792","title":"胖达人手感烘焙","lon":"121.477489","lat":"31.23685","category":"247","category_name":"餐饮美食","address":"上海市福建中路353号"},{"poiid":"B2094750DB6CA4FA419B","title":"上海市，黄浦区，南京路步行街","lon":"121.4748171","lat":"31.2371356","category":"500","category_name":"未知分类","address":null},{"poiid":"B2094655D26BA0FB4693","title":"好泳包子亭","lon":"121.4761","lat":"31.2368","category":"68","category_name":"快餐厅","address":"黄浦区贵州路174号(近宁波路)"},{"poiid":"B2094654DB6AA6F84298","title":"上海铁道宾馆","lon":"121.47609","lat":"31.23679","category":"250","category_name":"公园户外","address":"黄浦区贵州路160号(近宁波路)"},{"poiid":"B2094655D26AA1FB499B","title":"新世界日语培训学校六合路分部","lon":"121.47495","lat":"31.23663","category":"247","category_name":"餐饮美食","address":"黄浦区六合路98号港陆黄浦中心4楼(近宁波路)"},{"poiid":"B2094654DB6BA4F44992","title":"新世界大酒店","lon":"121.47656","lat":"31.23728","category":"74","category_name":"江苏菜","address":"黄浦区广西北路492号(近牛庄路)"},{"poiid":"B2094757DB6CA5FB4592","title":"人民公园","lon":"121.47746785","lat":"31.23880107","category":"196","category_name":"公园","address":"福建中路"},{"poiid":"B2094654DA6FA1FB499D","title":"日月大酒店","lon":"121.47717340622","lat":"31.235621420992","category":"76","category_name":"上海菜","address":"黄浦区广西北路485号(近宁波路)"},{"poiid":"B2094757D16AA1FE489B","title":"鸡排超人","lon":"121.476543338","lat":"31.2363382303","category":"68","category_name":"快餐厅","address":"黄浦区广西北路441号(近天津路)"},{"poiid":"B2094654DA6FA1F9479B","title":"台园圆圆香云吞 贵州路店","lon":"121.47656117744","lat":"31.236553525421","category":"68","category_name":"快餐厅","address":"黄浦区贵州路127号(近天津路)"},{"poiid":"B2094752D56FA1FC429D","title":"怡乡春竹","lon":"121.478354","lat":"31.237705","category":"247","category_name":"餐饮美食","address":"九江路399号华盛大厦三楼"},{"poiid":"B2094757D064A4FB489E","title":"小公主亲蛙撞奶","lon":"121.477685738","lat":"31.2367844398","category":"113","category_name":"冷饮店","address":"黄浦区浙江中路465号(近牛庄路)"},{"poiid":"B2094757D06EAAFF4792","title":"HTC上海Office","lon":"121.478","lat":"31.2391","category":"138","category_name":"家电电子卖场","address":"上海北京东路668号科技京城西楼25层"},{"poiid":"B2094757D06AABFF419A","title":"好爱椒","lon":"121.476441738","lat":"31.2382864718","category":"247","category_name":"餐饮美食","address":"上海贵州路(铁道宾馆2楼)"},{"poiid":"B2094757D16EA3FC479F","title":"第一食品商店","lon":"121.47736773","lat":"31.236495433","category":"249","category_name":"购物服务","address":"上海市黄浦区西藏中路"},{"poiid":"B2094757D469A1FD449A","title":"浙江中路重庆鸡公煲","lon":"121.478184","lat":"31.237175","category":"86","category_name":"火锅店","address":"黄浦区浙江中路235号(近汉口路)"},{"poiid":"B209475DD66CAAF4459D","title":"牧羊少年咖啡茶馆","lon":"121.475135","lat":"31.236476","category":"247","category_name":"餐饮美食","address":"上海市 黄浦区六合路98号"},{"poiid":"B2094654DA6FA0FE409C","title":"河畔明珠","lon":"121.47536","lat":"31.240377","category":"47","category_name":"住宅区","address":"上海市黄浦区南苏州路881号"},{"poiid":"B2094757DB69A6FF4898","title":"新贝乐意式休闲餐厅 六合路店","lon":"121.474722","lat":"31.236606","category":"94","category_name":"西餐厅","address":"黄浦区六合路98号(近南京东路)"},{"poiid":"B2094654DA6FA1FB4893","title":"凯丽面王","lon":"121.476674","lat":"31.236539","category":"68","category_name":"快餐厅","address":"黄浦区广西北路424号(近南京东路)"},{"poiid":"B2094757D569A2FA419A","title":"Stage量贩式KTV","lon":"121.4747389","lat":"31.23702806","category":"170","category_name":"KTV","address":"六合路158号"},{"poiid":"B2094654DA6FA1FF4492","title":"上海科技京城B区","lon":"121.47696","lat":"31.23949","category":"46","category_name":"楼宇","address":"浙江中路598"},{"poiid":"B2094750D76CA6FE4992","title":"好爱椒时尚川菜(贵州路店)","lon":"121.476","lat":"31.2367","category":"71","category_name":"四川菜","address":"黄浦区贵州路160号铁道宾馆2楼(近宁波路)"},{"poiid":"B2094757D068ABFA4893","title":"上海市音乐幼儿园","lon":"121.474718","lat":"31.239423","category":"57","category_name":"幼儿园","address":"黄浦区厦门路180号"},{"poiid":"B2094655D26BA6FF439E","title":"重庆鸡公煲山城烤鱼","lon":"121.47645","lat":"31.23599","category":"71","category_name":"四川菜","address":"黄浦区天津路479号(近浙江中路)"},{"poiid":"B2094757D469A7FE499B","title":"兴隆餐厅 天津路店","lon":"121.476392","lat":"31.236238","category":"76","category_name":"上海菜","address":"黄浦区天津路528号(广西北路天津路)"},{"poiid":"B2094757D064A2FD4092","title":"大旺旺特色馄饨 贵州路店","lon":"121.47595","lat":"31.23672","category":"68","category_name":"快餐厅","address":"黄浦区贵州路150号(近宁波路)"}]