[{"poiid":"B2094757D06FA2F4419D","title":"上海市精神病院","lon":"121.405113","lat":"31.057344","category":"162","category_name":"医院","address":"闵行区沪闵路3210号(近放鹤路)"},{"poiid":"B2094655D36DA6FC449D","title":"颛桥地铁站","lon":"121.40139","lat":"31.06703","category":"36","category_name":"地铁站","address":"上海轨道交通 五号线 轨交颛桥站 5"},{"poiid":"B2094757D06FA7F54192","title":"北桥地铁站","lon":"121.410067407","lat":"31.0447301287","category":"36","category_name":"地铁站","address":"上海轨道交通 五号线 轨交北桥站 5"},{"poiid":"B2094655D264A2F84098","title":"S4沪金高速颛桥收费站","lon":"121.41513","lat":"31.06401","category":"267","category_name":"收费站","address":"上海闵行区颛桥镇"},{"poiid":"B2094757DA6EABFF4398","title":"上海宝景汽车4S店","lon":"121.427099699999","lat":"31.0731352000002","category":"249","category_name":"购物服务","address":"闵行区莲花南路2268号"},{"poiid":"B2094757D069A7F4499F","title":"福特4s店九华福特","lon":"121.415335","lat":"31.068825","category":"500","category_name":"未知分类","address":"上海颛兴东路"},{"poiid":"B2094757D068AAFF4793","title":"锦醇大酒店","lon":"121.39891","lat":"31.06615","category":"76","category_name":"上海菜","address":"闵行区颛卫路197号(颛兴路口)"},{"poiid":"B2094757D06BA4F5439A","title":"闵行北桥","lon":"121.409212","lat":"31.04328","category":"500","category_name":"未知分类","address":"上海闵行北桥"},{"poiid":"B2094655D26BA7FA4492","title":"肯德基 颛桥店 KFC","lon":"121.39811286184","lat":"31.066859749469","category":"68","category_name":"快餐厅","address":"闵行区颛兴路89-93-113号1-2楼(颛卫路口)"},{"poiid":"B2094655D264A0F84498","title":"招商雍华府","lon":"121.40441","lat":"31.075537","category":"47","category_name":"住宅区","address":"闵行都市路2988号(靠近贵都路乐购)"},{"poiid":"B2094757D069A4FF4293","title":"北桥花博园","lon":"121.408743","lat":"31.049165","category":"249","category_name":"购物服务","address":"上海沪闵路2759号"},{"poiid":"B2094757D069A3F9499A","title":"森马工业园","lon":"121.431782507","lat":"31.0666019936","category":"260","category_name":"其他","address":"上海闵行区莲花南路2689号"},{"poiid":"B2094654DB6EAAFC429C","title":"金榜新苑","lon":"121.41431","lat":"31.055824","category":"47","category_name":"住宅区","address":"都市路1800弄"},{"poiid":"B2094757D169A6F94499","title":"闵行都会路","lon":"121.41841085","lat":"31.062690615","category":"500","category_name":"未知分类","address":"上海市闵行区Ｓ４沪金高速"},{"poiid":"B2094654DB6EABFC499E","title":"银桥花园","lon":"121.40862","lat":"31.056038","category":"47","category_name":"住宅区","address":"沪闵路3131弄"},{"poiid":"B2094757D16DA5F44592","title":"总部一号企业园","lon":"121.415251543","lat":"31.0730497178","category":"500","category_name":"未知分类","address":"闵行区颛桥镇都会路2338号"},{"poiid":"B2094655D36DA6FF449B","title":"颛桥","lon":"121.40193","lat":"31.06675","category":"38","category_name":"公交车站","address":""},{"poiid":"B2094757D568A0F44498","title":"天籁园二期","lon":"121.4120939","lat":"31.06220556","category":"47","category_name":"住宅区","address":"上海市闵行区都市路2088弄"},{"poiid":"B2094655D36CA6FA419A","title":"都市路元江路","lon":"121.41281","lat":"31.05628","category":"38","category_name":"公交车站","address":""},{"poiid":"B2094655D36CA6FA429F","title":"都会路元江路","lon":"121.42136","lat":"31.06017","category":"38","category_name":"公交车站","address":""},{"poiid":"B2094757D06BA5FD4793","title":"天籁园","lon":"121.41211","lat":"31.062462","category":"500","category_name":"未知分类","address":"上海向阳路1768号"},{"poiid":"B2094655D26BA7F44798","title":"都市雅筑","lon":"121.418","lat":"31.064","category":"47","category_name":"住宅区","address":"闵行都市路2101号"},{"poiid":"B2094757D068A3F44192","title":"旗忠森林网球中心中央球场","lon":"121.4072113","lat":"31.064144134","category":"220","category_name":"运动场所","address":"上海闵行区元江路5500号旗忠森林网球中心内(近昆阳北路)"},{"poiid":"B2094655D264A7FD4493","title":"万顺水原墅","lon":"121.41538","lat":"31.04333","category":"47","category_name":"住宅区","address":"都市路777弄"},{"poiid":"B2094757D168A3FF4999","title":"FAMECCANICA法麦凯尼柯","lon":"121.41779605","lat":"31.062638814","category":"500","category_name":"未知分类","address":"上海都会路"},{"poiid":"B2094655D268ABF84499","title":"Ａ４公路收费站","lon":"121.41481","lat":"31.06393","category":"267","category_name":"收费站","address":""},{"poiid":"B2094757D16EA0F94098","title":"BG4FEI","lon":"121.414524857","lat":"31.0581495245","category":"500","category_name":"未知分类","address":null},{"poiid":"B2094655D36CA6FA4192","title":"都市路伟都路","lon":"121.41316","lat":"31.05562","category":"38","category_name":"公交车站","address":""},{"poiid":"B2094655D36CA6FA4199","title":"都市路向阳路","lon":"121.40977","lat":"31.06195","category":"38","category_name":"公交车站","address":""},{"poiid":"B2094655D26FA3F5449B","title":"圣得恒业花园","lon":"121.40784","lat":"31.061552","category":"47","category_name":"住宅区","address":"上海市闵行区都市路2099弄"},{"poiid":"B2094655D26FA3F54299","title":"鑫峰苑","lon":"121.39767","lat":"31.054302","category":"47","category_name":"住宅区","address":"鑫都路2535弄"},{"poiid":"B2094757D069A5F9429F","title":"文洋别克4S","lon":"121.40726315","lat":"31.050309907","category":"500","category_name":"未知分类","address":"上海元江路"},{"poiid":"B2094757D06BA6FB4292","title":"奥迪4S店","lon":"121.416973857","lat":"31.0747328562","category":"158","category_name":"汽车销售","address":"上海颛兴东路1280弄3号"},{"poiid":"B2094655D264A7F94498","title":"天籁园一期","lon":"121.419379","lat":"31.066586","category":"47","category_name":"住宅区","address":"上海市闵行区向阳路1683号"},{"poiid":"B2094757D66FA2F8409E","title":"北京星河湾酒店","lon":"121.420043","lat":"31.063126","category":"217","category_name":"旅馆招待所","address":"北京星河湾"},{"poiid":"B2094655D26AA0F9449B","title":"地铁颛桥站","lon":"121.40193","lat":"31.06675","category":"36","category_name":"地铁站","address":""},{"poiid":"B2094757D164A5FE429D","title":"塘湾","lon":"121.41700685","lat":"31.056213185","category":"500","category_name":"未知分类","address":"上海吴泾"},{"poiid":"B2094655D26EA5F9419A","title":"翔泰苑","lon":"121.40572","lat":"31.046673","category":"47","category_name":"住宅区","address":"闵行区鹤翔路180弄"},{"poiid":"B2094654DB6EABF84193","title":"闵行区国家税务局第十一税务所","lon":"121.39997","lat":"31.06249","category":"250","category_name":"公园户外","address":"上海市闵行区联农路135号"},{"poiid":"B2094654DB64A0FF4199","title":"天籁园(北门)","lon":"121.41106","lat":"31.06472","category":"47","category_name":"住宅区","address":"向阳路1683"},{"poiid":"B2094757D569A6FD4199","title":"(服务区)易捷便利店","lon":"121.4136377","lat":"31.06558729","category":"117","category_name":"便民商店/便利店","address":"颛桥镇"},{"poiid":"B2094751D565AAF8499E","title":"17.5北桥影院","lon":"121.407532","lat":"31.047287","category":"248","category_name":"生活娱乐","address":"上海市闵行区鹤翔路28弄9,10号一楼"},{"poiid":"B2094757D569A0F54492","title":"鑫都城云天绿洲","lon":"121.407","lat":"31.0576","category":"47","category_name":"住宅区","address":"上海市闵行区鑫都路2711弄"},{"poiid":"B2094751D26BA0F5459B","title":"刘家村","lon":"121.419631","lat":"31.044012","category":"87","category_name":"特色／地方风味餐厅","address":"闵行区都市路728号(近金塔路)"},{"poiid":"B2094757D168A4FE499C","title":"雪佛兰文洋4s店","lon":"121.404198857","lat":"31.0502997009","category":"500","category_name":"未知分类","address":"上海元江路"},{"poiid":"B2094655D26FA3F4409E","title":"银桥花园(南门)","lon":"121.40909","lat":"31.05541","category":"47","category_name":"住宅区","address":"沪闵路3131号"},{"poiid":"B2094654DB6AA1F5489D","title":"剑桥馨苑","lon":"121.40881","lat":"31.072178","category":"47","category_name":"住宅区","address":"上海市闵行区颛兴东路1570号"},{"poiid":"B2094655D269ABFF4999","title":"闵行公园","lon":"121.40988","lat":"31.05523","category":"247","category_name":"餐饮美食","address":"闵行区沪闵路249号(江川路口)"},{"poiid":"B2094757D16AA6FB4993","title":"KのKの 五番街お茶","lon":"121.40560875","lat":"31.0618821","category":"247","category_name":"餐饮美食","address":"上海莘庄南广场"},{"poiid":"B2094757D169A2F9469A","title":"上海伟都汽车维修服务有限公司","lon":"121.410196857","lat":"31.0573335082","category":"500","category_name":"未知分类","address":"闵行区伟都路235号(近都市路)"},{"poiid":"B2094757D06FA2F4419D","title":"上海市精神病院","lon":"121.405113","lat":"31.057344","category":"162","category_name":"医院","address":"闵行区沪闵路3210号(近放鹤路)"},{"poiid":"B2094655D36DA6FC449D","title":"颛桥地铁站","lon":"121.40139","lat":"31.06703","category":"36","category_name":"地铁站","address":"上海轨道交通 五号线 轨交颛桥站 5"},{"poiid":"B2094757D06FA7F54192","title":"北桥地铁站","lon":"121.410067407","lat":"31.0447301287","category":"36","category_name":"地铁站","address":"上海轨道交通 五号线 轨交北桥站 5"},{"poiid":"B2094655D264A2F84098","title":"S4沪金高速颛桥收费站","lon":"121.41513","lat":"31.06401","category":"267","category_name":"收费站","address":"上海闵行区颛桥镇"},{"poiid":"B2094757DA6EABFF4398","title":"上海宝景汽车4S店","lon":"121.427099699999","lat":"31.0731352000002","category":"249","category_name":"购物服务","address":"闵行区莲花南路2268号"},{"poiid":"B2094757D069A7F4499F","title":"福特4s店九华福特","lon":"121.415335","lat":"31.068825","category":"500","category_name":"未知分类","address":"上海颛兴东路"},{"poiid":"B2094757D068AAFF4793","title":"锦醇大酒店","lon":"121.39891","lat":"31.06615","category":"76","category_name":"上海菜","address":"闵行区颛卫路197号(颛兴路口)"},{"poiid":"B2094757D06BA4F5439A","title":"闵行北桥","lon":"121.409212","lat":"31.04328","category":"500","category_name":"未知分类","address":"上海闵行北桥"},{"poiid":"B2094655D26BA7FA4492","title":"肯德基 颛桥店 KFC","lon":"121.39811286184","lat":"31.066859749469","category":"68","category_name":"快餐厅","address":"闵行区颛兴路89-93-113号1-2楼(颛卫路口)"},{"poiid":"B2094655D264A0F84498","title":"招商雍华府","lon":"121.40441","lat":"31.075537","category":"47","category_name":"住宅区","address":"闵行都市路2988号(靠近贵都路乐购)"},{"poiid":"B2094757D069A4FF4293","title":"北桥花博园","lon":"121.408743","lat":"31.049165","category":"249","category_name":"购物服务","address":"上海沪闵路2759号"},{"poiid":"B2094757D069A3F9499A","title":"森马工业园","lon":"121.431782507","lat":"31.0666019936","category":"260","category_name":"其他","address":"上海闵行区莲花南路2689号"},{"poiid":"B2094654DB6EAAFC429C","title":"金榜新苑","lon":"121.41431","lat":"31.055824","category":"47","category_name":"住宅区","address":"都市路1800弄"},{"poiid":"B2094757D169A6F94499","title":"闵行都会路","lon":"121.41841085","lat":"31.062690615","category":"500","category_name":"未知分类","address":"上海市闵行区Ｓ４沪金高速"},{"poiid":"B2094654DB6EABFC499E","title":"银桥花园","lon":"121.40862","lat":"31.056038","category":"47","category_name":"住宅区","address":"沪闵路3131弄"},{"poiid":"B2094757D16DA5F44592","title":"总部一号企业园","lon":"121.415251543","lat":"31.0730497178","category":"500","category_name":"未知分类","address":"闵行区颛桥镇都会路2338号"},{"poiid":"B2094655D36DA6FF449B","title":"颛桥","lon":"121.40193","lat":"31.06675","category":"38","category_name":"公交车站","address":""},{"poiid":"B2094757D568A0F44498","title":"天籁园二期","lon":"121.4120939","lat":"31.06220556","category":"47","category_name":"住宅区","address":"上海市闵行区都市路2088弄"},{"poiid":"B2094655D36CA6FA419A","title":"都市路元江路","lon":"121.41281","lat":"31.05628","category":"38","category_name":"公交车站","address":""},{"poiid":"B2094655D36CA6FA429F","title":"都会路元江路","lon":"121.42136","lat":"31.06017","category":"38","category_name":"公交车站","address":""},{"poiid":"B2094757D06BA5FD4793","title":"天籁园","lon":"121.41211","lat":"31.062462","category":"500","category_name":"未知分类","address":"上海向阳路1768号"},{"poiid":"B2094655D26BA7F44798","title":"都市雅筑","lon":"121.418","lat":"31.064","category":"47","category_name":"住宅区","address":"闵行都市路2101号"},{"poiid":"B2094757D068A3F44192","title":"旗忠森林网球中心中央球场","lon":"121.4072113","lat":"31.064144134","category":"220","category_name":"运动场所","address":"上海闵行区元江路5500号旗忠森林网球中心内(近昆阳北路)"},{"poiid":"B2094655D264A7FD4493","title":"万顺水原墅","lon":"121.41538","lat":"31.04333","category":"47","category_name":"住宅区","address":"都市路777弄"},{"poiid":"B2094757D168A3FF4999","title":"FAMECCANICA法麦凯尼柯","lon":"121.41779605","lat":"31.062638814","category":"500","category_name":"未知分类","address":"上海都会路"},{"poiid":"B2094655D268ABF84499","title":"Ａ４公路收费站","lon":"121.41481","lat":"31.06393","category":"267","category_name":"收费站","address":""},{"poiid":"B2094757D16EA0F94098","title":"BG4FEI","lon":"121.414524857","lat":"31.0581495245","category":"500","category_name":"未知分类","address":null},{"poiid":"B2094655D36CA6FA4192","title":"都市路伟都路","lon":"121.41316","lat":"31.05562","category":"38","category_name":"公交车站","address":""},{"poiid":"B2094655D36CA6FA4199","title":"都市路向阳路","lon":"121.40977","lat":"31.06195","category":"38","category_name":"公交车站","address":""},{"poiid":"B2094655D26FA3F5449B","title":"圣得恒业花园","lon":"121.40784","lat":"31.061552","category":"47","category_name":"住宅区","address":"上海市闵行区都市路2099弄"},{"poiid":"B2094655D26FA3F54299","title":"鑫峰苑","lon":"121.39767","lat":"31.054302","category":"47","category_name":"住宅区","address":"鑫都路2535弄"},{"poiid":"B2094757D069A5F9429F","title":"文洋别克4S","lon":"121.40726315","lat":"31.050309907","category":"500","category_name":"未知分类","address":"上海元江路"},{"poiid":"B2094757D06BA6FB4292","title":"奥迪4S店","lon":"121.416973857","lat":"31.0747328562","category":"158","category_name":"汽车销售","address":"上海颛兴东路1280弄3号"},{"poiid":"B2094655D264A7F94498","title":"天籁园一期","lon":"121.419379","lat":"31.066586","category":"47","category_name":"住宅区","address":"上海市闵行区向阳路1683号"},{"poiid":"B2094757D66FA2F8409E","title":"北京星河湾酒店","lon":"121.420043","lat":"31.063126","category":"217","category_name":"旅馆招待所","address":"北京星河湾"},{"poiid":"B2094655D26AA0F9449B","title":"地铁颛桥站","lon":"121.40193","lat":"31.06675","category":"36","category_name":"地铁站","address":""},{"poiid":"B2094757D164A5FE429D","title":"塘湾","lon":"121.41700685","lat":"31.056213185","category":"500","category_name":"未知分类","address":"上海吴泾"},{"poiid":"B2094655D26EA5F9419A","title":"翔泰苑","lon":"121.40572","lat":"31.046673","category":"47","category_name":"住宅区","address":"闵行区鹤翔路180弄"},{"poiid":"B2094654DB6EABF84193","title":"闵行区国家税务局第十一税务所","lon":"121.39997","lat":"31.06249","category":"250","category_name":"公园户外","address":"上海市闵行区联农路135号"},{"poiid":"B2094654DB64A0FF4199","title":"天籁园(北门)","lon":"121.41106","lat":"31.06472","category":"47","category_name":"住宅区","address":"向阳路1683"},{"poiid":"B2094757D569A6FD4199","title":"(服务区)易捷便利店","lon":"121.4136377","lat":"31.06558729","category":"117","category_name":"便民商店/便利店","address":"颛桥镇"},{"poiid":"B2094751D565AAF8499E","title":"17.5北桥影院","lon":"121.407532","lat":"31.047287","category":"248","category_name":"生活娱乐","address":"上海市闵行区鹤翔路28弄9,10号一楼"},{"poiid":"B2094757D569A0F54492","title":"鑫都城云天绿洲","lon":"121.407","lat":"31.0576","category":"47","category_name":"住宅区","address":"上海市闵行区鑫都路2711弄"},{"poiid":"B2094751D26BA0F5459B","title":"刘家村","lon":"121.419631","lat":"31.044012","category":"87","category_name":"特色／地方风味餐厅","address":"闵行区都市路728号(近金塔路)"},{"poiid":"B2094757D168A4FE499C","title":"雪佛兰文洋4s店","lon":"121.404198857","lat":"31.0502997009","category":"500","category_name":"未知分类","address":"上海元江路"},{"poiid":"B2094655D26FA3F4409E","title":"银桥花园(南门)","lon":"121.40909","lat":"31.05541","category":"47","category_name":"住宅区","address":"沪闵路3131号"},{"poiid":"B2094654DB6AA1F5489D","title":"剑桥馨苑","lon":"121.40881","lat":"31.072178","category":"47","category_name":"住宅区","address":"上海市闵行区颛兴东路1570号"},{"poiid":"B2094655D269ABFF4999","title":"闵行公园","lon":"121.40988","lat":"31.05523","category":"247","category_name":"餐饮美食","address":"闵行区沪闵路249号(江川路口)"},{"poiid":"B2094757D16AA6FB4993","title":"KのKの 五番街お茶","lon":"121.40560875","lat":"31.0618821","category":"247","category_name":"餐饮美食","address":"上海莘庄南广场"},{"poiid":"B2094757D169A2F9469A","title":"上海伟都汽车维修服务有限公司","lon":"121.410196857","lat":"31.0573335082","category":"500","category_name":"未知分类","address":"闵行区伟都路235号(近都市路)"},{"poiid":"B2094757D06FA2F4419D","title":"上海市精神病院","lon":"121.405113","lat":"31.057344","category":"162","category_name":"医院","address":"闵行区沪闵路3210号(近放鹤路)"},{"poiid":"B2094655D36DA6FC449D","title":"颛桥地铁站","lon":"121.40139","lat":"31.06703","category":"36","category_name":"地铁站","address":"上海轨道交通 五号线 轨交颛桥站 5"},{"poiid":"B2094757D06FA7F54192","title":"北桥地铁站","lon":"121.410067407","lat":"31.0447301287","category":"36","category_name":"地铁站","address":"上海轨道交通 五号线 轨交北桥站 5"},{"poiid":"B2094655D264A2F84098","title":"S4沪金高速颛桥收费站","lon":"121.41513","lat":"31.06401","category":"267","category_name":"收费站","address":"上海闵行区颛桥镇"},{"poiid":"B2094757DA6EABFF4398","title":"上海宝景汽车4S店","lon":"121.427099699999","lat":"31.0731352000002","category":"249","category_name":"购物服务","address":"闵行区莲花南路2268号"},{"poiid":"B2094757D069A7F4499F","title":"福特4s店九华福特","lon":"121.415335","lat":"31.068825","category":"500","category_name":"未知分类","address":"上海颛兴东路"},{"poiid":"B2094757D068AAFF4793","title":"锦醇大酒店","lon":"121.39891","lat":"31.06615","category":"76","category_name":"上海菜","address":"闵行区颛卫路197号(颛兴路口)"},{"poiid":"B2094757D06BA4F5439A","title":"闵行北桥","lon":"121.409212","lat":"31.04328","category":"500","category_name":"未知分类","address":"上海闵行北桥"},{"poiid":"B2094655D26BA7FA4492","title":"肯德基 颛桥店 KFC","lon":"121.39811286184","lat":"31.066859749469","category":"68","category_name":"快餐厅","address":"闵行区颛兴路89-93-113号1-2楼(颛卫路口)"},{"poiid":"B2094655D264A0F84498","title":"招商雍华府","lon":"121.40441","lat":"31.075537","category":"47","category_name":"住宅区","address":"闵行都市路2988号(靠近贵都路乐购)"},{"poiid":"B2094757D069A4FF4293","title":"北桥花博园","lon":"121.408743","lat":"31.049165","category":"249","category_name":"购物服务","address":"上海沪闵路2759号"},{"poiid":"B2094757D069A3F9499A","title":"森马工业园","lon":"121.431782507","lat":"31.0666019936","category":"260","category_name":"其他","address":"上海闵行区莲花南路2689号"},{"poiid":"B2094654DB6EAAFC429C","title":"金榜新苑","lon":"121.41431","lat":"31.055824","category":"47","category_name":"住宅区","address":"都市路1800弄"},{"poiid":"B2094757D169A6F94499","title":"闵行都会路","lon":"121.41841085","lat":"31.062690615","category":"500","category_name":"未知分类","address":"上海市闵行区Ｓ４沪金高速"},{"poiid":"B2094654DB6EABFC499E","title":"银桥花园","lon":"121.40862","lat":"31.056038","category":"47","category_name":"住宅区","address":"沪闵路3131弄"},{"poiid":"B2094757D16DA5F44592","title":"总部一号企业园","lon":"121.415251543","lat":"31.0730497178","category":"500","category_name":"未知分类","address":"闵行区颛桥镇都会路2338号"},{"poiid":"B2094655D36DA6FF449B","title":"颛桥","lon":"121.40193","lat":"31.06675","category":"38","category_name":"公交车站","address":""},{"poiid":"B2094757D568A0F44498","title":"天籁园二期","lon":"121.4120939","lat":"31.06220556","category":"47","category_name":"住宅区","address":"上海市闵行区都市路2088弄"},{"poiid":"B2094655D36CA6FA419A","title":"都市路元江路","lon":"121.41281","lat":"31.05628","category":"38","category_name":"公交车站","address":""},{"poiid":"B2094655D36CA6FA429F","title":"都会路元江路","lon":"121.42136","lat":"31.06017","category":"38","category_name":"公交车站","address":""},{"poiid":"B2094757D06BA5FD4793","title":"天籁园","lon":"121.41211","lat":"31.062462","category":"500","category_name":"未知分类","address":"上海向阳路1768号"},{"poiid":"B2094655D26BA7F44798","title":"都市雅筑","lon":"121.418","lat":"31.064","category":"47","category_name":"住宅区","address":"闵行都市路2101号"},{"poiid":"B2094757D068A3F44192","title":"旗忠森林网球中心中央球场","lon":"121.4072113","lat":"31.064144134","category":"220","category_name":"运动场所","address":"上海闵行区元江路5500号旗忠森林网球中心内(近昆阳北路)"},{"poiid":"B2094655D264A7FD4493","title":"万顺水原墅","lon":"121.41538","lat":"31.04333","category":"47","category_name":"住宅区","address":"都市路777弄"},{"poiid":"B2094757D168A3FF4999","title":"FAMECCANICA法麦凯尼柯","lon":"121.41779605","lat":"31.062638814","category":"500","category_name":"未知分类","address":"上海都会路"},{"poiid":"B2094655D268ABF84499","title":"Ａ４公路收费站","lon":"121.41481","lat":"31.06393","category":"267","category_name":"收费站","address":""},{"poiid":"B2094757D16EA0F94098","title":"BG4FEI","lon":"121.414524857","lat":"31.0581495245","category":"500","category_name":"未知分类","address":null},{"poiid":"B2094655D36CA6FA4192","title":"都市路伟都路","lon":"121.41316","lat":"31.05562","category":"38","category_name":"公交车站","address":""},{"poiid":"B2094655D36CA6FA4199","title":"都市路向阳路","lon":"121.40977","lat":"31.06195","category":"38","category_name":"公交车站","address":""},{"poiid":"B2094655D26FA3F5449B","title":"圣得恒业花园","lon":"121.40784","lat":"31.061552","category":"47","category_name":"住宅区","address":"上海市闵行区都市路2099弄"},{"poiid":"B2094655D26FA3F54299","title":"鑫峰苑","lon":"121.39767","lat":"31.054302","category":"47","category_name":"住宅区","address":"鑫都路2535弄"},{"poiid":"B2094757D069A5F9429F","title":"文洋别克4S","lon":"121.40726315","lat":"31.050309907","category":"500","category_name":"未知分类","address":"上海元江路"},{"poiid":"B2094757D06BA6FB4292","title":"奥迪4S店","lon":"121.416973857","lat":"31.0747328562","category":"158","category_name":"汽车销售","address":"上海颛兴东路1280弄3号"},{"poiid":"B2094655D264A7F94498","title":"天籁园一期","lon":"121.419379","lat":"31.066586","category":"47","category_name":"住宅区","address":"上海市闵行区向阳路1683号"},{"poiid":"B2094757D66FA2F8409E","title":"北京星河湾酒店","lon":"121.420043","lat":"31.063126","category":"217","category_name":"旅馆招待所","address":"北京星河湾"},{"poiid":"B2094655D26AA0F9449B","title":"地铁颛桥站","lon":"121.40193","lat":"31.06675","category":"36","category_name":"地铁站","address":""},{"poiid":"B2094757D164A5FE429D","title":"塘湾","lon":"121.41700685","lat":"31.056213185","category":"500","category_name":"未知分类","address":"上海吴泾"},{"poiid":"B2094655D26EA5F9419A","title":"翔泰苑","lon":"121.40572","lat":"31.046673","category":"47","category_name":"住宅区","address":"闵行区鹤翔路180弄"},{"poiid":"B2094654DB6EABF84193","title":"闵行区国家税务局第十一税务所","lon":"121.39997","lat":"31.06249","category":"250","category_name":"公园户外","address":"上海市闵行区联农路135号"},{"poiid":"B2094654DB64A0FF4199","title":"天籁园(北门)","lon":"121.41106","lat":"31.06472","category":"47","category_name":"住宅区","address":"向阳路1683"},{"poiid":"B2094757D569A6FD4199","title":"(服务区)易捷便利店","lon":"121.4136377","lat":"31.06558729","category":"117","category_name":"便民商店/便利店","address":"颛桥镇"},{"poiid":"B2094751D565AAF8499E","title":"17.5北桥影院","lon":"121.407532","lat":"31.047287","category":"248","category_name":"生活娱乐","address":"上海市闵行区鹤翔路28弄9,10号一楼"},{"poiid":"B2094757D569A0F54492","title":"鑫都城云天绿洲","lon":"121.407","lat":"31.0576","category":"47","category_name":"住宅区","address":"上海市闵行区鑫都路2711弄"},{"poiid":"B2094751D26BA0F5459B","title":"刘家村","lon":"121.419631","lat":"31.044012","category":"87","category_name":"特色／地方风味餐厅","address":"闵行区都市路728号(近金塔路)"},{"poiid":"B2094757D168A4FE499C","title":"雪佛兰文洋4s店","lon":"121.404198857","lat":"31.0502997009","category":"500","category_name":"未知分类","address":"上海元江路"},{"poiid":"B2094655D26FA3F4409E","title":"银桥花园(南门)","lon":"121.40909","lat":"31.05541","category":"47","category_name":"住宅区","address":"沪闵路3131号"},{"poiid":"B2094654DB6AA1F5489D","title":"剑桥馨苑","lon":"121.40881","lat":"31.072178","category":"47","category_name":"住宅区","address":"上海市闵行区颛兴东路1570号"},{"poiid":"B2094655D269ABFF4999","title":"闵行公园","lon":"121.40988","lat":"31.05523","category":"247","category_name":"餐饮美食","address":"闵行区沪闵路249号(江川路口)"},{"poiid":"B2094757D16AA6FB4993","title":"KのKの 五番街お茶","lon":"121.40560875","lat":"31.0618821","category":"247","category_name":"餐饮美食","address":"上海莘庄南广场"},{"poiid":"B2094757D169A2F9469A","title":"上海伟都汽车维修服务有限公司","lon":"121.410196857","lat":"31.0573335082","category":"500","category_name":"未知分类","address":"闵行区伟都路235号(近都市路)"},{"poiid":"B2094757D06FA2F4419D","title":"上海市精神病院","lon":"121.405113","lat":"31.057344","category":"162","category_name":"医院","address":"闵行区沪闵路3210号(近放鹤路)"},{"poiid":"B2094655D36DA6FC449D","title":"颛桥地铁站","lon":"121.40139","lat":"31.06703","category":"36","category_name":"地铁站","address":"上海轨道交通 五号线 轨交颛桥站 5"},{"poiid":"B2094757D06FA7F54192","title":"北桥地铁站","lon":"121.410067407","lat":"31.0447301287","category":"36","category_name":"地铁站","address":"上海轨道交通 五号线 轨交北桥站 5"},{"poiid":"B2094655D264A2F84098","title":"S4沪金高速颛桥收费站","lon":"121.41513","lat":"31.06401","category":"267","category_name":"收费站","address":"上海闵行区颛桥镇"},{"poiid":"B2094757DA6EABFF4398","title":"上海宝景汽车4S店","lon":"121.427099699999","lat":"31.0731352000002","category":"249","category_name":"购物服务","address":"闵行区莲花南路2268号"},{"poiid":"B2094757D069A7F4499F","title":"福特4s店九华福特","lon":"121.415335","lat":"31.068825","category":"500","category_name":"未知分类","address":"上海颛兴东路"},{"poiid":"B2094757D068AAFF4793","title":"锦醇大酒店","lon":"121.39891","lat":"31.06615","category":"76","category_name":"上海菜","address":"闵行区颛卫路197号(颛兴路口)"},{"poiid":"B2094757D06BA4F5439A","title":"闵行北桥","lon":"121.409212","lat":"31.04328","category":"500","category_name":"未知分类","address":"上海闵行北桥"},{"poiid":"B2094655D26BA7FA4492","title":"肯德基 颛桥店 KFC","lon":"121.39811286184","lat":"31.066859749469","category":"68","category_name":"快餐厅","address":"闵行区颛兴路89-93-113号1-2楼(颛卫路口)"},{"poiid":"B2094655D264A0F84498","title":"招商雍华府","lon":"121.40441","lat":"31.075537","category":"47","category_name":"住宅区","address":"闵行都市路2988号(靠近贵都路乐购)"},{"poiid":"B2094757D069A4FF4293","title":"北桥花博园","lon":"121.408743","lat":"31.049165","category":"249","category_name":"购物服务","address":"上海沪闵路2759号"},{"poiid":"B2094757D069A3F9499A","title":"森马工业园","lon":"121.431782507","lat":"31.0666019936","category":"260","category_name":"其他","address":"上海闵行区莲花南路2689号"},{"poiid":"B2094654DB6EAAFC429C","title":"金榜新苑","lon":"121.41431","lat":"31.055824","category":"47","category_name":"住宅区","address":"都市路1800弄"},{"poiid":"B2094757D169A6F94499","title":"闵行都会路","lon":"121.41841085","lat":"31.062690615","category":"500","category_name":"未知分类","address":"上海市闵行区Ｓ４沪金高速"},{"poiid":"B2094654DB6EABFC499E","title":"银桥花园","lon":"121.40862","lat":"31.056038","category":"47","category_name":"住宅区","address":"沪闵路3131弄"},{"poiid":"B2094757D16DA5F44592","title":"总部一号企业园","lon":"121.415251543","lat":"31.0730497178","category":"500","category_name":"未知分类","address":"闵行区颛桥镇都会路2338号"},{"poiid":"B2094655D36DA6FF449B","title":"颛桥","lon":"121.40193","lat":"31.06675","category":"38","category_name":"公交车站","address":""},{"poiid":"B2094757D568A0F44498","title":"天籁园二期","lon":"121.4120939","lat":"31.06220556","category":"47","category_name":"住宅区","address":"上海市闵行区都市路2088弄"},{"poiid":"B2094655D36CA6FA419A","title":"都市路元江路","lon":"121.41281","lat":"31.05628","category":"38","category_name":"公交车站","address":""},{"poiid":"B2094655D36CA6FA429F","title":"都会路元江路","lon":"121.42136","lat":"31.06017","category":"38","category_name":"公交车站","address":""},{"poiid":"B2094757D06BA5FD4793","title":"天籁园","lon":"121.41211","lat":"31.062462","category":"500","category_name":"未知分类","address":"上海向阳路1768号"},{"poiid":"B2094655D26BA7F44798","title":"都市雅筑","lon":"121.418","lat":"31.064","category":"47","category_name":"住宅区","address":"闵行都市路2101号"},{"poiid":"B2094757D068A3F44192","title":"旗忠森林网球中心中央球场","lon":"121.4072113","lat":"31.064144134","category":"220","category_name":"运动场所","address":"上海闵行区元江路5500号旗忠森林网球中心内(近昆阳北路)"},{"poiid":"B2094655D264A7FD4493","title":"万顺水原墅","lon":"121.41538","lat":"31.04333","category":"47","category_name":"住宅区","address":"都市路777弄"},{"poiid":"B2094757D168A3FF4999","title":"FAMECCANICA法麦凯尼柯","lon":"121.41779605","lat":"31.062638814","category":"500","category_name":"未知分类","address":"上海都会路"},{"poiid":"B2094655D268ABF84499","title":"Ａ４公路收费站","lon":"121.41481","lat":"31.06393","category":"267","category_name":"收费站","address":""},{"poiid":"B2094757D16EA0F94098","title":"BG4FEI","lon":"121.414524857","lat":"31.0581495245","category":"500","category_name":"未知分类","address":null},{"poiid":"B2094655D36CA6FA4192","title":"都市路伟都路","lon":"121.41316","lat":"31.05562","category":"38","category_name":"公交车站","address":""},{"poiid":"B2094655D36CA6FA4199","title":"都市路向阳路","lon":"121.40977","lat":"31.06195","category":"38","category_name":"公交车站","address":""},{"poiid":"B2094655D26FA3F5449B","title":"圣得恒业花园","lon":"121.40784","lat":"31.061552","category":"47","category_name":"住宅区","address":"上海市闵行区都市路2099弄"},{"poiid":"B2094655D26FA3F54299","title":"鑫峰苑","lon":"121.39767","lat":"31.054302","category":"47","category_name":"住宅区","address":"鑫都路2535弄"},{"poiid":"B2094757D069A5F9429F","title":"文洋别克4S","lon":"121.40726315","lat":"31.050309907","category":"500","category_name":"未知分类","address":"上海元江路"},{"poiid":"B2094757D06BA6FB4292","title":"奥迪4S店","lon":"121.416973857","lat":"31.0747328562","category":"158","category_name":"汽车销售","address":"上海颛兴东路1280弄3号"},{"poiid":"B2094655D264A7F94498","title":"天籁园一期","lon":"121.419379","lat":"31.066586","category":"47","category_name":"住宅区","address":"上海市闵行区向阳路1683号"},{"poiid":"B2094757D66FA2F8409E","title":"北京星河湾酒店","lon":"121.420043","lat":"31.063126","category":"217","category_name":"旅馆招待所","address":"北京星河湾"},{"poiid":"B2094655D26AA0F9449B","title":"地铁颛桥站","lon":"121.40193","lat":"31.06675","category":"36","category_name":"地铁站","address":""},{"poiid":"B2094757D164A5FE429D","title":"塘湾","lon":"121.41700685","lat":"31.056213185","category":"500","category_name":"未知分类","address":"上海吴泾"},{"poiid":"B2094655D26EA5F9419A","title":"翔泰苑","lon":"121.40572","lat":"31.046673","category":"47","category_name":"住宅区","address":"闵行区鹤翔路180弄"},{"poiid":"B2094654DB6EABF84193","title":"闵行区国家税务局第十一税务所","lon":"121.39997","lat":"31.06249","category":"250","category_name":"公园户外","address":"上海市闵行区联农路135号"},{"poiid":"B2094654DB64A0FF4199","title":"天籁园(北门)","lon":"121.41106","lat":"31.06472","category":"47","category_name":"住宅区","address":"向阳路1683"},{"poiid":"B2094757D569A6FD4199","title":"(服务区)易捷便利店","lon":"121.4136377","lat":"31.06558729","category":"117","category_name":"便民商店/便利店","address":"颛桥镇"},{"poiid":"B2094751D565AAF8499E","title":"17.5北桥影院","lon":"121.407532","lat":"31.047287","category":"248","category_name":"生活娱乐","address":"上海市闵行区鹤翔路28弄9,10号一楼"},{"poiid":"B2094757D569A0F54492","title":"鑫都城云天绿洲","lon":"121.407","lat":"31.0576","category":"47","category_name":"住宅区","address":"上海市闵行区鑫都路2711弄"},{"poiid":"B2094751D26BA0F5459B","title":"刘家村","lon":"121.419631","lat":"31.044012","category":"87","category_name":"特色／地方风味餐厅","address":"闵行区都市路728号(近金塔路)"},{"poiid":"B2094757D168A4FE499C","title":"雪佛兰文洋4s店","lon":"121.404198857","lat":"31.0502997009","category":"500","category_name":"未知分类","address":"上海元江路"},{"poiid":"B2094655D26FA3F4409E","title":"银桥花园(南门)","lon":"121.40909","lat":"31.05541","category":"47","category_name":"住宅区","address":"沪闵路3131号"},{"poiid":"B2094654DB6AA1F5489D","title":"剑桥馨苑","lon":"121.40881","lat":"31.072178","category":"47","category_name":"住宅区","address":"上海市闵行区颛兴东路1570号"},{"poiid":"B2094655D269ABFF4999","title":"闵行公园","lon":"121.40988","lat":"31.05523","category":"247","category_name":"餐饮美食","address":"闵行区沪闵路249号(江川路口)"},{"poiid":"B2094757D16AA6FB4993","title":"KのKの 五番街お茶","lon":"121.40560875","lat":"31.0618821","category":"247","category_name":"餐饮美食","address":"上海莘庄南广场"},{"poiid":"B2094757D169A2F9469A","title":"上海伟都汽车维修服务有限公司","lon":"121.410196857","lat":"31.0573335082","category":"500","category_name":"未知分类","address":"闵行区伟都路235号(近都市路)"}]