[{"poiid":"B2094757D06FA1F44893","title":"宝钢人才开发院","lon":"121.43393707","lat":"31.412914276","category":"263","category_name":"公司","address":"上海宝山区四元路"},{"poiid":"B2094757D06FA2F8469F","title":"江杨北路地铁站","lon":"121.439261","lat":"31.407223","category":"36","category_name":"地铁站","address":"上海轨道交通 三号线 轨交江杨北路站 轻轨 3"},{"poiid":"B2094757D068A3FC429E","title":"月浦公园","lon":"121.42663094","lat":"31.416554936","category":"196","category_name":"公园","address":"宝山区月浦镇龙镇路205号(北安路龙镇路)"},{"poiid":"B2094654D46AA3FF429B","title":"上海中冶医院","lon":"121.43325","lat":"31.41258","category":"162","category_name":"医院","address":"宝山区春蕾路456号"},{"poiid":"B2094757D068ABFE449F","title":"馨煌大酒店","lon":"121.42714","lat":"31.40976","category":"76","category_name":"上海菜","address":"宝山区安家路17号(安家路庆安路)"},{"poiid":"B2094654DB69A5FE479D","title":"肯德基 月浦路 KFC","lon":"121.42707152064","lat":"31.417603276693","category":"68","category_name":"快餐厅","address":"宝山区龙镇路200弄2号(近德都路)"},{"poiid":"B2094757D169A2FF4292","title":"段氏龙虾","lon":"121.43410167","lat":"31.406575144","category":"247","category_name":"餐饮美食","address":"上海市宝山区绥化路100号"},{"poiid":"B2094757D168ABFE4099","title":"混迹于宝钢大院内","lon":"121.43918367","lat":"31.418531369","category":"500","category_name":"未知分类","address":"上海市宝山区纬十二西路"},{"poiid":"B2094757D068A0F8459F","title":"红辣椒 月浦店","lon":"121.42518","lat":"31.41344","category":"71","category_name":"四川菜","address":"宝山区四元路299号(近德都路)"},{"poiid":"B2094757D16BA0FE469E","title":"宝钢五号门","lon":"121.434525779","lat":"31.4148508003","category":"500","category_name":"未知分类","address":"上海宝钢五号门"},{"poiid":"B2094654D46AA3FE409D","title":"庆安苑","lon":"121.43623","lat":"31.406603","category":"47","category_name":"住宅区","address":"绥化路50弄"},{"poiid":"B2094757D464A0FF4292","title":"金牡丹大酒店 月浦店","lon":"121.42624303983","lat":"31.41717175352","category":"76","category_name":"上海菜","address":"宝山区龙镇路83号(近北安路)"},{"poiid":"B2094654D469AAFF4493","title":"富浩河滨花园","lon":"121.433","lat":"31.4124","category":"47","category_name":"住宅区","address":"上海市宝山区德都路88弄"},{"poiid":"B2094750DB68A6FF499F","title":"炫音KTV(月浦店)","lon":"121.426544","lat":"31.417119","category":"170","category_name":"KTV","address":"宝山区月浦镇龙镇路98-2号"},{"poiid":"B2094757D06BA4FA4293","title":"鼎中鼎澳门豆捞 月浦店","lon":"121.424644054","lat":"31.413510793","category":"86","category_name":"火锅店","address":"宝山区月浦镇四元路吉买盛超市内(庆安路四元路)"},{"poiid":"B2094757DB6CA3FE4492","title":"上海朗域国际酒店","lon":"121.426681","lat":"31.421014","category":"88","category_name":"海鲜酒楼","address":"宝山区月浦镇北安路118号"},{"poiid":"B2094757D06AA6F94598","title":"宝钢3MS大楼","lon":"121.43742167","lat":"31.419232383","category":"500","category_name":"未知分类","address":"上海市宝山区宝钢厂区经十五路(靠近月罗路宝钢五号门)"},{"poiid":"B2094757D06AA5FB429D","title":"月浦单宿","lon":"121.4306692","lat":"31.4169697","category":"500","category_name":"未知分类","address":"上海市宝山区龙镇路7号"},{"poiid":"B2094654DB69A7F8409A","title":"上海市宝山区月浦中学","lon":"121.4353","lat":"31.41132","category":"55","category_name":"中学","address":"宝山区四元路20弄78号(近春雷路)"},{"poiid":"B2094654D46AA3FD469D","title":"乐业五村","lon":"121.42473","lat":"31.410698","category":"47","category_name":"住宅区","address":"德都路218弄"},{"poiid":"B2094757D169A2F9419C","title":"宝钢热轧厂","lon":"121.45217467","lat":"31.424999492","category":"263","category_name":"公司","address":"上海市宝山区纬三路"},{"poiid":"B2094757D06AA4FD479F","title":"新月福邸","lon":"121.44","lat":"31.4112","category":"500","category_name":"未知分类","address":"上海市宝山区春雷路136弄"},{"poiid":"B2094654D46AA3FF4699","title":"乐业一村(春雷路)","lon":"121.43397","lat":"31.40993","category":"47","category_name":"住宅区","address":""},{"poiid":"B2094757D66FA2FD4292","title":"宝钢制造管理部","lon":"121.43745097","lat":"31.428014648","category":"500","category_name":"未知分类","address":"上海宝钢纬一路"},{"poiid":"B2094655D36CA0F8489D","title":"江杨北路四元路","lon":"121.43576","lat":"31.41426","category":"38","category_name":"公交车站","address":""},{"poiid":"B2094757D16DAAFD4899","title":"宝钢1580热轧厂","lon":"121.431190009","lat":"31.4189287473","category":"263","category_name":"公司","address":"上海宝钢厂区二热九路"},{"poiid":"B2094654D46AA3FE4593","title":"宝莲湖景园","lon":"121.42947","lat":"31.405355","category":"47","category_name":"住宅区","address":"上海市宝山区绥化路260弄"},{"poiid":"B2094757D569A2FE499F","title":"月浦六七九村","lon":"121.42309814","lat":"31.41687446","category":"47","category_name":"住宅区","address":"中国上海市宝山区"},{"poiid":"B2094654DB69A7F9449F","title":"月泉湾名邸","lon":"121.4251","lat":"31.412052","category":"47","category_name":"住宅区","address":"上海市宝山区安家路16号"},{"poiid":"B2094757D16CA5FF479E","title":"能环部能源中心","lon":"121.435973346","lat":"31.4298625839","category":"500","category_name":"未知分类","address":"上海宝钢股份纬一路"},{"poiid":"B2094757D065A2FA479A","title":"宝钢厚板厂","lon":"121.44759284","lat":"31.426322127","category":"263","category_name":"公司","address":"上海宝钢大院"},{"poiid":"B2094757D569A2FF409F","title":"新月万升家园","lon":"121.434659","lat":"31.412331","category":"47","category_name":"住宅区","address":"上海市宝山区绥化路265弄"},{"poiid":"B2094757D16FA1FD4199","title":"宝钢1800","lon":"121.45384225","lat":"31.416474405","category":"500","category_name":"未知分类","address":"上海宝钢厂区大院内"},{"poiid":"B2094757D065ABFA459A","title":"月浦九村","lon":"121.43","lat":"31.4229","category":"252","category_name":"楼宇机构","address":"上海宝山区月浦镇德都路四元路"},{"poiid":"B2094757D16DABF9429B","title":"月浦八村","lon":"121.42426","lat":"31.416502","category":"252","category_name":"楼宇机构","address":"德都路1弄"},{"poiid":"B2094654D468ABFC499A","title":"月浦镇社区卫生服务中心","lon":"121.43111","lat":"31.4165","category":"162","category_name":"医院","address":"龙镇路1号"},{"poiid":"B2094654D468ABFC4392","title":"月浦地段医院","lon":"121.43204","lat":"31.41693","category":"162","category_name":"医院","address":"宝山区月浦镇龙镇路2号"},{"poiid":"B2094654D468ABFF409D","title":"会宾楼餐厅","lon":"121.42972","lat":"31.41685","category":"81","category_name":"湖北菜","address":"宝山区龙镇路10号月浦公园北门侧面(北安路龙镇路)"},{"poiid":"B2094654D469AAFF459A","title":"新月丽苑","lon":"121.43195","lat":"31.40723","category":"47","category_name":"住宅区","address":"上海市宝山区绥化路66弄"},{"poiid":"B2094757D16FA0FD449A","title":"重庆火锅","lon":"121.42328","lat":"31.41747","category":"86","category_name":"火锅店","address":"宝山区月浦镇德都路518号(近月罗公路)"},{"poiid":"B2094757D46EA3FB4999","title":"丹晟小吃店","lon":"121.433661","lat":"31.413047","category":"68","category_name":"快餐厅","address":"宝山区春雷路354弄1号(近四元路)"},{"poiid":"B2094750D56AAAFA439E","title":"中冶祥腾宝月花园","lon":"121.427756","lat":"31.426112","category":"47","category_name":"住宅区","address":"上海市宝山区月浦镇月塘路268弄"},{"poiid":"B2094757D169A3FF4893","title":"宝钢大院 一高炉食堂","lon":"121.443623679","lat":"31.4311096074","category":"500","category_name":"未知分类","address":"上海经四路 纬三路口"},{"poiid":"B2094757D569A2FD4699","title":"新月时代家园","lon":"121.433","lat":"31.4121","category":"47","category_name":"住宅区","address":"上海市宝山区德都路28弄1-23号"},{"poiid":"B2094757D164A7F4479C","title":"宝钢机械制造事业部","lon":"121.450460679","lat":"31.4170702422","category":"500","category_name":"未知分类","address":"上海市宝山区经五路纬一路口"},{"poiid":"B2094654D468ABFE4598","title":"月浦五村","lon":"121.42622","lat":"31.417366","category":"47","category_name":"住宅区","address":"宝山区月浦镇月浦五村"},{"poiid":"B2094654D46AA3FE4299","title":"庆安一村","lon":"121.43616","lat":"31.407169","category":"47","category_name":"住宅区","address":"绥化路49弄"},{"poiid":"B2094757D16FA2F8429D","title":"鑫斐大酒店(月浦店)","lon":"121.43425","lat":"31.4094","category":"76","category_name":"上海菜","address":"宝山区月浦春雷路29号"},{"poiid":"B2094757D16DAAFF4298","title":"富锦苑","lon":"121.43376","lat":"31.4034","category":"47","category_name":"住宅区","address":"上海富锦路1815弄"},{"poiid":"B2094654D469AAFF449F","title":"宝钢教育培训中心","lon":"121.43473","lat":"31.41367","category":"190","category_name":"培训机构","address":"泗元路19号"},{"poiid":"B2094757D06FA1F44893","title":"宝钢人才开发院","lon":"121.43393707","lat":"31.412914276","category":"263","category_name":"公司","address":"上海宝山区四元路"},{"poiid":"B2094757D06FA2F8469F","title":"江杨北路地铁站","lon":"121.439261","lat":"31.407223","category":"36","category_name":"地铁站","address":"上海轨道交通 三号线 轨交江杨北路站 轻轨 3"},{"poiid":"B2094757D068A3FC429E","title":"月浦公园","lon":"121.42663094","lat":"31.416554936","category":"196","category_name":"公园","address":"宝山区月浦镇龙镇路205号(北安路龙镇路)"},{"poiid":"B2094654D46AA3FF429B","title":"上海中冶医院","lon":"121.43325","lat":"31.41258","category":"162","category_name":"医院","address":"宝山区春蕾路456号"},{"poiid":"B2094757D068ABFE449F","title":"馨煌大酒店","lon":"121.42714","lat":"31.40976","category":"76","category_name":"上海菜","address":"宝山区安家路17号(安家路庆安路)"},{"poiid":"B2094654DB69A5FE479D","title":"肯德基 月浦路 KFC","lon":"121.42707152064","lat":"31.417603276693","category":"68","category_name":"快餐厅","address":"宝山区龙镇路200弄2号(近德都路)"},{"poiid":"B2094757D169A2FF4292","title":"段氏龙虾","lon":"121.43410167","lat":"31.406575144","category":"247","category_name":"餐饮美食","address":"上海市宝山区绥化路100号"},{"poiid":"B2094757D168ABFE4099","title":"混迹于宝钢大院内","lon":"121.43918367","lat":"31.418531369","category":"500","category_name":"未知分类","address":"上海市宝山区纬十二西路"},{"poiid":"B2094757D068A0F8459F","title":"红辣椒 月浦店","lon":"121.42518","lat":"31.41344","category":"71","category_name":"四川菜","address":"宝山区四元路299号(近德都路)"},{"poiid":"B2094757D16BA0FE469E","title":"宝钢五号门","lon":"121.434525779","lat":"31.4148508003","category":"500","category_name":"未知分类","address":"上海宝钢五号门"},{"poiid":"B2094654D46AA3FE409D","title":"庆安苑","lon":"121.43623","lat":"31.406603","category":"47","category_name":"住宅区","address":"绥化路50弄"},{"poiid":"B2094757D464A0FF4292","title":"金牡丹大酒店 月浦店","lon":"121.42624303983","lat":"31.41717175352","category":"76","category_name":"上海菜","address":"宝山区龙镇路83号(近北安路)"},{"poiid":"B2094654D469AAFF4493","title":"富浩河滨花园","lon":"121.433","lat":"31.4124","category":"47","category_name":"住宅区","address":"上海市宝山区德都路88弄"},{"poiid":"B2094750DB68A6FF499F","title":"炫音KTV(月浦店)","lon":"121.426544","lat":"31.417119","category":"170","category_name":"KTV","address":"宝山区月浦镇龙镇路98-2号"},{"poiid":"B2094757D06BA4FA4293","title":"鼎中鼎澳门豆捞 月浦店","lon":"121.424644054","lat":"31.413510793","category":"86","category_name":"火锅店","address":"宝山区月浦镇四元路吉买盛超市内(庆安路四元路)"},{"poiid":"B2094757DB6CA3FE4492","title":"上海朗域国际酒店","lon":"121.426681","lat":"31.421014","category":"88","category_name":"海鲜酒楼","address":"宝山区月浦镇北安路118号"},{"poiid":"B2094757D06AA6F94598","title":"宝钢3MS大楼","lon":"121.43742167","lat":"31.419232383","category":"500","category_name":"未知分类","address":"上海市宝山区宝钢厂区经十五路(靠近月罗路宝钢五号门)"},{"poiid":"B2094757D06AA5FB429D","title":"月浦单宿","lon":"121.4306692","lat":"31.4169697","category":"500","category_name":"未知分类","address":"上海市宝山区龙镇路7号"},{"poiid":"B2094654DB69A7F8409A","title":"上海市宝山区月浦中学","lon":"121.4353","lat":"31.41132","category":"55","category_name":"中学","address":"宝山区四元路20弄78号(近春雷路)"},{"poiid":"B2094654D46AA3FD469D","title":"乐业五村","lon":"121.42473","lat":"31.410698","category":"47","category_name":"住宅区","address":"德都路218弄"},{"poiid":"B2094757D169A2F9419C","title":"宝钢热轧厂","lon":"121.45217467","lat":"31.424999492","category":"263","category_name":"公司","address":"上海市宝山区纬三路"},{"poiid":"B2094757D06AA4FD479F","title":"新月福邸","lon":"121.44","lat":"31.4112","category":"500","category_name":"未知分类","address":"上海市宝山区春雷路136弄"},{"poiid":"B2094654D46AA3FF4699","title":"乐业一村(春雷路)","lon":"121.43397","lat":"31.40993","category":"47","category_name":"住宅区","address":""},{"poiid":"B2094757D66FA2FD4292","title":"宝钢制造管理部","lon":"121.43745097","lat":"31.428014648","category":"500","category_name":"未知分类","address":"上海宝钢纬一路"},{"poiid":"B2094655D36CA0F8489D","title":"江杨北路四元路","lon":"121.43576","lat":"31.41426","category":"38","category_name":"公交车站","address":""},{"poiid":"B2094757D16DAAFD4899","title":"宝钢1580热轧厂","lon":"121.431190009","lat":"31.4189287473","category":"263","category_name":"公司","address":"上海宝钢厂区二热九路"},{"poiid":"B2094654D46AA3FE4593","title":"宝莲湖景园","lon":"121.42947","lat":"31.405355","category":"47","category_name":"住宅区","address":"上海市宝山区绥化路260弄"},{"poiid":"B2094757D569A2FE499F","title":"月浦六七九村","lon":"121.42309814","lat":"31.41687446","category":"47","category_name":"住宅区","address":"中国上海市宝山区"},{"poiid":"B2094654DB69A7F9449F","title":"月泉湾名邸","lon":"121.4251","lat":"31.412052","category":"47","category_name":"住宅区","address":"上海市宝山区安家路16号"},{"poiid":"B2094757D16CA5FF479E","title":"能环部能源中心","lon":"121.435973346","lat":"31.4298625839","category":"500","category_name":"未知分类","address":"上海宝钢股份纬一路"},{"poiid":"B2094757D065A2FA479A","title":"宝钢厚板厂","lon":"121.44759284","lat":"31.426322127","category":"263","category_name":"公司","address":"上海宝钢大院"},{"poiid":"B2094757D569A2FF409F","title":"新月万升家园","lon":"121.434659","lat":"31.412331","category":"47","category_name":"住宅区","address":"上海市宝山区绥化路265弄"},{"poiid":"B2094757D16FA1FD4199","title":"宝钢1800","lon":"121.45384225","lat":"31.416474405","category":"500","category_name":"未知分类","address":"上海宝钢厂区大院内"},{"poiid":"B2094757D065ABFA459A","title":"月浦九村","lon":"121.43","lat":"31.4229","category":"252","category_name":"楼宇机构","address":"上海宝山区月浦镇德都路四元路"},{"poiid":"B2094757D16DABF9429B","title":"月浦八村","lon":"121.42426","lat":"31.416502","category":"252","category_name":"楼宇机构","address":"德都路1弄"},{"poiid":"B2094654D468ABFC499A","title":"月浦镇社区卫生服务中心","lon":"121.43111","lat":"31.4165","category":"162","category_name":"医院","address":"龙镇路1号"},{"poiid":"B2094654D468ABFC4392","title":"月浦地段医院","lon":"121.43204","lat":"31.41693","category":"162","category_name":"医院","address":"宝山区月浦镇龙镇路2号"},{"poiid":"B2094654D468ABFF409D","title":"会宾楼餐厅","lon":"121.42972","lat":"31.41685","category":"81","category_name":"湖北菜","address":"宝山区龙镇路10号月浦公园北门侧面(北安路龙镇路)"},{"poiid":"B2094654D469AAFF459A","title":"新月丽苑","lon":"121.43195","lat":"31.40723","category":"47","category_name":"住宅区","address":"上海市宝山区绥化路66弄"},{"poiid":"B2094757D16FA0FD449A","title":"重庆火锅","lon":"121.42328","lat":"31.41747","category":"86","category_name":"火锅店","address":"宝山区月浦镇德都路518号(近月罗公路)"},{"poiid":"B2094757D46EA3FB4999","title":"丹晟小吃店","lon":"121.433661","lat":"31.413047","category":"68","category_name":"快餐厅","address":"宝山区春雷路354弄1号(近四元路)"},{"poiid":"B2094750D56AAAFA439E","title":"中冶祥腾宝月花园","lon":"121.427756","lat":"31.426112","category":"47","category_name":"住宅区","address":"上海市宝山区月浦镇月塘路268弄"},{"poiid":"B2094757D169A3FF4893","title":"宝钢大院 一高炉食堂","lon":"121.443623679","lat":"31.4311096074","category":"500","category_name":"未知分类","address":"上海经四路 纬三路口"},{"poiid":"B2094757D569A2FD4699","title":"新月时代家园","lon":"121.433","lat":"31.4121","category":"47","category_name":"住宅区","address":"上海市宝山区德都路28弄1-23号"},{"poiid":"B2094757D164A7F4479C","title":"宝钢机械制造事业部","lon":"121.450460679","lat":"31.4170702422","category":"500","category_name":"未知分类","address":"上海市宝山区经五路纬一路口"},{"poiid":"B2094654D468ABFE4598","title":"月浦五村","lon":"121.42622","lat":"31.417366","category":"47","category_name":"住宅区","address":"宝山区月浦镇月浦五村"},{"poiid":"B2094654D46AA3FE4299","title":"庆安一村","lon":"121.43616","lat":"31.407169","category":"47","category_name":"住宅区","address":"绥化路49弄"},{"poiid":"B2094757D16FA2F8429D","title":"鑫斐大酒店(月浦店)","lon":"121.43425","lat":"31.4094","category":"76","category_name":"上海菜","address":"宝山区月浦春雷路29号"},{"poiid":"B2094757D16DAAFF4298","title":"富锦苑","lon":"121.43376","lat":"31.4034","category":"47","category_name":"住宅区","address":"上海富锦路1815弄"},{"poiid":"B2094654D469AAFF449F","title":"宝钢教育培训中心","lon":"121.43473","lat":"31.41367","category":"190","category_name":"培训机构","address":"泗元路19号"},{"poiid":"B2094757D06FA1F44893","title":"宝钢人才开发院","lon":"121.43393707","lat":"31.412914276","category":"263","category_name":"公司","address":"上海宝山区四元路"},{"poiid":"B2094757D06FA2F8469F","title":"江杨北路地铁站","lon":"121.439261","lat":"31.407223","category":"36","category_name":"地铁站","address":"上海轨道交通 三号线 轨交江杨北路站 轻轨 3"},{"poiid":"B2094757D068A3FC429E","title":"月浦公园","lon":"121.42663094","lat":"31.416554936","category":"196","category_name":"公园","address":"宝山区月浦镇龙镇路205号(北安路龙镇路)"},{"poiid":"B2094654D46AA3FF429B","title":"上海中冶医院","lon":"121.43325","lat":"31.41258","category":"162","category_name":"医院","address":"宝山区春蕾路456号"},{"poiid":"B2094757D068ABFE449F","title":"馨煌大酒店","lon":"121.42714","lat":"31.40976","category":"76","category_name":"上海菜","address":"宝山区安家路17号(安家路庆安路)"},{"poiid":"B2094654DB69A5FE479D","title":"肯德基 月浦路 KFC","lon":"121.42707152064","lat":"31.417603276693","category":"68","category_name":"快餐厅","address":"宝山区龙镇路200弄2号(近德都路)"},{"poiid":"B2094757D169A2FF4292","title":"段氏龙虾","lon":"121.43410167","lat":"31.406575144","category":"247","category_name":"餐饮美食","address":"上海市宝山区绥化路100号"},{"poiid":"B2094757D168ABFE4099","title":"混迹于宝钢大院内","lon":"121.43918367","lat":"31.418531369","category":"500","category_name":"未知分类","address":"上海市宝山区纬十二西路"},{"poiid":"B2094757D068A0F8459F","title":"红辣椒 月浦店","lon":"121.42518","lat":"31.41344","category":"71","category_name":"四川菜","address":"宝山区四元路299号(近德都路)"},{"poiid":"B2094757D16BA0FE469E","title":"宝钢五号门","lon":"121.434525779","lat":"31.4148508003","category":"500","category_name":"未知分类","address":"上海宝钢五号门"},{"poiid":"B2094654D46AA3FE409D","title":"庆安苑","lon":"121.43623","lat":"31.406603","category":"47","category_name":"住宅区","address":"绥化路50弄"},{"poiid":"B2094757D464A0FF4292","title":"金牡丹大酒店 月浦店","lon":"121.42624303983","lat":"31.41717175352","category":"76","category_name":"上海菜","address":"宝山区龙镇路83号(近北安路)"},{"poiid":"B2094654D469AAFF4493","title":"富浩河滨花园","lon":"121.433","lat":"31.4124","category":"47","category_name":"住宅区","address":"上海市宝山区德都路88弄"},{"poiid":"B2094750DB68A6FF499F","title":"炫音KTV(月浦店)","lon":"121.426544","lat":"31.417119","category":"170","category_name":"KTV","address":"宝山区月浦镇龙镇路98-2号"},{"poiid":"B2094757D06BA4FA4293","title":"鼎中鼎澳门豆捞 月浦店","lon":"121.424644054","lat":"31.413510793","category":"86","category_name":"火锅店","address":"宝山区月浦镇四元路吉买盛超市内(庆安路四元路)"},{"poiid":"B2094757DB6CA3FE4492","title":"上海朗域国际酒店","lon":"121.426681","lat":"31.421014","category":"88","category_name":"海鲜酒楼","address":"宝山区月浦镇北安路118号"},{"poiid":"B2094757D06AA6F94598","title":"宝钢3MS大楼","lon":"121.43742167","lat":"31.419232383","category":"500","category_name":"未知分类","address":"上海市宝山区宝钢厂区经十五路(靠近月罗路宝钢五号门)"},{"poiid":"B2094757D06AA5FB429D","title":"月浦单宿","lon":"121.4306692","lat":"31.4169697","category":"500","category_name":"未知分类","address":"上海市宝山区龙镇路7号"},{"poiid":"B2094654DB69A7F8409A","title":"上海市宝山区月浦中学","lon":"121.4353","lat":"31.41132","category":"55","category_name":"中学","address":"宝山区四元路20弄78号(近春雷路)"},{"poiid":"B2094654D46AA3FD469D","title":"乐业五村","lon":"121.42473","lat":"31.410698","category":"47","category_name":"住宅区","address":"德都路218弄"},{"poiid":"B2094757D169A2F9419C","title":"宝钢热轧厂","lon":"121.45217467","lat":"31.424999492","category":"263","category_name":"公司","address":"上海市宝山区纬三路"},{"poiid":"B2094757D06AA4FD479F","title":"新月福邸","lon":"121.44","lat":"31.4112","category":"500","category_name":"未知分类","address":"上海市宝山区春雷路136弄"},{"poiid":"B2094654D46AA3FF4699","title":"乐业一村(春雷路)","lon":"121.43397","lat":"31.40993","category":"47","category_name":"住宅区","address":""},{"poiid":"B2094757D66FA2FD4292","title":"宝钢制造管理部","lon":"121.43745097","lat":"31.428014648","category":"500","category_name":"未知分类","address":"上海宝钢纬一路"},{"poiid":"B2094655D36CA0F8489D","title":"江杨北路四元路","lon":"121.43576","lat":"31.41426","category":"38","category_name":"公交车站","address":""},{"poiid":"B2094757D16DAAFD4899","title":"宝钢1580热轧厂","lon":"121.431190009","lat":"31.4189287473","category":"263","category_name":"公司","address":"上海宝钢厂区二热九路"},{"poiid":"B2094654D46AA3FE4593","title":"宝莲湖景园","lon":"121.42947","lat":"31.405355","category":"47","category_name":"住宅区","address":"上海市宝山区绥化路260弄"},{"poiid":"B2094757D569A2FE499F","title":"月浦六七九村","lon":"121.42309814","lat":"31.41687446","category":"47","category_name":"住宅区","address":"中国上海市宝山区"},{"poiid":"B2094654DB69A7F9449F","title":"月泉湾名邸","lon":"121.4251","lat":"31.412052","category":"47","category_name":"住宅区","address":"上海市宝山区安家路16号"},{"poiid":"B2094757D16CA5FF479E","title":"能环部能源中心","lon":"121.435973346","lat":"31.4298625839","category":"500","category_name":"未知分类","address":"上海宝钢股份纬一路"},{"poiid":"B2094757D065A2FA479A","title":"宝钢厚板厂","lon":"121.44759284","lat":"31.426322127","category":"263","category_name":"公司","address":"上海宝钢大院"},{"poiid":"B2094757D569A2FF409F","title":"新月万升家园","lon":"121.434659","lat":"31.412331","category":"47","category_name":"住宅区","address":"上海市宝山区绥化路265弄"},{"poiid":"B2094757D16FA1FD4199","title":"宝钢1800","lon":"121.45384225","lat":"31.416474405","category":"500","category_name":"未知分类","address":"上海宝钢厂区大院内"},{"poiid":"B2094757D065ABFA459A","title":"月浦九村","lon":"121.43","lat":"31.4229","category":"252","category_name":"楼宇机构","address":"上海宝山区月浦镇德都路四元路"},{"poiid":"B2094757D16DABF9429B","title":"月浦八村","lon":"121.42426","lat":"31.416502","category":"252","category_name":"楼宇机构","address":"德都路1弄"},{"poiid":"B2094654D468ABFC499A","title":"月浦镇社区卫生服务中心","lon":"121.43111","lat":"31.4165","category":"162","category_name":"医院","address":"龙镇路1号"},{"poiid":"B2094654D468ABFC4392","title":"月浦地段医院","lon":"121.43204","lat":"31.41693","category":"162","category_name":"医院","address":"宝山区月浦镇龙镇路2号"},{"poiid":"B2094654D468ABFF409D","title":"会宾楼餐厅","lon":"121.42972","lat":"31.41685","category":"81","category_name":"湖北菜","address":"宝山区龙镇路10号月浦公园北门侧面(北安路龙镇路)"},{"poiid":"B2094654D469AAFF459A","title":"新月丽苑","lon":"121.43195","lat":"31.40723","category":"47","category_name":"住宅区","address":"上海市宝山区绥化路66弄"},{"poiid":"B2094757D16FA0FD449A","title":"重庆火锅","lon":"121.42328","lat":"31.41747","category":"86","category_name":"火锅店","address":"宝山区月浦镇德都路518号(近月罗公路)"},{"poiid":"B2094757D46EA3FB4999","title":"丹晟小吃店","lon":"121.433661","lat":"31.413047","category":"68","category_name":"快餐厅","address":"宝山区春雷路354弄1号(近四元路)"},{"poiid":"B2094750D56AAAFA439E","title":"中冶祥腾宝月花园","lon":"121.427756","lat":"31.426112","category":"47","category_name":"住宅区","address":"上海市宝山区月浦镇月塘路268弄"},{"poiid":"B2094757D169A3FF4893","title":"宝钢大院 一高炉食堂","lon":"121.443623679","lat":"31.4311096074","category":"500","category_name":"未知分类","address":"上海经四路 纬三路口"},{"poiid":"B2094757D569A2FD4699","title":"新月时代家园","lon":"121.433","lat":"31.4121","category":"47","category_name":"住宅区","address":"上海市宝山区德都路28弄1-23号"},{"poiid":"B2094757D164A7F4479C","title":"宝钢机械制造事业部","lon":"121.450460679","lat":"31.4170702422","category":"500","category_name":"未知分类","address":"上海市宝山区经五路纬一路口"},{"poiid":"B2094654D468ABFE4598","title":"月浦五村","lon":"121.42622","lat":"31.417366","category":"47","category_name":"住宅区","address":"宝山区月浦镇月浦五村"},{"poiid":"B2094654D46AA3FE4299","title":"庆安一村","lon":"121.43616","lat":"31.407169","category":"47","category_name":"住宅区","address":"绥化路49弄"},{"poiid":"B2094757D16FA2F8429D","title":"鑫斐大酒店(月浦店)","lon":"121.43425","lat":"31.4094","category":"76","category_name":"上海菜","address":"宝山区月浦春雷路29号"},{"poiid":"B2094757D16DAAFF4298","title":"富锦苑","lon":"121.43376","lat":"31.4034","category":"47","category_name":"住宅区","address":"上海富锦路1815弄"},{"poiid":"B2094654D469AAFF449F","title":"宝钢教育培训中心","lon":"121.43473","lat":"31.41367","category":"190","category_name":"培训机构","address":"泗元路19号"},{"poiid":"B2094757D06FA1F44893","title":"宝钢人才开发院","lon":"121.43393707","lat":"31.412914276","category":"263","category_name":"公司","address":"上海宝山区四元路"},{"poiid":"B2094757D06FA2F8469F","title":"江杨北路地铁站","lon":"121.439261","lat":"31.407223","category":"36","category_name":"地铁站","address":"上海轨道交通 三号线 轨交江杨北路站 轻轨 3"},{"poiid":"B2094757D068A3FC429E","title":"月浦公园","lon":"121.42663094","lat":"31.416554936","category":"196","category_name":"公园","address":"宝山区月浦镇龙镇路205号(北安路龙镇路)"},{"poiid":"B2094654D46AA3FF429B","title":"上海中冶医院","lon":"121.43325","lat":"31.41258","category":"162","category_name":"医院","address":"宝山区春蕾路456号"},{"poiid":"B2094757D068ABFE449F","title":"馨煌大酒店","lon":"121.42714","lat":"31.40976","category":"76","category_name":"上海菜","address":"宝山区安家路17号(安家路庆安路)"},{"poiid":"B2094654DB69A5FE479D","title":"肯德基 月浦路 KFC","lon":"121.42707152064","lat":"31.417603276693","category":"68","category_name":"快餐厅","address":"宝山区龙镇路200弄2号(近德都路)"},{"poiid":"B2094757D169A2FF4292","title":"段氏龙虾","lon":"121.43410167","lat":"31.406575144","category":"247","category_name":"餐饮美食","address":"上海市宝山区绥化路100号"},{"poiid":"B2094757D168ABFE4099","title":"混迹于宝钢大院内","lon":"121.43918367","lat":"31.418531369","category":"500","category_name":"未知分类","address":"上海市宝山区纬十二西路"},{"poiid":"B2094757D068A0F8459F","title":"红辣椒 月浦店","lon":"121.42518","lat":"31.41344","category":"71","category_name":"四川菜","address":"宝山区四元路299号(近德都路)"},{"poiid":"B2094757D16BA0FE469E","title":"宝钢五号门","lon":"121.434525779","lat":"31.4148508003","category":"500","category_name":"未知分类","address":"上海宝钢五号门"},{"poiid":"B2094654D46AA3FE409D","title":"庆安苑","lon":"121.43623","lat":"31.406603","category":"47","category_name":"住宅区","address":"绥化路50弄"},{"poiid":"B2094757D464A0FF4292","title":"金牡丹大酒店 月浦店","lon":"121.42624303983","lat":"31.41717175352","category":"76","category_name":"上海菜","address":"宝山区龙镇路83号(近北安路)"},{"poiid":"B2094654D469AAFF4493","title":"富浩河滨花园","lon":"121.433","lat":"31.4124","category":"47","category_name":"住宅区","address":"上海市宝山区德都路88弄"},{"poiid":"B2094750DB68A6FF499F","title":"炫音KTV(月浦店)","lon":"121.426544","lat":"31.417119","category":"170","category_name":"KTV","address":"宝山区月浦镇龙镇路98-2号"},{"poiid":"B2094757D06BA4FA4293","title":"鼎中鼎澳门豆捞 月浦店","lon":"121.424644054","lat":"31.413510793","category":"86","category_name":"火锅店","address":"宝山区月浦镇四元路吉买盛超市内(庆安路四元路)"},{"poiid":"B2094757DB6CA3FE4492","title":"上海朗域国际酒店","lon":"121.426681","lat":"31.421014","category":"88","category_name":"海鲜酒楼","address":"宝山区月浦镇北安路118号"},{"poiid":"B2094757D06AA6F94598","title":"宝钢3MS大楼","lon":"121.43742167","lat":"31.419232383","category":"500","category_name":"未知分类","address":"上海市宝山区宝钢厂区经十五路(靠近月罗路宝钢五号门)"},{"poiid":"B2094757D06AA5FB429D","title":"月浦单宿","lon":"121.4306692","lat":"31.4169697","category":"500","category_name":"未知分类","address":"上海市宝山区龙镇路7号"},{"poiid":"B2094654DB69A7F8409A","title":"上海市宝山区月浦中学","lon":"121.4353","lat":"31.41132","category":"55","category_name":"中学","address":"宝山区四元路20弄78号(近春雷路)"},{"poiid":"B2094654D46AA3FD469D","title":"乐业五村","lon":"121.42473","lat":"31.410698","category":"47","category_name":"住宅区","address":"德都路218弄"},{"poiid":"B2094757D169A2F9419C","title":"宝钢热轧厂","lon":"121.45217467","lat":"31.424999492","category":"263","category_name":"公司","address":"上海市宝山区纬三路"},{"poiid":"B2094757D06AA4FD479F","title":"新月福邸","lon":"121.44","lat":"31.4112","category":"500","category_name":"未知分类","address":"上海市宝山区春雷路136弄"},{"poiid":"B2094654D46AA3FF4699","title":"乐业一村(春雷路)","lon":"121.43397","lat":"31.40993","category":"47","category_name":"住宅区","address":""},{"poiid":"B2094757D66FA2FD4292","title":"宝钢制造管理部","lon":"121.43745097","lat":"31.428014648","category":"500","category_name":"未知分类","address":"上海宝钢纬一路"},{"poiid":"B2094655D36CA0F8489D","title":"江杨北路四元路","lon":"121.43576","lat":"31.41426","category":"38","category_name":"公交车站","address":""},{"poiid":"B2094757D16DAAFD4899","title":"宝钢1580热轧厂","lon":"121.431190009","lat":"31.4189287473","category":"263","category_name":"公司","address":"上海宝钢厂区二热九路"},{"poiid":"B2094654D46AA3FE4593","title":"宝莲湖景园","lon":"121.42947","lat":"31.405355","category":"47","category_name":"住宅区","address":"上海市宝山区绥化路260弄"},{"poiid":"B2094757D569A2FE499F","title":"月浦六七九村","lon":"121.42309814","lat":"31.41687446","category":"47","category_name":"住宅区","address":"中国上海市宝山区"},{"poiid":"B2094654DB69A7F9449F","title":"月泉湾名邸","lon":"121.4251","lat":"31.412052","category":"47","category_name":"住宅区","address":"上海市宝山区安家路16号"},{"poiid":"B2094757D16CA5FF479E","title":"能环部能源中心","lon":"121.435973346","lat":"31.4298625839","category":"500","category_name":"未知分类","address":"上海宝钢股份纬一路"},{"poiid":"B2094757D065A2FA479A","title":"宝钢厚板厂","lon":"121.44759284","lat":"31.426322127","category":"263","category_name":"公司","address":"上海宝钢大院"},{"poiid":"B2094757D569A2FF409F","title":"新月万升家园","lon":"121.434659","lat":"31.412331","category":"47","category_name":"住宅区","address":"上海市宝山区绥化路265弄"},{"poiid":"B2094757D16FA1FD4199","title":"宝钢1800","lon":"121.45384225","lat":"31.416474405","category":"500","category_name":"未知分类","address":"上海宝钢厂区大院内"},{"poiid":"B2094757D065ABFA459A","title":"月浦九村","lon":"121.43","lat":"31.4229","category":"252","category_name":"楼宇机构","address":"上海宝山区月浦镇德都路四元路"},{"poiid":"B2094757D16DABF9429B","title":"月浦八村","lon":"121.42426","lat":"31.416502","category":"252","category_name":"楼宇机构","address":"德都路1弄"},{"poiid":"B2094654D468ABFC499A","title":"月浦镇社区卫生服务中心","lon":"121.43111","lat":"31.4165","category":"162","category_name":"医院","address":"龙镇路1号"},{"poiid":"B2094654D468ABFC4392","title":"月浦地段医院","lon":"121.43204","lat":"31.41693","category":"162","category_name":"医院","address":"宝山区月浦镇龙镇路2号"},{"poiid":"B2094654D468ABFF409D","title":"会宾楼餐厅","lon":"121.42972","lat":"31.41685","category":"81","category_name":"湖北菜","address":"宝山区龙镇路10号月浦公园北门侧面(北安路龙镇路)"},{"poiid":"B2094654D469AAFF459A","title":"新月丽苑","lon":"121.43195","lat":"31.40723","category":"47","category_name":"住宅区","address":"上海市宝山区绥化路66弄"},{"poiid":"B2094757D16FA0FD449A","title":"重庆火锅","lon":"121.42328","lat":"31.41747","category":"86","category_name":"火锅店","address":"宝山区月浦镇德都路518号(近月罗公路)"},{"poiid":"B2094757D46EA3FB4999","title":"丹晟小吃店","lon":"121.433661","lat":"31.413047","category":"68","category_name":"快餐厅","address":"宝山区春雷路354弄1号(近四元路)"},{"poiid":"B2094750D56AAAFA439E","title":"中冶祥腾宝月花园","lon":"121.427756","lat":"31.426112","category":"47","category_name":"住宅区","address":"上海市宝山区月浦镇月塘路268弄"},{"poiid":"B2094757D169A3FF4893","title":"宝钢大院 一高炉食堂","lon":"121.443623679","lat":"31.4311096074","category":"500","category_name":"未知分类","address":"上海经四路 纬三路口"},{"poiid":"B2094757D569A2FD4699","title":"新月时代家园","lon":"121.433","lat":"31.4121","category":"47","category_name":"住宅区","address":"上海市宝山区德都路28弄1-23号"},{"poiid":"B2094757D164A7F4479C","title":"宝钢机械制造事业部","lon":"121.450460679","lat":"31.4170702422","category":"500","category_name":"未知分类","address":"上海市宝山区经五路纬一路口"},{"poiid":"B2094654D468ABFE4598","title":"月浦五村","lon":"121.42622","lat":"31.417366","category":"47","category_name":"住宅区","address":"宝山区月浦镇月浦五村"},{"poiid":"B2094654D46AA3FE4299","title":"庆安一村","lon":"121.43616","lat":"31.407169","category":"47","category_name":"住宅区","address":"绥化路49弄"},{"poiid":"B2094757D16FA2F8429D","title":"鑫斐大酒店(月浦店)","lon":"121.43425","lat":"31.4094","category":"76","category_name":"上海菜","address":"宝山区月浦春雷路29号"},{"poiid":"B2094757D16DAAFF4298","title":"富锦苑","lon":"121.43376","lat":"31.4034","category":"47","category_name":"住宅区","address":"上海富锦路1815弄"},{"poiid":"B2094654D469AAFF449F","title":"宝钢教育培训中心","lon":"121.43473","lat":"31.41367","category":"190","category_name":"培训机构","address":"泗元路19号"}]