[{"poiid":"B2094757D06FA3F9429C","title":"银河宾馆","lon":"121.41138860008414","lat":"31.20410764288778","category":"214","category_name":"四星级宾馆","address":"长宁区中山西路888号银河宾馆内(近延安西路)"},{"poiid":"B2094655D26EA5FD4099","title":"虹桥宾馆","lon":"121.41060904662709","lat":"31.20369027936784","category":"214","category_name":"四星级宾馆","address":"上海市长宁区延安西路2000号(近中山西路口)"},{"poiid":"B2094757D06FA3F5459B","title":"唐宫(银河店)","lon":"121.4118","lat":"31.20395","category":"72","category_name":"广东菜","address":"长宁区中山西路888号银河宾馆2楼(近延安西路)"},{"poiid":"B2094757D06FA6FB479D","title":"柚子(虹桥店)","lon":"121.40877","lat":"31.20379","category":"95","category_name":"日本料理","address":"长宁区仙霞路8号仲盛金融中心2楼"},{"poiid":"B2094655D36CA4FD4793","title":"安顺路","lon":"121.413","lat":"31.20141","category":"38","category_name":"公交车站","address":""},{"poiid":"B2094757D068A5FF409C","title":"上海内环线高架路","lon":"121.412181378","lat":"31.2059787732","category":"260","category_name":"其他","address":"上海市内环线高架路"},{"poiid":"B2094654DB65A3FC469F","title":"东华大学-莱佛士国际设计学院","lon":"121.4128","lat":"31.20497","category":"671","category_name":"高校中心点","address":"上海市长宁区延安西路1882号"},{"poiid":"B2094751D46BA4FA4498","title":"cat &coffee","lon":"121.40764524098302","lat":"31.20339909727332","category":"65","category_name":"咖啡厅","address":"长宁区延安西路2077号金桥大厦702室"},{"poiid":"B2094757D068A2FC409B","title":"东华大学图书馆(延安路校区)","lon":"121.414331897","lat":"31.2043352776","category":"253","category_name":"校园生活","address":"长宁区延安西路1882号东华大学内"},{"poiid":"B2094757D069A7F94493","title":"东华大学 旭日楼","lon":"121.412886526","lat":"31.2028334153","category":"253","category_name":"校园生活","address":"上海长宁区延安西路1882号东华大学延安路校区"},{"poiid":"B2094655D269AAFB429E","title":"银河宾馆宴会厅","lon":"121.4113","lat":"31.20401","category":"247","category_name":"餐饮美食","address":"长宁区中山西路888号银河宾馆内(近延安西路)查看地图"},{"poiid":"B2094757D06AABFE499C","title":"三泰养生铁板烧","lon":"121.40899658","lat":"31.20170021","category":"94","category_name":"西餐厅","address":"长宁区伊犁路135号(近安顺路)"},{"poiid":"B2094655D26AA7FB469E","title":"一兆韦德虹桥店","lon":"121.41033","lat":"31.20403","category":"247","category_name":"餐饮美食","address":"长宁区延安西路2000号虹桥宾馆3楼(近中山西路)"},{"poiid":"B2094655D26EA7FC4292","title":"莫泰268(上海虹桥开发区店)","lon":"121.41212","lat":"31.20283","category":"250","category_name":"公园户外","address":"上海市长宁区中山西路906号(近新华路)"},{"poiid":"B2094757D065A7FD479E","title":"青叶家日本料理","lon":"121.408083086","lat":"31.2018559762","category":"500","category_name":"未知分类","address":"上海延安西路2077号金桥大厦一楼"},{"poiid":"B2094751D26DA0FE409A","title":"古北国际财富中心二期","lon":"121.41","lat":"31.2036","category":"252","category_name":"楼宇机构","address":"红宝石路200号"},{"poiid":"B2094654DB6BA7FE4393","title":"澳门豆捞坊(仲盛金融中心)","lon":"121.40811","lat":"31.20396","category":"86","category_name":"火锅店","address":"长宁区延安西路2067号仲盛金融中心2楼(近仙霞路)"},{"poiid":"B2094757D16FA3FD4698","title":"甬府酒楼","lon":"121.41141408","lat":"31.203946917","category":"75","category_name":"浙江菜","address":"长宁区中山西路888号银河宾馆1楼(近延安西路)"},{"poiid":"B2094757D065A4FB4898","title":"城日本料理","lon":"121.4104","lat":"31.20364","category":"95","category_name":"日本料理","address":"长宁区延安西路2000号虹桥宾馆1号门1楼(近中山西路)"},{"poiid":"B2094757D069A7F44493","title":"青叶家","lon":"121.40830655","lat":"31.20325346","category":"95","category_name":"日本料理","address":"长宁区延安西路2071弄9号金桥大厦1楼(近仙霞路)"},{"poiid":"B2094655D26FA6FB409A","title":"汉庭快捷(伊犁路店)","lon":"121.40904","lat":"31.20235","category":"216","category_name":"经济型连锁酒店","address":"上海市长宁区伊犁路158号(近安顺路)"},{"poiid":"B2094655D26EAAF5449C","title":"银河咖啡厅","lon":"121.4113","lat":"31.20401","category":"65","category_name":"咖啡厅","address":"长宁区中山西路888号银河宾馆1楼(近延安西路)"},{"poiid":"B2094757D068A5F9489D","title":"莱佛士国际设计学院","lon":"121.41444","lat":"31.202","category":"52","category_name":"高等院校","address":"长宁区延安西路1882号东华大学内"},{"poiid":"B2094655D264A2F54199","title":"美林小厨","lon":"121.41203","lat":"31.2022","category":"76","category_name":"上海菜","address":"长宁区中山西路906号莫泰268店内1楼"},{"poiid":"B2094757D06FAAF4409E","title":"延安路高架外灘方向","lon":"121.413614","lat":"31.20365","category":"500","category_name":"未知分类","address":"上海延安路"},{"poiid":"B2094757D16CA7FF429A","title":"虹桥宾馆 虹苑厅","lon":"121.41009","lat":"31.20364","category":"76","category_name":"上海菜","address":"长宁区延安西路2000号虹桥宾馆1楼(近中山西路)"},{"poiid":"B2094750DB64AAF84498","title":"国药大厦","lon":"121.410736","lat":"31.201501","category":"252","category_name":"楼宇机构","address":"中山西路1001号"},{"poiid":"B2094757D16EA0FA439B","title":"樱川","lon":"121.411448586","lat":"31.2039649174","category":"247","category_name":"餐饮美食","address":"上海市长宁区中山西路888号银河宾馆二楼"},{"poiid":"B2094757DA6AABFD499A","title":"上海火车站","lon":"121.412663","lat":"31.20308","category":"627","category_name":"一般地点标志","address":"上海市闸北区秣陵路303号"},{"poiid":"B2094655D26FA1FD489F","title":"上海长宁百联西郊NK","lon":"121.41097","lat":"31.20307","category":"140","category_name":"体育用品店","address":"长宁区仙霞西路88号3楼"},{"poiid":"B2094750D76DA6FC469B","title":"空海日本料理","lon":"121.41","lat":"31.2039","category":"95","category_name":"日本料理","address":"长宁区延安西路2000号虹桥宾馆大厅内(近中山西路)"},{"poiid":"B2094655D268A5FC439A","title":"上海纺织服饰博物馆","lon":"121.41358","lat":"31.20328","category":"182","category_name":"博物馆","address":"长宁区延安西路1882号东华大学内(近虹桥路)"},{"poiid":"B2094655D268A0F94198","title":"花园餐厅","lon":"121.41131","lat":"31.20401","category":"76","category_name":"上海菜","address":"长宁区中山西路888号银河宾馆3楼(近延安西路)"},{"poiid":"B2094654D564A3FD439F","title":"V8club","lon":"121.4113","lat":"31.204","category":"170","category_name":"KTV","address":"中山西路888号银河宾馆2层"},{"poiid":"B2094757D069A1FA439E","title":"Obama","lon":"121.40784818","lat":"31.202628661","category":"172","category_name":"酒吧","address":"上海伊犁路"},{"poiid":"B2094655D36DA7F8489C","title":"中山西路新华路","lon":"121.41206","lat":"31.20396","category":"38","category_name":"公交车站","address":""},{"poiid":"B2094757D06AA0F5459E","title":"上海生物制品研究所(分部)","lon":"121.41247258","lat":"31.201769874","category":"500","category_name":"未知分类","address":"上海市长宁区安顺路350号"},{"poiid":"B2094654D564A3FD439E","title":"花月日本料理","lon":"121.4113","lat":"31.20401","category":"95","category_name":"日本料理","address":"中山西路888号银河宾馆2楼近延安西路"},{"poiid":"B2094757D068ABFC4092","title":"虹储小区","lon":"121.41197","lat":"31.199516","category":"47","category_name":"住宅区","address":"上海长宁区虹桥路1041弄(安顺路283弄后门)"},{"poiid":"B2094655D268A0F5479B","title":"钢琴酒吧KTV","lon":"121.41131","lat":"31.20401","category":"170","category_name":"KTV","address":""},{"poiid":"B2094757D06FA6F5449E","title":"全家便利(安顺路店)","lon":"121.41258235","lat":"31.201547309","category":"117","category_name":"便民商店/便利店","address":"上海长宁区安顺路246号(近中山西路)"},{"poiid":"B2094655D26EA4F84993","title":"平壤馆","lon":"121.41214923858","lat":"31.204814543329","category":"247","category_name":"餐饮美食","address":"中山西路888号银河宾馆1楼近延安西路"},{"poiid":"B2094757D16EA2FB459C","title":"东华大学 一教101","lon":"121.412845586","lat":"31.2032159028","category":"500","category_name":"未知分类","address":"上海市延安西路1882号"},{"poiid":"B2094750D76EA1FC489D","title":"G.HAUSLIVEHOUSE&CLUB","lon":"121.411","lat":"31.204","category":"269","category_name":"烧烤","address":"中山西路888号银河宾馆2楼(近延安西路)"},{"poiid":"B2094655D268ABFF4092","title":"内环延安西路立交桥","lon":"121.41219","lat":"31.20563","category":"250","category_name":"公园户外","address":""},{"poiid":"B2094753D46AA0F5419C","title":"尚嘉中心","lon":"121.409927","lat":"31.204006","category":"500","category_name":"未知分类","address":"上海市 长宁区仙霞路99号"},{"poiid":"B2094654DB64AAF5499F","title":"百花园","lon":"121.41019","lat":"31.20399","category":"196","category_name":"公园","address":"延安西路2000"},{"poiid":"B2094757D16AA2F44698","title":"和之美","lon":"121.40867363","lat":"31.20410942","category":"95","category_name":"日本料理","address":"长宁区仙霞路1号(近延安西路)"},{"poiid":"B2094655D26FA6F54692","title":"沪定中学","lon":"121.41384","lat":"31.20156","category":"55","category_name":"中学","address":"中山西路911弄1号"},{"poiid":"B2094753D765A0FC489F","title":"糯美人韩国年糕火锅","lon":"121.408226","lat":"31.204523","category":"96","category_name":"韩国料理","address":"长宁区仙霞路8号仲盛金融中心2楼(近延安西路口)"},{"poiid":"B2094757D06FA3F9429C","title":"银河宾馆","lon":"121.41138860008414","lat":"31.20410764288778","category":"214","category_name":"四星级宾馆","address":"长宁区中山西路888号银河宾馆内(近延安西路)"},{"poiid":"B2094655D26EA5FD4099","title":"虹桥宾馆","lon":"121.41060904662709","lat":"31.20369027936784","category":"214","category_name":"四星级宾馆","address":"上海市长宁区延安西路2000号(近中山西路口)"},{"poiid":"B2094757D06FA3F5459B","title":"唐宫(银河店)","lon":"121.4118","lat":"31.20395","category":"72","category_name":"广东菜","address":"长宁区中山西路888号银河宾馆2楼(近延安西路)"},{"poiid":"B2094757D06FA6FB479D","title":"柚子(虹桥店)","lon":"121.40877","lat":"31.20379","category":"95","category_name":"日本料理","address":"长宁区仙霞路8号仲盛金融中心2楼"},{"poiid":"B2094655D36CA4FD4793","title":"安顺路","lon":"121.413","lat":"31.20141","category":"38","category_name":"公交车站","address":""},{"poiid":"B2094757D068A5FF409C","title":"上海内环线高架路","lon":"121.412181378","lat":"31.2059787732","category":"260","category_name":"其他","address":"上海市内环线高架路"},{"poiid":"B2094654DB65A3FC469F","title":"东华大学-莱佛士国际设计学院","lon":"121.4128","lat":"31.20497","category":"671","category_name":"高校中心点","address":"上海市长宁区延安西路1882号"},{"poiid":"B2094751D46BA4FA4498","title":"cat &coffee","lon":"121.40764524098302","lat":"31.20339909727332","category":"65","category_name":"咖啡厅","address":"长宁区延安西路2077号金桥大厦702室"},{"poiid":"B2094757D068A2FC409B","title":"东华大学图书馆(延安路校区)","lon":"121.414331897","lat":"31.2043352776","category":"253","category_name":"校园生活","address":"长宁区延安西路1882号东华大学内"},{"poiid":"B2094757D069A7F94493","title":"东华大学 旭日楼","lon":"121.412886526","lat":"31.2028334153","category":"253","category_name":"校园生活","address":"上海长宁区延安西路1882号东华大学延安路校区"},{"poiid":"B2094655D269AAFB429E","title":"银河宾馆宴会厅","lon":"121.4113","lat":"31.20401","category":"247","category_name":"餐饮美食","address":"长宁区中山西路888号银河宾馆内(近延安西路)查看地图"},{"poiid":"B2094757D06AABFE499C","title":"三泰养生铁板烧","lon":"121.40899658","lat":"31.20170021","category":"94","category_name":"西餐厅","address":"长宁区伊犁路135号(近安顺路)"},{"poiid":"B2094655D26AA7FB469E","title":"一兆韦德虹桥店","lon":"121.41033","lat":"31.20403","category":"247","category_name":"餐饮美食","address":"长宁区延安西路2000号虹桥宾馆3楼(近中山西路)"},{"poiid":"B2094655D26EA7FC4292","title":"莫泰268(上海虹桥开发区店)","lon":"121.41212","lat":"31.20283","category":"250","category_name":"公园户外","address":"上海市长宁区中山西路906号(近新华路)"},{"poiid":"B2094757D065A7FD479E","title":"青叶家日本料理","lon":"121.408083086","lat":"31.2018559762","category":"500","category_name":"未知分类","address":"上海延安西路2077号金桥大厦一楼"},{"poiid":"B2094751D26DA0FE409A","title":"古北国际财富中心二期","lon":"121.41","lat":"31.2036","category":"252","category_name":"楼宇机构","address":"红宝石路200号"},{"poiid":"B2094654DB6BA7FE4393","title":"澳门豆捞坊(仲盛金融中心)","lon":"121.40811","lat":"31.20396","category":"86","category_name":"火锅店","address":"长宁区延安西路2067号仲盛金融中心2楼(近仙霞路)"},{"poiid":"B2094757D16FA3FD4698","title":"甬府酒楼","lon":"121.41141408","lat":"31.203946917","category":"75","category_name":"浙江菜","address":"长宁区中山西路888号银河宾馆1楼(近延安西路)"},{"poiid":"B2094757D065A4FB4898","title":"城日本料理","lon":"121.4104","lat":"31.20364","category":"95","category_name":"日本料理","address":"长宁区延安西路2000号虹桥宾馆1号门1楼(近中山西路)"},{"poiid":"B2094757D069A7F44493","title":"青叶家","lon":"121.40830655","lat":"31.20325346","category":"95","category_name":"日本料理","address":"长宁区延安西路2071弄9号金桥大厦1楼(近仙霞路)"},{"poiid":"B2094655D26FA6FB409A","title":"汉庭快捷(伊犁路店)","lon":"121.40904","lat":"31.20235","category":"216","category_name":"经济型连锁酒店","address":"上海市长宁区伊犁路158号(近安顺路)"},{"poiid":"B2094655D26EAAF5449C","title":"银河咖啡厅","lon":"121.4113","lat":"31.20401","category":"65","category_name":"咖啡厅","address":"长宁区中山西路888号银河宾馆1楼(近延安西路)"},{"poiid":"B2094757D068A5F9489D","title":"莱佛士国际设计学院","lon":"121.41444","lat":"31.202","category":"52","category_name":"高等院校","address":"长宁区延安西路1882号东华大学内"},{"poiid":"B2094655D264A2F54199","title":"美林小厨","lon":"121.41203","lat":"31.2022","category":"76","category_name":"上海菜","address":"长宁区中山西路906号莫泰268店内1楼"},{"poiid":"B2094757D06FAAF4409E","title":"延安路高架外灘方向","lon":"121.413614","lat":"31.20365","category":"500","category_name":"未知分类","address":"上海延安路"},{"poiid":"B2094757D16CA7FF429A","title":"虹桥宾馆 虹苑厅","lon":"121.41009","lat":"31.20364","category":"76","category_name":"上海菜","address":"长宁区延安西路2000号虹桥宾馆1楼(近中山西路)"},{"poiid":"B2094750DB64AAF84498","title":"国药大厦","lon":"121.410736","lat":"31.201501","category":"252","category_name":"楼宇机构","address":"中山西路1001号"},{"poiid":"B2094757D16EA0FA439B","title":"樱川","lon":"121.411448586","lat":"31.2039649174","category":"247","category_name":"餐饮美食","address":"上海市长宁区中山西路888号银河宾馆二楼"},{"poiid":"B2094757DA6AABFD499A","title":"上海火车站","lon":"121.412663","lat":"31.20308","category":"627","category_name":"一般地点标志","address":"上海市闸北区秣陵路303号"},{"poiid":"B2094655D26FA1FD489F","title":"上海长宁百联西郊NK","lon":"121.41097","lat":"31.20307","category":"140","category_name":"体育用品店","address":"长宁区仙霞西路88号3楼"},{"poiid":"B2094750D76DA6FC469B","title":"空海日本料理","lon":"121.41","lat":"31.2039","category":"95","category_name":"日本料理","address":"长宁区延安西路2000号虹桥宾馆大厅内(近中山西路)"},{"poiid":"B2094655D268A5FC439A","title":"上海纺织服饰博物馆","lon":"121.41358","lat":"31.20328","category":"182","category_name":"博物馆","address":"长宁区延安西路1882号东华大学内(近虹桥路)"},{"poiid":"B2094655D268A0F94198","title":"花园餐厅","lon":"121.41131","lat":"31.20401","category":"76","category_name":"上海菜","address":"长宁区中山西路888号银河宾馆3楼(近延安西路)"},{"poiid":"B2094654D564A3FD439F","title":"V8club","lon":"121.4113","lat":"31.204","category":"170","category_name":"KTV","address":"中山西路888号银河宾馆2层"},{"poiid":"B2094757D069A1FA439E","title":"Obama","lon":"121.40784818","lat":"31.202628661","category":"172","category_name":"酒吧","address":"上海伊犁路"},{"poiid":"B2094655D36DA7F8489C","title":"中山西路新华路","lon":"121.41206","lat":"31.20396","category":"38","category_name":"公交车站","address":""},{"poiid":"B2094757D06AA0F5459E","title":"上海生物制品研究所(分部)","lon":"121.41247258","lat":"31.201769874","category":"500","category_name":"未知分类","address":"上海市长宁区安顺路350号"},{"poiid":"B2094654D564A3FD439E","title":"花月日本料理","lon":"121.4113","lat":"31.20401","category":"95","category_name":"日本料理","address":"中山西路888号银河宾馆2楼近延安西路"},{"poiid":"B2094757D068ABFC4092","title":"虹储小区","lon":"121.41197","lat":"31.199516","category":"47","category_name":"住宅区","address":"上海长宁区虹桥路1041弄(安顺路283弄后门)"},{"poiid":"B2094655D268A0F5479B","title":"钢琴酒吧KTV","lon":"121.41131","lat":"31.20401","category":"170","category_name":"KTV","address":""},{"poiid":"B2094757D06FA6F5449E","title":"全家便利(安顺路店)","lon":"121.41258235","lat":"31.201547309","category":"117","category_name":"便民商店/便利店","address":"上海长宁区安顺路246号(近中山西路)"},{"poiid":"B2094655D26EA4F84993","title":"平壤馆","lon":"121.41214923858","lat":"31.204814543329","category":"247","category_name":"餐饮美食","address":"中山西路888号银河宾馆1楼近延安西路"},{"poiid":"B2094757D16EA2FB459C","title":"东华大学 一教101","lon":"121.412845586","lat":"31.2032159028","category":"500","category_name":"未知分类","address":"上海市延安西路1882号"},{"poiid":"B2094750D76EA1FC489D","title":"G.HAUSLIVEHOUSE&CLUB","lon":"121.411","lat":"31.204","category":"269","category_name":"烧烤","address":"中山西路888号银河宾馆2楼(近延安西路)"},{"poiid":"B2094655D268ABFF4092","title":"内环延安西路立交桥","lon":"121.41219","lat":"31.20563","category":"250","category_name":"公园户外","address":""},{"poiid":"B2094753D46AA0F5419C","title":"尚嘉中心","lon":"121.409927","lat":"31.204006","category":"500","category_name":"未知分类","address":"上海市 长宁区仙霞路99号"},{"poiid":"B2094654DB64AAF5499F","title":"百花园","lon":"121.41019","lat":"31.20399","category":"196","category_name":"公园","address":"延安西路2000"},{"poiid":"B2094757D16AA2F44698","title":"和之美","lon":"121.40867363","lat":"31.20410942","category":"95","category_name":"日本料理","address":"长宁区仙霞路1号(近延安西路)"},{"poiid":"B2094655D26FA6F54692","title":"沪定中学","lon":"121.41384","lat":"31.20156","category":"55","category_name":"中学","address":"中山西路911弄1号"},{"poiid":"B2094753D765A0FC489F","title":"糯美人韩国年糕火锅","lon":"121.408226","lat":"31.204523","category":"96","category_name":"韩国料理","address":"长宁区仙霞路8号仲盛金融中心2楼(近延安西路口)"},{"poiid":"B2094757D06FA3F9429C","title":"银河宾馆","lon":"121.41138860008414","lat":"31.20410764288778","category":"214","category_name":"四星级宾馆","address":"长宁区中山西路888号银河宾馆内(近延安西路)"},{"poiid":"B2094655D26EA5FD4099","title":"虹桥宾馆","lon":"121.41060904662709","lat":"31.20369027936784","category":"214","category_name":"四星级宾馆","address":"上海市长宁区延安西路2000号(近中山西路口)"},{"poiid":"B2094757D06FA3F5459B","title":"唐宫(银河店)","lon":"121.4118","lat":"31.20395","category":"72","category_name":"广东菜","address":"长宁区中山西路888号银河宾馆2楼(近延安西路)"},{"poiid":"B2094757D06FA6FB479D","title":"柚子(虹桥店)","lon":"121.40877","lat":"31.20379","category":"95","category_name":"日本料理","address":"长宁区仙霞路8号仲盛金融中心2楼"},{"poiid":"B2094655D36CA4FD4793","title":"安顺路","lon":"121.413","lat":"31.20141","category":"38","category_name":"公交车站","address":""},{"poiid":"B2094757D068A5FF409C","title":"上海内环线高架路","lon":"121.412181378","lat":"31.2059787732","category":"260","category_name":"其他","address":"上海市内环线高架路"},{"poiid":"B2094654DB65A3FC469F","title":"东华大学-莱佛士国际设计学院","lon":"121.4128","lat":"31.20497","category":"671","category_name":"高校中心点","address":"上海市长宁区延安西路1882号"},{"poiid":"B2094751D46BA4FA4498","title":"cat &coffee","lon":"121.40764524098302","lat":"31.20339909727332","category":"65","category_name":"咖啡厅","address":"长宁区延安西路2077号金桥大厦702室"},{"poiid":"B2094757D068A2FC409B","title":"东华大学图书馆(延安路校区)","lon":"121.414331897","lat":"31.2043352776","category":"253","category_name":"校园生活","address":"长宁区延安西路1882号东华大学内"},{"poiid":"B2094757D069A7F94493","title":"东华大学 旭日楼","lon":"121.412886526","lat":"31.2028334153","category":"253","category_name":"校园生活","address":"上海长宁区延安西路1882号东华大学延安路校区"},{"poiid":"B2094655D269AAFB429E","title":"银河宾馆宴会厅","lon":"121.4113","lat":"31.20401","category":"247","category_name":"餐饮美食","address":"长宁区中山西路888号银河宾馆内(近延安西路)查看地图"},{"poiid":"B2094757D06AABFE499C","title":"三泰养生铁板烧","lon":"121.40899658","lat":"31.20170021","category":"94","category_name":"西餐厅","address":"长宁区伊犁路135号(近安顺路)"},{"poiid":"B2094655D26AA7FB469E","title":"一兆韦德虹桥店","lon":"121.41033","lat":"31.20403","category":"247","category_name":"餐饮美食","address":"长宁区延安西路2000号虹桥宾馆3楼(近中山西路)"},{"poiid":"B2094655D26EA7FC4292","title":"莫泰268(上海虹桥开发区店)","lon":"121.41212","lat":"31.20283","category":"250","category_name":"公园户外","address":"上海市长宁区中山西路906号(近新华路)"},{"poiid":"B2094757D065A7FD479E","title":"青叶家日本料理","lon":"121.408083086","lat":"31.2018559762","category":"500","category_name":"未知分类","address":"上海延安西路2077号金桥大厦一楼"},{"poiid":"B2094751D26DA0FE409A","title":"古北国际财富中心二期","lon":"121.41","lat":"31.2036","category":"252","category_name":"楼宇机构","address":"红宝石路200号"},{"poiid":"B2094654DB6BA7FE4393","title":"澳门豆捞坊(仲盛金融中心)","lon":"121.40811","lat":"31.20396","category":"86","category_name":"火锅店","address":"长宁区延安西路2067号仲盛金融中心2楼(近仙霞路)"},{"poiid":"B2094757D16FA3FD4698","title":"甬府酒楼","lon":"121.41141408","lat":"31.203946917","category":"75","category_name":"浙江菜","address":"长宁区中山西路888号银河宾馆1楼(近延安西路)"},{"poiid":"B2094757D065A4FB4898","title":"城日本料理","lon":"121.4104","lat":"31.20364","category":"95","category_name":"日本料理","address":"长宁区延安西路2000号虹桥宾馆1号门1楼(近中山西路)"},{"poiid":"B2094757D069A7F44493","title":"青叶家","lon":"121.40830655","lat":"31.20325346","category":"95","category_name":"日本料理","address":"长宁区延安西路2071弄9号金桥大厦1楼(近仙霞路)"},{"poiid":"B2094655D26FA6FB409A","title":"汉庭快捷(伊犁路店)","lon":"121.40904","lat":"31.20235","category":"216","category_name":"经济型连锁酒店","address":"上海市长宁区伊犁路158号(近安顺路)"},{"poiid":"B2094655D26EAAF5449C","title":"银河咖啡厅","lon":"121.4113","lat":"31.20401","category":"65","category_name":"咖啡厅","address":"长宁区中山西路888号银河宾馆1楼(近延安西路)"},{"poiid":"B2094757D068A5F9489D","title":"莱佛士国际设计学院","lon":"121.41444","lat":"31.202","category":"52","category_name":"高等院校","address":"长宁区延安西路1882号东华大学内"},{"poiid":"B2094655D264A2F54199","title":"美林小厨","lon":"121.41203","lat":"31.2022","category":"76","category_name":"上海菜","address":"长宁区中山西路906号莫泰268店内1楼"},{"poiid":"B2094757D06FAAF4409E","title":"延安路高架外灘方向","lon":"121.413614","lat":"31.20365","category":"500","category_name":"未知分类","address":"上海延安路"},{"poiid":"B2094757D16CA7FF429A","title":"虹桥宾馆 虹苑厅","lon":"121.41009","lat":"31.20364","category":"76","category_name":"上海菜","address":"长宁区延安西路2000号虹桥宾馆1楼(近中山西路)"},{"poiid":"B2094750DB64AAF84498","title":"国药大厦","lon":"121.410736","lat":"31.201501","category":"252","category_name":"楼宇机构","address":"中山西路1001号"},{"poiid":"B2094757D16EA0FA439B","title":"樱川","lon":"121.411448586","lat":"31.2039649174","category":"247","category_name":"餐饮美食","address":"上海市长宁区中山西路888号银河宾馆二楼"},{"poiid":"B2094757DA6AABFD499A","title":"上海火车站","lon":"121.412663","lat":"31.20308","category":"627","category_name":"一般地点标志","address":"上海市闸北区秣陵路303号"},{"poiid":"B2094655D26FA1FD489F","title":"上海长宁百联西郊NK","lon":"121.41097","lat":"31.20307","category":"140","category_name":"体育用品店","address":"长宁区仙霞西路88号3楼"},{"poiid":"B2094750D76DA6FC469B","title":"空海日本料理","lon":"121.41","lat":"31.2039","category":"95","category_name":"日本料理","address":"长宁区延安西路2000号虹桥宾馆大厅内(近中山西路)"},{"poiid":"B2094655D268A5FC439A","title":"上海纺织服饰博物馆","lon":"121.41358","lat":"31.20328","category":"182","category_name":"博物馆","address":"长宁区延安西路1882号东华大学内(近虹桥路)"},{"poiid":"B2094655D268A0F94198","title":"花园餐厅","lon":"121.41131","lat":"31.20401","category":"76","category_name":"上海菜","address":"长宁区中山西路888号银河宾馆3楼(近延安西路)"},{"poiid":"B2094654D564A3FD439F","title":"V8club","lon":"121.4113","lat":"31.204","category":"170","category_name":"KTV","address":"中山西路888号银河宾馆2层"},{"poiid":"B2094757D069A1FA439E","title":"Obama","lon":"121.40784818","lat":"31.202628661","category":"172","category_name":"酒吧","address":"上海伊犁路"},{"poiid":"B2094655D36DA7F8489C","title":"中山西路新华路","lon":"121.41206","lat":"31.20396","category":"38","category_name":"公交车站","address":""},{"poiid":"B2094757D06AA0F5459E","title":"上海生物制品研究所(分部)","lon":"121.41247258","lat":"31.201769874","category":"500","category_name":"未知分类","address":"上海市长宁区安顺路350号"},{"poiid":"B2094654D564A3FD439E","title":"花月日本料理","lon":"121.4113","lat":"31.20401","category":"95","category_name":"日本料理","address":"中山西路888号银河宾馆2楼近延安西路"},{"poiid":"B2094757D068ABFC4092","title":"虹储小区","lon":"121.41197","lat":"31.199516","category":"47","category_name":"住宅区","address":"上海长宁区虹桥路1041弄(安顺路283弄后门)"},{"poiid":"B2094655D268A0F5479B","title":"钢琴酒吧KTV","lon":"121.41131","lat":"31.20401","category":"170","category_name":"KTV","address":""},{"poiid":"B2094757D06FA6F5449E","title":"全家便利(安顺路店)","lon":"121.41258235","lat":"31.201547309","category":"117","category_name":"便民商店/便利店","address":"上海长宁区安顺路246号(近中山西路)"},{"poiid":"B2094655D26EA4F84993","title":"平壤馆","lon":"121.41214923858","lat":"31.204814543329","category":"247","category_name":"餐饮美食","address":"中山西路888号银河宾馆1楼近延安西路"},{"poiid":"B2094757D16EA2FB459C","title":"东华大学 一教101","lon":"121.412845586","lat":"31.2032159028","category":"500","category_name":"未知分类","address":"上海市延安西路1882号"},{"poiid":"B2094750D76EA1FC489D","title":"G.HAUSLIVEHOUSE&CLUB","lon":"121.411","lat":"31.204","category":"269","category_name":"烧烤","address":"中山西路888号银河宾馆2楼(近延安西路)"},{"poiid":"B2094655D268ABFF4092","title":"内环延安西路立交桥","lon":"121.41219","lat":"31.20563","category":"250","category_name":"公园户外","address":""},{"poiid":"B2094753D46AA0F5419C","title":"尚嘉中心","lon":"121.409927","lat":"31.204006","category":"500","category_name":"未知分类","address":"上海市 长宁区仙霞路99号"},{"poiid":"B2094654DB64AAF5499F","title":"百花园","lon":"121.41019","lat":"31.20399","category":"196","category_name":"公园","address":"延安西路2000"},{"poiid":"B2094757D16AA2F44698","title":"和之美","lon":"121.40867363","lat":"31.20410942","category":"95","category_name":"日本料理","address":"长宁区仙霞路1号(近延安西路)"},{"poiid":"B2094655D26FA6F54692","title":"沪定中学","lon":"121.41384","lat":"31.20156","category":"55","category_name":"中学","address":"中山西路911弄1号"},{"poiid":"B2094753D765A0FC489F","title":"糯美人韩国年糕火锅","lon":"121.408226","lat":"31.204523","category":"96","category_name":"韩国料理","address":"长宁区仙霞路8号仲盛金融中心2楼(近延安西路口)"},{"poiid":"B2094757D06FA3F9429C","title":"银河宾馆","lon":"121.41138860008414","lat":"31.20410764288778","category":"214","category_name":"四星级宾馆","address":"长宁区中山西路888号银河宾馆内(近延安西路)"},{"poiid":"B2094655D26EA5FD4099","title":"虹桥宾馆","lon":"121.41060904662709","lat":"31.20369027936784","category":"214","category_name":"四星级宾馆","address":"上海市长宁区延安西路2000号(近中山西路口)"},{"poiid":"B2094757D06FA3F5459B","title":"唐宫(银河店)","lon":"121.4118","lat":"31.20395","category":"72","category_name":"广东菜","address":"长宁区中山西路888号银河宾馆2楼(近延安西路)"},{"poiid":"B2094757D06FA6FB479D","title":"柚子(虹桥店)","lon":"121.40877","lat":"31.20379","category":"95","category_name":"日本料理","address":"长宁区仙霞路8号仲盛金融中心2楼"},{"poiid":"B2094655D36CA4FD4793","title":"安顺路","lon":"121.413","lat":"31.20141","category":"38","category_name":"公交车站","address":""},{"poiid":"B2094757D068A5FF409C","title":"上海内环线高架路","lon":"121.412181378","lat":"31.2059787732","category":"260","category_name":"其他","address":"上海市内环线高架路"},{"poiid":"B2094654DB65A3FC469F","title":"东华大学-莱佛士国际设计学院","lon":"121.4128","lat":"31.20497","category":"671","category_name":"高校中心点","address":"上海市长宁区延安西路1882号"},{"poiid":"B2094751D46BA4FA4498","title":"cat &coffee","lon":"121.40764524098302","lat":"31.20339909727332","category":"65","category_name":"咖啡厅","address":"长宁区延安西路2077号金桥大厦702室"},{"poiid":"B2094757D068A2FC409B","title":"东华大学图书馆(延安路校区)","lon":"121.414331897","lat":"31.2043352776","category":"253","category_name":"校园生活","address":"长宁区延安西路1882号东华大学内"},{"poiid":"B2094757D069A7F94493","title":"东华大学 旭日楼","lon":"121.412886526","lat":"31.2028334153","category":"253","category_name":"校园生活","address":"上海长宁区延安西路1882号东华大学延安路校区"},{"poiid":"B2094655D269AAFB429E","title":"银河宾馆宴会厅","lon":"121.4113","lat":"31.20401","category":"247","category_name":"餐饮美食","address":"长宁区中山西路888号银河宾馆内(近延安西路)查看地图"},{"poiid":"B2094757D06AABFE499C","title":"三泰养生铁板烧","lon":"121.40899658","lat":"31.20170021","category":"94","category_name":"西餐厅","address":"长宁区伊犁路135号(近安顺路)"},{"poiid":"B2094655D26AA7FB469E","title":"一兆韦德虹桥店","lon":"121.41033","lat":"31.20403","category":"247","category_name":"餐饮美食","address":"长宁区延安西路2000号虹桥宾馆3楼(近中山西路)"},{"poiid":"B2094655D26EA7FC4292","title":"莫泰268(上海虹桥开发区店)","lon":"121.41212","lat":"31.20283","category":"250","category_name":"公园户外","address":"上海市长宁区中山西路906号(近新华路)"},{"poiid":"B2094757D065A7FD479E","title":"青叶家日本料理","lon":"121.408083086","lat":"31.2018559762","category":"500","category_name":"未知分类","address":"上海延安西路2077号金桥大厦一楼"},{"poiid":"B2094751D26DA0FE409A","title":"古北国际财富中心二期","lon":"121.41","lat":"31.2036","category":"252","category_name":"楼宇机构","address":"红宝石路200号"},{"poiid":"B2094654DB6BA7FE4393","title":"澳门豆捞坊(仲盛金融中心)","lon":"121.40811","lat":"31.20396","category":"86","category_name":"火锅店","address":"长宁区延安西路2067号仲盛金融中心2楼(近仙霞路)"},{"poiid":"B2094757D16FA3FD4698","title":"甬府酒楼","lon":"121.41141408","lat":"31.203946917","category":"75","category_name":"浙江菜","address":"长宁区中山西路888号银河宾馆1楼(近延安西路)"},{"poiid":"B2094757D065A4FB4898","title":"城日本料理","lon":"121.4104","lat":"31.20364","category":"95","category_name":"日本料理","address":"长宁区延安西路2000号虹桥宾馆1号门1楼(近中山西路)"},{"poiid":"B2094757D069A7F44493","title":"青叶家","lon":"121.40830655","lat":"31.20325346","category":"95","category_name":"日本料理","address":"长宁区延安西路2071弄9号金桥大厦1楼(近仙霞路)"},{"poiid":"B2094655D26FA6FB409A","title":"汉庭快捷(伊犁路店)","lon":"121.40904","lat":"31.20235","category":"216","category_name":"经济型连锁酒店","address":"上海市长宁区伊犁路158号(近安顺路)"},{"poiid":"B2094655D26EAAF5449C","title":"银河咖啡厅","lon":"121.4113","lat":"31.20401","category":"65","category_name":"咖啡厅","address":"长宁区中山西路888号银河宾馆1楼(近延安西路)"},{"poiid":"B2094757D068A5F9489D","title":"莱佛士国际设计学院","lon":"121.41444","lat":"31.202","category":"52","category_name":"高等院校","address":"长宁区延安西路1882号东华大学内"},{"poiid":"B2094655D264A2F54199","title":"美林小厨","lon":"121.41203","lat":"31.2022","category":"76","category_name":"上海菜","address":"长宁区中山西路906号莫泰268店内1楼"},{"poiid":"B2094757D06FAAF4409E","title":"延安路高架外灘方向","lon":"121.413614","lat":"31.20365","category":"500","category_name":"未知分类","address":"上海延安路"},{"poiid":"B2094757D16CA7FF429A","title":"虹桥宾馆 虹苑厅","lon":"121.41009","lat":"31.20364","category":"76","category_name":"上海菜","address":"长宁区延安西路2000号虹桥宾馆1楼(近中山西路)"},{"poiid":"B2094750DB64AAF84498","title":"国药大厦","lon":"121.410736","lat":"31.201501","category":"252","category_name":"楼宇机构","address":"中山西路1001号"},{"poiid":"B2094757D16EA0FA439B","title":"樱川","lon":"121.411448586","lat":"31.2039649174","category":"247","category_name":"餐饮美食","address":"上海市长宁区中山西路888号银河宾馆二楼"},{"poiid":"B2094757DA6AABFD499A","title":"上海火车站","lon":"121.412663","lat":"31.20308","category":"627","category_name":"一般地点标志","address":"上海市闸北区秣陵路303号"},{"poiid":"B2094655D26FA1FD489F","title":"上海长宁百联西郊NK","lon":"121.41097","lat":"31.20307","category":"140","category_name":"体育用品店","address":"长宁区仙霞西路88号3楼"},{"poiid":"B2094750D76DA6FC469B","title":"空海日本料理","lon":"121.41","lat":"31.2039","category":"95","category_name":"日本料理","address":"长宁区延安西路2000号虹桥宾馆大厅内(近中山西路)"},{"poiid":"B2094655D268A5FC439A","title":"上海纺织服饰博物馆","lon":"121.41358","lat":"31.20328","category":"182","category_name":"博物馆","address":"长宁区延安西路1882号东华大学内(近虹桥路)"},{"poiid":"B2094655D268A0F94198","title":"花园餐厅","lon":"121.41131","lat":"31.20401","category":"76","category_name":"上海菜","address":"长宁区中山西路888号银河宾馆3楼(近延安西路)"},{"poiid":"B2094654D564A3FD439F","title":"V8club","lon":"121.4113","lat":"31.204","category":"170","category_name":"KTV","address":"中山西路888号银河宾馆2层"},{"poiid":"B2094757D069A1FA439E","title":"Obama","lon":"121.40784818","lat":"31.202628661","category":"172","category_name":"酒吧","address":"上海伊犁路"},{"poiid":"B2094655D36DA7F8489C","title":"中山西路新华路","lon":"121.41206","lat":"31.20396","category":"38","category_name":"公交车站","address":""},{"poiid":"B2094757D06AA0F5459E","title":"上海生物制品研究所(分部)","lon":"121.41247258","lat":"31.201769874","category":"500","category_name":"未知分类","address":"上海市长宁区安顺路350号"},{"poiid":"B2094654D564A3FD439E","title":"花月日本料理","lon":"121.4113","lat":"31.20401","category":"95","category_name":"日本料理","address":"中山西路888号银河宾馆2楼近延安西路"},{"poiid":"B2094757D068ABFC4092","title":"虹储小区","lon":"121.41197","lat":"31.199516","category":"47","category_name":"住宅区","address":"上海长宁区虹桥路1041弄(安顺路283弄后门)"},{"poiid":"B2094655D268A0F5479B","title":"钢琴酒吧KTV","lon":"121.41131","lat":"31.20401","category":"170","category_name":"KTV","address":""},{"poiid":"B2094757D06FA6F5449E","title":"全家便利(安顺路店)","lon":"121.41258235","lat":"31.201547309","category":"117","category_name":"便民商店/便利店","address":"上海长宁区安顺路246号(近中山西路)"},{"poiid":"B2094655D26EA4F84993","title":"平壤馆","lon":"121.41214923858","lat":"31.204814543329","category":"247","category_name":"餐饮美食","address":"中山西路888号银河宾馆1楼近延安西路"},{"poiid":"B2094757D16EA2FB459C","title":"东华大学 一教101","lon":"121.412845586","lat":"31.2032159028","category":"500","category_name":"未知分类","address":"上海市延安西路1882号"},{"poiid":"B2094750D76EA1FC489D","title":"G.HAUSLIVEHOUSE&CLUB","lon":"121.411","lat":"31.204","category":"269","category_name":"烧烤","address":"中山西路888号银河宾馆2楼(近延安西路)"},{"poiid":"B2094655D268ABFF4092","title":"内环延安西路立交桥","lon":"121.41219","lat":"31.20563","category":"250","category_name":"公园户外","address":""},{"poiid":"B2094753D46AA0F5419C","title":"尚嘉中心","lon":"121.409927","lat":"31.204006","category":"500","category_name":"未知分类","address":"上海市 长宁区仙霞路99号"},{"poiid":"B2094654DB64AAF5499F","title":"百花园","lon":"121.41019","lat":"31.20399","category":"196","category_name":"公园","address":"延安西路2000"},{"poiid":"B2094757D16AA2F44698","title":"和之美","lon":"121.40867363","lat":"31.20410942","category":"95","category_name":"日本料理","address":"长宁区仙霞路1号(近延安西路)"},{"poiid":"B2094655D26FA6F54692","title":"沪定中学","lon":"121.41384","lat":"31.20156","category":"55","category_name":"中学","address":"中山西路911弄1号"},{"poiid":"B2094753D765A0FC489F","title":"糯美人韩国年糕火锅","lon":"121.408226","lat":"31.204523","category":"96","category_name":"韩国料理","address":"长宁区仙霞路8号仲盛金融中心2楼(近延安西路口)"}]