[{"poiid":"B2094757D66DA6FB459A","title":"天华科技信息园","lon":"121.45","lat":"31.1771","category":"500","category_name":"未知分类","address":"上海市徐汇区漕东支路"},{"poiid":"B2094757D06FA1FA469A","title":"龙华烈士陵园","lon":"121.44877","lat":"31.17546","category":"620","category_name":"丧葬","address":"徐汇区龙华西路180号(近龙华路)"},{"poiid":"B2094654DA6DA7FE4292","title":"2577创意大院","lon":"121.45108","lat":"31.17846","category":"45","category_name":"产业园区","address":"徐汇区龙华路2577号(近龙华寺)"},{"poiid":"B2094757D068A0FF469B","title":"人道素菜欢喜斋 Jen Dow","lon":"121.4528386878","lat":"31.174444613162","category":"89","category_name":"中式素餐馆","address":"徐汇区龙华路2787号龙华迎宾馆内(近龙华寺)"},{"poiid":"B2094757D06FA1FA4893","title":"盛大花园","lon":"121.45329","lat":"31.179134","category":"47","category_name":"住宅区","address":"上海市徐汇区龙华路2518弄"},{"poiid":"B2094655D265A0FA489E","title":"D1国际创意空间","lon":"121.44582","lat":"31.17874","category":"45","category_name":"产业园区","address":"上海徐汇区天钥桥路909号"},{"poiid":"B2094757D068A7FC459C","title":"粤珍轩(龙华店)","lon":"121.45162","lat":"31.17831","category":"72","category_name":"广东菜","address":"徐汇区龙华路2577号创意大院内(近龙华寺)"},{"poiid":"B2094655D36CA1FE4393","title":"双峰路中山南二路","lon":"121.44847","lat":"31.18264","category":"38","category_name":"公交车站","address":""},{"poiid":"B2094757D069A3FD439F","title":"龙兆苑","lon":"121.453078","lat":"31.177168","category":"47","category_name":"住宅区","address":"上海市浦东新区上南路3500弄"},{"poiid":"B2094751DA65A1FF4693","title":"新奢奢侈品护理","lon":"121.446152","lat":"31.17868","category":"249","category_name":"购物服务","address":"天钥桥路909号D1国际创意空间3号楼218室"},{"poiid":"B2094757D16DA6FE4793","title":"宛平医院","lon":"121.449437","lat":"31.180191","category":"162","category_name":"医院","address":"上海双峰路446号"},{"poiid":"B2094655D265ABFE4392","title":"倚卿酒家","lon":"121.450018054","lat":"31.180057793","category":"76","category_name":"上海菜","address":"徐汇区华容路65号(近龙华路)"},{"poiid":"B2094654DA6DA7F8479B","title":"枫林街道社区卫生服务中心","lon":"121.4493","lat":"31.18004","category":"162","category_name":"医院","address":"徐汇区双峰路450号(近中山南二路)"},{"poiid":"B2094757D66BA6FB499D","title":"富于餐厅","lon":"121.451868054","lat":"31.178990793","category":"76","category_name":"上海菜","address":"徐汇区龙华路2577号创意大院(近双峰路)"},{"poiid":"B2094757D16DA4FE4593","title":"创意大院","lon":"121.451709036","lat":"31.1786601229","category":"500","category_name":"未知分类","address":"丰台学城海鹰路1号，3号"},{"poiid":"B2094655D26AAAFC499E","title":"无形艺术陶艺中心","lon":"121.45136","lat":"31.17862","category":"87","category_name":"特色／地方风味餐厅","address":"徐汇区龙华路2577号创意大院12号(近龙华寺)"},{"poiid":"B2094757D66DA1F4499A","title":"龙华寺斋堂","lon":"121.451551586","lat":"31.1751613546","category":"500","category_name":"未知分类","address":"上海龙华寺内"},{"poiid":"B2094655D269AAFC4693","title":"格林豪泰酒店龙华店","lon":"121.45178","lat":"31.17891","category":"247","category_name":"餐饮美食","address":"徐汇区龙华路2555号(近龙华寺)"},{"poiid":"B2094757D469A0F5449A","title":"程新双峰小吃","lon":"121.44896415472","lat":"31.180590560618","category":"68","category_name":"快餐厅","address":"徐汇区双峰路双峰街市旁"},{"poiid":"B2094655D268A2FD449F","title":"龙吴路11弄小区","lon":"121.451","lat":"31.1798","category":"47","category_name":"住宅区","address":"龙吴路11弄1-37号"},{"poiid":"B2094757D568ABF4409A","title":"狼烧烤","lon":"121.4522619","lat":"31.17918306","category":"68","category_name":"快餐厅","address":"徐汇区龙华路2500号小吃街C12号(近龙华寺)"},{"poiid":"B2094655D36CA1FE439D","title":"双峰路","lon":"121.45096","lat":"31.18037","category":"38","category_name":"公交车站","address":""},{"poiid":"B2094655D36CA7FC449D","title":"华容路双峰路","lon":"121.45025","lat":"31.18015","category":"38","category_name":"公交车站","address":""},{"poiid":"B2094654DA6DA2F9439C","title":"宏润大厦","lon":"121.448","lat":"31.1757","category":"46","category_name":"楼宇","address":"北一环与亳州路交叉口(庐阳区政府对面)"},{"poiid":"B2094655D26FABFD4898","title":"华容小区(北门)","lon":"121.44992","lat":"31.17988","category":"47","category_name":"住宅区","address":""},{"poiid":"B2094655D26FAAF4439B","title":"龙华小区(东门)","lon":"121.45105","lat":"31.17894","category":"47","category_name":"住宅区","address":""},{"poiid":"B2094655D36CA1F8449E","title":"龙华路华容路","lon":"121.45196","lat":"31.1793","category":"38","category_name":"公交车站","address":""},{"poiid":"B2094753DB6CA3F84793","title":"上海市精神病治疗中心","lon":"121.450736","lat":"31.179309","category":"500","category_name":"未知分类","address":"上海市 上海市徐汇区零陵路585"},{"poiid":"B2094654DA6DA7FD499C","title":"华容小区","lon":"121.44994","lat":"31.179544","category":"47","category_name":"住宅区","address":"华容路111弄1-7号"},{"poiid":"B2094654DB6BA5FA429A","title":"圆缘园时尚餐厅(龙华店)","lon":"121.45185","lat":"31.18005","category":"68","category_name":"快餐厅","address":"徐汇区龙华路2465号"},{"poiid":"B2094757D66DA0FB4199","title":"四合院","lon":"121.44935","lat":"31.18049","category":"76","category_name":"上海菜","address":"徐汇区双峰路349号(近中山南二路)"},{"poiid":"B2094654DA6DA7F8479D","title":"宛南华侨新村","lon":"121.45047","lat":"31.18093","category":"47","category_name":"住宅区","address":""},{"poiid":"B2094752D16CA0FF499E","title":"龙华古寺","lon":"121.45076","lat":"31.179626","category":"244","category_name":"寺庙道观","address":null},{"poiid":"B2094654DB6BA5FA4193","title":"快客","lon":"121.45105","lat":"31.18024","category":"117","category_name":"便民商店/便利店","address":"华容路89"},{"poiid":"B2094757D06BA0F84498","title":"上海土土录音棚","lon":"121.451082","lat":"31.178459","category":"260","category_name":"其他","address":"徐汇区龙华路2577号创意大院26号(近宛平路)"},{"poiid":"B2094654DA6EA1F9479B","title":"香吧岛龙虾盛大店","lon":"121.45236","lat":"31.18023","category":"257","category_name":"中餐厅","address":"寿宁路20号"},{"poiid":"B2094757D169A6FF429E","title":"重庆鸡公煲 双峰路店","lon":"121.448460054","lat":"31.182556793","category":"71","category_name":"四川菜","address":"徐汇区双峰路272号(近中山南二路)"},{"poiid":"B2094654DB65A1FD449F","title":"小吃街","lon":"121.45228","lat":"31.17969","category":"116","category_name":"特色商业街","address":""},{"poiid":"B2094655D264ABFC4998","title":"星宛公寓","lon":"121.44971","lat":"31.17972","category":"47","category_name":"住宅区","address":"华容路111弄2"},{"poiid":"B2094654DB65A6F84392","title":"上海市徐汇区宛平地段医院","lon":"121.44931","lat":"31.18011","category":"162","category_name":"医院","address":"徐汇区双峰北路450号"},{"poiid":"B2094753D76DA1FD4692","title":"上海世博展览馆","lon":"121.449218","lat":"31.179176","category":"500","category_name":"未知分类","address":"上海市 浦东新区国展路1099号"},{"poiid":"B2094654DA6DA7F9449B","title":"宛南三村","lon":"121.45145","lat":"31.180876","category":"47","category_name":"住宅区","address":"龙华路2381弄"},{"poiid":"B2094757D164A1F84192","title":"国美电器(龙华店)","lon":"121.451765","lat":"31.179598","category":"138","category_name":"家电电子卖场","address":"徐汇区龙华路2499号"},{"poiid":"B2094757D16DA7FA469B","title":"红辣椒湘菜馆(天钥桥路店)","lon":"121.44784","lat":"31.18208","category":"77","category_name":"湖南菜","address":"徐汇区中山南二路969号(近天钥桥路)"},{"poiid":"B2094757D16CAAF5439B","title":"徐汇芳草苑","lon":"121.45","lat":"31.179","category":"500","category_name":"未知分类","address":"芳草苑位于徐汇龙吴路15号"},{"poiid":"B2094757D06FAAF54499","title":"JEANS日韩店(京世龙华店)","lon":"121.452429","lat":"31.183131","category":"148","category_name":"美容美发店","address":"上海徐汇区宛平南路941号(近龙华西路)"},{"poiid":"B2094757D165A6FC469C","title":"双峰路葱油饼摊","lon":"121.44901","lat":"31.1813","category":"68","category_name":"快餐厅","address":"徐汇区双峰路300号菜场"},{"poiid":"B2094655D264ABFC4999","title":"林曦明现代剪纸艺术馆","lon":"121.44915","lat":"31.1806","category":"183","category_name":"展览馆","address":"徐汇区双峰路420号"},{"poiid":"B2094655D268A5FE419A","title":"宛南三村(四号门)","lon":"121.45162","lat":"31.18066","category":"47","category_name":"住宅区","address":""},{"poiid":"B2094750D16BA5F8489B","title":"非洲国际","lon":"121.446037","lat":"31.179267","category":"252","category_name":"楼宇机构","address":null},{"poiid":"B2094757D66DA6FB459A","title":"天华科技信息园","lon":"121.45","lat":"31.1771","category":"500","category_name":"未知分类","address":"上海市徐汇区漕东支路"},{"poiid":"B2094757D06FA1FA469A","title":"龙华烈士陵园","lon":"121.44877","lat":"31.17546","category":"620","category_name":"丧葬","address":"徐汇区龙华西路180号(近龙华路)"},{"poiid":"B2094654DA6DA7FE4292","title":"2577创意大院","lon":"121.45108","lat":"31.17846","category":"45","category_name":"产业园区","address":"徐汇区龙华路2577号(近龙华寺)"},{"poiid":"B2094757D068A0FF469B","title":"人道素菜欢喜斋 Jen Dow","lon":"121.4528386878","lat":"31.174444613162","category":"89","category_name":"中式素餐馆","address":"徐汇区龙华路2787号龙华迎宾馆内(近龙华寺)"},{"poiid":"B2094757D06FA1FA4893","title":"盛大花园","lon":"121.45329","lat":"31.179134","category":"47","category_name":"住宅区","address":"上海市徐汇区龙华路2518弄"},{"poiid":"B2094655D265A0FA489E","title":"D1国际创意空间","lon":"121.44582","lat":"31.17874","category":"45","category_name":"产业园区","address":"上海徐汇区天钥桥路909号"},{"poiid":"B2094757D068A7FC459C","title":"粤珍轩(龙华店)","lon":"121.45162","lat":"31.17831","category":"72","category_name":"广东菜","address":"徐汇区龙华路2577号创意大院内(近龙华寺)"},{"poiid":"B2094655D36CA1FE4393","title":"双峰路中山南二路","lon":"121.44847","lat":"31.18264","category":"38","category_name":"公交车站","address":""},{"poiid":"B2094757D069A3FD439F","title":"龙兆苑","lon":"121.453078","lat":"31.177168","category":"47","category_name":"住宅区","address":"上海市浦东新区上南路3500弄"},{"poiid":"B2094751DA65A1FF4693","title":"新奢奢侈品护理","lon":"121.446152","lat":"31.17868","category":"249","category_name":"购物服务","address":"天钥桥路909号D1国际创意空间3号楼218室"},{"poiid":"B2094757D16DA6FE4793","title":"宛平医院","lon":"121.449437","lat":"31.180191","category":"162","category_name":"医院","address":"上海双峰路446号"},{"poiid":"B2094655D265ABFE4392","title":"倚卿酒家","lon":"121.450018054","lat":"31.180057793","category":"76","category_name":"上海菜","address":"徐汇区华容路65号(近龙华路)"},{"poiid":"B2094654DA6DA7F8479B","title":"枫林街道社区卫生服务中心","lon":"121.4493","lat":"31.18004","category":"162","category_name":"医院","address":"徐汇区双峰路450号(近中山南二路)"},{"poiid":"B2094757D66BA6FB499D","title":"富于餐厅","lon":"121.451868054","lat":"31.178990793","category":"76","category_name":"上海菜","address":"徐汇区龙华路2577号创意大院(近双峰路)"},{"poiid":"B2094757D16DA4FE4593","title":"创意大院","lon":"121.451709036","lat":"31.1786601229","category":"500","category_name":"未知分类","address":"丰台学城海鹰路1号，3号"},{"poiid":"B2094655D26AAAFC499E","title":"无形艺术陶艺中心","lon":"121.45136","lat":"31.17862","category":"87","category_name":"特色／地方风味餐厅","address":"徐汇区龙华路2577号创意大院12号(近龙华寺)"},{"poiid":"B2094757D66DA1F4499A","title":"龙华寺斋堂","lon":"121.451551586","lat":"31.1751613546","category":"500","category_name":"未知分类","address":"上海龙华寺内"},{"poiid":"B2094655D269AAFC4693","title":"格林豪泰酒店龙华店","lon":"121.45178","lat":"31.17891","category":"247","category_name":"餐饮美食","address":"徐汇区龙华路2555号(近龙华寺)"},{"poiid":"B2094757D469A0F5449A","title":"程新双峰小吃","lon":"121.44896415472","lat":"31.180590560618","category":"68","category_name":"快餐厅","address":"徐汇区双峰路双峰街市旁"},{"poiid":"B2094655D268A2FD449F","title":"龙吴路11弄小区","lon":"121.451","lat":"31.1798","category":"47","category_name":"住宅区","address":"龙吴路11弄1-37号"},{"poiid":"B2094757D568ABF4409A","title":"狼烧烤","lon":"121.4522619","lat":"31.17918306","category":"68","category_name":"快餐厅","address":"徐汇区龙华路2500号小吃街C12号(近龙华寺)"},{"poiid":"B2094655D36CA1FE439D","title":"双峰路","lon":"121.45096","lat":"31.18037","category":"38","category_name":"公交车站","address":""},{"poiid":"B2094655D36CA7FC449D","title":"华容路双峰路","lon":"121.45025","lat":"31.18015","category":"38","category_name":"公交车站","address":""},{"poiid":"B2094654DA6DA2F9439C","title":"宏润大厦","lon":"121.448","lat":"31.1757","category":"46","category_name":"楼宇","address":"北一环与亳州路交叉口(庐阳区政府对面)"},{"poiid":"B2094655D26FABFD4898","title":"华容小区(北门)","lon":"121.44992","lat":"31.17988","category":"47","category_name":"住宅区","address":""},{"poiid":"B2094655D26FAAF4439B","title":"龙华小区(东门)","lon":"121.45105","lat":"31.17894","category":"47","category_name":"住宅区","address":""},{"poiid":"B2094655D36CA1F8449E","title":"龙华路华容路","lon":"121.45196","lat":"31.1793","category":"38","category_name":"公交车站","address":""},{"poiid":"B2094753DB6CA3F84793","title":"上海市精神病治疗中心","lon":"121.450736","lat":"31.179309","category":"500","category_name":"未知分类","address":"上海市 上海市徐汇区零陵路585"},{"poiid":"B2094654DA6DA7FD499C","title":"华容小区","lon":"121.44994","lat":"31.179544","category":"47","category_name":"住宅区","address":"华容路111弄1-7号"},{"poiid":"B2094654DB6BA5FA429A","title":"圆缘园时尚餐厅(龙华店)","lon":"121.45185","lat":"31.18005","category":"68","category_name":"快餐厅","address":"徐汇区龙华路2465号"},{"poiid":"B2094757D66DA0FB4199","title":"四合院","lon":"121.44935","lat":"31.18049","category":"76","category_name":"上海菜","address":"徐汇区双峰路349号(近中山南二路)"},{"poiid":"B2094654DA6DA7F8479D","title":"宛南华侨新村","lon":"121.45047","lat":"31.18093","category":"47","category_name":"住宅区","address":""},{"poiid":"B2094752D16CA0FF499E","title":"龙华古寺","lon":"121.45076","lat":"31.179626","category":"244","category_name":"寺庙道观","address":null},{"poiid":"B2094654DB6BA5FA4193","title":"快客","lon":"121.45105","lat":"31.18024","category":"117","category_name":"便民商店/便利店","address":"华容路89"},{"poiid":"B2094757D06BA0F84498","title":"上海土土录音棚","lon":"121.451082","lat":"31.178459","category":"260","category_name":"其他","address":"徐汇区龙华路2577号创意大院26号(近宛平路)"},{"poiid":"B2094654DA6EA1F9479B","title":"香吧岛龙虾盛大店","lon":"121.45236","lat":"31.18023","category":"257","category_name":"中餐厅","address":"寿宁路20号"},{"poiid":"B2094757D169A6FF429E","title":"重庆鸡公煲 双峰路店","lon":"121.448460054","lat":"31.182556793","category":"71","category_name":"四川菜","address":"徐汇区双峰路272号(近中山南二路)"},{"poiid":"B2094654DB65A1FD449F","title":"小吃街","lon":"121.45228","lat":"31.17969","category":"116","category_name":"特色商业街","address":""},{"poiid":"B2094655D264ABFC4998","title":"星宛公寓","lon":"121.44971","lat":"31.17972","category":"47","category_name":"住宅区","address":"华容路111弄2"},{"poiid":"B2094654DB65A6F84392","title":"上海市徐汇区宛平地段医院","lon":"121.44931","lat":"31.18011","category":"162","category_name":"医院","address":"徐汇区双峰北路450号"},{"poiid":"B2094753D76DA1FD4692","title":"上海世博展览馆","lon":"121.449218","lat":"31.179176","category":"500","category_name":"未知分类","address":"上海市 浦东新区国展路1099号"},{"poiid":"B2094654DA6DA7F9449B","title":"宛南三村","lon":"121.45145","lat":"31.180876","category":"47","category_name":"住宅区","address":"龙华路2381弄"},{"poiid":"B2094757D164A1F84192","title":"国美电器(龙华店)","lon":"121.451765","lat":"31.179598","category":"138","category_name":"家电电子卖场","address":"徐汇区龙华路2499号"},{"poiid":"B2094757D16DA7FA469B","title":"红辣椒湘菜馆(天钥桥路店)","lon":"121.44784","lat":"31.18208","category":"77","category_name":"湖南菜","address":"徐汇区中山南二路969号(近天钥桥路)"},{"poiid":"B2094757D16CAAF5439B","title":"徐汇芳草苑","lon":"121.45","lat":"31.179","category":"500","category_name":"未知分类","address":"芳草苑位于徐汇龙吴路15号"},{"poiid":"B2094757D06FAAF54499","title":"JEANS日韩店(京世龙华店)","lon":"121.452429","lat":"31.183131","category":"148","category_name":"美容美发店","address":"上海徐汇区宛平南路941号(近龙华西路)"},{"poiid":"B2094757D165A6FC469C","title":"双峰路葱油饼摊","lon":"121.44901","lat":"31.1813","category":"68","category_name":"快餐厅","address":"徐汇区双峰路300号菜场"},{"poiid":"B2094655D264ABFC4999","title":"林曦明现代剪纸艺术馆","lon":"121.44915","lat":"31.1806","category":"183","category_name":"展览馆","address":"徐汇区双峰路420号"},{"poiid":"B2094655D268A5FE419A","title":"宛南三村(四号门)","lon":"121.45162","lat":"31.18066","category":"47","category_name":"住宅区","address":""},{"poiid":"B2094750D16BA5F8489B","title":"非洲国际","lon":"121.446037","lat":"31.179267","category":"252","category_name":"楼宇机构","address":null},{"poiid":"B2094757D66DA6FB459A","title":"天华科技信息园","lon":"121.45","lat":"31.1771","category":"500","category_name":"未知分类","address":"上海市徐汇区漕东支路"},{"poiid":"B2094757D06FA1FA469A","title":"龙华烈士陵园","lon":"121.44877","lat":"31.17546","category":"620","category_name":"丧葬","address":"徐汇区龙华西路180号(近龙华路)"},{"poiid":"B2094654DA6DA7FE4292","title":"2577创意大院","lon":"121.45108","lat":"31.17846","category":"45","category_name":"产业园区","address":"徐汇区龙华路2577号(近龙华寺)"},{"poiid":"B2094757D068A0FF469B","title":"人道素菜欢喜斋 Jen Dow","lon":"121.4528386878","lat":"31.174444613162","category":"89","category_name":"中式素餐馆","address":"徐汇区龙华路2787号龙华迎宾馆内(近龙华寺)"},{"poiid":"B2094757D06FA1FA4893","title":"盛大花园","lon":"121.45329","lat":"31.179134","category":"47","category_name":"住宅区","address":"上海市徐汇区龙华路2518弄"},{"poiid":"B2094655D265A0FA489E","title":"D1国际创意空间","lon":"121.44582","lat":"31.17874","category":"45","category_name":"产业园区","address":"上海徐汇区天钥桥路909号"},{"poiid":"B2094757D068A7FC459C","title":"粤珍轩(龙华店)","lon":"121.45162","lat":"31.17831","category":"72","category_name":"广东菜","address":"徐汇区龙华路2577号创意大院内(近龙华寺)"},{"poiid":"B2094655D36CA1FE4393","title":"双峰路中山南二路","lon":"121.44847","lat":"31.18264","category":"38","category_name":"公交车站","address":""},{"poiid":"B2094757D069A3FD439F","title":"龙兆苑","lon":"121.453078","lat":"31.177168","category":"47","category_name":"住宅区","address":"上海市浦东新区上南路3500弄"},{"poiid":"B2094751DA65A1FF4693","title":"新奢奢侈品护理","lon":"121.446152","lat":"31.17868","category":"249","category_name":"购物服务","address":"天钥桥路909号D1国际创意空间3号楼218室"},{"poiid":"B2094757D16DA6FE4793","title":"宛平医院","lon":"121.449437","lat":"31.180191","category":"162","category_name":"医院","address":"上海双峰路446号"},{"poiid":"B2094655D265ABFE4392","title":"倚卿酒家","lon":"121.450018054","lat":"31.180057793","category":"76","category_name":"上海菜","address":"徐汇区华容路65号(近龙华路)"},{"poiid":"B2094654DA6DA7F8479B","title":"枫林街道社区卫生服务中心","lon":"121.4493","lat":"31.18004","category":"162","category_name":"医院","address":"徐汇区双峰路450号(近中山南二路)"},{"poiid":"B2094757D66BA6FB499D","title":"富于餐厅","lon":"121.451868054","lat":"31.178990793","category":"76","category_name":"上海菜","address":"徐汇区龙华路2577号创意大院(近双峰路)"},{"poiid":"B2094757D16DA4FE4593","title":"创意大院","lon":"121.451709036","lat":"31.1786601229","category":"500","category_name":"未知分类","address":"丰台学城海鹰路1号，3号"},{"poiid":"B2094655D26AAAFC499E","title":"无形艺术陶艺中心","lon":"121.45136","lat":"31.17862","category":"87","category_name":"特色／地方风味餐厅","address":"徐汇区龙华路2577号创意大院12号(近龙华寺)"},{"poiid":"B2094757D66DA1F4499A","title":"龙华寺斋堂","lon":"121.451551586","lat":"31.1751613546","category":"500","category_name":"未知分类","address":"上海龙华寺内"},{"poiid":"B2094655D269AAFC4693","title":"格林豪泰酒店龙华店","lon":"121.45178","lat":"31.17891","category":"247","category_name":"餐饮美食","address":"徐汇区龙华路2555号(近龙华寺)"},{"poiid":"B2094757D469A0F5449A","title":"程新双峰小吃","lon":"121.44896415472","lat":"31.180590560618","category":"68","category_name":"快餐厅","address":"徐汇区双峰路双峰街市旁"},{"poiid":"B2094655D268A2FD449F","title":"龙吴路11弄小区","lon":"121.451","lat":"31.1798","category":"47","category_name":"住宅区","address":"龙吴路11弄1-37号"},{"poiid":"B2094757D568ABF4409A","title":"狼烧烤","lon":"121.4522619","lat":"31.17918306","category":"68","category_name":"快餐厅","address":"徐汇区龙华路2500号小吃街C12号(近龙华寺)"},{"poiid":"B2094655D36CA1FE439D","title":"双峰路","lon":"121.45096","lat":"31.18037","category":"38","category_name":"公交车站","address":""},{"poiid":"B2094655D36CA7FC449D","title":"华容路双峰路","lon":"121.45025","lat":"31.18015","category":"38","category_name":"公交车站","address":""},{"poiid":"B2094654DA6DA2F9439C","title":"宏润大厦","lon":"121.448","lat":"31.1757","category":"46","category_name":"楼宇","address":"北一环与亳州路交叉口(庐阳区政府对面)"},{"poiid":"B2094655D26FABFD4898","title":"华容小区(北门)","lon":"121.44992","lat":"31.17988","category":"47","category_name":"住宅区","address":""},{"poiid":"B2094655D26FAAF4439B","title":"龙华小区(东门)","lon":"121.45105","lat":"31.17894","category":"47","category_name":"住宅区","address":""},{"poiid":"B2094655D36CA1F8449E","title":"龙华路华容路","lon":"121.45196","lat":"31.1793","category":"38","category_name":"公交车站","address":""},{"poiid":"B2094753DB6CA3F84793","title":"上海市精神病治疗中心","lon":"121.450736","lat":"31.179309","category":"500","category_name":"未知分类","address":"上海市 上海市徐汇区零陵路585"},{"poiid":"B2094654DA6DA7FD499C","title":"华容小区","lon":"121.44994","lat":"31.179544","category":"47","category_name":"住宅区","address":"华容路111弄1-7号"},{"poiid":"B2094654DB6BA5FA429A","title":"圆缘园时尚餐厅(龙华店)","lon":"121.45185","lat":"31.18005","category":"68","category_name":"快餐厅","address":"徐汇区龙华路2465号"},{"poiid":"B2094757D66DA0FB4199","title":"四合院","lon":"121.44935","lat":"31.18049","category":"76","category_name":"上海菜","address":"徐汇区双峰路349号(近中山南二路)"},{"poiid":"B2094654DA6DA7F8479D","title":"宛南华侨新村","lon":"121.45047","lat":"31.18093","category":"47","category_name":"住宅区","address":""},{"poiid":"B2094752D16CA0FF499E","title":"龙华古寺","lon":"121.45076","lat":"31.179626","category":"244","category_name":"寺庙道观","address":null},{"poiid":"B2094654DB6BA5FA4193","title":"快客","lon":"121.45105","lat":"31.18024","category":"117","category_name":"便民商店/便利店","address":"华容路89"},{"poiid":"B2094757D06BA0F84498","title":"上海土土录音棚","lon":"121.451082","lat":"31.178459","category":"260","category_name":"其他","address":"徐汇区龙华路2577号创意大院26号(近宛平路)"},{"poiid":"B2094654DA6EA1F9479B","title":"香吧岛龙虾盛大店","lon":"121.45236","lat":"31.18023","category":"257","category_name":"中餐厅","address":"寿宁路20号"},{"poiid":"B2094757D169A6FF429E","title":"重庆鸡公煲 双峰路店","lon":"121.448460054","lat":"31.182556793","category":"71","category_name":"四川菜","address":"徐汇区双峰路272号(近中山南二路)"},{"poiid":"B2094654DB65A1FD449F","title":"小吃街","lon":"121.45228","lat":"31.17969","category":"116","category_name":"特色商业街","address":""},{"poiid":"B2094655D264ABFC4998","title":"星宛公寓","lon":"121.44971","lat":"31.17972","category":"47","category_name":"住宅区","address":"华容路111弄2"},{"poiid":"B2094654DB65A6F84392","title":"上海市徐汇区宛平地段医院","lon":"121.44931","lat":"31.18011","category":"162","category_name":"医院","address":"徐汇区双峰北路450号"},{"poiid":"B2094753D76DA1FD4692","title":"上海世博展览馆","lon":"121.449218","lat":"31.179176","category":"500","category_name":"未知分类","address":"上海市 浦东新区国展路1099号"},{"poiid":"B2094654DA6DA7F9449B","title":"宛南三村","lon":"121.45145","lat":"31.180876","category":"47","category_name":"住宅区","address":"龙华路2381弄"},{"poiid":"B2094757D164A1F84192","title":"国美电器(龙华店)","lon":"121.451765","lat":"31.179598","category":"138","category_name":"家电电子卖场","address":"徐汇区龙华路2499号"},{"poiid":"B2094757D16DA7FA469B","title":"红辣椒湘菜馆(天钥桥路店)","lon":"121.44784","lat":"31.18208","category":"77","category_name":"湖南菜","address":"徐汇区中山南二路969号(近天钥桥路)"},{"poiid":"B2094757D16CAAF5439B","title":"徐汇芳草苑","lon":"121.45","lat":"31.179","category":"500","category_name":"未知分类","address":"芳草苑位于徐汇龙吴路15号"},{"poiid":"B2094757D06FAAF54499","title":"JEANS日韩店(京世龙华店)","lon":"121.452429","lat":"31.183131","category":"148","category_name":"美容美发店","address":"上海徐汇区宛平南路941号(近龙华西路)"},{"poiid":"B2094757D165A6FC469C","title":"双峰路葱油饼摊","lon":"121.44901","lat":"31.1813","category":"68","category_name":"快餐厅","address":"徐汇区双峰路300号菜场"},{"poiid":"B2094655D264ABFC4999","title":"林曦明现代剪纸艺术馆","lon":"121.44915","lat":"31.1806","category":"183","category_name":"展览馆","address":"徐汇区双峰路420号"},{"poiid":"B2094655D268A5FE419A","title":"宛南三村(四号门)","lon":"121.45162","lat":"31.18066","category":"47","category_name":"住宅区","address":""},{"poiid":"B2094750D16BA5F8489B","title":"非洲国际","lon":"121.446037","lat":"31.179267","category":"252","category_name":"楼宇机构","address":null},{"poiid":"B2094757D66DA6FB459A","title":"天华科技信息园","lon":"121.45","lat":"31.1771","category":"500","category_name":"未知分类","address":"上海市徐汇区漕东支路"},{"poiid":"B2094757D06FA1FA469A","title":"龙华烈士陵园","lon":"121.44877","lat":"31.17546","category":"620","category_name":"丧葬","address":"徐汇区龙华西路180号(近龙华路)"},{"poiid":"B2094654DA6DA7FE4292","title":"2577创意大院","lon":"121.45108","lat":"31.17846","category":"45","category_name":"产业园区","address":"徐汇区龙华路2577号(近龙华寺)"},{"poiid":"B2094757D068A0FF469B","title":"人道素菜欢喜斋 Jen Dow","lon":"121.4528386878","lat":"31.174444613162","category":"89","category_name":"中式素餐馆","address":"徐汇区龙华路2787号龙华迎宾馆内(近龙华寺)"},{"poiid":"B2094757D06FA1FA4893","title":"盛大花园","lon":"121.45329","lat":"31.179134","category":"47","category_name":"住宅区","address":"上海市徐汇区龙华路2518弄"},{"poiid":"B2094655D265A0FA489E","title":"D1国际创意空间","lon":"121.44582","lat":"31.17874","category":"45","category_name":"产业园区","address":"上海徐汇区天钥桥路909号"},{"poiid":"B2094757D068A7FC459C","title":"粤珍轩(龙华店)","lon":"121.45162","lat":"31.17831","category":"72","category_name":"广东菜","address":"徐汇区龙华路2577号创意大院内(近龙华寺)"},{"poiid":"B2094655D36CA1FE4393","title":"双峰路中山南二路","lon":"121.44847","lat":"31.18264","category":"38","category_name":"公交车站","address":""},{"poiid":"B2094757D069A3FD439F","title":"龙兆苑","lon":"121.453078","lat":"31.177168","category":"47","category_name":"住宅区","address":"上海市浦东新区上南路3500弄"},{"poiid":"B2094751DA65A1FF4693","title":"新奢奢侈品护理","lon":"121.446152","lat":"31.17868","category":"249","category_name":"购物服务","address":"天钥桥路909号D1国际创意空间3号楼218室"},{"poiid":"B2094757D16DA6FE4793","title":"宛平医院","lon":"121.449437","lat":"31.180191","category":"162","category_name":"医院","address":"上海双峰路446号"},{"poiid":"B2094655D265ABFE4392","title":"倚卿酒家","lon":"121.450018054","lat":"31.180057793","category":"76","category_name":"上海菜","address":"徐汇区华容路65号(近龙华路)"},{"poiid":"B2094654DA6DA7F8479B","title":"枫林街道社区卫生服务中心","lon":"121.4493","lat":"31.18004","category":"162","category_name":"医院","address":"徐汇区双峰路450号(近中山南二路)"},{"poiid":"B2094757D66BA6FB499D","title":"富于餐厅","lon":"121.451868054","lat":"31.178990793","category":"76","category_name":"上海菜","address":"徐汇区龙华路2577号创意大院(近双峰路)"},{"poiid":"B2094757D16DA4FE4593","title":"创意大院","lon":"121.451709036","lat":"31.1786601229","category":"500","category_name":"未知分类","address":"丰台学城海鹰路1号，3号"},{"poiid":"B2094655D26AAAFC499E","title":"无形艺术陶艺中心","lon":"121.45136","lat":"31.17862","category":"87","category_name":"特色／地方风味餐厅","address":"徐汇区龙华路2577号创意大院12号(近龙华寺)"},{"poiid":"B2094757D66DA1F4499A","title":"龙华寺斋堂","lon":"121.451551586","lat":"31.1751613546","category":"500","category_name":"未知分类","address":"上海龙华寺内"},{"poiid":"B2094655D269AAFC4693","title":"格林豪泰酒店龙华店","lon":"121.45178","lat":"31.17891","category":"247","category_name":"餐饮美食","address":"徐汇区龙华路2555号(近龙华寺)"},{"poiid":"B2094757D469A0F5449A","title":"程新双峰小吃","lon":"121.44896415472","lat":"31.180590560618","category":"68","category_name":"快餐厅","address":"徐汇区双峰路双峰街市旁"},{"poiid":"B2094655D268A2FD449F","title":"龙吴路11弄小区","lon":"121.451","lat":"31.1798","category":"47","category_name":"住宅区","address":"龙吴路11弄1-37号"},{"poiid":"B2094757D568ABF4409A","title":"狼烧烤","lon":"121.4522619","lat":"31.17918306","category":"68","category_name":"快餐厅","address":"徐汇区龙华路2500号小吃街C12号(近龙华寺)"},{"poiid":"B2094655D36CA1FE439D","title":"双峰路","lon":"121.45096","lat":"31.18037","category":"38","category_name":"公交车站","address":""},{"poiid":"B2094655D36CA7FC449D","title":"华容路双峰路","lon":"121.45025","lat":"31.18015","category":"38","category_name":"公交车站","address":""},{"poiid":"B2094654DA6DA2F9439C","title":"宏润大厦","lon":"121.448","lat":"31.1757","category":"46","category_name":"楼宇","address":"北一环与亳州路交叉口(庐阳区政府对面)"},{"poiid":"B2094655D26FABFD4898","title":"华容小区(北门)","lon":"121.44992","lat":"31.17988","category":"47","category_name":"住宅区","address":""},{"poiid":"B2094655D26FAAF4439B","title":"龙华小区(东门)","lon":"121.45105","lat":"31.17894","category":"47","category_name":"住宅区","address":""},{"poiid":"B2094655D36CA1F8449E","title":"龙华路华容路","lon":"121.45196","lat":"31.1793","category":"38","category_name":"公交车站","address":""},{"poiid":"B2094753DB6CA3F84793","title":"上海市精神病治疗中心","lon":"121.450736","lat":"31.179309","category":"500","category_name":"未知分类","address":"上海市 上海市徐汇区零陵路585"},{"poiid":"B2094654DA6DA7FD499C","title":"华容小区","lon":"121.44994","lat":"31.179544","category":"47","category_name":"住宅区","address":"华容路111弄1-7号"},{"poiid":"B2094654DB6BA5FA429A","title":"圆缘园时尚餐厅(龙华店)","lon":"121.45185","lat":"31.18005","category":"68","category_name":"快餐厅","address":"徐汇区龙华路2465号"},{"poiid":"B2094757D66DA0FB4199","title":"四合院","lon":"121.44935","lat":"31.18049","category":"76","category_name":"上海菜","address":"徐汇区双峰路349号(近中山南二路)"},{"poiid":"B2094654DA6DA7F8479D","title":"宛南华侨新村","lon":"121.45047","lat":"31.18093","category":"47","category_name":"住宅区","address":""},{"poiid":"B2094752D16CA0FF499E","title":"龙华古寺","lon":"121.45076","lat":"31.179626","category":"244","category_name":"寺庙道观","address":null},{"poiid":"B2094654DB6BA5FA4193","title":"快客","lon":"121.45105","lat":"31.18024","category":"117","category_name":"便民商店/便利店","address":"华容路89"},{"poiid":"B2094757D06BA0F84498","title":"上海土土录音棚","lon":"121.451082","lat":"31.178459","category":"260","category_name":"其他","address":"徐汇区龙华路2577号创意大院26号(近宛平路)"},{"poiid":"B2094654DA6EA1F9479B","title":"香吧岛龙虾盛大店","lon":"121.45236","lat":"31.18023","category":"257","category_name":"中餐厅","address":"寿宁路20号"},{"poiid":"B2094757D169A6FF429E","title":"重庆鸡公煲 双峰路店","lon":"121.448460054","lat":"31.182556793","category":"71","category_name":"四川菜","address":"徐汇区双峰路272号(近中山南二路)"},{"poiid":"B2094654DB65A1FD449F","title":"小吃街","lon":"121.45228","lat":"31.17969","category":"116","category_name":"特色商业街","address":""},{"poiid":"B2094655D264ABFC4998","title":"星宛公寓","lon":"121.44971","lat":"31.17972","category":"47","category_name":"住宅区","address":"华容路111弄2"},{"poiid":"B2094654DB65A6F84392","title":"上海市徐汇区宛平地段医院","lon":"121.44931","lat":"31.18011","category":"162","category_name":"医院","address":"徐汇区双峰北路450号"},{"poiid":"B2094753D76DA1FD4692","title":"上海世博展览馆","lon":"121.449218","lat":"31.179176","category":"500","category_name":"未知分类","address":"上海市 浦东新区国展路1099号"},{"poiid":"B2094654DA6DA7F9449B","title":"宛南三村","lon":"121.45145","lat":"31.180876","category":"47","category_name":"住宅区","address":"龙华路2381弄"},{"poiid":"B2094757D164A1F84192","title":"国美电器(龙华店)","lon":"121.451765","lat":"31.179598","category":"138","category_name":"家电电子卖场","address":"徐汇区龙华路2499号"},{"poiid":"B2094757D16DA7FA469B","title":"红辣椒湘菜馆(天钥桥路店)","lon":"121.44784","lat":"31.18208","category":"77","category_name":"湖南菜","address":"徐汇区中山南二路969号(近天钥桥路)"},{"poiid":"B2094757D16CAAF5439B","title":"徐汇芳草苑","lon":"121.45","lat":"31.179","category":"500","category_name":"未知分类","address":"芳草苑位于徐汇龙吴路15号"},{"poiid":"B2094757D06FAAF54499","title":"JEANS日韩店(京世龙华店)","lon":"121.452429","lat":"31.183131","category":"148","category_name":"美容美发店","address":"上海徐汇区宛平南路941号(近龙华西路)"},{"poiid":"B2094757D165A6FC469C","title":"双峰路葱油饼摊","lon":"121.44901","lat":"31.1813","category":"68","category_name":"快餐厅","address":"徐汇区双峰路300号菜场"},{"poiid":"B2094655D264ABFC4999","title":"林曦明现代剪纸艺术馆","lon":"121.44915","lat":"31.1806","category":"183","category_name":"展览馆","address":"徐汇区双峰路420号"},{"poiid":"B2094655D268A5FE419A","title":"宛南三村(四号门)","lon":"121.45162","lat":"31.18066","category":"47","category_name":"住宅区","address":""},{"poiid":"B2094750D16BA5F8489B","title":"非洲国际","lon":"121.446037","lat":"31.179267","category":"252","category_name":"楼宇机构","address":null}]