[{"poiid":"B2094757D66DA7F4469B","title":"外滩","lon":"121.490535738","lat":"31.2383514732","category":"240","category_name":"国家级景点","address":"上海市中心区黄浦江畔"},{"poiid":"B2094757D068A3FC499F","title":"外滩6号","lon":"121.49022765","lat":"31.235021152","category":"119","category_name":"商场","address":"上海外滩六号"},{"poiid":"B2094757D06FA6FD4699","title":"The Glamour Bar","lon":"121.49109627","lat":"31.2341656143","category":"172","category_name":"酒吧","address":"黄浦区广东路20号外滩5号6楼(近中山东一路)"},{"poiid":"B209475CD564A7F84292","title":"上海滩新天地店","lon":"121.47463","lat":"31.22164","category":"119","category_name":"商场","address":"\"太仓路181弄新天地北里15号\r\n\""},{"poiid":"B209475CD564A7F84392","title":"上海滩浦东香格里拉店","lon":"121.50058","lat":"31.23634","category":"119","category_name":"商场","address":"浦东富成路33号香格里拉酒店内大堂层"},{"poiid":"B2094750D364A0FF429A","title":"外滩18号Bund18","lon":"121.49013","lat":"31.23594","category":"119","category_name":"商场","address":"中山东一路18号"},{"poiid":"B2094757D068A2FC4893","title":"外滩海关大钟","lon":"121.490005","lat":"31.236592","category":"500","category_name":"未知分类","address":"上海中山东一路13号"},{"poiid":"B2094654DA6FAAFD4593","title":"M on the Bund","lon":"121.49079","lat":"31.2345","category":"263","category_name":"公司","address":"中山东一路5号外滩5号7层"},{"poiid":"B2094655D26EA2F5479B","title":"海关大楼","lon":"121.49002","lat":"31.23668","category":"46","category_name":"楼宇","address":"鲁尔大厦位于铁西兴华南街5号"},{"poiid":"B2094757D06FA7FF449F","title":"东京和食","lon":"121.49104","lat":"31.23457","category":"95","category_name":"日本料理","address":"黄浦区中山东一路6号外滩6号2楼(近广东路)"},{"poiid":"B2094757D068A2F4459A","title":"船长酒吧","lon":"121.49016","lat":"31.23529","category":"260","category_name":"其他","address":"黄浦区福州路37号船长酒店6搂(近中山东一路)"},{"poiid":"B2094654DA6FAAFD4592","title":"外滩5号","lon":"121.49078","lat":"31.2345","category":"47","category_name":"住宅区","address":"中山东一路5号"},{"poiid":"B2094757D16CA4FE469A","title":"罗斯福9楼露天酒吧","lon":"121.49195883","lat":"31.237938814","category":"172","category_name":"酒吧","address":"上海外滩27号"},{"poiid":"B2094757D469A7F4429D","title":"悦粤茶餐厅","lon":"121.49097","lat":"31.2412","category":"72","category_name":"广东菜","address":"黄浦区中山东一路429号(近北京东路)"},{"poiid":"B2094654DA6EA5F4429C","title":"新上海城市广场","lon":"121.49382789653","lat":"31.235365937753","category":"46","category_name":"楼宇","address":"龙蟠南路33号(龙蟠南路与秦虹路交汇处"},{"poiid":"B2094752DA6DA0F8499D","title":"星期五餐厅Friday","lon":"121.493575","lat":"31.238085","category":"247","category_name":"餐饮美食","address":"上海浦东陆家嘴富城路16号"},{"poiid":"B2094655D26FA2FA4099","title":"月影铁板烧景观餐厅酒廊","lon":"121.49079","lat":"31.2345","category":"97","category_name":"法式菜品餐厅","address":"黄浦区中山东一路外滩5号3楼"},{"poiid":"B2094750D66FA3F9489E","title":"UNICO & COLAGRECO","lon":"121.49067870373528","lat":"31.23452732944748","category":"101","category_name":"美式风味","address":"黄浦区中山东一路3号外滩3号2楼(近广东路)"},{"poiid":"B2094757D06FABFC469A","title":"上海浦东发展银行大楼(外滩12号)","lon":"121.489894","lat":"31.236","category":"150","category_name":"银行","address":"上海黄浦区中山东一路12号 汇丰银行大楼 (原市府大楼)"},{"poiid":"B2094757D06FA3FB4199","title":"外滩隧道","lon":"121.491135705","lat":"31.2345035269","category":"260","category_name":"其他","address":"上海海宁路长治路——延安东路中山南路"},{"poiid":"B2094757D06AA4F8479E","title":"上海海关","lon":"121.49073283","lat":"31.235817695","category":"500","category_name":"未知分类","address":"上海中山东一路13号"},{"poiid":"B2094757D66FA6FA4693","title":"延安东路隧道","lon":"121.4938968","lat":"31.235608933","category":"260","category_name":"其他","address":"上海黄浦区延安东路-浦东新区陆家嘴西路"},{"poiid":"B2094757D069A6F5439A","title":"小竹园海鲜酒楼(外滩店)","lon":"121.493705026","lat":"31.2347289549","category":"247","category_name":"餐饮美食","address":"上海四川中路218号"},{"poiid":"B2094757D16FABFE4299","title":"仙踪林","lon":"121.49111173","lat":"31.235984422","category":"500","category_name":"未知分类","address":"上海陆家嘴西路2967号北滨江大道A座(丰和路陆家嘴西路)"},{"poiid":"B2094752D364A4FE4298","title":"家有好面(南京东路店)","lon":"121.49277","lat":"31.2376","category":"68","category_name":"快餐厅","address":"黄浦区南京东路720号第一食品3楼(近贵州路)"},{"poiid":"B2094750D568A0FF4293","title":"Mercato by Jean Geroge","lon":"121.491241","lat":"31.234399","category":"500","category_name":"未知分类","address":"Bund No 3"},{"poiid":"B2094654DB69A6FA4099","title":"外滩情人墙","lon":"121.49021","lat":"31.2369","category":"250","category_name":"公园户外","address":"黄浦区中山东一路黄浦江边"},{"poiid":"B209475CD364A2FB4099","title":"Hakkasan","lon":"121.49009","lat":"31.23634","category":"94","category_name":"西餐厅","address":"中山东一路18号外滩十八号5楼"},{"poiid":"B2094757D16BA0FD489A","title":"东昌路摆渡","lon":"121.493180738","lat":"31.2351464049","category":"500","category_name":"未知分类","address":"上海市黄浦区四川中路"},{"poiid":"B2094757D06BA3F54399","title":"浦江汇","lon":"121.491288","lat":"31.234279","category":"67","category_name":"甜品店","address":"上海市黄浦区中山东一路2号，华尔道夫会所大堂层"},{"poiid":"B2094757D16DA6FF4599","title":"月影","lon":"121.490579738","lat":"31.234685395","category":"249","category_name":"购物服务","address":"上海外滩5号3楼"},{"poiid":"B2094752DA6CAAFD429F","title":"T.G.I.FRiDAY浦东滨江店","lon":"121.493807","lat":"31.237982","category":"247","category_name":"餐饮美食","address":"富城路16号"},{"poiid":"B2094757D56DAAFD4593","title":"正大小南国","lon":"121.493159","lat":"31.237652","category":"247","category_name":"餐饮美食","address":"陆家嘴"},{"poiid":"B2094751D565A1FE489F","title":"Mr & Mrs Bund","lon":"121.492703","lat":"31.234391","category":"247","category_name":"餐饮美食","address":"外滩十八号"},{"poiid":"B2094750D16BA6FA439D","title":"外白渡大桥","lon":"121.491432","lat":"31.238191","category":"500","category_name":"未知分类","address":null},{"poiid":"B209475DD06EA0F5449C","title":"茹丝葵牛排馆","lon":"121.492492","lat":"31.234409","category":"247","category_name":"餐饮美食","address":"上海市 上海市黄浦区广东路20号4楼02室外滩五号4楼"},{"poiid":"B2094654DA6EA6FC479F","title":"宁东大厦","lon":"121.491","lat":"31.2363","category":"46","category_name":"楼宇","address":"上海市平凉路1398号"},{"poiid":"B2094757DB68A5F44998","title":"新视角餐厅","lon":"121.49088356107","lat":"31.234764723142","category":"247","category_name":"餐饮美食","address":"中山东一路3号外滩3号7楼近广东路"},{"poiid":"B2094751DA6DA1FC419E","title":"Choir Bar ans Kitchen","lon":"121.489907","lat":"31.235564","category":"247","category_name":"餐饮美食","address":"福州路19号"},{"poiid":"B2094757D66CA6F4489A","title":"外滩五号","lon":"121.490823738","lat":"31.2345403919","category":"247","category_name":"餐饮美食","address":"上海外滩五号"},{"poiid":"B2094655D26DA5F8449E","title":"外滩12号咖啡厅","lon":"121.490378054","lat":"31.235718793","category":"65","category_name":"咖啡厅","address":"中山东一路12号2楼226近汉口路"},{"poiid":"B2094750DA6DAAFE419B","title":"外滩3号mercato","lon":"121.491294","lat":"31.234352","category":"47","category_name":"住宅区","address":null},{"poiid":"B209475CD36CA3FB409F","title":"新视角餐厅酒廊  New  Heights","lon":"121.4914","lat":"31.2344","category":"110","category_name":"其他亚洲菜","address":"中山东一路3号外滩3号7楼(近广东路)"},{"poiid":"B2094757D66DA5FA4998","title":"the bund","lon":"121.49034173","lat":"31.236921442","category":"500","category_name":"未知分类","address":"上海ShanghaiHuangpuJiangxi Middle Rd"},{"poiid":"B2094757D16FA6F5429C","title":"天地一家","lon":"121.49099","lat":"31.23475","category":"72","category_name":"广东菜","address":"黄浦区中山东一路6号外滩6号3楼(近广东路)"},{"poiid":"B2094752DA6FABF8479B","title":"Cha Story 茶香书香","lon":"121.493504","lat":"31.237442","category":"500","category_name":"未知分类","address":"上海市 陆家嘴滨江大道"},{"poiid":"B2094654DA6FAAFD459F","title":"SUN with AQUA","lon":"121.49063","lat":"31.2348","category":"172","category_name":"酒吧","address":"黄浦区中山东一路6号外滩6号2楼"},{"poiid":"B2094655D269ABF9459D","title":"Dolce&Gabbana外滩店","lon":"121.49063","lat":"31.2348","category":"94","category_name":"西餐厅","address":"黄浦区中山东一路6号THEBUND6楼(近广东路)"},{"poiid":"B2094757D66DA2FE4393","title":"飞利浦游轮","lon":"121.49259217","lat":"31.238654113","category":"247","category_name":"餐饮美食","address":"上海黄浦江"},{"poiid":"B2094757D16FA0F9419E","title":"味千拉面(高行万嘉店)","lon":"121.49280803","lat":"31.236273753","category":"247","category_name":"餐饮美食","address":"上海浦东新区东靖路1881号万嘉商业广场一楼"},{"poiid":"B2094757D66DA7F4469B","title":"外滩","lon":"121.490535738","lat":"31.2383514732","category":"240","category_name":"国家级景点","address":"上海市中心区黄浦江畔"},{"poiid":"B2094757D068A3FC499F","title":"外滩6号","lon":"121.49022765","lat":"31.235021152","category":"119","category_name":"商场","address":"上海外滩六号"},{"poiid":"B2094757D06FA6FD4699","title":"The Glamour Bar","lon":"121.49109627","lat":"31.2341656143","category":"172","category_name":"酒吧","address":"黄浦区广东路20号外滩5号6楼(近中山东一路)"},{"poiid":"B209475CD564A7F84292","title":"上海滩新天地店","lon":"121.47463","lat":"31.22164","category":"119","category_name":"商场","address":"\"太仓路181弄新天地北里15号\r\n\""},{"poiid":"B209475CD564A7F84392","title":"上海滩浦东香格里拉店","lon":"121.50058","lat":"31.23634","category":"119","category_name":"商场","address":"浦东富成路33号香格里拉酒店内大堂层"},{"poiid":"B2094750D364A0FF429A","title":"外滩18号Bund18","lon":"121.49013","lat":"31.23594","category":"119","category_name":"商场","address":"中山东一路18号"},{"poiid":"B2094757D068A2FC4893","title":"外滩海关大钟","lon":"121.490005","lat":"31.236592","category":"500","category_name":"未知分类","address":"上海中山东一路13号"},{"poiid":"B2094654DA6FAAFD4593","title":"M on the Bund","lon":"121.49079","lat":"31.2345","category":"263","category_name":"公司","address":"中山东一路5号外滩5号7层"},{"poiid":"B2094655D26EA2F5479B","title":"海关大楼","lon":"121.49002","lat":"31.23668","category":"46","category_name":"楼宇","address":"鲁尔大厦位于铁西兴华南街5号"},{"poiid":"B2094757D06FA7FF449F","title":"东京和食","lon":"121.49104","lat":"31.23457","category":"95","category_name":"日本料理","address":"黄浦区中山东一路6号外滩6号2楼(近广东路)"},{"poiid":"B2094757D068A2F4459A","title":"船长酒吧","lon":"121.49016","lat":"31.23529","category":"260","category_name":"其他","address":"黄浦区福州路37号船长酒店6搂(近中山东一路)"},{"poiid":"B2094654DA6FAAFD4592","title":"外滩5号","lon":"121.49078","lat":"31.2345","category":"47","category_name":"住宅区","address":"中山东一路5号"},{"poiid":"B2094757D16CA4FE469A","title":"罗斯福9楼露天酒吧","lon":"121.49195883","lat":"31.237938814","category":"172","category_name":"酒吧","address":"上海外滩27号"},{"poiid":"B2094757D469A7F4429D","title":"悦粤茶餐厅","lon":"121.49097","lat":"31.2412","category":"72","category_name":"广东菜","address":"黄浦区中山东一路429号(近北京东路)"},{"poiid":"B2094654DA6EA5F4429C","title":"新上海城市广场","lon":"121.49382789653","lat":"31.235365937753","category":"46","category_name":"楼宇","address":"龙蟠南路33号(龙蟠南路与秦虹路交汇处"},{"poiid":"B2094752DA6DA0F8499D","title":"星期五餐厅Friday","lon":"121.493575","lat":"31.238085","category":"247","category_name":"餐饮美食","address":"上海浦东陆家嘴富城路16号"},{"poiid":"B2094655D26FA2FA4099","title":"月影铁板烧景观餐厅酒廊","lon":"121.49079","lat":"31.2345","category":"97","category_name":"法式菜品餐厅","address":"黄浦区中山东一路外滩5号3楼"},{"poiid":"B2094750D66FA3F9489E","title":"UNICO & COLAGRECO","lon":"121.49067870373528","lat":"31.23452732944748","category":"101","category_name":"美式风味","address":"黄浦区中山东一路3号外滩3号2楼(近广东路)"},{"poiid":"B2094757D06FABFC469A","title":"上海浦东发展银行大楼(外滩12号)","lon":"121.489894","lat":"31.236","category":"150","category_name":"银行","address":"上海黄浦区中山东一路12号 汇丰银行大楼 (原市府大楼)"},{"poiid":"B2094757D06FA3FB4199","title":"外滩隧道","lon":"121.491135705","lat":"31.2345035269","category":"260","category_name":"其他","address":"上海海宁路长治路——延安东路中山南路"},{"poiid":"B2094757D06AA4F8479E","title":"上海海关","lon":"121.49073283","lat":"31.235817695","category":"500","category_name":"未知分类","address":"上海中山东一路13号"},{"poiid":"B2094757D66FA6FA4693","title":"延安东路隧道","lon":"121.4938968","lat":"31.235608933","category":"260","category_name":"其他","address":"上海黄浦区延安东路-浦东新区陆家嘴西路"},{"poiid":"B2094757D069A6F5439A","title":"小竹园海鲜酒楼(外滩店)","lon":"121.493705026","lat":"31.2347289549","category":"247","category_name":"餐饮美食","address":"上海四川中路218号"},{"poiid":"B2094757D16FABFE4299","title":"仙踪林","lon":"121.49111173","lat":"31.235984422","category":"500","category_name":"未知分类","address":"上海陆家嘴西路2967号北滨江大道A座(丰和路陆家嘴西路)"},{"poiid":"B2094752D364A4FE4298","title":"家有好面(南京东路店)","lon":"121.49277","lat":"31.2376","category":"68","category_name":"快餐厅","address":"黄浦区南京东路720号第一食品3楼(近贵州路)"},{"poiid":"B2094750D568A0FF4293","title":"Mercato by Jean Geroge","lon":"121.491241","lat":"31.234399","category":"500","category_name":"未知分类","address":"Bund No 3"},{"poiid":"B2094654DB69A6FA4099","title":"外滩情人墙","lon":"121.49021","lat":"31.2369","category":"250","category_name":"公园户外","address":"黄浦区中山东一路黄浦江边"},{"poiid":"B209475CD364A2FB4099","title":"Hakkasan","lon":"121.49009","lat":"31.23634","category":"94","category_name":"西餐厅","address":"中山东一路18号外滩十八号5楼"},{"poiid":"B2094757D16BA0FD489A","title":"东昌路摆渡","lon":"121.493180738","lat":"31.2351464049","category":"500","category_name":"未知分类","address":"上海市黄浦区四川中路"},{"poiid":"B2094757D06BA3F54399","title":"浦江汇","lon":"121.491288","lat":"31.234279","category":"67","category_name":"甜品店","address":"上海市黄浦区中山东一路2号，华尔道夫会所大堂层"},{"poiid":"B2094757D16DA6FF4599","title":"月影","lon":"121.490579738","lat":"31.234685395","category":"249","category_name":"购物服务","address":"上海外滩5号3楼"},{"poiid":"B2094752DA6CAAFD429F","title":"T.G.I.FRiDAY浦东滨江店","lon":"121.493807","lat":"31.237982","category":"247","category_name":"餐饮美食","address":"富城路16号"},{"poiid":"B2094757D56DAAFD4593","title":"正大小南国","lon":"121.493159","lat":"31.237652","category":"247","category_name":"餐饮美食","address":"陆家嘴"},{"poiid":"B2094751D565A1FE489F","title":"Mr & Mrs Bund","lon":"121.492703","lat":"31.234391","category":"247","category_name":"餐饮美食","address":"外滩十八号"},{"poiid":"B2094750D16BA6FA439D","title":"外白渡大桥","lon":"121.491432","lat":"31.238191","category":"500","category_name":"未知分类","address":null},{"poiid":"B209475DD06EA0F5449C","title":"茹丝葵牛排馆","lon":"121.492492","lat":"31.234409","category":"247","category_name":"餐饮美食","address":"上海市 上海市黄浦区广东路20号4楼02室外滩五号4楼"},{"poiid":"B2094654DA6EA6FC479F","title":"宁东大厦","lon":"121.491","lat":"31.2363","category":"46","category_name":"楼宇","address":"上海市平凉路1398号"},{"poiid":"B2094757DB68A5F44998","title":"新视角餐厅","lon":"121.49088356107","lat":"31.234764723142","category":"247","category_name":"餐饮美食","address":"中山东一路3号外滩3号7楼近广东路"},{"poiid":"B2094751DA6DA1FC419E","title":"Choir Bar ans Kitchen","lon":"121.489907","lat":"31.235564","category":"247","category_name":"餐饮美食","address":"福州路19号"},{"poiid":"B2094757D66CA6F4489A","title":"外滩五号","lon":"121.490823738","lat":"31.2345403919","category":"247","category_name":"餐饮美食","address":"上海外滩五号"},{"poiid":"B2094655D26DA5F8449E","title":"外滩12号咖啡厅","lon":"121.490378054","lat":"31.235718793","category":"65","category_name":"咖啡厅","address":"中山东一路12号2楼226近汉口路"},{"poiid":"B2094750DA6DAAFE419B","title":"外滩3号mercato","lon":"121.491294","lat":"31.234352","category":"47","category_name":"住宅区","address":null},{"poiid":"B209475CD36CA3FB409F","title":"新视角餐厅酒廊  New  Heights","lon":"121.4914","lat":"31.2344","category":"110","category_name":"其他亚洲菜","address":"中山东一路3号外滩3号7楼(近广东路)"},{"poiid":"B2094757D66DA5FA4998","title":"the bund","lon":"121.49034173","lat":"31.236921442","category":"500","category_name":"未知分类","address":"上海ShanghaiHuangpuJiangxi Middle Rd"},{"poiid":"B2094757D16FA6F5429C","title":"天地一家","lon":"121.49099","lat":"31.23475","category":"72","category_name":"广东菜","address":"黄浦区中山东一路6号外滩6号3楼(近广东路)"},{"poiid":"B2094752DA6FABF8479B","title":"Cha Story 茶香书香","lon":"121.493504","lat":"31.237442","category":"500","category_name":"未知分类","address":"上海市 陆家嘴滨江大道"},{"poiid":"B2094654DA6FAAFD459F","title":"SUN with AQUA","lon":"121.49063","lat":"31.2348","category":"172","category_name":"酒吧","address":"黄浦区中山东一路6号外滩6号2楼"},{"poiid":"B2094655D269ABF9459D","title":"Dolce&Gabbana外滩店","lon":"121.49063","lat":"31.2348","category":"94","category_name":"西餐厅","address":"黄浦区中山东一路6号THEBUND6楼(近广东路)"},{"poiid":"B2094757D66DA2FE4393","title":"飞利浦游轮","lon":"121.49259217","lat":"31.238654113","category":"247","category_name":"餐饮美食","address":"上海黄浦江"},{"poiid":"B2094757D16FA0F9419E","title":"味千拉面(高行万嘉店)","lon":"121.49280803","lat":"31.236273753","category":"247","category_name":"餐饮美食","address":"上海浦东新区东靖路1881号万嘉商业广场一楼"},{"poiid":"B2094757D66DA7F4469B","title":"外滩","lon":"121.490535738","lat":"31.2383514732","category":"240","category_name":"国家级景点","address":"上海市中心区黄浦江畔"},{"poiid":"B2094757D068A3FC499F","title":"外滩6号","lon":"121.49022765","lat":"31.235021152","category":"119","category_name":"商场","address":"上海外滩六号"},{"poiid":"B2094757D06FA6FD4699","title":"The Glamour Bar","lon":"121.49109627","lat":"31.2341656143","category":"172","category_name":"酒吧","address":"黄浦区广东路20号外滩5号6楼(近中山东一路)"},{"poiid":"B209475CD564A7F84292","title":"上海滩新天地店","lon":"121.47463","lat":"31.22164","category":"119","category_name":"商场","address":"\"太仓路181弄新天地北里15号\r\n\""},{"poiid":"B209475CD564A7F84392","title":"上海滩浦东香格里拉店","lon":"121.50058","lat":"31.23634","category":"119","category_name":"商场","address":"浦东富成路33号香格里拉酒店内大堂层"},{"poiid":"B2094750D364A0FF429A","title":"外滩18号Bund18","lon":"121.49013","lat":"31.23594","category":"119","category_name":"商场","address":"中山东一路18号"},{"poiid":"B2094757D068A2FC4893","title":"外滩海关大钟","lon":"121.490005","lat":"31.236592","category":"500","category_name":"未知分类","address":"上海中山东一路13号"},{"poiid":"B2094654DA6FAAFD4593","title":"M on the Bund","lon":"121.49079","lat":"31.2345","category":"263","category_name":"公司","address":"中山东一路5号外滩5号7层"},{"poiid":"B2094655D26EA2F5479B","title":"海关大楼","lon":"121.49002","lat":"31.23668","category":"46","category_name":"楼宇","address":"鲁尔大厦位于铁西兴华南街5号"},{"poiid":"B2094757D06FA7FF449F","title":"东京和食","lon":"121.49104","lat":"31.23457","category":"95","category_name":"日本料理","address":"黄浦区中山东一路6号外滩6号2楼(近广东路)"},{"poiid":"B2094757D068A2F4459A","title":"船长酒吧","lon":"121.49016","lat":"31.23529","category":"260","category_name":"其他","address":"黄浦区福州路37号船长酒店6搂(近中山东一路)"},{"poiid":"B2094654DA6FAAFD4592","title":"外滩5号","lon":"121.49078","lat":"31.2345","category":"47","category_name":"住宅区","address":"中山东一路5号"},{"poiid":"B2094757D16CA4FE469A","title":"罗斯福9楼露天酒吧","lon":"121.49195883","lat":"31.237938814","category":"172","category_name":"酒吧","address":"上海外滩27号"},{"poiid":"B2094757D469A7F4429D","title":"悦粤茶餐厅","lon":"121.49097","lat":"31.2412","category":"72","category_name":"广东菜","address":"黄浦区中山东一路429号(近北京东路)"},{"poiid":"B2094654DA6EA5F4429C","title":"新上海城市广场","lon":"121.49382789653","lat":"31.235365937753","category":"46","category_name":"楼宇","address":"龙蟠南路33号(龙蟠南路与秦虹路交汇处"},{"poiid":"B2094752DA6DA0F8499D","title":"星期五餐厅Friday","lon":"121.493575","lat":"31.238085","category":"247","category_name":"餐饮美食","address":"上海浦东陆家嘴富城路16号"},{"poiid":"B2094655D26FA2FA4099","title":"月影铁板烧景观餐厅酒廊","lon":"121.49079","lat":"31.2345","category":"97","category_name":"法式菜品餐厅","address":"黄浦区中山东一路外滩5号3楼"},{"poiid":"B2094750D66FA3F9489E","title":"UNICO & COLAGRECO","lon":"121.49067870373528","lat":"31.23452732944748","category":"101","category_name":"美式风味","address":"黄浦区中山东一路3号外滩3号2楼(近广东路)"},{"poiid":"B2094757D06FABFC469A","title":"上海浦东发展银行大楼(外滩12号)","lon":"121.489894","lat":"31.236","category":"150","category_name":"银行","address":"上海黄浦区中山东一路12号 汇丰银行大楼 (原市府大楼)"},{"poiid":"B2094757D06FA3FB4199","title":"外滩隧道","lon":"121.491135705","lat":"31.2345035269","category":"260","category_name":"其他","address":"上海海宁路长治路——延安东路中山南路"},{"poiid":"B2094757D06AA4F8479E","title":"上海海关","lon":"121.49073283","lat":"31.235817695","category":"500","category_name":"未知分类","address":"上海中山东一路13号"},{"poiid":"B2094757D66FA6FA4693","title":"延安东路隧道","lon":"121.4938968","lat":"31.235608933","category":"260","category_name":"其他","address":"上海黄浦区延安东路-浦东新区陆家嘴西路"},{"poiid":"B2094757D069A6F5439A","title":"小竹园海鲜酒楼(外滩店)","lon":"121.493705026","lat":"31.2347289549","category":"247","category_name":"餐饮美食","address":"上海四川中路218号"},{"poiid":"B2094757D16FABFE4299","title":"仙踪林","lon":"121.49111173","lat":"31.235984422","category":"500","category_name":"未知分类","address":"上海陆家嘴西路2967号北滨江大道A座(丰和路陆家嘴西路)"},{"poiid":"B2094752D364A4FE4298","title":"家有好面(南京东路店)","lon":"121.49277","lat":"31.2376","category":"68","category_name":"快餐厅","address":"黄浦区南京东路720号第一食品3楼(近贵州路)"},{"poiid":"B2094750D568A0FF4293","title":"Mercato by Jean Geroge","lon":"121.491241","lat":"31.234399","category":"500","category_name":"未知分类","address":"Bund No 3"},{"poiid":"B2094654DB69A6FA4099","title":"外滩情人墙","lon":"121.49021","lat":"31.2369","category":"250","category_name":"公园户外","address":"黄浦区中山东一路黄浦江边"},{"poiid":"B209475CD364A2FB4099","title":"Hakkasan","lon":"121.49009","lat":"31.23634","category":"94","category_name":"西餐厅","address":"中山东一路18号外滩十八号5楼"},{"poiid":"B2094757D16BA0FD489A","title":"东昌路摆渡","lon":"121.493180738","lat":"31.2351464049","category":"500","category_name":"未知分类","address":"上海市黄浦区四川中路"},{"poiid":"B2094757D06BA3F54399","title":"浦江汇","lon":"121.491288","lat":"31.234279","category":"67","category_name":"甜品店","address":"上海市黄浦区中山东一路2号，华尔道夫会所大堂层"},{"poiid":"B2094757D16DA6FF4599","title":"月影","lon":"121.490579738","lat":"31.234685395","category":"249","category_name":"购物服务","address":"上海外滩5号3楼"},{"poiid":"B2094752DA6CAAFD429F","title":"T.G.I.FRiDAY浦东滨江店","lon":"121.493807","lat":"31.237982","category":"247","category_name":"餐饮美食","address":"富城路16号"},{"poiid":"B2094757D56DAAFD4593","title":"正大小南国","lon":"121.493159","lat":"31.237652","category":"247","category_name":"餐饮美食","address":"陆家嘴"},{"poiid":"B2094751D565A1FE489F","title":"Mr & Mrs Bund","lon":"121.492703","lat":"31.234391","category":"247","category_name":"餐饮美食","address":"外滩十八号"},{"poiid":"B2094750D16BA6FA439D","title":"外白渡大桥","lon":"121.491432","lat":"31.238191","category":"500","category_name":"未知分类","address":null},{"poiid":"B209475DD06EA0F5449C","title":"茹丝葵牛排馆","lon":"121.492492","lat":"31.234409","category":"247","category_name":"餐饮美食","address":"上海市 上海市黄浦区广东路20号4楼02室外滩五号4楼"},{"poiid":"B2094654DA6EA6FC479F","title":"宁东大厦","lon":"121.491","lat":"31.2363","category":"46","category_name":"楼宇","address":"上海市平凉路1398号"},{"poiid":"B2094757DB68A5F44998","title":"新视角餐厅","lon":"121.49088356107","lat":"31.234764723142","category":"247","category_name":"餐饮美食","address":"中山东一路3号外滩3号7楼近广东路"},{"poiid":"B2094751DA6DA1FC419E","title":"Choir Bar ans Kitchen","lon":"121.489907","lat":"31.235564","category":"247","category_name":"餐饮美食","address":"福州路19号"},{"poiid":"B2094757D66CA6F4489A","title":"外滩五号","lon":"121.490823738","lat":"31.2345403919","category":"247","category_name":"餐饮美食","address":"上海外滩五号"},{"poiid":"B2094655D26DA5F8449E","title":"外滩12号咖啡厅","lon":"121.490378054","lat":"31.235718793","category":"65","category_name":"咖啡厅","address":"中山东一路12号2楼226近汉口路"},{"poiid":"B2094750DA6DAAFE419B","title":"外滩3号mercato","lon":"121.491294","lat":"31.234352","category":"47","category_name":"住宅区","address":null},{"poiid":"B209475CD36CA3FB409F","title":"新视角餐厅酒廊  New  Heights","lon":"121.4914","lat":"31.2344","category":"110","category_name":"其他亚洲菜","address":"中山东一路3号外滩3号7楼(近广东路)"},{"poiid":"B2094757D66DA5FA4998","title":"the bund","lon":"121.49034173","lat":"31.236921442","category":"500","category_name":"未知分类","address":"上海ShanghaiHuangpuJiangxi Middle Rd"},{"poiid":"B2094757D16FA6F5429C","title":"天地一家","lon":"121.49099","lat":"31.23475","category":"72","category_name":"广东菜","address":"黄浦区中山东一路6号外滩6号3楼(近广东路)"},{"poiid":"B2094752DA6FABF8479B","title":"Cha Story 茶香书香","lon":"121.493504","lat":"31.237442","category":"500","category_name":"未知分类","address":"上海市 陆家嘴滨江大道"},{"poiid":"B2094654DA6FAAFD459F","title":"SUN with AQUA","lon":"121.49063","lat":"31.2348","category":"172","category_name":"酒吧","address":"黄浦区中山东一路6号外滩6号2楼"},{"poiid":"B2094655D269ABF9459D","title":"Dolce&Gabbana外滩店","lon":"121.49063","lat":"31.2348","category":"94","category_name":"西餐厅","address":"黄浦区中山东一路6号THEBUND6楼(近广东路)"},{"poiid":"B2094757D66DA2FE4393","title":"飞利浦游轮","lon":"121.49259217","lat":"31.238654113","category":"247","category_name":"餐饮美食","address":"上海黄浦江"},{"poiid":"B2094757D16FA0F9419E","title":"味千拉面(高行万嘉店)","lon":"121.49280803","lat":"31.236273753","category":"247","category_name":"餐饮美食","address":"上海浦东新区东靖路1881号万嘉商业广场一楼"}]