[{"poiid":"B2094654D569A3F84099","title":"上海万国机动车驾员培训中心","lon":"121.72503","lat":"31.24836","category":"192","category_name":"驾校","address":"奚阳路"},{"poiid":"B2094757D06FA4F9449A","title":"合庆镇","lon":"121.71645059","lat":"31.2393145405","category":"260","category_name":"其他","address":"上海浦东新区合庆镇"},{"poiid":"B2094757D069A6FA4599","title":"康明庄园会所","lon":"121.713502","lat":"31.248036","category":"500","category_name":"未知分类","address":"上海浦东新区东川公路5227号"},{"poiid":"B2094757D06FA0FF409B","title":"合庆万国驾校","lon":"121.728307","lat":"31.248328","category":"500","category_name":"未知分类","address":"上海浦东新区合庆镇奚阳公路"},{"poiid":"B2094757D164A6FE429D","title":"浦东新区实习学校","lon":"121.73303645","lat":"31.2591699893","category":"55","category_name":"中学","address":"浦东新区合庆镇向阳路800号"},{"poiid":"B2094654DA6AAAF4449E","title":"合庆小商品市场","lon":"121.72728425374","lat":"31.241915413772","category":"120","category_name":"小商品市场","address":"庆荣路262弄15-164号"},{"poiid":"B2094757D164ABFE419B","title":"浦东爱心养老公寓","lon":"121.72637922","lat":"31.248227339","category":"47","category_name":"住宅区","address":"上海浦东新区合庆镇奚阳公路885号"},{"poiid":"B2094655D26BA5F9459F","title":"海湾新城","lon":"121.72569","lat":"31.231733","category":"47","category_name":"住宅区","address":"庆利路425弄"},{"poiid":"B2094654DA6AAAFF4792","title":"庆云寺","lon":"121.7158","lat":"31.24239","category":"244","category_name":"寺庙道观","address":"浦东新区合庆镇庆丰村龙东大道6907号(东川公路口)"},{"poiid":"B2094757D065A5F4439E","title":"前哨路288弄","lon":"121.73007288882","lat":"31.245230287241","category":"47","category_name":"住宅区","address":"上海市浦东新区环庆北路"},{"poiid":"B2094757D569A0FA489B","title":"荣华苑","lon":"121.731","lat":"31.2432","category":"47","category_name":"住宅区","address":"上海市浦东新区庆荣路485弄"},{"poiid":"B2094757D068ABF54798","title":"上海天马微电子有限公司","lon":"121.71168333","lat":"31.238829021","category":"263","category_name":"公司","address":"上海浦东新区汇庆路888号"},{"poiid":"B2094655D26BA2FE4699","title":"万国培训中心","lon":"121.72348","lat":"31.24781","category":"38","category_name":"公交车站","address":""},{"poiid":"B2094654DA6AA5F4449B","title":"合庆海滨商场","lon":"121.72242","lat":"31.24518","category":"119","category_name":"商场","address":"合庆镇"},{"poiid":"B2094654D569A3F44092","title":"芳芳超市(奚阳路)","lon":"121.72942","lat":"31.24875","category":"118","category_name":"超级市场","address":""},{"poiid":"B2094655D264A4FB479F","title":"G1501龙东大道收费站","lon":"121.72199","lat":"31.24601","category":"267","category_name":"收费站","address":""},{"poiid":"B2094654DA6AAAFF489F","title":"上海金杏香果业合作社有限公司","lon":"121.72914","lat":"31.24569","category":"263","category_name":"公司","address":"前哨支路98"},{"poiid":"B2094655D26EA1F5429F","title":"上海市合庆中学","lon":"121.71762","lat":"31.23966","category":"55","category_name":"中学","address":"浦东新区东川公路5721号"},{"poiid":"B2094757D065A1FA499A","title":"万国驾校食堂","lon":"121.73417","lat":"31.24935","category":"68","category_name":"快餐厅","address":"浦东新区合庆镇奚阳路号505号(近东川公路)"},{"poiid":"B2094757D169A6F4409B","title":"草莓园","lon":"121.71941745","lat":"31.2552269042","category":"500","category_name":"未知分类","address":"上海市曹路"},{"poiid":"B2094757D064AAFC439E","title":"众合农家乐","lon":"121.72867558","lat":"31.229271511","category":"247","category_name":"餐饮美食","address":"上海浦东合庆镇凌杨路463号"},{"poiid":"B2094654DA6AAAF8439A","title":"浦东新区合庆幼儿园","lon":"121.72422","lat":"31.23869","category":"57","category_name":"幼儿园","address":""},{"poiid":"B2094655D36CA2FF449E","title":"前哨基地","lon":"121.73051","lat":"31.23871","category":"38","category_name":"公交车站","address":""},{"poiid":"B2094655D36DA7F4429D","title":"奚阳公路朝阳村","lon":"121.73486","lat":"31.25001","category":"38","category_name":"公交车站","address":""},{"poiid":"B2094654DA6AA5F4449F","title":"合庆迎春棉百商场","lon":"121.71817","lat":"31.24507","category":"119","category_name":"商场","address":"合庆镇"},{"poiid":"B2094654DA6AA5F54793","title":"东凌商场","lon":"121.71799","lat":"31.24504","category":"119","category_name":"商场","address":"合庆镇"},{"poiid":"B2094654DA6AAAF4409A","title":"重庆鸡公煲(庆荣路)","lon":"121.72254","lat":"31.23672","category":"71","category_name":"四川菜","address":"浦东新区庆荣路279号(近东川公路)"},{"poiid":"B2094654DA6AAAF8409D","title":"合庆社区卫生服务中心","lon":"121.72178","lat":"31.23887","category":"162","category_name":"医院","address":"前哨路90号"},{"poiid":"B2094757D06BA4F9469E","title":"朝阳路前哨路","lon":"121.720145755","lat":"31.2423403689","category":"500","category_name":"未知分类","address":"上海朝阳路前哨路"},{"poiid":"B2094757D16BA4FA419C","title":"崇明南门新崇北路","lon":"121.72847808","lat":"31.239846994","category":"500","category_name":"未知分类","address":"上海新崇北路"},{"poiid":"B2094654DA6AA4FD449C","title":"上海浦东合庆经济发展园区员工之家","lon":"121.73209","lat":"31.239599","category":"47","category_name":"住宅区","address":"前哨路717号"},{"poiid":"B2094654DA6AA5F5459B","title":"华联超市合庆连锁商场","lon":"121.72077","lat":"31.24046","category":"118","category_name":"超级市场","address":"前哨路5901号"},{"poiid":"B2094654DA6AAAF44799","title":"三得利酒家","lon":"121.71851","lat":"31.23875","category":"70","category_name":"综合酒楼","address":"浦东新区合庆镇前哨路(近东川公路)"},{"poiid":"B2094654DA6AAAFF4898","title":"上海吴纱制衣有限公司","lon":"121.72046","lat":"31.24483","category":"263","category_name":"公司","address":"小白路518号"},{"poiid":"B2094751DB6CA4F4479B","title":"肯德基(合庆镇店)","lon":"121.71847","lat":"31.23764","category":"68","category_name":"快餐厅","address":"浦东新区东川公路(小白路口)"},{"poiid":"B2094654DA6AA5F4449E","title":"合庆新兴商场","lon":"121.71656","lat":"31.24353","category":"119","category_name":"商场","address":"合庆镇"},{"poiid":"B2094655D36CA2F8489F","title":"庆荣路","lon":"121.71961","lat":"31.23616","category":"38","category_name":"公交车站","address":""},{"poiid":"B2094655D264A6FD4399","title":"海馨苑","lon":"121.72405","lat":"31.232328","category":"47","category_name":"住宅区","address":"上海市浦东新区合庆镇庆滨路155弄"},{"poiid":"B2094757D069AAFD439C","title":"前哨路198弄","lon":"121.72125482","lat":"31.239654289","category":"500","category_name":"未知分类","address":"上海合庆镇前哨路198弄"},{"poiid":"B2094655D36CA7F94693","title":"合庆","lon":"121.71772","lat":"31.23892","category":"38","category_name":"公交车站","address":""},{"poiid":"B2094757D069A1F4489A","title":"合庆派出所","lon":"121.720564","lat":"31.239066","category":"609","category_name":"警察局","address":"上海市浦东新区前哨路160号"},{"poiid":"B2094654DB64A6FF4599","title":"中国移动合庆镇营业厅","lon":"121.71805","lat":"31.23868","category":"151","category_name":"电讯营业厅","address":"浦东新区合庆镇前哨路33号"},{"poiid":"B2094654DA6AAAFF499F","title":"美庆大厦","lon":"121.71847","lat":"31.23838","category":"46","category_name":"楼宇","address":"前哨路59"},{"poiid":"B2094757D065A4F4489A","title":"竖新镇","lon":"121.733817","lat":"31.240949","category":"500","category_name":"未知分类","address":"上海市崇明县竖新镇"},{"poiid":"B2094757D469A6FE419B","title":"爵鼎鸡 庆荣路店","lon":"121.720785","lat":"31.236249","category":"68","category_name":"快餐厅","address":"浦东新区合庆镇庆荣路"},{"poiid":"B2094757D16EA2F8449D","title":"庆荣路东川公路","lon":"121.719955","lat":"31.236912","category":"500","category_name":"未知分类","address":"上海庆荣路东川公路"},{"poiid":"B2094654DA6AAAF44792","title":"合庆五金交电商场","lon":"121.71778","lat":"31.23822","category":"119","category_name":"商场","address":""},{"poiid":"B2094654DA6AAAF44493","title":"快客(庆荣路)","lon":"121.7209","lat":"31.23607","category":"117","category_name":"便民商店/便利店","address":""},{"poiid":"B2094757D464A7FF499D","title":"康明庄园","lon":"121.7105","lat":"31.25184","category":"76","category_name":"上海菜","address":"浦东新区合庆镇东川公路5227号(东川公路胜利路)"},{"poiid":"B2094757D16AABFD4898","title":"中国农业银行合庆支行","lon":"121.71824705","lat":"31.238492631","category":"150","category_name":"银行","address":"浦东新区合庆镇前哨路55号(东川公路前哨路)"},{"poiid":"B2094654D569A3F84099","title":"上海万国机动车驾员培训中心","lon":"121.72503","lat":"31.24836","category":"192","category_name":"驾校","address":"奚阳路"},{"poiid":"B2094757D06FA4F9449A","title":"合庆镇","lon":"121.71645059","lat":"31.2393145405","category":"260","category_name":"其他","address":"上海浦东新区合庆镇"},{"poiid":"B2094757D069A6FA4599","title":"康明庄园会所","lon":"121.713502","lat":"31.248036","category":"500","category_name":"未知分类","address":"上海浦东新区东川公路5227号"},{"poiid":"B2094757D06FA0FF409B","title":"合庆万国驾校","lon":"121.728307","lat":"31.248328","category":"500","category_name":"未知分类","address":"上海浦东新区合庆镇奚阳公路"},{"poiid":"B2094757D164A6FE429D","title":"浦东新区实习学校","lon":"121.73303645","lat":"31.2591699893","category":"55","category_name":"中学","address":"浦东新区合庆镇向阳路800号"},{"poiid":"B2094654DA6AAAF4449E","title":"合庆小商品市场","lon":"121.72728425374","lat":"31.241915413772","category":"120","category_name":"小商品市场","address":"庆荣路262弄15-164号"},{"poiid":"B2094757D164ABFE419B","title":"浦东爱心养老公寓","lon":"121.72637922","lat":"31.248227339","category":"47","category_name":"住宅区","address":"上海浦东新区合庆镇奚阳公路885号"},{"poiid":"B2094655D26BA5F9459F","title":"海湾新城","lon":"121.72569","lat":"31.231733","category":"47","category_name":"住宅区","address":"庆利路425弄"},{"poiid":"B2094654DA6AAAFF4792","title":"庆云寺","lon":"121.7158","lat":"31.24239","category":"244","category_name":"寺庙道观","address":"浦东新区合庆镇庆丰村龙东大道6907号(东川公路口)"},{"poiid":"B2094757D065A5F4439E","title":"前哨路288弄","lon":"121.73007288882","lat":"31.245230287241","category":"47","category_name":"住宅区","address":"上海市浦东新区环庆北路"},{"poiid":"B2094757D569A0FA489B","title":"荣华苑","lon":"121.731","lat":"31.2432","category":"47","category_name":"住宅区","address":"上海市浦东新区庆荣路485弄"},{"poiid":"B2094757D068ABF54798","title":"上海天马微电子有限公司","lon":"121.71168333","lat":"31.238829021","category":"263","category_name":"公司","address":"上海浦东新区汇庆路888号"},{"poiid":"B2094655D26BA2FE4699","title":"万国培训中心","lon":"121.72348","lat":"31.24781","category":"38","category_name":"公交车站","address":""},{"poiid":"B2094654DA6AA5F4449B","title":"合庆海滨商场","lon":"121.72242","lat":"31.24518","category":"119","category_name":"商场","address":"合庆镇"},{"poiid":"B2094654D569A3F44092","title":"芳芳超市(奚阳路)","lon":"121.72942","lat":"31.24875","category":"118","category_name":"超级市场","address":""},{"poiid":"B2094655D264A4FB479F","title":"G1501龙东大道收费站","lon":"121.72199","lat":"31.24601","category":"267","category_name":"收费站","address":""},{"poiid":"B2094654DA6AAAFF489F","title":"上海金杏香果业合作社有限公司","lon":"121.72914","lat":"31.24569","category":"263","category_name":"公司","address":"前哨支路98"},{"poiid":"B2094655D26EA1F5429F","title":"上海市合庆中学","lon":"121.71762","lat":"31.23966","category":"55","category_name":"中学","address":"浦东新区东川公路5721号"},{"poiid":"B2094757D065A1FA499A","title":"万国驾校食堂","lon":"121.73417","lat":"31.24935","category":"68","category_name":"快餐厅","address":"浦东新区合庆镇奚阳路号505号(近东川公路)"},{"poiid":"B2094757D169A6F4409B","title":"草莓园","lon":"121.71941745","lat":"31.2552269042","category":"500","category_name":"未知分类","address":"上海市曹路"},{"poiid":"B2094757D064AAFC439E","title":"众合农家乐","lon":"121.72867558","lat":"31.229271511","category":"247","category_name":"餐饮美食","address":"上海浦东合庆镇凌杨路463号"},{"poiid":"B2094654DA6AAAF8439A","title":"浦东新区合庆幼儿园","lon":"121.72422","lat":"31.23869","category":"57","category_name":"幼儿园","address":""},{"poiid":"B2094655D36CA2FF449E","title":"前哨基地","lon":"121.73051","lat":"31.23871","category":"38","category_name":"公交车站","address":""},{"poiid":"B2094655D36DA7F4429D","title":"奚阳公路朝阳村","lon":"121.73486","lat":"31.25001","category":"38","category_name":"公交车站","address":""},{"poiid":"B2094654DA6AA5F4449F","title":"合庆迎春棉百商场","lon":"121.71817","lat":"31.24507","category":"119","category_name":"商场","address":"合庆镇"},{"poiid":"B2094654DA6AA5F54793","title":"东凌商场","lon":"121.71799","lat":"31.24504","category":"119","category_name":"商场","address":"合庆镇"},{"poiid":"B2094654DA6AAAF4409A","title":"重庆鸡公煲(庆荣路)","lon":"121.72254","lat":"31.23672","category":"71","category_name":"四川菜","address":"浦东新区庆荣路279号(近东川公路)"},{"poiid":"B2094654DA6AAAF8409D","title":"合庆社区卫生服务中心","lon":"121.72178","lat":"31.23887","category":"162","category_name":"医院","address":"前哨路90号"},{"poiid":"B2094757D06BA4F9469E","title":"朝阳路前哨路","lon":"121.720145755","lat":"31.2423403689","category":"500","category_name":"未知分类","address":"上海朝阳路前哨路"},{"poiid":"B2094757D16BA4FA419C","title":"崇明南门新崇北路","lon":"121.72847808","lat":"31.239846994","category":"500","category_name":"未知分类","address":"上海新崇北路"},{"poiid":"B2094654DA6AA4FD449C","title":"上海浦东合庆经济发展园区员工之家","lon":"121.73209","lat":"31.239599","category":"47","category_name":"住宅区","address":"前哨路717号"},{"poiid":"B2094654DA6AA5F5459B","title":"华联超市合庆连锁商场","lon":"121.72077","lat":"31.24046","category":"118","category_name":"超级市场","address":"前哨路5901号"},{"poiid":"B2094654DA6AAAF44799","title":"三得利酒家","lon":"121.71851","lat":"31.23875","category":"70","category_name":"综合酒楼","address":"浦东新区合庆镇前哨路(近东川公路)"},{"poiid":"B2094654DA6AAAFF4898","title":"上海吴纱制衣有限公司","lon":"121.72046","lat":"31.24483","category":"263","category_name":"公司","address":"小白路518号"},{"poiid":"B2094751DB6CA4F4479B","title":"肯德基(合庆镇店)","lon":"121.71847","lat":"31.23764","category":"68","category_name":"快餐厅","address":"浦东新区东川公路(小白路口)"},{"poiid":"B2094654DA6AA5F4449E","title":"合庆新兴商场","lon":"121.71656","lat":"31.24353","category":"119","category_name":"商场","address":"合庆镇"},{"poiid":"B2094655D36CA2F8489F","title":"庆荣路","lon":"121.71961","lat":"31.23616","category":"38","category_name":"公交车站","address":""},{"poiid":"B2094655D264A6FD4399","title":"海馨苑","lon":"121.72405","lat":"31.232328","category":"47","category_name":"住宅区","address":"上海市浦东新区合庆镇庆滨路155弄"},{"poiid":"B2094757D069AAFD439C","title":"前哨路198弄","lon":"121.72125482","lat":"31.239654289","category":"500","category_name":"未知分类","address":"上海合庆镇前哨路198弄"},{"poiid":"B2094655D36CA7F94693","title":"合庆","lon":"121.71772","lat":"31.23892","category":"38","category_name":"公交车站","address":""},{"poiid":"B2094757D069A1F4489A","title":"合庆派出所","lon":"121.720564","lat":"31.239066","category":"609","category_name":"警察局","address":"上海市浦东新区前哨路160号"},{"poiid":"B2094654DB64A6FF4599","title":"中国移动合庆镇营业厅","lon":"121.71805","lat":"31.23868","category":"151","category_name":"电讯营业厅","address":"浦东新区合庆镇前哨路33号"},{"poiid":"B2094654DA6AAAFF499F","title":"美庆大厦","lon":"121.71847","lat":"31.23838","category":"46","category_name":"楼宇","address":"前哨路59"},{"poiid":"B2094757D065A4F4489A","title":"竖新镇","lon":"121.733817","lat":"31.240949","category":"500","category_name":"未知分类","address":"上海市崇明县竖新镇"},{"poiid":"B2094757D469A6FE419B","title":"爵鼎鸡 庆荣路店","lon":"121.720785","lat":"31.236249","category":"68","category_name":"快餐厅","address":"浦东新区合庆镇庆荣路"},{"poiid":"B2094757D16EA2F8449D","title":"庆荣路东川公路","lon":"121.719955","lat":"31.236912","category":"500","category_name":"未知分类","address":"上海庆荣路东川公路"},{"poiid":"B2094654DA6AAAF44792","title":"合庆五金交电商场","lon":"121.71778","lat":"31.23822","category":"119","category_name":"商场","address":""},{"poiid":"B2094654DA6AAAF44493","title":"快客(庆荣路)","lon":"121.7209","lat":"31.23607","category":"117","category_name":"便民商店/便利店","address":""},{"poiid":"B2094757D464A7FF499D","title":"康明庄园","lon":"121.7105","lat":"31.25184","category":"76","category_name":"上海菜","address":"浦东新区合庆镇东川公路5227号(东川公路胜利路)"},{"poiid":"B2094757D16AABFD4898","title":"中国农业银行合庆支行","lon":"121.71824705","lat":"31.238492631","category":"150","category_name":"银行","address":"浦东新区合庆镇前哨路55号(东川公路前哨路)"}]