[{"poiid":"B2094757D06FA5F9479A","title":"漕溪公园","lon":"121.435923354","lat":"31.1717042748","category":"196","category_name":"公园","address":"徐汇区漕溪路203号(近田林东路)"},{"poiid":"B2094757D068A6FE4392","title":"宏润国际花园","lon":"121.439842998","lat":"31.1738835497","category":"47","category_name":"住宅区","address":"上海田东路258弄"},{"poiid":"B2094757D16BAAF84499","title":"虹橋火車站動車和諧號","lon":"121.440905586","lat":"31.1722102969","category":"500","category_name":"未知分类","address":"上海虹橋火車站"},{"poiid":"B2094757D56CA6FE4693","title":"望族楼","lon":"121.43669207282","lat":"31.170843613437","category":"77","category_name":"湖南菜","address":"徐汇区漕溪路251弄望族城5号102室(近漕宝路)"},{"poiid":"B2094757D06AABFA489B","title":"徐汇职业高级中学","lon":"121.43834","lat":"31.17182","category":"52","category_name":"高等院校","address":"徐汇区漕东支路101号(近龙漕路)"},{"poiid":"B2094757D065A4FB429B","title":"卢大姐四川简阳羊肉汤","lon":"121.436490586","lat":"31.1694412428","category":"71","category_name":"四川菜","address":"徐汇区龙漕路63号(近漕溪路)"},{"poiid":"B2094654DA6DA1F9449F","title":"广明牛肉","lon":"121.43573406628","lat":"31.168551302981","category":"86","category_name":"火锅店","address":"徐汇区龙漕路67号(近漕宝路)"},{"poiid":"B2094655D26FA7F54099","title":"漕溪四村","lon":"121.44029","lat":"31.170727","category":"47","category_name":"住宅区","address":"田东路78号"},{"poiid":"B2094654DA6DA1F4419B","title":"漕溪二村","lon":"121.43728","lat":"31.171253","category":"47","category_name":"住宅区","address":"漕东路100号"},{"poiid":"B2094654DA6DA1F9409D","title":"凯翔小区","lon":"121.43934","lat":"31.170198","category":"47","category_name":"住宅区","address":"龙漕路135弄"},{"poiid":"B2094757D66AA6FB489C","title":"忠义新香辣 田东店","lon":"121.44088288648","lat":"31.16982342958","category":"71","category_name":"四川菜","address":"徐汇区田东路3号(近龙漕路)"},{"poiid":"B2094655D264A2FB4899","title":"上海望族城5号楼","lon":"121.43573","lat":"31.17041","category":"46","category_name":"楼宇","address":"漕溪路251弄5"},{"poiid":"B2094654DB65A1FA429C","title":"香江小厨","lon":"121.438135054","lat":"31.169062793","category":"76","category_name":"上海菜","address":"徐汇区漕东支路1弄8号(近龙漕路)"},{"poiid":"B2094655D268A0FC4198","title":"现代商务中心","lon":"121.43743","lat":"31.1694","category":"46","category_name":"楼宇","address":"徐汇区田林路300号"},{"poiid":"B2094752D364A3FB489A","title":"润苑","lon":"121.43975","lat":"31.17404","category":"47","category_name":"住宅区","address":"徐汇区田东路258弄-4号(宏润花园旁)"},{"poiid":"B2094654DA6DA1F44399","title":"佳信徐汇公寓","lon":"121.43832","lat":"31.172869","category":"47","category_name":"住宅区","address":"漕东支路111弄"},{"poiid":"B2094654DA6DA1F4409D","title":"汉城石锅拌饭","lon":"121.437233054","lat":"31.172811793","category":"68","category_name":"快餐厅","address":"徐汇区漕东支路108号(近漕东路)"},{"poiid":"B2094654DA6DA1FA439F","title":"凯诚商务大厦","lon":"121.43902","lat":"31.17091","category":"46","category_name":"楼宇","address":"龙漕路135弄8号"},{"poiid":"B2094654DA6DA1FA409A","title":"春光饭店","lon":"121.434820054","lat":"31.170345793","category":"71","category_name":"四川菜","address":"徐汇区漕东三路28号(近漕溪路)"},{"poiid":"B2094654DB69A5F5409F","title":"避风塘(漕溪店)","lon":"121.43579","lat":"31.16936","category":"66","category_name":"茶艺馆","address":"徐汇区漕溪路121号(近中山西路)"},{"poiid":"B2094655D264A1F8439E","title":"村夫烤鱼龙漕路店","lon":"121.43727","lat":"31.16893","category":"68","category_name":"快餐厅","address":"徐汇区龙漕路61号(近漕溪路)"},{"poiid":"B2094655D26BA3F5439D","title":"银星名庭","lon":"121.43723","lat":"31.169052","category":"47","category_name":"住宅区","address":"上海市徐汇区龙漕路51弄"},{"poiid":"B2094757D064A1F5449F","title":"天下壹福海鲜酒楼","lon":"121.439842","lat":"31.173884","category":"72","category_name":"广东菜","address":"徐汇区田东路258弄4号宏润会所(近漕溪路预计10月份营业)"},{"poiid":"B2094654DA6DA1F4429A","title":"上海市徐汇职业高级中学(漕东支路)","lon":"121.43826","lat":"31.17223","category":"54","category_name":"职业技术学校","address":"漕东支路101"},{"poiid":"B2094757D464AAF9449C","title":"吉祥馄饨 龙漕路店 Gll Wonton","lon":"121.437451054","lat":"31.168520793","category":"68","category_name":"快餐厅","address":"徐汇区龙漕路50号(近地铁漕宝路站4号口)"},{"poiid":"B2094654DA6DA1F4439C","title":"哈尔滨小吃","lon":"121.43744954165","lat":"31.173411648653","category":"82","category_name":"东北菜","address":"徐汇区漕东支路(近田东路)"},{"poiid":"B2094654DB6BA5F8459C","title":"科汇景苑","lon":"121.43967","lat":"31.172112","category":"47","category_name":"住宅区","address":"上海市徐汇区田东路75号"},{"poiid":"B2094654DB65A6FD4793","title":"兆嘉园田东路","lon":"121.4399","lat":"31.17143","category":"47","category_name":"住宅区","address":""},{"poiid":"B2094655D26BABFE489F","title":"康惠花苑","lon":"121.44","lat":"31.1714","category":"47","category_name":"住宅区","address":"上海市徐汇区康健路16弄"},{"poiid":"B2094654DB65A6F44392","title":"永琪美容美发","lon":"121.4379","lat":"31.17446","category":"148","category_name":"美容美发店","address":"徐汇区田东路330号(近漕溪路)"},{"poiid":"B2094654DA6DA1FA419A","title":"好德便利No.686","lon":"121.43783","lat":"31.1702","category":"117","category_name":"便民商店/便利店","address":"漕河泾镇"},{"poiid":"B2094655D268A4F5479A","title":"漕溪二村(边门)","lon":"121.43749","lat":"31.17168","category":"47","category_name":"住宅区","address":"漕河泾镇"},{"poiid":"B2094654DA6DA1F84398","title":"宏润国际会所","lon":"121.43972","lat":"31.17394","category":"149","category_name":"洗浴推拿场所","address":"徐汇区田东路258弄4号(近漕溪路)"},{"poiid":"B2094655D265A4FF489B","title":"漕溪二村30号小区","lon":"121.43742","lat":"31.17106","category":"47","category_name":"住宅区","address":""},{"poiid":"B2094654DA6DA1F9459A","title":"金海大厦","lon":"121.43687","lat":"31.169207","category":"47","category_name":"住宅区","address":"龙漕路51弄1号"},{"poiid":"B2094654DA6DA1F84599","title":"华南公寓","lon":"121.44097","lat":"31.171789","category":"47","category_name":"住宅区","address":"上海市徐汇区田东路70弄"},{"poiid":"B2094654DB65A4FC4999","title":"凯翔商务中心","lon":"121.43838","lat":"31.16954","category":"46","category_name":"楼宇","address":"漕东支路1-5号"},{"poiid":"B2094655D268A4F5479C","title":"漕溪三村小区北区","lon":"121.437615","lat":"31.170355","category":"47","category_name":"住宅区","address":"漕河泾镇"},{"poiid":"B2094757D16FA5F4419A","title":"事故多发地段","lon":"121.43975067","lat":"31.170680999","category":"902","category_name":"楼宇机构","address":"上海沪闵路高架"},{"poiid":"B2094654DA6DA1F5429F","title":"金衡公寓","lon":"121.43622","lat":"31.17407","category":"47","category_name":"住宅区","address":"上海市徐汇区漕东路286号"},{"poiid":"B2094654DA6DA1F9409E","title":"宏伟阁","lon":"121.44034","lat":"31.169998","category":"47","category_name":"住宅区","address":"上海龙漕路145号"},{"poiid":"B2094757D065A0FF4892","title":"春草堂足疗(龙漕店)","lon":"121.44092","lat":"31.1713","category":"149","category_name":"洗浴推拿场所","address":"徐汇区漕溪四村12号"},{"poiid":"B2094654DB6BA5F8479B","title":"佳信徐汇公寓(西2门)","lon":"121.43766","lat":"31.17247","category":"47","category_name":"住宅区","address":"漕东支路111"},{"poiid":"B2094750DA6FA6F8449B","title":"老蔡摄影","lon":"121.43548589947511","lat":"31.16994393973088","category":"611","category_name":"照相馆","address":"徐汇区望族城4号1503室"},{"poiid":"B2094757D16FA2F4409F","title":"国兴宠物医院(徐汇分院)","lon":"121.44002","lat":"31.17304","category":"162","category_name":"医院","address":"上海徐汇区田东路392号  "},{"poiid":"B2094654DA6DA1F44892","title":"华联水果大卖场","lon":"121.43796","lat":"31.17347","category":"117","category_name":"便民商店/便利店","address":"漕东路209号"},{"poiid":"B2094655D268A7F84392","title":"康健路43弄小区","lon":"121.437432","lat":"31.173046","category":"47","category_name":"住宅区","address":"康健路43弄1-14号"},{"poiid":"B2094757D568A7FD4193","title":"朱记菜饭骨头汤","lon":"121.4360369","lat":"31.17435083","category":"68","category_name":"快餐厅","address":"徐汇区田东路416号(近漕溪路)"},{"poiid":"B2094654DA6DA1FA439B","title":"凯翔小区(西门)","lon":"121.4382","lat":"31.17008","category":"47","category_name":"住宅区","address":""},{"poiid":"B2094655D36CA3F9439E","title":"兆嘉园(东门)","lon":"121.44021","lat":"31.17209","category":"47","category_name":"住宅区","address":""},{"poiid":"B2094757D06FA5F9479A","title":"漕溪公园","lon":"121.435923354","lat":"31.1717042748","category":"196","category_name":"公园","address":"徐汇区漕溪路203号(近田林东路)"},{"poiid":"B2094757D068A6FE4392","title":"宏润国际花园","lon":"121.439842998","lat":"31.1738835497","category":"47","category_name":"住宅区","address":"上海田东路258弄"},{"poiid":"B2094757D16BAAF84499","title":"虹橋火車站動車和諧號","lon":"121.440905586","lat":"31.1722102969","category":"500","category_name":"未知分类","address":"上海虹橋火車站"},{"poiid":"B2094757D56CA6FE4693","title":"望族楼","lon":"121.43669207282","lat":"31.170843613437","category":"77","category_name":"湖南菜","address":"徐汇区漕溪路251弄望族城5号102室(近漕宝路)"},{"poiid":"B2094757D06AABFA489B","title":"徐汇职业高级中学","lon":"121.43834","lat":"31.17182","category":"52","category_name":"高等院校","address":"徐汇区漕东支路101号(近龙漕路)"},{"poiid":"B2094757D065A4FB429B","title":"卢大姐四川简阳羊肉汤","lon":"121.436490586","lat":"31.1694412428","category":"71","category_name":"四川菜","address":"徐汇区龙漕路63号(近漕溪路)"},{"poiid":"B2094654DA6DA1F9449F","title":"广明牛肉","lon":"121.43573406628","lat":"31.168551302981","category":"86","category_name":"火锅店","address":"徐汇区龙漕路67号(近漕宝路)"},{"poiid":"B2094655D26FA7F54099","title":"漕溪四村","lon":"121.44029","lat":"31.170727","category":"47","category_name":"住宅区","address":"田东路78号"},{"poiid":"B2094654DA6DA1F4419B","title":"漕溪二村","lon":"121.43728","lat":"31.171253","category":"47","category_name":"住宅区","address":"漕东路100号"},{"poiid":"B2094654DA6DA1F9409D","title":"凯翔小区","lon":"121.43934","lat":"31.170198","category":"47","category_name":"住宅区","address":"龙漕路135弄"},{"poiid":"B2094757D66AA6FB489C","title":"忠义新香辣 田东店","lon":"121.44088288648","lat":"31.16982342958","category":"71","category_name":"四川菜","address":"徐汇区田东路3号(近龙漕路)"},{"poiid":"B2094655D264A2FB4899","title":"上海望族城5号楼","lon":"121.43573","lat":"31.17041","category":"46","category_name":"楼宇","address":"漕溪路251弄5"},{"poiid":"B2094654DB65A1FA429C","title":"香江小厨","lon":"121.438135054","lat":"31.169062793","category":"76","category_name":"上海菜","address":"徐汇区漕东支路1弄8号(近龙漕路)"},{"poiid":"B2094655D268A0FC4198","title":"现代商务中心","lon":"121.43743","lat":"31.1694","category":"46","category_name":"楼宇","address":"徐汇区田林路300号"},{"poiid":"B2094752D364A3FB489A","title":"润苑","lon":"121.43975","lat":"31.17404","category":"47","category_name":"住宅区","address":"徐汇区田东路258弄-4号(宏润花园旁)"},{"poiid":"B2094654DA6DA1F44399","title":"佳信徐汇公寓","lon":"121.43832","lat":"31.172869","category":"47","category_name":"住宅区","address":"漕东支路111弄"},{"poiid":"B2094654DA6DA1F4409D","title":"汉城石锅拌饭","lon":"121.437233054","lat":"31.172811793","category":"68","category_name":"快餐厅","address":"徐汇区漕东支路108号(近漕东路)"},{"poiid":"B2094654DA6DA1FA439F","title":"凯诚商务大厦","lon":"121.43902","lat":"31.17091","category":"46","category_name":"楼宇","address":"龙漕路135弄8号"},{"poiid":"B2094654DA6DA1FA409A","title":"春光饭店","lon":"121.434820054","lat":"31.170345793","category":"71","category_name":"四川菜","address":"徐汇区漕东三路28号(近漕溪路)"},{"poiid":"B2094654DB69A5F5409F","title":"避风塘(漕溪店)","lon":"121.43579","lat":"31.16936","category":"66","category_name":"茶艺馆","address":"徐汇区漕溪路121号(近中山西路)"},{"poiid":"B2094655D264A1F8439E","title":"村夫烤鱼龙漕路店","lon":"121.43727","lat":"31.16893","category":"68","category_name":"快餐厅","address":"徐汇区龙漕路61号(近漕溪路)"},{"poiid":"B2094655D26BA3F5439D","title":"银星名庭","lon":"121.43723","lat":"31.169052","category":"47","category_name":"住宅区","address":"上海市徐汇区龙漕路51弄"},{"poiid":"B2094757D064A1F5449F","title":"天下壹福海鲜酒楼","lon":"121.439842","lat":"31.173884","category":"72","category_name":"广东菜","address":"徐汇区田东路258弄4号宏润会所(近漕溪路预计10月份营业)"},{"poiid":"B2094654DA6DA1F4429A","title":"上海市徐汇职业高级中学(漕东支路)","lon":"121.43826","lat":"31.17223","category":"54","category_name":"职业技术学校","address":"漕东支路101"},{"poiid":"B2094757D464AAF9449C","title":"吉祥馄饨 龙漕路店 Gll Wonton","lon":"121.437451054","lat":"31.168520793","category":"68","category_name":"快餐厅","address":"徐汇区龙漕路50号(近地铁漕宝路站4号口)"},{"poiid":"B2094654DA6DA1F4439C","title":"哈尔滨小吃","lon":"121.43744954165","lat":"31.173411648653","category":"82","category_name":"东北菜","address":"徐汇区漕东支路(近田东路)"},{"poiid":"B2094654DB6BA5F8459C","title":"科汇景苑","lon":"121.43967","lat":"31.172112","category":"47","category_name":"住宅区","address":"上海市徐汇区田东路75号"},{"poiid":"B2094654DB65A6FD4793","title":"兆嘉园田东路","lon":"121.4399","lat":"31.17143","category":"47","category_name":"住宅区","address":""},{"poiid":"B2094655D26BABFE489F","title":"康惠花苑","lon":"121.44","lat":"31.1714","category":"47","category_name":"住宅区","address":"上海市徐汇区康健路16弄"},{"poiid":"B2094654DB65A6F44392","title":"永琪美容美发","lon":"121.4379","lat":"31.17446","category":"148","category_name":"美容美发店","address":"徐汇区田东路330号(近漕溪路)"},{"poiid":"B2094654DA6DA1FA419A","title":"好德便利No.686","lon":"121.43783","lat":"31.1702","category":"117","category_name":"便民商店/便利店","address":"漕河泾镇"},{"poiid":"B2094655D268A4F5479A","title":"漕溪二村(边门)","lon":"121.43749","lat":"31.17168","category":"47","category_name":"住宅区","address":"漕河泾镇"},{"poiid":"B2094654DA6DA1F84398","title":"宏润国际会所","lon":"121.43972","lat":"31.17394","category":"149","category_name":"洗浴推拿场所","address":"徐汇区田东路258弄4号(近漕溪路)"},{"poiid":"B2094655D265A4FF489B","title":"漕溪二村30号小区","lon":"121.43742","lat":"31.17106","category":"47","category_name":"住宅区","address":""},{"poiid":"B2094654DA6DA1F9459A","title":"金海大厦","lon":"121.43687","lat":"31.169207","category":"47","category_name":"住宅区","address":"龙漕路51弄1号"},{"poiid":"B2094654DA6DA1F84599","title":"华南公寓","lon":"121.44097","lat":"31.171789","category":"47","category_name":"住宅区","address":"上海市徐汇区田东路70弄"},{"poiid":"B2094654DB65A4FC4999","title":"凯翔商务中心","lon":"121.43838","lat":"31.16954","category":"46","category_name":"楼宇","address":"漕东支路1-5号"},{"poiid":"B2094655D268A4F5479C","title":"漕溪三村小区北区","lon":"121.437615","lat":"31.170355","category":"47","category_name":"住宅区","address":"漕河泾镇"},{"poiid":"B2094757D16FA5F4419A","title":"事故多发地段","lon":"121.43975067","lat":"31.170680999","category":"902","category_name":"楼宇机构","address":"上海沪闵路高架"},{"poiid":"B2094654DA6DA1F5429F","title":"金衡公寓","lon":"121.43622","lat":"31.17407","category":"47","category_name":"住宅区","address":"上海市徐汇区漕东路286号"},{"poiid":"B2094654DA6DA1F9409E","title":"宏伟阁","lon":"121.44034","lat":"31.169998","category":"47","category_name":"住宅区","address":"上海龙漕路145号"},{"poiid":"B2094757D065A0FF4892","title":"春草堂足疗(龙漕店)","lon":"121.44092","lat":"31.1713","category":"149","category_name":"洗浴推拿场所","address":"徐汇区漕溪四村12号"},{"poiid":"B2094654DB6BA5F8479B","title":"佳信徐汇公寓(西2门)","lon":"121.43766","lat":"31.17247","category":"47","category_name":"住宅区","address":"漕东支路111"},{"poiid":"B2094750DA6FA6F8449B","title":"老蔡摄影","lon":"121.43548589947511","lat":"31.16994393973088","category":"611","category_name":"照相馆","address":"徐汇区望族城4号1503室"},{"poiid":"B2094757D16FA2F4409F","title":"国兴宠物医院(徐汇分院)","lon":"121.44002","lat":"31.17304","category":"162","category_name":"医院","address":"上海徐汇区田东路392号  "},{"poiid":"B2094654DA6DA1F44892","title":"华联水果大卖场","lon":"121.43796","lat":"31.17347","category":"117","category_name":"便民商店/便利店","address":"漕东路209号"},{"poiid":"B2094655D268A7F84392","title":"康健路43弄小区","lon":"121.437432","lat":"31.173046","category":"47","category_name":"住宅区","address":"康健路43弄1-14号"},{"poiid":"B2094757D568A7FD4193","title":"朱记菜饭骨头汤","lon":"121.4360369","lat":"31.17435083","category":"68","category_name":"快餐厅","address":"徐汇区田东路416号(近漕溪路)"},{"poiid":"B2094654DA6DA1FA439B","title":"凯翔小区(西门)","lon":"121.4382","lat":"31.17008","category":"47","category_name":"住宅区","address":""},{"poiid":"B2094655D36CA3F9439E","title":"兆嘉园(东门)","lon":"121.44021","lat":"31.17209","category":"47","category_name":"住宅区","address":""},{"poiid":"B2094757D06FA5F9479A","title":"漕溪公园","lon":"121.435923354","lat":"31.1717042748","category":"196","category_name":"公园","address":"徐汇区漕溪路203号(近田林东路)"},{"poiid":"B2094757D068A6FE4392","title":"宏润国际花园","lon":"121.439842998","lat":"31.1738835497","category":"47","category_name":"住宅区","address":"上海田东路258弄"},{"poiid":"B2094757D16BAAF84499","title":"虹橋火車站動車和諧號","lon":"121.440905586","lat":"31.1722102969","category":"500","category_name":"未知分类","address":"上海虹橋火車站"},{"poiid":"B2094757D56CA6FE4693","title":"望族楼","lon":"121.43669207282","lat":"31.170843613437","category":"77","category_name":"湖南菜","address":"徐汇区漕溪路251弄望族城5号102室(近漕宝路)"},{"poiid":"B2094757D06AABFA489B","title":"徐汇职业高级中学","lon":"121.43834","lat":"31.17182","category":"52","category_name":"高等院校","address":"徐汇区漕东支路101号(近龙漕路)"},{"poiid":"B2094757D065A4FB429B","title":"卢大姐四川简阳羊肉汤","lon":"121.436490586","lat":"31.1694412428","category":"71","category_name":"四川菜","address":"徐汇区龙漕路63号(近漕溪路)"},{"poiid":"B2094654DA6DA1F9449F","title":"广明牛肉","lon":"121.43573406628","lat":"31.168551302981","category":"86","category_name":"火锅店","address":"徐汇区龙漕路67号(近漕宝路)"},{"poiid":"B2094655D26FA7F54099","title":"漕溪四村","lon":"121.44029","lat":"31.170727","category":"47","category_name":"住宅区","address":"田东路78号"},{"poiid":"B2094654DA6DA1F4419B","title":"漕溪二村","lon":"121.43728","lat":"31.171253","category":"47","category_name":"住宅区","address":"漕东路100号"},{"poiid":"B2094654DA6DA1F9409D","title":"凯翔小区","lon":"121.43934","lat":"31.170198","category":"47","category_name":"住宅区","address":"龙漕路135弄"},{"poiid":"B2094757D66AA6FB489C","title":"忠义新香辣 田东店","lon":"121.44088288648","lat":"31.16982342958","category":"71","category_name":"四川菜","address":"徐汇区田东路3号(近龙漕路)"},{"poiid":"B2094655D264A2FB4899","title":"上海望族城5号楼","lon":"121.43573","lat":"31.17041","category":"46","category_name":"楼宇","address":"漕溪路251弄5"},{"poiid":"B2094654DB65A1FA429C","title":"香江小厨","lon":"121.438135054","lat":"31.169062793","category":"76","category_name":"上海菜","address":"徐汇区漕东支路1弄8号(近龙漕路)"},{"poiid":"B2094655D268A0FC4198","title":"现代商务中心","lon":"121.43743","lat":"31.1694","category":"46","category_name":"楼宇","address":"徐汇区田林路300号"},{"poiid":"B2094752D364A3FB489A","title":"润苑","lon":"121.43975","lat":"31.17404","category":"47","category_name":"住宅区","address":"徐汇区田东路258弄-4号(宏润花园旁)"},{"poiid":"B2094654DA6DA1F44399","title":"佳信徐汇公寓","lon":"121.43832","lat":"31.172869","category":"47","category_name":"住宅区","address":"漕东支路111弄"},{"poiid":"B2094654DA6DA1F4409D","title":"汉城石锅拌饭","lon":"121.437233054","lat":"31.172811793","category":"68","category_name":"快餐厅","address":"徐汇区漕东支路108号(近漕东路)"},{"poiid":"B2094654DA6DA1FA439F","title":"凯诚商务大厦","lon":"121.43902","lat":"31.17091","category":"46","category_name":"楼宇","address":"龙漕路135弄8号"},{"poiid":"B2094654DA6DA1FA409A","title":"春光饭店","lon":"121.434820054","lat":"31.170345793","category":"71","category_name":"四川菜","address":"徐汇区漕东三路28号(近漕溪路)"},{"poiid":"B2094654DB69A5F5409F","title":"避风塘(漕溪店)","lon":"121.43579","lat":"31.16936","category":"66","category_name":"茶艺馆","address":"徐汇区漕溪路121号(近中山西路)"},{"poiid":"B2094655D264A1F8439E","title":"村夫烤鱼龙漕路店","lon":"121.43727","lat":"31.16893","category":"68","category_name":"快餐厅","address":"徐汇区龙漕路61号(近漕溪路)"},{"poiid":"B2094655D26BA3F5439D","title":"银星名庭","lon":"121.43723","lat":"31.169052","category":"47","category_name":"住宅区","address":"上海市徐汇区龙漕路51弄"},{"poiid":"B2094757D064A1F5449F","title":"天下壹福海鲜酒楼","lon":"121.439842","lat":"31.173884","category":"72","category_name":"广东菜","address":"徐汇区田东路258弄4号宏润会所(近漕溪路预计10月份营业)"},{"poiid":"B2094654DA6DA1F4429A","title":"上海市徐汇职业高级中学(漕东支路)","lon":"121.43826","lat":"31.17223","category":"54","category_name":"职业技术学校","address":"漕东支路101"},{"poiid":"B2094757D464AAF9449C","title":"吉祥馄饨 龙漕路店 Gll Wonton","lon":"121.437451054","lat":"31.168520793","category":"68","category_name":"快餐厅","address":"徐汇区龙漕路50号(近地铁漕宝路站4号口)"},{"poiid":"B2094654DA6DA1F4439C","title":"哈尔滨小吃","lon":"121.43744954165","lat":"31.173411648653","category":"82","category_name":"东北菜","address":"徐汇区漕东支路(近田东路)"},{"poiid":"B2094654DB6BA5F8459C","title":"科汇景苑","lon":"121.43967","lat":"31.172112","category":"47","category_name":"住宅区","address":"上海市徐汇区田东路75号"},{"poiid":"B2094654DB65A6FD4793","title":"兆嘉园田东路","lon":"121.4399","lat":"31.17143","category":"47","category_name":"住宅区","address":""},{"poiid":"B2094655D26BABFE489F","title":"康惠花苑","lon":"121.44","lat":"31.1714","category":"47","category_name":"住宅区","address":"上海市徐汇区康健路16弄"},{"poiid":"B2094654DB65A6F44392","title":"永琪美容美发","lon":"121.4379","lat":"31.17446","category":"148","category_name":"美容美发店","address":"徐汇区田东路330号(近漕溪路)"},{"poiid":"B2094654DA6DA1FA419A","title":"好德便利No.686","lon":"121.43783","lat":"31.1702","category":"117","category_name":"便民商店/便利店","address":"漕河泾镇"},{"poiid":"B2094655D268A4F5479A","title":"漕溪二村(边门)","lon":"121.43749","lat":"31.17168","category":"47","category_name":"住宅区","address":"漕河泾镇"},{"poiid":"B2094654DA6DA1F84398","title":"宏润国际会所","lon":"121.43972","lat":"31.17394","category":"149","category_name":"洗浴推拿场所","address":"徐汇区田东路258弄4号(近漕溪路)"},{"poiid":"B2094655D265A4FF489B","title":"漕溪二村30号小区","lon":"121.43742","lat":"31.17106","category":"47","category_name":"住宅区","address":""},{"poiid":"B2094654DA6DA1F9459A","title":"金海大厦","lon":"121.43687","lat":"31.169207","category":"47","category_name":"住宅区","address":"龙漕路51弄1号"},{"poiid":"B2094654DA6DA1F84599","title":"华南公寓","lon":"121.44097","lat":"31.171789","category":"47","category_name":"住宅区","address":"上海市徐汇区田东路70弄"},{"poiid":"B2094654DB65A4FC4999","title":"凯翔商务中心","lon":"121.43838","lat":"31.16954","category":"46","category_name":"楼宇","address":"漕东支路1-5号"},{"poiid":"B2094655D268A4F5479C","title":"漕溪三村小区北区","lon":"121.437615","lat":"31.170355","category":"47","category_name":"住宅区","address":"漕河泾镇"},{"poiid":"B2094757D16FA5F4419A","title":"事故多发地段","lon":"121.43975067","lat":"31.170680999","category":"902","category_name":"楼宇机构","address":"上海沪闵路高架"},{"poiid":"B2094654DA6DA1F5429F","title":"金衡公寓","lon":"121.43622","lat":"31.17407","category":"47","category_name":"住宅区","address":"上海市徐汇区漕东路286号"},{"poiid":"B2094654DA6DA1F9409E","title":"宏伟阁","lon":"121.44034","lat":"31.169998","category":"47","category_name":"住宅区","address":"上海龙漕路145号"},{"poiid":"B2094757D065A0FF4892","title":"春草堂足疗(龙漕店)","lon":"121.44092","lat":"31.1713","category":"149","category_name":"洗浴推拿场所","address":"徐汇区漕溪四村12号"},{"poiid":"B2094654DB6BA5F8479B","title":"佳信徐汇公寓(西2门)","lon":"121.43766","lat":"31.17247","category":"47","category_name":"住宅区","address":"漕东支路111"},{"poiid":"B2094750DA6FA6F8449B","title":"老蔡摄影","lon":"121.43548589947511","lat":"31.16994393973088","category":"611","category_name":"照相馆","address":"徐汇区望族城4号1503室"},{"poiid":"B2094757D16FA2F4409F","title":"国兴宠物医院(徐汇分院)","lon":"121.44002","lat":"31.17304","category":"162","category_name":"医院","address":"上海徐汇区田东路392号  "},{"poiid":"B2094654DA6DA1F44892","title":"华联水果大卖场","lon":"121.43796","lat":"31.17347","category":"117","category_name":"便民商店/便利店","address":"漕东路209号"},{"poiid":"B2094655D268A7F84392","title":"康健路43弄小区","lon":"121.437432","lat":"31.173046","category":"47","category_name":"住宅区","address":"康健路43弄1-14号"},{"poiid":"B2094757D568A7FD4193","title":"朱记菜饭骨头汤","lon":"121.4360369","lat":"31.17435083","category":"68","category_name":"快餐厅","address":"徐汇区田东路416号(近漕溪路)"},{"poiid":"B2094654DA6DA1FA439B","title":"凯翔小区(西门)","lon":"121.4382","lat":"31.17008","category":"47","category_name":"住宅区","address":""},{"poiid":"B2094655D36CA3F9439E","title":"兆嘉园(东门)","lon":"121.44021","lat":"31.17209","category":"47","category_name":"住宅区","address":""},{"poiid":"B2094757D06FA5F9479A","title":"漕溪公园","lon":"121.435923354","lat":"31.1717042748","category":"196","category_name":"公园","address":"徐汇区漕溪路203号(近田林东路)"},{"poiid":"B2094757D068A6FE4392","title":"宏润国际花园","lon":"121.439842998","lat":"31.1738835497","category":"47","category_name":"住宅区","address":"上海田东路258弄"},{"poiid":"B2094757D16BAAF84499","title":"虹橋火車站動車和諧號","lon":"121.440905586","lat":"31.1722102969","category":"500","category_name":"未知分类","address":"上海虹橋火車站"},{"poiid":"B2094757D56CA6FE4693","title":"望族楼","lon":"121.43669207282","lat":"31.170843613437","category":"77","category_name":"湖南菜","address":"徐汇区漕溪路251弄望族城5号102室(近漕宝路)"},{"poiid":"B2094757D06AABFA489B","title":"徐汇职业高级中学","lon":"121.43834","lat":"31.17182","category":"52","category_name":"高等院校","address":"徐汇区漕东支路101号(近龙漕路)"},{"poiid":"B2094757D065A4FB429B","title":"卢大姐四川简阳羊肉汤","lon":"121.436490586","lat":"31.1694412428","category":"71","category_name":"四川菜","address":"徐汇区龙漕路63号(近漕溪路)"},{"poiid":"B2094654DA6DA1F9449F","title":"广明牛肉","lon":"121.43573406628","lat":"31.168551302981","category":"86","category_name":"火锅店","address":"徐汇区龙漕路67号(近漕宝路)"},{"poiid":"B2094655D26FA7F54099","title":"漕溪四村","lon":"121.44029","lat":"31.170727","category":"47","category_name":"住宅区","address":"田东路78号"},{"poiid":"B2094654DA6DA1F4419B","title":"漕溪二村","lon":"121.43728","lat":"31.171253","category":"47","category_name":"住宅区","address":"漕东路100号"},{"poiid":"B2094654DA6DA1F9409D","title":"凯翔小区","lon":"121.43934","lat":"31.170198","category":"47","category_name":"住宅区","address":"龙漕路135弄"},{"poiid":"B2094757D66AA6FB489C","title":"忠义新香辣 田东店","lon":"121.44088288648","lat":"31.16982342958","category":"71","category_name":"四川菜","address":"徐汇区田东路3号(近龙漕路)"},{"poiid":"B2094655D264A2FB4899","title":"上海望族城5号楼","lon":"121.43573","lat":"31.17041","category":"46","category_name":"楼宇","address":"漕溪路251弄5"},{"poiid":"B2094654DB65A1FA429C","title":"香江小厨","lon":"121.438135054","lat":"31.169062793","category":"76","category_name":"上海菜","address":"徐汇区漕东支路1弄8号(近龙漕路)"},{"poiid":"B2094655D268A0FC4198","title":"现代商务中心","lon":"121.43743","lat":"31.1694","category":"46","category_name":"楼宇","address":"徐汇区田林路300号"},{"poiid":"B2094752D364A3FB489A","title":"润苑","lon":"121.43975","lat":"31.17404","category":"47","category_name":"住宅区","address":"徐汇区田东路258弄-4号(宏润花园旁)"},{"poiid":"B2094654DA6DA1F44399","title":"佳信徐汇公寓","lon":"121.43832","lat":"31.172869","category":"47","category_name":"住宅区","address":"漕东支路111弄"},{"poiid":"B2094654DA6DA1F4409D","title":"汉城石锅拌饭","lon":"121.437233054","lat":"31.172811793","category":"68","category_name":"快餐厅","address":"徐汇区漕东支路108号(近漕东路)"},{"poiid":"B2094654DA6DA1FA439F","title":"凯诚商务大厦","lon":"121.43902","lat":"31.17091","category":"46","category_name":"楼宇","address":"龙漕路135弄8号"},{"poiid":"B2094654DA6DA1FA409A","title":"春光饭店","lon":"121.434820054","lat":"31.170345793","category":"71","category_name":"四川菜","address":"徐汇区漕东三路28号(近漕溪路)"},{"poiid":"B2094654DB69A5F5409F","title":"避风塘(漕溪店)","lon":"121.43579","lat":"31.16936","category":"66","category_name":"茶艺馆","address":"徐汇区漕溪路121号(近中山西路)"},{"poiid":"B2094655D264A1F8439E","title":"村夫烤鱼龙漕路店","lon":"121.43727","lat":"31.16893","category":"68","category_name":"快餐厅","address":"徐汇区龙漕路61号(近漕溪路)"},{"poiid":"B2094655D26BA3F5439D","title":"银星名庭","lon":"121.43723","lat":"31.169052","category":"47","category_name":"住宅区","address":"上海市徐汇区龙漕路51弄"},{"poiid":"B2094757D064A1F5449F","title":"天下壹福海鲜酒楼","lon":"121.439842","lat":"31.173884","category":"72","category_name":"广东菜","address":"徐汇区田东路258弄4号宏润会所(近漕溪路预计10月份营业)"},{"poiid":"B2094654DA6DA1F4429A","title":"上海市徐汇职业高级中学(漕东支路)","lon":"121.43826","lat":"31.17223","category":"54","category_name":"职业技术学校","address":"漕东支路101"},{"poiid":"B2094757D464AAF9449C","title":"吉祥馄饨 龙漕路店 Gll Wonton","lon":"121.437451054","lat":"31.168520793","category":"68","category_name":"快餐厅","address":"徐汇区龙漕路50号(近地铁漕宝路站4号口)"},{"poiid":"B2094654DA6DA1F4439C","title":"哈尔滨小吃","lon":"121.43744954165","lat":"31.173411648653","category":"82","category_name":"东北菜","address":"徐汇区漕东支路(近田东路)"},{"poiid":"B2094654DB6BA5F8459C","title":"科汇景苑","lon":"121.43967","lat":"31.172112","category":"47","category_name":"住宅区","address":"上海市徐汇区田东路75号"},{"poiid":"B2094654DB65A6FD4793","title":"兆嘉园田东路","lon":"121.4399","lat":"31.17143","category":"47","category_name":"住宅区","address":""},{"poiid":"B2094655D26BABFE489F","title":"康惠花苑","lon":"121.44","lat":"31.1714","category":"47","category_name":"住宅区","address":"上海市徐汇区康健路16弄"},{"poiid":"B2094654DB65A6F44392","title":"永琪美容美发","lon":"121.4379","lat":"31.17446","category":"148","category_name":"美容美发店","address":"徐汇区田东路330号(近漕溪路)"},{"poiid":"B2094654DA6DA1FA419A","title":"好德便利No.686","lon":"121.43783","lat":"31.1702","category":"117","category_name":"便民商店/便利店","address":"漕河泾镇"},{"poiid":"B2094655D268A4F5479A","title":"漕溪二村(边门)","lon":"121.43749","lat":"31.17168","category":"47","category_name":"住宅区","address":"漕河泾镇"},{"poiid":"B2094654DA6DA1F84398","title":"宏润国际会所","lon":"121.43972","lat":"31.17394","category":"149","category_name":"洗浴推拿场所","address":"徐汇区田东路258弄4号(近漕溪路)"},{"poiid":"B2094655D265A4FF489B","title":"漕溪二村30号小区","lon":"121.43742","lat":"31.17106","category":"47","category_name":"住宅区","address":""},{"poiid":"B2094654DA6DA1F9459A","title":"金海大厦","lon":"121.43687","lat":"31.169207","category":"47","category_name":"住宅区","address":"龙漕路51弄1号"},{"poiid":"B2094654DA6DA1F84599","title":"华南公寓","lon":"121.44097","lat":"31.171789","category":"47","category_name":"住宅区","address":"上海市徐汇区田东路70弄"},{"poiid":"B2094654DB65A4FC4999","title":"凯翔商务中心","lon":"121.43838","lat":"31.16954","category":"46","category_name":"楼宇","address":"漕东支路1-5号"},{"poiid":"B2094655D268A4F5479C","title":"漕溪三村小区北区","lon":"121.437615","lat":"31.170355","category":"47","category_name":"住宅区","address":"漕河泾镇"},{"poiid":"B2094757D16FA5F4419A","title":"事故多发地段","lon":"121.43975067","lat":"31.170680999","category":"902","category_name":"楼宇机构","address":"上海沪闵路高架"},{"poiid":"B2094654DA6DA1F5429F","title":"金衡公寓","lon":"121.43622","lat":"31.17407","category":"47","category_name":"住宅区","address":"上海市徐汇区漕东路286号"},{"poiid":"B2094654DA6DA1F9409E","title":"宏伟阁","lon":"121.44034","lat":"31.169998","category":"47","category_name":"住宅区","address":"上海龙漕路145号"},{"poiid":"B2094757D065A0FF4892","title":"春草堂足疗(龙漕店)","lon":"121.44092","lat":"31.1713","category":"149","category_name":"洗浴推拿场所","address":"徐汇区漕溪四村12号"},{"poiid":"B2094654DB6BA5F8479B","title":"佳信徐汇公寓(西2门)","lon":"121.43766","lat":"31.17247","category":"47","category_name":"住宅区","address":"漕东支路111"},{"poiid":"B2094750DA6FA6F8449B","title":"老蔡摄影","lon":"121.43548589947511","lat":"31.16994393973088","category":"611","category_name":"照相馆","address":"徐汇区望族城4号1503室"},{"poiid":"B2094757D16FA2F4409F","title":"国兴宠物医院(徐汇分院)","lon":"121.44002","lat":"31.17304","category":"162","category_name":"医院","address":"上海徐汇区田东路392号  "},{"poiid":"B2094654DA6DA1F44892","title":"华联水果大卖场","lon":"121.43796","lat":"31.17347","category":"117","category_name":"便民商店/便利店","address":"漕东路209号"},{"poiid":"B2094655D268A7F84392","title":"康健路43弄小区","lon":"121.437432","lat":"31.173046","category":"47","category_name":"住宅区","address":"康健路43弄1-14号"},{"poiid":"B2094757D568A7FD4193","title":"朱记菜饭骨头汤","lon":"121.4360369","lat":"31.17435083","category":"68","category_name":"快餐厅","address":"徐汇区田东路416号(近漕溪路)"},{"poiid":"B2094654DA6DA1FA439B","title":"凯翔小区(西门)","lon":"121.4382","lat":"31.17008","category":"47","category_name":"住宅区","address":""},{"poiid":"B2094655D36CA3F9439E","title":"兆嘉园(东门)","lon":"121.44021","lat":"31.17209","category":"47","category_name":"住宅区","address":""}]