[{"poiid":"B2094757D06BA5FD409D","title":"建平世纪中学","lon":"121.54689","lat":"31.20865","category":"55","category_name":"中学","address":"浦东新区玉兰路356号(梅花路口)"},{"poiid":"B2094757D06FA5FC439D","title":"花木苑","lon":"121.54359","lat":"31.2104","category":"47","category_name":"住宅区","address":"花木路500弄1-160号"},{"poiid":"B2094757D06BA1F8439F","title":"花木社区文化中心","lon":"121.54376973","lat":"31.20864984","category":"500","category_name":"未知分类","address":"上海市浦东新区梅花路281号"},{"poiid":"B2094757D06AABFC409A","title":"锦江之星(花木店)","lon":"121.54053","lat":"31.20684","category":"216","category_name":"经济型连锁酒店","address":"上海浦东新区浦建路1121号(锦绣路口)"},{"poiid":"B2094757D06FAAFC489A","title":"东昌别克上海陆家嘴店","lon":"121.5433428","lat":"31.2050985","category":"158","category_name":"汽车销售","address":"上海浦东新区浦建路1281-1285号"},{"poiid":"B2094655D265A2FE429F","title":"花木玉兰广场","lon":"121.54754","lat":"31.20687","category":"201","category_name":"城市广场","address":""},{"poiid":"B2094750D36BA5FC4499","title":"极乐汤碧云温泉馆","lon":"121.600574","lat":"31.250259","category":"250","category_name":"公园户外","address":"上海市新金桥路600号（靠近金藏路）"},{"poiid":"B2094750D669A2FF409B","title":"大饭堂花木店","lon":"121.543617","lat":"31.206312","category":"76","category_name":"上海菜","address":"浦东新区浦建路1207号(近锦绣路)"},{"poiid":"B2094654DA69A2F8499C","title":"上海大众汽车东昌销售服务有限公司","lon":"121.54382","lat":"31.20529","category":"158","category_name":"汽车销售","address":"浦东新区浦建路1289号(近樱花路)"},{"poiid":"B2094752D269A2FD4298","title":"大饭堂","lon":"121.54233","lat":"31.205898","category":"247","category_name":"餐饮美食","address":"浦建路"},{"poiid":"B2094757D06AA5F44392","title":"上海东昌一汽丰田特约店","lon":"121.544039","lat":"31.204762","category":"500","category_name":"未知分类","address":"上海浦建路1317号"},{"poiid":"B2094757DA69A2FB4192","title":"永恒之塔游戏官博","lon":"121.54775","lat":"31.20623","category":"634","category_name":"IT类公司","address":"上海市碧波路690号"},{"poiid":"B2094655D264A2FA469A","title":"潮州汤骨煲 玉兰路店","lon":"121.54633","lat":"31.20763","category":"86","category_name":"火锅店","address":"浦东新区玉兰路303号(近梅花路)"},{"poiid":"B2094654DA69A2F84193","title":"克莉丝汀 玉兰店","lon":"121.544663054","lat":"31.206323793","category":"112","category_name":"糕饼店","address":"浦东新区牡丹路147号(近浦建路)"},{"poiid":"B2094654DB64A7F9429E","title":"锦江大厨","lon":"121.54091","lat":"31.20739","category":"76","category_name":"上海菜","address":"浦东新区浦建路1121号(锦绣路口)"},{"poiid":"B2094655D26BA1FA4392","title":"梅花路玉兰路","lon":"121.54546","lat":"31.20824","category":"38","category_name":"公交车站","address":""},{"poiid":"B2094757D06AA6FF4199","title":"湘霸王土菜馆 浦东店","lon":"121.54832332594","lat":"31.209045291263","category":"77","category_name":"湖南菜","address":"浦东新区梅花路601号(近海桐路)"},{"poiid":"B2094757D16CA0FE4798","title":"建平世纪中学羽毛球馆","lon":"121.54632","lat":"31.2087","category":"220","category_name":"运动场所","address":"上海浦东新区玉兰路356号(梅花路口)  "},{"poiid":"B2094655D26DA7F9439A","title":"牡丹小区北门","lon":"121.54463","lat":"31.20804","category":"47","category_name":"住宅区","address":"花木镇"},{"poiid":"B2094654DB6BAAFC429C","title":"文峰美发美容","lon":"121.54473","lat":"31.2084","category":"148","category_name":"美容美发店","address":"上海市浦东新区梅花路351号(近锦绣路)"},{"poiid":"B2094757DA69A3F5499F","title":"卓美亚喜玛拉雅酒店","lon":"121.54775","lat":"31.20623","category":"604","category_name":"旅游咨询","address":"梅花路1108号(近芳甸路)"},{"poiid":"B2094655D36DA0FB449F","title":"樱花路浦建路","lon":"121.54497","lat":"31.20613","category":"38","category_name":"公交车站","address":""},{"poiid":"B2094757D16BA0F5419B","title":"东城家园某门","lon":"121.544485338","lat":"31.2072449104","category":"47","category_name":"住宅区","address":"上海浦东新区浦建路1508号"},{"poiid":"B2094655D26EA3FF429C","title":"牡丹苑","lon":"121.54291","lat":"31.206867","category":"47","category_name":"住宅区","address":"牡丹路89弄"},{"poiid":"B2094654DA69A2FF479A","title":"中国电信梅花路营业厅","lon":"121.54492","lat":"31.2084","category":"151","category_name":"电讯营业厅","address":"上海梅花路359号"},{"poiid":"B2094654DA69A2F8429A","title":"永琪美容美发(牡丹路)","lon":"121.54547","lat":"31.20651","category":"148","category_name":"美容美发店","address":"牡丹路131"},{"poiid":"B2094757DA69A2FA459C","title":"citysuperSH","lon":"121.54775","lat":"31.20623","category":"119","category_name":"商场","address":"世纪大道 国金中心 LG2"},{"poiid":"B2094757D068A5FD469C","title":"绍兴饭店(牡丹路店)","lon":"121.54452","lat":"31.20521","category":"75","category_name":"浙江菜","address":"上海浦东新区牡丹路60号(近浦建路)  "},{"poiid":"B2094757D468A5F54899","title":"湖南风味米粉 牡丹路店","lon":"121.543837","lat":"31.205842","category":"68","category_name":"快餐厅","address":"浦东新区花木镇牡丹路117号"},{"poiid":"B2094654DA69A2F8439D","title":"牡丹苑(东门)","lon":"121.54406","lat":"31.2068","category":"47","category_name":"住宅区","address":"牡丹路89弄"},{"poiid":"B2094757D16CABF54792","title":"多凌茶楼","lon":"121.5445","lat":"31.20532","category":"72","category_name":"广东菜","address":"浦东新区牡丹路60号东辰大厦22楼(牡丹路浦建路)"},{"poiid":"B2094655D268A3FC4293","title":"牡丹路165弄小区","lon":"121.54595","lat":"31.20727","category":"47","category_name":"住宅区","address":"牡丹路165弄"},{"poiid":"B2094757D164ABF8429C","title":"如家快捷酒店餐厅(世纪公园店)","lon":"121.54094","lat":"31.20593","category":"76","category_name":"上海菜","address":"浦东新区浦建路1151号(锦绣路浦建路)"},{"poiid":"B2094655D268A3FC439A","title":"人口文化科普街","lon":"121.54353","lat":"31.20816","category":"196","category_name":"公园","address":""},{"poiid":"B2094654DB6BAAFC4293","title":"上海市建平世纪中学西门","lon":"121.54589","lat":"31.20891","category":"55","category_name":"中学","address":"玉兰路356"},{"poiid":"B2094757DA69A3F44799","title":"龙之谷官方微博","lon":"121.54775","lat":"31.20623","category":"634","category_name":"IT类公司","address":"碧波路690号1号楼"},{"poiid":"B2094655D268A3FC429B","title":"花木派出所","lon":"121.54245","lat":"31.20351","category":"609","category_name":"警察局","address":"浦建路1207"},{"poiid":"B2094654DA69A2F8409C","title":"快客(牡丹路)","lon":"121.54635","lat":"31.20694","category":"117","category_name":"便民商店/便利店","address":"浦东新区牡丹路175号(近浦建路)"},{"poiid":"B2094655D26FAAFA4099","title":"东港乐特色快餐No.72","lon":"121.54504","lat":"31.20632","category":"68","category_name":"快餐厅","address":"浦东新区牡丹路106号(近玉兰路)"},{"poiid":"B2094654DA69A2FF479B","title":"花木工商所","lon":"121.54409","lat":"31.20845","category":"250","category_name":"公园户外","address":"浦东新区梅花路333"},{"poiid":"B2094655D26DAAF84799","title":"浦东新区花木街道图书馆","lon":"121.54343","lat":"31.20889","category":"181","category_name":"图书馆","address":"梅花路291"},{"poiid":"B2094757DA69A3F4429A","title":"1号店","lon":"121.54775","lat":"31.20623","category":"630","category_name":"电子商务公司","address":"祖冲之路295号"},{"poiid":"B2094655D268A3FC4292","title":"牡丹路165弄小区(南门)","lon":"121.54625","lat":"31.20693","category":"47","category_name":"住宅区","address":"牡丹路165弄"},{"poiid":"B2094757D469A5F9499A","title":"凯司令西点房 东建路店","lon":"121.5436339","lat":"31.2041368","category":"67","category_name":"甜品店","address":"浦东新区东建路927-2号(近浦建路)"},{"poiid":"B2094654DA69A2FA4299","title":"互欣商务酒店","lon":"121.54125","lat":"31.20725","category":"214","category_name":"四星级宾馆","address":"浦东新区浦建路1143号(近锦绣路)"},{"poiid":"B2094654DB69AAF9479F","title":"浦东新区花木镇花木街道","lon":"121.54775","lat":"31.20623","category":"116","category_name":"特色商业街","address":"浦东新区玉兰路218号"},{"poiid":"B2094655D26FAAF94992","title":"牡丹路186弄小区(北门)","lon":"121.54653","lat":"31.20661","category":"47","category_name":"住宅区","address":"牡丹路186弄1-23号"},{"poiid":"B2094655D36DA0FB449C","title":"樱花路玉兰路","lon":"121.54938","lat":"31.20593","category":"38","category_name":"公交车站","address":""},{"poiid":"B2094654DA69A2F94298","title":"华氏玉兰大药房","lon":"121.54672","lat":"31.20759","category":"162","category_name":"医院","address":"玉兰路292-294"},{"poiid":"B2094655D26FAAFE4893","title":"东辰大厦(北一号门)","lon":"121.54441","lat":"31.20571","category":"49","category_name":"无中心点楼宇大门","address":"牡丹路60号"},{"poiid":"B2094757D06BA5FD409D","title":"建平世纪中学","lon":"121.54689","lat":"31.20865","category":"55","category_name":"中学","address":"浦东新区玉兰路356号(梅花路口)"},{"poiid":"B2094757D06FA5FC439D","title":"花木苑","lon":"121.54359","lat":"31.2104","category":"47","category_name":"住宅区","address":"花木路500弄1-160号"},{"poiid":"B2094757D06BA1F8439F","title":"花木社区文化中心","lon":"121.54376973","lat":"31.20864984","category":"500","category_name":"未知分类","address":"上海市浦东新区梅花路281号"},{"poiid":"B2094757D06AABFC409A","title":"锦江之星(花木店)","lon":"121.54053","lat":"31.20684","category":"216","category_name":"经济型连锁酒店","address":"上海浦东新区浦建路1121号(锦绣路口)"},{"poiid":"B2094757D06FAAFC489A","title":"东昌别克上海陆家嘴店","lon":"121.5433428","lat":"31.2050985","category":"158","category_name":"汽车销售","address":"上海浦东新区浦建路1281-1285号"},{"poiid":"B2094655D265A2FE429F","title":"花木玉兰广场","lon":"121.54754","lat":"31.20687","category":"201","category_name":"城市广场","address":""},{"poiid":"B2094750D36BA5FC4499","title":"极乐汤碧云温泉馆","lon":"121.600574","lat":"31.250259","category":"250","category_name":"公园户外","address":"上海市新金桥路600号（靠近金藏路）"},{"poiid":"B2094750D669A2FF409B","title":"大饭堂花木店","lon":"121.543617","lat":"31.206312","category":"76","category_name":"上海菜","address":"浦东新区浦建路1207号(近锦绣路)"},{"poiid":"B2094654DA69A2F8499C","title":"上海大众汽车东昌销售服务有限公司","lon":"121.54382","lat":"31.20529","category":"158","category_name":"汽车销售","address":"浦东新区浦建路1289号(近樱花路)"},{"poiid":"B2094752D269A2FD4298","title":"大饭堂","lon":"121.54233","lat":"31.205898","category":"247","category_name":"餐饮美食","address":"浦建路"},{"poiid":"B2094757D06AA5F44392","title":"上海东昌一汽丰田特约店","lon":"121.544039","lat":"31.204762","category":"500","category_name":"未知分类","address":"上海浦建路1317号"},{"poiid":"B2094757DA69A2FB4192","title":"永恒之塔游戏官博","lon":"121.54775","lat":"31.20623","category":"634","category_name":"IT类公司","address":"上海市碧波路690号"},{"poiid":"B2094655D264A2FA469A","title":"潮州汤骨煲 玉兰路店","lon":"121.54633","lat":"31.20763","category":"86","category_name":"火锅店","address":"浦东新区玉兰路303号(近梅花路)"},{"poiid":"B2094654DA69A2F84193","title":"克莉丝汀 玉兰店","lon":"121.544663054","lat":"31.206323793","category":"112","category_name":"糕饼店","address":"浦东新区牡丹路147号(近浦建路)"},{"poiid":"B2094654DB64A7F9429E","title":"锦江大厨","lon":"121.54091","lat":"31.20739","category":"76","category_name":"上海菜","address":"浦东新区浦建路1121号(锦绣路口)"},{"poiid":"B2094655D26BA1FA4392","title":"梅花路玉兰路","lon":"121.54546","lat":"31.20824","category":"38","category_name":"公交车站","address":""},{"poiid":"B2094757D06AA6FF4199","title":"湘霸王土菜馆 浦东店","lon":"121.54832332594","lat":"31.209045291263","category":"77","category_name":"湖南菜","address":"浦东新区梅花路601号(近海桐路)"},{"poiid":"B2094757D16CA0FE4798","title":"建平世纪中学羽毛球馆","lon":"121.54632","lat":"31.2087","category":"220","category_name":"运动场所","address":"上海浦东新区玉兰路356号(梅花路口)  "},{"poiid":"B2094655D26DA7F9439A","title":"牡丹小区北门","lon":"121.54463","lat":"31.20804","category":"47","category_name":"住宅区","address":"花木镇"},{"poiid":"B2094654DB6BAAFC429C","title":"文峰美发美容","lon":"121.54473","lat":"31.2084","category":"148","category_name":"美容美发店","address":"上海市浦东新区梅花路351号(近锦绣路)"},{"poiid":"B2094757DA69A3F5499F","title":"卓美亚喜玛拉雅酒店","lon":"121.54775","lat":"31.20623","category":"604","category_name":"旅游咨询","address":"梅花路1108号(近芳甸路)"},{"poiid":"B2094655D36DA0FB449F","title":"樱花路浦建路","lon":"121.54497","lat":"31.20613","category":"38","category_name":"公交车站","address":""},{"poiid":"B2094757D16BA0F5419B","title":"东城家园某门","lon":"121.544485338","lat":"31.2072449104","category":"47","category_name":"住宅区","address":"上海浦东新区浦建路1508号"},{"poiid":"B2094655D26EA3FF429C","title":"牡丹苑","lon":"121.54291","lat":"31.206867","category":"47","category_name":"住宅区","address":"牡丹路89弄"},{"poiid":"B2094654DA69A2FF479A","title":"中国电信梅花路营业厅","lon":"121.54492","lat":"31.2084","category":"151","category_name":"电讯营业厅","address":"上海梅花路359号"},{"poiid":"B2094654DA69A2F8429A","title":"永琪美容美发(牡丹路)","lon":"121.54547","lat":"31.20651","category":"148","category_name":"美容美发店","address":"牡丹路131"},{"poiid":"B2094757DA69A2FA459C","title":"citysuperSH","lon":"121.54775","lat":"31.20623","category":"119","category_name":"商场","address":"世纪大道 国金中心 LG2"},{"poiid":"B2094757D068A5FD469C","title":"绍兴饭店(牡丹路店)","lon":"121.54452","lat":"31.20521","category":"75","category_name":"浙江菜","address":"上海浦东新区牡丹路60号(近浦建路)  "},{"poiid":"B2094757D468A5F54899","title":"湖南风味米粉 牡丹路店","lon":"121.543837","lat":"31.205842","category":"68","category_name":"快餐厅","address":"浦东新区花木镇牡丹路117号"},{"poiid":"B2094654DA69A2F8439D","title":"牡丹苑(东门)","lon":"121.54406","lat":"31.2068","category":"47","category_name":"住宅区","address":"牡丹路89弄"},{"poiid":"B2094757D16CABF54792","title":"多凌茶楼","lon":"121.5445","lat":"31.20532","category":"72","category_name":"广东菜","address":"浦东新区牡丹路60号东辰大厦22楼(牡丹路浦建路)"},{"poiid":"B2094655D268A3FC4293","title":"牡丹路165弄小区","lon":"121.54595","lat":"31.20727","category":"47","category_name":"住宅区","address":"牡丹路165弄"},{"poiid":"B2094757D164ABF8429C","title":"如家快捷酒店餐厅(世纪公园店)","lon":"121.54094","lat":"31.20593","category":"76","category_name":"上海菜","address":"浦东新区浦建路1151号(锦绣路浦建路)"},{"poiid":"B2094655D268A3FC439A","title":"人口文化科普街","lon":"121.54353","lat":"31.20816","category":"196","category_name":"公园","address":""},{"poiid":"B2094654DB6BAAFC4293","title":"上海市建平世纪中学西门","lon":"121.54589","lat":"31.20891","category":"55","category_name":"中学","address":"玉兰路356"},{"poiid":"B2094757DA69A3F44799","title":"龙之谷官方微博","lon":"121.54775","lat":"31.20623","category":"634","category_name":"IT类公司","address":"碧波路690号1号楼"},{"poiid":"B2094655D268A3FC429B","title":"花木派出所","lon":"121.54245","lat":"31.20351","category":"609","category_name":"警察局","address":"浦建路1207"},{"poiid":"B2094654DA69A2F8409C","title":"快客(牡丹路)","lon":"121.54635","lat":"31.20694","category":"117","category_name":"便民商店/便利店","address":"浦东新区牡丹路175号(近浦建路)"},{"poiid":"B2094655D26FAAFA4099","title":"东港乐特色快餐No.72","lon":"121.54504","lat":"31.20632","category":"68","category_name":"快餐厅","address":"浦东新区牡丹路106号(近玉兰路)"},{"poiid":"B2094654DA69A2FF479B","title":"花木工商所","lon":"121.54409","lat":"31.20845","category":"250","category_name":"公园户外","address":"浦东新区梅花路333"},{"poiid":"B2094655D26DAAF84799","title":"浦东新区花木街道图书馆","lon":"121.54343","lat":"31.20889","category":"181","category_name":"图书馆","address":"梅花路291"},{"poiid":"B2094757DA69A3F4429A","title":"1号店","lon":"121.54775","lat":"31.20623","category":"630","category_name":"电子商务公司","address":"祖冲之路295号"},{"poiid":"B2094655D268A3FC4292","title":"牡丹路165弄小区(南门)","lon":"121.54625","lat":"31.20693","category":"47","category_name":"住宅区","address":"牡丹路165弄"},{"poiid":"B2094757D469A5F9499A","title":"凯司令西点房 东建路店","lon":"121.5436339","lat":"31.2041368","category":"67","category_name":"甜品店","address":"浦东新区东建路927-2号(近浦建路)"},{"poiid":"B2094654DA69A2FA4299","title":"互欣商务酒店","lon":"121.54125","lat":"31.20725","category":"214","category_name":"四星级宾馆","address":"浦东新区浦建路1143号(近锦绣路)"},{"poiid":"B2094654DB69AAF9479F","title":"浦东新区花木镇花木街道","lon":"121.54775","lat":"31.20623","category":"116","category_name":"特色商业街","address":"浦东新区玉兰路218号"},{"poiid":"B2094655D26FAAF94992","title":"牡丹路186弄小区(北门)","lon":"121.54653","lat":"31.20661","category":"47","category_name":"住宅区","address":"牡丹路186弄1-23号"},{"poiid":"B2094655D36DA0FB449C","title":"樱花路玉兰路","lon":"121.54938","lat":"31.20593","category":"38","category_name":"公交车站","address":""},{"poiid":"B2094654DA69A2F94298","title":"华氏玉兰大药房","lon":"121.54672","lat":"31.20759","category":"162","category_name":"医院","address":"玉兰路292-294"},{"poiid":"B2094655D26FAAFE4893","title":"东辰大厦(北一号门)","lon":"121.54441","lat":"31.20571","category":"49","category_name":"无中心点楼宇大门","address":"牡丹路60号"},{"poiid":"B2094757D06BA5FD409D","title":"建平世纪中学","lon":"121.54689","lat":"31.20865","category":"55","category_name":"中学","address":"浦东新区玉兰路356号(梅花路口)"},{"poiid":"B2094757D06FA5FC439D","title":"花木苑","lon":"121.54359","lat":"31.2104","category":"47","category_name":"住宅区","address":"花木路500弄1-160号"},{"poiid":"B2094757D06BA1F8439F","title":"花木社区文化中心","lon":"121.54376973","lat":"31.20864984","category":"500","category_name":"未知分类","address":"上海市浦东新区梅花路281号"},{"poiid":"B2094757D06AABFC409A","title":"锦江之星(花木店)","lon":"121.54053","lat":"31.20684","category":"216","category_name":"经济型连锁酒店","address":"上海浦东新区浦建路1121号(锦绣路口)"},{"poiid":"B2094757D06FAAFC489A","title":"东昌别克上海陆家嘴店","lon":"121.5433428","lat":"31.2050985","category":"158","category_name":"汽车销售","address":"上海浦东新区浦建路1281-1285号"},{"poiid":"B2094655D265A2FE429F","title":"花木玉兰广场","lon":"121.54754","lat":"31.20687","category":"201","category_name":"城市广场","address":""},{"poiid":"B2094750D36BA5FC4499","title":"极乐汤碧云温泉馆","lon":"121.600574","lat":"31.250259","category":"250","category_name":"公园户外","address":"上海市新金桥路600号（靠近金藏路）"},{"poiid":"B2094750D669A2FF409B","title":"大饭堂花木店","lon":"121.543617","lat":"31.206312","category":"76","category_name":"上海菜","address":"浦东新区浦建路1207号(近锦绣路)"},{"poiid":"B2094654DA69A2F8499C","title":"上海大众汽车东昌销售服务有限公司","lon":"121.54382","lat":"31.20529","category":"158","category_name":"汽车销售","address":"浦东新区浦建路1289号(近樱花路)"},{"poiid":"B2094752D269A2FD4298","title":"大饭堂","lon":"121.54233","lat":"31.205898","category":"247","category_name":"餐饮美食","address":"浦建路"},{"poiid":"B2094757D06AA5F44392","title":"上海东昌一汽丰田特约店","lon":"121.544039","lat":"31.204762","category":"500","category_name":"未知分类","address":"上海浦建路1317号"},{"poiid":"B2094757DA69A2FB4192","title":"永恒之塔游戏官博","lon":"121.54775","lat":"31.20623","category":"634","category_name":"IT类公司","address":"上海市碧波路690号"},{"poiid":"B2094655D264A2FA469A","title":"潮州汤骨煲 玉兰路店","lon":"121.54633","lat":"31.20763","category":"86","category_name":"火锅店","address":"浦东新区玉兰路303号(近梅花路)"},{"poiid":"B2094654DA69A2F84193","title":"克莉丝汀 玉兰店","lon":"121.544663054","lat":"31.206323793","category":"112","category_name":"糕饼店","address":"浦东新区牡丹路147号(近浦建路)"},{"poiid":"B2094654DB64A7F9429E","title":"锦江大厨","lon":"121.54091","lat":"31.20739","category":"76","category_name":"上海菜","address":"浦东新区浦建路1121号(锦绣路口)"},{"poiid":"B2094655D26BA1FA4392","title":"梅花路玉兰路","lon":"121.54546","lat":"31.20824","category":"38","category_name":"公交车站","address":""},{"poiid":"B2094757D06AA6FF4199","title":"湘霸王土菜馆 浦东店","lon":"121.54832332594","lat":"31.209045291263","category":"77","category_name":"湖南菜","address":"浦东新区梅花路601号(近海桐路)"},{"poiid":"B2094757D16CA0FE4798","title":"建平世纪中学羽毛球馆","lon":"121.54632","lat":"31.2087","category":"220","category_name":"运动场所","address":"上海浦东新区玉兰路356号(梅花路口)  "},{"poiid":"B2094655D26DA7F9439A","title":"牡丹小区北门","lon":"121.54463","lat":"31.20804","category":"47","category_name":"住宅区","address":"花木镇"},{"poiid":"B2094654DB6BAAFC429C","title":"文峰美发美容","lon":"121.54473","lat":"31.2084","category":"148","category_name":"美容美发店","address":"上海市浦东新区梅花路351号(近锦绣路)"},{"poiid":"B2094757DA69A3F5499F","title":"卓美亚喜玛拉雅酒店","lon":"121.54775","lat":"31.20623","category":"604","category_name":"旅游咨询","address":"梅花路1108号(近芳甸路)"},{"poiid":"B2094655D36DA0FB449F","title":"樱花路浦建路","lon":"121.54497","lat":"31.20613","category":"38","category_name":"公交车站","address":""},{"poiid":"B2094757D16BA0F5419B","title":"东城家园某门","lon":"121.544485338","lat":"31.2072449104","category":"47","category_name":"住宅区","address":"上海浦东新区浦建路1508号"},{"poiid":"B2094655D26EA3FF429C","title":"牡丹苑","lon":"121.54291","lat":"31.206867","category":"47","category_name":"住宅区","address":"牡丹路89弄"},{"poiid":"B2094654DA69A2FF479A","title":"中国电信梅花路营业厅","lon":"121.54492","lat":"31.2084","category":"151","category_name":"电讯营业厅","address":"上海梅花路359号"},{"poiid":"B2094654DA69A2F8429A","title":"永琪美容美发(牡丹路)","lon":"121.54547","lat":"31.20651","category":"148","category_name":"美容美发店","address":"牡丹路131"},{"poiid":"B2094757DA69A2FA459C","title":"citysuperSH","lon":"121.54775","lat":"31.20623","category":"119","category_name":"商场","address":"世纪大道 国金中心 LG2"},{"poiid":"B2094757D068A5FD469C","title":"绍兴饭店(牡丹路店)","lon":"121.54452","lat":"31.20521","category":"75","category_name":"浙江菜","address":"上海浦东新区牡丹路60号(近浦建路)  "},{"poiid":"B2094757D468A5F54899","title":"湖南风味米粉 牡丹路店","lon":"121.543837","lat":"31.205842","category":"68","category_name":"快餐厅","address":"浦东新区花木镇牡丹路117号"},{"poiid":"B2094654DA69A2F8439D","title":"牡丹苑(东门)","lon":"121.54406","lat":"31.2068","category":"47","category_name":"住宅区","address":"牡丹路89弄"},{"poiid":"B2094757D16CABF54792","title":"多凌茶楼","lon":"121.5445","lat":"31.20532","category":"72","category_name":"广东菜","address":"浦东新区牡丹路60号东辰大厦22楼(牡丹路浦建路)"},{"poiid":"B2094655D268A3FC4293","title":"牡丹路165弄小区","lon":"121.54595","lat":"31.20727","category":"47","category_name":"住宅区","address":"牡丹路165弄"},{"poiid":"B2094757D164ABF8429C","title":"如家快捷酒店餐厅(世纪公园店)","lon":"121.54094","lat":"31.20593","category":"76","category_name":"上海菜","address":"浦东新区浦建路1151号(锦绣路浦建路)"},{"poiid":"B2094655D268A3FC439A","title":"人口文化科普街","lon":"121.54353","lat":"31.20816","category":"196","category_name":"公园","address":""},{"poiid":"B2094654DB6BAAFC4293","title":"上海市建平世纪中学西门","lon":"121.54589","lat":"31.20891","category":"55","category_name":"中学","address":"玉兰路356"},{"poiid":"B2094757DA69A3F44799","title":"龙之谷官方微博","lon":"121.54775","lat":"31.20623","category":"634","category_name":"IT类公司","address":"碧波路690号1号楼"},{"poiid":"B2094655D268A3FC429B","title":"花木派出所","lon":"121.54245","lat":"31.20351","category":"609","category_name":"警察局","address":"浦建路1207"},{"poiid":"B2094654DA69A2F8409C","title":"快客(牡丹路)","lon":"121.54635","lat":"31.20694","category":"117","category_name":"便民商店/便利店","address":"浦东新区牡丹路175号(近浦建路)"},{"poiid":"B2094655D26FAAFA4099","title":"东港乐特色快餐No.72","lon":"121.54504","lat":"31.20632","category":"68","category_name":"快餐厅","address":"浦东新区牡丹路106号(近玉兰路)"},{"poiid":"B2094654DA69A2FF479B","title":"花木工商所","lon":"121.54409","lat":"31.20845","category":"250","category_name":"公园户外","address":"浦东新区梅花路333"},{"poiid":"B2094655D26DAAF84799","title":"浦东新区花木街道图书馆","lon":"121.54343","lat":"31.20889","category":"181","category_name":"图书馆","address":"梅花路291"},{"poiid":"B2094757DA69A3F4429A","title":"1号店","lon":"121.54775","lat":"31.20623","category":"630","category_name":"电子商务公司","address":"祖冲之路295号"},{"poiid":"B2094655D268A3FC4292","title":"牡丹路165弄小区(南门)","lon":"121.54625","lat":"31.20693","category":"47","category_name":"住宅区","address":"牡丹路165弄"},{"poiid":"B2094757D469A5F9499A","title":"凯司令西点房 东建路店","lon":"121.5436339","lat":"31.2041368","category":"67","category_name":"甜品店","address":"浦东新区东建路927-2号(近浦建路)"},{"poiid":"B2094654DA69A2FA4299","title":"互欣商务酒店","lon":"121.54125","lat":"31.20725","category":"214","category_name":"四星级宾馆","address":"浦东新区浦建路1143号(近锦绣路)"},{"poiid":"B2094654DB69AAF9479F","title":"浦东新区花木镇花木街道","lon":"121.54775","lat":"31.20623","category":"116","category_name":"特色商业街","address":"浦东新区玉兰路218号"},{"poiid":"B2094655D26FAAF94992","title":"牡丹路186弄小区(北门)","lon":"121.54653","lat":"31.20661","category":"47","category_name":"住宅区","address":"牡丹路186弄1-23号"},{"poiid":"B2094655D36DA0FB449C","title":"樱花路玉兰路","lon":"121.54938","lat":"31.20593","category":"38","category_name":"公交车站","address":""},{"poiid":"B2094654DA69A2F94298","title":"华氏玉兰大药房","lon":"121.54672","lat":"31.20759","category":"162","category_name":"医院","address":"玉兰路292-294"},{"poiid":"B2094655D26FAAFE4893","title":"东辰大厦(北一号门)","lon":"121.54441","lat":"31.20571","category":"49","category_name":"无中心点楼宇大门","address":"牡丹路60号"},{"poiid":"B2094757D06BA5FD409D","title":"建平世纪中学","lon":"121.54689","lat":"31.20865","category":"55","category_name":"中学","address":"浦东新区玉兰路356号(梅花路口)"},{"poiid":"B2094757D06FA5FC439D","title":"花木苑","lon":"121.54359","lat":"31.2104","category":"47","category_name":"住宅区","address":"花木路500弄1-160号"},{"poiid":"B2094757D06BA1F8439F","title":"花木社区文化中心","lon":"121.54376973","lat":"31.20864984","category":"500","category_name":"未知分类","address":"上海市浦东新区梅花路281号"},{"poiid":"B2094757D06AABFC409A","title":"锦江之星(花木店)","lon":"121.54053","lat":"31.20684","category":"216","category_name":"经济型连锁酒店","address":"上海浦东新区浦建路1121号(锦绣路口)"},{"poiid":"B2094757D06FAAFC489A","title":"东昌别克上海陆家嘴店","lon":"121.5433428","lat":"31.2050985","category":"158","category_name":"汽车销售","address":"上海浦东新区浦建路1281-1285号"},{"poiid":"B2094655D265A2FE429F","title":"花木玉兰广场","lon":"121.54754","lat":"31.20687","category":"201","category_name":"城市广场","address":""},{"poiid":"B2094750D36BA5FC4499","title":"极乐汤碧云温泉馆","lon":"121.600574","lat":"31.250259","category":"250","category_name":"公园户外","address":"上海市新金桥路600号（靠近金藏路）"},{"poiid":"B2094750D669A2FF409B","title":"大饭堂花木店","lon":"121.543617","lat":"31.206312","category":"76","category_name":"上海菜","address":"浦东新区浦建路1207号(近锦绣路)"},{"poiid":"B2094654DA69A2F8499C","title":"上海大众汽车东昌销售服务有限公司","lon":"121.54382","lat":"31.20529","category":"158","category_name":"汽车销售","address":"浦东新区浦建路1289号(近樱花路)"},{"poiid":"B2094752D269A2FD4298","title":"大饭堂","lon":"121.54233","lat":"31.205898","category":"247","category_name":"餐饮美食","address":"浦建路"},{"poiid":"B2094757D06AA5F44392","title":"上海东昌一汽丰田特约店","lon":"121.544039","lat":"31.204762","category":"500","category_name":"未知分类","address":"上海浦建路1317号"},{"poiid":"B2094757DA69A2FB4192","title":"永恒之塔游戏官博","lon":"121.54775","lat":"31.20623","category":"634","category_name":"IT类公司","address":"上海市碧波路690号"},{"poiid":"B2094655D264A2FA469A","title":"潮州汤骨煲 玉兰路店","lon":"121.54633","lat":"31.20763","category":"86","category_name":"火锅店","address":"浦东新区玉兰路303号(近梅花路)"},{"poiid":"B2094654DA69A2F84193","title":"克莉丝汀 玉兰店","lon":"121.544663054","lat":"31.206323793","category":"112","category_name":"糕饼店","address":"浦东新区牡丹路147号(近浦建路)"},{"poiid":"B2094654DB64A7F9429E","title":"锦江大厨","lon":"121.54091","lat":"31.20739","category":"76","category_name":"上海菜","address":"浦东新区浦建路1121号(锦绣路口)"},{"poiid":"B2094655D26BA1FA4392","title":"梅花路玉兰路","lon":"121.54546","lat":"31.20824","category":"38","category_name":"公交车站","address":""},{"poiid":"B2094757D06AA6FF4199","title":"湘霸王土菜馆 浦东店","lon":"121.54832332594","lat":"31.209045291263","category":"77","category_name":"湖南菜","address":"浦东新区梅花路601号(近海桐路)"},{"poiid":"B2094757D16CA0FE4798","title":"建平世纪中学羽毛球馆","lon":"121.54632","lat":"31.2087","category":"220","category_name":"运动场所","address":"上海浦东新区玉兰路356号(梅花路口)  "},{"poiid":"B2094655D26DA7F9439A","title":"牡丹小区北门","lon":"121.54463","lat":"31.20804","category":"47","category_name":"住宅区","address":"花木镇"},{"poiid":"B2094654DB6BAAFC429C","title":"文峰美发美容","lon":"121.54473","lat":"31.2084","category":"148","category_name":"美容美发店","address":"上海市浦东新区梅花路351号(近锦绣路)"},{"poiid":"B2094757DA69A3F5499F","title":"卓美亚喜玛拉雅酒店","lon":"121.54775","lat":"31.20623","category":"604","category_name":"旅游咨询","address":"梅花路1108号(近芳甸路)"},{"poiid":"B2094655D36DA0FB449F","title":"樱花路浦建路","lon":"121.54497","lat":"31.20613","category":"38","category_name":"公交车站","address":""},{"poiid":"B2094757D16BA0F5419B","title":"东城家园某门","lon":"121.544485338","lat":"31.2072449104","category":"47","category_name":"住宅区","address":"上海浦东新区浦建路1508号"},{"poiid":"B2094655D26EA3FF429C","title":"牡丹苑","lon":"121.54291","lat":"31.206867","category":"47","category_name":"住宅区","address":"牡丹路89弄"},{"poiid":"B2094654DA69A2FF479A","title":"中国电信梅花路营业厅","lon":"121.54492","lat":"31.2084","category":"151","category_name":"电讯营业厅","address":"上海梅花路359号"},{"poiid":"B2094654DA69A2F8429A","title":"永琪美容美发(牡丹路)","lon":"121.54547","lat":"31.20651","category":"148","category_name":"美容美发店","address":"牡丹路131"},{"poiid":"B2094757DA69A2FA459C","title":"citysuperSH","lon":"121.54775","lat":"31.20623","category":"119","category_name":"商场","address":"世纪大道 国金中心 LG2"},{"poiid":"B2094757D068A5FD469C","title":"绍兴饭店(牡丹路店)","lon":"121.54452","lat":"31.20521","category":"75","category_name":"浙江菜","address":"上海浦东新区牡丹路60号(近浦建路)  "},{"poiid":"B2094757D468A5F54899","title":"湖南风味米粉 牡丹路店","lon":"121.543837","lat":"31.205842","category":"68","category_name":"快餐厅","address":"浦东新区花木镇牡丹路117号"},{"poiid":"B2094654DA69A2F8439D","title":"牡丹苑(东门)","lon":"121.54406","lat":"31.2068","category":"47","category_name":"住宅区","address":"牡丹路89弄"},{"poiid":"B2094757D16CABF54792","title":"多凌茶楼","lon":"121.5445","lat":"31.20532","category":"72","category_name":"广东菜","address":"浦东新区牡丹路60号东辰大厦22楼(牡丹路浦建路)"},{"poiid":"B2094655D268A3FC4293","title":"牡丹路165弄小区","lon":"121.54595","lat":"31.20727","category":"47","category_name":"住宅区","address":"牡丹路165弄"},{"poiid":"B2094757D164ABF8429C","title":"如家快捷酒店餐厅(世纪公园店)","lon":"121.54094","lat":"31.20593","category":"76","category_name":"上海菜","address":"浦东新区浦建路1151号(锦绣路浦建路)"},{"poiid":"B2094655D268A3FC439A","title":"人口文化科普街","lon":"121.54353","lat":"31.20816","category":"196","category_name":"公园","address":""},{"poiid":"B2094654DB6BAAFC4293","title":"上海市建平世纪中学西门","lon":"121.54589","lat":"31.20891","category":"55","category_name":"中学","address":"玉兰路356"},{"poiid":"B2094757DA69A3F44799","title":"龙之谷官方微博","lon":"121.54775","lat":"31.20623","category":"634","category_name":"IT类公司","address":"碧波路690号1号楼"},{"poiid":"B2094655D268A3FC429B","title":"花木派出所","lon":"121.54245","lat":"31.20351","category":"609","category_name":"警察局","address":"浦建路1207"},{"poiid":"B2094654DA69A2F8409C","title":"快客(牡丹路)","lon":"121.54635","lat":"31.20694","category":"117","category_name":"便民商店/便利店","address":"浦东新区牡丹路175号(近浦建路)"},{"poiid":"B2094655D26FAAFA4099","title":"东港乐特色快餐No.72","lon":"121.54504","lat":"31.20632","category":"68","category_name":"快餐厅","address":"浦东新区牡丹路106号(近玉兰路)"},{"poiid":"B2094654DA69A2FF479B","title":"花木工商所","lon":"121.54409","lat":"31.20845","category":"250","category_name":"公园户外","address":"浦东新区梅花路333"},{"poiid":"B2094655D26DAAF84799","title":"浦东新区花木街道图书馆","lon":"121.54343","lat":"31.20889","category":"181","category_name":"图书馆","address":"梅花路291"},{"poiid":"B2094757DA69A3F4429A","title":"1号店","lon":"121.54775","lat":"31.20623","category":"630","category_name":"电子商务公司","address":"祖冲之路295号"},{"poiid":"B2094655D268A3FC4292","title":"牡丹路165弄小区(南门)","lon":"121.54625","lat":"31.20693","category":"47","category_name":"住宅区","address":"牡丹路165弄"},{"poiid":"B2094757D469A5F9499A","title":"凯司令西点房 东建路店","lon":"121.5436339","lat":"31.2041368","category":"67","category_name":"甜品店","address":"浦东新区东建路927-2号(近浦建路)"},{"poiid":"B2094654DA69A2FA4299","title":"互欣商务酒店","lon":"121.54125","lat":"31.20725","category":"214","category_name":"四星级宾馆","address":"浦东新区浦建路1143号(近锦绣路)"},{"poiid":"B2094654DB69AAF9479F","title":"浦东新区花木镇花木街道","lon":"121.54775","lat":"31.20623","category":"116","category_name":"特色商业街","address":"浦东新区玉兰路218号"},{"poiid":"B2094655D26FAAF94992","title":"牡丹路186弄小区(北门)","lon":"121.54653","lat":"31.20661","category":"47","category_name":"住宅区","address":"牡丹路186弄1-23号"},{"poiid":"B2094655D36DA0FB449C","title":"樱花路玉兰路","lon":"121.54938","lat":"31.20593","category":"38","category_name":"公交车站","address":""},{"poiid":"B2094654DA69A2F94298","title":"华氏玉兰大药房","lon":"121.54672","lat":"31.20759","category":"162","category_name":"医院","address":"玉兰路292-294"},{"poiid":"B2094655D26FAAFE4893","title":"东辰大厦(北一号门)","lon":"121.54441","lat":"31.20571","category":"49","category_name":"无中心点楼宇大门","address":"牡丹路60号"}]