[{"poiid":"B2094654DB69A4F84299","title":"星巴克(吴江路店)","lon":"121.461502","lat":"31.230398","category":"65","category_name":"咖啡厅","address":"静安区吴江路128号(近石门一路)"},{"poiid":"B2094654DA6CA2F4429B","title":"广电大厦","lon":"121.46485","lat":"31.23036","category":"46","category_name":"楼宇","address":"上海市静安区南京西路651号"},{"poiid":"B2094654DA6CA1F5459E","title":"满记甜品 吴江路店","lon":"121.4610946","lat":"31.2301023","category":"67","category_name":"甜品店","address":"静安区吴江路169号四季坊商场1楼102号单元(近南京西路)"},{"poiid":"B2094753D76FAAFA449C","title":"上海滩国泰旗舰店","lon":"121.466011","lat":"31.216125","category":"249","category_name":"购物服务","address":"淮海中路868号"},{"poiid":"B209475CD564A7F84292","title":"上海滩新天地店","lon":"121.47463","lat":"31.22164","category":"119","category_name":"商场","address":"\"太仓路181弄新天地北里15号\r\n\""},{"poiid":"B209475CD564A7F8439E","title":"上海滩中信泰富店","lon":"121.45602","lat":"31.22851","category":"119","category_name":"商场","address":"\"南京西路1168号中信泰富广场，店铺号221.\r\n\""},{"poiid":"B2094757D06BA3FC4699","title":"上海电视台","lon":"121.464846738","lat":"31.2300302958","category":"500","category_name":"未知分类","address":"上海静安区威海路298号"},{"poiid":"B2094757D06FA1F9489A","title":"藏珑泰厨","lon":"121.46120173","lat":"31.230886314","category":"99","category_name":"泰国／越南菜品餐厅","address":"静安区南京西路818号818广场6楼(近石门一路)"},{"poiid":"B2094750DA6DAAFD4099","title":"MOOK CLUB","lon":"121.4629","lat":"31.23149","category":"172","category_name":"酒吧","address":"静安区南京西路758号5-6楼(近凤阳路)"},{"poiid":"B2094655D26FA6FB4892","title":"文新报业大厦","lon":"121.464","lat":"31.2318","category":"46","category_name":"楼宇","address":"上海市静安区威海路755号"},{"poiid":"B2094757D06FA2FA459B","title":"wooden box cafe","lon":"121.46442794","lat":"31.230162879","category":"65","category_name":"咖啡厅","address":"静安区青海路9号(近上海电视台)"},{"poiid":"B2094654DA6CA1F84292","title":"王家沙(南京西路)","lon":"121.46122","lat":"31.23063","category":"257","category_name":"中餐厅","address":"静安区南京西路805号(近石门一路)"},{"poiid":"B2094757D06FA2FB449B","title":"岳阳医院名医特诊部(青海路分院)","lon":"121.46431","lat":"31.23029","category":"162","category_name":"医院","address":"静安区青海路44号(近南京西路)"},{"poiid":"B2094757D06FA0F44298","title":"WINDOWS(青海路店)","lon":"121.46414","lat":"31.2309","category":"260","category_name":"其他","address":"静安区南京西路698号(上海电视台对面)"},{"poiid":"B2094757D06FABFE419D","title":"吴江路","lon":"121.463009","lat":"31.230562","category":"260","category_name":"其他","address":"上海静安区吴江路"},{"poiid":"B2094655D26EA4FC409E","title":"甜蜜蜜(吴江店)","lon":"121.46241","lat":"31.23028","category":"87","category_name":"特色／地方风味餐厅","address":"静安区吴江路178号(近泰兴路)"},{"poiid":"B2094750DA6DABF5439F","title":"MOOK CLUB","lon":"121.462947","lat":"31.231401","category":"248","category_name":"生活娱乐","address":"静安区南京西路758号"},{"poiid":"B2094757D06FA4FF499D","title":"小南国(众鑫店)","lon":"121.46378","lat":"31.23014","category":"76","category_name":"上海菜","address":"静安区吴江路31号东方众鑫大厦2-5楼(近吴江路)"},{"poiid":"B2094757DA6EA6FB419A","title":"合点寿司(南京西路店)","lon":"121.461213999998","lat":"31.2304790000002","category":"95","category_name":"日本料理","address":"静安区南京西路818号818广场B1楼(近石门一路)"},{"poiid":"B2094757D06FA3F9429F","title":"权味 吴江路店","lon":"121.461074","lat":"31.230026","category":"96","category_name":"韩国料理","address":"静安区吴江路169号四季坊商场2楼(近石门一路)"},{"poiid":"B2094757D06AA5F4459D","title":"Awfully Chocolate","lon":"121.461541738","lat":"31.2302323001","category":"500","category_name":"未知分类","address":"上海市静安区泰兴路"},{"poiid":"B2094655D26FA5FC489A","title":"四季坊","lon":"121.46162","lat":"31.22993","category":"119","category_name":"商场","address":"静安区吴江路169号2楼(近南京西路)"},{"poiid":"B2094757D06FA3FF419F","title":"Wagas沃歌斯(吴江路店)","lon":"121.46191406","lat":"31.230632782","category":"94","category_name":"西餐厅","address":"静安区吴江路169号四季坊116室(近泰兴路)"},{"poiid":"B2094757D76AA1FF469F","title":"拉面玩家 四季坊店","lon":"121.461104","lat":"31.229991","category":"68","category_name":"快餐厅","address":"静安区吴江路153号四季坊242单位(近石门一路)"},{"poiid":"B2094757D06FA0F9409A","title":"悦蓉香锅牛蛙馆","lon":"121.461138","lat":"31.230666","category":"247","category_name":"餐饮美食","address":"上海南京西路818号(818广场)B1"},{"poiid":"B2094655D26BA1FF469C","title":"南京西路上海电视台","lon":"121.46267","lat":"31.23099","category":"38","category_name":"公交车站","address":""},{"poiid":"B2094654D564ABFA419B","title":"东方海外大厦","lon":"121.461","lat":"31.2295","category":"46","category_name":"楼宇","address":"上海,上海市,延安中路841号"},{"poiid":"B2094757D069A1FC459B","title":"相扑烤肉","lon":"121.462337738","lat":"31.2299672945","category":"257","category_name":"中餐厅","address":"上海吴江路169号四季坊商场2楼201﹣206单元"},{"poiid":"B2094757D068A3FB429B","title":"上海市东方公证处","lon":"121.4634585","lat":"31.231949636","category":"46","category_name":"楼宇","address":"上海静安区凤阳路660号（接待大厅 凤阳路598号）"},{"poiid":"B2094757D06FA3F4499D","title":"DQ冰雪皇后(吴江店)","lon":"121.46162","lat":"31.229935","category":"113","category_name":"冷饮店","address":"静安区吴江路169号四季坊1楼(近石门一路)"},{"poiid":"B2094757D069A2F9429D","title":"玛莎百货咖啡厅","lon":"121.460338054","lat":"31.230278793","category":"65","category_name":"咖啡厅","address":"南京西路863号玛莎百货4楼近石门一路"},{"poiid":"B2094654DA6CA1F5469A","title":"香啡缤 吴江路店 Coffee Bean&Tea Leaf","lon":"121.461022054","lat":"31.229906793","category":"65","category_name":"咖啡厅","address":"静安区吴江路169号静安四季坊145-146单元(近石门一路)"},{"poiid":"B2094757D06FA2FE499A","title":"麦当劳(四季坊店)","lon":"121.46101","lat":"31.22957","category":"68","category_name":"快餐厅","address":"静安区吴江路169号四季坊B1楼B101号铺(近南京西路地铁站3号出口)"},{"poiid":"B2094757D06BA3FA489A","title":"HM","lon":"121.461163338","lat":"31.2305978079","category":"141","category_name":"服装鞋帽皮具店","address":"上海南京西路865号"},{"poiid":"B2094757D069A7FF439F","title":"芋贵人(南京西路店)","lon":"121.461997038","lat":"31.2297833906","category":"67","category_name":"甜品店","address":"上海南京西路819号开欣商厦4楼412"},{"poiid":"B2094750DB6BA3F4469B","title":"mook","lon":"121.462669","lat":"31.23101","category":"500","category_name":"未知分类","address":null},{"poiid":"B2094654DA6CA2FB489D","title":"华华川菜馆","lon":"121.46253","lat":"31.2302","category":"71","category_name":"四川菜","address":"静安区奉贤路61号(近石门二路)"},{"poiid":"B2094757D069A3FB4693","title":"东方有线大厦","lon":"121.463497653","lat":"31.2304960495","category":"46","category_name":"楼宇","address":"上海南京西路699号"},{"poiid":"B2094757D06FA4FD459D","title":"爱茜茜里(吴江路店)","lon":"121.46266","lat":"31.23008","category":"257","category_name":"中餐厅","address":"静安区吴江路166号1楼(近石门一路)"},{"poiid":"B2094750D364A2F84692","title":"eden-LoungeClub","lon":"121.46263588015","lat":"31.23111042168","category":"111","category_name":"休闲餐饮场所","address":"南京西路760号博爱大厦4楼(阿斯顿.马丁车展厅楼上近石门二路)"},{"poiid":"B2094752D164A0FC439D","title":"港汇恒隆广场","lon":"121.463596","lat":"31.229129","category":"500","category_name":"未知分类","address":"徐家汇"},{"poiid":"B2094655D26DA6FE439A","title":"上海小南国吴江店","lon":"121.46344","lat":"31.23039","category":"257","category_name":"中餐厅","address":""},{"poiid":"B2094757D468AAF9459C","title":"GCX","lon":"121.461331","lat":"31.230426","category":"94","category_name":"西餐厅","address":"静安区吴江路休闲步行街138号2楼(近石门一路)"},{"poiid":"B2094757D465A6F8469C","title":"味千拉面 818广场店","lon":"121.461623054","lat":"31.231004793","category":"95","category_name":"日本料理","address":"静安区南京西路818号818广场B1楼104B(近石门一路)"},{"poiid":"B2094757D068A7F8459B","title":"南京美发店(南京西路店)","lon":"121.46209","lat":"31.23075","category":"148","category_name":"美容美发店","address":"静安区南京西路784号(近石门一路)"},{"poiid":"B2094654DA6CA2FB409D","title":"东方众鑫大厦","lon":"121.46334","lat":"31.23035","category":"46","category_name":"楼宇","address":"朝阳亚运村北炎黄艺术馆旁"},{"poiid":"B2094654DA6CA2F8499B","title":"吴江路东段小吃街","lon":"121.46176","lat":"31.23032","category":"116","category_name":"特色商业街","address":"吴江路"},{"poiid":"B2094757DB64A6FF489A","title":"酷酷璐（四季坊店）","lon":"121.462","lat":"31.2299","category":"87","category_name":"特色／地方风味餐厅","address":"上海静安区吴江路169号 四季坊一层"},{"poiid":"B2094654DB65A7F9489F","title":"汉庭酒店(南京西路店)","lon":"121.46238","lat":"31.22823","category":"216","category_name":"经济型连锁酒店","address":"静安区石门一路239号(近吴江路)"},{"poiid":"B2094751D56FA1FE479C","title":"大阪王将","lon":"121.463198","lat":"31.230088","category":"247","category_name":"餐饮美食","address":"静安区吴江路169号四季坊1楼(近石门一路)"},{"poiid":"B2094654DB69A4F84299","title":"星巴克(吴江路店)","lon":"121.461502","lat":"31.230398","category":"65","category_name":"咖啡厅","address":"静安区吴江路128号(近石门一路)"},{"poiid":"B2094654DA6CA2F4429B","title":"广电大厦","lon":"121.46485","lat":"31.23036","category":"46","category_name":"楼宇","address":"上海市静安区南京西路651号"},{"poiid":"B2094654DA6CA1F5459E","title":"满记甜品 吴江路店","lon":"121.4610946","lat":"31.2301023","category":"67","category_name":"甜品店","address":"静安区吴江路169号四季坊商场1楼102号单元(近南京西路)"},{"poiid":"B2094753D76FAAFA449C","title":"上海滩国泰旗舰店","lon":"121.466011","lat":"31.216125","category":"249","category_name":"购物服务","address":"淮海中路868号"},{"poiid":"B209475CD564A7F84292","title":"上海滩新天地店","lon":"121.47463","lat":"31.22164","category":"119","category_name":"商场","address":"\"太仓路181弄新天地北里15号\r\n\""},{"poiid":"B209475CD564A7F8439E","title":"上海滩中信泰富店","lon":"121.45602","lat":"31.22851","category":"119","category_name":"商场","address":"\"南京西路1168号中信泰富广场，店铺号221.\r\n\""},{"poiid":"B2094757D06BA3FC4699","title":"上海电视台","lon":"121.464846738","lat":"31.2300302958","category":"500","category_name":"未知分类","address":"上海静安区威海路298号"},{"poiid":"B2094757D06FA1F9489A","title":"藏珑泰厨","lon":"121.46120173","lat":"31.230886314","category":"99","category_name":"泰国／越南菜品餐厅","address":"静安区南京西路818号818广场6楼(近石门一路)"},{"poiid":"B2094750DA6DAAFD4099","title":"MOOK CLUB","lon":"121.4629","lat":"31.23149","category":"172","category_name":"酒吧","address":"静安区南京西路758号5-6楼(近凤阳路)"},{"poiid":"B2094655D26FA6FB4892","title":"文新报业大厦","lon":"121.464","lat":"31.2318","category":"46","category_name":"楼宇","address":"上海市静安区威海路755号"},{"poiid":"B2094757D06FA2FA459B","title":"wooden box cafe","lon":"121.46442794","lat":"31.230162879","category":"65","category_name":"咖啡厅","address":"静安区青海路9号(近上海电视台)"},{"poiid":"B2094654DA6CA1F84292","title":"王家沙(南京西路)","lon":"121.46122","lat":"31.23063","category":"257","category_name":"中餐厅","address":"静安区南京西路805号(近石门一路)"},{"poiid":"B2094757D06FA2FB449B","title":"岳阳医院名医特诊部(青海路分院)","lon":"121.46431","lat":"31.23029","category":"162","category_name":"医院","address":"静安区青海路44号(近南京西路)"},{"poiid":"B2094757D06FA0F44298","title":"WINDOWS(青海路店)","lon":"121.46414","lat":"31.2309","category":"260","category_name":"其他","address":"静安区南京西路698号(上海电视台对面)"},{"poiid":"B2094757D06FABFE419D","title":"吴江路","lon":"121.463009","lat":"31.230562","category":"260","category_name":"其他","address":"上海静安区吴江路"},{"poiid":"B2094655D26EA4FC409E","title":"甜蜜蜜(吴江店)","lon":"121.46241","lat":"31.23028","category":"87","category_name":"特色／地方风味餐厅","address":"静安区吴江路178号(近泰兴路)"},{"poiid":"B2094750DA6DABF5439F","title":"MOOK CLUB","lon":"121.462947","lat":"31.231401","category":"248","category_name":"生活娱乐","address":"静安区南京西路758号"},{"poiid":"B2094757D06FA4FF499D","title":"小南国(众鑫店)","lon":"121.46378","lat":"31.23014","category":"76","category_name":"上海菜","address":"静安区吴江路31号东方众鑫大厦2-5楼(近吴江路)"},{"poiid":"B2094757DA6EA6FB419A","title":"合点寿司(南京西路店)","lon":"121.461213999998","lat":"31.2304790000002","category":"95","category_name":"日本料理","address":"静安区南京西路818号818广场B1楼(近石门一路)"},{"poiid":"B2094757D06FA3F9429F","title":"权味 吴江路店","lon":"121.461074","lat":"31.230026","category":"96","category_name":"韩国料理","address":"静安区吴江路169号四季坊商场2楼(近石门一路)"},{"poiid":"B2094757D06AA5F4459D","title":"Awfully Chocolate","lon":"121.461541738","lat":"31.2302323001","category":"500","category_name":"未知分类","address":"上海市静安区泰兴路"},{"poiid":"B2094655D26FA5FC489A","title":"四季坊","lon":"121.46162","lat":"31.22993","category":"119","category_name":"商场","address":"静安区吴江路169号2楼(近南京西路)"},{"poiid":"B2094757D06FA3FF419F","title":"Wagas沃歌斯(吴江路店)","lon":"121.46191406","lat":"31.230632782","category":"94","category_name":"西餐厅","address":"静安区吴江路169号四季坊116室(近泰兴路)"},{"poiid":"B2094757D76AA1FF469F","title":"拉面玩家 四季坊店","lon":"121.461104","lat":"31.229991","category":"68","category_name":"快餐厅","address":"静安区吴江路153号四季坊242单位(近石门一路)"},{"poiid":"B2094757D06FA0F9409A","title":"悦蓉香锅牛蛙馆","lon":"121.461138","lat":"31.230666","category":"247","category_name":"餐饮美食","address":"上海南京西路818号(818广场)B1"},{"poiid":"B2094655D26BA1FF469C","title":"南京西路上海电视台","lon":"121.46267","lat":"31.23099","category":"38","category_name":"公交车站","address":""},{"poiid":"B2094654D564ABFA419B","title":"东方海外大厦","lon":"121.461","lat":"31.2295","category":"46","category_name":"楼宇","address":"上海,上海市,延安中路841号"},{"poiid":"B2094757D069A1FC459B","title":"相扑烤肉","lon":"121.462337738","lat":"31.2299672945","category":"257","category_name":"中餐厅","address":"上海吴江路169号四季坊商场2楼201﹣206单元"},{"poiid":"B2094757D068A3FB429B","title":"上海市东方公证处","lon":"121.4634585","lat":"31.231949636","category":"46","category_name":"楼宇","address":"上海静安区凤阳路660号（接待大厅 凤阳路598号）"},{"poiid":"B2094757D06FA3F4499D","title":"DQ冰雪皇后(吴江店)","lon":"121.46162","lat":"31.229935","category":"113","category_name":"冷饮店","address":"静安区吴江路169号四季坊1楼(近石门一路)"},{"poiid":"B2094757D069A2F9429D","title":"玛莎百货咖啡厅","lon":"121.460338054","lat":"31.230278793","category":"65","category_name":"咖啡厅","address":"南京西路863号玛莎百货4楼近石门一路"},{"poiid":"B2094654DA6CA1F5469A","title":"香啡缤 吴江路店 Coffee Bean&Tea Leaf","lon":"121.461022054","lat":"31.229906793","category":"65","category_name":"咖啡厅","address":"静安区吴江路169号静安四季坊145-146单元(近石门一路)"},{"poiid":"B2094757D06FA2FE499A","title":"麦当劳(四季坊店)","lon":"121.46101","lat":"31.22957","category":"68","category_name":"快餐厅","address":"静安区吴江路169号四季坊B1楼B101号铺(近南京西路地铁站3号出口)"},{"poiid":"B2094757D06BA3FA489A","title":"HM","lon":"121.461163338","lat":"31.2305978079","category":"141","category_name":"服装鞋帽皮具店","address":"上海南京西路865号"},{"poiid":"B2094757D069A7FF439F","title":"芋贵人(南京西路店)","lon":"121.461997038","lat":"31.2297833906","category":"67","category_name":"甜品店","address":"上海南京西路819号开欣商厦4楼412"},{"poiid":"B2094750DB6BA3F4469B","title":"mook","lon":"121.462669","lat":"31.23101","category":"500","category_name":"未知分类","address":null},{"poiid":"B2094654DA6CA2FB489D","title":"华华川菜馆","lon":"121.46253","lat":"31.2302","category":"71","category_name":"四川菜","address":"静安区奉贤路61号(近石门二路)"},{"poiid":"B2094757D069A3FB4693","title":"东方有线大厦","lon":"121.463497653","lat":"31.2304960495","category":"46","category_name":"楼宇","address":"上海南京西路699号"},{"poiid":"B2094757D06FA4FD459D","title":"爱茜茜里(吴江路店)","lon":"121.46266","lat":"31.23008","category":"257","category_name":"中餐厅","address":"静安区吴江路166号1楼(近石门一路)"},{"poiid":"B2094750D364A2F84692","title":"eden-LoungeClub","lon":"121.46263588015","lat":"31.23111042168","category":"111","category_name":"休闲餐饮场所","address":"南京西路760号博爱大厦4楼(阿斯顿.马丁车展厅楼上近石门二路)"},{"poiid":"B2094752D164A0FC439D","title":"港汇恒隆广场","lon":"121.463596","lat":"31.229129","category":"500","category_name":"未知分类","address":"徐家汇"},{"poiid":"B2094655D26DA6FE439A","title":"上海小南国吴江店","lon":"121.46344","lat":"31.23039","category":"257","category_name":"中餐厅","address":""},{"poiid":"B2094757D468AAF9459C","title":"GCX","lon":"121.461331","lat":"31.230426","category":"94","category_name":"西餐厅","address":"静安区吴江路休闲步行街138号2楼(近石门一路)"},{"poiid":"B2094757D465A6F8469C","title":"味千拉面 818广场店","lon":"121.461623054","lat":"31.231004793","category":"95","category_name":"日本料理","address":"静安区南京西路818号818广场B1楼104B(近石门一路)"},{"poiid":"B2094757D068A7F8459B","title":"南京美发店(南京西路店)","lon":"121.46209","lat":"31.23075","category":"148","category_name":"美容美发店","address":"静安区南京西路784号(近石门一路)"},{"poiid":"B2094654DA6CA2FB409D","title":"东方众鑫大厦","lon":"121.46334","lat":"31.23035","category":"46","category_name":"楼宇","address":"朝阳亚运村北炎黄艺术馆旁"},{"poiid":"B2094654DA6CA2F8499B","title":"吴江路东段小吃街","lon":"121.46176","lat":"31.23032","category":"116","category_name":"特色商业街","address":"吴江路"},{"poiid":"B2094757DB64A6FF489A","title":"酷酷璐（四季坊店）","lon":"121.462","lat":"31.2299","category":"87","category_name":"特色／地方风味餐厅","address":"上海静安区吴江路169号 四季坊一层"},{"poiid":"B2094654DB65A7F9489F","title":"汉庭酒店(南京西路店)","lon":"121.46238","lat":"31.22823","category":"216","category_name":"经济型连锁酒店","address":"静安区石门一路239号(近吴江路)"},{"poiid":"B2094751D56FA1FE479C","title":"大阪王将","lon":"121.463198","lat":"31.230088","category":"247","category_name":"餐饮美食","address":"静安区吴江路169号四季坊1楼(近石门一路)"},{"poiid":"B2094654DB69A4F84299","title":"星巴克(吴江路店)","lon":"121.461502","lat":"31.230398","category":"65","category_name":"咖啡厅","address":"静安区吴江路128号(近石门一路)"},{"poiid":"B2094654DA6CA2F4429B","title":"广电大厦","lon":"121.46485","lat":"31.23036","category":"46","category_name":"楼宇","address":"上海市静安区南京西路651号"},{"poiid":"B2094654DA6CA1F5459E","title":"满记甜品 吴江路店","lon":"121.4610946","lat":"31.2301023","category":"67","category_name":"甜品店","address":"静安区吴江路169号四季坊商场1楼102号单元(近南京西路)"},{"poiid":"B2094753D76FAAFA449C","title":"上海滩国泰旗舰店","lon":"121.466011","lat":"31.216125","category":"249","category_name":"购物服务","address":"淮海中路868号"},{"poiid":"B209475CD564A7F84292","title":"上海滩新天地店","lon":"121.47463","lat":"31.22164","category":"119","category_name":"商场","address":"\"太仓路181弄新天地北里15号\r\n\""},{"poiid":"B209475CD564A7F8439E","title":"上海滩中信泰富店","lon":"121.45602","lat":"31.22851","category":"119","category_name":"商场","address":"\"南京西路1168号中信泰富广场，店铺号221.\r\n\""},{"poiid":"B2094757D06BA3FC4699","title":"上海电视台","lon":"121.464846738","lat":"31.2300302958","category":"500","category_name":"未知分类","address":"上海静安区威海路298号"},{"poiid":"B2094757D06FA1F9489A","title":"藏珑泰厨","lon":"121.46120173","lat":"31.230886314","category":"99","category_name":"泰国／越南菜品餐厅","address":"静安区南京西路818号818广场6楼(近石门一路)"},{"poiid":"B2094750DA6DAAFD4099","title":"MOOK CLUB","lon":"121.4629","lat":"31.23149","category":"172","category_name":"酒吧","address":"静安区南京西路758号5-6楼(近凤阳路)"},{"poiid":"B2094655D26FA6FB4892","title":"文新报业大厦","lon":"121.464","lat":"31.2318","category":"46","category_name":"楼宇","address":"上海市静安区威海路755号"},{"poiid":"B2094757D06FA2FA459B","title":"wooden box cafe","lon":"121.46442794","lat":"31.230162879","category":"65","category_name":"咖啡厅","address":"静安区青海路9号(近上海电视台)"},{"poiid":"B2094654DA6CA1F84292","title":"王家沙(南京西路)","lon":"121.46122","lat":"31.23063","category":"257","category_name":"中餐厅","address":"静安区南京西路805号(近石门一路)"},{"poiid":"B2094757D06FA2FB449B","title":"岳阳医院名医特诊部(青海路分院)","lon":"121.46431","lat":"31.23029","category":"162","category_name":"医院","address":"静安区青海路44号(近南京西路)"},{"poiid":"B2094757D06FA0F44298","title":"WINDOWS(青海路店)","lon":"121.46414","lat":"31.2309","category":"260","category_name":"其他","address":"静安区南京西路698号(上海电视台对面)"},{"poiid":"B2094757D06FABFE419D","title":"吴江路","lon":"121.463009","lat":"31.230562","category":"260","category_name":"其他","address":"上海静安区吴江路"},{"poiid":"B2094655D26EA4FC409E","title":"甜蜜蜜(吴江店)","lon":"121.46241","lat":"31.23028","category":"87","category_name":"特色／地方风味餐厅","address":"静安区吴江路178号(近泰兴路)"},{"poiid":"B2094750DA6DABF5439F","title":"MOOK CLUB","lon":"121.462947","lat":"31.231401","category":"248","category_name":"生活娱乐","address":"静安区南京西路758号"},{"poiid":"B2094757D06FA4FF499D","title":"小南国(众鑫店)","lon":"121.46378","lat":"31.23014","category":"76","category_name":"上海菜","address":"静安区吴江路31号东方众鑫大厦2-5楼(近吴江路)"},{"poiid":"B2094757DA6EA6FB419A","title":"合点寿司(南京西路店)","lon":"121.461213999998","lat":"31.2304790000002","category":"95","category_name":"日本料理","address":"静安区南京西路818号818广场B1楼(近石门一路)"},{"poiid":"B2094757D06FA3F9429F","title":"权味 吴江路店","lon":"121.461074","lat":"31.230026","category":"96","category_name":"韩国料理","address":"静安区吴江路169号四季坊商场2楼(近石门一路)"},{"poiid":"B2094757D06AA5F4459D","title":"Awfully Chocolate","lon":"121.461541738","lat":"31.2302323001","category":"500","category_name":"未知分类","address":"上海市静安区泰兴路"},{"poiid":"B2094655D26FA5FC489A","title":"四季坊","lon":"121.46162","lat":"31.22993","category":"119","category_name":"商场","address":"静安区吴江路169号2楼(近南京西路)"},{"poiid":"B2094757D06FA3FF419F","title":"Wagas沃歌斯(吴江路店)","lon":"121.46191406","lat":"31.230632782","category":"94","category_name":"西餐厅","address":"静安区吴江路169号四季坊116室(近泰兴路)"},{"poiid":"B2094757D76AA1FF469F","title":"拉面玩家 四季坊店","lon":"121.461104","lat":"31.229991","category":"68","category_name":"快餐厅","address":"静安区吴江路153号四季坊242单位(近石门一路)"},{"poiid":"B2094757D06FA0F9409A","title":"悦蓉香锅牛蛙馆","lon":"121.461138","lat":"31.230666","category":"247","category_name":"餐饮美食","address":"上海南京西路818号(818广场)B1"},{"poiid":"B2094655D26BA1FF469C","title":"南京西路上海电视台","lon":"121.46267","lat":"31.23099","category":"38","category_name":"公交车站","address":""},{"poiid":"B2094654D564ABFA419B","title":"东方海外大厦","lon":"121.461","lat":"31.2295","category":"46","category_name":"楼宇","address":"上海,上海市,延安中路841号"},{"poiid":"B2094757D069A1FC459B","title":"相扑烤肉","lon":"121.462337738","lat":"31.2299672945","category":"257","category_name":"中餐厅","address":"上海吴江路169号四季坊商场2楼201﹣206单元"},{"poiid":"B2094757D068A3FB429B","title":"上海市东方公证处","lon":"121.4634585","lat":"31.231949636","category":"46","category_name":"楼宇","address":"上海静安区凤阳路660号（接待大厅 凤阳路598号）"},{"poiid":"B2094757D06FA3F4499D","title":"DQ冰雪皇后(吴江店)","lon":"121.46162","lat":"31.229935","category":"113","category_name":"冷饮店","address":"静安区吴江路169号四季坊1楼(近石门一路)"},{"poiid":"B2094757D069A2F9429D","title":"玛莎百货咖啡厅","lon":"121.460338054","lat":"31.230278793","category":"65","category_name":"咖啡厅","address":"南京西路863号玛莎百货4楼近石门一路"},{"poiid":"B2094654DA6CA1F5469A","title":"香啡缤 吴江路店 Coffee Bean&Tea Leaf","lon":"121.461022054","lat":"31.229906793","category":"65","category_name":"咖啡厅","address":"静安区吴江路169号静安四季坊145-146单元(近石门一路)"},{"poiid":"B2094757D06FA2FE499A","title":"麦当劳(四季坊店)","lon":"121.46101","lat":"31.22957","category":"68","category_name":"快餐厅","address":"静安区吴江路169号四季坊B1楼B101号铺(近南京西路地铁站3号出口)"},{"poiid":"B2094757D06BA3FA489A","title":"HM","lon":"121.461163338","lat":"31.2305978079","category":"141","category_name":"服装鞋帽皮具店","address":"上海南京西路865号"},{"poiid":"B2094757D069A7FF439F","title":"芋贵人(南京西路店)","lon":"121.461997038","lat":"31.2297833906","category":"67","category_name":"甜品店","address":"上海南京西路819号开欣商厦4楼412"},{"poiid":"B2094750DB6BA3F4469B","title":"mook","lon":"121.462669","lat":"31.23101","category":"500","category_name":"未知分类","address":null},{"poiid":"B2094654DA6CA2FB489D","title":"华华川菜馆","lon":"121.46253","lat":"31.2302","category":"71","category_name":"四川菜","address":"静安区奉贤路61号(近石门二路)"},{"poiid":"B2094757D069A3FB4693","title":"东方有线大厦","lon":"121.463497653","lat":"31.2304960495","category":"46","category_name":"楼宇","address":"上海南京西路699号"},{"poiid":"B2094757D06FA4FD459D","title":"爱茜茜里(吴江路店)","lon":"121.46266","lat":"31.23008","category":"257","category_name":"中餐厅","address":"静安区吴江路166号1楼(近石门一路)"},{"poiid":"B2094750D364A2F84692","title":"eden-LoungeClub","lon":"121.46263588015","lat":"31.23111042168","category":"111","category_name":"休闲餐饮场所","address":"南京西路760号博爱大厦4楼(阿斯顿.马丁车展厅楼上近石门二路)"},{"poiid":"B2094752D164A0FC439D","title":"港汇恒隆广场","lon":"121.463596","lat":"31.229129","category":"500","category_name":"未知分类","address":"徐家汇"},{"poiid":"B2094655D26DA6FE439A","title":"上海小南国吴江店","lon":"121.46344","lat":"31.23039","category":"257","category_name":"中餐厅","address":""},{"poiid":"B2094757D468AAF9459C","title":"GCX","lon":"121.461331","lat":"31.230426","category":"94","category_name":"西餐厅","address":"静安区吴江路休闲步行街138号2楼(近石门一路)"},{"poiid":"B2094757D465A6F8469C","title":"味千拉面 818广场店","lon":"121.461623054","lat":"31.231004793","category":"95","category_name":"日本料理","address":"静安区南京西路818号818广场B1楼104B(近石门一路)"},{"poiid":"B2094757D068A7F8459B","title":"南京美发店(南京西路店)","lon":"121.46209","lat":"31.23075","category":"148","category_name":"美容美发店","address":"静安区南京西路784号(近石门一路)"},{"poiid":"B2094654DA6CA2FB409D","title":"东方众鑫大厦","lon":"121.46334","lat":"31.23035","category":"46","category_name":"楼宇","address":"朝阳亚运村北炎黄艺术馆旁"},{"poiid":"B2094654DA6CA2F8499B","title":"吴江路东段小吃街","lon":"121.46176","lat":"31.23032","category":"116","category_name":"特色商业街","address":"吴江路"},{"poiid":"B2094757DB64A6FF489A","title":"酷酷璐（四季坊店）","lon":"121.462","lat":"31.2299","category":"87","category_name":"特色／地方风味餐厅","address":"上海静安区吴江路169号 四季坊一层"},{"poiid":"B2094654DB65A7F9489F","title":"汉庭酒店(南京西路店)","lon":"121.46238","lat":"31.22823","category":"216","category_name":"经济型连锁酒店","address":"静安区石门一路239号(近吴江路)"},{"poiid":"B2094751D56FA1FE479C","title":"大阪王将","lon":"121.463198","lat":"31.230088","category":"247","category_name":"餐饮美食","address":"静安区吴江路169号四季坊1楼(近石门一路)"},{"poiid":"B2094654DB69A4F84299","title":"星巴克(吴江路店)","lon":"121.461502","lat":"31.230398","category":"65","category_name":"咖啡厅","address":"静安区吴江路128号(近石门一路)"},{"poiid":"B2094654DA6CA2F4429B","title":"广电大厦","lon":"121.46485","lat":"31.23036","category":"46","category_name":"楼宇","address":"上海市静安区南京西路651号"},{"poiid":"B2094654DA6CA1F5459E","title":"满记甜品 吴江路店","lon":"121.4610946","lat":"31.2301023","category":"67","category_name":"甜品店","address":"静安区吴江路169号四季坊商场1楼102号单元(近南京西路)"},{"poiid":"B2094753D76FAAFA449C","title":"上海滩国泰旗舰店","lon":"121.466011","lat":"31.216125","category":"249","category_name":"购物服务","address":"淮海中路868号"},{"poiid":"B209475CD564A7F84292","title":"上海滩新天地店","lon":"121.47463","lat":"31.22164","category":"119","category_name":"商场","address":"\"太仓路181弄新天地北里15号\r\n\""},{"poiid":"B209475CD564A7F8439E","title":"上海滩中信泰富店","lon":"121.45602","lat":"31.22851","category":"119","category_name":"商场","address":"\"南京西路1168号中信泰富广场，店铺号221.\r\n\""},{"poiid":"B2094757D06BA3FC4699","title":"上海电视台","lon":"121.464846738","lat":"31.2300302958","category":"500","category_name":"未知分类","address":"上海静安区威海路298号"},{"poiid":"B2094757D06FA1F9489A","title":"藏珑泰厨","lon":"121.46120173","lat":"31.230886314","category":"99","category_name":"泰国／越南菜品餐厅","address":"静安区南京西路818号818广场6楼(近石门一路)"},{"poiid":"B2094750DA6DAAFD4099","title":"MOOK CLUB","lon":"121.4629","lat":"31.23149","category":"172","category_name":"酒吧","address":"静安区南京西路758号5-6楼(近凤阳路)"},{"poiid":"B2094655D26FA6FB4892","title":"文新报业大厦","lon":"121.464","lat":"31.2318","category":"46","category_name":"楼宇","address":"上海市静安区威海路755号"},{"poiid":"B2094757D06FA2FA459B","title":"wooden box cafe","lon":"121.46442794","lat":"31.230162879","category":"65","category_name":"咖啡厅","address":"静安区青海路9号(近上海电视台)"},{"poiid":"B2094654DA6CA1F84292","title":"王家沙(南京西路)","lon":"121.46122","lat":"31.23063","category":"257","category_name":"中餐厅","address":"静安区南京西路805号(近石门一路)"},{"poiid":"B2094757D06FA2FB449B","title":"岳阳医院名医特诊部(青海路分院)","lon":"121.46431","lat":"31.23029","category":"162","category_name":"医院","address":"静安区青海路44号(近南京西路)"},{"poiid":"B2094757D06FA0F44298","title":"WINDOWS(青海路店)","lon":"121.46414","lat":"31.2309","category":"260","category_name":"其他","address":"静安区南京西路698号(上海电视台对面)"},{"poiid":"B2094757D06FABFE419D","title":"吴江路","lon":"121.463009","lat":"31.230562","category":"260","category_name":"其他","address":"上海静安区吴江路"},{"poiid":"B2094655D26EA4FC409E","title":"甜蜜蜜(吴江店)","lon":"121.46241","lat":"31.23028","category":"87","category_name":"特色／地方风味餐厅","address":"静安区吴江路178号(近泰兴路)"},{"poiid":"B2094750DA6DABF5439F","title":"MOOK CLUB","lon":"121.462947","lat":"31.231401","category":"248","category_name":"生活娱乐","address":"静安区南京西路758号"},{"poiid":"B2094757D06FA4FF499D","title":"小南国(众鑫店)","lon":"121.46378","lat":"31.23014","category":"76","category_name":"上海菜","address":"静安区吴江路31号东方众鑫大厦2-5楼(近吴江路)"},{"poiid":"B2094757DA6EA6FB419A","title":"合点寿司(南京西路店)","lon":"121.461213999998","lat":"31.2304790000002","category":"95","category_name":"日本料理","address":"静安区南京西路818号818广场B1楼(近石门一路)"},{"poiid":"B2094757D06FA3F9429F","title":"权味 吴江路店","lon":"121.461074","lat":"31.230026","category":"96","category_name":"韩国料理","address":"静安区吴江路169号四季坊商场2楼(近石门一路)"},{"poiid":"B2094757D06AA5F4459D","title":"Awfully Chocolate","lon":"121.461541738","lat":"31.2302323001","category":"500","category_name":"未知分类","address":"上海市静安区泰兴路"},{"poiid":"B2094655D26FA5FC489A","title":"四季坊","lon":"121.46162","lat":"31.22993","category":"119","category_name":"商场","address":"静安区吴江路169号2楼(近南京西路)"},{"poiid":"B2094757D06FA3FF419F","title":"Wagas沃歌斯(吴江路店)","lon":"121.46191406","lat":"31.230632782","category":"94","category_name":"西餐厅","address":"静安区吴江路169号四季坊116室(近泰兴路)"},{"poiid":"B2094757D76AA1FF469F","title":"拉面玩家 四季坊店","lon":"121.461104","lat":"31.229991","category":"68","category_name":"快餐厅","address":"静安区吴江路153号四季坊242单位(近石门一路)"},{"poiid":"B2094757D06FA0F9409A","title":"悦蓉香锅牛蛙馆","lon":"121.461138","lat":"31.230666","category":"247","category_name":"餐饮美食","address":"上海南京西路818号(818广场)B1"},{"poiid":"B2094655D26BA1FF469C","title":"南京西路上海电视台","lon":"121.46267","lat":"31.23099","category":"38","category_name":"公交车站","address":""},{"poiid":"B2094654D564ABFA419B","title":"东方海外大厦","lon":"121.461","lat":"31.2295","category":"46","category_name":"楼宇","address":"上海,上海市,延安中路841号"},{"poiid":"B2094757D069A1FC459B","title":"相扑烤肉","lon":"121.462337738","lat":"31.2299672945","category":"257","category_name":"中餐厅","address":"上海吴江路169号四季坊商场2楼201﹣206单元"},{"poiid":"B2094757D068A3FB429B","title":"上海市东方公证处","lon":"121.4634585","lat":"31.231949636","category":"46","category_name":"楼宇","address":"上海静安区凤阳路660号（接待大厅 凤阳路598号）"},{"poiid":"B2094757D06FA3F4499D","title":"DQ冰雪皇后(吴江店)","lon":"121.46162","lat":"31.229935","category":"113","category_name":"冷饮店","address":"静安区吴江路169号四季坊1楼(近石门一路)"},{"poiid":"B2094757D069A2F9429D","title":"玛莎百货咖啡厅","lon":"121.460338054","lat":"31.230278793","category":"65","category_name":"咖啡厅","address":"南京西路863号玛莎百货4楼近石门一路"},{"poiid":"B2094654DA6CA1F5469A","title":"香啡缤 吴江路店 Coffee Bean&Tea Leaf","lon":"121.461022054","lat":"31.229906793","category":"65","category_name":"咖啡厅","address":"静安区吴江路169号静安四季坊145-146单元(近石门一路)"},{"poiid":"B2094757D06FA2FE499A","title":"麦当劳(四季坊店)","lon":"121.46101","lat":"31.22957","category":"68","category_name":"快餐厅","address":"静安区吴江路169号四季坊B1楼B101号铺(近南京西路地铁站3号出口)"},{"poiid":"B2094757D06BA3FA489A","title":"HM","lon":"121.461163338","lat":"31.2305978079","category":"141","category_name":"服装鞋帽皮具店","address":"上海南京西路865号"},{"poiid":"B2094757D069A7FF439F","title":"芋贵人(南京西路店)","lon":"121.461997038","lat":"31.2297833906","category":"67","category_name":"甜品店","address":"上海南京西路819号开欣商厦4楼412"},{"poiid":"B2094750DB6BA3F4469B","title":"mook","lon":"121.462669","lat":"31.23101","category":"500","category_name":"未知分类","address":null},{"poiid":"B2094654DA6CA2FB489D","title":"华华川菜馆","lon":"121.46253","lat":"31.2302","category":"71","category_name":"四川菜","address":"静安区奉贤路61号(近石门二路)"},{"poiid":"B2094757D069A3FB4693","title":"东方有线大厦","lon":"121.463497653","lat":"31.2304960495","category":"46","category_name":"楼宇","address":"上海南京西路699号"},{"poiid":"B2094757D06FA4FD459D","title":"爱茜茜里(吴江路店)","lon":"121.46266","lat":"31.23008","category":"257","category_name":"中餐厅","address":"静安区吴江路166号1楼(近石门一路)"},{"poiid":"B2094750D364A2F84692","title":"eden-LoungeClub","lon":"121.46263588015","lat":"31.23111042168","category":"111","category_name":"休闲餐饮场所","address":"南京西路760号博爱大厦4楼(阿斯顿.马丁车展厅楼上近石门二路)"},{"poiid":"B2094752D164A0FC439D","title":"港汇恒隆广场","lon":"121.463596","lat":"31.229129","category":"500","category_name":"未知分类","address":"徐家汇"},{"poiid":"B2094655D26DA6FE439A","title":"上海小南国吴江店","lon":"121.46344","lat":"31.23039","category":"257","category_name":"中餐厅","address":""},{"poiid":"B2094757D468AAF9459C","title":"GCX","lon":"121.461331","lat":"31.230426","category":"94","category_name":"西餐厅","address":"静安区吴江路休闲步行街138号2楼(近石门一路)"},{"poiid":"B2094757D465A6F8469C","title":"味千拉面 818广场店","lon":"121.461623054","lat":"31.231004793","category":"95","category_name":"日本料理","address":"静安区南京西路818号818广场B1楼104B(近石门一路)"},{"poiid":"B2094757D068A7F8459B","title":"南京美发店(南京西路店)","lon":"121.46209","lat":"31.23075","category":"148","category_name":"美容美发店","address":"静安区南京西路784号(近石门一路)"},{"poiid":"B2094654DA6CA2FB409D","title":"东方众鑫大厦","lon":"121.46334","lat":"31.23035","category":"46","category_name":"楼宇","address":"朝阳亚运村北炎黄艺术馆旁"},{"poiid":"B2094654DA6CA2F8499B","title":"吴江路东段小吃街","lon":"121.46176","lat":"31.23032","category":"116","category_name":"特色商业街","address":"吴江路"},{"poiid":"B2094757DB64A6FF489A","title":"酷酷璐（四季坊店）","lon":"121.462","lat":"31.2299","category":"87","category_name":"特色／地方风味餐厅","address":"上海静安区吴江路169号 四季坊一层"},{"poiid":"B2094654DB65A7F9489F","title":"汉庭酒店(南京西路店)","lon":"121.46238","lat":"31.22823","category":"216","category_name":"经济型连锁酒店","address":"静安区石门一路239号(近吴江路)"},{"poiid":"B2094751D56FA1FE479C","title":"大阪王将","lon":"121.463198","lat":"31.230088","category":"247","category_name":"餐饮美食","address":"静安区吴江路169号四季坊1楼(近石门一路)"},{"poiid":"B2094654DB69A4F84299","title":"星巴克(吴江路店)","lon":"121.461502","lat":"31.230398","category":"65","category_name":"咖啡厅","address":"静安区吴江路128号(近石门一路)"},{"poiid":"B2094654DA6CA2F4429B","title":"广电大厦","lon":"121.46485","lat":"31.23036","category":"46","category_name":"楼宇","address":"上海市静安区南京西路651号"},{"poiid":"B2094654DA6CA1F5459E","title":"满记甜品 吴江路店","lon":"121.4610946","lat":"31.2301023","category":"67","category_name":"甜品店","address":"静安区吴江路169号四季坊商场1楼102号单元(近南京西路)"},{"poiid":"B2094753D76FAAFA449C","title":"上海滩国泰旗舰店","lon":"121.466011","lat":"31.216125","category":"249","category_name":"购物服务","address":"淮海中路868号"},{"poiid":"B209475CD564A7F84292","title":"上海滩新天地店","lon":"121.47463","lat":"31.22164","category":"119","category_name":"商场","address":"\"太仓路181弄新天地北里15号\r\n\""},{"poiid":"B209475CD564A7F8439E","title":"上海滩中信泰富店","lon":"121.45602","lat":"31.22851","category":"119","category_name":"商场","address":"\"南京西路1168号中信泰富广场，店铺号221.\r\n\""},{"poiid":"B2094757D06BA3FC4699","title":"上海电视台","lon":"121.464846738","lat":"31.2300302958","category":"500","category_name":"未知分类","address":"上海静安区威海路298号"},{"poiid":"B2094757D06FA1F9489A","title":"藏珑泰厨","lon":"121.46120173","lat":"31.230886314","category":"99","category_name":"泰国／越南菜品餐厅","address":"静安区南京西路818号818广场6楼(近石门一路)"},{"poiid":"B2094750DA6DAAFD4099","title":"MOOK CLUB","lon":"121.4629","lat":"31.23149","category":"172","category_name":"酒吧","address":"静安区南京西路758号5-6楼(近凤阳路)"},{"poiid":"B2094655D26FA6FB4892","title":"文新报业大厦","lon":"121.464","lat":"31.2318","category":"46","category_name":"楼宇","address":"上海市静安区威海路755号"},{"poiid":"B2094757D06FA2FA459B","title":"wooden box cafe","lon":"121.46442794","lat":"31.230162879","category":"65","category_name":"咖啡厅","address":"静安区青海路9号(近上海电视台)"},{"poiid":"B2094654DA6CA1F84292","title":"王家沙(南京西路)","lon":"121.46122","lat":"31.23063","category":"257","category_name":"中餐厅","address":"静安区南京西路805号(近石门一路)"},{"poiid":"B2094757D06FA2FB449B","title":"岳阳医院名医特诊部(青海路分院)","lon":"121.46431","lat":"31.23029","category":"162","category_name":"医院","address":"静安区青海路44号(近南京西路)"},{"poiid":"B2094757D06FA0F44298","title":"WINDOWS(青海路店)","lon":"121.46414","lat":"31.2309","category":"260","category_name":"其他","address":"静安区南京西路698号(上海电视台对面)"},{"poiid":"B2094757D06FABFE419D","title":"吴江路","lon":"121.463009","lat":"31.230562","category":"260","category_name":"其他","address":"上海静安区吴江路"},{"poiid":"B2094655D26EA4FC409E","title":"甜蜜蜜(吴江店)","lon":"121.46241","lat":"31.23028","category":"87","category_name":"特色／地方风味餐厅","address":"静安区吴江路178号(近泰兴路)"},{"poiid":"B2094750DA6DABF5439F","title":"MOOK CLUB","lon":"121.462947","lat":"31.231401","category":"248","category_name":"生活娱乐","address":"静安区南京西路758号"},{"poiid":"B2094757D06FA4FF499D","title":"小南国(众鑫店)","lon":"121.46378","lat":"31.23014","category":"76","category_name":"上海菜","address":"静安区吴江路31号东方众鑫大厦2-5楼(近吴江路)"},{"poiid":"B2094757DA6EA6FB419A","title":"合点寿司(南京西路店)","lon":"121.461213999998","lat":"31.2304790000002","category":"95","category_name":"日本料理","address":"静安区南京西路818号818广场B1楼(近石门一路)"},{"poiid":"B2094757D06FA3F9429F","title":"权味 吴江路店","lon":"121.461074","lat":"31.230026","category":"96","category_name":"韩国料理","address":"静安区吴江路169号四季坊商场2楼(近石门一路)"},{"poiid":"B2094757D06AA5F4459D","title":"Awfully Chocolate","lon":"121.461541738","lat":"31.2302323001","category":"500","category_name":"未知分类","address":"上海市静安区泰兴路"},{"poiid":"B2094655D26FA5FC489A","title":"四季坊","lon":"121.46162","lat":"31.22993","category":"119","category_name":"商场","address":"静安区吴江路169号2楼(近南京西路)"},{"poiid":"B2094757D06FA3FF419F","title":"Wagas沃歌斯(吴江路店)","lon":"121.46191406","lat":"31.230632782","category":"94","category_name":"西餐厅","address":"静安区吴江路169号四季坊116室(近泰兴路)"},{"poiid":"B2094757D76AA1FF469F","title":"拉面玩家 四季坊店","lon":"121.461104","lat":"31.229991","category":"68","category_name":"快餐厅","address":"静安区吴江路153号四季坊242单位(近石门一路)"},{"poiid":"B2094757D06FA0F9409A","title":"悦蓉香锅牛蛙馆","lon":"121.461138","lat":"31.230666","category":"247","category_name":"餐饮美食","address":"上海南京西路818号(818广场)B1"},{"poiid":"B2094655D26BA1FF469C","title":"南京西路上海电视台","lon":"121.46267","lat":"31.23099","category":"38","category_name":"公交车站","address":""},{"poiid":"B2094654D564ABFA419B","title":"东方海外大厦","lon":"121.461","lat":"31.2295","category":"46","category_name":"楼宇","address":"上海,上海市,延安中路841号"},{"poiid":"B2094757D069A1FC459B","title":"相扑烤肉","lon":"121.462337738","lat":"31.2299672945","category":"257","category_name":"中餐厅","address":"上海吴江路169号四季坊商场2楼201﹣206单元"},{"poiid":"B2094757D068A3FB429B","title":"上海市东方公证处","lon":"121.4634585","lat":"31.231949636","category":"46","category_name":"楼宇","address":"上海静安区凤阳路660号（接待大厅 凤阳路598号）"},{"poiid":"B2094757D06FA3F4499D","title":"DQ冰雪皇后(吴江店)","lon":"121.46162","lat":"31.229935","category":"113","category_name":"冷饮店","address":"静安区吴江路169号四季坊1楼(近石门一路)"},{"poiid":"B2094757D069A2F9429D","title":"玛莎百货咖啡厅","lon":"121.460338054","lat":"31.230278793","category":"65","category_name":"咖啡厅","address":"南京西路863号玛莎百货4楼近石门一路"},{"poiid":"B2094654DA6CA1F5469A","title":"香啡缤 吴江路店 Coffee Bean&Tea Leaf","lon":"121.461022054","lat":"31.229906793","category":"65","category_name":"咖啡厅","address":"静安区吴江路169号静安四季坊145-146单元(近石门一路)"},{"poiid":"B2094757D06FA2FE499A","title":"麦当劳(四季坊店)","lon":"121.46101","lat":"31.22957","category":"68","category_name":"快餐厅","address":"静安区吴江路169号四季坊B1楼B101号铺(近南京西路地铁站3号出口)"},{"poiid":"B2094757D06BA3FA489A","title":"HM","lon":"121.461163338","lat":"31.2305978079","category":"141","category_name":"服装鞋帽皮具店","address":"上海南京西路865号"},{"poiid":"B2094757D069A7FF439F","title":"芋贵人(南京西路店)","lon":"121.461997038","lat":"31.2297833906","category":"67","category_name":"甜品店","address":"上海南京西路819号开欣商厦4楼412"},{"poiid":"B2094750DB6BA3F4469B","title":"mook","lon":"121.462669","lat":"31.23101","category":"500","category_name":"未知分类","address":null},{"poiid":"B2094654DA6CA2FB489D","title":"华华川菜馆","lon":"121.46253","lat":"31.2302","category":"71","category_name":"四川菜","address":"静安区奉贤路61号(近石门二路)"},{"poiid":"B2094757D069A3FB4693","title":"东方有线大厦","lon":"121.463497653","lat":"31.2304960495","category":"46","category_name":"楼宇","address":"上海南京西路699号"},{"poiid":"B2094757D06FA4FD459D","title":"爱茜茜里(吴江路店)","lon":"121.46266","lat":"31.23008","category":"257","category_name":"中餐厅","address":"静安区吴江路166号1楼(近石门一路)"},{"poiid":"B2094750D364A2F84692","title":"eden-LoungeClub","lon":"121.46263588015","lat":"31.23111042168","category":"111","category_name":"休闲餐饮场所","address":"南京西路760号博爱大厦4楼(阿斯顿.马丁车展厅楼上近石门二路)"},{"poiid":"B2094752D164A0FC439D","title":"港汇恒隆广场","lon":"121.463596","lat":"31.229129","category":"500","category_name":"未知分类","address":"徐家汇"},{"poiid":"B2094655D26DA6FE439A","title":"上海小南国吴江店","lon":"121.46344","lat":"31.23039","category":"257","category_name":"中餐厅","address":""},{"poiid":"B2094757D468AAF9459C","title":"GCX","lon":"121.461331","lat":"31.230426","category":"94","category_name":"西餐厅","address":"静安区吴江路休闲步行街138号2楼(近石门一路)"},{"poiid":"B2094757D465A6F8469C","title":"味千拉面 818广场店","lon":"121.461623054","lat":"31.231004793","category":"95","category_name":"日本料理","address":"静安区南京西路818号818广场B1楼104B(近石门一路)"},{"poiid":"B2094757D068A7F8459B","title":"南京美发店(南京西路店)","lon":"121.46209","lat":"31.23075","category":"148","category_name":"美容美发店","address":"静安区南京西路784号(近石门一路)"},{"poiid":"B2094654DA6CA2FB409D","title":"东方众鑫大厦","lon":"121.46334","lat":"31.23035","category":"46","category_name":"楼宇","address":"朝阳亚运村北炎黄艺术馆旁"},{"poiid":"B2094654DA6CA2F8499B","title":"吴江路东段小吃街","lon":"121.46176","lat":"31.23032","category":"116","category_name":"特色商业街","address":"吴江路"},{"poiid":"B2094757DB64A6FF489A","title":"酷酷璐（四季坊店）","lon":"121.462","lat":"31.2299","category":"87","category_name":"特色／地方风味餐厅","address":"上海静安区吴江路169号 四季坊一层"},{"poiid":"B2094654DB65A7F9489F","title":"汉庭酒店(南京西路店)","lon":"121.46238","lat":"31.22823","category":"216","category_name":"经济型连锁酒店","address":"静安区石门一路239号(近吴江路)"},{"poiid":"B2094751D56FA1FE479C","title":"大阪王将","lon":"121.463198","lat":"31.230088","category":"247","category_name":"餐饮美食","address":"静安区吴江路169号四季坊1楼(近石门一路)"}]