[{"poiid":"B2094655D36DA7FA489C","title":"朱泾","lon":"121.16849","lat":"30.89183","category":"38","category_name":"公交车站","address":""},{"poiid":"B2094757D068A4FA449B","title":"东林寺","lon":"121.166431459","lat":"30.8943811709","category":"246","category_name":"回教寺","address":"近郊金山区朱泾镇东林街(近东林坊步行街)"},{"poiid":"B2094757D065A7F9439F","title":"金山区中心医院","lon":"121.158483103","lat":"30.8932906605","category":"162","category_name":"医院","address":"近郊金山区健康路146号(近新汇街)"},{"poiid":"B2094757D06AA2F8439E","title":"朱泾大光明影城","lon":"121.166709","lat":"30.896149","category":"178","category_name":"电影院","address":"上海市金山区朱泾镇人民路160号5楼"},{"poiid":"B2094654DB68A1F4459A","title":"金山汽车站","lon":"121.16913","lat":"30.89231","category":"35","category_name":"长途汽车站","address":"上海金山区朱泾镇罗星路"},{"poiid":"B2094757D66BA6F5489A","title":"肯德基 朱泾店 KFC","lon":"121.159978054","lat":"30.898310793","category":"68","category_name":"快餐厅","address":"近郊金山区朱泾镇公园路246弄51号"},{"poiid":"B2094757D06BA2F9459A","title":"自由港量贩式KTV(朱泾店)","lon":"121.16919","lat":"30.88602","category":"170","category_name":"KTV","address":"近郊金龙新街528弄7115号3楼(罗星南路和金龙新街间)"},{"poiid":"B2094757D06BA6FF459E","title":"紫金广场","lon":"121.15992748","lat":"30.898094888","category":"500","category_name":"未知分类","address":"上海金山区朱泾镇万安街"},{"poiid":"B2094757D064A3FA4492","title":"上岛咖啡(朱泾店)","lon":"121.168036","lat":"30.89659","category":"65","category_name":"咖啡厅","address":"近郊朱泾人民路"},{"poiid":"B2094655D26FA4F8419A","title":"上海交大附属第六医院金山分院","lon":"121.1564","lat":"30.89327","category":"162","category_name":"医院","address":"朱泾镇健康路146号2号楼"},{"poiid":"B2094655D36CA7FF4693","title":"红菱苑","lon":"121.16035","lat":"30.899189","category":"38","category_name":"公交车站","address":"上海市金山区朱泾镇秀州街718弄"},{"poiid":"B2094654DB68A1F54192","title":"汇都大酒楼 朱泾店","lon":"121.172134054","lat":"30.892881793","category":"70","category_name":"综合酒楼","address":"近郊金山区朱泾镇亭枫公路3759弄58号(近沈浦泾南路)"},{"poiid":"B2094757D16BA1F8439B","title":"川流不息 朱泾店","lon":"121.15718820669","lat":"30.899876489171","category":"71","category_name":"四川菜","address":"近郊朱泾镇健康路451号(健康路临源街)"},{"poiid":"B2094654DB68A0FC479B","title":"南圩小区","lon":"121.16128","lat":"30.89729","category":"47","category_name":"住宅区","address":"朱泾镇"},{"poiid":"B2094751D46BABFD499E","title":"乐购上海沈浦泾店","lon":"121.167995","lat":"30.897236","category":"500","category_name":"未知分类","address":"沈浦泾路50号"},{"poiid":"B2094757D16FAAF9469A","title":"金山中学","lon":"121.1609361","lat":"30.882937427","category":"55","category_name":"中学","address":"近郊金山区朱泾镇众益街899号(塘园路众益街)"},{"poiid":"B2094757D16CA5F94692","title":"味千拉面(万安街店)","lon":"121.1682705","lat":"30.8969715","category":"95","category_name":"日本料理","address":"近郊金山朱泾镇万安街835号1楼(朱泾万安街罗星路)"},{"poiid":"B2094655D36CA0FE4599","title":"金山公园","lon":"121.16154","lat":"30.89309","category":"38","category_name":"公交车站","address":"近郊金山区朱泾镇公园路96号(朱泾公园路新汇街)"},{"poiid":"B2094655D36CA0FA439A","title":"健康路","lon":"121.1586","lat":"30.89342","category":"38","category_name":"公交车站","address":""},{"poiid":"B2094757DA65A5F5469C","title":"莫泰168（上海金山朱泾店）","lon":"121.166678667","lat":"30.896834544","category":"216","category_name":"经济型连锁酒店","address":"上海市金山区朱泾镇万安街625号西侧"},{"poiid":"B2094654DB68A0FD479F","title":"上海交通大学医学院附属卫校金山分校","lon":"121.16492","lat":"30.88982","category":"52","category_name":"高等院校","address":"金山区卫生路43"},{"poiid":"B2094654DB68A0FC4892","title":"寻梦园(朱泾·公园路)","lon":"121.16133","lat":"30.89597","category":"65","category_name":"咖啡厅","address":"近郊金山区朱泾镇公园路295号(近金山苏宁电器)"},{"poiid":"B2094654DB68A1F4459E","title":"金山电影院","lon":"121.16646","lat":"30.896759","category":"178","category_name":"电影院","address":"万安街625号"},{"poiid":"B2094752D06CA0F9489C","title":"上海17.5影城(金龙新街店)","lon":"121.1692","lat":"30.88696","category":"178","category_name":"电影院","address":"近郊金山朱泾镇金龙新街528弄金上海生活广场7105号(近自由港KTV)"},{"poiid":"B2094654DB68A1F4449B","title":"九柏百货商场","lon":"121.16178","lat":"30.89423","category":"119","category_name":"商场","address":"朱泾镇"},{"poiid":"B2094655D36CA3F9469D","title":"好又多朱泾大卖场","lon":"121.16171","lat":"30.89522","category":"118","category_name":"超级市场","address":""},{"poiid":"B2094757D064A1F9419F","title":"华光紫荆苑","lon":"121.15877","lat":"30.888153","category":"500","category_name":"未知分类","address":"上海市金山区朱泾镇亭枫公路4089号"},{"poiid":"B2094757D168A2F4489E","title":"南佳苑酒店","lon":"121.164650054","lat":"30.890314793","category":"76","category_name":"上海菜","address":"近郊金山区朱泾金龙新街501号3楼(近罗星南路)"},{"poiid":"B2094655D26BA6FB499E","title":"榆松苑","lon":"121.16026","lat":"30.895126","category":"47","category_name":"住宅区","address":"上海市金山区朱泾镇文化路38弄"},{"poiid":"B2094654DB64A0F54992","title":"新华书店(朱泾·万安街)","lon":"121.1666","lat":"30.89714","category":"125","category_name":"书店","address":""},{"poiid":"B2094753D56EA6FB4893","title":"summer only","lon":"121.163632","lat":"30.895435","category":"500","category_name":"未知分类","address":"上海市金山区朱泾镇城中路64号"},{"poiid":"B2094655D265A1F9449D","title":"金师傅馄饨(朱泾镇店)","lon":"121.161","lat":"30.89457","category":"257","category_name":"中餐厅","address":"朱泾镇西林街102号"},{"poiid":"B2094757D66DA5FE4098","title":"苏宁电器(朱泾公园路店)","lon":"121.161745","lat":"30.895311","category":"138","category_name":"家电电子卖场","address":"上海金山区朱泾公园路288号二楼"},{"poiid":"B2094654DB68A0FC479A","title":"上海浦东鸡朱泾店","lon":"121.16217","lat":"30.89712","category":"257","category_name":"中餐厅","address":"万安街820号"},{"poiid":"B2094654DB68A0FC469B","title":"平湖美食馆","lon":"121.16328","lat":"30.89928","category":"257","category_name":"中餐厅","address":"近郊金山区朱泾镇南圩路(紫金广场对面)"},{"poiid":"B2094654DB69A6FD4892","title":"汇佳新苑","lon":"121.17064","lat":"30.885014","category":"47","category_name":"住宅区","address":"上海市浦东新区盛苑路777弄1-39号"},{"poiid":"B2094757DA6EAAF5439D","title":"太阳城音乐广场","lon":"121.162764000003","lat":"30.8979579999999","category":"248","category_name":"生活娱乐","address":"金山区朱泾镇公园路康隆广场"},{"poiid":"B2094654DB69A4F9419B","title":"永乐电器(朱泾店)","lon":"121.16116","lat":"30.89682","category":"138","category_name":"家电电子卖场","address":"金山区朱泾镇万街845号"},{"poiid":"B2094757D66DA4F4499D","title":"钟楼大酒店","lon":"121.162804","lat":"30.900176","category":"76","category_name":"上海菜","address":"近郊金山区朱泾镇临源街358号(朱泾人民路临源街)"},{"poiid":"B2094654DB68A1F4439C","title":"金山图书馆","lon":"121.16014","lat":"30.89639","category":"181","category_name":"图书馆","address":"朱泾镇文化路110号"},{"poiid":"B2094655D36DA1FB479B","title":"西林街","lon":"121.15859","lat":"30.89477","category":"38","category_name":"公交车站","address":""},{"poiid":"B2094655D36DA7FA489D","title":"朱泾汽车站","lon":"121.16939","lat":"30.89236","category":"35","category_name":"长途汽车站","address":"近郊金山区亭枫公路4420号(近罗星路)"},{"poiid":"B2094757D665A4FA469A","title":"克莉丝汀 金龙新街店","lon":"121.160174054","lat":"30.889875793","category":"67","category_name":"甜品店","address":"近郊金山区金龙新街488号(近塘园路)"},{"poiid":"B2094654DB68A0FE4299","title":"紫金名苑","lon":"121.17234","lat":"30.88922","category":"47","category_name":"住宅区","address":""},{"poiid":"B2094752D165A7FF4292","title":"美天量贩式KTV","lon":"121.166494","lat":"30.8959","category":"170","category_name":"KTV","address":"金龙新街480号3楼"},{"poiid":"B2094654DB68A1F5489E","title":"张记拉面馆","lon":"121.1594","lat":"30.894","category":"257","category_name":"中餐厅","address":""},{"poiid":"B2094654DB68A0FC4692","title":"上海金都美容美发有限公司","lon":"121.16239","lat":"30.89713","category":"148","category_name":"美容美发店","address":""},{"poiid":"B2094654DB69A7F44493","title":"朱泾第二小学","lon":"121.1628","lat":"30.89763","category":"56","category_name":"小学","address":"闵行区朱泾南圩路22号"},{"poiid":"B2094654DB68A1F4439E","title":"上海电视中专金山分校","lon":"121.159","lat":"30.89711","category":"52","category_name":"高等院校","address":"万安街950号"},{"poiid":"B2094757D465A7FC419D","title":"美林阁 金龙新街店","lon":"121.166339","lat":"30.88584","category":"76","category_name":"上海菜","address":"近郊金山朱泾镇金龙新街535号"},{"poiid":"B2094655D36DA7FA489C","title":"朱泾","lon":"121.16849","lat":"30.89183","category":"38","category_name":"公交车站","address":""},{"poiid":"B2094757D068A4FA449B","title":"东林寺","lon":"121.166431459","lat":"30.8943811709","category":"246","category_name":"回教寺","address":"近郊金山区朱泾镇东林街(近东林坊步行街)"},{"poiid":"B2094757D065A7F9439F","title":"金山区中心医院","lon":"121.158483103","lat":"30.8932906605","category":"162","category_name":"医院","address":"近郊金山区健康路146号(近新汇街)"},{"poiid":"B2094757D06AA2F8439E","title":"朱泾大光明影城","lon":"121.166709","lat":"30.896149","category":"178","category_name":"电影院","address":"上海市金山区朱泾镇人民路160号5楼"},{"poiid":"B2094654DB68A1F4459A","title":"金山汽车站","lon":"121.16913","lat":"30.89231","category":"35","category_name":"长途汽车站","address":"上海金山区朱泾镇罗星路"},{"poiid":"B2094757D66BA6F5489A","title":"肯德基 朱泾店 KFC","lon":"121.159978054","lat":"30.898310793","category":"68","category_name":"快餐厅","address":"近郊金山区朱泾镇公园路246弄51号"},{"poiid":"B2094757D06BA2F9459A","title":"自由港量贩式KTV(朱泾店)","lon":"121.16919","lat":"30.88602","category":"170","category_name":"KTV","address":"近郊金龙新街528弄7115号3楼(罗星南路和金龙新街间)"},{"poiid":"B2094757D06BA6FF459E","title":"紫金广场","lon":"121.15992748","lat":"30.898094888","category":"500","category_name":"未知分类","address":"上海金山区朱泾镇万安街"},{"poiid":"B2094757D064A3FA4492","title":"上岛咖啡(朱泾店)","lon":"121.168036","lat":"30.89659","category":"65","category_name":"咖啡厅","address":"近郊朱泾人民路"},{"poiid":"B2094655D26FA4F8419A","title":"上海交大附属第六医院金山分院","lon":"121.1564","lat":"30.89327","category":"162","category_name":"医院","address":"朱泾镇健康路146号2号楼"},{"poiid":"B2094655D36CA7FF4693","title":"红菱苑","lon":"121.16035","lat":"30.899189","category":"38","category_name":"公交车站","address":"上海市金山区朱泾镇秀州街718弄"},{"poiid":"B2094654DB68A1F54192","title":"汇都大酒楼 朱泾店","lon":"121.172134054","lat":"30.892881793","category":"70","category_name":"综合酒楼","address":"近郊金山区朱泾镇亭枫公路3759弄58号(近沈浦泾南路)"},{"poiid":"B2094757D16BA1F8439B","title":"川流不息 朱泾店","lon":"121.15718820669","lat":"30.899876489171","category":"71","category_name":"四川菜","address":"近郊朱泾镇健康路451号(健康路临源街)"},{"poiid":"B2094654DB68A0FC479B","title":"南圩小区","lon":"121.16128","lat":"30.89729","category":"47","category_name":"住宅区","address":"朱泾镇"},{"poiid":"B2094751D46BABFD499E","title":"乐购上海沈浦泾店","lon":"121.167995","lat":"30.897236","category":"500","category_name":"未知分类","address":"沈浦泾路50号"},{"poiid":"B2094757D16FAAF9469A","title":"金山中学","lon":"121.1609361","lat":"30.882937427","category":"55","category_name":"中学","address":"近郊金山区朱泾镇众益街899号(塘园路众益街)"},{"poiid":"B2094757D16CA5F94692","title":"味千拉面(万安街店)","lon":"121.1682705","lat":"30.8969715","category":"95","category_name":"日本料理","address":"近郊金山朱泾镇万安街835号1楼(朱泾万安街罗星路)"},{"poiid":"B2094655D36CA0FE4599","title":"金山公园","lon":"121.16154","lat":"30.89309","category":"38","category_name":"公交车站","address":"近郊金山区朱泾镇公园路96号(朱泾公园路新汇街)"},{"poiid":"B2094655D36CA0FA439A","title":"健康路","lon":"121.1586","lat":"30.89342","category":"38","category_name":"公交车站","address":""},{"poiid":"B2094757DA65A5F5469C","title":"莫泰168（上海金山朱泾店）","lon":"121.166678667","lat":"30.896834544","category":"216","category_name":"经济型连锁酒店","address":"上海市金山区朱泾镇万安街625号西侧"},{"poiid":"B2094654DB68A0FD479F","title":"上海交通大学医学院附属卫校金山分校","lon":"121.16492","lat":"30.88982","category":"52","category_name":"高等院校","address":"金山区卫生路43"},{"poiid":"B2094654DB68A0FC4892","title":"寻梦园(朱泾·公园路)","lon":"121.16133","lat":"30.89597","category":"65","category_name":"咖啡厅","address":"近郊金山区朱泾镇公园路295号(近金山苏宁电器)"},{"poiid":"B2094654DB68A1F4459E","title":"金山电影院","lon":"121.16646","lat":"30.896759","category":"178","category_name":"电影院","address":"万安街625号"},{"poiid":"B2094752D06CA0F9489C","title":"上海17.5影城(金龙新街店)","lon":"121.1692","lat":"30.88696","category":"178","category_name":"电影院","address":"近郊金山朱泾镇金龙新街528弄金上海生活广场7105号(近自由港KTV)"},{"poiid":"B2094654DB68A1F4449B","title":"九柏百货商场","lon":"121.16178","lat":"30.89423","category":"119","category_name":"商场","address":"朱泾镇"},{"poiid":"B2094655D36CA3F9469D","title":"好又多朱泾大卖场","lon":"121.16171","lat":"30.89522","category":"118","category_name":"超级市场","address":""},{"poiid":"B2094757D064A1F9419F","title":"华光紫荆苑","lon":"121.15877","lat":"30.888153","category":"500","category_name":"未知分类","address":"上海市金山区朱泾镇亭枫公路4089号"},{"poiid":"B2094757D168A2F4489E","title":"南佳苑酒店","lon":"121.164650054","lat":"30.890314793","category":"76","category_name":"上海菜","address":"近郊金山区朱泾金龙新街501号3楼(近罗星南路)"},{"poiid":"B2094655D26BA6FB499E","title":"榆松苑","lon":"121.16026","lat":"30.895126","category":"47","category_name":"住宅区","address":"上海市金山区朱泾镇文化路38弄"},{"poiid":"B2094654DB64A0F54992","title":"新华书店(朱泾·万安街)","lon":"121.1666","lat":"30.89714","category":"125","category_name":"书店","address":""},{"poiid":"B2094753D56EA6FB4893","title":"summer only","lon":"121.163632","lat":"30.895435","category":"500","category_name":"未知分类","address":"上海市金山区朱泾镇城中路64号"},{"poiid":"B2094655D265A1F9449D","title":"金师傅馄饨(朱泾镇店)","lon":"121.161","lat":"30.89457","category":"257","category_name":"中餐厅","address":"朱泾镇西林街102号"},{"poiid":"B2094757D66DA5FE4098","title":"苏宁电器(朱泾公园路店)","lon":"121.161745","lat":"30.895311","category":"138","category_name":"家电电子卖场","address":"上海金山区朱泾公园路288号二楼"},{"poiid":"B2094654DB68A0FC479A","title":"上海浦东鸡朱泾店","lon":"121.16217","lat":"30.89712","category":"257","category_name":"中餐厅","address":"万安街820号"},{"poiid":"B2094654DB68A0FC469B","title":"平湖美食馆","lon":"121.16328","lat":"30.89928","category":"257","category_name":"中餐厅","address":"近郊金山区朱泾镇南圩路(紫金广场对面)"},{"poiid":"B2094654DB69A6FD4892","title":"汇佳新苑","lon":"121.17064","lat":"30.885014","category":"47","category_name":"住宅区","address":"上海市浦东新区盛苑路777弄1-39号"},{"poiid":"B2094757DA6EAAF5439D","title":"太阳城音乐广场","lon":"121.162764000003","lat":"30.8979579999999","category":"248","category_name":"生活娱乐","address":"金山区朱泾镇公园路康隆广场"},{"poiid":"B2094654DB69A4F9419B","title":"永乐电器(朱泾店)","lon":"121.16116","lat":"30.89682","category":"138","category_name":"家电电子卖场","address":"金山区朱泾镇万街845号"},{"poiid":"B2094757D66DA4F4499D","title":"钟楼大酒店","lon":"121.162804","lat":"30.900176","category":"76","category_name":"上海菜","address":"近郊金山区朱泾镇临源街358号(朱泾人民路临源街)"},{"poiid":"B2094654DB68A1F4439C","title":"金山图书馆","lon":"121.16014","lat":"30.89639","category":"181","category_name":"图书馆","address":"朱泾镇文化路110号"},{"poiid":"B2094655D36DA1FB479B","title":"西林街","lon":"121.15859","lat":"30.89477","category":"38","category_name":"公交车站","address":""},{"poiid":"B2094655D36DA7FA489D","title":"朱泾汽车站","lon":"121.16939","lat":"30.89236","category":"35","category_name":"长途汽车站","address":"近郊金山区亭枫公路4420号(近罗星路)"},{"poiid":"B2094757D665A4FA469A","title":"克莉丝汀 金龙新街店","lon":"121.160174054","lat":"30.889875793","category":"67","category_name":"甜品店","address":"近郊金山区金龙新街488号(近塘园路)"},{"poiid":"B2094654DB68A0FE4299","title":"紫金名苑","lon":"121.17234","lat":"30.88922","category":"47","category_name":"住宅区","address":""},{"poiid":"B2094752D165A7FF4292","title":"美天量贩式KTV","lon":"121.166494","lat":"30.8959","category":"170","category_name":"KTV","address":"金龙新街480号3楼"},{"poiid":"B2094654DB68A1F5489E","title":"张记拉面馆","lon":"121.1594","lat":"30.894","category":"257","category_name":"中餐厅","address":""},{"poiid":"B2094654DB68A0FC4692","title":"上海金都美容美发有限公司","lon":"121.16239","lat":"30.89713","category":"148","category_name":"美容美发店","address":""},{"poiid":"B2094654DB69A7F44493","title":"朱泾第二小学","lon":"121.1628","lat":"30.89763","category":"56","category_name":"小学","address":"闵行区朱泾南圩路22号"},{"poiid":"B2094654DB68A1F4439E","title":"上海电视中专金山分校","lon":"121.159","lat":"30.89711","category":"52","category_name":"高等院校","address":"万安街950号"},{"poiid":"B2094757D465A7FC419D","title":"美林阁 金龙新街店","lon":"121.166339","lat":"30.88584","category":"76","category_name":"上海菜","address":"近郊金山朱泾镇金龙新街535号"},{"poiid":"B2094655D36DA7FA489C","title":"朱泾","lon":"121.16849","lat":"30.89183","category":"38","category_name":"公交车站","address":""},{"poiid":"B2094757D068A4FA449B","title":"东林寺","lon":"121.166431459","lat":"30.8943811709","category":"246","category_name":"回教寺","address":"近郊金山区朱泾镇东林街(近东林坊步行街)"},{"poiid":"B2094757D065A7F9439F","title":"金山区中心医院","lon":"121.158483103","lat":"30.8932906605","category":"162","category_name":"医院","address":"近郊金山区健康路146号(近新汇街)"},{"poiid":"B2094757D06AA2F8439E","title":"朱泾大光明影城","lon":"121.166709","lat":"30.896149","category":"178","category_name":"电影院","address":"上海市金山区朱泾镇人民路160号5楼"},{"poiid":"B2094654DB68A1F4459A","title":"金山汽车站","lon":"121.16913","lat":"30.89231","category":"35","category_name":"长途汽车站","address":"上海金山区朱泾镇罗星路"},{"poiid":"B2094757D66BA6F5489A","title":"肯德基 朱泾店 KFC","lon":"121.159978054","lat":"30.898310793","category":"68","category_name":"快餐厅","address":"近郊金山区朱泾镇公园路246弄51号"},{"poiid":"B2094757D06BA2F9459A","title":"自由港量贩式KTV(朱泾店)","lon":"121.16919","lat":"30.88602","category":"170","category_name":"KTV","address":"近郊金龙新街528弄7115号3楼(罗星南路和金龙新街间)"},{"poiid":"B2094757D06BA6FF459E","title":"紫金广场","lon":"121.15992748","lat":"30.898094888","category":"500","category_name":"未知分类","address":"上海金山区朱泾镇万安街"},{"poiid":"B2094757D064A3FA4492","title":"上岛咖啡(朱泾店)","lon":"121.168036","lat":"30.89659","category":"65","category_name":"咖啡厅","address":"近郊朱泾人民路"},{"poiid":"B2094655D26FA4F8419A","title":"上海交大附属第六医院金山分院","lon":"121.1564","lat":"30.89327","category":"162","category_name":"医院","address":"朱泾镇健康路146号2号楼"},{"poiid":"B2094655D36CA7FF4693","title":"红菱苑","lon":"121.16035","lat":"30.899189","category":"38","category_name":"公交车站","address":"上海市金山区朱泾镇秀州街718弄"},{"poiid":"B2094654DB68A1F54192","title":"汇都大酒楼 朱泾店","lon":"121.172134054","lat":"30.892881793","category":"70","category_name":"综合酒楼","address":"近郊金山区朱泾镇亭枫公路3759弄58号(近沈浦泾南路)"},{"poiid":"B2094757D16BA1F8439B","title":"川流不息 朱泾店","lon":"121.15718820669","lat":"30.899876489171","category":"71","category_name":"四川菜","address":"近郊朱泾镇健康路451号(健康路临源街)"},{"poiid":"B2094654DB68A0FC479B","title":"南圩小区","lon":"121.16128","lat":"30.89729","category":"47","category_name":"住宅区","address":"朱泾镇"},{"poiid":"B2094751D46BABFD499E","title":"乐购上海沈浦泾店","lon":"121.167995","lat":"30.897236","category":"500","category_name":"未知分类","address":"沈浦泾路50号"},{"poiid":"B2094757D16FAAF9469A","title":"金山中学","lon":"121.1609361","lat":"30.882937427","category":"55","category_name":"中学","address":"近郊金山区朱泾镇众益街899号(塘园路众益街)"},{"poiid":"B2094757D16CA5F94692","title":"味千拉面(万安街店)","lon":"121.1682705","lat":"30.8969715","category":"95","category_name":"日本料理","address":"近郊金山朱泾镇万安街835号1楼(朱泾万安街罗星路)"},{"poiid":"B2094655D36CA0FE4599","title":"金山公园","lon":"121.16154","lat":"30.89309","category":"38","category_name":"公交车站","address":"近郊金山区朱泾镇公园路96号(朱泾公园路新汇街)"},{"poiid":"B2094655D36CA0FA439A","title":"健康路","lon":"121.1586","lat":"30.89342","category":"38","category_name":"公交车站","address":""},{"poiid":"B2094757DA65A5F5469C","title":"莫泰168（上海金山朱泾店）","lon":"121.166678667","lat":"30.896834544","category":"216","category_name":"经济型连锁酒店","address":"上海市金山区朱泾镇万安街625号西侧"},{"poiid":"B2094654DB68A0FD479F","title":"上海交通大学医学院附属卫校金山分校","lon":"121.16492","lat":"30.88982","category":"52","category_name":"高等院校","address":"金山区卫生路43"},{"poiid":"B2094654DB68A0FC4892","title":"寻梦园(朱泾·公园路)","lon":"121.16133","lat":"30.89597","category":"65","category_name":"咖啡厅","address":"近郊金山区朱泾镇公园路295号(近金山苏宁电器)"},{"poiid":"B2094654DB68A1F4459E","title":"金山电影院","lon":"121.16646","lat":"30.896759","category":"178","category_name":"电影院","address":"万安街625号"},{"poiid":"B2094752D06CA0F9489C","title":"上海17.5影城(金龙新街店)","lon":"121.1692","lat":"30.88696","category":"178","category_name":"电影院","address":"近郊金山朱泾镇金龙新街528弄金上海生活广场7105号(近自由港KTV)"},{"poiid":"B2094654DB68A1F4449B","title":"九柏百货商场","lon":"121.16178","lat":"30.89423","category":"119","category_name":"商场","address":"朱泾镇"},{"poiid":"B2094655D36CA3F9469D","title":"好又多朱泾大卖场","lon":"121.16171","lat":"30.89522","category":"118","category_name":"超级市场","address":""},{"poiid":"B2094757D064A1F9419F","title":"华光紫荆苑","lon":"121.15877","lat":"30.888153","category":"500","category_name":"未知分类","address":"上海市金山区朱泾镇亭枫公路4089号"},{"poiid":"B2094757D168A2F4489E","title":"南佳苑酒店","lon":"121.164650054","lat":"30.890314793","category":"76","category_name":"上海菜","address":"近郊金山区朱泾金龙新街501号3楼(近罗星南路)"},{"poiid":"B2094655D26BA6FB499E","title":"榆松苑","lon":"121.16026","lat":"30.895126","category":"47","category_name":"住宅区","address":"上海市金山区朱泾镇文化路38弄"},{"poiid":"B2094654DB64A0F54992","title":"新华书店(朱泾·万安街)","lon":"121.1666","lat":"30.89714","category":"125","category_name":"书店","address":""},{"poiid":"B2094753D56EA6FB4893","title":"summer only","lon":"121.163632","lat":"30.895435","category":"500","category_name":"未知分类","address":"上海市金山区朱泾镇城中路64号"},{"poiid":"B2094655D265A1F9449D","title":"金师傅馄饨(朱泾镇店)","lon":"121.161","lat":"30.89457","category":"257","category_name":"中餐厅","address":"朱泾镇西林街102号"},{"poiid":"B2094757D66DA5FE4098","title":"苏宁电器(朱泾公园路店)","lon":"121.161745","lat":"30.895311","category":"138","category_name":"家电电子卖场","address":"上海金山区朱泾公园路288号二楼"},{"poiid":"B2094654DB68A0FC479A","title":"上海浦东鸡朱泾店","lon":"121.16217","lat":"30.89712","category":"257","category_name":"中餐厅","address":"万安街820号"},{"poiid":"B2094654DB68A0FC469B","title":"平湖美食馆","lon":"121.16328","lat":"30.89928","category":"257","category_name":"中餐厅","address":"近郊金山区朱泾镇南圩路(紫金广场对面)"},{"poiid":"B2094654DB69A6FD4892","title":"汇佳新苑","lon":"121.17064","lat":"30.885014","category":"47","category_name":"住宅区","address":"上海市浦东新区盛苑路777弄1-39号"},{"poiid":"B2094757DA6EAAF5439D","title":"太阳城音乐广场","lon":"121.162764000003","lat":"30.8979579999999","category":"248","category_name":"生活娱乐","address":"金山区朱泾镇公园路康隆广场"},{"poiid":"B2094654DB69A4F9419B","title":"永乐电器(朱泾店)","lon":"121.16116","lat":"30.89682","category":"138","category_name":"家电电子卖场","address":"金山区朱泾镇万街845号"},{"poiid":"B2094757D66DA4F4499D","title":"钟楼大酒店","lon":"121.162804","lat":"30.900176","category":"76","category_name":"上海菜","address":"近郊金山区朱泾镇临源街358号(朱泾人民路临源街)"},{"poiid":"B2094654DB68A1F4439C","title":"金山图书馆","lon":"121.16014","lat":"30.89639","category":"181","category_name":"图书馆","address":"朱泾镇文化路110号"},{"poiid":"B2094655D36DA1FB479B","title":"西林街","lon":"121.15859","lat":"30.89477","category":"38","category_name":"公交车站","address":""},{"poiid":"B2094655D36DA7FA489D","title":"朱泾汽车站","lon":"121.16939","lat":"30.89236","category":"35","category_name":"长途汽车站","address":"近郊金山区亭枫公路4420号(近罗星路)"},{"poiid":"B2094757D665A4FA469A","title":"克莉丝汀 金龙新街店","lon":"121.160174054","lat":"30.889875793","category":"67","category_name":"甜品店","address":"近郊金山区金龙新街488号(近塘园路)"},{"poiid":"B2094654DB68A0FE4299","title":"紫金名苑","lon":"121.17234","lat":"30.88922","category":"47","category_name":"住宅区","address":""},{"poiid":"B2094752D165A7FF4292","title":"美天量贩式KTV","lon":"121.166494","lat":"30.8959","category":"170","category_name":"KTV","address":"金龙新街480号3楼"},{"poiid":"B2094654DB68A1F5489E","title":"张记拉面馆","lon":"121.1594","lat":"30.894","category":"257","category_name":"中餐厅","address":""},{"poiid":"B2094654DB68A0FC4692","title":"上海金都美容美发有限公司","lon":"121.16239","lat":"30.89713","category":"148","category_name":"美容美发店","address":""},{"poiid":"B2094654DB69A7F44493","title":"朱泾第二小学","lon":"121.1628","lat":"30.89763","category":"56","category_name":"小学","address":"闵行区朱泾南圩路22号"},{"poiid":"B2094654DB68A1F4439E","title":"上海电视中专金山分校","lon":"121.159","lat":"30.89711","category":"52","category_name":"高等院校","address":"万安街950号"},{"poiid":"B2094757D465A7FC419D","title":"美林阁 金龙新街店","lon":"121.166339","lat":"30.88584","category":"76","category_name":"上海菜","address":"近郊金山朱泾镇金龙新街535号"},{"poiid":"B2094655D36DA7FA489C","title":"朱泾","lon":"121.16849","lat":"30.89183","category":"38","category_name":"公交车站","address":""},{"poiid":"B2094757D068A4FA449B","title":"东林寺","lon":"121.166431459","lat":"30.8943811709","category":"246","category_name":"回教寺","address":"近郊金山区朱泾镇东林街(近东林坊步行街)"},{"poiid":"B2094757D065A7F9439F","title":"金山区中心医院","lon":"121.158483103","lat":"30.8932906605","category":"162","category_name":"医院","address":"近郊金山区健康路146号(近新汇街)"},{"poiid":"B2094757D06AA2F8439E","title":"朱泾大光明影城","lon":"121.166709","lat":"30.896149","category":"178","category_name":"电影院","address":"上海市金山区朱泾镇人民路160号5楼"},{"poiid":"B2094654DB68A1F4459A","title":"金山汽车站","lon":"121.16913","lat":"30.89231","category":"35","category_name":"长途汽车站","address":"上海金山区朱泾镇罗星路"},{"poiid":"B2094757D66BA6F5489A","title":"肯德基 朱泾店 KFC","lon":"121.159978054","lat":"30.898310793","category":"68","category_name":"快餐厅","address":"近郊金山区朱泾镇公园路246弄51号"},{"poiid":"B2094757D06BA2F9459A","title":"自由港量贩式KTV(朱泾店)","lon":"121.16919","lat":"30.88602","category":"170","category_name":"KTV","address":"近郊金龙新街528弄7115号3楼(罗星南路和金龙新街间)"},{"poiid":"B2094757D06BA6FF459E","title":"紫金广场","lon":"121.15992748","lat":"30.898094888","category":"500","category_name":"未知分类","address":"上海金山区朱泾镇万安街"},{"poiid":"B2094757D064A3FA4492","title":"上岛咖啡(朱泾店)","lon":"121.168036","lat":"30.89659","category":"65","category_name":"咖啡厅","address":"近郊朱泾人民路"},{"poiid":"B2094655D26FA4F8419A","title":"上海交大附属第六医院金山分院","lon":"121.1564","lat":"30.89327","category":"162","category_name":"医院","address":"朱泾镇健康路146号2号楼"},{"poiid":"B2094655D36CA7FF4693","title":"红菱苑","lon":"121.16035","lat":"30.899189","category":"38","category_name":"公交车站","address":"上海市金山区朱泾镇秀州街718弄"},{"poiid":"B2094654DB68A1F54192","title":"汇都大酒楼 朱泾店","lon":"121.172134054","lat":"30.892881793","category":"70","category_name":"综合酒楼","address":"近郊金山区朱泾镇亭枫公路3759弄58号(近沈浦泾南路)"},{"poiid":"B2094757D16BA1F8439B","title":"川流不息 朱泾店","lon":"121.15718820669","lat":"30.899876489171","category":"71","category_name":"四川菜","address":"近郊朱泾镇健康路451号(健康路临源街)"},{"poiid":"B2094654DB68A0FC479B","title":"南圩小区","lon":"121.16128","lat":"30.89729","category":"47","category_name":"住宅区","address":"朱泾镇"},{"poiid":"B2094751D46BABFD499E","title":"乐购上海沈浦泾店","lon":"121.167995","lat":"30.897236","category":"500","category_name":"未知分类","address":"沈浦泾路50号"},{"poiid":"B2094757D16FAAF9469A","title":"金山中学","lon":"121.1609361","lat":"30.882937427","category":"55","category_name":"中学","address":"近郊金山区朱泾镇众益街899号(塘园路众益街)"},{"poiid":"B2094757D16CA5F94692","title":"味千拉面(万安街店)","lon":"121.1682705","lat":"30.8969715","category":"95","category_name":"日本料理","address":"近郊金山朱泾镇万安街835号1楼(朱泾万安街罗星路)"},{"poiid":"B2094655D36CA0FE4599","title":"金山公园","lon":"121.16154","lat":"30.89309","category":"38","category_name":"公交车站","address":"近郊金山区朱泾镇公园路96号(朱泾公园路新汇街)"},{"poiid":"B2094655D36CA0FA439A","title":"健康路","lon":"121.1586","lat":"30.89342","category":"38","category_name":"公交车站","address":""},{"poiid":"B2094757DA65A5F5469C","title":"莫泰168（上海金山朱泾店）","lon":"121.166678667","lat":"30.896834544","category":"216","category_name":"经济型连锁酒店","address":"上海市金山区朱泾镇万安街625号西侧"},{"poiid":"B2094654DB68A0FD479F","title":"上海交通大学医学院附属卫校金山分校","lon":"121.16492","lat":"30.88982","category":"52","category_name":"高等院校","address":"金山区卫生路43"},{"poiid":"B2094654DB68A0FC4892","title":"寻梦园(朱泾·公园路)","lon":"121.16133","lat":"30.89597","category":"65","category_name":"咖啡厅","address":"近郊金山区朱泾镇公园路295号(近金山苏宁电器)"},{"poiid":"B2094654DB68A1F4459E","title":"金山电影院","lon":"121.16646","lat":"30.896759","category":"178","category_name":"电影院","address":"万安街625号"},{"poiid":"B2094752D06CA0F9489C","title":"上海17.5影城(金龙新街店)","lon":"121.1692","lat":"30.88696","category":"178","category_name":"电影院","address":"近郊金山朱泾镇金龙新街528弄金上海生活广场7105号(近自由港KTV)"},{"poiid":"B2094654DB68A1F4449B","title":"九柏百货商场","lon":"121.16178","lat":"30.89423","category":"119","category_name":"商场","address":"朱泾镇"},{"poiid":"B2094655D36CA3F9469D","title":"好又多朱泾大卖场","lon":"121.16171","lat":"30.89522","category":"118","category_name":"超级市场","address":""},{"poiid":"B2094757D064A1F9419F","title":"华光紫荆苑","lon":"121.15877","lat":"30.888153","category":"500","category_name":"未知分类","address":"上海市金山区朱泾镇亭枫公路4089号"},{"poiid":"B2094757D168A2F4489E","title":"南佳苑酒店","lon":"121.164650054","lat":"30.890314793","category":"76","category_name":"上海菜","address":"近郊金山区朱泾金龙新街501号3楼(近罗星南路)"},{"poiid":"B2094655D26BA6FB499E","title":"榆松苑","lon":"121.16026","lat":"30.895126","category":"47","category_name":"住宅区","address":"上海市金山区朱泾镇文化路38弄"},{"poiid":"B2094654DB64A0F54992","title":"新华书店(朱泾·万安街)","lon":"121.1666","lat":"30.89714","category":"125","category_name":"书店","address":""},{"poiid":"B2094753D56EA6FB4893","title":"summer only","lon":"121.163632","lat":"30.895435","category":"500","category_name":"未知分类","address":"上海市金山区朱泾镇城中路64号"},{"poiid":"B2094655D265A1F9449D","title":"金师傅馄饨(朱泾镇店)","lon":"121.161","lat":"30.89457","category":"257","category_name":"中餐厅","address":"朱泾镇西林街102号"},{"poiid":"B2094757D66DA5FE4098","title":"苏宁电器(朱泾公园路店)","lon":"121.161745","lat":"30.895311","category":"138","category_name":"家电电子卖场","address":"上海金山区朱泾公园路288号二楼"},{"poiid":"B2094654DB68A0FC479A","title":"上海浦东鸡朱泾店","lon":"121.16217","lat":"30.89712","category":"257","category_name":"中餐厅","address":"万安街820号"},{"poiid":"B2094654DB68A0FC469B","title":"平湖美食馆","lon":"121.16328","lat":"30.89928","category":"257","category_name":"中餐厅","address":"近郊金山区朱泾镇南圩路(紫金广场对面)"},{"poiid":"B2094654DB69A6FD4892","title":"汇佳新苑","lon":"121.17064","lat":"30.885014","category":"47","category_name":"住宅区","address":"上海市浦东新区盛苑路777弄1-39号"},{"poiid":"B2094757DA6EAAF5439D","title":"太阳城音乐广场","lon":"121.162764000003","lat":"30.8979579999999","category":"248","category_name":"生活娱乐","address":"金山区朱泾镇公园路康隆广场"},{"poiid":"B2094654DB69A4F9419B","title":"永乐电器(朱泾店)","lon":"121.16116","lat":"30.89682","category":"138","category_name":"家电电子卖场","address":"金山区朱泾镇万街845号"},{"poiid":"B2094757D66DA4F4499D","title":"钟楼大酒店","lon":"121.162804","lat":"30.900176","category":"76","category_name":"上海菜","address":"近郊金山区朱泾镇临源街358号(朱泾人民路临源街)"},{"poiid":"B2094654DB68A1F4439C","title":"金山图书馆","lon":"121.16014","lat":"30.89639","category":"181","category_name":"图书馆","address":"朱泾镇文化路110号"},{"poiid":"B2094655D36DA1FB479B","title":"西林街","lon":"121.15859","lat":"30.89477","category":"38","category_name":"公交车站","address":""},{"poiid":"B2094655D36DA7FA489D","title":"朱泾汽车站","lon":"121.16939","lat":"30.89236","category":"35","category_name":"长途汽车站","address":"近郊金山区亭枫公路4420号(近罗星路)"},{"poiid":"B2094757D665A4FA469A","title":"克莉丝汀 金龙新街店","lon":"121.160174054","lat":"30.889875793","category":"67","category_name":"甜品店","address":"近郊金山区金龙新街488号(近塘园路)"},{"poiid":"B2094654DB68A0FE4299","title":"紫金名苑","lon":"121.17234","lat":"30.88922","category":"47","category_name":"住宅区","address":""},{"poiid":"B2094752D165A7FF4292","title":"美天量贩式KTV","lon":"121.166494","lat":"30.8959","category":"170","category_name":"KTV","address":"金龙新街480号3楼"},{"poiid":"B2094654DB68A1F5489E","title":"张记拉面馆","lon":"121.1594","lat":"30.894","category":"257","category_name":"中餐厅","address":""},{"poiid":"B2094654DB68A0FC4692","title":"上海金都美容美发有限公司","lon":"121.16239","lat":"30.89713","category":"148","category_name":"美容美发店","address":""},{"poiid":"B2094654DB69A7F44493","title":"朱泾第二小学","lon":"121.1628","lat":"30.89763","category":"56","category_name":"小学","address":"闵行区朱泾南圩路22号"},{"poiid":"B2094654DB68A1F4439E","title":"上海电视中专金山分校","lon":"121.159","lat":"30.89711","category":"52","category_name":"高等院校","address":"万安街950号"},{"poiid":"B2094757D465A7FC419D","title":"美林阁 金龙新街店","lon":"121.166339","lat":"30.88584","category":"76","category_name":"上海菜","address":"近郊金山朱泾镇金龙新街535号"}]