[{"poiid":"B2094757D06FA2FE499F","title":"上海师范大学(奉贤校区)","lon":"121.52111","lat":"30.83437","category":"52","category_name":"高等院校","address":"上海近郊奉贤区海思路100号"},{"poiid":"B2094757D06FA5F54698","title":"上海师范大学(奉贤校区)图书馆","lon":"121.51958704","lat":"30.837477779","category":"181","category_name":"图书馆","address":"近郊奉贤区奉炮公路553号上海师范大学内(近海思路)"},{"poiid":"B2094757D06FA7FA459E","title":"华东理工大学(奉贤校区)","lon":"121.506258","lat":"30.831053","category":"671","category_name":"高校中心点","address":"近郊海思路999号"},{"poiid":"B2094757D06FA2FA489D","title":"上海应用技术学院(奉贤校区)","lon":"121.5169754","lat":"30.845203399","category":"52","category_name":"高等院校","address":"近郊奉贤区奉炮公路1225号(奉炮公路海阔路)"},{"poiid":"B2094757D068A7F44493","title":"上海师范大学(奉贤校区)学生宿舍区","lon":"121.511986339","lat":"30.8360213012","category":"253","category_name":"校园生活","address":"上海市奉贤区海思路500号"},{"poiid":"B2094757D068A7FC409F","title":"奉贤海湾","lon":"121.516909","lat":"30.816803","category":"242","category_name":"海滩","address":"上海近碧海金沙"},{"poiid":"B2094757D168A7FA489F","title":"上师大女人村","lon":"121.514662387","lat":"30.8320111656","category":"500","category_name":"未知分类","address":"上海师范大学女生宿舍园区"},{"poiid":"B2094757D068A1F4479B","title":"豪生棕榈滩大酒店","lon":"121.52115133","lat":"30.814700623","category":"94","category_name":"西餐厅","address":"近郊奉贤海湾旅游区海鸥路1888号"},{"poiid":"B2094757D068A4FD4099","title":"上海师范大学剧院(奉贤校区)","lon":"121.517351","lat":"30.838204","category":"179","category_name":"音乐厅","address":"上海奉贤区海思路100号上海师范大学内"},{"poiid":"B2094757D06FA6FE4892","title":"上海师范大学三教(奉贤校区)","lon":"121.51912117","lat":"30.839838485","category":"253","category_name":"校园生活","address":"上海市奉贤区海思路100号"},{"poiid":"B2094757D06FAAF5479E","title":"上海应用技术学院图书馆","lon":"121.51285502","lat":"30.843731089","category":"253","category_name":"校园生活","address":"奉贤区奉炮公路1255号上海应用技术学院内"},{"poiid":"B2094757D069A1FE459B","title":"上海旅游高等专科学校(奉贤校区)","lon":"121.513297187","lat":"30.837675898","category":"671","category_name":"高校中心点","address":"上海市奉贤区海思路500号"},{"poiid":"B2094757D064A3FB499E","title":"海湾旅游区","lon":"121.519107","lat":"30.817654","category":"500","category_name":"未知分类","address":"上海奉贤海湾"},{"poiid":"B2094757D06BA2FF429D","title":"上师大第四教学楼","lon":"121.51810746","lat":"30.837016736","category":"253","category_name":"校园生活","address":"上海学海路"},{"poiid":"B2094757D16EAAFC499D","title":"上海师范大学奉贤校区月亮湖畔","lon":"121.51510547","lat":"30.838152913","category":"500","category_name":"未知分类","address":"上海海思路100号"},{"poiid":"B2094757D06FA4FE459C","title":"上海师范大学四教（奉贤校区）","lon":"121.520858765","lat":"30.8346538544","category":"253","category_name":"校园生活","address":"上海师范大学（奉贤校区）内"},{"poiid":"B2094757D068ABFB4692","title":"上海师范大学 第五教学楼","lon":"121.52171818","lat":"30.836788877","category":"500","category_name":"未知分类","address":"上海市奉贤区玉兰路"},{"poiid":"B2094757D06FA0FF459E","title":"上海应用技术学院第二教学楼","lon":"121.50916697","lat":"30.84306324","category":"253","category_name":"校园生活","address":"上海市奉贤区奉炮公路1255号"},{"poiid":"B2094757D06AA2FB4192","title":"上师大剧院","lon":"121.51988811","lat":"30.839748446","category":"260","category_name":"其他","address":"上海奉炮公路"},{"poiid":"B2094655D36CA7FA499D","title":"海湾镇","lon":"121.52704","lat":"30.82992","category":"38","category_name":"公交车站","address":""},{"poiid":"B2094757D068A2FC409E","title":"上海师范大学 二教","lon":"121.520813","lat":"30.834614","category":"253","category_name":"校园生活","address":"上海市奉贤区海思路100号上海师范大学二号教学楼"},{"poiid":"B2094757D16EA6F9459C","title":"绿地海语墅","lon":"121.520938","lat":"30.830109","category":"500","category_name":"未知分类","address":"松江区佘山镇泗陈公路4388号"},{"poiid":"B2094757D66BA7FD499A","title":"三只熊韩国料理餐厅","lon":"121.52085","lat":"30.83465","category":"96","category_name":"韩国料理","address":"近郊奉贤区海思路100号上海师范大学金桂苑2楼"},{"poiid":"B2094757D06BA1FE449D","title":"上师大东门","lon":"121.52672","lat":"30.831939","category":"500","category_name":"未知分类","address":"上海奉贤区奉炮公路"},{"poiid":"B2094757D068AAFB449E","title":"上海师范大学 男人村","lon":"121.51053689","lat":"30.8424930698","category":"500","category_name":"未知分类","address":"上海市奉贤区海思路100号西北角"},{"poiid":"B2094757D66FA6F9469E","title":"蓝箭训练中心","lon":"121.53924488","lat":"30.833810407","category":"500","category_name":"未知分类","address":"上海人民塘东路"},{"poiid":"B2094757D569A2FF4799","title":"金海湾五期","lon":"121.5264583","lat":"30.83135944","category":"47","category_name":"住宅区","address":"康惠苑位于徐汇康健路16弄(沪闵路)"},{"poiid":"B2094750D76EA5FF419A","title":"紫藤苑","lon":"121.528","lat":"30.8279","category":"68","category_name":"快餐厅","address":"近郊奉贤区奉炮公路100号上海师范大学内"},{"poiid":"B2094757D06FA4FD499B","title":"圆味烧烤","lon":"121.52374","lat":"30.8363814","category":"68","category_name":"快餐厅","address":"近郊奉贤区奉炮公路378弄125号(近上海师范大学奉贤校区)"},{"poiid":"B2094757D16FA6FA499D","title":"棕榈滩别墅","lon":"121.52845203437","lat":"30.823450001029","category":"47","category_name":"住宅区","address":"上海市奉贤区海马路4199弄116"},{"poiid":"B2094654DB69A4FB4898","title":"重庆鸡公煲(师范大学奉贤店)","lon":"121.52085","lat":"30.83465","category":"257","category_name":"中餐厅","address":"近郊奉贤区奉炮公路1255号应技大一食堂2楼(奉炮公路海阔路)"},{"poiid":"B2094757D06BA6FA459E","title":"松声马术俱乐部","lon":"121.53272","lat":"30.83384","category":"220","category_name":"运动场所","address":"近郊奉贤区人民塘东路621号"},{"poiid":"B2094757D66DA3FE4398","title":"心之港湾旅店","lon":"121.524783312","lat":"30.8350532379","category":"216","category_name":"经济型连锁酒店","address":"近郊奉贤区奉炮公路(思海路口)"},{"poiid":"B2094757D165AAFF449A","title":"华东理工大学图书馆四楼","lon":"121.50529018","lat":"30.830750736","category":"181","category_name":"图书馆","address":"上海市奉贤区海泉路"},{"poiid":"B2094757D66CA0F4419C","title":"上海师范大学图书馆工科阅览室","lon":"121.52422418","lat":"30.834106814","category":"181","category_name":"图书馆","address":"上海市奉贤区海思路100号"},{"poiid":"B2094757D06AA6F84799","title":"上师大奉贤五教","lon":"121.524604887","lat":"30.8350095357","category":"500","category_name":"未知分类","address":"上海海思路奉炮公路"},{"poiid":"B2094757D06AAAF9459B","title":"上师大奉贤校区","lon":"121.520920206","lat":"30.8347353077","category":"500","category_name":"未知分类","address":"上海市奉贤区海思路100号"},{"poiid":"B2094655D26EA4FA459D","title":"海阔星空海鲜大排档","lon":"121.5209207597","lat":"30.823464171959","category":"257","category_name":"中餐厅","address":"近郊奉贤区海湾旅游区海湾路4981-4989号(近海鸥路)"},{"poiid":"B2094757D06BA1F5449E","title":"上海师范大学大学生活动中心(奉贤校区)","lon":"121.516135146","lat":"30.8356749585","category":"249","category_name":"购物服务","address":"上海奉贤区海思路100号上海师范大学内"},{"poiid":"B2094757D06AA7F5409F","title":"秦臻酒家(海鸥路店)","lon":"121.52858","lat":"30.82491","category":"76","category_name":"上海菜","address":"近郊奉贤区海湾旅游区海鸥路128号"},{"poiid":"B2094654DB68AAFB429C","title":"奉贤海湾医院","lon":"121.52722","lat":"30.82818","category":"162","category_name":"医院","address":"奉贤区奉炮公路87号"},{"poiid":"B2094750DA6EA7F54099","title":"Himo海魔咖啡小馆","lon":"121.523239","lat":"30.837608","category":"260","category_name":"其他","address":"近郊奉贤区海湾镇海阔路(近奉炮公路)"},{"poiid":"B2094757D165A3F5469F","title":"西安面馆","lon":"121.52113528","lat":"30.83693028","category":"68","category_name":"快餐厅","address":"近郊奉贤区奉炮公路515号上海师范大学东门"},{"poiid":"B2094757D065A0FE4692","title":"上海应用技术学院奉贤校区14号楼","lon":"121.52460488","lat":"30.835009535","category":"500","category_name":"未知分类","address":"上海奉炮公路1255号"},{"poiid":"B2094757D66EA4FD449A","title":"金海路草莓园","lon":"121.524743187","lat":"30.8356948517","category":"500","category_name":"未知分类","address":"上海市奉贤区金海路"},{"poiid":"B2094757D16FA3F5489E","title":"萨拉咖啡","lon":"121.518999","lat":"30.841223","category":"65","category_name":"咖啡厅","address":"近郊奉贤区海湾路100号上师大图书馆3楼(近上海应用技术大学)"},{"poiid":"B2094655D264A0F84392","title":"招商海廷","lon":"121.51771","lat":"30.83","category":"47","category_name":"住宅区","address":"奉贤海湾旅游区人民塘路1019弄"},{"poiid":"B2094757D66CABFA429C","title":"喜日音乐餐厅","lon":"121.52425318","lat":"30.836730375","category":"94","category_name":"西餐厅","address":"近郊奉贤区海思路(近上师大)"},{"poiid":"B2094757D06BABFC4498","title":"上海师范大学图书馆六楼","lon":"121.51947718","lat":"30.838492917","category":"181","category_name":"图书馆","address":"上海市奉贤区海思路"},{"poiid":"B2094757D168A5FE409D","title":"上师大校医院(奉贤校区)","lon":"121.52029573","lat":"30.838450628","category":"162","category_name":"医院","address":"上海市奉贤区海思路100号上海师范大学内"},{"poiid":"B2094757D06FA2FE499F","title":"上海师范大学(奉贤校区)","lon":"121.52111","lat":"30.83437","category":"52","category_name":"高等院校","address":"上海近郊奉贤区海思路100号"},{"poiid":"B2094757D06FA5F54698","title":"上海师范大学(奉贤校区)图书馆","lon":"121.51958704","lat":"30.837477779","category":"181","category_name":"图书馆","address":"近郊奉贤区奉炮公路553号上海师范大学内(近海思路)"},{"poiid":"B2094757D06FA7FA459E","title":"华东理工大学(奉贤校区)","lon":"121.506258","lat":"30.831053","category":"671","category_name":"高校中心点","address":"近郊海思路999号"},{"poiid":"B2094757D06FA2FA489D","title":"上海应用技术学院(奉贤校区)","lon":"121.5169754","lat":"30.845203399","category":"52","category_name":"高等院校","address":"近郊奉贤区奉炮公路1225号(奉炮公路海阔路)"},{"poiid":"B2094757D068A7F44493","title":"上海师范大学(奉贤校区)学生宿舍区","lon":"121.511986339","lat":"30.8360213012","category":"253","category_name":"校园生活","address":"上海市奉贤区海思路500号"},{"poiid":"B2094757D068A7FC409F","title":"奉贤海湾","lon":"121.516909","lat":"30.816803","category":"242","category_name":"海滩","address":"上海近碧海金沙"},{"poiid":"B2094757D168A7FA489F","title":"上师大女人村","lon":"121.514662387","lat":"30.8320111656","category":"500","category_name":"未知分类","address":"上海师范大学女生宿舍园区"},{"poiid":"B2094757D068A1F4479B","title":"豪生棕榈滩大酒店","lon":"121.52115133","lat":"30.814700623","category":"94","category_name":"西餐厅","address":"近郊奉贤海湾旅游区海鸥路1888号"},{"poiid":"B2094757D068A4FD4099","title":"上海师范大学剧院(奉贤校区)","lon":"121.517351","lat":"30.838204","category":"179","category_name":"音乐厅","address":"上海奉贤区海思路100号上海师范大学内"},{"poiid":"B2094757D06FA6FE4892","title":"上海师范大学三教(奉贤校区)","lon":"121.51912117","lat":"30.839838485","category":"253","category_name":"校园生活","address":"上海市奉贤区海思路100号"},{"poiid":"B2094757D06FAAF5479E","title":"上海应用技术学院图书馆","lon":"121.51285502","lat":"30.843731089","category":"253","category_name":"校园生活","address":"奉贤区奉炮公路1255号上海应用技术学院内"},{"poiid":"B2094757D069A1FE459B","title":"上海旅游高等专科学校(奉贤校区)","lon":"121.513297187","lat":"30.837675898","category":"671","category_name":"高校中心点","address":"上海市奉贤区海思路500号"},{"poiid":"B2094757D064A3FB499E","title":"海湾旅游区","lon":"121.519107","lat":"30.817654","category":"500","category_name":"未知分类","address":"上海奉贤海湾"},{"poiid":"B2094757D06BA2FF429D","title":"上师大第四教学楼","lon":"121.51810746","lat":"30.837016736","category":"253","category_name":"校园生活","address":"上海学海路"},{"poiid":"B2094757D16EAAFC499D","title":"上海师范大学奉贤校区月亮湖畔","lon":"121.51510547","lat":"30.838152913","category":"500","category_name":"未知分类","address":"上海海思路100号"},{"poiid":"B2094757D06FA4FE459C","title":"上海师范大学四教（奉贤校区）","lon":"121.520858765","lat":"30.8346538544","category":"253","category_name":"校园生活","address":"上海师范大学（奉贤校区）内"},{"poiid":"B2094757D068ABFB4692","title":"上海师范大学 第五教学楼","lon":"121.52171818","lat":"30.836788877","category":"500","category_name":"未知分类","address":"上海市奉贤区玉兰路"},{"poiid":"B2094757D06FA0FF459E","title":"上海应用技术学院第二教学楼","lon":"121.50916697","lat":"30.84306324","category":"253","category_name":"校园生活","address":"上海市奉贤区奉炮公路1255号"},{"poiid":"B2094757D06AA2FB4192","title":"上师大剧院","lon":"121.51988811","lat":"30.839748446","category":"260","category_name":"其他","address":"上海奉炮公路"},{"poiid":"B2094655D36CA7FA499D","title":"海湾镇","lon":"121.52704","lat":"30.82992","category":"38","category_name":"公交车站","address":""},{"poiid":"B2094757D068A2FC409E","title":"上海师范大学 二教","lon":"121.520813","lat":"30.834614","category":"253","category_name":"校园生活","address":"上海市奉贤区海思路100号上海师范大学二号教学楼"},{"poiid":"B2094757D16EA6F9459C","title":"绿地海语墅","lon":"121.520938","lat":"30.830109","category":"500","category_name":"未知分类","address":"松江区佘山镇泗陈公路4388号"},{"poiid":"B2094757D66BA7FD499A","title":"三只熊韩国料理餐厅","lon":"121.52085","lat":"30.83465","category":"96","category_name":"韩国料理","address":"近郊奉贤区海思路100号上海师范大学金桂苑2楼"},{"poiid":"B2094757D06BA1FE449D","title":"上师大东门","lon":"121.52672","lat":"30.831939","category":"500","category_name":"未知分类","address":"上海奉贤区奉炮公路"},{"poiid":"B2094757D068AAFB449E","title":"上海师范大学 男人村","lon":"121.51053689","lat":"30.8424930698","category":"500","category_name":"未知分类","address":"上海市奉贤区海思路100号西北角"},{"poiid":"B2094757D66FA6F9469E","title":"蓝箭训练中心","lon":"121.53924488","lat":"30.833810407","category":"500","category_name":"未知分类","address":"上海人民塘东路"},{"poiid":"B2094757D569A2FF4799","title":"金海湾五期","lon":"121.5264583","lat":"30.83135944","category":"47","category_name":"住宅区","address":"康惠苑位于徐汇康健路16弄(沪闵路)"},{"poiid":"B2094750D76EA5FF419A","title":"紫藤苑","lon":"121.528","lat":"30.8279","category":"68","category_name":"快餐厅","address":"近郊奉贤区奉炮公路100号上海师范大学内"},{"poiid":"B2094757D06FA4FD499B","title":"圆味烧烤","lon":"121.52374","lat":"30.8363814","category":"68","category_name":"快餐厅","address":"近郊奉贤区奉炮公路378弄125号(近上海师范大学奉贤校区)"},{"poiid":"B2094757D16FA6FA499D","title":"棕榈滩别墅","lon":"121.52845203437","lat":"30.823450001029","category":"47","category_name":"住宅区","address":"上海市奉贤区海马路4199弄116"},{"poiid":"B2094654DB69A4FB4898","title":"重庆鸡公煲(师范大学奉贤店)","lon":"121.52085","lat":"30.83465","category":"257","category_name":"中餐厅","address":"近郊奉贤区奉炮公路1255号应技大一食堂2楼(奉炮公路海阔路)"},{"poiid":"B2094757D06BA6FA459E","title":"松声马术俱乐部","lon":"121.53272","lat":"30.83384","category":"220","category_name":"运动场所","address":"近郊奉贤区人民塘东路621号"},{"poiid":"B2094757D66DA3FE4398","title":"心之港湾旅店","lon":"121.524783312","lat":"30.8350532379","category":"216","category_name":"经济型连锁酒店","address":"近郊奉贤区奉炮公路(思海路口)"},{"poiid":"B2094757D165AAFF449A","title":"华东理工大学图书馆四楼","lon":"121.50529018","lat":"30.830750736","category":"181","category_name":"图书馆","address":"上海市奉贤区海泉路"},{"poiid":"B2094757D66CA0F4419C","title":"上海师范大学图书馆工科阅览室","lon":"121.52422418","lat":"30.834106814","category":"181","category_name":"图书馆","address":"上海市奉贤区海思路100号"},{"poiid":"B2094757D06AA6F84799","title":"上师大奉贤五教","lon":"121.524604887","lat":"30.8350095357","category":"500","category_name":"未知分类","address":"上海海思路奉炮公路"},{"poiid":"B2094757D06AAAF9459B","title":"上师大奉贤校区","lon":"121.520920206","lat":"30.8347353077","category":"500","category_name":"未知分类","address":"上海市奉贤区海思路100号"},{"poiid":"B2094655D26EA4FA459D","title":"海阔星空海鲜大排档","lon":"121.5209207597","lat":"30.823464171959","category":"257","category_name":"中餐厅","address":"近郊奉贤区海湾旅游区海湾路4981-4989号(近海鸥路)"},{"poiid":"B2094757D06BA1F5449E","title":"上海师范大学大学生活动中心(奉贤校区)","lon":"121.516135146","lat":"30.8356749585","category":"249","category_name":"购物服务","address":"上海奉贤区海思路100号上海师范大学内"},{"poiid":"B2094757D06AA7F5409F","title":"秦臻酒家(海鸥路店)","lon":"121.52858","lat":"30.82491","category":"76","category_name":"上海菜","address":"近郊奉贤区海湾旅游区海鸥路128号"},{"poiid":"B2094654DB68AAFB429C","title":"奉贤海湾医院","lon":"121.52722","lat":"30.82818","category":"162","category_name":"医院","address":"奉贤区奉炮公路87号"},{"poiid":"B2094750DA6EA7F54099","title":"Himo海魔咖啡小馆","lon":"121.523239","lat":"30.837608","category":"260","category_name":"其他","address":"近郊奉贤区海湾镇海阔路(近奉炮公路)"},{"poiid":"B2094757D165A3F5469F","title":"西安面馆","lon":"121.52113528","lat":"30.83693028","category":"68","category_name":"快餐厅","address":"近郊奉贤区奉炮公路515号上海师范大学东门"},{"poiid":"B2094757D065A0FE4692","title":"上海应用技术学院奉贤校区14号楼","lon":"121.52460488","lat":"30.835009535","category":"500","category_name":"未知分类","address":"上海奉炮公路1255号"},{"poiid":"B2094757D66EA4FD449A","title":"金海路草莓园","lon":"121.524743187","lat":"30.8356948517","category":"500","category_name":"未知分类","address":"上海市奉贤区金海路"},{"poiid":"B2094757D16FA3F5489E","title":"萨拉咖啡","lon":"121.518999","lat":"30.841223","category":"65","category_name":"咖啡厅","address":"近郊奉贤区海湾路100号上师大图书馆3楼(近上海应用技术大学)"},{"poiid":"B2094655D264A0F84392","title":"招商海廷","lon":"121.51771","lat":"30.83","category":"47","category_name":"住宅区","address":"奉贤海湾旅游区人民塘路1019弄"},{"poiid":"B2094757D66CABFA429C","title":"喜日音乐餐厅","lon":"121.52425318","lat":"30.836730375","category":"94","category_name":"西餐厅","address":"近郊奉贤区海思路(近上师大)"},{"poiid":"B2094757D06BABFC4498","title":"上海师范大学图书馆六楼","lon":"121.51947718","lat":"30.838492917","category":"181","category_name":"图书馆","address":"上海市奉贤区海思路"},{"poiid":"B2094757D168A5FE409D","title":"上师大校医院(奉贤校区)","lon":"121.52029573","lat":"30.838450628","category":"162","category_name":"医院","address":"上海市奉贤区海思路100号上海师范大学内"},{"poiid":"B2094757D06FA2FE499F","title":"上海师范大学(奉贤校区)","lon":"121.52111","lat":"30.83437","category":"52","category_name":"高等院校","address":"上海近郊奉贤区海思路100号"},{"poiid":"B2094757D06FA5F54698","title":"上海师范大学(奉贤校区)图书馆","lon":"121.51958704","lat":"30.837477779","category":"181","category_name":"图书馆","address":"近郊奉贤区奉炮公路553号上海师范大学内(近海思路)"},{"poiid":"B2094757D06FA7FA459E","title":"华东理工大学(奉贤校区)","lon":"121.506258","lat":"30.831053","category":"671","category_name":"高校中心点","address":"近郊海思路999号"},{"poiid":"B2094757D06FA2FA489D","title":"上海应用技术学院(奉贤校区)","lon":"121.5169754","lat":"30.845203399","category":"52","category_name":"高等院校","address":"近郊奉贤区奉炮公路1225号(奉炮公路海阔路)"},{"poiid":"B2094757D068A7F44493","title":"上海师范大学(奉贤校区)学生宿舍区","lon":"121.511986339","lat":"30.8360213012","category":"253","category_name":"校园生活","address":"上海市奉贤区海思路500号"},{"poiid":"B2094757D068A7FC409F","title":"奉贤海湾","lon":"121.516909","lat":"30.816803","category":"242","category_name":"海滩","address":"上海近碧海金沙"},{"poiid":"B2094757D168A7FA489F","title":"上师大女人村","lon":"121.514662387","lat":"30.8320111656","category":"500","category_name":"未知分类","address":"上海师范大学女生宿舍园区"},{"poiid":"B2094757D068A1F4479B","title":"豪生棕榈滩大酒店","lon":"121.52115133","lat":"30.814700623","category":"94","category_name":"西餐厅","address":"近郊奉贤海湾旅游区海鸥路1888号"},{"poiid":"B2094757D068A4FD4099","title":"上海师范大学剧院(奉贤校区)","lon":"121.517351","lat":"30.838204","category":"179","category_name":"音乐厅","address":"上海奉贤区海思路100号上海师范大学内"},{"poiid":"B2094757D06FA6FE4892","title":"上海师范大学三教(奉贤校区)","lon":"121.51912117","lat":"30.839838485","category":"253","category_name":"校园生活","address":"上海市奉贤区海思路100号"},{"poiid":"B2094757D06FAAF5479E","title":"上海应用技术学院图书馆","lon":"121.51285502","lat":"30.843731089","category":"253","category_name":"校园生活","address":"奉贤区奉炮公路1255号上海应用技术学院内"},{"poiid":"B2094757D069A1FE459B","title":"上海旅游高等专科学校(奉贤校区)","lon":"121.513297187","lat":"30.837675898","category":"671","category_name":"高校中心点","address":"上海市奉贤区海思路500号"},{"poiid":"B2094757D064A3FB499E","title":"海湾旅游区","lon":"121.519107","lat":"30.817654","category":"500","category_name":"未知分类","address":"上海奉贤海湾"},{"poiid":"B2094757D06BA2FF429D","title":"上师大第四教学楼","lon":"121.51810746","lat":"30.837016736","category":"253","category_name":"校园生活","address":"上海学海路"},{"poiid":"B2094757D16EAAFC499D","title":"上海师范大学奉贤校区月亮湖畔","lon":"121.51510547","lat":"30.838152913","category":"500","category_name":"未知分类","address":"上海海思路100号"},{"poiid":"B2094757D06FA4FE459C","title":"上海师范大学四教（奉贤校区）","lon":"121.520858765","lat":"30.8346538544","category":"253","category_name":"校园生活","address":"上海师范大学（奉贤校区）内"},{"poiid":"B2094757D068ABFB4692","title":"上海师范大学 第五教学楼","lon":"121.52171818","lat":"30.836788877","category":"500","category_name":"未知分类","address":"上海市奉贤区玉兰路"},{"poiid":"B2094757D06FA0FF459E","title":"上海应用技术学院第二教学楼","lon":"121.50916697","lat":"30.84306324","category":"253","category_name":"校园生活","address":"上海市奉贤区奉炮公路1255号"},{"poiid":"B2094757D06AA2FB4192","title":"上师大剧院","lon":"121.51988811","lat":"30.839748446","category":"260","category_name":"其他","address":"上海奉炮公路"},{"poiid":"B2094655D36CA7FA499D","title":"海湾镇","lon":"121.52704","lat":"30.82992","category":"38","category_name":"公交车站","address":""},{"poiid":"B2094757D068A2FC409E","title":"上海师范大学 二教","lon":"121.520813","lat":"30.834614","category":"253","category_name":"校园生活","address":"上海市奉贤区海思路100号上海师范大学二号教学楼"},{"poiid":"B2094757D16EA6F9459C","title":"绿地海语墅","lon":"121.520938","lat":"30.830109","category":"500","category_name":"未知分类","address":"松江区佘山镇泗陈公路4388号"},{"poiid":"B2094757D66BA7FD499A","title":"三只熊韩国料理餐厅","lon":"121.52085","lat":"30.83465","category":"96","category_name":"韩国料理","address":"近郊奉贤区海思路100号上海师范大学金桂苑2楼"},{"poiid":"B2094757D06BA1FE449D","title":"上师大东门","lon":"121.52672","lat":"30.831939","category":"500","category_name":"未知分类","address":"上海奉贤区奉炮公路"},{"poiid":"B2094757D068AAFB449E","title":"上海师范大学 男人村","lon":"121.51053689","lat":"30.8424930698","category":"500","category_name":"未知分类","address":"上海市奉贤区海思路100号西北角"},{"poiid":"B2094757D66FA6F9469E","title":"蓝箭训练中心","lon":"121.53924488","lat":"30.833810407","category":"500","category_name":"未知分类","address":"上海人民塘东路"},{"poiid":"B2094757D569A2FF4799","title":"金海湾五期","lon":"121.5264583","lat":"30.83135944","category":"47","category_name":"住宅区","address":"康惠苑位于徐汇康健路16弄(沪闵路)"},{"poiid":"B2094750D76EA5FF419A","title":"紫藤苑","lon":"121.528","lat":"30.8279","category":"68","category_name":"快餐厅","address":"近郊奉贤区奉炮公路100号上海师范大学内"},{"poiid":"B2094757D06FA4FD499B","title":"圆味烧烤","lon":"121.52374","lat":"30.8363814","category":"68","category_name":"快餐厅","address":"近郊奉贤区奉炮公路378弄125号(近上海师范大学奉贤校区)"},{"poiid":"B2094757D16FA6FA499D","title":"棕榈滩别墅","lon":"121.52845203437","lat":"30.823450001029","category":"47","category_name":"住宅区","address":"上海市奉贤区海马路4199弄116"},{"poiid":"B2094654DB69A4FB4898","title":"重庆鸡公煲(师范大学奉贤店)","lon":"121.52085","lat":"30.83465","category":"257","category_name":"中餐厅","address":"近郊奉贤区奉炮公路1255号应技大一食堂2楼(奉炮公路海阔路)"},{"poiid":"B2094757D06BA6FA459E","title":"松声马术俱乐部","lon":"121.53272","lat":"30.83384","category":"220","category_name":"运动场所","address":"近郊奉贤区人民塘东路621号"},{"poiid":"B2094757D66DA3FE4398","title":"心之港湾旅店","lon":"121.524783312","lat":"30.8350532379","category":"216","category_name":"经济型连锁酒店","address":"近郊奉贤区奉炮公路(思海路口)"},{"poiid":"B2094757D165AAFF449A","title":"华东理工大学图书馆四楼","lon":"121.50529018","lat":"30.830750736","category":"181","category_name":"图书馆","address":"上海市奉贤区海泉路"},{"poiid":"B2094757D66CA0F4419C","title":"上海师范大学图书馆工科阅览室","lon":"121.52422418","lat":"30.834106814","category":"181","category_name":"图书馆","address":"上海市奉贤区海思路100号"},{"poiid":"B2094757D06AA6F84799","title":"上师大奉贤五教","lon":"121.524604887","lat":"30.8350095357","category":"500","category_name":"未知分类","address":"上海海思路奉炮公路"},{"poiid":"B2094757D06AAAF9459B","title":"上师大奉贤校区","lon":"121.520920206","lat":"30.8347353077","category":"500","category_name":"未知分类","address":"上海市奉贤区海思路100号"},{"poiid":"B2094655D26EA4FA459D","title":"海阔星空海鲜大排档","lon":"121.5209207597","lat":"30.823464171959","category":"257","category_name":"中餐厅","address":"近郊奉贤区海湾旅游区海湾路4981-4989号(近海鸥路)"},{"poiid":"B2094757D06BA1F5449E","title":"上海师范大学大学生活动中心(奉贤校区)","lon":"121.516135146","lat":"30.8356749585","category":"249","category_name":"购物服务","address":"上海奉贤区海思路100号上海师范大学内"},{"poiid":"B2094757D06AA7F5409F","title":"秦臻酒家(海鸥路店)","lon":"121.52858","lat":"30.82491","category":"76","category_name":"上海菜","address":"近郊奉贤区海湾旅游区海鸥路128号"},{"poiid":"B2094654DB68AAFB429C","title":"奉贤海湾医院","lon":"121.52722","lat":"30.82818","category":"162","category_name":"医院","address":"奉贤区奉炮公路87号"},{"poiid":"B2094750DA6EA7F54099","title":"Himo海魔咖啡小馆","lon":"121.523239","lat":"30.837608","category":"260","category_name":"其他","address":"近郊奉贤区海湾镇海阔路(近奉炮公路)"},{"poiid":"B2094757D165A3F5469F","title":"西安面馆","lon":"121.52113528","lat":"30.83693028","category":"68","category_name":"快餐厅","address":"近郊奉贤区奉炮公路515号上海师范大学东门"},{"poiid":"B2094757D065A0FE4692","title":"上海应用技术学院奉贤校区14号楼","lon":"121.52460488","lat":"30.835009535","category":"500","category_name":"未知分类","address":"上海奉炮公路1255号"},{"poiid":"B2094757D66EA4FD449A","title":"金海路草莓园","lon":"121.524743187","lat":"30.8356948517","category":"500","category_name":"未知分类","address":"上海市奉贤区金海路"},{"poiid":"B2094757D16FA3F5489E","title":"萨拉咖啡","lon":"121.518999","lat":"30.841223","category":"65","category_name":"咖啡厅","address":"近郊奉贤区海湾路100号上师大图书馆3楼(近上海应用技术大学)"},{"poiid":"B2094655D264A0F84392","title":"招商海廷","lon":"121.51771","lat":"30.83","category":"47","category_name":"住宅区","address":"奉贤海湾旅游区人民塘路1019弄"},{"poiid":"B2094757D66CABFA429C","title":"喜日音乐餐厅","lon":"121.52425318","lat":"30.836730375","category":"94","category_name":"西餐厅","address":"近郊奉贤区海思路(近上师大)"},{"poiid":"B2094757D06BABFC4498","title":"上海师范大学图书馆六楼","lon":"121.51947718","lat":"30.838492917","category":"181","category_name":"图书馆","address":"上海市奉贤区海思路"},{"poiid":"B2094757D168A5FE409D","title":"上师大校医院(奉贤校区)","lon":"121.52029573","lat":"30.838450628","category":"162","category_name":"医院","address":"上海市奉贤区海思路100号上海师范大学内"},{"poiid":"B2094757D06FA2FE499F","title":"上海师范大学(奉贤校区)","lon":"121.52111","lat":"30.83437","category":"52","category_name":"高等院校","address":"上海近郊奉贤区海思路100号"},{"poiid":"B2094757D06FA5F54698","title":"上海师范大学(奉贤校区)图书馆","lon":"121.51958704","lat":"30.837477779","category":"181","category_name":"图书馆","address":"近郊奉贤区奉炮公路553号上海师范大学内(近海思路)"},{"poiid":"B2094757D06FA7FA459E","title":"华东理工大学(奉贤校区)","lon":"121.506258","lat":"30.831053","category":"671","category_name":"高校中心点","address":"近郊海思路999号"},{"poiid":"B2094757D06FA2FA489D","title":"上海应用技术学院(奉贤校区)","lon":"121.5169754","lat":"30.845203399","category":"52","category_name":"高等院校","address":"近郊奉贤区奉炮公路1225号(奉炮公路海阔路)"},{"poiid":"B2094757D068A7F44493","title":"上海师范大学(奉贤校区)学生宿舍区","lon":"121.511986339","lat":"30.8360213012","category":"253","category_name":"校园生活","address":"上海市奉贤区海思路500号"},{"poiid":"B2094757D068A7FC409F","title":"奉贤海湾","lon":"121.516909","lat":"30.816803","category":"242","category_name":"海滩","address":"上海近碧海金沙"},{"poiid":"B2094757D168A7FA489F","title":"上师大女人村","lon":"121.514662387","lat":"30.8320111656","category":"500","category_name":"未知分类","address":"上海师范大学女生宿舍园区"},{"poiid":"B2094757D068A1F4479B","title":"豪生棕榈滩大酒店","lon":"121.52115133","lat":"30.814700623","category":"94","category_name":"西餐厅","address":"近郊奉贤海湾旅游区海鸥路1888号"},{"poiid":"B2094757D068A4FD4099","title":"上海师范大学剧院(奉贤校区)","lon":"121.517351","lat":"30.838204","category":"179","category_name":"音乐厅","address":"上海奉贤区海思路100号上海师范大学内"},{"poiid":"B2094757D06FA6FE4892","title":"上海师范大学三教(奉贤校区)","lon":"121.51912117","lat":"30.839838485","category":"253","category_name":"校园生活","address":"上海市奉贤区海思路100号"},{"poiid":"B2094757D06FAAF5479E","title":"上海应用技术学院图书馆","lon":"121.51285502","lat":"30.843731089","category":"253","category_name":"校园生活","address":"奉贤区奉炮公路1255号上海应用技术学院内"},{"poiid":"B2094757D069A1FE459B","title":"上海旅游高等专科学校(奉贤校区)","lon":"121.513297187","lat":"30.837675898","category":"671","category_name":"高校中心点","address":"上海市奉贤区海思路500号"},{"poiid":"B2094757D064A3FB499E","title":"海湾旅游区","lon":"121.519107","lat":"30.817654","category":"500","category_name":"未知分类","address":"上海奉贤海湾"},{"poiid":"B2094757D06BA2FF429D","title":"上师大第四教学楼","lon":"121.51810746","lat":"30.837016736","category":"253","category_name":"校园生活","address":"上海学海路"},{"poiid":"B2094757D16EAAFC499D","title":"上海师范大学奉贤校区月亮湖畔","lon":"121.51510547","lat":"30.838152913","category":"500","category_name":"未知分类","address":"上海海思路100号"},{"poiid":"B2094757D06FA4FE459C","title":"上海师范大学四教（奉贤校区）","lon":"121.520858765","lat":"30.8346538544","category":"253","category_name":"校园生活","address":"上海师范大学（奉贤校区）内"},{"poiid":"B2094757D068ABFB4692","title":"上海师范大学 第五教学楼","lon":"121.52171818","lat":"30.836788877","category":"500","category_name":"未知分类","address":"上海市奉贤区玉兰路"},{"poiid":"B2094757D06FA0FF459E","title":"上海应用技术学院第二教学楼","lon":"121.50916697","lat":"30.84306324","category":"253","category_name":"校园生活","address":"上海市奉贤区奉炮公路1255号"},{"poiid":"B2094757D06AA2FB4192","title":"上师大剧院","lon":"121.51988811","lat":"30.839748446","category":"260","category_name":"其他","address":"上海奉炮公路"},{"poiid":"B2094655D36CA7FA499D","title":"海湾镇","lon":"121.52704","lat":"30.82992","category":"38","category_name":"公交车站","address":""},{"poiid":"B2094757D068A2FC409E","title":"上海师范大学 二教","lon":"121.520813","lat":"30.834614","category":"253","category_name":"校园生活","address":"上海市奉贤区海思路100号上海师范大学二号教学楼"},{"poiid":"B2094757D16EA6F9459C","title":"绿地海语墅","lon":"121.520938","lat":"30.830109","category":"500","category_name":"未知分类","address":"松江区佘山镇泗陈公路4388号"},{"poiid":"B2094757D66BA7FD499A","title":"三只熊韩国料理餐厅","lon":"121.52085","lat":"30.83465","category":"96","category_name":"韩国料理","address":"近郊奉贤区海思路100号上海师范大学金桂苑2楼"},{"poiid":"B2094757D06BA1FE449D","title":"上师大东门","lon":"121.52672","lat":"30.831939","category":"500","category_name":"未知分类","address":"上海奉贤区奉炮公路"},{"poiid":"B2094757D068AAFB449E","title":"上海师范大学 男人村","lon":"121.51053689","lat":"30.8424930698","category":"500","category_name":"未知分类","address":"上海市奉贤区海思路100号西北角"},{"poiid":"B2094757D66FA6F9469E","title":"蓝箭训练中心","lon":"121.53924488","lat":"30.833810407","category":"500","category_name":"未知分类","address":"上海人民塘东路"},{"poiid":"B2094757D569A2FF4799","title":"金海湾五期","lon":"121.5264583","lat":"30.83135944","category":"47","category_name":"住宅区","address":"康惠苑位于徐汇康健路16弄(沪闵路)"},{"poiid":"B2094750D76EA5FF419A","title":"紫藤苑","lon":"121.528","lat":"30.8279","category":"68","category_name":"快餐厅","address":"近郊奉贤区奉炮公路100号上海师范大学内"},{"poiid":"B2094757D06FA4FD499B","title":"圆味烧烤","lon":"121.52374","lat":"30.8363814","category":"68","category_name":"快餐厅","address":"近郊奉贤区奉炮公路378弄125号(近上海师范大学奉贤校区)"},{"poiid":"B2094757D16FA6FA499D","title":"棕榈滩别墅","lon":"121.52845203437","lat":"30.823450001029","category":"47","category_name":"住宅区","address":"上海市奉贤区海马路4199弄116"},{"poiid":"B2094654DB69A4FB4898","title":"重庆鸡公煲(师范大学奉贤店)","lon":"121.52085","lat":"30.83465","category":"257","category_name":"中餐厅","address":"近郊奉贤区奉炮公路1255号应技大一食堂2楼(奉炮公路海阔路)"},{"poiid":"B2094757D06BA6FA459E","title":"松声马术俱乐部","lon":"121.53272","lat":"30.83384","category":"220","category_name":"运动场所","address":"近郊奉贤区人民塘东路621号"},{"poiid":"B2094757D66DA3FE4398","title":"心之港湾旅店","lon":"121.524783312","lat":"30.8350532379","category":"216","category_name":"经济型连锁酒店","address":"近郊奉贤区奉炮公路(思海路口)"},{"poiid":"B2094757D165AAFF449A","title":"华东理工大学图书馆四楼","lon":"121.50529018","lat":"30.830750736","category":"181","category_name":"图书馆","address":"上海市奉贤区海泉路"},{"poiid":"B2094757D66CA0F4419C","title":"上海师范大学图书馆工科阅览室","lon":"121.52422418","lat":"30.834106814","category":"181","category_name":"图书馆","address":"上海市奉贤区海思路100号"},{"poiid":"B2094757D06AA6F84799","title":"上师大奉贤五教","lon":"121.524604887","lat":"30.8350095357","category":"500","category_name":"未知分类","address":"上海海思路奉炮公路"},{"poiid":"B2094757D06AAAF9459B","title":"上师大奉贤校区","lon":"121.520920206","lat":"30.8347353077","category":"500","category_name":"未知分类","address":"上海市奉贤区海思路100号"},{"poiid":"B2094655D26EA4FA459D","title":"海阔星空海鲜大排档","lon":"121.5209207597","lat":"30.823464171959","category":"257","category_name":"中餐厅","address":"近郊奉贤区海湾旅游区海湾路4981-4989号(近海鸥路)"},{"poiid":"B2094757D06BA1F5449E","title":"上海师范大学大学生活动中心(奉贤校区)","lon":"121.516135146","lat":"30.8356749585","category":"249","category_name":"购物服务","address":"上海奉贤区海思路100号上海师范大学内"},{"poiid":"B2094757D06AA7F5409F","title":"秦臻酒家(海鸥路店)","lon":"121.52858","lat":"30.82491","category":"76","category_name":"上海菜","address":"近郊奉贤区海湾旅游区海鸥路128号"},{"poiid":"B2094654DB68AAFB429C","title":"奉贤海湾医院","lon":"121.52722","lat":"30.82818","category":"162","category_name":"医院","address":"奉贤区奉炮公路87号"},{"poiid":"B2094750DA6EA7F54099","title":"Himo海魔咖啡小馆","lon":"121.523239","lat":"30.837608","category":"260","category_name":"其他","address":"近郊奉贤区海湾镇海阔路(近奉炮公路)"},{"poiid":"B2094757D165A3F5469F","title":"西安面馆","lon":"121.52113528","lat":"30.83693028","category":"68","category_name":"快餐厅","address":"近郊奉贤区奉炮公路515号上海师范大学东门"},{"poiid":"B2094757D065A0FE4692","title":"上海应用技术学院奉贤校区14号楼","lon":"121.52460488","lat":"30.835009535","category":"500","category_name":"未知分类","address":"上海奉炮公路1255号"},{"poiid":"B2094757D66EA4FD449A","title":"金海路草莓园","lon":"121.524743187","lat":"30.8356948517","category":"500","category_name":"未知分类","address":"上海市奉贤区金海路"},{"poiid":"B2094757D16FA3F5489E","title":"萨拉咖啡","lon":"121.518999","lat":"30.841223","category":"65","category_name":"咖啡厅","address":"近郊奉贤区海湾路100号上师大图书馆3楼(近上海应用技术大学)"},{"poiid":"B2094655D264A0F84392","title":"招商海廷","lon":"121.51771","lat":"30.83","category":"47","category_name":"住宅区","address":"奉贤海湾旅游区人民塘路1019弄"},{"poiid":"B2094757D66CABFA429C","title":"喜日音乐餐厅","lon":"121.52425318","lat":"30.836730375","category":"94","category_name":"西餐厅","address":"近郊奉贤区海思路(近上师大)"},{"poiid":"B2094757D06BABFC4498","title":"上海师范大学图书馆六楼","lon":"121.51947718","lat":"30.838492917","category":"181","category_name":"图书馆","address":"上海市奉贤区海思路"},{"poiid":"B2094757D168A5FE409D","title":"上师大校医院(奉贤校区)","lon":"121.52029573","lat":"30.838450628","category":"162","category_name":"医院","address":"上海市奉贤区海思路100号上海师范大学内"}]