[{"poiid":"B2094655D268A6F5449B","title":"翠华餐厅 富民路店 Tsui Wah Restaurant","lon":"121.452124054","lat":"31.217478793","category":"72","category_name":"广东菜","address":"静安区富民路291号悟锦世纪大厦内(长乐路口)"},{"poiid":"B2094654DB69A0FA449B","title":"萤七人间 People seven","lon":"121.45002676183","lat":"31.219220560138","category":"257","category_name":"中餐厅","address":"巨鹿路805号近富民路"},{"poiid":"B2094655D26AABFF429D","title":"食道园","lon":"121.453704054","lat":"31.218146793","category":"95","category_name":"日本料理","address":"卢湾区长乐路433号(近襄阳北路)"},{"poiid":"B2094753D76FAAFA449C","title":"上海滩国泰旗舰店","lon":"121.466011","lat":"31.216125","category":"249","category_name":"购物服务","address":"淮海中路868号"},{"poiid":"B209475CD564A7F84292","title":"上海滩新天地店","lon":"121.47463","lat":"31.22164","category":"119","category_name":"商场","address":"\"太仓路181弄新天地北里15号\r\n\""},{"poiid":"B209475CD564A7F8439E","title":"上海滩中信泰富店","lon":"121.45602","lat":"31.22851","category":"119","category_name":"商场","address":"\"南京西路1168号中信泰富广场，店铺号221.\r\n\""},{"poiid":"B2094655D26EA5F8409A","title":"保罗酒家","lon":"121.45205","lat":"31.21782","category":"257","category_name":"中餐厅","address":"静安区富民路271号(近长乐路)"},{"poiid":"B2094757D469A1F44499","title":"No.88酒吧 No.88 Bar","lon":"121.451729054","lat":"31.217383793","category":"172","category_name":"酒吧","address":"静安区富民路291号悟锦世纪大厦2楼(长乐路口)"},{"poiid":"B2094757D06FA2F94992","title":"Nepali Kitchen","lon":"121.45022","lat":"31.21855","category":"110","category_name":"其他亚洲菜","address":"静安区巨鹿路819弄4号(近富民路)"},{"poiid":"B2094757D06FA3FE489A","title":"南麓.浙里","lon":"121.45108","lat":"31.21981","category":"76","category_name":"上海菜","address":"静安区巨鹿路768号巨富大厦2楼(近富民路)"},{"poiid":"B2094654D564ABFA4693","title":"辉哥火锅","lon":"121.45095","lat":"31.2199","category":"86","category_name":"火锅店","address":"静安区巨鹿路795号(近富民路)"},{"poiid":"B2094750D268A1F54699","title":"宫","lon":"121.450805","lat":"31.217145","category":"260","category_name":"其他","address":"徐汇区长乐路764弄2号前门(近华亭路)"},{"poiid":"B2094757D06FABFA459A","title":"dr.wine","lon":"121.45114394","lat":"31.219256726","category":"65","category_name":"咖啡厅","address":"上海富民路177号(近巨鹿路)"},{"poiid":"B2094757D068A6FD499D","title":"Bistro Burger","lon":"121.45293","lat":"31.21705","category":"94","category_name":"西餐厅","address":"静安区富民路291号悟锦世纪大厦1楼(长乐路口)"},{"poiid":"B2094757D16DA2F5419F","title":"泰籽","lon":"121.450883586","lat":"31.2201752344","category":"99","category_name":"泰国／越南菜品餐厅","address":"静安区巨鹿路768号巨富大厦G楼A-B室(近富民路)"},{"poiid":"B2094757D06FA1FF459E","title":"PHO REAL(富民路店)","lon":"121.45148","lat":"31.21822","category":"99","category_name":"泰国／越南菜品餐厅","address":"静安区富民路166号(近长乐路)"},{"poiid":"B2094757D06FA0F54398","title":"CANTINA AGAVE 富民路店","lon":"121.452071054","lat":"31.217879793","category":"94","category_name":"西餐厅","address":"静安区富民路291号悟锦世纪大厦1楼01A-2室(长乐路口)"},{"poiid":"B2094757D06FA5FC4199","title":"HOME'S私房菜","lon":"121.45154","lat":"31.2196","category":"76","category_name":"上海菜","address":"静安区巨鹿路791号(近富民路)"},{"poiid":"B2094757D068A4FF459C","title":"荧七","lon":"121.45033424","lat":"31.217746436","category":"172","category_name":"酒吧","address":"上海巨鹿路"},{"poiid":"B2094757D06FA1FC469B","title":"Dolce Vita Italian","lon":"121.45246925","lat":"31.2171414317","category":"94","category_name":"西餐厅","address":"静安区富民路291号悟锦世纪大厦内(长乐路口)"},{"poiid":"B2094757D06FA0FB409F","title":"海之幸(新乐店)","lon":"121.45378","lat":"31.2167","category":"95","category_name":"日本料理","address":"徐汇区新乐路169号(近东湖路)"},{"poiid":"B2094757D06FA5FC489D","title":"Le Creme Milano(富民路店)","lon":"121.451104","lat":"31.219465","category":"67","category_name":"甜品店","address":"静安区富民路173号(富民路巨鹿路)"},{"poiid":"B2094654DB65A4FD469F","title":"上海东湖宾馆","lon":"121.4535","lat":"31.21684","category":"214","category_name":"四星级宾馆","address":"上海市徐汇区东湖路70号(主楼)，东湖路7号(副楼)(近新乐路)"},{"poiid":"B2094751D56EA0F9489D","title":"Antoni Restaurant","lon":"121.4503","lat":"31.21974","category":"94","category_name":"西餐厅","address":"静安区巨鹿路794号(近富民路)"},{"poiid":"B2094757D068A2FD479B","title":"邮电医院","lon":"121.453616","lat":"31.218576733","category":"162","category_name":"医院","address":"上海徐汇区长乐路666号(近襄阳路)"},{"poiid":"B2094757D068A2FD4299","title":"新乐路","lon":"121.45293426","lat":"31.216962814","category":"47","category_name":"住宅区","address":"上海新乐路"},{"poiid":"B2094757D06FA1FD429F","title":"狠牛独创牛肉面馆(富民路店)","lon":"121.45243","lat":"31.21706","category":"68","category_name":"快餐厅","address":"静安区富民路291号悟锦世纪大厦1楼3B(长乐路口)"},{"poiid":"B2094757D068A2FE439E","title":"红壮铁板烧","lon":"121.45338","lat":"31.21656","category":"269","category_name":"烧烤","address":"徐汇区东湖路70号(近淮海中路)"},{"poiid":"B2094757D06FA4FF459C","title":"南角亭热气涮羊肉","lon":"121.453073994","lat":"31.2180353639","category":"86","category_name":"火锅店","address":"徐汇区长乐路688号(近富民路)"},{"poiid":"B2094757D068A0F54292","title":"Mo'laksa","lon":"121.452731586","lat":"31.2169611715","category":"110","category_name":"其他亚洲菜","address":"上海长乐路208号(近东湖路)"},{"poiid":"B2094757D06FA6FB439F","title":"香啡缤(富民路店)","lon":"121.45256","lat":"31.21711","category":"260","category_name":"其他","address":"静安区富民路291号悟锦世纪大厦内(长乐路口)"},{"poiid":"B2094757D068A4FF439D","title":"BALI LAGUNA","lon":"121.45022583","lat":"31.219125747","category":"172","category_name":"酒吧","address":"上海静安区南京西路1649号(静安公园内)"},{"poiid":"B2094751DB6CA4FD469E","title":"Vino Tapas","lon":"121.45196","lat":"31.21775","category":"247","category_name":"餐饮美食","address":"卢湾区富民路259号(近长乐路)"},{"poiid":"B2094752D66AABF84698","title":"豆苗工坊","lon":"121.452897","lat":"31.216913","category":"247","category_name":"餐饮美食","address":"新乐路 东湖路"},{"poiid":"B2094750D26FA1FF439C","title":"小南国 东湖店","lon":"121.45339862107","lat":"31.21619616642","category":"76","category_name":"上海菜","address":"徐汇区东湖路9号地产大厦4楼(近淮海中路)"},{"poiid":"B2094757D068A2FE4993","title":"金刚饮食店","lon":"121.451340788","lat":"31.217013254","category":"68","category_name":"快餐厅","address":"徐汇区长乐路601号(近东湖路)"},{"poiid":"B2094757D568AAFF4199","title":"Southern Belle","lon":"121.454345","lat":"31.21859111","category":"260","category_name":"其他","address":"卢湾区长乐路433号(近襄阳北路)"},{"poiid":"B2094757D069A7F84998","title":"Q太郎","lon":"121.45101065","lat":"31.219166647","category":"95","category_name":"日本料理","address":"静安区富民路158号(近巨鹿路)"},{"poiid":"B2094757DA69A3F9489C","title":"上海搜浩88酒吧","lon":"121.45276728836","lat":"31.217338350747","category":"172","category_name":"酒吧","address":"富民路291号悟锦世纪大楼2F"},{"poiid":"B2094750DA6AA6FF429E","title":"Le Bistro du Dr wine","lon":"121.451011","lat":"31.219398","category":"94","category_name":"西餐厅","address":"静安区富民路177号(近巨鹿路)"},{"poiid":"B2094757D16EABF84299","title":"团市委","lon":"121.452710026","lat":"31.2175345227","category":"46","category_name":"楼宇","address":"上海东湖路17号"},{"poiid":"B2094757D068A5FF409D","title":"阿毛酒家","lon":"121.45116153","lat":"31.220067263","category":"247","category_name":"餐饮美食","address":"上海富民路98号(巨鹿路)"},{"poiid":"B2094757D168AAFA4092","title":"鸟巢","lon":"121.452849586","lat":"31.2169391711","category":"95","category_name":"日本料理","address":"徐汇区新乐路167号(东湖路口)"},{"poiid":"B2094655D26EA6F4449A","title":"尼泊尔餐厅","lon":"121.45008","lat":"31.21929","category":"102","category_name":"印度风味","address":"静安区巨鹿路819弄4号"},{"poiid":"B2094757D56CA0F9499B","title":"B Real","lon":"121.451317","lat":"31.219085","category":"99","category_name":"泰国／越南菜品餐厅","address":"静安区富民路185号"},{"poiid":"B2094757DB6CA4FC4793","title":"Brioche Dorée","lon":"121.4521496124225","lat":"31.21834106369002","category":"247","category_name":"餐饮美食","address":"徐汇区东湖路7号(近富民路)"},{"poiid":"B2094654D564ABFA479A","title":"汇元坊","lon":"121.45104","lat":"31.21995","category":"76","category_name":"上海菜","address":"静安区巨鹿路793号(近富民路)"},{"poiid":"B2094750DA68A4F54699","title":"PAPAYA BAR","lon":"121.451171","lat":"31.219129","category":"260","category_name":"其他","address":"静安区富民路185号(近巨鹿路)"},{"poiid":"B2094757D568A4FA469A","title":"光头热烩涮羊肉","lon":"121.4530769","lat":"31.21807639","category":"86","category_name":"火锅店","address":"长乐路688号"},{"poiid":"B2094757D568A4FC4592","title":"诚居酒屋","lon":"121.4511639","lat":"31.21935611","category":"95","category_name":"日本料理","address":"静安区富民路177号(近巨鹿路)"},{"poiid":"B2094655D268A6F5449B","title":"翠华餐厅 富民路店 Tsui Wah Restaurant","lon":"121.452124054","lat":"31.217478793","category":"72","category_name":"广东菜","address":"静安区富民路291号悟锦世纪大厦内(长乐路口)"},{"poiid":"B2094654DB69A0FA449B","title":"萤七人间 People seven","lon":"121.45002676183","lat":"31.219220560138","category":"257","category_name":"中餐厅","address":"巨鹿路805号近富民路"},{"poiid":"B2094655D26AABFF429D","title":"食道园","lon":"121.453704054","lat":"31.218146793","category":"95","category_name":"日本料理","address":"卢湾区长乐路433号(近襄阳北路)"},{"poiid":"B2094753D76FAAFA449C","title":"上海滩国泰旗舰店","lon":"121.466011","lat":"31.216125","category":"249","category_name":"购物服务","address":"淮海中路868号"},{"poiid":"B209475CD564A7F84292","title":"上海滩新天地店","lon":"121.47463","lat":"31.22164","category":"119","category_name":"商场","address":"\"太仓路181弄新天地北里15号\r\n\""},{"poiid":"B209475CD564A7F8439E","title":"上海滩中信泰富店","lon":"121.45602","lat":"31.22851","category":"119","category_name":"商场","address":"\"南京西路1168号中信泰富广场，店铺号221.\r\n\""},{"poiid":"B2094655D26EA5F8409A","title":"保罗酒家","lon":"121.45205","lat":"31.21782","category":"257","category_name":"中餐厅","address":"静安区富民路271号(近长乐路)"},{"poiid":"B2094757D469A1F44499","title":"No.88酒吧 No.88 Bar","lon":"121.451729054","lat":"31.217383793","category":"172","category_name":"酒吧","address":"静安区富民路291号悟锦世纪大厦2楼(长乐路口)"},{"poiid":"B2094757D06FA2F94992","title":"Nepali Kitchen","lon":"121.45022","lat":"31.21855","category":"110","category_name":"其他亚洲菜","address":"静安区巨鹿路819弄4号(近富民路)"},{"poiid":"B2094757D06FA3FE489A","title":"南麓.浙里","lon":"121.45108","lat":"31.21981","category":"76","category_name":"上海菜","address":"静安区巨鹿路768号巨富大厦2楼(近富民路)"},{"poiid":"B2094654D564ABFA4693","title":"辉哥火锅","lon":"121.45095","lat":"31.2199","category":"86","category_name":"火锅店","address":"静安区巨鹿路795号(近富民路)"},{"poiid":"B2094750D268A1F54699","title":"宫","lon":"121.450805","lat":"31.217145","category":"260","category_name":"其他","address":"徐汇区长乐路764弄2号前门(近华亭路)"},{"poiid":"B2094757D06FABFA459A","title":"dr.wine","lon":"121.45114394","lat":"31.219256726","category":"65","category_name":"咖啡厅","address":"上海富民路177号(近巨鹿路)"},{"poiid":"B2094757D068A6FD499D","title":"Bistro Burger","lon":"121.45293","lat":"31.21705","category":"94","category_name":"西餐厅","address":"静安区富民路291号悟锦世纪大厦1楼(长乐路口)"},{"poiid":"B2094757D16DA2F5419F","title":"泰籽","lon":"121.450883586","lat":"31.2201752344","category":"99","category_name":"泰国／越南菜品餐厅","address":"静安区巨鹿路768号巨富大厦G楼A-B室(近富民路)"},{"poiid":"B2094757D06FA1FF459E","title":"PHO REAL(富民路店)","lon":"121.45148","lat":"31.21822","category":"99","category_name":"泰国／越南菜品餐厅","address":"静安区富民路166号(近长乐路)"},{"poiid":"B2094757D06FA0F54398","title":"CANTINA AGAVE 富民路店","lon":"121.452071054","lat":"31.217879793","category":"94","category_name":"西餐厅","address":"静安区富民路291号悟锦世纪大厦1楼01A-2室(长乐路口)"},{"poiid":"B2094757D06FA5FC4199","title":"HOME'S私房菜","lon":"121.45154","lat":"31.2196","category":"76","category_name":"上海菜","address":"静安区巨鹿路791号(近富民路)"},{"poiid":"B2094757D068A4FF459C","title":"荧七","lon":"121.45033424","lat":"31.217746436","category":"172","category_name":"酒吧","address":"上海巨鹿路"},{"poiid":"B2094757D06FA1FC469B","title":"Dolce Vita Italian","lon":"121.45246925","lat":"31.2171414317","category":"94","category_name":"西餐厅","address":"静安区富民路291号悟锦世纪大厦内(长乐路口)"},{"poiid":"B2094757D06FA0FB409F","title":"海之幸(新乐店)","lon":"121.45378","lat":"31.2167","category":"95","category_name":"日本料理","address":"徐汇区新乐路169号(近东湖路)"},{"poiid":"B2094757D06FA5FC489D","title":"Le Creme Milano(富民路店)","lon":"121.451104","lat":"31.219465","category":"67","category_name":"甜品店","address":"静安区富民路173号(富民路巨鹿路)"},{"poiid":"B2094654DB65A4FD469F","title":"上海东湖宾馆","lon":"121.4535","lat":"31.21684","category":"214","category_name":"四星级宾馆","address":"上海市徐汇区东湖路70号(主楼)，东湖路7号(副楼)(近新乐路)"},{"poiid":"B2094751D56EA0F9489D","title":"Antoni Restaurant","lon":"121.4503","lat":"31.21974","category":"94","category_name":"西餐厅","address":"静安区巨鹿路794号(近富民路)"},{"poiid":"B2094757D068A2FD479B","title":"邮电医院","lon":"121.453616","lat":"31.218576733","category":"162","category_name":"医院","address":"上海徐汇区长乐路666号(近襄阳路)"},{"poiid":"B2094757D068A2FD4299","title":"新乐路","lon":"121.45293426","lat":"31.216962814","category":"47","category_name":"住宅区","address":"上海新乐路"},{"poiid":"B2094757D06FA1FD429F","title":"狠牛独创牛肉面馆(富民路店)","lon":"121.45243","lat":"31.21706","category":"68","category_name":"快餐厅","address":"静安区富民路291号悟锦世纪大厦1楼3B(长乐路口)"},{"poiid":"B2094757D068A2FE439E","title":"红壮铁板烧","lon":"121.45338","lat":"31.21656","category":"269","category_name":"烧烤","address":"徐汇区东湖路70号(近淮海中路)"},{"poiid":"B2094757D06FA4FF459C","title":"南角亭热气涮羊肉","lon":"121.453073994","lat":"31.2180353639","category":"86","category_name":"火锅店","address":"徐汇区长乐路688号(近富民路)"},{"poiid":"B2094757D068A0F54292","title":"Mo'laksa","lon":"121.452731586","lat":"31.2169611715","category":"110","category_name":"其他亚洲菜","address":"上海长乐路208号(近东湖路)"},{"poiid":"B2094757D06FA6FB439F","title":"香啡缤(富民路店)","lon":"121.45256","lat":"31.21711","category":"260","category_name":"其他","address":"静安区富民路291号悟锦世纪大厦内(长乐路口)"},{"poiid":"B2094757D068A4FF439D","title":"BALI LAGUNA","lon":"121.45022583","lat":"31.219125747","category":"172","category_name":"酒吧","address":"上海静安区南京西路1649号(静安公园内)"},{"poiid":"B2094751DB6CA4FD469E","title":"Vino Tapas","lon":"121.45196","lat":"31.21775","category":"247","category_name":"餐饮美食","address":"卢湾区富民路259号(近长乐路)"},{"poiid":"B2094752D66AABF84698","title":"豆苗工坊","lon":"121.452897","lat":"31.216913","category":"247","category_name":"餐饮美食","address":"新乐路 东湖路"},{"poiid":"B2094750D26FA1FF439C","title":"小南国 东湖店","lon":"121.45339862107","lat":"31.21619616642","category":"76","category_name":"上海菜","address":"徐汇区东湖路9号地产大厦4楼(近淮海中路)"},{"poiid":"B2094757D068A2FE4993","title":"金刚饮食店","lon":"121.451340788","lat":"31.217013254","category":"68","category_name":"快餐厅","address":"徐汇区长乐路601号(近东湖路)"},{"poiid":"B2094757D568AAFF4199","title":"Southern Belle","lon":"121.454345","lat":"31.21859111","category":"260","category_name":"其他","address":"卢湾区长乐路433号(近襄阳北路)"},{"poiid":"B2094757D069A7F84998","title":"Q太郎","lon":"121.45101065","lat":"31.219166647","category":"95","category_name":"日本料理","address":"静安区富民路158号(近巨鹿路)"},{"poiid":"B2094757DA69A3F9489C","title":"上海搜浩88酒吧","lon":"121.45276728836","lat":"31.217338350747","category":"172","category_name":"酒吧","address":"富民路291号悟锦世纪大楼2F"},{"poiid":"B2094750DA6AA6FF429E","title":"Le Bistro du Dr wine","lon":"121.451011","lat":"31.219398","category":"94","category_name":"西餐厅","address":"静安区富民路177号(近巨鹿路)"},{"poiid":"B2094757D16EABF84299","title":"团市委","lon":"121.452710026","lat":"31.2175345227","category":"46","category_name":"楼宇","address":"上海东湖路17号"},{"poiid":"B2094757D068A5FF409D","title":"阿毛酒家","lon":"121.45116153","lat":"31.220067263","category":"247","category_name":"餐饮美食","address":"上海富民路98号(巨鹿路)"},{"poiid":"B2094757D168AAFA4092","title":"鸟巢","lon":"121.452849586","lat":"31.2169391711","category":"95","category_name":"日本料理","address":"徐汇区新乐路167号(东湖路口)"},{"poiid":"B2094655D26EA6F4449A","title":"尼泊尔餐厅","lon":"121.45008","lat":"31.21929","category":"102","category_name":"印度风味","address":"静安区巨鹿路819弄4号"},{"poiid":"B2094757D56CA0F9499B","title":"B Real","lon":"121.451317","lat":"31.219085","category":"99","category_name":"泰国／越南菜品餐厅","address":"静安区富民路185号"},{"poiid":"B2094757DB6CA4FC4793","title":"Brioche Dorée","lon":"121.4521496124225","lat":"31.21834106369002","category":"247","category_name":"餐饮美食","address":"徐汇区东湖路7号(近富民路)"},{"poiid":"B2094654D564ABFA479A","title":"汇元坊","lon":"121.45104","lat":"31.21995","category":"76","category_name":"上海菜","address":"静安区巨鹿路793号(近富民路)"},{"poiid":"B2094750DA68A4F54699","title":"PAPAYA BAR","lon":"121.451171","lat":"31.219129","category":"260","category_name":"其他","address":"静安区富民路185号(近巨鹿路)"},{"poiid":"B2094757D568A4FA469A","title":"光头热烩涮羊肉","lon":"121.4530769","lat":"31.21807639","category":"86","category_name":"火锅店","address":"长乐路688号"},{"poiid":"B2094757D568A4FC4592","title":"诚居酒屋","lon":"121.4511639","lat":"31.21935611","category":"95","category_name":"日本料理","address":"静安区富民路177号(近巨鹿路)"},{"poiid":"B2094655D268A6F5449B","title":"翠华餐厅 富民路店 Tsui Wah Restaurant","lon":"121.452124054","lat":"31.217478793","category":"72","category_name":"广东菜","address":"静安区富民路291号悟锦世纪大厦内(长乐路口)"},{"poiid":"B2094654DB69A0FA449B","title":"萤七人间 People seven","lon":"121.45002676183","lat":"31.219220560138","category":"257","category_name":"中餐厅","address":"巨鹿路805号近富民路"},{"poiid":"B2094655D26AABFF429D","title":"食道园","lon":"121.453704054","lat":"31.218146793","category":"95","category_name":"日本料理","address":"卢湾区长乐路433号(近襄阳北路)"},{"poiid":"B2094753D76FAAFA449C","title":"上海滩国泰旗舰店","lon":"121.466011","lat":"31.216125","category":"249","category_name":"购物服务","address":"淮海中路868号"},{"poiid":"B209475CD564A7F84292","title":"上海滩新天地店","lon":"121.47463","lat":"31.22164","category":"119","category_name":"商场","address":"\"太仓路181弄新天地北里15号\r\n\""},{"poiid":"B209475CD564A7F8439E","title":"上海滩中信泰富店","lon":"121.45602","lat":"31.22851","category":"119","category_name":"商场","address":"\"南京西路1168号中信泰富广场，店铺号221.\r\n\""},{"poiid":"B2094655D26EA5F8409A","title":"保罗酒家","lon":"121.45205","lat":"31.21782","category":"257","category_name":"中餐厅","address":"静安区富民路271号(近长乐路)"},{"poiid":"B2094757D469A1F44499","title":"No.88酒吧 No.88 Bar","lon":"121.451729054","lat":"31.217383793","category":"172","category_name":"酒吧","address":"静安区富民路291号悟锦世纪大厦2楼(长乐路口)"},{"poiid":"B2094757D06FA2F94992","title":"Nepali Kitchen","lon":"121.45022","lat":"31.21855","category":"110","category_name":"其他亚洲菜","address":"静安区巨鹿路819弄4号(近富民路)"},{"poiid":"B2094757D06FA3FE489A","title":"南麓.浙里","lon":"121.45108","lat":"31.21981","category":"76","category_name":"上海菜","address":"静安区巨鹿路768号巨富大厦2楼(近富民路)"},{"poiid":"B2094654D564ABFA4693","title":"辉哥火锅","lon":"121.45095","lat":"31.2199","category":"86","category_name":"火锅店","address":"静安区巨鹿路795号(近富民路)"},{"poiid":"B2094750D268A1F54699","title":"宫","lon":"121.450805","lat":"31.217145","category":"260","category_name":"其他","address":"徐汇区长乐路764弄2号前门(近华亭路)"},{"poiid":"B2094757D06FABFA459A","title":"dr.wine","lon":"121.45114394","lat":"31.219256726","category":"65","category_name":"咖啡厅","address":"上海富民路177号(近巨鹿路)"},{"poiid":"B2094757D068A6FD499D","title":"Bistro Burger","lon":"121.45293","lat":"31.21705","category":"94","category_name":"西餐厅","address":"静安区富民路291号悟锦世纪大厦1楼(长乐路口)"},{"poiid":"B2094757D16DA2F5419F","title":"泰籽","lon":"121.450883586","lat":"31.2201752344","category":"99","category_name":"泰国／越南菜品餐厅","address":"静安区巨鹿路768号巨富大厦G楼A-B室(近富民路)"},{"poiid":"B2094757D06FA1FF459E","title":"PHO REAL(富民路店)","lon":"121.45148","lat":"31.21822","category":"99","category_name":"泰国／越南菜品餐厅","address":"静安区富民路166号(近长乐路)"},{"poiid":"B2094757D06FA0F54398","title":"CANTINA AGAVE 富民路店","lon":"121.452071054","lat":"31.217879793","category":"94","category_name":"西餐厅","address":"静安区富民路291号悟锦世纪大厦1楼01A-2室(长乐路口)"},{"poiid":"B2094757D06FA5FC4199","title":"HOME'S私房菜","lon":"121.45154","lat":"31.2196","category":"76","category_name":"上海菜","address":"静安区巨鹿路791号(近富民路)"},{"poiid":"B2094757D068A4FF459C","title":"荧七","lon":"121.45033424","lat":"31.217746436","category":"172","category_name":"酒吧","address":"上海巨鹿路"},{"poiid":"B2094757D06FA1FC469B","title":"Dolce Vita Italian","lon":"121.45246925","lat":"31.2171414317","category":"94","category_name":"西餐厅","address":"静安区富民路291号悟锦世纪大厦内(长乐路口)"},{"poiid":"B2094757D06FA0FB409F","title":"海之幸(新乐店)","lon":"121.45378","lat":"31.2167","category":"95","category_name":"日本料理","address":"徐汇区新乐路169号(近东湖路)"},{"poiid":"B2094757D06FA5FC489D","title":"Le Creme Milano(富民路店)","lon":"121.451104","lat":"31.219465","category":"67","category_name":"甜品店","address":"静安区富民路173号(富民路巨鹿路)"},{"poiid":"B2094654DB65A4FD469F","title":"上海东湖宾馆","lon":"121.4535","lat":"31.21684","category":"214","category_name":"四星级宾馆","address":"上海市徐汇区东湖路70号(主楼)，东湖路7号(副楼)(近新乐路)"},{"poiid":"B2094751D56EA0F9489D","title":"Antoni Restaurant","lon":"121.4503","lat":"31.21974","category":"94","category_name":"西餐厅","address":"静安区巨鹿路794号(近富民路)"},{"poiid":"B2094757D068A2FD479B","title":"邮电医院","lon":"121.453616","lat":"31.218576733","category":"162","category_name":"医院","address":"上海徐汇区长乐路666号(近襄阳路)"},{"poiid":"B2094757D068A2FD4299","title":"新乐路","lon":"121.45293426","lat":"31.216962814","category":"47","category_name":"住宅区","address":"上海新乐路"},{"poiid":"B2094757D06FA1FD429F","title":"狠牛独创牛肉面馆(富民路店)","lon":"121.45243","lat":"31.21706","category":"68","category_name":"快餐厅","address":"静安区富民路291号悟锦世纪大厦1楼3B(长乐路口)"},{"poiid":"B2094757D068A2FE439E","title":"红壮铁板烧","lon":"121.45338","lat":"31.21656","category":"269","category_name":"烧烤","address":"徐汇区东湖路70号(近淮海中路)"},{"poiid":"B2094757D06FA4FF459C","title":"南角亭热气涮羊肉","lon":"121.453073994","lat":"31.2180353639","category":"86","category_name":"火锅店","address":"徐汇区长乐路688号(近富民路)"},{"poiid":"B2094757D068A0F54292","title":"Mo'laksa","lon":"121.452731586","lat":"31.2169611715","category":"110","category_name":"其他亚洲菜","address":"上海长乐路208号(近东湖路)"},{"poiid":"B2094757D06FA6FB439F","title":"香啡缤(富民路店)","lon":"121.45256","lat":"31.21711","category":"260","category_name":"其他","address":"静安区富民路291号悟锦世纪大厦内(长乐路口)"},{"poiid":"B2094757D068A4FF439D","title":"BALI LAGUNA","lon":"121.45022583","lat":"31.219125747","category":"172","category_name":"酒吧","address":"上海静安区南京西路1649号(静安公园内)"},{"poiid":"B2094751DB6CA4FD469E","title":"Vino Tapas","lon":"121.45196","lat":"31.21775","category":"247","category_name":"餐饮美食","address":"卢湾区富民路259号(近长乐路)"},{"poiid":"B2094752D66AABF84698","title":"豆苗工坊","lon":"121.452897","lat":"31.216913","category":"247","category_name":"餐饮美食","address":"新乐路 东湖路"},{"poiid":"B2094750D26FA1FF439C","title":"小南国 东湖店","lon":"121.45339862107","lat":"31.21619616642","category":"76","category_name":"上海菜","address":"徐汇区东湖路9号地产大厦4楼(近淮海中路)"},{"poiid":"B2094757D068A2FE4993","title":"金刚饮食店","lon":"121.451340788","lat":"31.217013254","category":"68","category_name":"快餐厅","address":"徐汇区长乐路601号(近东湖路)"},{"poiid":"B2094757D568AAFF4199","title":"Southern Belle","lon":"121.454345","lat":"31.21859111","category":"260","category_name":"其他","address":"卢湾区长乐路433号(近襄阳北路)"},{"poiid":"B2094757D069A7F84998","title":"Q太郎","lon":"121.45101065","lat":"31.219166647","category":"95","category_name":"日本料理","address":"静安区富民路158号(近巨鹿路)"},{"poiid":"B2094757DA69A3F9489C","title":"上海搜浩88酒吧","lon":"121.45276728836","lat":"31.217338350747","category":"172","category_name":"酒吧","address":"富民路291号悟锦世纪大楼2F"},{"poiid":"B2094750DA6AA6FF429E","title":"Le Bistro du Dr wine","lon":"121.451011","lat":"31.219398","category":"94","category_name":"西餐厅","address":"静安区富民路177号(近巨鹿路)"},{"poiid":"B2094757D16EABF84299","title":"团市委","lon":"121.452710026","lat":"31.2175345227","category":"46","category_name":"楼宇","address":"上海东湖路17号"},{"poiid":"B2094757D068A5FF409D","title":"阿毛酒家","lon":"121.45116153","lat":"31.220067263","category":"247","category_name":"餐饮美食","address":"上海富民路98号(巨鹿路)"},{"poiid":"B2094757D168AAFA4092","title":"鸟巢","lon":"121.452849586","lat":"31.2169391711","category":"95","category_name":"日本料理","address":"徐汇区新乐路167号(东湖路口)"},{"poiid":"B2094655D26EA6F4449A","title":"尼泊尔餐厅","lon":"121.45008","lat":"31.21929","category":"102","category_name":"印度风味","address":"静安区巨鹿路819弄4号"},{"poiid":"B2094757D56CA0F9499B","title":"B Real","lon":"121.451317","lat":"31.219085","category":"99","category_name":"泰国／越南菜品餐厅","address":"静安区富民路185号"},{"poiid":"B2094757DB6CA4FC4793","title":"Brioche Dorée","lon":"121.4521496124225","lat":"31.21834106369002","category":"247","category_name":"餐饮美食","address":"徐汇区东湖路7号(近富民路)"},{"poiid":"B2094654D564ABFA479A","title":"汇元坊","lon":"121.45104","lat":"31.21995","category":"76","category_name":"上海菜","address":"静安区巨鹿路793号(近富民路)"},{"poiid":"B2094750DA68A4F54699","title":"PAPAYA BAR","lon":"121.451171","lat":"31.219129","category":"260","category_name":"其他","address":"静安区富民路185号(近巨鹿路)"},{"poiid":"B2094757D568A4FA469A","title":"光头热烩涮羊肉","lon":"121.4530769","lat":"31.21807639","category":"86","category_name":"火锅店","address":"长乐路688号"},{"poiid":"B2094757D568A4FC4592","title":"诚居酒屋","lon":"121.4511639","lat":"31.21935611","category":"95","category_name":"日本料理","address":"静安区富民路177号(近巨鹿路)"},{"poiid":"B2094655D268A6F5449B","title":"翠华餐厅 富民路店 Tsui Wah Restaurant","lon":"121.452124054","lat":"31.217478793","category":"72","category_name":"广东菜","address":"静安区富民路291号悟锦世纪大厦内(长乐路口)"},{"poiid":"B2094654DB69A0FA449B","title":"萤七人间 People seven","lon":"121.45002676183","lat":"31.219220560138","category":"257","category_name":"中餐厅","address":"巨鹿路805号近富民路"},{"poiid":"B2094655D26AABFF429D","title":"食道园","lon":"121.453704054","lat":"31.218146793","category":"95","category_name":"日本料理","address":"卢湾区长乐路433号(近襄阳北路)"},{"poiid":"B2094753D76FAAFA449C","title":"上海滩国泰旗舰店","lon":"121.466011","lat":"31.216125","category":"249","category_name":"购物服务","address":"淮海中路868号"},{"poiid":"B209475CD564A7F84292","title":"上海滩新天地店","lon":"121.47463","lat":"31.22164","category":"119","category_name":"商场","address":"\"太仓路181弄新天地北里15号\r\n\""},{"poiid":"B209475CD564A7F8439E","title":"上海滩中信泰富店","lon":"121.45602","lat":"31.22851","category":"119","category_name":"商场","address":"\"南京西路1168号中信泰富广场，店铺号221.\r\n\""},{"poiid":"B2094655D26EA5F8409A","title":"保罗酒家","lon":"121.45205","lat":"31.21782","category":"257","category_name":"中餐厅","address":"静安区富民路271号(近长乐路)"},{"poiid":"B2094757D469A1F44499","title":"No.88酒吧 No.88 Bar","lon":"121.451729054","lat":"31.217383793","category":"172","category_name":"酒吧","address":"静安区富民路291号悟锦世纪大厦2楼(长乐路口)"},{"poiid":"B2094757D06FA2F94992","title":"Nepali Kitchen","lon":"121.45022","lat":"31.21855","category":"110","category_name":"其他亚洲菜","address":"静安区巨鹿路819弄4号(近富民路)"},{"poiid":"B2094757D06FA3FE489A","title":"南麓.浙里","lon":"121.45108","lat":"31.21981","category":"76","category_name":"上海菜","address":"静安区巨鹿路768号巨富大厦2楼(近富民路)"},{"poiid":"B2094654D564ABFA4693","title":"辉哥火锅","lon":"121.45095","lat":"31.2199","category":"86","category_name":"火锅店","address":"静安区巨鹿路795号(近富民路)"},{"poiid":"B2094750D268A1F54699","title":"宫","lon":"121.450805","lat":"31.217145","category":"260","category_name":"其他","address":"徐汇区长乐路764弄2号前门(近华亭路)"},{"poiid":"B2094757D06FABFA459A","title":"dr.wine","lon":"121.45114394","lat":"31.219256726","category":"65","category_name":"咖啡厅","address":"上海富民路177号(近巨鹿路)"},{"poiid":"B2094757D068A6FD499D","title":"Bistro Burger","lon":"121.45293","lat":"31.21705","category":"94","category_name":"西餐厅","address":"静安区富民路291号悟锦世纪大厦1楼(长乐路口)"},{"poiid":"B2094757D16DA2F5419F","title":"泰籽","lon":"121.450883586","lat":"31.2201752344","category":"99","category_name":"泰国／越南菜品餐厅","address":"静安区巨鹿路768号巨富大厦G楼A-B室(近富民路)"},{"poiid":"B2094757D06FA1FF459E","title":"PHO REAL(富民路店)","lon":"121.45148","lat":"31.21822","category":"99","category_name":"泰国／越南菜品餐厅","address":"静安区富民路166号(近长乐路)"},{"poiid":"B2094757D06FA0F54398","title":"CANTINA AGAVE 富民路店","lon":"121.452071054","lat":"31.217879793","category":"94","category_name":"西餐厅","address":"静安区富民路291号悟锦世纪大厦1楼01A-2室(长乐路口)"},{"poiid":"B2094757D06FA5FC4199","title":"HOME'S私房菜","lon":"121.45154","lat":"31.2196","category":"76","category_name":"上海菜","address":"静安区巨鹿路791号(近富民路)"},{"poiid":"B2094757D068A4FF459C","title":"荧七","lon":"121.45033424","lat":"31.217746436","category":"172","category_name":"酒吧","address":"上海巨鹿路"},{"poiid":"B2094757D06FA1FC469B","title":"Dolce Vita Italian","lon":"121.45246925","lat":"31.2171414317","category":"94","category_name":"西餐厅","address":"静安区富民路291号悟锦世纪大厦内(长乐路口)"},{"poiid":"B2094757D06FA0FB409F","title":"海之幸(新乐店)","lon":"121.45378","lat":"31.2167","category":"95","category_name":"日本料理","address":"徐汇区新乐路169号(近东湖路)"},{"poiid":"B2094757D06FA5FC489D","title":"Le Creme Milano(富民路店)","lon":"121.451104","lat":"31.219465","category":"67","category_name":"甜品店","address":"静安区富民路173号(富民路巨鹿路)"},{"poiid":"B2094654DB65A4FD469F","title":"上海东湖宾馆","lon":"121.4535","lat":"31.21684","category":"214","category_name":"四星级宾馆","address":"上海市徐汇区东湖路70号(主楼)，东湖路7号(副楼)(近新乐路)"},{"poiid":"B2094751D56EA0F9489D","title":"Antoni Restaurant","lon":"121.4503","lat":"31.21974","category":"94","category_name":"西餐厅","address":"静安区巨鹿路794号(近富民路)"},{"poiid":"B2094757D068A2FD479B","title":"邮电医院","lon":"121.453616","lat":"31.218576733","category":"162","category_name":"医院","address":"上海徐汇区长乐路666号(近襄阳路)"},{"poiid":"B2094757D068A2FD4299","title":"新乐路","lon":"121.45293426","lat":"31.216962814","category":"47","category_name":"住宅区","address":"上海新乐路"},{"poiid":"B2094757D06FA1FD429F","title":"狠牛独创牛肉面馆(富民路店)","lon":"121.45243","lat":"31.21706","category":"68","category_name":"快餐厅","address":"静安区富民路291号悟锦世纪大厦1楼3B(长乐路口)"},{"poiid":"B2094757D068A2FE439E","title":"红壮铁板烧","lon":"121.45338","lat":"31.21656","category":"269","category_name":"烧烤","address":"徐汇区东湖路70号(近淮海中路)"},{"poiid":"B2094757D06FA4FF459C","title":"南角亭热气涮羊肉","lon":"121.453073994","lat":"31.2180353639","category":"86","category_name":"火锅店","address":"徐汇区长乐路688号(近富民路)"},{"poiid":"B2094757D068A0F54292","title":"Mo'laksa","lon":"121.452731586","lat":"31.2169611715","category":"110","category_name":"其他亚洲菜","address":"上海长乐路208号(近东湖路)"},{"poiid":"B2094757D06FA6FB439F","title":"香啡缤(富民路店)","lon":"121.45256","lat":"31.21711","category":"260","category_name":"其他","address":"静安区富民路291号悟锦世纪大厦内(长乐路口)"},{"poiid":"B2094757D068A4FF439D","title":"BALI LAGUNA","lon":"121.45022583","lat":"31.219125747","category":"172","category_name":"酒吧","address":"上海静安区南京西路1649号(静安公园内)"},{"poiid":"B2094751DB6CA4FD469E","title":"Vino Tapas","lon":"121.45196","lat":"31.21775","category":"247","category_name":"餐饮美食","address":"卢湾区富民路259号(近长乐路)"},{"poiid":"B2094752D66AABF84698","title":"豆苗工坊","lon":"121.452897","lat":"31.216913","category":"247","category_name":"餐饮美食","address":"新乐路 东湖路"},{"poiid":"B2094750D26FA1FF439C","title":"小南国 东湖店","lon":"121.45339862107","lat":"31.21619616642","category":"76","category_name":"上海菜","address":"徐汇区东湖路9号地产大厦4楼(近淮海中路)"},{"poiid":"B2094757D068A2FE4993","title":"金刚饮食店","lon":"121.451340788","lat":"31.217013254","category":"68","category_name":"快餐厅","address":"徐汇区长乐路601号(近东湖路)"},{"poiid":"B2094757D568AAFF4199","title":"Southern Belle","lon":"121.454345","lat":"31.21859111","category":"260","category_name":"其他","address":"卢湾区长乐路433号(近襄阳北路)"},{"poiid":"B2094757D069A7F84998","title":"Q太郎","lon":"121.45101065","lat":"31.219166647","category":"95","category_name":"日本料理","address":"静安区富民路158号(近巨鹿路)"},{"poiid":"B2094757DA69A3F9489C","title":"上海搜浩88酒吧","lon":"121.45276728836","lat":"31.217338350747","category":"172","category_name":"酒吧","address":"富民路291号悟锦世纪大楼2F"},{"poiid":"B2094750DA6AA6FF429E","title":"Le Bistro du Dr wine","lon":"121.451011","lat":"31.219398","category":"94","category_name":"西餐厅","address":"静安区富民路177号(近巨鹿路)"},{"poiid":"B2094757D16EABF84299","title":"团市委","lon":"121.452710026","lat":"31.2175345227","category":"46","category_name":"楼宇","address":"上海东湖路17号"},{"poiid":"B2094757D068A5FF409D","title":"阿毛酒家","lon":"121.45116153","lat":"31.220067263","category":"247","category_name":"餐饮美食","address":"上海富民路98号(巨鹿路)"},{"poiid":"B2094757D168AAFA4092","title":"鸟巢","lon":"121.452849586","lat":"31.2169391711","category":"95","category_name":"日本料理","address":"徐汇区新乐路167号(东湖路口)"},{"poiid":"B2094655D26EA6F4449A","title":"尼泊尔餐厅","lon":"121.45008","lat":"31.21929","category":"102","category_name":"印度风味","address":"静安区巨鹿路819弄4号"},{"poiid":"B2094757D56CA0F9499B","title":"B Real","lon":"121.451317","lat":"31.219085","category":"99","category_name":"泰国／越南菜品餐厅","address":"静安区富民路185号"},{"poiid":"B2094757DB6CA4FC4793","title":"Brioche Dorée","lon":"121.4521496124225","lat":"31.21834106369002","category":"247","category_name":"餐饮美食","address":"徐汇区东湖路7号(近富民路)"},{"poiid":"B2094654D564ABFA479A","title":"汇元坊","lon":"121.45104","lat":"31.21995","category":"76","category_name":"上海菜","address":"静安区巨鹿路793号(近富民路)"},{"poiid":"B2094750DA68A4F54699","title":"PAPAYA BAR","lon":"121.451171","lat":"31.219129","category":"260","category_name":"其他","address":"静安区富民路185号(近巨鹿路)"},{"poiid":"B2094757D568A4FA469A","title":"光头热烩涮羊肉","lon":"121.4530769","lat":"31.21807639","category":"86","category_name":"火锅店","address":"长乐路688号"},{"poiid":"B2094757D568A4FC4592","title":"诚居酒屋","lon":"121.4511639","lat":"31.21935611","category":"95","category_name":"日本料理","address":"静安区富民路177号(近巨鹿路)"},{"poiid":"B2094655D268A6F5449B","title":"翠华餐厅 富民路店 Tsui Wah Restaurant","lon":"121.452124054","lat":"31.217478793","category":"72","category_name":"广东菜","address":"静安区富民路291号悟锦世纪大厦内(长乐路口)"},{"poiid":"B2094654DB69A0FA449B","title":"萤七人间 People seven","lon":"121.45002676183","lat":"31.219220560138","category":"257","category_name":"中餐厅","address":"巨鹿路805号近富民路"},{"poiid":"B2094655D26AABFF429D","title":"食道园","lon":"121.453704054","lat":"31.218146793","category":"95","category_name":"日本料理","address":"卢湾区长乐路433号(近襄阳北路)"},{"poiid":"B2094753D76FAAFA449C","title":"上海滩国泰旗舰店","lon":"121.466011","lat":"31.216125","category":"249","category_name":"购物服务","address":"淮海中路868号"},{"poiid":"B209475CD564A7F84292","title":"上海滩新天地店","lon":"121.47463","lat":"31.22164","category":"119","category_name":"商场","address":"\"太仓路181弄新天地北里15号\r\n\""},{"poiid":"B209475CD564A7F8439E","title":"上海滩中信泰富店","lon":"121.45602","lat":"31.22851","category":"119","category_name":"商场","address":"\"南京西路1168号中信泰富广场，店铺号221.\r\n\""},{"poiid":"B2094655D26EA5F8409A","title":"保罗酒家","lon":"121.45205","lat":"31.21782","category":"257","category_name":"中餐厅","address":"静安区富民路271号(近长乐路)"},{"poiid":"B2094757D469A1F44499","title":"No.88酒吧 No.88 Bar","lon":"121.451729054","lat":"31.217383793","category":"172","category_name":"酒吧","address":"静安区富民路291号悟锦世纪大厦2楼(长乐路口)"},{"poiid":"B2094757D06FA2F94992","title":"Nepali Kitchen","lon":"121.45022","lat":"31.21855","category":"110","category_name":"其他亚洲菜","address":"静安区巨鹿路819弄4号(近富民路)"},{"poiid":"B2094757D06FA3FE489A","title":"南麓.浙里","lon":"121.45108","lat":"31.21981","category":"76","category_name":"上海菜","address":"静安区巨鹿路768号巨富大厦2楼(近富民路)"},{"poiid":"B2094654D564ABFA4693","title":"辉哥火锅","lon":"121.45095","lat":"31.2199","category":"86","category_name":"火锅店","address":"静安区巨鹿路795号(近富民路)"},{"poiid":"B2094750D268A1F54699","title":"宫","lon":"121.450805","lat":"31.217145","category":"260","category_name":"其他","address":"徐汇区长乐路764弄2号前门(近华亭路)"},{"poiid":"B2094757D06FABFA459A","title":"dr.wine","lon":"121.45114394","lat":"31.219256726","category":"65","category_name":"咖啡厅","address":"上海富民路177号(近巨鹿路)"},{"poiid":"B2094757D068A6FD499D","title":"Bistro Burger","lon":"121.45293","lat":"31.21705","category":"94","category_name":"西餐厅","address":"静安区富民路291号悟锦世纪大厦1楼(长乐路口)"},{"poiid":"B2094757D16DA2F5419F","title":"泰籽","lon":"121.450883586","lat":"31.2201752344","category":"99","category_name":"泰国／越南菜品餐厅","address":"静安区巨鹿路768号巨富大厦G楼A-B室(近富民路)"},{"poiid":"B2094757D06FA1FF459E","title":"PHO REAL(富民路店)","lon":"121.45148","lat":"31.21822","category":"99","category_name":"泰国／越南菜品餐厅","address":"静安区富民路166号(近长乐路)"},{"poiid":"B2094757D06FA0F54398","title":"CANTINA AGAVE 富民路店","lon":"121.452071054","lat":"31.217879793","category":"94","category_name":"西餐厅","address":"静安区富民路291号悟锦世纪大厦1楼01A-2室(长乐路口)"},{"poiid":"B2094757D06FA5FC4199","title":"HOME'S私房菜","lon":"121.45154","lat":"31.2196","category":"76","category_name":"上海菜","address":"静安区巨鹿路791号(近富民路)"},{"poiid":"B2094757D068A4FF459C","title":"荧七","lon":"121.45033424","lat":"31.217746436","category":"172","category_name":"酒吧","address":"上海巨鹿路"},{"poiid":"B2094757D06FA1FC469B","title":"Dolce Vita Italian","lon":"121.45246925","lat":"31.2171414317","category":"94","category_name":"西餐厅","address":"静安区富民路291号悟锦世纪大厦内(长乐路口)"},{"poiid":"B2094757D06FA0FB409F","title":"海之幸(新乐店)","lon":"121.45378","lat":"31.2167","category":"95","category_name":"日本料理","address":"徐汇区新乐路169号(近东湖路)"},{"poiid":"B2094757D06FA5FC489D","title":"Le Creme Milano(富民路店)","lon":"121.451104","lat":"31.219465","category":"67","category_name":"甜品店","address":"静安区富民路173号(富民路巨鹿路)"},{"poiid":"B2094654DB65A4FD469F","title":"上海东湖宾馆","lon":"121.4535","lat":"31.21684","category":"214","category_name":"四星级宾馆","address":"上海市徐汇区东湖路70号(主楼)，东湖路7号(副楼)(近新乐路)"},{"poiid":"B2094751D56EA0F9489D","title":"Antoni Restaurant","lon":"121.4503","lat":"31.21974","category":"94","category_name":"西餐厅","address":"静安区巨鹿路794号(近富民路)"},{"poiid":"B2094757D068A2FD479B","title":"邮电医院","lon":"121.453616","lat":"31.218576733","category":"162","category_name":"医院","address":"上海徐汇区长乐路666号(近襄阳路)"},{"poiid":"B2094757D068A2FD4299","title":"新乐路","lon":"121.45293426","lat":"31.216962814","category":"47","category_name":"住宅区","address":"上海新乐路"},{"poiid":"B2094757D06FA1FD429F","title":"狠牛独创牛肉面馆(富民路店)","lon":"121.45243","lat":"31.21706","category":"68","category_name":"快餐厅","address":"静安区富民路291号悟锦世纪大厦1楼3B(长乐路口)"},{"poiid":"B2094757D068A2FE439E","title":"红壮铁板烧","lon":"121.45338","lat":"31.21656","category":"269","category_name":"烧烤","address":"徐汇区东湖路70号(近淮海中路)"},{"poiid":"B2094757D06FA4FF459C","title":"南角亭热气涮羊肉","lon":"121.453073994","lat":"31.2180353639","category":"86","category_name":"火锅店","address":"徐汇区长乐路688号(近富民路)"},{"poiid":"B2094757D068A0F54292","title":"Mo'laksa","lon":"121.452731586","lat":"31.2169611715","category":"110","category_name":"其他亚洲菜","address":"上海长乐路208号(近东湖路)"},{"poiid":"B2094757D06FA6FB439F","title":"香啡缤(富民路店)","lon":"121.45256","lat":"31.21711","category":"260","category_name":"其他","address":"静安区富民路291号悟锦世纪大厦内(长乐路口)"},{"poiid":"B2094757D068A4FF439D","title":"BALI LAGUNA","lon":"121.45022583","lat":"31.219125747","category":"172","category_name":"酒吧","address":"上海静安区南京西路1649号(静安公园内)"},{"poiid":"B2094751DB6CA4FD469E","title":"Vino Tapas","lon":"121.45196","lat":"31.21775","category":"247","category_name":"餐饮美食","address":"卢湾区富民路259号(近长乐路)"},{"poiid":"B2094752D66AABF84698","title":"豆苗工坊","lon":"121.452897","lat":"31.216913","category":"247","category_name":"餐饮美食","address":"新乐路 东湖路"},{"poiid":"B2094750D26FA1FF439C","title":"小南国 东湖店","lon":"121.45339862107","lat":"31.21619616642","category":"76","category_name":"上海菜","address":"徐汇区东湖路9号地产大厦4楼(近淮海中路)"},{"poiid":"B2094757D068A2FE4993","title":"金刚饮食店","lon":"121.451340788","lat":"31.217013254","category":"68","category_name":"快餐厅","address":"徐汇区长乐路601号(近东湖路)"},{"poiid":"B2094757D568AAFF4199","title":"Southern Belle","lon":"121.454345","lat":"31.21859111","category":"260","category_name":"其他","address":"卢湾区长乐路433号(近襄阳北路)"},{"poiid":"B2094757D069A7F84998","title":"Q太郎","lon":"121.45101065","lat":"31.219166647","category":"95","category_name":"日本料理","address":"静安区富民路158号(近巨鹿路)"},{"poiid":"B2094757DA69A3F9489C","title":"上海搜浩88酒吧","lon":"121.45276728836","lat":"31.217338350747","category":"172","category_name":"酒吧","address":"富民路291号悟锦世纪大楼2F"},{"poiid":"B2094750DA6AA6FF429E","title":"Le Bistro du Dr wine","lon":"121.451011","lat":"31.219398","category":"94","category_name":"西餐厅","address":"静安区富民路177号(近巨鹿路)"},{"poiid":"B2094757D16EABF84299","title":"团市委","lon":"121.452710026","lat":"31.2175345227","category":"46","category_name":"楼宇","address":"上海东湖路17号"},{"poiid":"B2094757D068A5FF409D","title":"阿毛酒家","lon":"121.45116153","lat":"31.220067263","category":"247","category_name":"餐饮美食","address":"上海富民路98号(巨鹿路)"},{"poiid":"B2094757D168AAFA4092","title":"鸟巢","lon":"121.452849586","lat":"31.2169391711","category":"95","category_name":"日本料理","address":"徐汇区新乐路167号(东湖路口)"},{"poiid":"B2094655D26EA6F4449A","title":"尼泊尔餐厅","lon":"121.45008","lat":"31.21929","category":"102","category_name":"印度风味","address":"静安区巨鹿路819弄4号"},{"poiid":"B2094757D56CA0F9499B","title":"B Real","lon":"121.451317","lat":"31.219085","category":"99","category_name":"泰国／越南菜品餐厅","address":"静安区富民路185号"},{"poiid":"B2094757DB6CA4FC4793","title":"Brioche Dorée","lon":"121.4521496124225","lat":"31.21834106369002","category":"247","category_name":"餐饮美食","address":"徐汇区东湖路7号(近富民路)"},{"poiid":"B2094654D564ABFA479A","title":"汇元坊","lon":"121.45104","lat":"31.21995","category":"76","category_name":"上海菜","address":"静安区巨鹿路793号(近富民路)"},{"poiid":"B2094750DA68A4F54699","title":"PAPAYA BAR","lon":"121.451171","lat":"31.219129","category":"260","category_name":"其他","address":"静安区富民路185号(近巨鹿路)"},{"poiid":"B2094757D568A4FA469A","title":"光头热烩涮羊肉","lon":"121.4530769","lat":"31.21807639","category":"86","category_name":"火锅店","address":"长乐路688号"},{"poiid":"B2094757D568A4FC4592","title":"诚居酒屋","lon":"121.4511639","lat":"31.21935611","category":"95","category_name":"日本料理","address":"静安区富民路177号(近巨鹿路)"}]