[{"poiid":"B2094757D06FA3FA4498","title":"新场古镇","lon":"121.64914","lat":"31.02011","category":"260","category_name":"其他","address":"上海市浦东新区新场镇海泉街128号"},{"poiid":"B2094655D36DA1F54998","title":"新场镇","lon":"121.64128","lat":"31.02714","category":"38","category_name":"公交车站","address":""},{"poiid":"B2094757D06BA3F84093","title":"冠郡大酒店","lon":"121.653336054","lat":"31.029964793","category":"76","category_name":"上海菜","address":"浦东新区新场镇沪南公路7508号(新坦瓦公路口)"},{"poiid":"B2094655D265ABFA469D","title":"S2沪南公路收费站","lon":"121.66813","lat":"31.03359","category":"267","category_name":"收费站","address":""},{"poiid":"B2094655D36DA1F54999","title":"新场镇政府","lon":"121.65287","lat":"31.02966","category":"38","category_name":"公交车站","address":""},{"poiid":"B2094750D564A6FB4192","title":"东方冠郡","lon":"121.655602","lat":"31.031939","category":"47","category_name":"住宅区","address":"浦东新区沪南公路7518弄"},{"poiid":"B2094655D36CA1FD429A","title":"十八里桥","lon":"121.65762","lat":"31.0304","category":"38","category_name":"公交车站","address":""},{"poiid":"B2094654DB6FA0F4409E","title":"中汇科技园","lon":"121.66334","lat":"31.03386","category":"45","category_name":"产业园区","address":""},{"poiid":"B2094757D06BA6FD499F","title":"长桥山庄","lon":"121.678348","lat":"31.029901","category":"260","category_name":"其他","address":"上海沪南公路7960号"},{"poiid":"B2094757D064A7FA4992","title":"沪南线新场镇政府站","lon":"121.654269","lat":"31.031232","category":"500","category_name":"未知分类","address":"上海沪南公路新坦瓦公路"},{"poiid":"B2094750D569ABFF4998","title":"汇锦城","lon":"121.64968104862","lat":"31.034645833528","category":"47","category_name":"住宅区","address":"浦东新区新环北路1180弄"},{"poiid":"B2094750DB6BA6F9419D","title":"斑马道","lon":"121.649467","lat":"31.028301","category":"247","category_name":"餐饮美食","address":"新场大街377号"},{"poiid":"B2094655D26BA6F84193","title":"古镇私房菜","lon":"121.64633","lat":"31.02432","category":"76","category_name":"上海菜","address":"浦东新区新场大街364号(近奉贤公路)"},{"poiid":"B2094655D268ABF84492","title":"Ａ２沪南公路收费站","lon":"121.66818","lat":"31.03358","category":"267","category_name":"收费站","address":""},{"poiid":"B2094654DB65A7FB419F","title":"家得利(新场店)","lon":"121.65381","lat":"31.02493","category":"118","category_name":"超级市场","address":"南汇区新场镇牌楼东路30号"},{"poiid":"B2094750DB6CABF54598","title":"浦东国际机场","lon":"121.642593","lat":"31.023026","category":"500","category_name":"未知分类","address":null},{"poiid":"B2094752DA64A3F54493","title":"上海万科清林径","lon":"121.650767","lat":"31.029249","category":"500","category_name":"未知分类","address":"上海市 牌楼东路528弄"},{"poiid":"B2094757D66BABFC4792","title":"爵鼎鸡 新场镇店","lon":"121.646789","lat":"31.027434","category":"68","category_name":"快餐厅","address":"浦东新区新场镇东后街300号(近家得利超市)"},{"poiid":"B209475DD769A6F84198","title":"新场古镇","lon":"121.648406","lat":"31.027105","category":"247","category_name":"餐饮美食","address":"上海市 新场镇"},{"poiid":"B2094655D36CA7FE4793","title":"沪南公路新场镇","lon":"121.64071","lat":"31.02706","category":"38","category_name":"公交车站","address":""},{"poiid":"B2094654DB6FA0FB479F","title":"南汇区新场中学","lon":"121.64855","lat":"31.02143","category":"55","category_name":"中学","address":"东后老街152"},{"poiid":"B2094752D66DA2F4489D","title":"上海浦东机场","lon":"121.642593","lat":"31.023026","category":"500","category_name":"未知分类","address":null},{"poiid":"B2094757D66AAAFB409F","title":"新场古镇餐饮服务社","lon":"121.647225054","lat":"31.027884793","category":"87","category_name":"特色／地方风味餐厅","address":"浦东新区新场大街364号"},{"poiid":"B2094654DB6FA0FB479D","title":"新场社区卫生服务中心","lon":"121.6454","lat":"31.02462","category":"162","category_name":"医院","address":"牌楼西路58"},{"poiid":"B2094655D36DA7FD439F","title":"张家桥","lon":"121.6763","lat":"31.03394","category":"38","category_name":"公交车站","address":""},{"poiid":"B2094655D36DA2FC499D","title":"沪南公路十八里桥","lon":"121.67707","lat":"31.03403","category":"250","category_name":"公园户外","address":""},{"poiid":"B2094757D16FA2FA4599","title":"新场老地坊","lon":"121.650657882","lat":"31.0235185083","category":"500","category_name":"未知分类","address":"浦东新区新场镇东后老街(石笋街东后老街)"},{"poiid":"B2094655D264A0FE469B","title":"景尚缇香","lon":"121.646","lat":"31.0273","category":"47","category_name":"住宅区","address":"浦东新区新环西路笋心路"},{"poiid":"B2094654DB6FA0F44999","title":"新场镇中学","lon":"121.6509","lat":"31.02151","category":"55","category_name":"中学","address":"石笋路"},{"poiid":"B2094655D36CA3F9479F","title":"吴记羊肉馆","lon":"121.64598","lat":"31.02234","category":"76","category_name":"上海菜","address":"浦东新区新场镇新场大街399号"},{"poiid":"B2094655D36CA7FE499D","title":"沪南公路长桥山庄","lon":"121.67832","lat":"31.0343","category":"38","category_name":"公交车站","address":""},{"poiid":"B2094757D16DA7FC459D","title":"新场南山寺","lon":"121.648844382","lat":"31.0172118546","category":"246","category_name":"回教寺","address":"上海近郊南汇新场镇南(近新奉路和环镇南路)  "},{"poiid":"B2094752D76BA7FE439D","title":"浦东机场一号航站楼","lon":"121.642593","lat":"31.023026","category":"500","category_name":"未知分类","address":null},{"poiid":"B2094757D56EA7FE4192","title":"旁氏周浦乐购店","lon":"121.673457","lat":"31.033533","category":"249","category_name":"购物服务","address":"上海周浦镇沪南公路3449弄1支弄1-8号"},{"poiid":"B2094753DA68A7FD4198","title":"滴水湖","lon":"121.672737","lat":"31.039882","category":"500","category_name":"未知分类","address":"上海市 浦东新区滴水湖"},{"poiid":"B2094757D76AA7FA4499","title":"水上楼饭店","lon":"121.6420905","lat":"31.0237397","category":"87","category_name":"特色／地方风味餐厅","address":"浦东新区牌楼西路29号(近南汇新场镇)"},{"poiid":"B2094757D16AA4FE4898","title":"工商银行(新场分行)","lon":"121.648041","lat":"31.024992","category":"150","category_name":"银行","address":"上海牌楼东路"},{"poiid":"B2094655D36DA2FC4692","title":"南五灶港桥","lon":"121.67023","lat":"31.02242","category":"250","category_name":"公园户外","address":""},{"poiid":"B2094655D265AAFB4593","title":"丽金美点","lon":"121.64598","lat":"31.02234","category":"68","category_name":"快餐厅","address":"浦东新区新场镇石笋街122号(石笋街新奉公路)"},{"poiid":"B2094654DB6FA0FB479C","title":"中国工商银行上海市新场支行","lon":"121.64692","lat":"31.02479","category":"150","category_name":"银行","address":"黄浦区牌楼东路19号近新场车站(东后老街新场大街)"},{"poiid":"B2094757D169A1F5439E","title":"FiSh @ HoMe","lon":"121.647229","lat":"31.023424","category":"500","category_name":"未知分类","address":"上海浦东新区新场镇"},{"poiid":"B2094654DB69A7F8439C","title":"中国建设银行新场支行","lon":"121.64639","lat":"31.02475","category":"150","category_name":"银行","address":"浦东新区新场镇新场大街345号"},{"poiid":"B2094654DB6AA3FF4499","title":"第八五医院新场分院制剂中心","lon":"121.6442","lat":"31.02302","category":"162","category_name":"医院","address":"南汇区新奉公路219号"},{"poiid":"B2094757D465A1FD499E","title":"清风人家 新场店 Chinfond Teahouse","lon":"121.64899543786","lat":"31.018652437952","category":"66","category_name":"茶艺馆","address":"新场大街424号近新环南路"},{"poiid":"B2094757D569A7FE499B","title":"农工商超市","lon":"121.6417296","lat":"31.02703071","category":"118","category_name":"超级市场","address":"中国上海市浦东新区"},{"poiid":"B2094654DB64AAF94193","title":"新艺影剧院","lon":"121.64469","lat":"31.02008","category":"178","category_name":"电影院","address":""},{"poiid":"B2094654DB6FA0FB4898","title":"新场派出所","lon":"121.64826","lat":"31.02037","category":"609","category_name":"警察局","address":"新场镇石笋街2号"},{"poiid":"B2094655D36DA2FC479B","title":"新场北桥","lon":"121.64334","lat":"31.02518","category":"250","category_name":"公园户外","address":""},{"poiid":"B2094757D16DA6FE4892","title":"新场镇石笋一村","lon":"121.64286088","lat":"31.023530508","category":"500","category_name":"未知分类","address":"上海市浦东新区新环西路"},{"poiid":"B2094654DB64A0F94098","title":"石笋小学","lon":"121.64445","lat":"31.02209","category":"56","category_name":"小学","address":""},{"poiid":"B2094757D06FA3FA4498","title":"新场古镇","lon":"121.64914","lat":"31.02011","category":"260","category_name":"其他","address":"上海市浦东新区新场镇海泉街128号"},{"poiid":"B2094655D36DA1F54998","title":"新场镇","lon":"121.64128","lat":"31.02714","category":"38","category_name":"公交车站","address":""},{"poiid":"B2094757D06BA3F84093","title":"冠郡大酒店","lon":"121.653336054","lat":"31.029964793","category":"76","category_name":"上海菜","address":"浦东新区新场镇沪南公路7508号(新坦瓦公路口)"},{"poiid":"B2094655D265ABFA469D","title":"S2沪南公路收费站","lon":"121.66813","lat":"31.03359","category":"267","category_name":"收费站","address":""},{"poiid":"B2094655D36DA1F54999","title":"新场镇政府","lon":"121.65287","lat":"31.02966","category":"38","category_name":"公交车站","address":""},{"poiid":"B2094750D564A6FB4192","title":"东方冠郡","lon":"121.655602","lat":"31.031939","category":"47","category_name":"住宅区","address":"浦东新区沪南公路7518弄"},{"poiid":"B2094655D36CA1FD429A","title":"十八里桥","lon":"121.65762","lat":"31.0304","category":"38","category_name":"公交车站","address":""},{"poiid":"B2094654DB6FA0F4409E","title":"中汇科技园","lon":"121.66334","lat":"31.03386","category":"45","category_name":"产业园区","address":""},{"poiid":"B2094757D06BA6FD499F","title":"长桥山庄","lon":"121.678348","lat":"31.029901","category":"260","category_name":"其他","address":"上海沪南公路7960号"},{"poiid":"B2094757D064A7FA4992","title":"沪南线新场镇政府站","lon":"121.654269","lat":"31.031232","category":"500","category_name":"未知分类","address":"上海沪南公路新坦瓦公路"},{"poiid":"B2094750D569ABFF4998","title":"汇锦城","lon":"121.64968104862","lat":"31.034645833528","category":"47","category_name":"住宅区","address":"浦东新区新环北路1180弄"},{"poiid":"B2094750DB6BA6F9419D","title":"斑马道","lon":"121.649467","lat":"31.028301","category":"247","category_name":"餐饮美食","address":"新场大街377号"},{"poiid":"B2094655D26BA6F84193","title":"古镇私房菜","lon":"121.64633","lat":"31.02432","category":"76","category_name":"上海菜","address":"浦东新区新场大街364号(近奉贤公路)"},{"poiid":"B2094655D268ABF84492","title":"Ａ２沪南公路收费站","lon":"121.66818","lat":"31.03358","category":"267","category_name":"收费站","address":""},{"poiid":"B2094654DB65A7FB419F","title":"家得利(新场店)","lon":"121.65381","lat":"31.02493","category":"118","category_name":"超级市场","address":"南汇区新场镇牌楼东路30号"},{"poiid":"B2094750DB6CABF54598","title":"浦东国际机场","lon":"121.642593","lat":"31.023026","category":"500","category_name":"未知分类","address":null},{"poiid":"B2094752DA64A3F54493","title":"上海万科清林径","lon":"121.650767","lat":"31.029249","category":"500","category_name":"未知分类","address":"上海市 牌楼东路528弄"},{"poiid":"B2094757D66BABFC4792","title":"爵鼎鸡 新场镇店","lon":"121.646789","lat":"31.027434","category":"68","category_name":"快餐厅","address":"浦东新区新场镇东后街300号(近家得利超市)"},{"poiid":"B209475DD769A6F84198","title":"新场古镇","lon":"121.648406","lat":"31.027105","category":"247","category_name":"餐饮美食","address":"上海市 新场镇"},{"poiid":"B2094655D36CA7FE4793","title":"沪南公路新场镇","lon":"121.64071","lat":"31.02706","category":"38","category_name":"公交车站","address":""},{"poiid":"B2094654DB6FA0FB479F","title":"南汇区新场中学","lon":"121.64855","lat":"31.02143","category":"55","category_name":"中学","address":"东后老街152"},{"poiid":"B2094752D66DA2F4489D","title":"上海浦东机场","lon":"121.642593","lat":"31.023026","category":"500","category_name":"未知分类","address":null},{"poiid":"B2094757D66AAAFB409F","title":"新场古镇餐饮服务社","lon":"121.647225054","lat":"31.027884793","category":"87","category_name":"特色／地方风味餐厅","address":"浦东新区新场大街364号"},{"poiid":"B2094654DB6FA0FB479D","title":"新场社区卫生服务中心","lon":"121.6454","lat":"31.02462","category":"162","category_name":"医院","address":"牌楼西路58"},{"poiid":"B2094655D36DA7FD439F","title":"张家桥","lon":"121.6763","lat":"31.03394","category":"38","category_name":"公交车站","address":""},{"poiid":"B2094655D36DA2FC499D","title":"沪南公路十八里桥","lon":"121.67707","lat":"31.03403","category":"250","category_name":"公园户外","address":""},{"poiid":"B2094757D16FA2FA4599","title":"新场老地坊","lon":"121.650657882","lat":"31.0235185083","category":"500","category_name":"未知分类","address":"浦东新区新场镇东后老街(石笋街东后老街)"},{"poiid":"B2094655D264A0FE469B","title":"景尚缇香","lon":"121.646","lat":"31.0273","category":"47","category_name":"住宅区","address":"浦东新区新环西路笋心路"},{"poiid":"B2094654DB6FA0F44999","title":"新场镇中学","lon":"121.6509","lat":"31.02151","category":"55","category_name":"中学","address":"石笋路"},{"poiid":"B2094655D36CA3F9479F","title":"吴记羊肉馆","lon":"121.64598","lat":"31.02234","category":"76","category_name":"上海菜","address":"浦东新区新场镇新场大街399号"},{"poiid":"B2094655D36CA7FE499D","title":"沪南公路长桥山庄","lon":"121.67832","lat":"31.0343","category":"38","category_name":"公交车站","address":""},{"poiid":"B2094757D16DA7FC459D","title":"新场南山寺","lon":"121.648844382","lat":"31.0172118546","category":"246","category_name":"回教寺","address":"上海近郊南汇新场镇南(近新奉路和环镇南路)  "},{"poiid":"B2094752D76BA7FE439D","title":"浦东机场一号航站楼","lon":"121.642593","lat":"31.023026","category":"500","category_name":"未知分类","address":null},{"poiid":"B2094757D56EA7FE4192","title":"旁氏周浦乐购店","lon":"121.673457","lat":"31.033533","category":"249","category_name":"购物服务","address":"上海周浦镇沪南公路3449弄1支弄1-8号"},{"poiid":"B2094753DA68A7FD4198","title":"滴水湖","lon":"121.672737","lat":"31.039882","category":"500","category_name":"未知分类","address":"上海市 浦东新区滴水湖"},{"poiid":"B2094757D76AA7FA4499","title":"水上楼饭店","lon":"121.6420905","lat":"31.0237397","category":"87","category_name":"特色／地方风味餐厅","address":"浦东新区牌楼西路29号(近南汇新场镇)"},{"poiid":"B2094757D16AA4FE4898","title":"工商银行(新场分行)","lon":"121.648041","lat":"31.024992","category":"150","category_name":"银行","address":"上海牌楼东路"},{"poiid":"B2094655D36DA2FC4692","title":"南五灶港桥","lon":"121.67023","lat":"31.02242","category":"250","category_name":"公园户外","address":""},{"poiid":"B2094655D265AAFB4593","title":"丽金美点","lon":"121.64598","lat":"31.02234","category":"68","category_name":"快餐厅","address":"浦东新区新场镇石笋街122号(石笋街新奉公路)"},{"poiid":"B2094654DB6FA0FB479C","title":"中国工商银行上海市新场支行","lon":"121.64692","lat":"31.02479","category":"150","category_name":"银行","address":"黄浦区牌楼东路19号近新场车站(东后老街新场大街)"},{"poiid":"B2094757D169A1F5439E","title":"FiSh @ HoMe","lon":"121.647229","lat":"31.023424","category":"500","category_name":"未知分类","address":"上海浦东新区新场镇"},{"poiid":"B2094654DB69A7F8439C","title":"中国建设银行新场支行","lon":"121.64639","lat":"31.02475","category":"150","category_name":"银行","address":"浦东新区新场镇新场大街345号"},{"poiid":"B2094654DB6AA3FF4499","title":"第八五医院新场分院制剂中心","lon":"121.6442","lat":"31.02302","category":"162","category_name":"医院","address":"南汇区新奉公路219号"},{"poiid":"B2094757D465A1FD499E","title":"清风人家 新场店 Chinfond Teahouse","lon":"121.64899543786","lat":"31.018652437952","category":"66","category_name":"茶艺馆","address":"新场大街424号近新环南路"},{"poiid":"B2094757D569A7FE499B","title":"农工商超市","lon":"121.6417296","lat":"31.02703071","category":"118","category_name":"超级市场","address":"中国上海市浦东新区"},{"poiid":"B2094654DB64AAF94193","title":"新艺影剧院","lon":"121.64469","lat":"31.02008","category":"178","category_name":"电影院","address":""},{"poiid":"B2094654DB6FA0FB4898","title":"新场派出所","lon":"121.64826","lat":"31.02037","category":"609","category_name":"警察局","address":"新场镇石笋街2号"},{"poiid":"B2094655D36DA2FC479B","title":"新场北桥","lon":"121.64334","lat":"31.02518","category":"250","category_name":"公园户外","address":""},{"poiid":"B2094757D16DA6FE4892","title":"新场镇石笋一村","lon":"121.64286088","lat":"31.023530508","category":"500","category_name":"未知分类","address":"上海市浦东新区新环西路"},{"poiid":"B2094654DB64A0F94098","title":"石笋小学","lon":"121.64445","lat":"31.02209","category":"56","category_name":"小学","address":""}]