[{"poiid":"B2094654D56FABF54198","title":"上海长海医院","lon":"121.5256","lat":"31.30936","category":"162","category_name":"医院","address":"上海杨浦区长海路168-174号(长海路)"},{"poiid":"B2094757D068A7F4469B","title":"长海医院住院部","lon":"121.527867794","lat":"31.3088527016","category":"162","category_name":"医院","address":"上海杨浦区长海路174号(中原路)"},{"poiid":"B2094757D16BABFC429D","title":"第二军医大学校园","lon":"121.5283081","lat":"31.309152232","category":"500","category_name":"未知分类","address":"上海市杨浦区长海路174号"},{"poiid":"B2094757D06EABF54493","title":"翔殷路地铁站","lon":"121.53197866","lat":"31.305146989","category":"36","category_name":"地铁站","address":"杨浦区翔殷路"},{"poiid":"B2094757D068A1FD4699","title":"第二军医大学附属东方肝胆外科医院","lon":"121.52937","lat":"31.30994","category":"162","category_name":"医院","address":"杨浦区长海路225号(近中原路)"},{"poiid":"B2094757D06FAAFD439B","title":"翔殷路","lon":"121.531976","lat":"31.30513","category":"260","category_name":"其他","address":"上海杨浦区翔殷路"},{"poiid":"B2094750D26DA2F84699","title":"五角场","lon":"121.5277200893403","lat":"31.30725801490106","category":"500","category_name":"未知分类","address":null},{"poiid":"B2094757D06FA4FD4393","title":"上海体育学院综合馆","lon":"121.52752","lat":"31.30951","category":"221","category_name":"健身中心","address":"杨浦区长海路345号上海体育学院内(近嫩江路)"},{"poiid":"B2094655D26AABF9449B","title":"上海锦雪苑酒店原上海第二军医大学锦雪苑酒店","lon":"121.53309","lat":"31.3051","category":"250","category_name":"公园户外","address":"翔殷路631号"},{"poiid":"B2094757D06FA5FF449B","title":"上海市科技管理学校","lon":"121.535282","lat":"31.310527","category":"260","category_name":"其他","address":"上海杨浦区民星路435号"},{"poiid":"B2094757D068A4F94099","title":"肯德基 KFC (长海店)","lon":"121.52692775","lat":"31.309974424","category":"68","category_name":"快餐厅","address":"杨浦区长海路361号(近嫩江路)"},{"poiid":"B2094757D068A0F94699","title":"有家川菜(民星路店)","lon":"121.534144","lat":"31.311687","category":"71","category_name":"四川菜","address":"杨浦区民星路560号(近中原路)"},{"poiid":"B2094757D068AAF4439E","title":"上海电视大学(中原分部)","lon":"121.53246","lat":"31.31066","category":"52","category_name":"高等院校","address":"杨浦区中原路42号(近民星路)"},{"poiid":"B2094757D069A0FD409A","title":"中原路民星路","lon":"121.532111","lat":"31.313224","category":"500","category_name":"未知分类","address":"上海中原路民星路"},{"poiid":"B2094757D06FAAF9489E","title":"肯德基 KFC (嫩江店)","lon":"121.532601","lat":"31.313729","category":"68","category_name":"快餐厅","address":"杨浦区中原路102号欧尚超市内(近嫩江路)"},{"poiid":"B2094757D069A3FD469E","title":"85度C(长海店)","lon":"121.5244098","lat":"31.3096843","category":"112","category_name":"糕饼店","address":"杨浦区长海路469号(近恒仁路)"},{"poiid":"B2094654D56FAAFC449D","title":"永和大王(长海路)","lon":"121.52509","lat":"31.30982","category":"68","category_name":"快餐厅","address":"杨浦区长海路399号(近长海医院)"},{"poiid":"B2094654D56FAAFE4498","title":"长海新村","lon":"121.53296","lat":"31.309042","category":"47","category_name":"住宅区","address":"上海市杨浦区中原路32弄"},{"poiid":"B2094757D068A0FB459E","title":"红宝石(长海路店)","lon":"121.52468","lat":"31.309458","category":"67","category_name":"甜品店","address":"杨浦区长海路268号(近长海医院)"},{"poiid":"B2094757D66FA1FC419B","title":"第二军医大学附属长海医院中医科","lon":"121.527223997","lat":"31.3081795348","category":"162","category_name":"医院","address":"上海长海医院4楼"},{"poiid":"B2094654D56FA7FE439A","title":"天工麻辣烫 中原路","lon":"121.53218","lat":"31.31378","category":"68","category_name":"快餐厅","address":"杨浦区中原路58号欧尚超市旁(近民星路)"},{"poiid":"B2094757D66BA6FF4292","title":"真功夫 长海路店","lon":"121.528162","lat":"31.309826","category":"68","category_name":"快餐厅","address":"杨浦区长海路长海医院门口"},{"poiid":"B2094654D56FAAFC499A","title":"长海一村","lon":"121.53006","lat":"31.311691","category":"47","category_name":"住宅区","address":"长海一村1-62号"},{"poiid":"B2094655D26FA2FB4392","title":"85度C 中原路店","lon":"121.532335054","lat":"31.314038793","category":"112","category_name":"糕饼店","address":"杨浦区中原路102号欧尚超市内(近嫩江路)"},{"poiid":"B2094757D16DA7FC4093","title":"第二军医大学长海医院临床教学中心","lon":"121.5320321","lat":"31.309430237","category":"162","category_name":"医院","address":"上海市杨浦区长海路"},{"poiid":"B2094757D064AAFF479F","title":"重庆鸡公煲(中原路店)","lon":"121.53243","lat":"31.31144","category":"71","category_name":"四川菜","address":"杨浦区中原路(近民星路)"},{"poiid":"B2094757D66BABFF4993","title":"蜀膳传火锅传奇 民星路店","lon":"121.534531","lat":"31.311895","category":"86","category_name":"火锅店","address":"杨浦区民星路560号(近中原路)"},{"poiid":"B2094757D16BA4F9469E","title":"长海医院药学部","lon":"121.5308281","lat":"31.308735223","category":"162","category_name":"医院","address":"上海市杨浦区长海路"},{"poiid":"B2094655D26AA0FA429B","title":"地铁翔殷路站","lon":"121.53197","lat":"31.30513","category":"36","category_name":"地铁站","address":""},{"poiid":"B2094655D36CA5F9459F","title":"地铁长海医院站","lon":"121.52765","lat":"31.30965","category":"38","category_name":"公交车站","address":""},{"poiid":"B2094654DB65A7FA4599","title":"上海东方肝胆医院","lon":"121.53343","lat":"31.30813","category":"162","category_name":"医院","address":"杨浦区长海路225号"},{"poiid":"B2094757D16BAAF4419B","title":"第二军医大学研究生楼","lon":"121.530468103","lat":"31.3087129229","category":"500","category_name":"未知分类","address":"上海长海路168"},{"poiid":"B2094757D06AABFD4893","title":"上海体育学院游泳馆","lon":"121.52718","lat":"31.30937","category":"253","category_name":"校园生活","address":"杨浦区长海路345号上海体育学院综合馆1楼(近嫩江路)"},{"poiid":"B2094654D56FAAFA4198","title":"浙西名菜府","lon":"121.53385","lat":"31.3052","category":"76","category_name":"上海菜","address":"杨浦区翔殷路577号海外宾馆内(沙岗路口)"},{"poiid":"B2094757D069AAF9409B","title":"伊加伊 中原店","lon":"121.532258054","lat":"31.311365793","category":"68","category_name":"快餐厅","address":"杨浦区中原路83号(近民星路)"},{"poiid":"B2094757D068A3FE459B","title":"全家便利(中原路店)","lon":"121.53207882","lat":"31.306752326","category":"117","category_name":"便民商店/便利店","address":"上海杨浦区中原路11号(近翔殷路)"},{"poiid":"B2094757D064A4FC499C","title":"一品尊爵台球馆","lon":"121.532545103","lat":"31.306472176","category":"171","category_name":"台球厅","address":"杨浦区中原路21号2楼(近翔殷路)"},{"poiid":"B2094757D16DA4F8429F","title":"长海医院六号楼14楼","lon":"121.5278621","lat":"31.308515218","category":"162","category_name":"医院","address":"上海长海路168号"},{"poiid":"B2094757D068ABF4429C","title":"民星二村","lon":"121.53406","lat":"31.31246","category":"47","category_name":"住宅区","address":"上海杨浦区"},{"poiid":"B2094750DA6AABF9469D","title":"上海虹橋機場","lon":"121.529098","lat":"31.309843","category":"500","category_name":"未知分类","address":null},{"poiid":"B2094753D26FA3FA479D","title":"长海医院","lon":"121.531996","lat":"31.311724","category":"162","category_name":"医院","address":"上海市 杨浦区长海路168号"},{"poiid":"B2094750D768A0F54793","title":"喜达石锅饭","lon":"121.525","lat":"31.3098","category":"96","category_name":"韩国料理","address":"杨浦区长海路437号(近长海医院)"},{"poiid":"B2094750D56FA7FB4098","title":"第二军医大学附属长海医院21号楼","lon":"121.530128","lat":"31.309183","category":"500","category_name":"未知分类","address":"长海路168号"},{"poiid":"B2094757D164ABF5489D","title":"第二军医大学食堂","lon":"121.5283251","lat":"31.30859822","category":"500","category_name":"未知分类","address":"上海市杨浦区"},{"poiid":"B2094655D26AAAF8409B","title":"锦雪苑大酒店风味餐厅","lon":"121.53309","lat":"31.3051","category":"71","category_name":"四川菜","address":"杨浦区翔殷路631号(近地铁翔殷路站)"},{"poiid":"B2094655D26FA6FF429F","title":"中原路99弄小区","lon":"121.53087","lat":"31.3136","category":"47","category_name":"住宅区","address":""},{"poiid":"B2094655D268ABFD499F","title":"新翔公寓","lon":"121.53252","lat":"31.305626","category":"46","category_name":"楼宇","address":"杨浦区翔殷路578弄"},{"poiid":"B2094655D36DA7F9439E","title":"中原路嫩江路","lon":"121.53201","lat":"31.31223","category":"38","category_name":"公交车站","address":""},{"poiid":"B2094752D268A7FE4192","title":"豆捞坊","lon":"121.53115","lat":"31.311854","category":"500","category_name":"未知分类","address":"五角场万达广场"},{"poiid":"B2094757D16DA5FA429E","title":"二军大聚贤阁","lon":"121.525574103","lat":"31.3066491797","category":"247","category_name":"餐饮美食","address":"上海青山路2号"},{"poiid":"B2094654D56FABF54198","title":"上海长海医院","lon":"121.5256","lat":"31.30936","category":"162","category_name":"医院","address":"上海杨浦区长海路168-174号(长海路)"},{"poiid":"B2094757D068A7F4469B","title":"长海医院住院部","lon":"121.527867794","lat":"31.3088527016","category":"162","category_name":"医院","address":"上海杨浦区长海路174号(中原路)"},{"poiid":"B2094757D16BABFC429D","title":"第二军医大学校园","lon":"121.5283081","lat":"31.309152232","category":"500","category_name":"未知分类","address":"上海市杨浦区长海路174号"},{"poiid":"B2094757D06EABF54493","title":"翔殷路地铁站","lon":"121.53197866","lat":"31.305146989","category":"36","category_name":"地铁站","address":"杨浦区翔殷路"},{"poiid":"B2094757D068A1FD4699","title":"第二军医大学附属东方肝胆外科医院","lon":"121.52937","lat":"31.30994","category":"162","category_name":"医院","address":"杨浦区长海路225号(近中原路)"},{"poiid":"B2094757D06FAAFD439B","title":"翔殷路","lon":"121.531976","lat":"31.30513","category":"260","category_name":"其他","address":"上海杨浦区翔殷路"},{"poiid":"B2094750D26DA2F84699","title":"五角场","lon":"121.5277200893403","lat":"31.30725801490106","category":"500","category_name":"未知分类","address":null},{"poiid":"B2094757D06FA4FD4393","title":"上海体育学院综合馆","lon":"121.52752","lat":"31.30951","category":"221","category_name":"健身中心","address":"杨浦区长海路345号上海体育学院内(近嫩江路)"},{"poiid":"B2094655D26AABF9449B","title":"上海锦雪苑酒店原上海第二军医大学锦雪苑酒店","lon":"121.53309","lat":"31.3051","category":"250","category_name":"公园户外","address":"翔殷路631号"},{"poiid":"B2094757D06FA5FF449B","title":"上海市科技管理学校","lon":"121.535282","lat":"31.310527","category":"260","category_name":"其他","address":"上海杨浦区民星路435号"},{"poiid":"B2094757D068A4F94099","title":"肯德基 KFC (长海店)","lon":"121.52692775","lat":"31.309974424","category":"68","category_name":"快餐厅","address":"杨浦区长海路361号(近嫩江路)"},{"poiid":"B2094757D068A0F94699","title":"有家川菜(民星路店)","lon":"121.534144","lat":"31.311687","category":"71","category_name":"四川菜","address":"杨浦区民星路560号(近中原路)"},{"poiid":"B2094757D068AAF4439E","title":"上海电视大学(中原分部)","lon":"121.53246","lat":"31.31066","category":"52","category_name":"高等院校","address":"杨浦区中原路42号(近民星路)"},{"poiid":"B2094757D069A0FD409A","title":"中原路民星路","lon":"121.532111","lat":"31.313224","category":"500","category_name":"未知分类","address":"上海中原路民星路"},{"poiid":"B2094757D06FAAF9489E","title":"肯德基 KFC (嫩江店)","lon":"121.532601","lat":"31.313729","category":"68","category_name":"快餐厅","address":"杨浦区中原路102号欧尚超市内(近嫩江路)"},{"poiid":"B2094757D069A3FD469E","title":"85度C(长海店)","lon":"121.5244098","lat":"31.3096843","category":"112","category_name":"糕饼店","address":"杨浦区长海路469号(近恒仁路)"},{"poiid":"B2094654D56FAAFC449D","title":"永和大王(长海路)","lon":"121.52509","lat":"31.30982","category":"68","category_name":"快餐厅","address":"杨浦区长海路399号(近长海医院)"},{"poiid":"B2094654D56FAAFE4498","title":"长海新村","lon":"121.53296","lat":"31.309042","category":"47","category_name":"住宅区","address":"上海市杨浦区中原路32弄"},{"poiid":"B2094757D068A0FB459E","title":"红宝石(长海路店)","lon":"121.52468","lat":"31.309458","category":"67","category_name":"甜品店","address":"杨浦区长海路268号(近长海医院)"},{"poiid":"B2094757D66FA1FC419B","title":"第二军医大学附属长海医院中医科","lon":"121.527223997","lat":"31.3081795348","category":"162","category_name":"医院","address":"上海长海医院4楼"},{"poiid":"B2094654D56FA7FE439A","title":"天工麻辣烫 中原路","lon":"121.53218","lat":"31.31378","category":"68","category_name":"快餐厅","address":"杨浦区中原路58号欧尚超市旁(近民星路)"},{"poiid":"B2094757D66BA6FF4292","title":"真功夫 长海路店","lon":"121.528162","lat":"31.309826","category":"68","category_name":"快餐厅","address":"杨浦区长海路长海医院门口"},{"poiid":"B2094654D56FAAFC499A","title":"长海一村","lon":"121.53006","lat":"31.311691","category":"47","category_name":"住宅区","address":"长海一村1-62号"},{"poiid":"B2094655D26FA2FB4392","title":"85度C 中原路店","lon":"121.532335054","lat":"31.314038793","category":"112","category_name":"糕饼店","address":"杨浦区中原路102号欧尚超市内(近嫩江路)"},{"poiid":"B2094757D16DA7FC4093","title":"第二军医大学长海医院临床教学中心","lon":"121.5320321","lat":"31.309430237","category":"162","category_name":"医院","address":"上海市杨浦区长海路"},{"poiid":"B2094757D064AAFF479F","title":"重庆鸡公煲(中原路店)","lon":"121.53243","lat":"31.31144","category":"71","category_name":"四川菜","address":"杨浦区中原路(近民星路)"},{"poiid":"B2094757D66BABFF4993","title":"蜀膳传火锅传奇 民星路店","lon":"121.534531","lat":"31.311895","category":"86","category_name":"火锅店","address":"杨浦区民星路560号(近中原路)"},{"poiid":"B2094757D16BA4F9469E","title":"长海医院药学部","lon":"121.5308281","lat":"31.308735223","category":"162","category_name":"医院","address":"上海市杨浦区长海路"},{"poiid":"B2094655D26AA0FA429B","title":"地铁翔殷路站","lon":"121.53197","lat":"31.30513","category":"36","category_name":"地铁站","address":""},{"poiid":"B2094655D36CA5F9459F","title":"地铁长海医院站","lon":"121.52765","lat":"31.30965","category":"38","category_name":"公交车站","address":""},{"poiid":"B2094654DB65A7FA4599","title":"上海东方肝胆医院","lon":"121.53343","lat":"31.30813","category":"162","category_name":"医院","address":"杨浦区长海路225号"},{"poiid":"B2094757D16BAAF4419B","title":"第二军医大学研究生楼","lon":"121.530468103","lat":"31.3087129229","category":"500","category_name":"未知分类","address":"上海长海路168"},{"poiid":"B2094757D06AABFD4893","title":"上海体育学院游泳馆","lon":"121.52718","lat":"31.30937","category":"253","category_name":"校园生活","address":"杨浦区长海路345号上海体育学院综合馆1楼(近嫩江路)"},{"poiid":"B2094654D56FAAFA4198","title":"浙西名菜府","lon":"121.53385","lat":"31.3052","category":"76","category_name":"上海菜","address":"杨浦区翔殷路577号海外宾馆内(沙岗路口)"},{"poiid":"B2094757D069AAF9409B","title":"伊加伊 中原店","lon":"121.532258054","lat":"31.311365793","category":"68","category_name":"快餐厅","address":"杨浦区中原路83号(近民星路)"},{"poiid":"B2094757D068A3FE459B","title":"全家便利(中原路店)","lon":"121.53207882","lat":"31.306752326","category":"117","category_name":"便民商店/便利店","address":"上海杨浦区中原路11号(近翔殷路)"},{"poiid":"B2094757D064A4FC499C","title":"一品尊爵台球馆","lon":"121.532545103","lat":"31.306472176","category":"171","category_name":"台球厅","address":"杨浦区中原路21号2楼(近翔殷路)"},{"poiid":"B2094757D16DA4F8429F","title":"长海医院六号楼14楼","lon":"121.5278621","lat":"31.308515218","category":"162","category_name":"医院","address":"上海长海路168号"},{"poiid":"B2094757D068ABF4429C","title":"民星二村","lon":"121.53406","lat":"31.31246","category":"47","category_name":"住宅区","address":"上海杨浦区"},{"poiid":"B2094750DA6AABF9469D","title":"上海虹橋機場","lon":"121.529098","lat":"31.309843","category":"500","category_name":"未知分类","address":null},{"poiid":"B2094753D26FA3FA479D","title":"长海医院","lon":"121.531996","lat":"31.311724","category":"162","category_name":"医院","address":"上海市 杨浦区长海路168号"},{"poiid":"B2094750D768A0F54793","title":"喜达石锅饭","lon":"121.525","lat":"31.3098","category":"96","category_name":"韩国料理","address":"杨浦区长海路437号(近长海医院)"},{"poiid":"B2094750D56FA7FB4098","title":"第二军医大学附属长海医院21号楼","lon":"121.530128","lat":"31.309183","category":"500","category_name":"未知分类","address":"长海路168号"},{"poiid":"B2094757D164ABF5489D","title":"第二军医大学食堂","lon":"121.5283251","lat":"31.30859822","category":"500","category_name":"未知分类","address":"上海市杨浦区"},{"poiid":"B2094655D26AAAF8409B","title":"锦雪苑大酒店风味餐厅","lon":"121.53309","lat":"31.3051","category":"71","category_name":"四川菜","address":"杨浦区翔殷路631号(近地铁翔殷路站)"},{"poiid":"B2094655D26FA6FF429F","title":"中原路99弄小区","lon":"121.53087","lat":"31.3136","category":"47","category_name":"住宅区","address":""},{"poiid":"B2094655D268ABFD499F","title":"新翔公寓","lon":"121.53252","lat":"31.305626","category":"46","category_name":"楼宇","address":"杨浦区翔殷路578弄"},{"poiid":"B2094655D36DA7F9439E","title":"中原路嫩江路","lon":"121.53201","lat":"31.31223","category":"38","category_name":"公交车站","address":""},{"poiid":"B2094752D268A7FE4192","title":"豆捞坊","lon":"121.53115","lat":"31.311854","category":"500","category_name":"未知分类","address":"五角场万达广场"},{"poiid":"B2094757D16DA5FA429E","title":"二军大聚贤阁","lon":"121.525574103","lat":"31.3066491797","category":"247","category_name":"餐饮美食","address":"上海青山路2号"},{"poiid":"B2094654D56FABF54198","title":"上海长海医院","lon":"121.5256","lat":"31.30936","category":"162","category_name":"医院","address":"上海杨浦区长海路168-174号(长海路)"},{"poiid":"B2094757D068A7F4469B","title":"长海医院住院部","lon":"121.527867794","lat":"31.3088527016","category":"162","category_name":"医院","address":"上海杨浦区长海路174号(中原路)"},{"poiid":"B2094757D16BABFC429D","title":"第二军医大学校园","lon":"121.5283081","lat":"31.309152232","category":"500","category_name":"未知分类","address":"上海市杨浦区长海路174号"},{"poiid":"B2094757D06EABF54493","title":"翔殷路地铁站","lon":"121.53197866","lat":"31.305146989","category":"36","category_name":"地铁站","address":"杨浦区翔殷路"},{"poiid":"B2094757D068A1FD4699","title":"第二军医大学附属东方肝胆外科医院","lon":"121.52937","lat":"31.30994","category":"162","category_name":"医院","address":"杨浦区长海路225号(近中原路)"},{"poiid":"B2094757D06FAAFD439B","title":"翔殷路","lon":"121.531976","lat":"31.30513","category":"260","category_name":"其他","address":"上海杨浦区翔殷路"},{"poiid":"B2094750D26DA2F84699","title":"五角场","lon":"121.5277200893403","lat":"31.30725801490106","category":"500","category_name":"未知分类","address":null},{"poiid":"B2094757D06FA4FD4393","title":"上海体育学院综合馆","lon":"121.52752","lat":"31.30951","category":"221","category_name":"健身中心","address":"杨浦区长海路345号上海体育学院内(近嫩江路)"},{"poiid":"B2094655D26AABF9449B","title":"上海锦雪苑酒店原上海第二军医大学锦雪苑酒店","lon":"121.53309","lat":"31.3051","category":"250","category_name":"公园户外","address":"翔殷路631号"},{"poiid":"B2094757D06FA5FF449B","title":"上海市科技管理学校","lon":"121.535282","lat":"31.310527","category":"260","category_name":"其他","address":"上海杨浦区民星路435号"},{"poiid":"B2094757D068A4F94099","title":"肯德基 KFC (长海店)","lon":"121.52692775","lat":"31.309974424","category":"68","category_name":"快餐厅","address":"杨浦区长海路361号(近嫩江路)"},{"poiid":"B2094757D068A0F94699","title":"有家川菜(民星路店)","lon":"121.534144","lat":"31.311687","category":"71","category_name":"四川菜","address":"杨浦区民星路560号(近中原路)"},{"poiid":"B2094757D068AAF4439E","title":"上海电视大学(中原分部)","lon":"121.53246","lat":"31.31066","category":"52","category_name":"高等院校","address":"杨浦区中原路42号(近民星路)"},{"poiid":"B2094757D069A0FD409A","title":"中原路民星路","lon":"121.532111","lat":"31.313224","category":"500","category_name":"未知分类","address":"上海中原路民星路"},{"poiid":"B2094757D06FAAF9489E","title":"肯德基 KFC (嫩江店)","lon":"121.532601","lat":"31.313729","category":"68","category_name":"快餐厅","address":"杨浦区中原路102号欧尚超市内(近嫩江路)"},{"poiid":"B2094757D069A3FD469E","title":"85度C(长海店)","lon":"121.5244098","lat":"31.3096843","category":"112","category_name":"糕饼店","address":"杨浦区长海路469号(近恒仁路)"},{"poiid":"B2094654D56FAAFC449D","title":"永和大王(长海路)","lon":"121.52509","lat":"31.30982","category":"68","category_name":"快餐厅","address":"杨浦区长海路399号(近长海医院)"},{"poiid":"B2094654D56FAAFE4498","title":"长海新村","lon":"121.53296","lat":"31.309042","category":"47","category_name":"住宅区","address":"上海市杨浦区中原路32弄"},{"poiid":"B2094757D068A0FB459E","title":"红宝石(长海路店)","lon":"121.52468","lat":"31.309458","category":"67","category_name":"甜品店","address":"杨浦区长海路268号(近长海医院)"},{"poiid":"B2094757D66FA1FC419B","title":"第二军医大学附属长海医院中医科","lon":"121.527223997","lat":"31.3081795348","category":"162","category_name":"医院","address":"上海长海医院4楼"},{"poiid":"B2094654D56FA7FE439A","title":"天工麻辣烫 中原路","lon":"121.53218","lat":"31.31378","category":"68","category_name":"快餐厅","address":"杨浦区中原路58号欧尚超市旁(近民星路)"},{"poiid":"B2094757D66BA6FF4292","title":"真功夫 长海路店","lon":"121.528162","lat":"31.309826","category":"68","category_name":"快餐厅","address":"杨浦区长海路长海医院门口"},{"poiid":"B2094654D56FAAFC499A","title":"长海一村","lon":"121.53006","lat":"31.311691","category":"47","category_name":"住宅区","address":"长海一村1-62号"},{"poiid":"B2094655D26FA2FB4392","title":"85度C 中原路店","lon":"121.532335054","lat":"31.314038793","category":"112","category_name":"糕饼店","address":"杨浦区中原路102号欧尚超市内(近嫩江路)"},{"poiid":"B2094757D16DA7FC4093","title":"第二军医大学长海医院临床教学中心","lon":"121.5320321","lat":"31.309430237","category":"162","category_name":"医院","address":"上海市杨浦区长海路"},{"poiid":"B2094757D064AAFF479F","title":"重庆鸡公煲(中原路店)","lon":"121.53243","lat":"31.31144","category":"71","category_name":"四川菜","address":"杨浦区中原路(近民星路)"},{"poiid":"B2094757D66BABFF4993","title":"蜀膳传火锅传奇 民星路店","lon":"121.534531","lat":"31.311895","category":"86","category_name":"火锅店","address":"杨浦区民星路560号(近中原路)"},{"poiid":"B2094757D16BA4F9469E","title":"长海医院药学部","lon":"121.5308281","lat":"31.308735223","category":"162","category_name":"医院","address":"上海市杨浦区长海路"},{"poiid":"B2094655D26AA0FA429B","title":"地铁翔殷路站","lon":"121.53197","lat":"31.30513","category":"36","category_name":"地铁站","address":""},{"poiid":"B2094655D36CA5F9459F","title":"地铁长海医院站","lon":"121.52765","lat":"31.30965","category":"38","category_name":"公交车站","address":""},{"poiid":"B2094654DB65A7FA4599","title":"上海东方肝胆医院","lon":"121.53343","lat":"31.30813","category":"162","category_name":"医院","address":"杨浦区长海路225号"},{"poiid":"B2094757D16BAAF4419B","title":"第二军医大学研究生楼","lon":"121.530468103","lat":"31.3087129229","category":"500","category_name":"未知分类","address":"上海长海路168"},{"poiid":"B2094757D06AABFD4893","title":"上海体育学院游泳馆","lon":"121.52718","lat":"31.30937","category":"253","category_name":"校园生活","address":"杨浦区长海路345号上海体育学院综合馆1楼(近嫩江路)"},{"poiid":"B2094654D56FAAFA4198","title":"浙西名菜府","lon":"121.53385","lat":"31.3052","category":"76","category_name":"上海菜","address":"杨浦区翔殷路577号海外宾馆内(沙岗路口)"},{"poiid":"B2094757D069AAF9409B","title":"伊加伊 中原店","lon":"121.532258054","lat":"31.311365793","category":"68","category_name":"快餐厅","address":"杨浦区中原路83号(近民星路)"},{"poiid":"B2094757D068A3FE459B","title":"全家便利(中原路店)","lon":"121.53207882","lat":"31.306752326","category":"117","category_name":"便民商店/便利店","address":"上海杨浦区中原路11号(近翔殷路)"},{"poiid":"B2094757D064A4FC499C","title":"一品尊爵台球馆","lon":"121.532545103","lat":"31.306472176","category":"171","category_name":"台球厅","address":"杨浦区中原路21号2楼(近翔殷路)"},{"poiid":"B2094757D16DA4F8429F","title":"长海医院六号楼14楼","lon":"121.5278621","lat":"31.308515218","category":"162","category_name":"医院","address":"上海长海路168号"},{"poiid":"B2094757D068ABF4429C","title":"民星二村","lon":"121.53406","lat":"31.31246","category":"47","category_name":"住宅区","address":"上海杨浦区"},{"poiid":"B2094750DA6AABF9469D","title":"上海虹橋機場","lon":"121.529098","lat":"31.309843","category":"500","category_name":"未知分类","address":null},{"poiid":"B2094753D26FA3FA479D","title":"长海医院","lon":"121.531996","lat":"31.311724","category":"162","category_name":"医院","address":"上海市 杨浦区长海路168号"},{"poiid":"B2094750D768A0F54793","title":"喜达石锅饭","lon":"121.525","lat":"31.3098","category":"96","category_name":"韩国料理","address":"杨浦区长海路437号(近长海医院)"},{"poiid":"B2094750D56FA7FB4098","title":"第二军医大学附属长海医院21号楼","lon":"121.530128","lat":"31.309183","category":"500","category_name":"未知分类","address":"长海路168号"},{"poiid":"B2094757D164ABF5489D","title":"第二军医大学食堂","lon":"121.5283251","lat":"31.30859822","category":"500","category_name":"未知分类","address":"上海市杨浦区"},{"poiid":"B2094655D26AAAF8409B","title":"锦雪苑大酒店风味餐厅","lon":"121.53309","lat":"31.3051","category":"71","category_name":"四川菜","address":"杨浦区翔殷路631号(近地铁翔殷路站)"},{"poiid":"B2094655D26FA6FF429F","title":"中原路99弄小区","lon":"121.53087","lat":"31.3136","category":"47","category_name":"住宅区","address":""},{"poiid":"B2094655D268ABFD499F","title":"新翔公寓","lon":"121.53252","lat":"31.305626","category":"46","category_name":"楼宇","address":"杨浦区翔殷路578弄"},{"poiid":"B2094655D36DA7F9439E","title":"中原路嫩江路","lon":"121.53201","lat":"31.31223","category":"38","category_name":"公交车站","address":""},{"poiid":"B2094752D268A7FE4192","title":"豆捞坊","lon":"121.53115","lat":"31.311854","category":"500","category_name":"未知分类","address":"五角场万达广场"},{"poiid":"B2094757D16DA5FA429E","title":"二军大聚贤阁","lon":"121.525574103","lat":"31.3066491797","category":"247","category_name":"餐饮美食","address":"上海青山路2号"},{"poiid":"B2094654D56FABF54198","title":"上海长海医院","lon":"121.5256","lat":"31.30936","category":"162","category_name":"医院","address":"上海杨浦区长海路168-174号(长海路)"},{"poiid":"B2094757D068A7F4469B","title":"长海医院住院部","lon":"121.527867794","lat":"31.3088527016","category":"162","category_name":"医院","address":"上海杨浦区长海路174号(中原路)"},{"poiid":"B2094757D16BABFC429D","title":"第二军医大学校园","lon":"121.5283081","lat":"31.309152232","category":"500","category_name":"未知分类","address":"上海市杨浦区长海路174号"},{"poiid":"B2094757D06EABF54493","title":"翔殷路地铁站","lon":"121.53197866","lat":"31.305146989","category":"36","category_name":"地铁站","address":"杨浦区翔殷路"},{"poiid":"B2094757D068A1FD4699","title":"第二军医大学附属东方肝胆外科医院","lon":"121.52937","lat":"31.30994","category":"162","category_name":"医院","address":"杨浦区长海路225号(近中原路)"},{"poiid":"B2094757D06FAAFD439B","title":"翔殷路","lon":"121.531976","lat":"31.30513","category":"260","category_name":"其他","address":"上海杨浦区翔殷路"},{"poiid":"B2094750D26DA2F84699","title":"五角场","lon":"121.5277200893403","lat":"31.30725801490106","category":"500","category_name":"未知分类","address":null},{"poiid":"B2094757D06FA4FD4393","title":"上海体育学院综合馆","lon":"121.52752","lat":"31.30951","category":"221","category_name":"健身中心","address":"杨浦区长海路345号上海体育学院内(近嫩江路)"},{"poiid":"B2094655D26AABF9449B","title":"上海锦雪苑酒店原上海第二军医大学锦雪苑酒店","lon":"121.53309","lat":"31.3051","category":"250","category_name":"公园户外","address":"翔殷路631号"},{"poiid":"B2094757D06FA5FF449B","title":"上海市科技管理学校","lon":"121.535282","lat":"31.310527","category":"260","category_name":"其他","address":"上海杨浦区民星路435号"},{"poiid":"B2094757D068A4F94099","title":"肯德基 KFC (长海店)","lon":"121.52692775","lat":"31.309974424","category":"68","category_name":"快餐厅","address":"杨浦区长海路361号(近嫩江路)"},{"poiid":"B2094757D068A0F94699","title":"有家川菜(民星路店)","lon":"121.534144","lat":"31.311687","category":"71","category_name":"四川菜","address":"杨浦区民星路560号(近中原路)"},{"poiid":"B2094757D068AAF4439E","title":"上海电视大学(中原分部)","lon":"121.53246","lat":"31.31066","category":"52","category_name":"高等院校","address":"杨浦区中原路42号(近民星路)"},{"poiid":"B2094757D069A0FD409A","title":"中原路民星路","lon":"121.532111","lat":"31.313224","category":"500","category_name":"未知分类","address":"上海中原路民星路"},{"poiid":"B2094757D06FAAF9489E","title":"肯德基 KFC (嫩江店)","lon":"121.532601","lat":"31.313729","category":"68","category_name":"快餐厅","address":"杨浦区中原路102号欧尚超市内(近嫩江路)"},{"poiid":"B2094757D069A3FD469E","title":"85度C(长海店)","lon":"121.5244098","lat":"31.3096843","category":"112","category_name":"糕饼店","address":"杨浦区长海路469号(近恒仁路)"},{"poiid":"B2094654D56FAAFC449D","title":"永和大王(长海路)","lon":"121.52509","lat":"31.30982","category":"68","category_name":"快餐厅","address":"杨浦区长海路399号(近长海医院)"},{"poiid":"B2094654D56FAAFE4498","title":"长海新村","lon":"121.53296","lat":"31.309042","category":"47","category_name":"住宅区","address":"上海市杨浦区中原路32弄"},{"poiid":"B2094757D068A0FB459E","title":"红宝石(长海路店)","lon":"121.52468","lat":"31.309458","category":"67","category_name":"甜品店","address":"杨浦区长海路268号(近长海医院)"},{"poiid":"B2094757D66FA1FC419B","title":"第二军医大学附属长海医院中医科","lon":"121.527223997","lat":"31.3081795348","category":"162","category_name":"医院","address":"上海长海医院4楼"},{"poiid":"B2094654D56FA7FE439A","title":"天工麻辣烫 中原路","lon":"121.53218","lat":"31.31378","category":"68","category_name":"快餐厅","address":"杨浦区中原路58号欧尚超市旁(近民星路)"},{"poiid":"B2094757D66BA6FF4292","title":"真功夫 长海路店","lon":"121.528162","lat":"31.309826","category":"68","category_name":"快餐厅","address":"杨浦区长海路长海医院门口"},{"poiid":"B2094654D56FAAFC499A","title":"长海一村","lon":"121.53006","lat":"31.311691","category":"47","category_name":"住宅区","address":"长海一村1-62号"},{"poiid":"B2094655D26FA2FB4392","title":"85度C 中原路店","lon":"121.532335054","lat":"31.314038793","category":"112","category_name":"糕饼店","address":"杨浦区中原路102号欧尚超市内(近嫩江路)"},{"poiid":"B2094757D16DA7FC4093","title":"第二军医大学长海医院临床教学中心","lon":"121.5320321","lat":"31.309430237","category":"162","category_name":"医院","address":"上海市杨浦区长海路"},{"poiid":"B2094757D064AAFF479F","title":"重庆鸡公煲(中原路店)","lon":"121.53243","lat":"31.31144","category":"71","category_name":"四川菜","address":"杨浦区中原路(近民星路)"},{"poiid":"B2094757D66BABFF4993","title":"蜀膳传火锅传奇 民星路店","lon":"121.534531","lat":"31.311895","category":"86","category_name":"火锅店","address":"杨浦区民星路560号(近中原路)"},{"poiid":"B2094757D16BA4F9469E","title":"长海医院药学部","lon":"121.5308281","lat":"31.308735223","category":"162","category_name":"医院","address":"上海市杨浦区长海路"},{"poiid":"B2094655D26AA0FA429B","title":"地铁翔殷路站","lon":"121.53197","lat":"31.30513","category":"36","category_name":"地铁站","address":""},{"poiid":"B2094655D36CA5F9459F","title":"地铁长海医院站","lon":"121.52765","lat":"31.30965","category":"38","category_name":"公交车站","address":""},{"poiid":"B2094654DB65A7FA4599","title":"上海东方肝胆医院","lon":"121.53343","lat":"31.30813","category":"162","category_name":"医院","address":"杨浦区长海路225号"},{"poiid":"B2094757D16BAAF4419B","title":"第二军医大学研究生楼","lon":"121.530468103","lat":"31.3087129229","category":"500","category_name":"未知分类","address":"上海长海路168"},{"poiid":"B2094757D06AABFD4893","title":"上海体育学院游泳馆","lon":"121.52718","lat":"31.30937","category":"253","category_name":"校园生活","address":"杨浦区长海路345号上海体育学院综合馆1楼(近嫩江路)"},{"poiid":"B2094654D56FAAFA4198","title":"浙西名菜府","lon":"121.53385","lat":"31.3052","category":"76","category_name":"上海菜","address":"杨浦区翔殷路577号海外宾馆内(沙岗路口)"},{"poiid":"B2094757D069AAF9409B","title":"伊加伊 中原店","lon":"121.532258054","lat":"31.311365793","category":"68","category_name":"快餐厅","address":"杨浦区中原路83号(近民星路)"},{"poiid":"B2094757D068A3FE459B","title":"全家便利(中原路店)","lon":"121.53207882","lat":"31.306752326","category":"117","category_name":"便民商店/便利店","address":"上海杨浦区中原路11号(近翔殷路)"},{"poiid":"B2094757D064A4FC499C","title":"一品尊爵台球馆","lon":"121.532545103","lat":"31.306472176","category":"171","category_name":"台球厅","address":"杨浦区中原路21号2楼(近翔殷路)"},{"poiid":"B2094757D16DA4F8429F","title":"长海医院六号楼14楼","lon":"121.5278621","lat":"31.308515218","category":"162","category_name":"医院","address":"上海长海路168号"},{"poiid":"B2094757D068ABF4429C","title":"民星二村","lon":"121.53406","lat":"31.31246","category":"47","category_name":"住宅区","address":"上海杨浦区"},{"poiid":"B2094750DA6AABF9469D","title":"上海虹橋機場","lon":"121.529098","lat":"31.309843","category":"500","category_name":"未知分类","address":null},{"poiid":"B2094753D26FA3FA479D","title":"长海医院","lon":"121.531996","lat":"31.311724","category":"162","category_name":"医院","address":"上海市 杨浦区长海路168号"},{"poiid":"B2094750D768A0F54793","title":"喜达石锅饭","lon":"121.525","lat":"31.3098","category":"96","category_name":"韩国料理","address":"杨浦区长海路437号(近长海医院)"},{"poiid":"B2094750D56FA7FB4098","title":"第二军医大学附属长海医院21号楼","lon":"121.530128","lat":"31.309183","category":"500","category_name":"未知分类","address":"长海路168号"},{"poiid":"B2094757D164ABF5489D","title":"第二军医大学食堂","lon":"121.5283251","lat":"31.30859822","category":"500","category_name":"未知分类","address":"上海市杨浦区"},{"poiid":"B2094655D26AAAF8409B","title":"锦雪苑大酒店风味餐厅","lon":"121.53309","lat":"31.3051","category":"71","category_name":"四川菜","address":"杨浦区翔殷路631号(近地铁翔殷路站)"},{"poiid":"B2094655D26FA6FF429F","title":"中原路99弄小区","lon":"121.53087","lat":"31.3136","category":"47","category_name":"住宅区","address":""},{"poiid":"B2094655D268ABFD499F","title":"新翔公寓","lon":"121.53252","lat":"31.305626","category":"46","category_name":"楼宇","address":"杨浦区翔殷路578弄"},{"poiid":"B2094655D36DA7F9439E","title":"中原路嫩江路","lon":"121.53201","lat":"31.31223","category":"38","category_name":"公交车站","address":""},{"poiid":"B2094752D268A7FE4192","title":"豆捞坊","lon":"121.53115","lat":"31.311854","category":"500","category_name":"未知分类","address":"五角场万达广场"},{"poiid":"B2094757D16DA5FA429E","title":"二军大聚贤阁","lon":"121.525574103","lat":"31.3066491797","category":"247","category_name":"餐饮美食","address":"上海青山路2号"}]