[{"poiid":"B2094757D06FA3FF499A","title":"中国平安","lon":"121.67144775","lat":"31.234863281","category":"500","category_name":"未知分类","address":"浦东新区上丰路1288号中国平安3号门"},{"poiid":"B2094757D064A4FD489F","title":"兴业银行","lon":"121.66909638","lat":"31.247178922","category":"150","category_name":"银行","address":"上海来安路500号"},{"poiid":"B2094757D06BA7FE489E","title":"金领国际","lon":"121.680493","lat":"31.253423","category":"252","category_name":"楼宇机构","address":"浦东新区川沙路1666号"},{"poiid":"B2094757D064AAFC499C","title":"平安银行总部","lon":"121.66731908","lat":"31.236925229","category":"500","category_name":"未知分类","address":"上海浦东新区上丰路1158号"},{"poiid":"B2094757D66EA1F8459A","title":"招商银行信用卡中心","lon":"121.67261178","lat":"31.247633065","category":"150","category_name":"银行","address":"上海华东路来安路"},{"poiid":"B2094757DA64A3FF4192","title":"恒生商业广场","lon":"121.680043","lat":"31.241123","category":"252","category_name":"楼宇机构","address":"浦东新区上丰路(近金枫公园)"},{"poiid":"B2094757D06AA3F5459D","title":"交通银行总行培训中心","lon":"121.6644523","lat":"31.240514098","category":"253","category_name":"校园生活","address":"上海浦东新区上丰路1211号"},{"poiid":"B2094655D36CA6F54999","title":"大湾","lon":"121.68476","lat":"31.24371","category":"38","category_name":"公交车站","address":""},{"poiid":"B2094654DA6BA1FF4492","title":"同景苑","lon":"121.67756","lat":"31.24457","category":"47","category_name":"住宅区","address":"上海云雅路400弄"},{"poiid":"B2094757D165A6FE4693","title":"中国银联园区","lon":"121.66524308","lat":"31.233610156","category":"500","category_name":"未知分类","address":"上海市浦东新区顾唐路1699号"},{"poiid":"B2094757D16CA1FF419E","title":"龚路","lon":"121.684123","lat":"31.261737","category":"500","category_name":"未知分类","address":"上海市浦东新区川沙路816号(金海路口)"},{"poiid":"B2094654DA6BA1F9439F","title":"中国平安(上丰路)","lon":"121.66452","lat":"31.23766","category":"219","category_name":"其他","address":"上丰路1158号2号门"},{"poiid":"B2094654DA6AAAFE4798","title":"鑫港苑","lon":"121.68105","lat":"31.241295","category":"47","category_name":"住宅区","address":"上海浦东新区虹盛路250弄"},{"poiid":"B2094757D06FA5FD449A","title":"交通银行总行软件开发中心","lon":"121.66390435","lat":"31.23853439","category":"500","category_name":"未知分类","address":"上海上丰路1111号"},{"poiid":"B2094757D16EA4F9479D","title":"上海期货交易所","lon":"121.679198747","lat":"31.2485499627","category":"263","category_name":"公司","address":"上海来安路996号"},{"poiid":"B2094654DA6AAAFE489C","title":"金盛佳苑","lon":"121.68645","lat":"31.242142","category":"47","category_name":"住宅区","address":"胜利路30弄"},{"poiid":"B2094757D064A6FB469D","title":"同馨苑","lon":"121.684","lat":"31.2496","category":"252","category_name":"楼宇机构","address":"云雅路337号等单号"},{"poiid":"B2094757D068ABF4469B","title":"中国银联培训中心","lon":"121.663736","lat":"31.231019","category":"46","category_name":"楼宇","address":"上海顾唐路 龙东大道"},{"poiid":"B2094757D06BA7F4439F","title":"中国太平共享服务中心","lon":"121.67594917","lat":"31.232002288","category":"500","category_name":"未知分类","address":"上海张江卡园三路"},{"poiid":"B2094750DB65A2F5429E","title":"肯德基(恒生广场店)","lon":"121.680969","lat":"31.239988","category":"68","category_name":"快餐厅","address":"浦东新区上丰路1772-1784号1楼恒生商业广场内(近王港路)"},{"poiid":"B2094757D06AA1F8419C","title":"中国银行信息中心","lon":"121.665528295","lat":"31.2408610664","category":"500","category_name":"未知分类","address":"上海卡园一路88号"},{"poiid":"B2094654DA6AAAFE479B","title":"金枫公寓","lon":"121.68266","lat":"31.238955","category":"47","category_name":"住宅区","address":"虹盛东路39弄"},{"poiid":"B2094757D769A7FB4898","title":"湘色满园","lon":"121.677368054","lat":"31.243344793","category":"77","category_name":"湖南菜","address":"浦东新区云雅路356号(近王巷路)"},{"poiid":"B2094751D36AA0F5429E","title":"野人岛烤肉(上丰路店)","lon":"121.67899","lat":"31.24094","category":"68","category_name":"快餐厅","address":"浦东新区上丰路1750-1762号恒生商业广场2-8号3楼(近张江银行卡产业园)"},{"poiid":"B2094757D16FA7FF409A","title":"金枫公园","lon":"121.68068","lat":"31.24207","category":"196","category_name":"公园","address":"浦东新区虹盛路(近彩雅路)"},{"poiid":"B2094655D26BA2FE439A","title":"王港","lon":"121.68574","lat":"31.23727","category":"38","category_name":"公交车站","address":""},{"poiid":"B2094751D269A0FD4299","title":"喜粤美膳","lon":"121.677719","lat":"31.2401","category":"72","category_name":"广东菜","address":"浦东新区王港路177号恒生商业广场内(近上丰路)"},{"poiid":"B2094757D16CABFC4192","title":"哇哇叫干锅牛蛙","lon":"121.678297","lat":"31.243324","category":"247","category_name":"餐饮美食","address":"上海云雅路"},{"poiid":"B2094752D26CA6FE499A","title":"芒不颠港式甜品(恒生商业广场店)","lon":"121.68047","lat":"31.24116","category":"67","category_name":"甜品店","address":"浦东新区虹盛路261号恒生商业广场内(近上丰路)"},{"poiid":"B2094751D369A2F9479A","title":"四海游龙(恒生广场店)","lon":"121.68064","lat":"31.24087","category":"68","category_name":"快餐厅","address":"浦东新区虹盛路253号恒生商业广场1楼(近金枫公园)"},{"poiid":"B2094654DA6BA1FF4592","title":"快客(云雅路)","lon":"121.67829","lat":"31.24333","category":"117","category_name":"便民商店/便利店","address":"云雅路389"},{"poiid":"B2094757D469A2FE4792","title":"重庆鸡公煲 云雅路店","lon":"121.675284054","lat":"31.242577793","category":"71","category_name":"四川菜","address":"云雅路349号近王港路"},{"poiid":"B2094655D36DA7FC479B","title":"云雅路虹盛路","lon":"121.67948","lat":"31.24386","category":"38","category_name":"公交车站","address":""},{"poiid":"B2094757D66EA4F54099","title":"正宗兰州拉面","lon":"121.67883208","lat":"31.242110343","category":"247","category_name":"餐饮美食","address":"上海市浦东新区云雅路419号"},{"poiid":"B2094757D16FAAFA419A","title":"重庆川菜馆","lon":"121.67772478","lat":"31.242466051","category":"247","category_name":"餐饮美食","address":"上海云雅路441号"},{"poiid":"B2094655D26BA2FE429C","title":"王港路云雅路","lon":"121.67658","lat":"31.24218","category":"38","category_name":"公交车站","address":""},{"poiid":"B2094757D164A1FE4398","title":"饭是钢酒楼","lon":"121.678030785","lat":"31.2417038349","category":"77","category_name":"湖南菜","address":"浦东新区云雅路354号(近川沙路)"},{"poiid":"B2094757D16BA6F94293","title":"王港幼儿园","lon":"121.68037","lat":"31.24181","category":"57","category_name":"幼儿园","address":"浦东新区上丰路1601号(近云雅路)"},{"poiid":"B2094654DA6BA1FF469D","title":"金枫豪苑","lon":"121.68059","lat":"31.238508","category":"47","category_name":"住宅区","address":"金枫豪苑位于浦东虹盛路160弄"},{"poiid":"B2094757D465A0F5489D","title":"村夫烤鱼龙虾王 王港店","lon":"121.675570054","lat":"31.242686793","category":"269","category_name":"烧烤","address":"云雅路405号近王港路"},{"poiid":"B2094757D168A7FF499F","title":"8090精品小厨","lon":"121.677935485","lat":"31.2421242442","category":"500","category_name":"未知分类","address":"上海云雅路462号"},{"poiid":"B2094757D16EA4FF499A","title":"中国银行","lon":"121.676770085","lat":"31.2417253354","category":"150","category_name":"银行","address":"上海市浦东新区卡园二路288号"},{"poiid":"B2094654DB64A3F4469F","title":"如家酒店","lon":"121.68334","lat":"31.23436","category":"216","category_name":"经济型连锁酒店","address":"浦东新区龙东大道5385号"},{"poiid":"B2094654DA6AAAFE4693","title":"虹盛小区","lon":"121.68169","lat":"31.237766","category":"47","category_name":"住宅区","address":"虹盛路107弄"},{"poiid":"B2094750D76DAAFC489E","title":"蜀膳传火锅传奇(恒生广场店)","lon":"121.683","lat":"31.2368","category":"86","category_name":"火锅店","address":"浦东新区虹盛路253号恒生商业广场2楼(近上丰路)"},{"poiid":"B2094655D36DA2FB4493","title":"宋家宅桥","lon":"121.67903","lat":"31.24619","category":"250","category_name":"公园户外","address":""},{"poiid":"B2094655D36CA7FD419D","title":"华东路来安路","lon":"121.66877","lat":"31.24412","category":"38","category_name":"公交车站","address":""},{"poiid":"B2094757D065A2FB4993","title":"川沙路 虹星路","lon":"121.682857","lat":"31.249544","category":"500","category_name":"未知分类","address":"上海川沙路,虹星路"},{"poiid":"B2094752DB6BA6FB489B","title":"上海金球国际影城","lon":"121.680206","lat":"31.238831","category":"500","category_name":"未知分类","address":"上海市 浦东新区上丰路恒生广场1810弄B4栋"},{"poiid":"B2094757D465A4FD439D","title":"吉祥馄饨 王港店 Gll Wonton","lon":"121.684522054","lat":"31.243890793","category":"247","category_name":"餐饮美食","address":"浦东新区上丰路1961号(近川沙路)"},{"poiid":"B2094757D06FA3FF499A","title":"中国平安","lon":"121.67144775","lat":"31.234863281","category":"500","category_name":"未知分类","address":"浦东新区上丰路1288号中国平安3号门"},{"poiid":"B2094757D064A4FD489F","title":"兴业银行","lon":"121.66909638","lat":"31.247178922","category":"150","category_name":"银行","address":"上海来安路500号"},{"poiid":"B2094757D06BA7FE489E","title":"金领国际","lon":"121.680493","lat":"31.253423","category":"252","category_name":"楼宇机构","address":"浦东新区川沙路1666号"},{"poiid":"B2094757D064AAFC499C","title":"平安银行总部","lon":"121.66731908","lat":"31.236925229","category":"500","category_name":"未知分类","address":"上海浦东新区上丰路1158号"},{"poiid":"B2094757D66EA1F8459A","title":"招商银行信用卡中心","lon":"121.67261178","lat":"31.247633065","category":"150","category_name":"银行","address":"上海华东路来安路"},{"poiid":"B2094757DA64A3FF4192","title":"恒生商业广场","lon":"121.680043","lat":"31.241123","category":"252","category_name":"楼宇机构","address":"浦东新区上丰路(近金枫公园)"},{"poiid":"B2094757D06AA3F5459D","title":"交通银行总行培训中心","lon":"121.6644523","lat":"31.240514098","category":"253","category_name":"校园生活","address":"上海浦东新区上丰路1211号"},{"poiid":"B2094655D36CA6F54999","title":"大湾","lon":"121.68476","lat":"31.24371","category":"38","category_name":"公交车站","address":""},{"poiid":"B2094654DA6BA1FF4492","title":"同景苑","lon":"121.67756","lat":"31.24457","category":"47","category_name":"住宅区","address":"上海云雅路400弄"},{"poiid":"B2094757D165A6FE4693","title":"中国银联园区","lon":"121.66524308","lat":"31.233610156","category":"500","category_name":"未知分类","address":"上海市浦东新区顾唐路1699号"},{"poiid":"B2094757D16CA1FF419E","title":"龚路","lon":"121.684123","lat":"31.261737","category":"500","category_name":"未知分类","address":"上海市浦东新区川沙路816号(金海路口)"},{"poiid":"B2094654DA6BA1F9439F","title":"中国平安(上丰路)","lon":"121.66452","lat":"31.23766","category":"219","category_name":"其他","address":"上丰路1158号2号门"},{"poiid":"B2094654DA6AAAFE4798","title":"鑫港苑","lon":"121.68105","lat":"31.241295","category":"47","category_name":"住宅区","address":"上海浦东新区虹盛路250弄"},{"poiid":"B2094757D06FA5FD449A","title":"交通银行总行软件开发中心","lon":"121.66390435","lat":"31.23853439","category":"500","category_name":"未知分类","address":"上海上丰路1111号"},{"poiid":"B2094757D16EA4F9479D","title":"上海期货交易所","lon":"121.679198747","lat":"31.2485499627","category":"263","category_name":"公司","address":"上海来安路996号"},{"poiid":"B2094654DA6AAAFE489C","title":"金盛佳苑","lon":"121.68645","lat":"31.242142","category":"47","category_name":"住宅区","address":"胜利路30弄"},{"poiid":"B2094757D064A6FB469D","title":"同馨苑","lon":"121.684","lat":"31.2496","category":"252","category_name":"楼宇机构","address":"云雅路337号等单号"},{"poiid":"B2094757D068ABF4469B","title":"中国银联培训中心","lon":"121.663736","lat":"31.231019","category":"46","category_name":"楼宇","address":"上海顾唐路 龙东大道"},{"poiid":"B2094757D06BA7F4439F","title":"中国太平共享服务中心","lon":"121.67594917","lat":"31.232002288","category":"500","category_name":"未知分类","address":"上海张江卡园三路"},{"poiid":"B2094750DB65A2F5429E","title":"肯德基(恒生广场店)","lon":"121.680969","lat":"31.239988","category":"68","category_name":"快餐厅","address":"浦东新区上丰路1772-1784号1楼恒生商业广场内(近王港路)"},{"poiid":"B2094757D06AA1F8419C","title":"中国银行信息中心","lon":"121.665528295","lat":"31.2408610664","category":"500","category_name":"未知分类","address":"上海卡园一路88号"},{"poiid":"B2094654DA6AAAFE479B","title":"金枫公寓","lon":"121.68266","lat":"31.238955","category":"47","category_name":"住宅区","address":"虹盛东路39弄"},{"poiid":"B2094757D769A7FB4898","title":"湘色满园","lon":"121.677368054","lat":"31.243344793","category":"77","category_name":"湖南菜","address":"浦东新区云雅路356号(近王巷路)"},{"poiid":"B2094751D36AA0F5429E","title":"野人岛烤肉(上丰路店)","lon":"121.67899","lat":"31.24094","category":"68","category_name":"快餐厅","address":"浦东新区上丰路1750-1762号恒生商业广场2-8号3楼(近张江银行卡产业园)"},{"poiid":"B2094757D16FA7FF409A","title":"金枫公园","lon":"121.68068","lat":"31.24207","category":"196","category_name":"公园","address":"浦东新区虹盛路(近彩雅路)"},{"poiid":"B2094655D26BA2FE439A","title":"王港","lon":"121.68574","lat":"31.23727","category":"38","category_name":"公交车站","address":""},{"poiid":"B2094751D269A0FD4299","title":"喜粤美膳","lon":"121.677719","lat":"31.2401","category":"72","category_name":"广东菜","address":"浦东新区王港路177号恒生商业广场内(近上丰路)"},{"poiid":"B2094757D16CABFC4192","title":"哇哇叫干锅牛蛙","lon":"121.678297","lat":"31.243324","category":"247","category_name":"餐饮美食","address":"上海云雅路"},{"poiid":"B2094752D26CA6FE499A","title":"芒不颠港式甜品(恒生商业广场店)","lon":"121.68047","lat":"31.24116","category":"67","category_name":"甜品店","address":"浦东新区虹盛路261号恒生商业广场内(近上丰路)"},{"poiid":"B2094751D369A2F9479A","title":"四海游龙(恒生广场店)","lon":"121.68064","lat":"31.24087","category":"68","category_name":"快餐厅","address":"浦东新区虹盛路253号恒生商业广场1楼(近金枫公园)"},{"poiid":"B2094654DA6BA1FF4592","title":"快客(云雅路)","lon":"121.67829","lat":"31.24333","category":"117","category_name":"便民商店/便利店","address":"云雅路389"},{"poiid":"B2094757D469A2FE4792","title":"重庆鸡公煲 云雅路店","lon":"121.675284054","lat":"31.242577793","category":"71","category_name":"四川菜","address":"云雅路349号近王港路"},{"poiid":"B2094655D36DA7FC479B","title":"云雅路虹盛路","lon":"121.67948","lat":"31.24386","category":"38","category_name":"公交车站","address":""},{"poiid":"B2094757D66EA4F54099","title":"正宗兰州拉面","lon":"121.67883208","lat":"31.242110343","category":"247","category_name":"餐饮美食","address":"上海市浦东新区云雅路419号"},{"poiid":"B2094757D16FAAFA419A","title":"重庆川菜馆","lon":"121.67772478","lat":"31.242466051","category":"247","category_name":"餐饮美食","address":"上海云雅路441号"},{"poiid":"B2094655D26BA2FE429C","title":"王港路云雅路","lon":"121.67658","lat":"31.24218","category":"38","category_name":"公交车站","address":""},{"poiid":"B2094757D164A1FE4398","title":"饭是钢酒楼","lon":"121.678030785","lat":"31.2417038349","category":"77","category_name":"湖南菜","address":"浦东新区云雅路354号(近川沙路)"},{"poiid":"B2094757D16BA6F94293","title":"王港幼儿园","lon":"121.68037","lat":"31.24181","category":"57","category_name":"幼儿园","address":"浦东新区上丰路1601号(近云雅路)"},{"poiid":"B2094654DA6BA1FF469D","title":"金枫豪苑","lon":"121.68059","lat":"31.238508","category":"47","category_name":"住宅区","address":"金枫豪苑位于浦东虹盛路160弄"},{"poiid":"B2094757D465A0F5489D","title":"村夫烤鱼龙虾王 王港店","lon":"121.675570054","lat":"31.242686793","category":"269","category_name":"烧烤","address":"云雅路405号近王港路"},{"poiid":"B2094757D168A7FF499F","title":"8090精品小厨","lon":"121.677935485","lat":"31.2421242442","category":"500","category_name":"未知分类","address":"上海云雅路462号"},{"poiid":"B2094757D16EA4FF499A","title":"中国银行","lon":"121.676770085","lat":"31.2417253354","category":"150","category_name":"银行","address":"上海市浦东新区卡园二路288号"},{"poiid":"B2094654DB64A3F4469F","title":"如家酒店","lon":"121.68334","lat":"31.23436","category":"216","category_name":"经济型连锁酒店","address":"浦东新区龙东大道5385号"},{"poiid":"B2094654DA6AAAFE4693","title":"虹盛小区","lon":"121.68169","lat":"31.237766","category":"47","category_name":"住宅区","address":"虹盛路107弄"},{"poiid":"B2094750D76DAAFC489E","title":"蜀膳传火锅传奇(恒生广场店)","lon":"121.683","lat":"31.2368","category":"86","category_name":"火锅店","address":"浦东新区虹盛路253号恒生商业广场2楼(近上丰路)"},{"poiid":"B2094655D36DA2FB4493","title":"宋家宅桥","lon":"121.67903","lat":"31.24619","category":"250","category_name":"公园户外","address":""},{"poiid":"B2094655D36CA7FD419D","title":"华东路来安路","lon":"121.66877","lat":"31.24412","category":"38","category_name":"公交车站","address":""},{"poiid":"B2094757D065A2FB4993","title":"川沙路 虹星路","lon":"121.682857","lat":"31.249544","category":"500","category_name":"未知分类","address":"上海川沙路,虹星路"},{"poiid":"B2094752DB6BA6FB489B","title":"上海金球国际影城","lon":"121.680206","lat":"31.238831","category":"500","category_name":"未知分类","address":"上海市 浦东新区上丰路恒生广场1810弄B4栋"},{"poiid":"B2094757D465A4FD439D","title":"吉祥馄饨 王港店 Gll Wonton","lon":"121.684522054","lat":"31.243890793","category":"247","category_name":"餐饮美食","address":"浦东新区上丰路1961号(近川沙路)"},{"poiid":"B2094757D06FA3FF499A","title":"中国平安","lon":"121.67144775","lat":"31.234863281","category":"500","category_name":"未知分类","address":"浦东新区上丰路1288号中国平安3号门"},{"poiid":"B2094757D064A4FD489F","title":"兴业银行","lon":"121.66909638","lat":"31.247178922","category":"150","category_name":"银行","address":"上海来安路500号"},{"poiid":"B2094757D06BA7FE489E","title":"金领国际","lon":"121.680493","lat":"31.253423","category":"252","category_name":"楼宇机构","address":"浦东新区川沙路1666号"},{"poiid":"B2094757D064AAFC499C","title":"平安银行总部","lon":"121.66731908","lat":"31.236925229","category":"500","category_name":"未知分类","address":"上海浦东新区上丰路1158号"},{"poiid":"B2094757D66EA1F8459A","title":"招商银行信用卡中心","lon":"121.67261178","lat":"31.247633065","category":"150","category_name":"银行","address":"上海华东路来安路"},{"poiid":"B2094757DA64A3FF4192","title":"恒生商业广场","lon":"121.680043","lat":"31.241123","category":"252","category_name":"楼宇机构","address":"浦东新区上丰路(近金枫公园)"},{"poiid":"B2094757D06AA3F5459D","title":"交通银行总行培训中心","lon":"121.6644523","lat":"31.240514098","category":"253","category_name":"校园生活","address":"上海浦东新区上丰路1211号"},{"poiid":"B2094655D36CA6F54999","title":"大湾","lon":"121.68476","lat":"31.24371","category":"38","category_name":"公交车站","address":""},{"poiid":"B2094654DA6BA1FF4492","title":"同景苑","lon":"121.67756","lat":"31.24457","category":"47","category_name":"住宅区","address":"上海云雅路400弄"},{"poiid":"B2094757D165A6FE4693","title":"中国银联园区","lon":"121.66524308","lat":"31.233610156","category":"500","category_name":"未知分类","address":"上海市浦东新区顾唐路1699号"},{"poiid":"B2094757D16CA1FF419E","title":"龚路","lon":"121.684123","lat":"31.261737","category":"500","category_name":"未知分类","address":"上海市浦东新区川沙路816号(金海路口)"},{"poiid":"B2094654DA6BA1F9439F","title":"中国平安(上丰路)","lon":"121.66452","lat":"31.23766","category":"219","category_name":"其他","address":"上丰路1158号2号门"},{"poiid":"B2094654DA6AAAFE4798","title":"鑫港苑","lon":"121.68105","lat":"31.241295","category":"47","category_name":"住宅区","address":"上海浦东新区虹盛路250弄"},{"poiid":"B2094757D06FA5FD449A","title":"交通银行总行软件开发中心","lon":"121.66390435","lat":"31.23853439","category":"500","category_name":"未知分类","address":"上海上丰路1111号"},{"poiid":"B2094757D16EA4F9479D","title":"上海期货交易所","lon":"121.679198747","lat":"31.2485499627","category":"263","category_name":"公司","address":"上海来安路996号"},{"poiid":"B2094654DA6AAAFE489C","title":"金盛佳苑","lon":"121.68645","lat":"31.242142","category":"47","category_name":"住宅区","address":"胜利路30弄"},{"poiid":"B2094757D064A6FB469D","title":"同馨苑","lon":"121.684","lat":"31.2496","category":"252","category_name":"楼宇机构","address":"云雅路337号等单号"},{"poiid":"B2094757D068ABF4469B","title":"中国银联培训中心","lon":"121.663736","lat":"31.231019","category":"46","category_name":"楼宇","address":"上海顾唐路 龙东大道"},{"poiid":"B2094757D06BA7F4439F","title":"中国太平共享服务中心","lon":"121.67594917","lat":"31.232002288","category":"500","category_name":"未知分类","address":"上海张江卡园三路"},{"poiid":"B2094750DB65A2F5429E","title":"肯德基(恒生广场店)","lon":"121.680969","lat":"31.239988","category":"68","category_name":"快餐厅","address":"浦东新区上丰路1772-1784号1楼恒生商业广场内(近王港路)"},{"poiid":"B2094757D06AA1F8419C","title":"中国银行信息中心","lon":"121.665528295","lat":"31.2408610664","category":"500","category_name":"未知分类","address":"上海卡园一路88号"},{"poiid":"B2094654DA6AAAFE479B","title":"金枫公寓","lon":"121.68266","lat":"31.238955","category":"47","category_name":"住宅区","address":"虹盛东路39弄"},{"poiid":"B2094757D769A7FB4898","title":"湘色满园","lon":"121.677368054","lat":"31.243344793","category":"77","category_name":"湖南菜","address":"浦东新区云雅路356号(近王巷路)"},{"poiid":"B2094751D36AA0F5429E","title":"野人岛烤肉(上丰路店)","lon":"121.67899","lat":"31.24094","category":"68","category_name":"快餐厅","address":"浦东新区上丰路1750-1762号恒生商业广场2-8号3楼(近张江银行卡产业园)"},{"poiid":"B2094757D16FA7FF409A","title":"金枫公园","lon":"121.68068","lat":"31.24207","category":"196","category_name":"公园","address":"浦东新区虹盛路(近彩雅路)"},{"poiid":"B2094655D26BA2FE439A","title":"王港","lon":"121.68574","lat":"31.23727","category":"38","category_name":"公交车站","address":""},{"poiid":"B2094751D269A0FD4299","title":"喜粤美膳","lon":"121.677719","lat":"31.2401","category":"72","category_name":"广东菜","address":"浦东新区王港路177号恒生商业广场内(近上丰路)"},{"poiid":"B2094757D16CABFC4192","title":"哇哇叫干锅牛蛙","lon":"121.678297","lat":"31.243324","category":"247","category_name":"餐饮美食","address":"上海云雅路"},{"poiid":"B2094752D26CA6FE499A","title":"芒不颠港式甜品(恒生商业广场店)","lon":"121.68047","lat":"31.24116","category":"67","category_name":"甜品店","address":"浦东新区虹盛路261号恒生商业广场内(近上丰路)"},{"poiid":"B2094751D369A2F9479A","title":"四海游龙(恒生广场店)","lon":"121.68064","lat":"31.24087","category":"68","category_name":"快餐厅","address":"浦东新区虹盛路253号恒生商业广场1楼(近金枫公园)"},{"poiid":"B2094654DA6BA1FF4592","title":"快客(云雅路)","lon":"121.67829","lat":"31.24333","category":"117","category_name":"便民商店/便利店","address":"云雅路389"},{"poiid":"B2094757D469A2FE4792","title":"重庆鸡公煲 云雅路店","lon":"121.675284054","lat":"31.242577793","category":"71","category_name":"四川菜","address":"云雅路349号近王港路"},{"poiid":"B2094655D36DA7FC479B","title":"云雅路虹盛路","lon":"121.67948","lat":"31.24386","category":"38","category_name":"公交车站","address":""},{"poiid":"B2094757D66EA4F54099","title":"正宗兰州拉面","lon":"121.67883208","lat":"31.242110343","category":"247","category_name":"餐饮美食","address":"上海市浦东新区云雅路419号"},{"poiid":"B2094757D16FAAFA419A","title":"重庆川菜馆","lon":"121.67772478","lat":"31.242466051","category":"247","category_name":"餐饮美食","address":"上海云雅路441号"},{"poiid":"B2094655D26BA2FE429C","title":"王港路云雅路","lon":"121.67658","lat":"31.24218","category":"38","category_name":"公交车站","address":""},{"poiid":"B2094757D164A1FE4398","title":"饭是钢酒楼","lon":"121.678030785","lat":"31.2417038349","category":"77","category_name":"湖南菜","address":"浦东新区云雅路354号(近川沙路)"},{"poiid":"B2094757D16BA6F94293","title":"王港幼儿园","lon":"121.68037","lat":"31.24181","category":"57","category_name":"幼儿园","address":"浦东新区上丰路1601号(近云雅路)"},{"poiid":"B2094654DA6BA1FF469D","title":"金枫豪苑","lon":"121.68059","lat":"31.238508","category":"47","category_name":"住宅区","address":"金枫豪苑位于浦东虹盛路160弄"},{"poiid":"B2094757D465A0F5489D","title":"村夫烤鱼龙虾王 王港店","lon":"121.675570054","lat":"31.242686793","category":"269","category_name":"烧烤","address":"云雅路405号近王港路"},{"poiid":"B2094757D168A7FF499F","title":"8090精品小厨","lon":"121.677935485","lat":"31.2421242442","category":"500","category_name":"未知分类","address":"上海云雅路462号"},{"poiid":"B2094757D16EA4FF499A","title":"中国银行","lon":"121.676770085","lat":"31.2417253354","category":"150","category_name":"银行","address":"上海市浦东新区卡园二路288号"},{"poiid":"B2094654DB64A3F4469F","title":"如家酒店","lon":"121.68334","lat":"31.23436","category":"216","category_name":"经济型连锁酒店","address":"浦东新区龙东大道5385号"},{"poiid":"B2094654DA6AAAFE4693","title":"虹盛小区","lon":"121.68169","lat":"31.237766","category":"47","category_name":"住宅区","address":"虹盛路107弄"},{"poiid":"B2094750D76DAAFC489E","title":"蜀膳传火锅传奇(恒生广场店)","lon":"121.683","lat":"31.2368","category":"86","category_name":"火锅店","address":"浦东新区虹盛路253号恒生商业广场2楼(近上丰路)"},{"poiid":"B2094655D36DA2FB4493","title":"宋家宅桥","lon":"121.67903","lat":"31.24619","category":"250","category_name":"公园户外","address":""},{"poiid":"B2094655D36CA7FD419D","title":"华东路来安路","lon":"121.66877","lat":"31.24412","category":"38","category_name":"公交车站","address":""},{"poiid":"B2094757D065A2FB4993","title":"川沙路 虹星路","lon":"121.682857","lat":"31.249544","category":"500","category_name":"未知分类","address":"上海川沙路,虹星路"},{"poiid":"B2094752DB6BA6FB489B","title":"上海金球国际影城","lon":"121.680206","lat":"31.238831","category":"500","category_name":"未知分类","address":"上海市 浦东新区上丰路恒生广场1810弄B4栋"},{"poiid":"B2094757D465A4FD439D","title":"吉祥馄饨 王港店 Gll Wonton","lon":"121.684522054","lat":"31.243890793","category":"247","category_name":"餐饮美食","address":"浦东新区上丰路1961号(近川沙路)"},{"poiid":"B2094757D06FA3FF499A","title":"中国平安","lon":"121.67144775","lat":"31.234863281","category":"500","category_name":"未知分类","address":"浦东新区上丰路1288号中国平安3号门"},{"poiid":"B2094757D064A4FD489F","title":"兴业银行","lon":"121.66909638","lat":"31.247178922","category":"150","category_name":"银行","address":"上海来安路500号"},{"poiid":"B2094757D06BA7FE489E","title":"金领国际","lon":"121.680493","lat":"31.253423","category":"252","category_name":"楼宇机构","address":"浦东新区川沙路1666号"},{"poiid":"B2094757D064AAFC499C","title":"平安银行总部","lon":"121.66731908","lat":"31.236925229","category":"500","category_name":"未知分类","address":"上海浦东新区上丰路1158号"},{"poiid":"B2094757D66EA1F8459A","title":"招商银行信用卡中心","lon":"121.67261178","lat":"31.247633065","category":"150","category_name":"银行","address":"上海华东路来安路"},{"poiid":"B2094757DA64A3FF4192","title":"恒生商业广场","lon":"121.680043","lat":"31.241123","category":"252","category_name":"楼宇机构","address":"浦东新区上丰路(近金枫公园)"},{"poiid":"B2094757D06AA3F5459D","title":"交通银行总行培训中心","lon":"121.6644523","lat":"31.240514098","category":"253","category_name":"校园生活","address":"上海浦东新区上丰路1211号"},{"poiid":"B2094655D36CA6F54999","title":"大湾","lon":"121.68476","lat":"31.24371","category":"38","category_name":"公交车站","address":""},{"poiid":"B2094654DA6BA1FF4492","title":"同景苑","lon":"121.67756","lat":"31.24457","category":"47","category_name":"住宅区","address":"上海云雅路400弄"},{"poiid":"B2094757D165A6FE4693","title":"中国银联园区","lon":"121.66524308","lat":"31.233610156","category":"500","category_name":"未知分类","address":"上海市浦东新区顾唐路1699号"},{"poiid":"B2094757D16CA1FF419E","title":"龚路","lon":"121.684123","lat":"31.261737","category":"500","category_name":"未知分类","address":"上海市浦东新区川沙路816号(金海路口)"},{"poiid":"B2094654DA6BA1F9439F","title":"中国平安(上丰路)","lon":"121.66452","lat":"31.23766","category":"219","category_name":"其他","address":"上丰路1158号2号门"},{"poiid":"B2094654DA6AAAFE4798","title":"鑫港苑","lon":"121.68105","lat":"31.241295","category":"47","category_name":"住宅区","address":"上海浦东新区虹盛路250弄"},{"poiid":"B2094757D06FA5FD449A","title":"交通银行总行软件开发中心","lon":"121.66390435","lat":"31.23853439","category":"500","category_name":"未知分类","address":"上海上丰路1111号"},{"poiid":"B2094757D16EA4F9479D","title":"上海期货交易所","lon":"121.679198747","lat":"31.2485499627","category":"263","category_name":"公司","address":"上海来安路996号"},{"poiid":"B2094654DA6AAAFE489C","title":"金盛佳苑","lon":"121.68645","lat":"31.242142","category":"47","category_name":"住宅区","address":"胜利路30弄"},{"poiid":"B2094757D064A6FB469D","title":"同馨苑","lon":"121.684","lat":"31.2496","category":"252","category_name":"楼宇机构","address":"云雅路337号等单号"},{"poiid":"B2094757D068ABF4469B","title":"中国银联培训中心","lon":"121.663736","lat":"31.231019","category":"46","category_name":"楼宇","address":"上海顾唐路 龙东大道"},{"poiid":"B2094757D06BA7F4439F","title":"中国太平共享服务中心","lon":"121.67594917","lat":"31.232002288","category":"500","category_name":"未知分类","address":"上海张江卡园三路"},{"poiid":"B2094750DB65A2F5429E","title":"肯德基(恒生广场店)","lon":"121.680969","lat":"31.239988","category":"68","category_name":"快餐厅","address":"浦东新区上丰路1772-1784号1楼恒生商业广场内(近王港路)"},{"poiid":"B2094757D06AA1F8419C","title":"中国银行信息中心","lon":"121.665528295","lat":"31.2408610664","category":"500","category_name":"未知分类","address":"上海卡园一路88号"},{"poiid":"B2094654DA6AAAFE479B","title":"金枫公寓","lon":"121.68266","lat":"31.238955","category":"47","category_name":"住宅区","address":"虹盛东路39弄"},{"poiid":"B2094757D769A7FB4898","title":"湘色满园","lon":"121.677368054","lat":"31.243344793","category":"77","category_name":"湖南菜","address":"浦东新区云雅路356号(近王巷路)"},{"poiid":"B2094751D36AA0F5429E","title":"野人岛烤肉(上丰路店)","lon":"121.67899","lat":"31.24094","category":"68","category_name":"快餐厅","address":"浦东新区上丰路1750-1762号恒生商业广场2-8号3楼(近张江银行卡产业园)"},{"poiid":"B2094757D16FA7FF409A","title":"金枫公园","lon":"121.68068","lat":"31.24207","category":"196","category_name":"公园","address":"浦东新区虹盛路(近彩雅路)"},{"poiid":"B2094655D26BA2FE439A","title":"王港","lon":"121.68574","lat":"31.23727","category":"38","category_name":"公交车站","address":""},{"poiid":"B2094751D269A0FD4299","title":"喜粤美膳","lon":"121.677719","lat":"31.2401","category":"72","category_name":"广东菜","address":"浦东新区王港路177号恒生商业广场内(近上丰路)"},{"poiid":"B2094757D16CABFC4192","title":"哇哇叫干锅牛蛙","lon":"121.678297","lat":"31.243324","category":"247","category_name":"餐饮美食","address":"上海云雅路"},{"poiid":"B2094752D26CA6FE499A","title":"芒不颠港式甜品(恒生商业广场店)","lon":"121.68047","lat":"31.24116","category":"67","category_name":"甜品店","address":"浦东新区虹盛路261号恒生商业广场内(近上丰路)"},{"poiid":"B2094751D369A2F9479A","title":"四海游龙(恒生广场店)","lon":"121.68064","lat":"31.24087","category":"68","category_name":"快餐厅","address":"浦东新区虹盛路253号恒生商业广场1楼(近金枫公园)"},{"poiid":"B2094654DA6BA1FF4592","title":"快客(云雅路)","lon":"121.67829","lat":"31.24333","category":"117","category_name":"便民商店/便利店","address":"云雅路389"},{"poiid":"B2094757D469A2FE4792","title":"重庆鸡公煲 云雅路店","lon":"121.675284054","lat":"31.242577793","category":"71","category_name":"四川菜","address":"云雅路349号近王港路"},{"poiid":"B2094655D36DA7FC479B","title":"云雅路虹盛路","lon":"121.67948","lat":"31.24386","category":"38","category_name":"公交车站","address":""},{"poiid":"B2094757D66EA4F54099","title":"正宗兰州拉面","lon":"121.67883208","lat":"31.242110343","category":"247","category_name":"餐饮美食","address":"上海市浦东新区云雅路419号"},{"poiid":"B2094757D16FAAFA419A","title":"重庆川菜馆","lon":"121.67772478","lat":"31.242466051","category":"247","category_name":"餐饮美食","address":"上海云雅路441号"},{"poiid":"B2094655D26BA2FE429C","title":"王港路云雅路","lon":"121.67658","lat":"31.24218","category":"38","category_name":"公交车站","address":""},{"poiid":"B2094757D164A1FE4398","title":"饭是钢酒楼","lon":"121.678030785","lat":"31.2417038349","category":"77","category_name":"湖南菜","address":"浦东新区云雅路354号(近川沙路)"},{"poiid":"B2094757D16BA6F94293","title":"王港幼儿园","lon":"121.68037","lat":"31.24181","category":"57","category_name":"幼儿园","address":"浦东新区上丰路1601号(近云雅路)"},{"poiid":"B2094654DA6BA1FF469D","title":"金枫豪苑","lon":"121.68059","lat":"31.238508","category":"47","category_name":"住宅区","address":"金枫豪苑位于浦东虹盛路160弄"},{"poiid":"B2094757D465A0F5489D","title":"村夫烤鱼龙虾王 王港店","lon":"121.675570054","lat":"31.242686793","category":"269","category_name":"烧烤","address":"云雅路405号近王港路"},{"poiid":"B2094757D168A7FF499F","title":"8090精品小厨","lon":"121.677935485","lat":"31.2421242442","category":"500","category_name":"未知分类","address":"上海云雅路462号"},{"poiid":"B2094757D16EA4FF499A","title":"中国银行","lon":"121.676770085","lat":"31.2417253354","category":"150","category_name":"银行","address":"上海市浦东新区卡园二路288号"},{"poiid":"B2094654DB64A3F4469F","title":"如家酒店","lon":"121.68334","lat":"31.23436","category":"216","category_name":"经济型连锁酒店","address":"浦东新区龙东大道5385号"},{"poiid":"B2094654DA6AAAFE4693","title":"虹盛小区","lon":"121.68169","lat":"31.237766","category":"47","category_name":"住宅区","address":"虹盛路107弄"},{"poiid":"B2094750D76DAAFC489E","title":"蜀膳传火锅传奇(恒生广场店)","lon":"121.683","lat":"31.2368","category":"86","category_name":"火锅店","address":"浦东新区虹盛路253号恒生商业广场2楼(近上丰路)"},{"poiid":"B2094655D36DA2FB4493","title":"宋家宅桥","lon":"121.67903","lat":"31.24619","category":"250","category_name":"公园户外","address":""},{"poiid":"B2094655D36CA7FD419D","title":"华东路来安路","lon":"121.66877","lat":"31.24412","category":"38","category_name":"公交车站","address":""},{"poiid":"B2094757D065A2FB4993","title":"川沙路 虹星路","lon":"121.682857","lat":"31.249544","category":"500","category_name":"未知分类","address":"上海川沙路,虹星路"},{"poiid":"B2094752DB6BA6FB489B","title":"上海金球国际影城","lon":"121.680206","lat":"31.238831","category":"500","category_name":"未知分类","address":"上海市 浦东新区上丰路恒生广场1810弄B4栋"},{"poiid":"B2094757D465A4FD439D","title":"吉祥馄饨 王港店 Gll Wonton","lon":"121.684522054","lat":"31.243890793","category":"247","category_name":"餐饮美食","address":"浦东新区上丰路1961号(近川沙路)"}]