[{"poiid":"B2094757D06FA7F54192","title":"北桥地铁站","lon":"121.410067407","lat":"31.0447301287","category":"36","category_name":"地铁站","address":"上海轨道交通 五号线 轨交北桥站 5"},{"poiid":"B2094757D06FA2F4419D","title":"上海市精神病院","lon":"121.405113","lat":"31.057344","category":"162","category_name":"医院","address":"闵行区沪闵路3210号(近放鹤路)"},{"poiid":"B2094757D06BA4F5439A","title":"闵行北桥","lon":"121.409212","lat":"31.04328","category":"500","category_name":"未知分类","address":"上海闵行北桥"},{"poiid":"B2094655D264A2F84098","title":"S4沪金高速颛桥收费站","lon":"121.41513","lat":"31.06401","category":"267","category_name":"收费站","address":"上海闵行区颛桥镇"},{"poiid":"B2094757D068A3FC4499","title":"复地北桥城","lon":"121.41927","lat":"31.033833","category":"47","category_name":"住宅区","address":"同景国际城法朵Villa位于南岸茶园新区南岸新行政中心对面"},{"poiid":"B2094757D069A4FF4293","title":"北桥花博园","lon":"121.408743","lat":"31.049165","category":"249","category_name":"购物服务","address":"上海沪闵路2759号"},{"poiid":"B2094655D264A7FD4493","title":"万顺水原墅","lon":"121.41538","lat":"31.04333","category":"47","category_name":"住宅区","address":"都市路777弄"},{"poiid":"B2094751D26BA0F5459B","title":"刘家村","lon":"121.419631","lat":"31.044012","category":"87","category_name":"特色／地方风味餐厅","address":"闵行区都市路728号(近金塔路)"},{"poiid":"B2094654DB6EAAFC429C","title":"金榜新苑","lon":"121.41431","lat":"31.055824","category":"47","category_name":"住宅区","address":"都市路1800弄"},{"poiid":"B2094655D26EA5F9419A","title":"翔泰苑","lon":"121.40572","lat":"31.046673","category":"47","category_name":"住宅区","address":"闵行区鹤翔路180弄"},{"poiid":"B2094757D069A7F4499F","title":"福特4s店九华福特","lon":"121.415335","lat":"31.068825","category":"500","category_name":"未知分类","address":"上海颛兴东路"},{"poiid":"B2094751D565AAF8499E","title":"17.5北桥影院","lon":"121.407532","lat":"31.047287","category":"248","category_name":"生活娱乐","address":"上海市闵行区鹤翔路28弄9,10号一楼"},{"poiid":"B2094654DB6EABFC499E","title":"银桥花园","lon":"121.40862","lat":"31.056038","category":"47","category_name":"住宅区","address":"沪闵路3131弄"},{"poiid":"B2094757D069A5F9429F","title":"文洋别克4S","lon":"121.40726315","lat":"31.050309907","category":"500","category_name":"未知分类","address":"上海元江路"},{"poiid":"B2094654DB6EAAF84193","title":"新佳美酒楼","lon":"121.415136054","lat":"31.044983793","category":"76","category_name":"上海菜","address":"闵行区北桥放鹤路北吴路西口1458号(北吴路放鹤路)"},{"poiid":"B2094757D16DA7F9449A","title":"莫泰168 闵行北桥店","lon":"121.40883113","lat":"31.045863773","category":"500","category_name":"未知分类","address":"上海市闵行区沪闵路2660号(近北松公路)"},{"poiid":"B2094655D36CA6FA419A","title":"都市路元江路","lon":"121.41281","lat":"31.05628","category":"38","category_name":"公交车站","address":""},{"poiid":"B2094757D568A0F94699","title":"都市富苑","lon":"121.419934","lat":"31.040362","category":"47","category_name":"住宅区","address":"中国上海市闵行区"},{"poiid":"B2094757D064A3FB489C","title":"A4高速公路","lon":"121.41454792","lat":"31.050695875","category":"500","category_name":"未知分类","address":"上海a4"},{"poiid":"B2094757D168A4FE499C","title":"雪佛兰文洋4s店","lon":"121.404198857","lat":"31.0502997009","category":"500","category_name":"未知分类","address":"上海元江路"},{"poiid":"B2094655D26AA2F44098","title":"文洋汽车销售服务有限公司沪闵路店","lon":"121.40715","lat":"31.05015","category":"247","category_name":"餐饮美食","address":"闵行区沪闵路2890号(近元江路)"},{"poiid":"B2094655D36CA6FA4192","title":"都市路伟都路","lon":"121.41316","lat":"31.05562","category":"38","category_name":"公交车站","address":""},{"poiid":"B2094655D264A2F94792","title":"北桥耶稣堂","lon":"121.41631","lat":"31.04512","category":"245","category_name":"教堂","address":"北桥镇北吴路1500号"},{"poiid":"B2094655D36CA5F4479E","title":"北吴路都会路","lon":"121.42628","lat":"31.04663","category":"38","category_name":"公交车站","address":""},{"poiid":"B2094655D264A0FB4198","title":"天凯大酒店","lon":"121.40921","lat":"31.04586","category":"76","category_name":"上海菜","address":"闵行区沪闵路2550号(北桥轻轨站对面)"},{"poiid":"B2094757D569A1F8489E","title":"骏苑小区","lon":"121.42688251085","lat":"31.046728120954","category":"47","category_name":"住宅区","address":"上海市闵行区金阳路366弄"},{"poiid":"B2094655D36DA3F5419D","title":"东潮浜桥","lon":"121.42146","lat":"31.04527","category":"250","category_name":"公园户外","address":""},{"poiid":"B2094655D36CA6F8499B","title":"放鹤路北吴路","lon":"121.41496","lat":"31.04492","category":"38","category_name":"公交车站","address":""},{"poiid":"B2094757D164A5FE429D","title":"塘湾","lon":"121.41700685","lat":"31.056213185","category":"500","category_name":"未知分类","address":"上海吴泾"},{"poiid":"B2094655D36CA6FA429F","title":"都会路元江路","lon":"121.42136","lat":"31.06017","category":"38","category_name":"公交车站","address":""},{"poiid":"B2094655D36CA7FD4592","title":"沪闵路元江路","lon":"121.40756","lat":"31.05169","category":"38","category_name":"公交车站","address":""},{"poiid":"B2094753D365A0FA4193","title":"威尔士健身会所(水原墅店)","lon":"121.41806","lat":"31.0435","category":"221","category_name":"健身中心","address":"闵行区都市路777弄253号(近万顺水原墅)"},{"poiid":"B2094757D06BABFF4898","title":"吴泾镇人民政府","lon":"121.42427945","lat":"31.055825278","category":"500","category_name":"未知分类","address":"上海闵行区吴泾镇剑川路388号"},{"poiid":"B2094655D26EA5F9419B","title":"上海市公安局闵行分局交通警察支队四中队","lon":"121.40861","lat":"31.05074","category":"250","category_name":"公园户外","address":"沪闵路2865"},{"poiid":"B2094757D66DA6FE4199","title":"命运石之门","lon":"121.412628328","lat":"31.0473361584","category":"607","category_name":"一般景点","address":null},{"poiid":"B2094757D06AABF84392","title":"沪闵公路","lon":"121.410383","lat":"31.04391","category":"500","category_name":"未知分类","address":"上海闵行区沪闵公路"},{"poiid":"B2094655D36CA6F84898","title":"放鹤路吴河路","lon":"121.43022","lat":"31.04525","category":"38","category_name":"公交车站","address":""},{"poiid":"B2094654DB6FA1FF4592","title":"乐意饮食店(北吴路)","lon":"121.42767","lat":"31.04695","category":"257","category_name":"中餐厅","address":""},{"poiid":"B2094655D26AA0F9449A","title":"地铁北桥站","lon":"121.41011","lat":"31.04486","category":"36","category_name":"地铁站","address":""},{"poiid":"B2094757D169A6F94499","title":"闵行都会路","lon":"121.41841085","lat":"31.062690615","category":"500","category_name":"未知分类","address":"上海市闵行区Ｓ４沪金高速"},{"poiid":"B2094655D26BA2FC409C","title":"五号线北桥站","lon":"121.40971","lat":"31.04499","category":"38","category_name":"公交车站","address":""},{"poiid":"B2094655D36CA5F4499C","title":"北桥","lon":"121.41034","lat":"31.04316","category":"38","category_name":"公交车站","address":""},{"poiid":"B2094655D269ABFF4999","title":"闵行公园","lon":"121.40988","lat":"31.05523","category":"247","category_name":"餐饮美食","address":"闵行区沪闵路249号(江川路口)"},{"poiid":"B2094757D16BA4FD419B","title":"俄罗斯","lon":"121.408709128","lat":"31.0457021248","category":"500","category_name":"未知分类","address":"莫斯科机场"},{"poiid":"B2094655D26FA3F4409E","title":"银桥花园(南门)","lon":"121.40909","lat":"31.05541","category":"47","category_name":"住宅区","address":"沪闵路3131号"},{"poiid":"B2094654DB6FA1F94399","title":"上良小区","lon":"121.41018","lat":"31.04603","category":"47","category_name":"住宅区","address":"沪闵路2673号-2681号"},{"poiid":"B2094757D16EA0F94098","title":"BG4FEI","lon":"121.414524857","lat":"31.0581495245","category":"500","category_name":"未知分类","address":null},{"poiid":"B2094654DB69A7FB4892","title":"上海市闵行区北桥职业技术学校","lon":"121.41052","lat":"31.04396","category":"55","category_name":"中学","address":"闵行区沪闵路2575号"},{"poiid":"B2094757D569A0F54492","title":"鑫都城云天绿洲","lon":"121.407","lat":"31.0576","category":"47","category_name":"住宅区","address":"上海市闵行区鑫都路2711弄"},{"poiid":"B2094655D36CA5F44793","title":"北松公路沪闵路","lon":"121.41036","lat":"31.04338","category":"38","category_name":"公交车站","address":""},{"poiid":"B2094757D06FA7F54192","title":"北桥地铁站","lon":"121.410067407","lat":"31.0447301287","category":"36","category_name":"地铁站","address":"上海轨道交通 五号线 轨交北桥站 5"},{"poiid":"B2094757D06FA2F4419D","title":"上海市精神病院","lon":"121.405113","lat":"31.057344","category":"162","category_name":"医院","address":"闵行区沪闵路3210号(近放鹤路)"},{"poiid":"B2094757D06BA4F5439A","title":"闵行北桥","lon":"121.409212","lat":"31.04328","category":"500","category_name":"未知分类","address":"上海闵行北桥"},{"poiid":"B2094655D264A2F84098","title":"S4沪金高速颛桥收费站","lon":"121.41513","lat":"31.06401","category":"267","category_name":"收费站","address":"上海闵行区颛桥镇"},{"poiid":"B2094757D068A3FC4499","title":"复地北桥城","lon":"121.41927","lat":"31.033833","category":"47","category_name":"住宅区","address":"同景国际城法朵Villa位于南岸茶园新区南岸新行政中心对面"},{"poiid":"B2094757D069A4FF4293","title":"北桥花博园","lon":"121.408743","lat":"31.049165","category":"249","category_name":"购物服务","address":"上海沪闵路2759号"},{"poiid":"B2094655D264A7FD4493","title":"万顺水原墅","lon":"121.41538","lat":"31.04333","category":"47","category_name":"住宅区","address":"都市路777弄"},{"poiid":"B2094751D26BA0F5459B","title":"刘家村","lon":"121.419631","lat":"31.044012","category":"87","category_name":"特色／地方风味餐厅","address":"闵行区都市路728号(近金塔路)"},{"poiid":"B2094654DB6EAAFC429C","title":"金榜新苑","lon":"121.41431","lat":"31.055824","category":"47","category_name":"住宅区","address":"都市路1800弄"},{"poiid":"B2094655D26EA5F9419A","title":"翔泰苑","lon":"121.40572","lat":"31.046673","category":"47","category_name":"住宅区","address":"闵行区鹤翔路180弄"},{"poiid":"B2094757D069A7F4499F","title":"福特4s店九华福特","lon":"121.415335","lat":"31.068825","category":"500","category_name":"未知分类","address":"上海颛兴东路"},{"poiid":"B2094751D565AAF8499E","title":"17.5北桥影院","lon":"121.407532","lat":"31.047287","category":"248","category_name":"生活娱乐","address":"上海市闵行区鹤翔路28弄9,10号一楼"},{"poiid":"B2094654DB6EABFC499E","title":"银桥花园","lon":"121.40862","lat":"31.056038","category":"47","category_name":"住宅区","address":"沪闵路3131弄"},{"poiid":"B2094757D069A5F9429F","title":"文洋别克4S","lon":"121.40726315","lat":"31.050309907","category":"500","category_name":"未知分类","address":"上海元江路"},{"poiid":"B2094654DB6EAAF84193","title":"新佳美酒楼","lon":"121.415136054","lat":"31.044983793","category":"76","category_name":"上海菜","address":"闵行区北桥放鹤路北吴路西口1458号(北吴路放鹤路)"},{"poiid":"B2094757D16DA7F9449A","title":"莫泰168 闵行北桥店","lon":"121.40883113","lat":"31.045863773","category":"500","category_name":"未知分类","address":"上海市闵行区沪闵路2660号(近北松公路)"},{"poiid":"B2094655D36CA6FA419A","title":"都市路元江路","lon":"121.41281","lat":"31.05628","category":"38","category_name":"公交车站","address":""},{"poiid":"B2094757D568A0F94699","title":"都市富苑","lon":"121.419934","lat":"31.040362","category":"47","category_name":"住宅区","address":"中国上海市闵行区"},{"poiid":"B2094757D064A3FB489C","title":"A4高速公路","lon":"121.41454792","lat":"31.050695875","category":"500","category_name":"未知分类","address":"上海a4"},{"poiid":"B2094757D168A4FE499C","title":"雪佛兰文洋4s店","lon":"121.404198857","lat":"31.0502997009","category":"500","category_name":"未知分类","address":"上海元江路"},{"poiid":"B2094655D26AA2F44098","title":"文洋汽车销售服务有限公司沪闵路店","lon":"121.40715","lat":"31.05015","category":"247","category_name":"餐饮美食","address":"闵行区沪闵路2890号(近元江路)"},{"poiid":"B2094655D36CA6FA4192","title":"都市路伟都路","lon":"121.41316","lat":"31.05562","category":"38","category_name":"公交车站","address":""},{"poiid":"B2094655D264A2F94792","title":"北桥耶稣堂","lon":"121.41631","lat":"31.04512","category":"245","category_name":"教堂","address":"北桥镇北吴路1500号"},{"poiid":"B2094655D36CA5F4479E","title":"北吴路都会路","lon":"121.42628","lat":"31.04663","category":"38","category_name":"公交车站","address":""},{"poiid":"B2094655D264A0FB4198","title":"天凯大酒店","lon":"121.40921","lat":"31.04586","category":"76","category_name":"上海菜","address":"闵行区沪闵路2550号(北桥轻轨站对面)"},{"poiid":"B2094757D569A1F8489E","title":"骏苑小区","lon":"121.42688251085","lat":"31.046728120954","category":"47","category_name":"住宅区","address":"上海市闵行区金阳路366弄"},{"poiid":"B2094655D36DA3F5419D","title":"东潮浜桥","lon":"121.42146","lat":"31.04527","category":"250","category_name":"公园户外","address":""},{"poiid":"B2094655D36CA6F8499B","title":"放鹤路北吴路","lon":"121.41496","lat":"31.04492","category":"38","category_name":"公交车站","address":""},{"poiid":"B2094757D164A5FE429D","title":"塘湾","lon":"121.41700685","lat":"31.056213185","category":"500","category_name":"未知分类","address":"上海吴泾"},{"poiid":"B2094655D36CA6FA429F","title":"都会路元江路","lon":"121.42136","lat":"31.06017","category":"38","category_name":"公交车站","address":""},{"poiid":"B2094655D36CA7FD4592","title":"沪闵路元江路","lon":"121.40756","lat":"31.05169","category":"38","category_name":"公交车站","address":""},{"poiid":"B2094753D365A0FA4193","title":"威尔士健身会所(水原墅店)","lon":"121.41806","lat":"31.0435","category":"221","category_name":"健身中心","address":"闵行区都市路777弄253号(近万顺水原墅)"},{"poiid":"B2094757D06BABFF4898","title":"吴泾镇人民政府","lon":"121.42427945","lat":"31.055825278","category":"500","category_name":"未知分类","address":"上海闵行区吴泾镇剑川路388号"},{"poiid":"B2094655D26EA5F9419B","title":"上海市公安局闵行分局交通警察支队四中队","lon":"121.40861","lat":"31.05074","category":"250","category_name":"公园户外","address":"沪闵路2865"},{"poiid":"B2094757D66DA6FE4199","title":"命运石之门","lon":"121.412628328","lat":"31.0473361584","category":"607","category_name":"一般景点","address":null},{"poiid":"B2094757D06AABF84392","title":"沪闵公路","lon":"121.410383","lat":"31.04391","category":"500","category_name":"未知分类","address":"上海闵行区沪闵公路"},{"poiid":"B2094655D36CA6F84898","title":"放鹤路吴河路","lon":"121.43022","lat":"31.04525","category":"38","category_name":"公交车站","address":""},{"poiid":"B2094654DB6FA1FF4592","title":"乐意饮食店(北吴路)","lon":"121.42767","lat":"31.04695","category":"257","category_name":"中餐厅","address":""},{"poiid":"B2094655D26AA0F9449A","title":"地铁北桥站","lon":"121.41011","lat":"31.04486","category":"36","category_name":"地铁站","address":""},{"poiid":"B2094757D169A6F94499","title":"闵行都会路","lon":"121.41841085","lat":"31.062690615","category":"500","category_name":"未知分类","address":"上海市闵行区Ｓ４沪金高速"},{"poiid":"B2094655D26BA2FC409C","title":"五号线北桥站","lon":"121.40971","lat":"31.04499","category":"38","category_name":"公交车站","address":""},{"poiid":"B2094655D36CA5F4499C","title":"北桥","lon":"121.41034","lat":"31.04316","category":"38","category_name":"公交车站","address":""},{"poiid":"B2094655D269ABFF4999","title":"闵行公园","lon":"121.40988","lat":"31.05523","category":"247","category_name":"餐饮美食","address":"闵行区沪闵路249号(江川路口)"},{"poiid":"B2094757D16BA4FD419B","title":"俄罗斯","lon":"121.408709128","lat":"31.0457021248","category":"500","category_name":"未知分类","address":"莫斯科机场"},{"poiid":"B2094655D26FA3F4409E","title":"银桥花园(南门)","lon":"121.40909","lat":"31.05541","category":"47","category_name":"住宅区","address":"沪闵路3131号"},{"poiid":"B2094654DB6FA1F94399","title":"上良小区","lon":"121.41018","lat":"31.04603","category":"47","category_name":"住宅区","address":"沪闵路2673号-2681号"},{"poiid":"B2094757D16EA0F94098","title":"BG4FEI","lon":"121.414524857","lat":"31.0581495245","category":"500","category_name":"未知分类","address":null},{"poiid":"B2094654DB69A7FB4892","title":"上海市闵行区北桥职业技术学校","lon":"121.41052","lat":"31.04396","category":"55","category_name":"中学","address":"闵行区沪闵路2575号"},{"poiid":"B2094757D569A0F54492","title":"鑫都城云天绿洲","lon":"121.407","lat":"31.0576","category":"47","category_name":"住宅区","address":"上海市闵行区鑫都路2711弄"},{"poiid":"B2094655D36CA5F44793","title":"北松公路沪闵路","lon":"121.41036","lat":"31.04338","category":"38","category_name":"公交车站","address":""},{"poiid":"B2094757D06FA7F54192","title":"北桥地铁站","lon":"121.410067407","lat":"31.0447301287","category":"36","category_name":"地铁站","address":"上海轨道交通 五号线 轨交北桥站 5"},{"poiid":"B2094757D06FA2F4419D","title":"上海市精神病院","lon":"121.405113","lat":"31.057344","category":"162","category_name":"医院","address":"闵行区沪闵路3210号(近放鹤路)"},{"poiid":"B2094757D06BA4F5439A","title":"闵行北桥","lon":"121.409212","lat":"31.04328","category":"500","category_name":"未知分类","address":"上海闵行北桥"},{"poiid":"B2094655D264A2F84098","title":"S4沪金高速颛桥收费站","lon":"121.41513","lat":"31.06401","category":"267","category_name":"收费站","address":"上海闵行区颛桥镇"},{"poiid":"B2094757D068A3FC4499","title":"复地北桥城","lon":"121.41927","lat":"31.033833","category":"47","category_name":"住宅区","address":"同景国际城法朵Villa位于南岸茶园新区南岸新行政中心对面"},{"poiid":"B2094757D069A4FF4293","title":"北桥花博园","lon":"121.408743","lat":"31.049165","category":"249","category_name":"购物服务","address":"上海沪闵路2759号"},{"poiid":"B2094655D264A7FD4493","title":"万顺水原墅","lon":"121.41538","lat":"31.04333","category":"47","category_name":"住宅区","address":"都市路777弄"},{"poiid":"B2094751D26BA0F5459B","title":"刘家村","lon":"121.419631","lat":"31.044012","category":"87","category_name":"特色／地方风味餐厅","address":"闵行区都市路728号(近金塔路)"},{"poiid":"B2094654DB6EAAFC429C","title":"金榜新苑","lon":"121.41431","lat":"31.055824","category":"47","category_name":"住宅区","address":"都市路1800弄"},{"poiid":"B2094655D26EA5F9419A","title":"翔泰苑","lon":"121.40572","lat":"31.046673","category":"47","category_name":"住宅区","address":"闵行区鹤翔路180弄"},{"poiid":"B2094757D069A7F4499F","title":"福特4s店九华福特","lon":"121.415335","lat":"31.068825","category":"500","category_name":"未知分类","address":"上海颛兴东路"},{"poiid":"B2094751D565AAF8499E","title":"17.5北桥影院","lon":"121.407532","lat":"31.047287","category":"248","category_name":"生活娱乐","address":"上海市闵行区鹤翔路28弄9,10号一楼"},{"poiid":"B2094654DB6EABFC499E","title":"银桥花园","lon":"121.40862","lat":"31.056038","category":"47","category_name":"住宅区","address":"沪闵路3131弄"},{"poiid":"B2094757D069A5F9429F","title":"文洋别克4S","lon":"121.40726315","lat":"31.050309907","category":"500","category_name":"未知分类","address":"上海元江路"},{"poiid":"B2094654DB6EAAF84193","title":"新佳美酒楼","lon":"121.415136054","lat":"31.044983793","category":"76","category_name":"上海菜","address":"闵行区北桥放鹤路北吴路西口1458号(北吴路放鹤路)"},{"poiid":"B2094757D16DA7F9449A","title":"莫泰168 闵行北桥店","lon":"121.40883113","lat":"31.045863773","category":"500","category_name":"未知分类","address":"上海市闵行区沪闵路2660号(近北松公路)"},{"poiid":"B2094655D36CA6FA419A","title":"都市路元江路","lon":"121.41281","lat":"31.05628","category":"38","category_name":"公交车站","address":""},{"poiid":"B2094757D568A0F94699","title":"都市富苑","lon":"121.419934","lat":"31.040362","category":"47","category_name":"住宅区","address":"中国上海市闵行区"},{"poiid":"B2094757D064A3FB489C","title":"A4高速公路","lon":"121.41454792","lat":"31.050695875","category":"500","category_name":"未知分类","address":"上海a4"},{"poiid":"B2094757D168A4FE499C","title":"雪佛兰文洋4s店","lon":"121.404198857","lat":"31.0502997009","category":"500","category_name":"未知分类","address":"上海元江路"},{"poiid":"B2094655D26AA2F44098","title":"文洋汽车销售服务有限公司沪闵路店","lon":"121.40715","lat":"31.05015","category":"247","category_name":"餐饮美食","address":"闵行区沪闵路2890号(近元江路)"},{"poiid":"B2094655D36CA6FA4192","title":"都市路伟都路","lon":"121.41316","lat":"31.05562","category":"38","category_name":"公交车站","address":""},{"poiid":"B2094655D264A2F94792","title":"北桥耶稣堂","lon":"121.41631","lat":"31.04512","category":"245","category_name":"教堂","address":"北桥镇北吴路1500号"},{"poiid":"B2094655D36CA5F4479E","title":"北吴路都会路","lon":"121.42628","lat":"31.04663","category":"38","category_name":"公交车站","address":""},{"poiid":"B2094655D264A0FB4198","title":"天凯大酒店","lon":"121.40921","lat":"31.04586","category":"76","category_name":"上海菜","address":"闵行区沪闵路2550号(北桥轻轨站对面)"},{"poiid":"B2094757D569A1F8489E","title":"骏苑小区","lon":"121.42688251085","lat":"31.046728120954","category":"47","category_name":"住宅区","address":"上海市闵行区金阳路366弄"},{"poiid":"B2094655D36DA3F5419D","title":"东潮浜桥","lon":"121.42146","lat":"31.04527","category":"250","category_name":"公园户外","address":""},{"poiid":"B2094655D36CA6F8499B","title":"放鹤路北吴路","lon":"121.41496","lat":"31.04492","category":"38","category_name":"公交车站","address":""},{"poiid":"B2094757D164A5FE429D","title":"塘湾","lon":"121.41700685","lat":"31.056213185","category":"500","category_name":"未知分类","address":"上海吴泾"},{"poiid":"B2094655D36CA6FA429F","title":"都会路元江路","lon":"121.42136","lat":"31.06017","category":"38","category_name":"公交车站","address":""},{"poiid":"B2094655D36CA7FD4592","title":"沪闵路元江路","lon":"121.40756","lat":"31.05169","category":"38","category_name":"公交车站","address":""},{"poiid":"B2094753D365A0FA4193","title":"威尔士健身会所(水原墅店)","lon":"121.41806","lat":"31.0435","category":"221","category_name":"健身中心","address":"闵行区都市路777弄253号(近万顺水原墅)"},{"poiid":"B2094757D06BABFF4898","title":"吴泾镇人民政府","lon":"121.42427945","lat":"31.055825278","category":"500","category_name":"未知分类","address":"上海闵行区吴泾镇剑川路388号"},{"poiid":"B2094655D26EA5F9419B","title":"上海市公安局闵行分局交通警察支队四中队","lon":"121.40861","lat":"31.05074","category":"250","category_name":"公园户外","address":"沪闵路2865"},{"poiid":"B2094757D66DA6FE4199","title":"命运石之门","lon":"121.412628328","lat":"31.0473361584","category":"607","category_name":"一般景点","address":null},{"poiid":"B2094757D06AABF84392","title":"沪闵公路","lon":"121.410383","lat":"31.04391","category":"500","category_name":"未知分类","address":"上海闵行区沪闵公路"},{"poiid":"B2094655D36CA6F84898","title":"放鹤路吴河路","lon":"121.43022","lat":"31.04525","category":"38","category_name":"公交车站","address":""},{"poiid":"B2094654DB6FA1FF4592","title":"乐意饮食店(北吴路)","lon":"121.42767","lat":"31.04695","category":"257","category_name":"中餐厅","address":""},{"poiid":"B2094655D26AA0F9449A","title":"地铁北桥站","lon":"121.41011","lat":"31.04486","category":"36","category_name":"地铁站","address":""},{"poiid":"B2094757D169A6F94499","title":"闵行都会路","lon":"121.41841085","lat":"31.062690615","category":"500","category_name":"未知分类","address":"上海市闵行区Ｓ４沪金高速"},{"poiid":"B2094655D26BA2FC409C","title":"五号线北桥站","lon":"121.40971","lat":"31.04499","category":"38","category_name":"公交车站","address":""},{"poiid":"B2094655D36CA5F4499C","title":"北桥","lon":"121.41034","lat":"31.04316","category":"38","category_name":"公交车站","address":""},{"poiid":"B2094655D269ABFF4999","title":"闵行公园","lon":"121.40988","lat":"31.05523","category":"247","category_name":"餐饮美食","address":"闵行区沪闵路249号(江川路口)"},{"poiid":"B2094757D16BA4FD419B","title":"俄罗斯","lon":"121.408709128","lat":"31.0457021248","category":"500","category_name":"未知分类","address":"莫斯科机场"},{"poiid":"B2094655D26FA3F4409E","title":"银桥花园(南门)","lon":"121.40909","lat":"31.05541","category":"47","category_name":"住宅区","address":"沪闵路3131号"},{"poiid":"B2094654DB6FA1F94399","title":"上良小区","lon":"121.41018","lat":"31.04603","category":"47","category_name":"住宅区","address":"沪闵路2673号-2681号"},{"poiid":"B2094757D16EA0F94098","title":"BG4FEI","lon":"121.414524857","lat":"31.0581495245","category":"500","category_name":"未知分类","address":null},{"poiid":"B2094654DB69A7FB4892","title":"上海市闵行区北桥职业技术学校","lon":"121.41052","lat":"31.04396","category":"55","category_name":"中学","address":"闵行区沪闵路2575号"},{"poiid":"B2094757D569A0F54492","title":"鑫都城云天绿洲","lon":"121.407","lat":"31.0576","category":"47","category_name":"住宅区","address":"上海市闵行区鑫都路2711弄"},{"poiid":"B2094655D36CA5F44793","title":"北松公路沪闵路","lon":"121.41036","lat":"31.04338","category":"38","category_name":"公交车站","address":""}]