[{"poiid":"B2094654DA69AAFB4799","title":"裕景大饭店","lon":"121.52018","lat":"31.2409","category":"213","category_name":"五星级宾馆","address":"上海市浦东新区浦东大道535号(近东方路)"},{"poiid":"B2094757D06FA3FA4399","title":"海神诺富特大酒店","lon":"121.52459373247143","lat":"31.24026721198827","category":"214","category_name":"四星级宾馆","address":"浦东新区浦东大道728号海神诺富特大酒店5楼(近福山路)"},{"poiid":"B2094655D26FA5F9439B","title":"上海证券大厦","lon":"121.517707","lat":"31.241749","category":"46","category_name":"楼宇","address":"浦东新区浦东南路528号"},{"poiid":"B209475CD564A7F84392","title":"上海滩浦东香格里拉店","lon":"121.50058","lat":"31.23634","category":"119","category_name":"商场","address":"浦东富成路33号香格里拉酒店内大堂层"},{"poiid":"B2094655D36DA6FE429A","title":"浦东大道","lon":"121.51984","lat":"31.24032","category":"38","category_name":"公交车站","address":""},{"poiid":"B2094757D06FA0FA489F","title":"秦皇岛路轮渡站","lon":"121.51639044","lat":"31.249174771","category":"35","category_name":"长途汽车站","address":"上海虹口区秦皇岛路1号"},{"poiid":"B2094757D06FA5FA479F","title":"华夏银行大厦","lon":"121.5152","lat":"31.245346","category":"46","category_name":"楼宇","address":"上海浦东新区浦东南路256号"},{"poiid":"B2094655D26AA0F9409A","title":"地铁浦东大道站","lon":"121.51984","lat":"31.24032","category":"36","category_name":"地铁站","address":""},{"poiid":"B2094757D068A6F8419F","title":"华检医疗体检中心","lon":"121.521036652","lat":"31.2400068656","category":"902","category_name":"楼宇机构","address":"浦东新区浦东大道545号裕景坊2楼(东方路口)"},{"poiid":"B2094757D06FA3FF409B","title":"星巴克(航运金融大厦店)","lon":"121.524694","lat":"31.240575","category":"260","category_name":"其他","address":"浦东新区浦东大道720号国际航运金融大厦1楼(近福山路)"},{"poiid":"B2094757D068A1FA489C","title":"其昌栈渡口","lon":"121.51963307","lat":"31.242515608","category":"500","category_name":"未知分类","address":"上海东方路滨江大道"},{"poiid":"B2094757D065A5FA449E","title":"阿根廷庄园","lon":"121.517910103","lat":"31.2503280024","category":"94","category_name":"西餐厅","address":"杨浦区秦皇岛路32号19幢(近北外滩东码头)"},{"poiid":"B2094654DA69AAFB4798","title":"裕景国际","lon":"121.52645574206","lat":"31.248226919703","category":"46","category_name":"楼宇","address":"东方路69号"},{"poiid":"B2094757D069A2FE4098","title":"慈铭健康体检(浦东大道门诊部)","lon":"121.52276","lat":"31.24064","category":"162","category_name":"医院","address":"浦东新区浦东大道637号同科公寓2楼"},{"poiid":"B2094757D16CABFF429D","title":"雅典皇宫","lon":"121.51895673","lat":"31.242752567","category":"500","category_name":"未知分类","address":"上海浦东新区东方路8号(近浦东大道)  "},{"poiid":"B2094655D36DA2FB459B","title":"大连路隧道","lon":"121.51973","lat":"31.2428","category":"250","category_name":"公园户外","address":"上海市杨浦区大连路-浦东新区东方路"},{"poiid":"B2094757D16DABF9429A","title":"浦江游览","lon":"121.516154","lat":"31.249603","category":"607","category_name":"一般景点","address":"上海秦皇岛"},{"poiid":"B2094757DB69A3F44599","title":"富淳饭店 保利店","lon":"121.5189019","lat":"31.242405","category":"72","category_name":"广东菜","address":"浦东新区东方路18号保利广场E座G楼"},{"poiid":"B2094750D66CABFB4693","title":"Mio Ita","lon":"121.517906","lat":"31.243383","category":"94","category_name":"西餐厅","address":"浦东新区东方路18号保利大厦E栋2楼"},{"poiid":"B2094757D064AAF5409A","title":"浦东陆家嘴图书馆","lon":"121.518913","lat":"31.241753","category":"181","category_name":"图书馆","address":"上海浦东新区东方路38号"},{"poiid":"B2094654DA69A1F54992","title":"金穗大厦","lon":"121.517","lat":"31.245","category":"46","category_name":"楼宇","address":"上海市奉贤区环城东路455,465弄"},{"poiid":"B2094757D06AA4F9459C","title":"豪德万源大酒店","lon":"121.52222823","lat":"31.24150209","category":"217","category_name":"旅馆招待所","address":"浦东新区浦东大道599号(近东方路)"},{"poiid":"B2094757D06AA3FC409B","title":"浦东大道钱仓路","lon":"121.520092738","lat":"31.2396905017","category":"500","category_name":"未知分类","address":"上海浦东大道"},{"poiid":"B2094757D068A5F44392","title":"裕景咖啡厅","lon":"121.52051","lat":"31.2408","category":"268","category_name":"自助","address":"浦东新区浦东大道535号裕景大饭店3楼(近东方路)"},{"poiid":"B2094654DA69A7FB419A","title":"崂山三四村","lon":"121.524","lat":"31.2422","category":"47","category_name":"住宅区","address":"栖霞路76号"},{"poiid":"B2094757D06EAAFB4598","title":"黄浦江畔其昌栈码头","lon":"121.525503","lat":"31.249784","category":"34","category_name":"港口码头","address":"上海东方路1号"},{"poiid":"B2094757D469A5F9409A","title":"松临日本料理 保利广场店","lon":"121.5189019","lat":"31.242405","category":"95","category_name":"日本料理","address":"浦东新区东方路18号保利广场E座2楼(近地铁四号线浦东大道站)"},{"poiid":"B2094757D06EAAFF4993","title":"浦电路地铁站(四号线)","lon":"121.519854","lat":"31.240301","category":"36","category_name":"地铁站","address":"上海轨道交通 四号线 轨交浦东大道站 轻轨 4"},{"poiid":"B2094757D069A7F5479D","title":"豪享来上海福山店","lon":"121.5257","lat":"31.2413","category":"247","category_name":"餐饮美食","address":"上海市浦东大道800号福山分店"},{"poiid":"B2094757D065A4FA419E","title":"大连路杨树浦路","lon":"121.521541103","lat":"31.2529070896","category":"500","category_name":"未知分类","address":"上海杨浦区"},{"poiid":"B2094654DB6BAAFE4298","title":"良丰大厦","lon":"121.525","lat":"31.2489","category":"46","category_name":"楼宇","address":"松江区工业区鼎源路广富林路路口"},{"poiid":"B2094757D16EA4F44799","title":"秦皇岛路水门码头","lon":"121.518441738","lat":"31.2456866296","category":"260","category_name":"其他","address":"杨浦区秦皇岛路32号(近杨树浦路)"},{"poiid":"B2094753D76DA4F8439D","title":"上海电影博物馆","lon":"121.520019","lat":"31.240804","category":"500","category_name":"未知分类","address":"上海市 上海电影制片厂漕溪北路595号"},{"poiid":"B2094654DB64A6F44092","title":"如家快捷酒店(上海陆家嘴店)","lon":"121.52216","lat":"31.24182","category":"216","category_name":"经济型连锁酒店","address":"上海市浦东新区昌邑路569号(近东方路)"},{"poiid":"B2094750DB6EAAF5489D","title":"滨江大道","lon":"121.518669","lat":"31.245016","category":"250","category_name":"公园户外","address":"东方路"},{"poiid":"B2094757D069A3F54193","title":"会元馆","lon":"121.52176","lat":"31.2405","category":"72","category_name":"广东菜","address":"浦东新区浦东大道599号豪德万源大酒店2楼(近东方路)"},{"poiid":"B2094753D76BA0FF4898","title":"伊秀手握寿司","lon":"121.520011","lat":"31.240814","category":"247","category_name":"餐饮美食","address":"上海市 上海市第一食品商店"},{"poiid":"B2094757D165A2FA4492","title":"世纪大道东方路","lon":"121.52246773","lat":"31.239912506","category":"500","category_name":"未知分类","address":"上海浦东"},{"poiid":"B2094757D069A6F8419A","title":"沁源茶楼","lon":"121.52162933","lat":"31.240867614","category":"260","category_name":"其他","address":"浦东新区浦东大道569号(近东方路)"},{"poiid":"B2094654DB69A0F9499C","title":"泰和茶馆","lon":"121.52159","lat":"31.24083","category":"66","category_name":"茶艺馆","address":"浦东新区浦东大道569号"},{"poiid":"B2094752DB69A3FB4999","title":"东方私宴","lon":"121.520776","lat":"31.243821","category":"500","category_name":"未知分类","address":"上海市 上海市滨江大道1658号"},{"poiid":"B2094654DB65AAF9479A","title":"浦东大道275弄","lon":"121.52221491238","lat":"31.245548263134","category":"47","category_name":"住宅区","address":"浦东新区浦东大道275弄"},{"poiid":"B2094757D064AAF84392","title":"东码头","lon":"121.5206998","lat":"31.25262055","category":"500","category_name":"未知分类","address":"上海市杨浦区秦皇岛路32号"},{"poiid":"B2094757D168A5FB449B","title":"上海海洋大学图书馆","lon":"121.523911476","lat":"31.2463700469","category":"181","category_name":"图书馆","address":"上海近郊南汇区临港新城护城环路999号  "},{"poiid":"B2094757D064A5F44198","title":"崂山六村","lon":"121.524","lat":"31.2442","category":"500","category_name":"未知分类","address":"上海浦东大道290弄"},{"poiid":"B2094655D26AABFF4793","title":"上海雅客滨江酒店式服务公寓","lon":"121.52151","lat":"31.2412","category":"250","category_name":"公园户外","address":"浦东新区昌邑路588弄金隆置地大厦内(近东方路)"},{"poiid":"B2094654D56EA5FB449B","title":"上海船厂总部码头","lon":"121.51973","lat":"31.25131","category":"34","category_name":"港口码头","address":""},{"poiid":"B2094757D16CA1FE449B","title":"滨江茗园","lon":"121.52151","lat":"31.242653","category":"247","category_name":"餐饮美食","address":"上海市长宁区延安西路1235弄"},{"poiid":"B2094757D569A3FE4993","title":"天安诚韩国料理","lon":"121.52588677","lat":"31.24044623","category":"96","category_name":"韩国料理","address":"浦东新区浦东大道808号(近福山路)"},{"poiid":"B2094757D065A7FC4892","title":"世博秦皇岛水门","lon":"121.52025604","lat":"31.248537063","category":"500","category_name":"未知分类","address":"上海秦皇岛路"},{"poiid":"B2094654DA69AAFB4799","title":"裕景大饭店","lon":"121.52018","lat":"31.2409","category":"213","category_name":"五星级宾馆","address":"上海市浦东新区浦东大道535号(近东方路)"},{"poiid":"B2094757D06FA3FA4399","title":"海神诺富特大酒店","lon":"121.52459373247143","lat":"31.24026721198827","category":"214","category_name":"四星级宾馆","address":"浦东新区浦东大道728号海神诺富特大酒店5楼(近福山路)"},{"poiid":"B2094655D26FA5F9439B","title":"上海证券大厦","lon":"121.517707","lat":"31.241749","category":"46","category_name":"楼宇","address":"浦东新区浦东南路528号"},{"poiid":"B209475CD564A7F84392","title":"上海滩浦东香格里拉店","lon":"121.50058","lat":"31.23634","category":"119","category_name":"商场","address":"浦东富成路33号香格里拉酒店内大堂层"},{"poiid":"B2094655D36DA6FE429A","title":"浦东大道","lon":"121.51984","lat":"31.24032","category":"38","category_name":"公交车站","address":""},{"poiid":"B2094757D06FA0FA489F","title":"秦皇岛路轮渡站","lon":"121.51639044","lat":"31.249174771","category":"35","category_name":"长途汽车站","address":"上海虹口区秦皇岛路1号"},{"poiid":"B2094757D06FA5FA479F","title":"华夏银行大厦","lon":"121.5152","lat":"31.245346","category":"46","category_name":"楼宇","address":"上海浦东新区浦东南路256号"},{"poiid":"B2094655D26AA0F9409A","title":"地铁浦东大道站","lon":"121.51984","lat":"31.24032","category":"36","category_name":"地铁站","address":""},{"poiid":"B2094757D068A6F8419F","title":"华检医疗体检中心","lon":"121.521036652","lat":"31.2400068656","category":"902","category_name":"楼宇机构","address":"浦东新区浦东大道545号裕景坊2楼(东方路口)"},{"poiid":"B2094757D06FA3FF409B","title":"星巴克(航运金融大厦店)","lon":"121.524694","lat":"31.240575","category":"260","category_name":"其他","address":"浦东新区浦东大道720号国际航运金融大厦1楼(近福山路)"},{"poiid":"B2094757D068A1FA489C","title":"其昌栈渡口","lon":"121.51963307","lat":"31.242515608","category":"500","category_name":"未知分类","address":"上海东方路滨江大道"},{"poiid":"B2094757D065A5FA449E","title":"阿根廷庄园","lon":"121.517910103","lat":"31.2503280024","category":"94","category_name":"西餐厅","address":"杨浦区秦皇岛路32号19幢(近北外滩东码头)"},{"poiid":"B2094654DA69AAFB4798","title":"裕景国际","lon":"121.52645574206","lat":"31.248226919703","category":"46","category_name":"楼宇","address":"东方路69号"},{"poiid":"B2094757D069A2FE4098","title":"慈铭健康体检(浦东大道门诊部)","lon":"121.52276","lat":"31.24064","category":"162","category_name":"医院","address":"浦东新区浦东大道637号同科公寓2楼"},{"poiid":"B2094757D16CABFF429D","title":"雅典皇宫","lon":"121.51895673","lat":"31.242752567","category":"500","category_name":"未知分类","address":"上海浦东新区东方路8号(近浦东大道)  "},{"poiid":"B2094655D36DA2FB459B","title":"大连路隧道","lon":"121.51973","lat":"31.2428","category":"250","category_name":"公园户外","address":"上海市杨浦区大连路-浦东新区东方路"},{"poiid":"B2094757D16DABF9429A","title":"浦江游览","lon":"121.516154","lat":"31.249603","category":"607","category_name":"一般景点","address":"上海秦皇岛"},{"poiid":"B2094757DB69A3F44599","title":"富淳饭店 保利店","lon":"121.5189019","lat":"31.242405","category":"72","category_name":"广东菜","address":"浦东新区东方路18号保利广场E座G楼"},{"poiid":"B2094750D66CABFB4693","title":"Mio Ita","lon":"121.517906","lat":"31.243383","category":"94","category_name":"西餐厅","address":"浦东新区东方路18号保利大厦E栋2楼"},{"poiid":"B2094757D064AAF5409A","title":"浦东陆家嘴图书馆","lon":"121.518913","lat":"31.241753","category":"181","category_name":"图书馆","address":"上海浦东新区东方路38号"},{"poiid":"B2094654DA69A1F54992","title":"金穗大厦","lon":"121.517","lat":"31.245","category":"46","category_name":"楼宇","address":"上海市奉贤区环城东路455,465弄"},{"poiid":"B2094757D06AA4F9459C","title":"豪德万源大酒店","lon":"121.52222823","lat":"31.24150209","category":"217","category_name":"旅馆招待所","address":"浦东新区浦东大道599号(近东方路)"},{"poiid":"B2094757D06AA3FC409B","title":"浦东大道钱仓路","lon":"121.520092738","lat":"31.2396905017","category":"500","category_name":"未知分类","address":"上海浦东大道"},{"poiid":"B2094757D068A5F44392","title":"裕景咖啡厅","lon":"121.52051","lat":"31.2408","category":"268","category_name":"自助","address":"浦东新区浦东大道535号裕景大饭店3楼(近东方路)"},{"poiid":"B2094654DA69A7FB419A","title":"崂山三四村","lon":"121.524","lat":"31.2422","category":"47","category_name":"住宅区","address":"栖霞路76号"},{"poiid":"B2094757D06EAAFB4598","title":"黄浦江畔其昌栈码头","lon":"121.525503","lat":"31.249784","category":"34","category_name":"港口码头","address":"上海东方路1号"},{"poiid":"B2094757D469A5F9409A","title":"松临日本料理 保利广场店","lon":"121.5189019","lat":"31.242405","category":"95","category_name":"日本料理","address":"浦东新区东方路18号保利广场E座2楼(近地铁四号线浦东大道站)"},{"poiid":"B2094757D06EAAFF4993","title":"浦电路地铁站(四号线)","lon":"121.519854","lat":"31.240301","category":"36","category_name":"地铁站","address":"上海轨道交通 四号线 轨交浦东大道站 轻轨 4"},{"poiid":"B2094757D069A7F5479D","title":"豪享来上海福山店","lon":"121.5257","lat":"31.2413","category":"247","category_name":"餐饮美食","address":"上海市浦东大道800号福山分店"},{"poiid":"B2094757D065A4FA419E","title":"大连路杨树浦路","lon":"121.521541103","lat":"31.2529070896","category":"500","category_name":"未知分类","address":"上海杨浦区"},{"poiid":"B2094654DB6BAAFE4298","title":"良丰大厦","lon":"121.525","lat":"31.2489","category":"46","category_name":"楼宇","address":"松江区工业区鼎源路广富林路路口"},{"poiid":"B2094757D16EA4F44799","title":"秦皇岛路水门码头","lon":"121.518441738","lat":"31.2456866296","category":"260","category_name":"其他","address":"杨浦区秦皇岛路32号(近杨树浦路)"},{"poiid":"B2094753D76DA4F8439D","title":"上海电影博物馆","lon":"121.520019","lat":"31.240804","category":"500","category_name":"未知分类","address":"上海市 上海电影制片厂漕溪北路595号"},{"poiid":"B2094654DB64A6F44092","title":"如家快捷酒店(上海陆家嘴店)","lon":"121.52216","lat":"31.24182","category":"216","category_name":"经济型连锁酒店","address":"上海市浦东新区昌邑路569号(近东方路)"},{"poiid":"B2094750DB6EAAF5489D","title":"滨江大道","lon":"121.518669","lat":"31.245016","category":"250","category_name":"公园户外","address":"东方路"},{"poiid":"B2094757D069A3F54193","title":"会元馆","lon":"121.52176","lat":"31.2405","category":"72","category_name":"广东菜","address":"浦东新区浦东大道599号豪德万源大酒店2楼(近东方路)"},{"poiid":"B2094753D76BA0FF4898","title":"伊秀手握寿司","lon":"121.520011","lat":"31.240814","category":"247","category_name":"餐饮美食","address":"上海市 上海市第一食品商店"},{"poiid":"B2094757D165A2FA4492","title":"世纪大道东方路","lon":"121.52246773","lat":"31.239912506","category":"500","category_name":"未知分类","address":"上海浦东"},{"poiid":"B2094757D069A6F8419A","title":"沁源茶楼","lon":"121.52162933","lat":"31.240867614","category":"260","category_name":"其他","address":"浦东新区浦东大道569号(近东方路)"},{"poiid":"B2094654DB69A0F9499C","title":"泰和茶馆","lon":"121.52159","lat":"31.24083","category":"66","category_name":"茶艺馆","address":"浦东新区浦东大道569号"},{"poiid":"B2094752DB69A3FB4999","title":"东方私宴","lon":"121.520776","lat":"31.243821","category":"500","category_name":"未知分类","address":"上海市 上海市滨江大道1658号"},{"poiid":"B2094654DB65AAF9479A","title":"浦东大道275弄","lon":"121.52221491238","lat":"31.245548263134","category":"47","category_name":"住宅区","address":"浦东新区浦东大道275弄"},{"poiid":"B2094757D064AAF84392","title":"东码头","lon":"121.5206998","lat":"31.25262055","category":"500","category_name":"未知分类","address":"上海市杨浦区秦皇岛路32号"},{"poiid":"B2094757D168A5FB449B","title":"上海海洋大学图书馆","lon":"121.523911476","lat":"31.2463700469","category":"181","category_name":"图书馆","address":"上海近郊南汇区临港新城护城环路999号  "},{"poiid":"B2094757D064A5F44198","title":"崂山六村","lon":"121.524","lat":"31.2442","category":"500","category_name":"未知分类","address":"上海浦东大道290弄"},{"poiid":"B2094655D26AABFF4793","title":"上海雅客滨江酒店式服务公寓","lon":"121.52151","lat":"31.2412","category":"250","category_name":"公园户外","address":"浦东新区昌邑路588弄金隆置地大厦内(近东方路)"},{"poiid":"B2094654D56EA5FB449B","title":"上海船厂总部码头","lon":"121.51973","lat":"31.25131","category":"34","category_name":"港口码头","address":""},{"poiid":"B2094757D16CA1FE449B","title":"滨江茗园","lon":"121.52151","lat":"31.242653","category":"247","category_name":"餐饮美食","address":"上海市长宁区延安西路1235弄"},{"poiid":"B2094757D569A3FE4993","title":"天安诚韩国料理","lon":"121.52588677","lat":"31.24044623","category":"96","category_name":"韩国料理","address":"浦东新区浦东大道808号(近福山路)"},{"poiid":"B2094757D065A7FC4892","title":"世博秦皇岛水门","lon":"121.52025604","lat":"31.248537063","category":"500","category_name":"未知分类","address":"上海秦皇岛路"},{"poiid":"B2094654DA69AAFB4799","title":"裕景大饭店","lon":"121.52018","lat":"31.2409","category":"213","category_name":"五星级宾馆","address":"上海市浦东新区浦东大道535号(近东方路)"},{"poiid":"B2094757D06FA3FA4399","title":"海神诺富特大酒店","lon":"121.52459373247143","lat":"31.24026721198827","category":"214","category_name":"四星级宾馆","address":"浦东新区浦东大道728号海神诺富特大酒店5楼(近福山路)"},{"poiid":"B2094655D26FA5F9439B","title":"上海证券大厦","lon":"121.517707","lat":"31.241749","category":"46","category_name":"楼宇","address":"浦东新区浦东南路528号"},{"poiid":"B209475CD564A7F84392","title":"上海滩浦东香格里拉店","lon":"121.50058","lat":"31.23634","category":"119","category_name":"商场","address":"浦东富成路33号香格里拉酒店内大堂层"},{"poiid":"B2094655D36DA6FE429A","title":"浦东大道","lon":"121.51984","lat":"31.24032","category":"38","category_name":"公交车站","address":""},{"poiid":"B2094757D06FA0FA489F","title":"秦皇岛路轮渡站","lon":"121.51639044","lat":"31.249174771","category":"35","category_name":"长途汽车站","address":"上海虹口区秦皇岛路1号"},{"poiid":"B2094757D06FA5FA479F","title":"华夏银行大厦","lon":"121.5152","lat":"31.245346","category":"46","category_name":"楼宇","address":"上海浦东新区浦东南路256号"},{"poiid":"B2094655D26AA0F9409A","title":"地铁浦东大道站","lon":"121.51984","lat":"31.24032","category":"36","category_name":"地铁站","address":""},{"poiid":"B2094757D068A6F8419F","title":"华检医疗体检中心","lon":"121.521036652","lat":"31.2400068656","category":"902","category_name":"楼宇机构","address":"浦东新区浦东大道545号裕景坊2楼(东方路口)"},{"poiid":"B2094757D06FA3FF409B","title":"星巴克(航运金融大厦店)","lon":"121.524694","lat":"31.240575","category":"260","category_name":"其他","address":"浦东新区浦东大道720号国际航运金融大厦1楼(近福山路)"},{"poiid":"B2094757D068A1FA489C","title":"其昌栈渡口","lon":"121.51963307","lat":"31.242515608","category":"500","category_name":"未知分类","address":"上海东方路滨江大道"},{"poiid":"B2094757D065A5FA449E","title":"阿根廷庄园","lon":"121.517910103","lat":"31.2503280024","category":"94","category_name":"西餐厅","address":"杨浦区秦皇岛路32号19幢(近北外滩东码头)"},{"poiid":"B2094654DA69AAFB4798","title":"裕景国际","lon":"121.52645574206","lat":"31.248226919703","category":"46","category_name":"楼宇","address":"东方路69号"},{"poiid":"B2094757D069A2FE4098","title":"慈铭健康体检(浦东大道门诊部)","lon":"121.52276","lat":"31.24064","category":"162","category_name":"医院","address":"浦东新区浦东大道637号同科公寓2楼"},{"poiid":"B2094757D16CABFF429D","title":"雅典皇宫","lon":"121.51895673","lat":"31.242752567","category":"500","category_name":"未知分类","address":"上海浦东新区东方路8号(近浦东大道)  "},{"poiid":"B2094655D36DA2FB459B","title":"大连路隧道","lon":"121.51973","lat":"31.2428","category":"250","category_name":"公园户外","address":"上海市杨浦区大连路-浦东新区东方路"},{"poiid":"B2094757D16DABF9429A","title":"浦江游览","lon":"121.516154","lat":"31.249603","category":"607","category_name":"一般景点","address":"上海秦皇岛"},{"poiid":"B2094757DB69A3F44599","title":"富淳饭店 保利店","lon":"121.5189019","lat":"31.242405","category":"72","category_name":"广东菜","address":"浦东新区东方路18号保利广场E座G楼"},{"poiid":"B2094750D66CABFB4693","title":"Mio Ita","lon":"121.517906","lat":"31.243383","category":"94","category_name":"西餐厅","address":"浦东新区东方路18号保利大厦E栋2楼"},{"poiid":"B2094757D064AAF5409A","title":"浦东陆家嘴图书馆","lon":"121.518913","lat":"31.241753","category":"181","category_name":"图书馆","address":"上海浦东新区东方路38号"},{"poiid":"B2094654DA69A1F54992","title":"金穗大厦","lon":"121.517","lat":"31.245","category":"46","category_name":"楼宇","address":"上海市奉贤区环城东路455,465弄"},{"poiid":"B2094757D06AA4F9459C","title":"豪德万源大酒店","lon":"121.52222823","lat":"31.24150209","category":"217","category_name":"旅馆招待所","address":"浦东新区浦东大道599号(近东方路)"},{"poiid":"B2094757D06AA3FC409B","title":"浦东大道钱仓路","lon":"121.520092738","lat":"31.2396905017","category":"500","category_name":"未知分类","address":"上海浦东大道"},{"poiid":"B2094757D068A5F44392","title":"裕景咖啡厅","lon":"121.52051","lat":"31.2408","category":"268","category_name":"自助","address":"浦东新区浦东大道535号裕景大饭店3楼(近东方路)"},{"poiid":"B2094654DA69A7FB419A","title":"崂山三四村","lon":"121.524","lat":"31.2422","category":"47","category_name":"住宅区","address":"栖霞路76号"},{"poiid":"B2094757D06EAAFB4598","title":"黄浦江畔其昌栈码头","lon":"121.525503","lat":"31.249784","category":"34","category_name":"港口码头","address":"上海东方路1号"},{"poiid":"B2094757D469A5F9409A","title":"松临日本料理 保利广场店","lon":"121.5189019","lat":"31.242405","category":"95","category_name":"日本料理","address":"浦东新区东方路18号保利广场E座2楼(近地铁四号线浦东大道站)"},{"poiid":"B2094757D06EAAFF4993","title":"浦电路地铁站(四号线)","lon":"121.519854","lat":"31.240301","category":"36","category_name":"地铁站","address":"上海轨道交通 四号线 轨交浦东大道站 轻轨 4"},{"poiid":"B2094757D069A7F5479D","title":"豪享来上海福山店","lon":"121.5257","lat":"31.2413","category":"247","category_name":"餐饮美食","address":"上海市浦东大道800号福山分店"},{"poiid":"B2094757D065A4FA419E","title":"大连路杨树浦路","lon":"121.521541103","lat":"31.2529070896","category":"500","category_name":"未知分类","address":"上海杨浦区"},{"poiid":"B2094654DB6BAAFE4298","title":"良丰大厦","lon":"121.525","lat":"31.2489","category":"46","category_name":"楼宇","address":"松江区工业区鼎源路广富林路路口"},{"poiid":"B2094757D16EA4F44799","title":"秦皇岛路水门码头","lon":"121.518441738","lat":"31.2456866296","category":"260","category_name":"其他","address":"杨浦区秦皇岛路32号(近杨树浦路)"},{"poiid":"B2094753D76DA4F8439D","title":"上海电影博物馆","lon":"121.520019","lat":"31.240804","category":"500","category_name":"未知分类","address":"上海市 上海电影制片厂漕溪北路595号"},{"poiid":"B2094654DB64A6F44092","title":"如家快捷酒店(上海陆家嘴店)","lon":"121.52216","lat":"31.24182","category":"216","category_name":"经济型连锁酒店","address":"上海市浦东新区昌邑路569号(近东方路)"},{"poiid":"B2094750DB6EAAF5489D","title":"滨江大道","lon":"121.518669","lat":"31.245016","category":"250","category_name":"公园户外","address":"东方路"},{"poiid":"B2094757D069A3F54193","title":"会元馆","lon":"121.52176","lat":"31.2405","category":"72","category_name":"广东菜","address":"浦东新区浦东大道599号豪德万源大酒店2楼(近东方路)"},{"poiid":"B2094753D76BA0FF4898","title":"伊秀手握寿司","lon":"121.520011","lat":"31.240814","category":"247","category_name":"餐饮美食","address":"上海市 上海市第一食品商店"},{"poiid":"B2094757D165A2FA4492","title":"世纪大道东方路","lon":"121.52246773","lat":"31.239912506","category":"500","category_name":"未知分类","address":"上海浦东"},{"poiid":"B2094757D069A6F8419A","title":"沁源茶楼","lon":"121.52162933","lat":"31.240867614","category":"260","category_name":"其他","address":"浦东新区浦东大道569号(近东方路)"},{"poiid":"B2094654DB69A0F9499C","title":"泰和茶馆","lon":"121.52159","lat":"31.24083","category":"66","category_name":"茶艺馆","address":"浦东新区浦东大道569号"},{"poiid":"B2094752DB69A3FB4999","title":"东方私宴","lon":"121.520776","lat":"31.243821","category":"500","category_name":"未知分类","address":"上海市 上海市滨江大道1658号"},{"poiid":"B2094654DB65AAF9479A","title":"浦东大道275弄","lon":"121.52221491238","lat":"31.245548263134","category":"47","category_name":"住宅区","address":"浦东新区浦东大道275弄"},{"poiid":"B2094757D064AAF84392","title":"东码头","lon":"121.5206998","lat":"31.25262055","category":"500","category_name":"未知分类","address":"上海市杨浦区秦皇岛路32号"},{"poiid":"B2094757D168A5FB449B","title":"上海海洋大学图书馆","lon":"121.523911476","lat":"31.2463700469","category":"181","category_name":"图书馆","address":"上海近郊南汇区临港新城护城环路999号  "},{"poiid":"B2094757D064A5F44198","title":"崂山六村","lon":"121.524","lat":"31.2442","category":"500","category_name":"未知分类","address":"上海浦东大道290弄"},{"poiid":"B2094655D26AABFF4793","title":"上海雅客滨江酒店式服务公寓","lon":"121.52151","lat":"31.2412","category":"250","category_name":"公园户外","address":"浦东新区昌邑路588弄金隆置地大厦内(近东方路)"},{"poiid":"B2094654D56EA5FB449B","title":"上海船厂总部码头","lon":"121.51973","lat":"31.25131","category":"34","category_name":"港口码头","address":""},{"poiid":"B2094757D16CA1FE449B","title":"滨江茗园","lon":"121.52151","lat":"31.242653","category":"247","category_name":"餐饮美食","address":"上海市长宁区延安西路1235弄"},{"poiid":"B2094757D569A3FE4993","title":"天安诚韩国料理","lon":"121.52588677","lat":"31.24044623","category":"96","category_name":"韩国料理","address":"浦东新区浦东大道808号(近福山路)"},{"poiid":"B2094757D065A7FC4892","title":"世博秦皇岛水门","lon":"121.52025604","lat":"31.248537063","category":"500","category_name":"未知分类","address":"上海秦皇岛路"},{"poiid":"B2094654DA69AAFB4799","title":"裕景大饭店","lon":"121.52018","lat":"31.2409","category":"213","category_name":"五星级宾馆","address":"上海市浦东新区浦东大道535号(近东方路)"},{"poiid":"B2094757D06FA3FA4399","title":"海神诺富特大酒店","lon":"121.52459373247143","lat":"31.24026721198827","category":"214","category_name":"四星级宾馆","address":"浦东新区浦东大道728号海神诺富特大酒店5楼(近福山路)"},{"poiid":"B2094655D26FA5F9439B","title":"上海证券大厦","lon":"121.517707","lat":"31.241749","category":"46","category_name":"楼宇","address":"浦东新区浦东南路528号"},{"poiid":"B209475CD564A7F84392","title":"上海滩浦东香格里拉店","lon":"121.50058","lat":"31.23634","category":"119","category_name":"商场","address":"浦东富成路33号香格里拉酒店内大堂层"},{"poiid":"B2094655D36DA6FE429A","title":"浦东大道","lon":"121.51984","lat":"31.24032","category":"38","category_name":"公交车站","address":""},{"poiid":"B2094757D06FA0FA489F","title":"秦皇岛路轮渡站","lon":"121.51639044","lat":"31.249174771","category":"35","category_name":"长途汽车站","address":"上海虹口区秦皇岛路1号"},{"poiid":"B2094757D06FA5FA479F","title":"华夏银行大厦","lon":"121.5152","lat":"31.245346","category":"46","category_name":"楼宇","address":"上海浦东新区浦东南路256号"},{"poiid":"B2094655D26AA0F9409A","title":"地铁浦东大道站","lon":"121.51984","lat":"31.24032","category":"36","category_name":"地铁站","address":""},{"poiid":"B2094757D068A6F8419F","title":"华检医疗体检中心","lon":"121.521036652","lat":"31.2400068656","category":"902","category_name":"楼宇机构","address":"浦东新区浦东大道545号裕景坊2楼(东方路口)"},{"poiid":"B2094757D06FA3FF409B","title":"星巴克(航运金融大厦店)","lon":"121.524694","lat":"31.240575","category":"260","category_name":"其他","address":"浦东新区浦东大道720号国际航运金融大厦1楼(近福山路)"},{"poiid":"B2094757D068A1FA489C","title":"其昌栈渡口","lon":"121.51963307","lat":"31.242515608","category":"500","category_name":"未知分类","address":"上海东方路滨江大道"},{"poiid":"B2094757D065A5FA449E","title":"阿根廷庄园","lon":"121.517910103","lat":"31.2503280024","category":"94","category_name":"西餐厅","address":"杨浦区秦皇岛路32号19幢(近北外滩东码头)"},{"poiid":"B2094654DA69AAFB4798","title":"裕景国际","lon":"121.52645574206","lat":"31.248226919703","category":"46","category_name":"楼宇","address":"东方路69号"},{"poiid":"B2094757D069A2FE4098","title":"慈铭健康体检(浦东大道门诊部)","lon":"121.52276","lat":"31.24064","category":"162","category_name":"医院","address":"浦东新区浦东大道637号同科公寓2楼"},{"poiid":"B2094757D16CABFF429D","title":"雅典皇宫","lon":"121.51895673","lat":"31.242752567","category":"500","category_name":"未知分类","address":"上海浦东新区东方路8号(近浦东大道)  "},{"poiid":"B2094655D36DA2FB459B","title":"大连路隧道","lon":"121.51973","lat":"31.2428","category":"250","category_name":"公园户外","address":"上海市杨浦区大连路-浦东新区东方路"},{"poiid":"B2094757D16DABF9429A","title":"浦江游览","lon":"121.516154","lat":"31.249603","category":"607","category_name":"一般景点","address":"上海秦皇岛"},{"poiid":"B2094757DB69A3F44599","title":"富淳饭店 保利店","lon":"121.5189019","lat":"31.242405","category":"72","category_name":"广东菜","address":"浦东新区东方路18号保利广场E座G楼"},{"poiid":"B2094750D66CABFB4693","title":"Mio Ita","lon":"121.517906","lat":"31.243383","category":"94","category_name":"西餐厅","address":"浦东新区东方路18号保利大厦E栋2楼"},{"poiid":"B2094757D064AAF5409A","title":"浦东陆家嘴图书馆","lon":"121.518913","lat":"31.241753","category":"181","category_name":"图书馆","address":"上海浦东新区东方路38号"},{"poiid":"B2094654DA69A1F54992","title":"金穗大厦","lon":"121.517","lat":"31.245","category":"46","category_name":"楼宇","address":"上海市奉贤区环城东路455,465弄"},{"poiid":"B2094757D06AA4F9459C","title":"豪德万源大酒店","lon":"121.52222823","lat":"31.24150209","category":"217","category_name":"旅馆招待所","address":"浦东新区浦东大道599号(近东方路)"},{"poiid":"B2094757D06AA3FC409B","title":"浦东大道钱仓路","lon":"121.520092738","lat":"31.2396905017","category":"500","category_name":"未知分类","address":"上海浦东大道"},{"poiid":"B2094757D068A5F44392","title":"裕景咖啡厅","lon":"121.52051","lat":"31.2408","category":"268","category_name":"自助","address":"浦东新区浦东大道535号裕景大饭店3楼(近东方路)"},{"poiid":"B2094654DA69A7FB419A","title":"崂山三四村","lon":"121.524","lat":"31.2422","category":"47","category_name":"住宅区","address":"栖霞路76号"},{"poiid":"B2094757D06EAAFB4598","title":"黄浦江畔其昌栈码头","lon":"121.525503","lat":"31.249784","category":"34","category_name":"港口码头","address":"上海东方路1号"},{"poiid":"B2094757D469A5F9409A","title":"松临日本料理 保利广场店","lon":"121.5189019","lat":"31.242405","category":"95","category_name":"日本料理","address":"浦东新区东方路18号保利广场E座2楼(近地铁四号线浦东大道站)"},{"poiid":"B2094757D06EAAFF4993","title":"浦电路地铁站(四号线)","lon":"121.519854","lat":"31.240301","category":"36","category_name":"地铁站","address":"上海轨道交通 四号线 轨交浦东大道站 轻轨 4"},{"poiid":"B2094757D069A7F5479D","title":"豪享来上海福山店","lon":"121.5257","lat":"31.2413","category":"247","category_name":"餐饮美食","address":"上海市浦东大道800号福山分店"},{"poiid":"B2094757D065A4FA419E","title":"大连路杨树浦路","lon":"121.521541103","lat":"31.2529070896","category":"500","category_name":"未知分类","address":"上海杨浦区"},{"poiid":"B2094654DB6BAAFE4298","title":"良丰大厦","lon":"121.525","lat":"31.2489","category":"46","category_name":"楼宇","address":"松江区工业区鼎源路广富林路路口"},{"poiid":"B2094757D16EA4F44799","title":"秦皇岛路水门码头","lon":"121.518441738","lat":"31.2456866296","category":"260","category_name":"其他","address":"杨浦区秦皇岛路32号(近杨树浦路)"},{"poiid":"B2094753D76DA4F8439D","title":"上海电影博物馆","lon":"121.520019","lat":"31.240804","category":"500","category_name":"未知分类","address":"上海市 上海电影制片厂漕溪北路595号"},{"poiid":"B2094654DB64A6F44092","title":"如家快捷酒店(上海陆家嘴店)","lon":"121.52216","lat":"31.24182","category":"216","category_name":"经济型连锁酒店","address":"上海市浦东新区昌邑路569号(近东方路)"},{"poiid":"B2094750DB6EAAF5489D","title":"滨江大道","lon":"121.518669","lat":"31.245016","category":"250","category_name":"公园户外","address":"东方路"},{"poiid":"B2094757D069A3F54193","title":"会元馆","lon":"121.52176","lat":"31.2405","category":"72","category_name":"广东菜","address":"浦东新区浦东大道599号豪德万源大酒店2楼(近东方路)"},{"poiid":"B2094753D76BA0FF4898","title":"伊秀手握寿司","lon":"121.520011","lat":"31.240814","category":"247","category_name":"餐饮美食","address":"上海市 上海市第一食品商店"},{"poiid":"B2094757D165A2FA4492","title":"世纪大道东方路","lon":"121.52246773","lat":"31.239912506","category":"500","category_name":"未知分类","address":"上海浦东"},{"poiid":"B2094757D069A6F8419A","title":"沁源茶楼","lon":"121.52162933","lat":"31.240867614","category":"260","category_name":"其他","address":"浦东新区浦东大道569号(近东方路)"},{"poiid":"B2094654DB69A0F9499C","title":"泰和茶馆","lon":"121.52159","lat":"31.24083","category":"66","category_name":"茶艺馆","address":"浦东新区浦东大道569号"},{"poiid":"B2094752DB69A3FB4999","title":"东方私宴","lon":"121.520776","lat":"31.243821","category":"500","category_name":"未知分类","address":"上海市 上海市滨江大道1658号"},{"poiid":"B2094654DB65AAF9479A","title":"浦东大道275弄","lon":"121.52221491238","lat":"31.245548263134","category":"47","category_name":"住宅区","address":"浦东新区浦东大道275弄"},{"poiid":"B2094757D064AAF84392","title":"东码头","lon":"121.5206998","lat":"31.25262055","category":"500","category_name":"未知分类","address":"上海市杨浦区秦皇岛路32号"},{"poiid":"B2094757D168A5FB449B","title":"上海海洋大学图书馆","lon":"121.523911476","lat":"31.2463700469","category":"181","category_name":"图书馆","address":"上海近郊南汇区临港新城护城环路999号  "},{"poiid":"B2094757D064A5F44198","title":"崂山六村","lon":"121.524","lat":"31.2442","category":"500","category_name":"未知分类","address":"上海浦东大道290弄"},{"poiid":"B2094655D26AABFF4793","title":"上海雅客滨江酒店式服务公寓","lon":"121.52151","lat":"31.2412","category":"250","category_name":"公园户外","address":"浦东新区昌邑路588弄金隆置地大厦内(近东方路)"},{"poiid":"B2094654D56EA5FB449B","title":"上海船厂总部码头","lon":"121.51973","lat":"31.25131","category":"34","category_name":"港口码头","address":""},{"poiid":"B2094757D16CA1FE449B","title":"滨江茗园","lon":"121.52151","lat":"31.242653","category":"247","category_name":"餐饮美食","address":"上海市长宁区延安西路1235弄"},{"poiid":"B2094757D569A3FE4993","title":"天安诚韩国料理","lon":"121.52588677","lat":"31.24044623","category":"96","category_name":"韩国料理","address":"浦东新区浦东大道808号(近福山路)"},{"poiid":"B2094757D065A7FC4892","title":"世博秦皇岛水门","lon":"121.52025604","lat":"31.248537063","category":"500","category_name":"未知分类","address":"上海秦皇岛路"},{"poiid":"B2094654DA69AAFB4799","title":"裕景大饭店","lon":"121.52018","lat":"31.2409","category":"213","category_name":"五星级宾馆","address":"上海市浦东新区浦东大道535号(近东方路)"},{"poiid":"B2094757D06FA3FA4399","title":"海神诺富特大酒店","lon":"121.52459373247143","lat":"31.24026721198827","category":"214","category_name":"四星级宾馆","address":"浦东新区浦东大道728号海神诺富特大酒店5楼(近福山路)"},{"poiid":"B2094655D26FA5F9439B","title":"上海证券大厦","lon":"121.517707","lat":"31.241749","category":"46","category_name":"楼宇","address":"浦东新区浦东南路528号"},{"poiid":"B209475CD564A7F84392","title":"上海滩浦东香格里拉店","lon":"121.50058","lat":"31.23634","category":"119","category_name":"商场","address":"浦东富成路33号香格里拉酒店内大堂层"},{"poiid":"B2094655D36DA6FE429A","title":"浦东大道","lon":"121.51984","lat":"31.24032","category":"38","category_name":"公交车站","address":""},{"poiid":"B2094757D06FA0FA489F","title":"秦皇岛路轮渡站","lon":"121.51639044","lat":"31.249174771","category":"35","category_name":"长途汽车站","address":"上海虹口区秦皇岛路1号"},{"poiid":"B2094757D06FA5FA479F","title":"华夏银行大厦","lon":"121.5152","lat":"31.245346","category":"46","category_name":"楼宇","address":"上海浦东新区浦东南路256号"},{"poiid":"B2094655D26AA0F9409A","title":"地铁浦东大道站","lon":"121.51984","lat":"31.24032","category":"36","category_name":"地铁站","address":""},{"poiid":"B2094757D068A6F8419F","title":"华检医疗体检中心","lon":"121.521036652","lat":"31.2400068656","category":"902","category_name":"楼宇机构","address":"浦东新区浦东大道545号裕景坊2楼(东方路口)"},{"poiid":"B2094757D06FA3FF409B","title":"星巴克(航运金融大厦店)","lon":"121.524694","lat":"31.240575","category":"260","category_name":"其他","address":"浦东新区浦东大道720号国际航运金融大厦1楼(近福山路)"},{"poiid":"B2094757D068A1FA489C","title":"其昌栈渡口","lon":"121.51963307","lat":"31.242515608","category":"500","category_name":"未知分类","address":"上海东方路滨江大道"},{"poiid":"B2094757D065A5FA449E","title":"阿根廷庄园","lon":"121.517910103","lat":"31.2503280024","category":"94","category_name":"西餐厅","address":"杨浦区秦皇岛路32号19幢(近北外滩东码头)"},{"poiid":"B2094654DA69AAFB4798","title":"裕景国际","lon":"121.52645574206","lat":"31.248226919703","category":"46","category_name":"楼宇","address":"东方路69号"},{"poiid":"B2094757D069A2FE4098","title":"慈铭健康体检(浦东大道门诊部)","lon":"121.52276","lat":"31.24064","category":"162","category_name":"医院","address":"浦东新区浦东大道637号同科公寓2楼"},{"poiid":"B2094757D16CABFF429D","title":"雅典皇宫","lon":"121.51895673","lat":"31.242752567","category":"500","category_name":"未知分类","address":"上海浦东新区东方路8号(近浦东大道)  "},{"poiid":"B2094655D36DA2FB459B","title":"大连路隧道","lon":"121.51973","lat":"31.2428","category":"250","category_name":"公园户外","address":"上海市杨浦区大连路-浦东新区东方路"},{"poiid":"B2094757D16DABF9429A","title":"浦江游览","lon":"121.516154","lat":"31.249603","category":"607","category_name":"一般景点","address":"上海秦皇岛"},{"poiid":"B2094757DB69A3F44599","title":"富淳饭店 保利店","lon":"121.5189019","lat":"31.242405","category":"72","category_name":"广东菜","address":"浦东新区东方路18号保利广场E座G楼"},{"poiid":"B2094750D66CABFB4693","title":"Mio Ita","lon":"121.517906","lat":"31.243383","category":"94","category_name":"西餐厅","address":"浦东新区东方路18号保利大厦E栋2楼"},{"poiid":"B2094757D064AAF5409A","title":"浦东陆家嘴图书馆","lon":"121.518913","lat":"31.241753","category":"181","category_name":"图书馆","address":"上海浦东新区东方路38号"},{"poiid":"B2094654DA69A1F54992","title":"金穗大厦","lon":"121.517","lat":"31.245","category":"46","category_name":"楼宇","address":"上海市奉贤区环城东路455,465弄"},{"poiid":"B2094757D06AA4F9459C","title":"豪德万源大酒店","lon":"121.52222823","lat":"31.24150209","category":"217","category_name":"旅馆招待所","address":"浦东新区浦东大道599号(近东方路)"},{"poiid":"B2094757D06AA3FC409B","title":"浦东大道钱仓路","lon":"121.520092738","lat":"31.2396905017","category":"500","category_name":"未知分类","address":"上海浦东大道"},{"poiid":"B2094757D068A5F44392","title":"裕景咖啡厅","lon":"121.52051","lat":"31.2408","category":"268","category_name":"自助","address":"浦东新区浦东大道535号裕景大饭店3楼(近东方路)"},{"poiid":"B2094654DA69A7FB419A","title":"崂山三四村","lon":"121.524","lat":"31.2422","category":"47","category_name":"住宅区","address":"栖霞路76号"},{"poiid":"B2094757D06EAAFB4598","title":"黄浦江畔其昌栈码头","lon":"121.525503","lat":"31.249784","category":"34","category_name":"港口码头","address":"上海东方路1号"},{"poiid":"B2094757D469A5F9409A","title":"松临日本料理 保利广场店","lon":"121.5189019","lat":"31.242405","category":"95","category_name":"日本料理","address":"浦东新区东方路18号保利广场E座2楼(近地铁四号线浦东大道站)"},{"poiid":"B2094757D06EAAFF4993","title":"浦电路地铁站(四号线)","lon":"121.519854","lat":"31.240301","category":"36","category_name":"地铁站","address":"上海轨道交通 四号线 轨交浦东大道站 轻轨 4"},{"poiid":"B2094757D069A7F5479D","title":"豪享来上海福山店","lon":"121.5257","lat":"31.2413","category":"247","category_name":"餐饮美食","address":"上海市浦东大道800号福山分店"},{"poiid":"B2094757D065A4FA419E","title":"大连路杨树浦路","lon":"121.521541103","lat":"31.2529070896","category":"500","category_name":"未知分类","address":"上海杨浦区"},{"poiid":"B2094654DB6BAAFE4298","title":"良丰大厦","lon":"121.525","lat":"31.2489","category":"46","category_name":"楼宇","address":"松江区工业区鼎源路广富林路路口"},{"poiid":"B2094757D16EA4F44799","title":"秦皇岛路水门码头","lon":"121.518441738","lat":"31.2456866296","category":"260","category_name":"其他","address":"杨浦区秦皇岛路32号(近杨树浦路)"},{"poiid":"B2094753D76DA4F8439D","title":"上海电影博物馆","lon":"121.520019","lat":"31.240804","category":"500","category_name":"未知分类","address":"上海市 上海电影制片厂漕溪北路595号"},{"poiid":"B2094654DB64A6F44092","title":"如家快捷酒店(上海陆家嘴店)","lon":"121.52216","lat":"31.24182","category":"216","category_name":"经济型连锁酒店","address":"上海市浦东新区昌邑路569号(近东方路)"},{"poiid":"B2094750DB6EAAF5489D","title":"滨江大道","lon":"121.518669","lat":"31.245016","category":"250","category_name":"公园户外","address":"东方路"},{"poiid":"B2094757D069A3F54193","title":"会元馆","lon":"121.52176","lat":"31.2405","category":"72","category_name":"广东菜","address":"浦东新区浦东大道599号豪德万源大酒店2楼(近东方路)"},{"poiid":"B2094753D76BA0FF4898","title":"伊秀手握寿司","lon":"121.520011","lat":"31.240814","category":"247","category_name":"餐饮美食","address":"上海市 上海市第一食品商店"},{"poiid":"B2094757D165A2FA4492","title":"世纪大道东方路","lon":"121.52246773","lat":"31.239912506","category":"500","category_name":"未知分类","address":"上海浦东"},{"poiid":"B2094757D069A6F8419A","title":"沁源茶楼","lon":"121.52162933","lat":"31.240867614","category":"260","category_name":"其他","address":"浦东新区浦东大道569号(近东方路)"},{"poiid":"B2094654DB69A0F9499C","title":"泰和茶馆","lon":"121.52159","lat":"31.24083","category":"66","category_name":"茶艺馆","address":"浦东新区浦东大道569号"},{"poiid":"B2094752DB69A3FB4999","title":"东方私宴","lon":"121.520776","lat":"31.243821","category":"500","category_name":"未知分类","address":"上海市 上海市滨江大道1658号"},{"poiid":"B2094654DB65AAF9479A","title":"浦东大道275弄","lon":"121.52221491238","lat":"31.245548263134","category":"47","category_name":"住宅区","address":"浦东新区浦东大道275弄"},{"poiid":"B2094757D064AAF84392","title":"东码头","lon":"121.5206998","lat":"31.25262055","category":"500","category_name":"未知分类","address":"上海市杨浦区秦皇岛路32号"},{"poiid":"B2094757D168A5FB449B","title":"上海海洋大学图书馆","lon":"121.523911476","lat":"31.2463700469","category":"181","category_name":"图书馆","address":"上海近郊南汇区临港新城护城环路999号  "},{"poiid":"B2094757D064A5F44198","title":"崂山六村","lon":"121.524","lat":"31.2442","category":"500","category_name":"未知分类","address":"上海浦东大道290弄"},{"poiid":"B2094655D26AABFF4793","title":"上海雅客滨江酒店式服务公寓","lon":"121.52151","lat":"31.2412","category":"250","category_name":"公园户外","address":"浦东新区昌邑路588弄金隆置地大厦内(近东方路)"},{"poiid":"B2094654D56EA5FB449B","title":"上海船厂总部码头","lon":"121.51973","lat":"31.25131","category":"34","category_name":"港口码头","address":""},{"poiid":"B2094757D16CA1FE449B","title":"滨江茗园","lon":"121.52151","lat":"31.242653","category":"247","category_name":"餐饮美食","address":"上海市长宁区延安西路1235弄"},{"poiid":"B2094757D569A3FE4993","title":"天安诚韩国料理","lon":"121.52588677","lat":"31.24044623","category":"96","category_name":"韩国料理","address":"浦东新区浦东大道808号(近福山路)"},{"poiid":"B2094757D065A7FC4892","title":"世博秦皇岛水门","lon":"121.52025604","lat":"31.248537063","category":"500","category_name":"未知分类","address":"上海秦皇岛路"}]