[{"poiid":"B2094757D068A1FD439D","title":"夏阳湖畔","lon":"121.13520813","lat":"31.150871276","category":"47","category_name":"住宅区","address":"上海青浦区"},{"poiid":"B2094757D068A3F9439E","title":"自由港量贩式KTV(青浦店)","lon":"121.12195","lat":"31.14887","category":"170","category_name":"KTV","address":"青浦区公园路258号(浦仓路口)"},{"poiid":"B2094654DB6AA0FE419E","title":"上海市青浦区图书馆","lon":"121.13671","lat":"31.14783","category":"181","category_name":"图书馆","address":"青浦区青龙路60号(华浦南路青龙路)"},{"poiid":"B2094757D664A1F84893","title":"海港一号","lon":"121.132756054","lat":"31.146040793","category":"76","category_name":"上海菜","address":"青浦区华青南路177弄58号(近青湖路)"},{"poiid":"B2094757D16CAAF94199","title":"澳京豆捞","lon":"121.135293671","lat":"31.1478073198","category":"86","category_name":"火锅店","address":"青浦区华青南路800弄1号(近青浦图书馆)"},{"poiid":"B2094655D36CA5FF4392","title":"城中东路保安路","lon":"121.12422","lat":"31.14644","category":"38","category_name":"公交车站","address":""},{"poiid":"B2094757D06BABFF4693","title":"青浦区政府","lon":"121.12415141","lat":"31.15036197","category":"500","category_name":"未知分类","address":"上海公园路100号"},{"poiid":"B2094750D568A0F94392","title":"香港纯Kparyt","lon":"121.126731","lat":"31.146087","category":"170","category_name":"KTV","address":"青浦区青湖路晨兴国际"},{"poiid":"B2094757D16DABF9489C","title":"仁恒运杰河滨花园","lon":"121.136","lat":"31.1474","category":"252","category_name":"楼宇机构","address":"上海市浦东新区锦和路99弄"},{"poiid":"B2094757D06BA0F8409D","title":"巴黎no.88 bar","lon":"121.13347347","lat":"31.146377457","category":"500","category_name":"未知分类","address":"上海青浦区华青南路511号(巴黎之夜楼上)"},{"poiid":"B2094654DA6BA4FF4993","title":"上海工商信息学校","lon":"121.13098","lat":"31.15174","category":"55","category_name":"中学","address":"青浦区公园东路2025号(近青浦区电视台)"},{"poiid":"B2094757D064A7F4409D","title":"蓝山咖啡(青浦店)","lon":"121.1367","lat":"31.14814","category":"65","category_name":"咖啡厅","address":"青浦区华青南路800弄1-3号(华浦南路青龙路)"},{"poiid":"B2094757D06BA3FF479E","title":"仁恒运杰河滨花苑","lon":"121.12885939","lat":"31.140946384","category":"252","category_name":"楼宇机构","address":"上海青浦区外青松公路6999弄"},{"poiid":"B2094757D165A7F54198","title":"青浦教师进修学院","lon":"121.12072706","lat":"31.148430402","category":"253","category_name":"校园生活","address":"上海青浦"},{"poiid":"B2094654DA6BABF94593","title":"运杰城市花园(华青南路)","lon":"121.13467","lat":"31.14449","category":"47","category_name":"住宅区","address":"上海市宝山区聚丰园路303号"},{"poiid":"B2094757D06BA4FA499D","title":"青浦区行政服务中心","lon":"121.12342184","lat":"31.152591323","category":"500","category_name":"未知分类","address":"上海近郊青浦区外青松公路6189号"},{"poiid":"B2094654DA6BABFB459C","title":"夏阳湖国际花园","lon":"121.13573","lat":"31.146868","category":"47","category_name":"住宅区","address":"上海市青浦区青湖路800弄"},{"poiid":"B2094757D068A3F8439C","title":"85度C 青浦店","lon":"121.12089","lat":"31.14898","category":"112","category_name":"糕饼店","address":"青浦区公园路300号农工商超市旁(浦仓路公园路)"},{"poiid":"B2094654DA6BABFA409D","title":"梦丹苑","lon":"121.13171","lat":"31.146254","category":"47","category_name":"住宅区","address":"青湖路4625弄"},{"poiid":"B2094757D06BA4FA489B","title":"迪欧咖啡(青浦店)","lon":"121.12578","lat":"31.14938","category":"65","category_name":"咖啡厅","address":"青浦区公园路99号(公园路外青松公路)"},{"poiid":"B2094752D26FABF84593","title":"巴黎纯K量贩式KTV","lon":"121.134186","lat":"31.146301","category":"170","category_name":"KTV","address":"上海市青浦区华青南路511号"},{"poiid":"B2094655D36DA7F8499B","title":"中山医院青浦分院","lon":"121.13481","lat":"31.15335","category":"38","category_name":"公交车站","address":""},{"poiid":"B2094753D268A0FA4999","title":"上井精致创作料理","lon":"121.130565","lat":"31.146973","category":"247","category_name":"餐饮美食","address":"上海市 运杰城市花园"},{"poiid":"B2094655D36CA2F8419F","title":"青湖路外青松公路","lon":"121.12826","lat":"31.14603","category":"38","category_name":"公交车站","address":""},{"poiid":"B2094655D36CA7F4469E","title":"桂花园青浦","lon":"121.13511898718","lat":"31.151869426536","category":"38","category_name":"公交车站","address":"沪青平公路4555弄"},{"poiid":"B2094654DA6BA0F8429F","title":"晨兴公寓","lon":"121.1284","lat":"31.145359","category":"47","category_name":"住宅区","address":"青湖路997弄"},{"poiid":"B2094757D46AA4F94699","title":"太麻里台湾私房牛肉面馆 青湖店","lon":"121.133558","lat":"31.145971","category":"91","category_name":"台湾菜","address":"青浦区青湖路914号"},{"poiid":"B2094757D568A4FB4998","title":"巴黎之夜","lon":"121.13402018","lat":"31.14663628","category":"170","category_name":"KTV","address":"青浦区华青南路511号(近青湖路)"},{"poiid":"B2094654DA6BA4FB459B","title":"多味坊土菜馆","lon":"121.13249","lat":"31.14557","category":"257","category_name":"中餐厅","address":"青浦区青湖路945号"},{"poiid":"B2094752D165A2FB469D","title":"艾玛咖啡","lon":"121.127899","lat":"31.147671","category":"247","category_name":"餐饮美食","address":"青湖路"},{"poiid":"B2094757D16EAAF94992","title":"鼎萃食坊(桥梓湾店)","lon":"121.12837","lat":"31.1509","category":"247","category_name":"餐饮美食","address":"青浦区公园路666弄11号桥梓湾购物中心广场外圈(聚星街公园路)"},{"poiid":"B2094654DA6BA1F4449F","title":"美代口腔专科门诊部","lon":"121.12827","lat":"31.14581","category":"162","category_name":"医院","address":"青湖路1001"},{"poiid":"B2094757D064A4FE489B","title":"上岛咖啡(青湖路店)","lon":"121.134193571","lat":"31.1456604768","category":"65","category_name":"咖啡厅","address":"青浦区青湖路879号(近华青南路)"},{"poiid":"B2094654DA6BA5FE409C","title":"舜浦大厦","lon":"121.12488","lat":"31.14919","category":"46","category_name":"楼宇","address":"上海青浦区公园路99号"},{"poiid":"B2094751D56CAAFA4992","title":"小阁楼(青湖路店)","lon":"121.13161","lat":"31.14554","category":"71","category_name":"四川菜","address":"青浦区青湖路975号(近外青松公路)"},{"poiid":"B2094751D56CA1F8419F","title":"Ms Chen's Restaurant & Bar","lon":"121.12579","lat":"31.14401","category":"172","category_name":"酒吧","address":"青浦区外青松公路6666弄16号帕缇欧香小区内"},{"poiid":"B2094757D16FA0FE4898","title":"青浦区桂花苑","lon":"121.127376171","lat":"31.1456536766","category":"252","category_name":"楼宇机构","address":"上海青浦区青湖路1070弄"},{"poiid":"B2094757D16EA5FC4493","title":"吉祥馄饨(青湖路店)","lon":"121.1334247","lat":"31.1457509","category":"68","category_name":"快餐厅","address":"青浦区青湖路917号"},{"poiid":"B2094757D169AAF8489C","title":"青浦区社保中心","lon":"121.122893","lat":"31.149602","category":"500","category_name":"未知分类","address":"上海公园路200号"},{"poiid":"B2094757D16FA2F94693","title":"欧洲街","lon":"121.125363","lat":"31.150549","category":"500","category_name":"未知分类","address":"上海青浦区公园路"},{"poiid":"B2094750D565A5F4479B","title":"宝燕海鲜酒楼","lon":"121.13417","lat":"31.146339","category":"247","category_name":"餐饮美食","address":"青浦区华青南路505号(清湖路口)"},{"poiid":"B2094757D16EA3FF4299","title":"青浦区博物馆","lon":"121.133225135","lat":"31.1536129838","category":"179","category_name":"音乐厅","address":"青浦区青浦镇华青南路1000号"},{"poiid":"B2094654DA6BA5FE449C","title":"友谊酒家","lon":"121.12075433399","lat":"31.149022380998","category":"76","category_name":"上海菜","address":"青浦区公园路197号(近外青松公路)"},{"poiid":"B2094753D164AAF84198","title":"上井精致料理","lon":"121.126556","lat":"31.146908","category":"247","category_name":"餐饮美食","address":"上海市 青浦店"},{"poiid":"B2094654DA6BA6FD419B","title":"上海市青浦区科技文化活动中心","lon":"121.12564","lat":"31.15055","category":"248","category_name":"生活娱乐","address":"公园路78-80"},{"poiid":"B2094655D36CA2F8419A","title":"青湖路晨兴公寓","lon":"121.12874","lat":"31.14599","category":"38","category_name":"公交车站","address":""},{"poiid":"B2094757D66DA3F4419E","title":"青浦海关","lon":"121.12633543","lat":"31.149019544","category":"500","category_name":"未知分类","address":"上海青浦区公园路55号"},{"poiid":"B2094654DA6BABF9469C","title":"华骥小区1号门","lon":"121.13148","lat":"31.14469","category":"47","category_name":"住宅区","address":"青浦镇"},{"poiid":"B2094751DA6FA6F9469D","title":"巴黎纯K","lon":"121.126987","lat":"31.148431","category":"500","category_name":"未知分类","address":"青湖路"},{"poiid":"B2094757D16FA5F8429E","title":"金色淡水","lon":"121.131923071","lat":"31.1441594467","category":"68","category_name":"快餐厅","address":"青浦区青峰路71号(新华骥苑对面)"},{"poiid":"B2094757D068A1FD439D","title":"夏阳湖畔","lon":"121.13520813","lat":"31.150871276","category":"47","category_name":"住宅区","address":"上海青浦区"},{"poiid":"B2094757D068A3F9439E","title":"自由港量贩式KTV(青浦店)","lon":"121.12195","lat":"31.14887","category":"170","category_name":"KTV","address":"青浦区公园路258号(浦仓路口)"},{"poiid":"B2094654DB6AA0FE419E","title":"上海市青浦区图书馆","lon":"121.13671","lat":"31.14783","category":"181","category_name":"图书馆","address":"青浦区青龙路60号(华浦南路青龙路)"},{"poiid":"B2094757D664A1F84893","title":"海港一号","lon":"121.132756054","lat":"31.146040793","category":"76","category_name":"上海菜","address":"青浦区华青南路177弄58号(近青湖路)"},{"poiid":"B2094757D16CAAF94199","title":"澳京豆捞","lon":"121.135293671","lat":"31.1478073198","category":"86","category_name":"火锅店","address":"青浦区华青南路800弄1号(近青浦图书馆)"},{"poiid":"B2094655D36CA5FF4392","title":"城中东路保安路","lon":"121.12422","lat":"31.14644","category":"38","category_name":"公交车站","address":""},{"poiid":"B2094757D06BABFF4693","title":"青浦区政府","lon":"121.12415141","lat":"31.15036197","category":"500","category_name":"未知分类","address":"上海公园路100号"},{"poiid":"B2094750D568A0F94392","title":"香港纯Kparyt","lon":"121.126731","lat":"31.146087","category":"170","category_name":"KTV","address":"青浦区青湖路晨兴国际"},{"poiid":"B2094757D16DABF9489C","title":"仁恒运杰河滨花园","lon":"121.136","lat":"31.1474","category":"252","category_name":"楼宇机构","address":"上海市浦东新区锦和路99弄"},{"poiid":"B2094757D06BA0F8409D","title":"巴黎no.88 bar","lon":"121.13347347","lat":"31.146377457","category":"500","category_name":"未知分类","address":"上海青浦区华青南路511号(巴黎之夜楼上)"},{"poiid":"B2094654DA6BA4FF4993","title":"上海工商信息学校","lon":"121.13098","lat":"31.15174","category":"55","category_name":"中学","address":"青浦区公园东路2025号(近青浦区电视台)"},{"poiid":"B2094757D064A7F4409D","title":"蓝山咖啡(青浦店)","lon":"121.1367","lat":"31.14814","category":"65","category_name":"咖啡厅","address":"青浦区华青南路800弄1-3号(华浦南路青龙路)"},{"poiid":"B2094757D06BA3FF479E","title":"仁恒运杰河滨花苑","lon":"121.12885939","lat":"31.140946384","category":"252","category_name":"楼宇机构","address":"上海青浦区外青松公路6999弄"},{"poiid":"B2094757D165A7F54198","title":"青浦教师进修学院","lon":"121.12072706","lat":"31.148430402","category":"253","category_name":"校园生活","address":"上海青浦"},{"poiid":"B2094654DA6BABF94593","title":"运杰城市花园(华青南路)","lon":"121.13467","lat":"31.14449","category":"47","category_name":"住宅区","address":"上海市宝山区聚丰园路303号"},{"poiid":"B2094757D06BA4FA499D","title":"青浦区行政服务中心","lon":"121.12342184","lat":"31.152591323","category":"500","category_name":"未知分类","address":"上海近郊青浦区外青松公路6189号"},{"poiid":"B2094654DA6BABFB459C","title":"夏阳湖国际花园","lon":"121.13573","lat":"31.146868","category":"47","category_name":"住宅区","address":"上海市青浦区青湖路800弄"},{"poiid":"B2094757D068A3F8439C","title":"85度C 青浦店","lon":"121.12089","lat":"31.14898","category":"112","category_name":"糕饼店","address":"青浦区公园路300号农工商超市旁(浦仓路公园路)"},{"poiid":"B2094654DA6BABFA409D","title":"梦丹苑","lon":"121.13171","lat":"31.146254","category":"47","category_name":"住宅区","address":"青湖路4625弄"},{"poiid":"B2094757D06BA4FA489B","title":"迪欧咖啡(青浦店)","lon":"121.12578","lat":"31.14938","category":"65","category_name":"咖啡厅","address":"青浦区公园路99号(公园路外青松公路)"},{"poiid":"B2094752D26FABF84593","title":"巴黎纯K量贩式KTV","lon":"121.134186","lat":"31.146301","category":"170","category_name":"KTV","address":"上海市青浦区华青南路511号"},{"poiid":"B2094655D36DA7F8499B","title":"中山医院青浦分院","lon":"121.13481","lat":"31.15335","category":"38","category_name":"公交车站","address":""},{"poiid":"B2094753D268A0FA4999","title":"上井精致创作料理","lon":"121.130565","lat":"31.146973","category":"247","category_name":"餐饮美食","address":"上海市 运杰城市花园"},{"poiid":"B2094655D36CA2F8419F","title":"青湖路外青松公路","lon":"121.12826","lat":"31.14603","category":"38","category_name":"公交车站","address":""},{"poiid":"B2094655D36CA7F4469E","title":"桂花园青浦","lon":"121.13511898718","lat":"31.151869426536","category":"38","category_name":"公交车站","address":"沪青平公路4555弄"},{"poiid":"B2094654DA6BA0F8429F","title":"晨兴公寓","lon":"121.1284","lat":"31.145359","category":"47","category_name":"住宅区","address":"青湖路997弄"},{"poiid":"B2094757D46AA4F94699","title":"太麻里台湾私房牛肉面馆 青湖店","lon":"121.133558","lat":"31.145971","category":"91","category_name":"台湾菜","address":"青浦区青湖路914号"},{"poiid":"B2094757D568A4FB4998","title":"巴黎之夜","lon":"121.13402018","lat":"31.14663628","category":"170","category_name":"KTV","address":"青浦区华青南路511号(近青湖路)"},{"poiid":"B2094654DA6BA4FB459B","title":"多味坊土菜馆","lon":"121.13249","lat":"31.14557","category":"257","category_name":"中餐厅","address":"青浦区青湖路945号"},{"poiid":"B2094752D165A2FB469D","title":"艾玛咖啡","lon":"121.127899","lat":"31.147671","category":"247","category_name":"餐饮美食","address":"青湖路"},{"poiid":"B2094757D16EAAF94992","title":"鼎萃食坊(桥梓湾店)","lon":"121.12837","lat":"31.1509","category":"247","category_name":"餐饮美食","address":"青浦区公园路666弄11号桥梓湾购物中心广场外圈(聚星街公园路)"},{"poiid":"B2094654DA6BA1F4449F","title":"美代口腔专科门诊部","lon":"121.12827","lat":"31.14581","category":"162","category_name":"医院","address":"青湖路1001"},{"poiid":"B2094757D064A4FE489B","title":"上岛咖啡(青湖路店)","lon":"121.134193571","lat":"31.1456604768","category":"65","category_name":"咖啡厅","address":"青浦区青湖路879号(近华青南路)"},{"poiid":"B2094654DA6BA5FE409C","title":"舜浦大厦","lon":"121.12488","lat":"31.14919","category":"46","category_name":"楼宇","address":"上海青浦区公园路99号"},{"poiid":"B2094751D56CAAFA4992","title":"小阁楼(青湖路店)","lon":"121.13161","lat":"31.14554","category":"71","category_name":"四川菜","address":"青浦区青湖路975号(近外青松公路)"},{"poiid":"B2094751D56CA1F8419F","title":"Ms Chen's Restaurant & Bar","lon":"121.12579","lat":"31.14401","category":"172","category_name":"酒吧","address":"青浦区外青松公路6666弄16号帕缇欧香小区内"},{"poiid":"B2094757D16FA0FE4898","title":"青浦区桂花苑","lon":"121.127376171","lat":"31.1456536766","category":"252","category_name":"楼宇机构","address":"上海青浦区青湖路1070弄"},{"poiid":"B2094757D16EA5FC4493","title":"吉祥馄饨(青湖路店)","lon":"121.1334247","lat":"31.1457509","category":"68","category_name":"快餐厅","address":"青浦区青湖路917号"},{"poiid":"B2094757D169AAF8489C","title":"青浦区社保中心","lon":"121.122893","lat":"31.149602","category":"500","category_name":"未知分类","address":"上海公园路200号"},{"poiid":"B2094757D16FA2F94693","title":"欧洲街","lon":"121.125363","lat":"31.150549","category":"500","category_name":"未知分类","address":"上海青浦区公园路"},{"poiid":"B2094750D565A5F4479B","title":"宝燕海鲜酒楼","lon":"121.13417","lat":"31.146339","category":"247","category_name":"餐饮美食","address":"青浦区华青南路505号(清湖路口)"},{"poiid":"B2094757D16EA3FF4299","title":"青浦区博物馆","lon":"121.133225135","lat":"31.1536129838","category":"179","category_name":"音乐厅","address":"青浦区青浦镇华青南路1000号"},{"poiid":"B2094654DA6BA5FE449C","title":"友谊酒家","lon":"121.12075433399","lat":"31.149022380998","category":"76","category_name":"上海菜","address":"青浦区公园路197号(近外青松公路)"},{"poiid":"B2094753D164AAF84198","title":"上井精致料理","lon":"121.126556","lat":"31.146908","category":"247","category_name":"餐饮美食","address":"上海市 青浦店"},{"poiid":"B2094654DA6BA6FD419B","title":"上海市青浦区科技文化活动中心","lon":"121.12564","lat":"31.15055","category":"248","category_name":"生活娱乐","address":"公园路78-80"},{"poiid":"B2094655D36CA2F8419A","title":"青湖路晨兴公寓","lon":"121.12874","lat":"31.14599","category":"38","category_name":"公交车站","address":""},{"poiid":"B2094757D66DA3F4419E","title":"青浦海关","lon":"121.12633543","lat":"31.149019544","category":"500","category_name":"未知分类","address":"上海青浦区公园路55号"},{"poiid":"B2094654DA6BABF9469C","title":"华骥小区1号门","lon":"121.13148","lat":"31.14469","category":"47","category_name":"住宅区","address":"青浦镇"},{"poiid":"B2094751DA6FA6F9469D","title":"巴黎纯K","lon":"121.126987","lat":"31.148431","category":"500","category_name":"未知分类","address":"青湖路"},{"poiid":"B2094757D16FA5F8429E","title":"金色淡水","lon":"121.131923071","lat":"31.1441594467","category":"68","category_name":"快餐厅","address":"青浦区青峰路71号(新华骥苑对面)"},{"poiid":"B2094757D068A1FD439D","title":"夏阳湖畔","lon":"121.13520813","lat":"31.150871276","category":"47","category_name":"住宅区","address":"上海青浦区"},{"poiid":"B2094757D068A3F9439E","title":"自由港量贩式KTV(青浦店)","lon":"121.12195","lat":"31.14887","category":"170","category_name":"KTV","address":"青浦区公园路258号(浦仓路口)"},{"poiid":"B2094654DB6AA0FE419E","title":"上海市青浦区图书馆","lon":"121.13671","lat":"31.14783","category":"181","category_name":"图书馆","address":"青浦区青龙路60号(华浦南路青龙路)"},{"poiid":"B2094757D664A1F84893","title":"海港一号","lon":"121.132756054","lat":"31.146040793","category":"76","category_name":"上海菜","address":"青浦区华青南路177弄58号(近青湖路)"},{"poiid":"B2094757D16CAAF94199","title":"澳京豆捞","lon":"121.135293671","lat":"31.1478073198","category":"86","category_name":"火锅店","address":"青浦区华青南路800弄1号(近青浦图书馆)"},{"poiid":"B2094655D36CA5FF4392","title":"城中东路保安路","lon":"121.12422","lat":"31.14644","category":"38","category_name":"公交车站","address":""},{"poiid":"B2094757D06BABFF4693","title":"青浦区政府","lon":"121.12415141","lat":"31.15036197","category":"500","category_name":"未知分类","address":"上海公园路100号"},{"poiid":"B2094750D568A0F94392","title":"香港纯Kparyt","lon":"121.126731","lat":"31.146087","category":"170","category_name":"KTV","address":"青浦区青湖路晨兴国际"},{"poiid":"B2094757D16DABF9489C","title":"仁恒运杰河滨花园","lon":"121.136","lat":"31.1474","category":"252","category_name":"楼宇机构","address":"上海市浦东新区锦和路99弄"},{"poiid":"B2094757D06BA0F8409D","title":"巴黎no.88 bar","lon":"121.13347347","lat":"31.146377457","category":"500","category_name":"未知分类","address":"上海青浦区华青南路511号(巴黎之夜楼上)"},{"poiid":"B2094654DA6BA4FF4993","title":"上海工商信息学校","lon":"121.13098","lat":"31.15174","category":"55","category_name":"中学","address":"青浦区公园东路2025号(近青浦区电视台)"},{"poiid":"B2094757D064A7F4409D","title":"蓝山咖啡(青浦店)","lon":"121.1367","lat":"31.14814","category":"65","category_name":"咖啡厅","address":"青浦区华青南路800弄1-3号(华浦南路青龙路)"},{"poiid":"B2094757D06BA3FF479E","title":"仁恒运杰河滨花苑","lon":"121.12885939","lat":"31.140946384","category":"252","category_name":"楼宇机构","address":"上海青浦区外青松公路6999弄"},{"poiid":"B2094757D165A7F54198","title":"青浦教师进修学院","lon":"121.12072706","lat":"31.148430402","category":"253","category_name":"校园生活","address":"上海青浦"},{"poiid":"B2094654DA6BABF94593","title":"运杰城市花园(华青南路)","lon":"121.13467","lat":"31.14449","category":"47","category_name":"住宅区","address":"上海市宝山区聚丰园路303号"},{"poiid":"B2094757D06BA4FA499D","title":"青浦区行政服务中心","lon":"121.12342184","lat":"31.152591323","category":"500","category_name":"未知分类","address":"上海近郊青浦区外青松公路6189号"},{"poiid":"B2094654DA6BABFB459C","title":"夏阳湖国际花园","lon":"121.13573","lat":"31.146868","category":"47","category_name":"住宅区","address":"上海市青浦区青湖路800弄"},{"poiid":"B2094757D068A3F8439C","title":"85度C 青浦店","lon":"121.12089","lat":"31.14898","category":"112","category_name":"糕饼店","address":"青浦区公园路300号农工商超市旁(浦仓路公园路)"},{"poiid":"B2094654DA6BABFA409D","title":"梦丹苑","lon":"121.13171","lat":"31.146254","category":"47","category_name":"住宅区","address":"青湖路4625弄"},{"poiid":"B2094757D06BA4FA489B","title":"迪欧咖啡(青浦店)","lon":"121.12578","lat":"31.14938","category":"65","category_name":"咖啡厅","address":"青浦区公园路99号(公园路外青松公路)"},{"poiid":"B2094752D26FABF84593","title":"巴黎纯K量贩式KTV","lon":"121.134186","lat":"31.146301","category":"170","category_name":"KTV","address":"上海市青浦区华青南路511号"},{"poiid":"B2094655D36DA7F8499B","title":"中山医院青浦分院","lon":"121.13481","lat":"31.15335","category":"38","category_name":"公交车站","address":""},{"poiid":"B2094753D268A0FA4999","title":"上井精致创作料理","lon":"121.130565","lat":"31.146973","category":"247","category_name":"餐饮美食","address":"上海市 运杰城市花园"},{"poiid":"B2094655D36CA2F8419F","title":"青湖路外青松公路","lon":"121.12826","lat":"31.14603","category":"38","category_name":"公交车站","address":""},{"poiid":"B2094655D36CA7F4469E","title":"桂花园青浦","lon":"121.13511898718","lat":"31.151869426536","category":"38","category_name":"公交车站","address":"沪青平公路4555弄"},{"poiid":"B2094654DA6BA0F8429F","title":"晨兴公寓","lon":"121.1284","lat":"31.145359","category":"47","category_name":"住宅区","address":"青湖路997弄"},{"poiid":"B2094757D46AA4F94699","title":"太麻里台湾私房牛肉面馆 青湖店","lon":"121.133558","lat":"31.145971","category":"91","category_name":"台湾菜","address":"青浦区青湖路914号"},{"poiid":"B2094757D568A4FB4998","title":"巴黎之夜","lon":"121.13402018","lat":"31.14663628","category":"170","category_name":"KTV","address":"青浦区华青南路511号(近青湖路)"},{"poiid":"B2094654DA6BA4FB459B","title":"多味坊土菜馆","lon":"121.13249","lat":"31.14557","category":"257","category_name":"中餐厅","address":"青浦区青湖路945号"},{"poiid":"B2094752D165A2FB469D","title":"艾玛咖啡","lon":"121.127899","lat":"31.147671","category":"247","category_name":"餐饮美食","address":"青湖路"},{"poiid":"B2094757D16EAAF94992","title":"鼎萃食坊(桥梓湾店)","lon":"121.12837","lat":"31.1509","category":"247","category_name":"餐饮美食","address":"青浦区公园路666弄11号桥梓湾购物中心广场外圈(聚星街公园路)"},{"poiid":"B2094654DA6BA1F4449F","title":"美代口腔专科门诊部","lon":"121.12827","lat":"31.14581","category":"162","category_name":"医院","address":"青湖路1001"},{"poiid":"B2094757D064A4FE489B","title":"上岛咖啡(青湖路店)","lon":"121.134193571","lat":"31.1456604768","category":"65","category_name":"咖啡厅","address":"青浦区青湖路879号(近华青南路)"},{"poiid":"B2094654DA6BA5FE409C","title":"舜浦大厦","lon":"121.12488","lat":"31.14919","category":"46","category_name":"楼宇","address":"上海青浦区公园路99号"},{"poiid":"B2094751D56CAAFA4992","title":"小阁楼(青湖路店)","lon":"121.13161","lat":"31.14554","category":"71","category_name":"四川菜","address":"青浦区青湖路975号(近外青松公路)"},{"poiid":"B2094751D56CA1F8419F","title":"Ms Chen's Restaurant & Bar","lon":"121.12579","lat":"31.14401","category":"172","category_name":"酒吧","address":"青浦区外青松公路6666弄16号帕缇欧香小区内"},{"poiid":"B2094757D16FA0FE4898","title":"青浦区桂花苑","lon":"121.127376171","lat":"31.1456536766","category":"252","category_name":"楼宇机构","address":"上海青浦区青湖路1070弄"},{"poiid":"B2094757D16EA5FC4493","title":"吉祥馄饨(青湖路店)","lon":"121.1334247","lat":"31.1457509","category":"68","category_name":"快餐厅","address":"青浦区青湖路917号"},{"poiid":"B2094757D169AAF8489C","title":"青浦区社保中心","lon":"121.122893","lat":"31.149602","category":"500","category_name":"未知分类","address":"上海公园路200号"},{"poiid":"B2094757D16FA2F94693","title":"欧洲街","lon":"121.125363","lat":"31.150549","category":"500","category_name":"未知分类","address":"上海青浦区公园路"},{"poiid":"B2094750D565A5F4479B","title":"宝燕海鲜酒楼","lon":"121.13417","lat":"31.146339","category":"247","category_name":"餐饮美食","address":"青浦区华青南路505号(清湖路口)"},{"poiid":"B2094757D16EA3FF4299","title":"青浦区博物馆","lon":"121.133225135","lat":"31.1536129838","category":"179","category_name":"音乐厅","address":"青浦区青浦镇华青南路1000号"},{"poiid":"B2094654DA6BA5FE449C","title":"友谊酒家","lon":"121.12075433399","lat":"31.149022380998","category":"76","category_name":"上海菜","address":"青浦区公园路197号(近外青松公路)"},{"poiid":"B2094753D164AAF84198","title":"上井精致料理","lon":"121.126556","lat":"31.146908","category":"247","category_name":"餐饮美食","address":"上海市 青浦店"},{"poiid":"B2094654DA6BA6FD419B","title":"上海市青浦区科技文化活动中心","lon":"121.12564","lat":"31.15055","category":"248","category_name":"生活娱乐","address":"公园路78-80"},{"poiid":"B2094655D36CA2F8419A","title":"青湖路晨兴公寓","lon":"121.12874","lat":"31.14599","category":"38","category_name":"公交车站","address":""},{"poiid":"B2094757D66DA3F4419E","title":"青浦海关","lon":"121.12633543","lat":"31.149019544","category":"500","category_name":"未知分类","address":"上海青浦区公园路55号"},{"poiid":"B2094654DA6BABF9469C","title":"华骥小区1号门","lon":"121.13148","lat":"31.14469","category":"47","category_name":"住宅区","address":"青浦镇"},{"poiid":"B2094751DA6FA6F9469D","title":"巴黎纯K","lon":"121.126987","lat":"31.148431","category":"500","category_name":"未知分类","address":"青湖路"},{"poiid":"B2094757D16FA5F8429E","title":"金色淡水","lon":"121.131923071","lat":"31.1441594467","category":"68","category_name":"快餐厅","address":"青浦区青峰路71号(新华骥苑对面)"},{"poiid":"B2094757D068A1FD439D","title":"夏阳湖畔","lon":"121.13520813","lat":"31.150871276","category":"47","category_name":"住宅区","address":"上海青浦区"},{"poiid":"B2094757D068A3F9439E","title":"自由港量贩式KTV(青浦店)","lon":"121.12195","lat":"31.14887","category":"170","category_name":"KTV","address":"青浦区公园路258号(浦仓路口)"},{"poiid":"B2094654DB6AA0FE419E","title":"上海市青浦区图书馆","lon":"121.13671","lat":"31.14783","category":"181","category_name":"图书馆","address":"青浦区青龙路60号(华浦南路青龙路)"},{"poiid":"B2094757D664A1F84893","title":"海港一号","lon":"121.132756054","lat":"31.146040793","category":"76","category_name":"上海菜","address":"青浦区华青南路177弄58号(近青湖路)"},{"poiid":"B2094757D16CAAF94199","title":"澳京豆捞","lon":"121.135293671","lat":"31.1478073198","category":"86","category_name":"火锅店","address":"青浦区华青南路800弄1号(近青浦图书馆)"},{"poiid":"B2094655D36CA5FF4392","title":"城中东路保安路","lon":"121.12422","lat":"31.14644","category":"38","category_name":"公交车站","address":""},{"poiid":"B2094757D06BABFF4693","title":"青浦区政府","lon":"121.12415141","lat":"31.15036197","category":"500","category_name":"未知分类","address":"上海公园路100号"},{"poiid":"B2094750D568A0F94392","title":"香港纯Kparyt","lon":"121.126731","lat":"31.146087","category":"170","category_name":"KTV","address":"青浦区青湖路晨兴国际"},{"poiid":"B2094757D16DABF9489C","title":"仁恒运杰河滨花园","lon":"121.136","lat":"31.1474","category":"252","category_name":"楼宇机构","address":"上海市浦东新区锦和路99弄"},{"poiid":"B2094757D06BA0F8409D","title":"巴黎no.88 bar","lon":"121.13347347","lat":"31.146377457","category":"500","category_name":"未知分类","address":"上海青浦区华青南路511号(巴黎之夜楼上)"},{"poiid":"B2094654DA6BA4FF4993","title":"上海工商信息学校","lon":"121.13098","lat":"31.15174","category":"55","category_name":"中学","address":"青浦区公园东路2025号(近青浦区电视台)"},{"poiid":"B2094757D064A7F4409D","title":"蓝山咖啡(青浦店)","lon":"121.1367","lat":"31.14814","category":"65","category_name":"咖啡厅","address":"青浦区华青南路800弄1-3号(华浦南路青龙路)"},{"poiid":"B2094757D06BA3FF479E","title":"仁恒运杰河滨花苑","lon":"121.12885939","lat":"31.140946384","category":"252","category_name":"楼宇机构","address":"上海青浦区外青松公路6999弄"},{"poiid":"B2094757D165A7F54198","title":"青浦教师进修学院","lon":"121.12072706","lat":"31.148430402","category":"253","category_name":"校园生活","address":"上海青浦"},{"poiid":"B2094654DA6BABF94593","title":"运杰城市花园(华青南路)","lon":"121.13467","lat":"31.14449","category":"47","category_name":"住宅区","address":"上海市宝山区聚丰园路303号"},{"poiid":"B2094757D06BA4FA499D","title":"青浦区行政服务中心","lon":"121.12342184","lat":"31.152591323","category":"500","category_name":"未知分类","address":"上海近郊青浦区外青松公路6189号"},{"poiid":"B2094654DA6BABFB459C","title":"夏阳湖国际花园","lon":"121.13573","lat":"31.146868","category":"47","category_name":"住宅区","address":"上海市青浦区青湖路800弄"},{"poiid":"B2094757D068A3F8439C","title":"85度C 青浦店","lon":"121.12089","lat":"31.14898","category":"112","category_name":"糕饼店","address":"青浦区公园路300号农工商超市旁(浦仓路公园路)"},{"poiid":"B2094654DA6BABFA409D","title":"梦丹苑","lon":"121.13171","lat":"31.146254","category":"47","category_name":"住宅区","address":"青湖路4625弄"},{"poiid":"B2094757D06BA4FA489B","title":"迪欧咖啡(青浦店)","lon":"121.12578","lat":"31.14938","category":"65","category_name":"咖啡厅","address":"青浦区公园路99号(公园路外青松公路)"},{"poiid":"B2094752D26FABF84593","title":"巴黎纯K量贩式KTV","lon":"121.134186","lat":"31.146301","category":"170","category_name":"KTV","address":"上海市青浦区华青南路511号"},{"poiid":"B2094655D36DA7F8499B","title":"中山医院青浦分院","lon":"121.13481","lat":"31.15335","category":"38","category_name":"公交车站","address":""},{"poiid":"B2094753D268A0FA4999","title":"上井精致创作料理","lon":"121.130565","lat":"31.146973","category":"247","category_name":"餐饮美食","address":"上海市 运杰城市花园"},{"poiid":"B2094655D36CA2F8419F","title":"青湖路外青松公路","lon":"121.12826","lat":"31.14603","category":"38","category_name":"公交车站","address":""},{"poiid":"B2094655D36CA7F4469E","title":"桂花园青浦","lon":"121.13511898718","lat":"31.151869426536","category":"38","category_name":"公交车站","address":"沪青平公路4555弄"},{"poiid":"B2094654DA6BA0F8429F","title":"晨兴公寓","lon":"121.1284","lat":"31.145359","category":"47","category_name":"住宅区","address":"青湖路997弄"},{"poiid":"B2094757D46AA4F94699","title":"太麻里台湾私房牛肉面馆 青湖店","lon":"121.133558","lat":"31.145971","category":"91","category_name":"台湾菜","address":"青浦区青湖路914号"},{"poiid":"B2094757D568A4FB4998","title":"巴黎之夜","lon":"121.13402018","lat":"31.14663628","category":"170","category_name":"KTV","address":"青浦区华青南路511号(近青湖路)"},{"poiid":"B2094654DA6BA4FB459B","title":"多味坊土菜馆","lon":"121.13249","lat":"31.14557","category":"257","category_name":"中餐厅","address":"青浦区青湖路945号"},{"poiid":"B2094752D165A2FB469D","title":"艾玛咖啡","lon":"121.127899","lat":"31.147671","category":"247","category_name":"餐饮美食","address":"青湖路"},{"poiid":"B2094757D16EAAF94992","title":"鼎萃食坊(桥梓湾店)","lon":"121.12837","lat":"31.1509","category":"247","category_name":"餐饮美食","address":"青浦区公园路666弄11号桥梓湾购物中心广场外圈(聚星街公园路)"},{"poiid":"B2094654DA6BA1F4449F","title":"美代口腔专科门诊部","lon":"121.12827","lat":"31.14581","category":"162","category_name":"医院","address":"青湖路1001"},{"poiid":"B2094757D064A4FE489B","title":"上岛咖啡(青湖路店)","lon":"121.134193571","lat":"31.1456604768","category":"65","category_name":"咖啡厅","address":"青浦区青湖路879号(近华青南路)"},{"poiid":"B2094654DA6BA5FE409C","title":"舜浦大厦","lon":"121.12488","lat":"31.14919","category":"46","category_name":"楼宇","address":"上海青浦区公园路99号"},{"poiid":"B2094751D56CAAFA4992","title":"小阁楼(青湖路店)","lon":"121.13161","lat":"31.14554","category":"71","category_name":"四川菜","address":"青浦区青湖路975号(近外青松公路)"},{"poiid":"B2094751D56CA1F8419F","title":"Ms Chen's Restaurant & Bar","lon":"121.12579","lat":"31.14401","category":"172","category_name":"酒吧","address":"青浦区外青松公路6666弄16号帕缇欧香小区内"},{"poiid":"B2094757D16FA0FE4898","title":"青浦区桂花苑","lon":"121.127376171","lat":"31.1456536766","category":"252","category_name":"楼宇机构","address":"上海青浦区青湖路1070弄"},{"poiid":"B2094757D16EA5FC4493","title":"吉祥馄饨(青湖路店)","lon":"121.1334247","lat":"31.1457509","category":"68","category_name":"快餐厅","address":"青浦区青湖路917号"},{"poiid":"B2094757D169AAF8489C","title":"青浦区社保中心","lon":"121.122893","lat":"31.149602","category":"500","category_name":"未知分类","address":"上海公园路200号"},{"poiid":"B2094757D16FA2F94693","title":"欧洲街","lon":"121.125363","lat":"31.150549","category":"500","category_name":"未知分类","address":"上海青浦区公园路"},{"poiid":"B2094750D565A5F4479B","title":"宝燕海鲜酒楼","lon":"121.13417","lat":"31.146339","category":"247","category_name":"餐饮美食","address":"青浦区华青南路505号(清湖路口)"},{"poiid":"B2094757D16EA3FF4299","title":"青浦区博物馆","lon":"121.133225135","lat":"31.1536129838","category":"179","category_name":"音乐厅","address":"青浦区青浦镇华青南路1000号"},{"poiid":"B2094654DA6BA5FE449C","title":"友谊酒家","lon":"121.12075433399","lat":"31.149022380998","category":"76","category_name":"上海菜","address":"青浦区公园路197号(近外青松公路)"},{"poiid":"B2094753D164AAF84198","title":"上井精致料理","lon":"121.126556","lat":"31.146908","category":"247","category_name":"餐饮美食","address":"上海市 青浦店"},{"poiid":"B2094654DA6BA6FD419B","title":"上海市青浦区科技文化活动中心","lon":"121.12564","lat":"31.15055","category":"248","category_name":"生活娱乐","address":"公园路78-80"},{"poiid":"B2094655D36CA2F8419A","title":"青湖路晨兴公寓","lon":"121.12874","lat":"31.14599","category":"38","category_name":"公交车站","address":""},{"poiid":"B2094757D66DA3F4419E","title":"青浦海关","lon":"121.12633543","lat":"31.149019544","category":"500","category_name":"未知分类","address":"上海青浦区公园路55号"},{"poiid":"B2094654DA6BABF9469C","title":"华骥小区1号门","lon":"121.13148","lat":"31.14469","category":"47","category_name":"住宅区","address":"青浦镇"},{"poiid":"B2094751DA6FA6F9469D","title":"巴黎纯K","lon":"121.126987","lat":"31.148431","category":"500","category_name":"未知分类","address":"青湖路"},{"poiid":"B2094757D16FA5F8429E","title":"金色淡水","lon":"121.131923071","lat":"31.1441594467","category":"68","category_name":"快餐厅","address":"青浦区青峰路71号(新华骥苑对面)"}]