[{"poiid":"B2094757D06EAAF4439A","title":"全聚德 闸北店","lon":"121.4503227965","lat":"31.245534803561","category":"260","category_name":"其他","address":"闸北区天目西路547号联通国际大厦内(近长安路)"},{"poiid":"B2094757D06EAAFA479C","title":"浦西洲际酒店","lon":"121.45369052","lat":"31.244797228","category":"217","category_name":"旅馆招待所","address":"上海市闸北区恒丰路500号(上海火车站近天目西路)"},{"poiid":"B2094655D26AABFD4092","title":"M50创意园(莫干山路)","lon":"121.44866","lat":"31.24753","category":"247","category_name":"餐饮美食","address":"普陀区莫干山路50号M50创意园区内(近澳门路)"},{"poiid":"B209475CD564A7F8439E","title":"上海滩中信泰富店","lon":"121.45602","lat":"31.22851","category":"119","category_name":"商场","address":"\"南京西路1168号中信泰富广场，店铺号221.\r\n\""},{"poiid":"B2094757D66DA4FA4198","title":"星巴克 STARBUCKS(恒汇国际店)","lon":"121.452896886","lat":"31.2460654409","category":"65","category_name":"咖啡厅","address":"闸北区天目西路437号恒汇国际大厦1楼(近恒丰路)"},{"poiid":"B2094757D06FA3FB489F","title":"恒汇国际大厦","lon":"121.45268046","lat":"31.246137006","category":"46","category_name":"楼宇","address":"黄浦中山南路、复兴路口"},{"poiid":"B2094655D26EA2F9439C","title":"上海广场长城假日酒店","lon":"121.45368","lat":"31.24693","category":"214","category_name":"四星级宾馆","address":"上海市闸北区恒丰路585号(天目西路口)"},{"poiid":"B2094757D06FA2FB409A","title":"联通国际大厦","lon":"121.449743","lat":"31.246076","category":"46","category_name":"楼宇","address":"上海市闸北区天目西路547号"},{"poiid":"B2094757D06FA6F5499F","title":"江南村","lon":"121.45173645","lat":"31.24502182","category":"500","category_name":"未知分类","address":"上海闸北区长安路1033号3楼"},{"poiid":"B2094757D06FABF94899","title":"宝矿洲际商务中心","lon":"121.453241726","lat":"31.2444672929","category":"46","category_name":"楼宇","address":"上海闸北区裕通路100号(恒丰路500号)"},{"poiid":"B2094757D56DA0F84492","title":"天目西路营业厅","lon":"121.451435","lat":"31.245592","category":"151","category_name":"电讯营业厅","address":"闸北区天目西路547号"},{"poiid":"B2094757D06FAAF84992","title":"美上海餐厅","lon":"121.452622997","lat":"31.2453309489","category":"76","category_name":"上海菜","address":"闸北区天目西路477号恒汇国际大厦(近恒丰路)"},{"poiid":"B2094757D569A7F4419F","title":"江南邨酒家","lon":"121.4517361","lat":"31.24502694","category":"70","category_name":"综合酒楼","address":"长安路1033号长安大厦3层"},{"poiid":"B2094757D06FA5F5479E","title":"星巴克 STARBUCKS (洲际中心店)","lon":"121.4535958","lat":"31.2438824","category":"260","category_name":"其他","address":"闸北区裕通路100号宝矿洲际商务中心1楼(近火车站)"},{"poiid":"B2094757D56DA6F5479A","title":"环智国际大厦","lon":"121.45422220230103","lat":"31.244507776936864","category":"252","category_name":"楼宇机构","address":"上海,上海市,恒丰路436号"},{"poiid":"B2094757D165A3F8439B","title":"地铁一号线上海火车站","lon":"121.448891886","lat":"31.2422573664","category":"36","category_name":"地铁站","address":"上海轨道交通一号线上海火车站"},{"poiid":"B2094757D66DA2F54998","title":"苏河一号","lon":"121.45146058","lat":"31.247447768","category":"500","category_name":"未知分类","address":"上海市普陀区莫干山路"},{"poiid":"B2094751D36FA3FC4792","title":"雍记大酒店(恒丰店)","lon":"121.45266","lat":"31.24672","category":"72","category_name":"广东菜","address":"闸北区恒丰路600号机电大厦1-2楼(近上海火车站)"},{"poiid":"B2094757D06FA5F4419D","title":"大奥通讯商城","lon":"121.45099","lat":"31.24547","category":"138","category_name":"家电电子卖场","address":"闸北区天目西路547号联通国际大厦内(近长安路)"},{"poiid":"B2094750D66DA4FD489D","title":"Singa星歌KTV","lon":"121.450927","lat":"31.24785","category":"170","category_name":"KTV","address":"恒丰路666号，靠近长安路"},{"poiid":"B2094654DA6CA5FA409F","title":"静安河滨花园","lon":"121.45119","lat":"31.241392","category":"47","category_name":"住宅区","address":"上海市闸北区汉中路333弄"},{"poiid":"B2094757D069AAFF419C","title":"上海不夜城广场","lon":"121.45133","lat":"31.24552","category":"249","category_name":"购物服务","address":"闸北区天目西路547号联通国际大厦内(近长安路)"},{"poiid":"B2094654DB69A4FE429D","title":"莫泰168连锁旅店(火车站店)","lon":"121.45201","lat":"31.24631","category":"216","category_name":"经济型连锁酒店","address":"闸北区长安路1105号(近天目西路)"},{"poiid":"B2094757D06AABFD419C","title":"浦西洲际大酒店ECCO自助餐厅","lon":"121.45437","lat":"31.24532","category":"268","category_name":"自助","address":"闸北区恒丰路500号浦西洲际酒店1楼(近上海火车站)"},{"poiid":"B2094757D069A0FB4093","title":"上岛咖啡(长安路店)","lon":"121.45176598","lat":"31.245837036","category":"260","category_name":"其他","address":"闸北区天目西路488号长安大厦内"},{"poiid":"B2094757D464AAF4479B","title":"蓝与白 闸北店","lon":"121.450824054","lat":"31.245202793","category":"68","category_name":"快餐厅","address":"闸北区天目西路511号锦程大厦内(近长安路)"},{"poiid":"B2094757D069A4F44199","title":"联通天目西路营业厅","lon":"121.45106","lat":"31.245792","category":"138","category_name":"家电电子卖场","address":"上海闸北区天目西路547号"},{"poiid":"B2094757D068A2FB4192","title":"天目西路恒丰路天桥","lon":"121.450901","lat":"31.245653","category":"500","category_name":"未知分类","address":"上海闸北区天目西路恒丰路"},{"poiid":"B2094751D064A7FF439A","title":"青藤宠物医院（静安区）","lon":"121.450928","lat":"31.244598","category":"162","category_name":"医院","address":"昌化路567号"},{"poiid":"B2094655D26CAAFD499E","title":"安源小区","lon":"121.45122","lat":"31.24479","category":"47","category_name":"住宅区","address":"长安路1050弄"},{"poiid":"B2094757D66BA6F94298","title":"老好阁汤面馆","lon":"121.45169510662","lat":"31.245099579204","category":"68","category_name":"快餐厅","address":"闸北区天目西路448号(恒丰路口)"},{"poiid":"B2094750D76FA4F9429E","title":"健康煮(恒汇店)","lon":"121.453","lat":"31.2459","category":"86","category_name":"火锅店","address":"闸北区天目西路429号恒汇国际202室(近恒丰路)"},{"poiid":"B2094654DB69A5FE419A","title":"肯德基(恒丰店)","lon":"121.45371","lat":"31.24669","category":"68","category_name":"快餐厅","address":"闸北区天目西路311号(近恒丰路)"},{"poiid":"B2094655D26CAAFD4598","title":"不夜城金融大厦","lon":"121.45138","lat":"31.245","category":"46","category_name":"楼宇","address":""},{"poiid":"B2094654D565AAF8439A","title":"康海大楼","lon":"121.45041302455","lat":"31.244337975789","category":"47","category_name":"住宅区","address":"西康路838号"},{"poiid":"B2094654DB6BA5FD409A","title":"喜士多便利连锁","lon":"121.45108","lat":"31.24519","category":"117","category_name":"便民商店/便利店","address":"天目西路550甲"},{"poiid":"B2094757D164ABF94992","title":"天蜀阁","lon":"121.452382","lat":"31.245173","category":"71","category_name":"四川菜","address":"闸北区恒丰路500号浦西洲际酒店3楼(近裕通路)"},{"poiid":"B2094757D06AA5FD499B","title":"兴业银行(闸北支行)","lon":"121.45089","lat":"31.24483","category":"150","category_name":"银行","address":"闸北区天目西路500号(长寿路天目西路)"},{"poiid":"B2094757D169A0FE419D","title":"焊点1088公社","lon":"121.451264","lat":"31.246948","category":"500","category_name":"未知分类","address":"闸北区长安路1088号(近天目西路)"},{"poiid":"B2094655D26DA7FC479E","title":"安源小区(东门)","lon":"121.45145","lat":"31.2449","category":"47","category_name":"住宅区","address":""},{"poiid":"B2094654DA6CA7F84098","title":"不夜城都市工业园","lon":"121.45118","lat":"31.24772","category":"45","category_name":"产业园区","address":"上海闸北区恒丰路610号"},{"poiid":"B2094757D068ABFF479F","title":"全家便利(长安店)","lon":"121.45199","lat":"31.24609","category":"117","category_name":"便民商店/便利店","address":"上海闸北区天目西路511号(近长安路)"},{"poiid":"B2094655D26AABFA499A","title":"M50艺术产业园","lon":"121.44866","lat":"31.24753","category":"248","category_name":"生活娱乐","address":"普陀区莫干山路50号"},{"poiid":"B2094654DA6CA5F84299","title":"台球俱乐部","lon":"121.45138","lat":"31.24516","category":"171","category_name":"台球厅","address":""},{"poiid":"B2094655D26AA7FD4493","title":"七号影棚","lon":"121.45012","lat":"31.24571","category":"247","category_name":"餐饮美食","address":"闸北区天目西路547号逸升阁9楼906室(近长安路)查看地图"},{"poiid":"B2094654DA6CA7FF4592","title":"中房华东大厦","lon":"121.45095","lat":"31.24722","category":"46","category_name":"楼宇","address":"上海闸北区长安路1138号"},{"poiid":"B2094757D169AAFB459D","title":"原平路","lon":"121.450488","lat":"31.244972","category":"500","category_name":"未知分类","address":"上海原平路教师公寓"},{"poiid":"B2094654DA6CA5F8429C","title":"东方网点网吧文化花园店","lon":"121.45138","lat":"31.24509","category":"176","category_name":"网吧","address":"天目西路500号3层"},{"poiid":"B2094654DB6AA3FB489D","title":"广场长城假日酒店大堂吧","lon":"121.454153054","lat":"31.245983793","category":"67","category_name":"甜品店","address":"上海闸北区天目西路285号(近民立路)  "},{"poiid":"B2094655D36CA2FD459E","title":"上海新凌通信科技有限公司","lon":"121.45223","lat":"31.24517","category":"138","category_name":"家电电子卖场","address":"天目西路488号长安大厦1号楼2层"},{"poiid":"B2094757D06EAAF4439A","title":"全聚德 闸北店","lon":"121.4503227965","lat":"31.245534803561","category":"260","category_name":"其他","address":"闸北区天目西路547号联通国际大厦内(近长安路)"},{"poiid":"B2094757D06EAAFA479C","title":"浦西洲际酒店","lon":"121.45369052","lat":"31.244797228","category":"217","category_name":"旅馆招待所","address":"上海市闸北区恒丰路500号(上海火车站近天目西路)"},{"poiid":"B2094655D26AABFD4092","title":"M50创意园(莫干山路)","lon":"121.44866","lat":"31.24753","category":"247","category_name":"餐饮美食","address":"普陀区莫干山路50号M50创意园区内(近澳门路)"},{"poiid":"B209475CD564A7F8439E","title":"上海滩中信泰富店","lon":"121.45602","lat":"31.22851","category":"119","category_name":"商场","address":"\"南京西路1168号中信泰富广场，店铺号221.\r\n\""},{"poiid":"B2094757D66DA4FA4198","title":"星巴克 STARBUCKS(恒汇国际店)","lon":"121.452896886","lat":"31.2460654409","category":"65","category_name":"咖啡厅","address":"闸北区天目西路437号恒汇国际大厦1楼(近恒丰路)"},{"poiid":"B2094757D06FA3FB489F","title":"恒汇国际大厦","lon":"121.45268046","lat":"31.246137006","category":"46","category_name":"楼宇","address":"黄浦中山南路、复兴路口"},{"poiid":"B2094655D26EA2F9439C","title":"上海广场长城假日酒店","lon":"121.45368","lat":"31.24693","category":"214","category_name":"四星级宾馆","address":"上海市闸北区恒丰路585号(天目西路口)"},{"poiid":"B2094757D06FA2FB409A","title":"联通国际大厦","lon":"121.449743","lat":"31.246076","category":"46","category_name":"楼宇","address":"上海市闸北区天目西路547号"},{"poiid":"B2094757D06FA6F5499F","title":"江南村","lon":"121.45173645","lat":"31.24502182","category":"500","category_name":"未知分类","address":"上海闸北区长安路1033号3楼"},{"poiid":"B2094757D06FABF94899","title":"宝矿洲际商务中心","lon":"121.453241726","lat":"31.2444672929","category":"46","category_name":"楼宇","address":"上海闸北区裕通路100号(恒丰路500号)"},{"poiid":"B2094757D56DA0F84492","title":"天目西路营业厅","lon":"121.451435","lat":"31.245592","category":"151","category_name":"电讯营业厅","address":"闸北区天目西路547号"},{"poiid":"B2094757D06FAAF84992","title":"美上海餐厅","lon":"121.452622997","lat":"31.2453309489","category":"76","category_name":"上海菜","address":"闸北区天目西路477号恒汇国际大厦(近恒丰路)"},{"poiid":"B2094757D569A7F4419F","title":"江南邨酒家","lon":"121.4517361","lat":"31.24502694","category":"70","category_name":"综合酒楼","address":"长安路1033号长安大厦3层"},{"poiid":"B2094757D06FA5F5479E","title":"星巴克 STARBUCKS (洲际中心店)","lon":"121.4535958","lat":"31.2438824","category":"260","category_name":"其他","address":"闸北区裕通路100号宝矿洲际商务中心1楼(近火车站)"},{"poiid":"B2094757D56DA6F5479A","title":"环智国际大厦","lon":"121.45422220230103","lat":"31.244507776936864","category":"252","category_name":"楼宇机构","address":"上海,上海市,恒丰路436号"},{"poiid":"B2094757D165A3F8439B","title":"地铁一号线上海火车站","lon":"121.448891886","lat":"31.2422573664","category":"36","category_name":"地铁站","address":"上海轨道交通一号线上海火车站"},{"poiid":"B2094757D66DA2F54998","title":"苏河一号","lon":"121.45146058","lat":"31.247447768","category":"500","category_name":"未知分类","address":"上海市普陀区莫干山路"},{"poiid":"B2094751D36FA3FC4792","title":"雍记大酒店(恒丰店)","lon":"121.45266","lat":"31.24672","category":"72","category_name":"广东菜","address":"闸北区恒丰路600号机电大厦1-2楼(近上海火车站)"},{"poiid":"B2094757D06FA5F4419D","title":"大奥通讯商城","lon":"121.45099","lat":"31.24547","category":"138","category_name":"家电电子卖场","address":"闸北区天目西路547号联通国际大厦内(近长安路)"},{"poiid":"B2094750D66DA4FD489D","title":"Singa星歌KTV","lon":"121.450927","lat":"31.24785","category":"170","category_name":"KTV","address":"恒丰路666号，靠近长安路"},{"poiid":"B2094654DA6CA5FA409F","title":"静安河滨花园","lon":"121.45119","lat":"31.241392","category":"47","category_name":"住宅区","address":"上海市闸北区汉中路333弄"},{"poiid":"B2094757D069AAFF419C","title":"上海不夜城广场","lon":"121.45133","lat":"31.24552","category":"249","category_name":"购物服务","address":"闸北区天目西路547号联通国际大厦内(近长安路)"},{"poiid":"B2094654DB69A4FE429D","title":"莫泰168连锁旅店(火车站店)","lon":"121.45201","lat":"31.24631","category":"216","category_name":"经济型连锁酒店","address":"闸北区长安路1105号(近天目西路)"},{"poiid":"B2094757D06AABFD419C","title":"浦西洲际大酒店ECCO自助餐厅","lon":"121.45437","lat":"31.24532","category":"268","category_name":"自助","address":"闸北区恒丰路500号浦西洲际酒店1楼(近上海火车站)"},{"poiid":"B2094757D069A0FB4093","title":"上岛咖啡(长安路店)","lon":"121.45176598","lat":"31.245837036","category":"260","category_name":"其他","address":"闸北区天目西路488号长安大厦内"},{"poiid":"B2094757D464AAF4479B","title":"蓝与白 闸北店","lon":"121.450824054","lat":"31.245202793","category":"68","category_name":"快餐厅","address":"闸北区天目西路511号锦程大厦内(近长安路)"},{"poiid":"B2094757D069A4F44199","title":"联通天目西路营业厅","lon":"121.45106","lat":"31.245792","category":"138","category_name":"家电电子卖场","address":"上海闸北区天目西路547号"},{"poiid":"B2094757D068A2FB4192","title":"天目西路恒丰路天桥","lon":"121.450901","lat":"31.245653","category":"500","category_name":"未知分类","address":"上海闸北区天目西路恒丰路"},{"poiid":"B2094751D064A7FF439A","title":"青藤宠物医院（静安区）","lon":"121.450928","lat":"31.244598","category":"162","category_name":"医院","address":"昌化路567号"},{"poiid":"B2094655D26CAAFD499E","title":"安源小区","lon":"121.45122","lat":"31.24479","category":"47","category_name":"住宅区","address":"长安路1050弄"},{"poiid":"B2094757D66BA6F94298","title":"老好阁汤面馆","lon":"121.45169510662","lat":"31.245099579204","category":"68","category_name":"快餐厅","address":"闸北区天目西路448号(恒丰路口)"},{"poiid":"B2094750D76FA4F9429E","title":"健康煮(恒汇店)","lon":"121.453","lat":"31.2459","category":"86","category_name":"火锅店","address":"闸北区天目西路429号恒汇国际202室(近恒丰路)"},{"poiid":"B2094654DB69A5FE419A","title":"肯德基(恒丰店)","lon":"121.45371","lat":"31.24669","category":"68","category_name":"快餐厅","address":"闸北区天目西路311号(近恒丰路)"},{"poiid":"B2094655D26CAAFD4598","title":"不夜城金融大厦","lon":"121.45138","lat":"31.245","category":"46","category_name":"楼宇","address":""},{"poiid":"B2094654D565AAF8439A","title":"康海大楼","lon":"121.45041302455","lat":"31.244337975789","category":"47","category_name":"住宅区","address":"西康路838号"},{"poiid":"B2094654DB6BA5FD409A","title":"喜士多便利连锁","lon":"121.45108","lat":"31.24519","category":"117","category_name":"便民商店/便利店","address":"天目西路550甲"},{"poiid":"B2094757D164ABF94992","title":"天蜀阁","lon":"121.452382","lat":"31.245173","category":"71","category_name":"四川菜","address":"闸北区恒丰路500号浦西洲际酒店3楼(近裕通路)"},{"poiid":"B2094757D06AA5FD499B","title":"兴业银行(闸北支行)","lon":"121.45089","lat":"31.24483","category":"150","category_name":"银行","address":"闸北区天目西路500号(长寿路天目西路)"},{"poiid":"B2094757D169A0FE419D","title":"焊点1088公社","lon":"121.451264","lat":"31.246948","category":"500","category_name":"未知分类","address":"闸北区长安路1088号(近天目西路)"},{"poiid":"B2094655D26DA7FC479E","title":"安源小区(东门)","lon":"121.45145","lat":"31.2449","category":"47","category_name":"住宅区","address":""},{"poiid":"B2094654DA6CA7F84098","title":"不夜城都市工业园","lon":"121.45118","lat":"31.24772","category":"45","category_name":"产业园区","address":"上海闸北区恒丰路610号"},{"poiid":"B2094757D068ABFF479F","title":"全家便利(长安店)","lon":"121.45199","lat":"31.24609","category":"117","category_name":"便民商店/便利店","address":"上海闸北区天目西路511号(近长安路)"},{"poiid":"B2094655D26AABFA499A","title":"M50艺术产业园","lon":"121.44866","lat":"31.24753","category":"248","category_name":"生活娱乐","address":"普陀区莫干山路50号"},{"poiid":"B2094654DA6CA5F84299","title":"台球俱乐部","lon":"121.45138","lat":"31.24516","category":"171","category_name":"台球厅","address":""},{"poiid":"B2094655D26AA7FD4493","title":"七号影棚","lon":"121.45012","lat":"31.24571","category":"247","category_name":"餐饮美食","address":"闸北区天目西路547号逸升阁9楼906室(近长安路)查看地图"},{"poiid":"B2094654DA6CA7FF4592","title":"中房华东大厦","lon":"121.45095","lat":"31.24722","category":"46","category_name":"楼宇","address":"上海闸北区长安路1138号"},{"poiid":"B2094757D169AAFB459D","title":"原平路","lon":"121.450488","lat":"31.244972","category":"500","category_name":"未知分类","address":"上海原平路教师公寓"},{"poiid":"B2094654DA6CA5F8429C","title":"东方网点网吧文化花园店","lon":"121.45138","lat":"31.24509","category":"176","category_name":"网吧","address":"天目西路500号3层"},{"poiid":"B2094654DB6AA3FB489D","title":"广场长城假日酒店大堂吧","lon":"121.454153054","lat":"31.245983793","category":"67","category_name":"甜品店","address":"上海闸北区天目西路285号(近民立路)  "},{"poiid":"B2094655D36CA2FD459E","title":"上海新凌通信科技有限公司","lon":"121.45223","lat":"31.24517","category":"138","category_name":"家电电子卖场","address":"天目西路488号长安大厦1号楼2层"},{"poiid":"B2094757D06EAAF4439A","title":"全聚德 闸北店","lon":"121.4503227965","lat":"31.245534803561","category":"260","category_name":"其他","address":"闸北区天目西路547号联通国际大厦内(近长安路)"},{"poiid":"B2094757D06EAAFA479C","title":"浦西洲际酒店","lon":"121.45369052","lat":"31.244797228","category":"217","category_name":"旅馆招待所","address":"上海市闸北区恒丰路500号(上海火车站近天目西路)"},{"poiid":"B2094655D26AABFD4092","title":"M50创意园(莫干山路)","lon":"121.44866","lat":"31.24753","category":"247","category_name":"餐饮美食","address":"普陀区莫干山路50号M50创意园区内(近澳门路)"},{"poiid":"B209475CD564A7F8439E","title":"上海滩中信泰富店","lon":"121.45602","lat":"31.22851","category":"119","category_name":"商场","address":"\"南京西路1168号中信泰富广场，店铺号221.\r\n\""},{"poiid":"B2094757D66DA4FA4198","title":"星巴克 STARBUCKS(恒汇国际店)","lon":"121.452896886","lat":"31.2460654409","category":"65","category_name":"咖啡厅","address":"闸北区天目西路437号恒汇国际大厦1楼(近恒丰路)"},{"poiid":"B2094757D06FA3FB489F","title":"恒汇国际大厦","lon":"121.45268046","lat":"31.246137006","category":"46","category_name":"楼宇","address":"黄浦中山南路、复兴路口"},{"poiid":"B2094655D26EA2F9439C","title":"上海广场长城假日酒店","lon":"121.45368","lat":"31.24693","category":"214","category_name":"四星级宾馆","address":"上海市闸北区恒丰路585号(天目西路口)"},{"poiid":"B2094757D06FA2FB409A","title":"联通国际大厦","lon":"121.449743","lat":"31.246076","category":"46","category_name":"楼宇","address":"上海市闸北区天目西路547号"},{"poiid":"B2094757D06FA6F5499F","title":"江南村","lon":"121.45173645","lat":"31.24502182","category":"500","category_name":"未知分类","address":"上海闸北区长安路1033号3楼"},{"poiid":"B2094757D06FABF94899","title":"宝矿洲际商务中心","lon":"121.453241726","lat":"31.2444672929","category":"46","category_name":"楼宇","address":"上海闸北区裕通路100号(恒丰路500号)"},{"poiid":"B2094757D56DA0F84492","title":"天目西路营业厅","lon":"121.451435","lat":"31.245592","category":"151","category_name":"电讯营业厅","address":"闸北区天目西路547号"},{"poiid":"B2094757D06FAAF84992","title":"美上海餐厅","lon":"121.452622997","lat":"31.2453309489","category":"76","category_name":"上海菜","address":"闸北区天目西路477号恒汇国际大厦(近恒丰路)"},{"poiid":"B2094757D569A7F4419F","title":"江南邨酒家","lon":"121.4517361","lat":"31.24502694","category":"70","category_name":"综合酒楼","address":"长安路1033号长安大厦3层"},{"poiid":"B2094757D06FA5F5479E","title":"星巴克 STARBUCKS (洲际中心店)","lon":"121.4535958","lat":"31.2438824","category":"260","category_name":"其他","address":"闸北区裕通路100号宝矿洲际商务中心1楼(近火车站)"},{"poiid":"B2094757D56DA6F5479A","title":"环智国际大厦","lon":"121.45422220230103","lat":"31.244507776936864","category":"252","category_name":"楼宇机构","address":"上海,上海市,恒丰路436号"},{"poiid":"B2094757D165A3F8439B","title":"地铁一号线上海火车站","lon":"121.448891886","lat":"31.2422573664","category":"36","category_name":"地铁站","address":"上海轨道交通一号线上海火车站"},{"poiid":"B2094757D66DA2F54998","title":"苏河一号","lon":"121.45146058","lat":"31.247447768","category":"500","category_name":"未知分类","address":"上海市普陀区莫干山路"},{"poiid":"B2094751D36FA3FC4792","title":"雍记大酒店(恒丰店)","lon":"121.45266","lat":"31.24672","category":"72","category_name":"广东菜","address":"闸北区恒丰路600号机电大厦1-2楼(近上海火车站)"},{"poiid":"B2094757D06FA5F4419D","title":"大奥通讯商城","lon":"121.45099","lat":"31.24547","category":"138","category_name":"家电电子卖场","address":"闸北区天目西路547号联通国际大厦内(近长安路)"},{"poiid":"B2094750D66DA4FD489D","title":"Singa星歌KTV","lon":"121.450927","lat":"31.24785","category":"170","category_name":"KTV","address":"恒丰路666号，靠近长安路"},{"poiid":"B2094654DA6CA5FA409F","title":"静安河滨花园","lon":"121.45119","lat":"31.241392","category":"47","category_name":"住宅区","address":"上海市闸北区汉中路333弄"},{"poiid":"B2094757D069AAFF419C","title":"上海不夜城广场","lon":"121.45133","lat":"31.24552","category":"249","category_name":"购物服务","address":"闸北区天目西路547号联通国际大厦内(近长安路)"},{"poiid":"B2094654DB69A4FE429D","title":"莫泰168连锁旅店(火车站店)","lon":"121.45201","lat":"31.24631","category":"216","category_name":"经济型连锁酒店","address":"闸北区长安路1105号(近天目西路)"},{"poiid":"B2094757D06AABFD419C","title":"浦西洲际大酒店ECCO自助餐厅","lon":"121.45437","lat":"31.24532","category":"268","category_name":"自助","address":"闸北区恒丰路500号浦西洲际酒店1楼(近上海火车站)"},{"poiid":"B2094757D069A0FB4093","title":"上岛咖啡(长安路店)","lon":"121.45176598","lat":"31.245837036","category":"260","category_name":"其他","address":"闸北区天目西路488号长安大厦内"},{"poiid":"B2094757D464AAF4479B","title":"蓝与白 闸北店","lon":"121.450824054","lat":"31.245202793","category":"68","category_name":"快餐厅","address":"闸北区天目西路511号锦程大厦内(近长安路)"},{"poiid":"B2094757D069A4F44199","title":"联通天目西路营业厅","lon":"121.45106","lat":"31.245792","category":"138","category_name":"家电电子卖场","address":"上海闸北区天目西路547号"},{"poiid":"B2094757D068A2FB4192","title":"天目西路恒丰路天桥","lon":"121.450901","lat":"31.245653","category":"500","category_name":"未知分类","address":"上海闸北区天目西路恒丰路"},{"poiid":"B2094751D064A7FF439A","title":"青藤宠物医院（静安区）","lon":"121.450928","lat":"31.244598","category":"162","category_name":"医院","address":"昌化路567号"},{"poiid":"B2094655D26CAAFD499E","title":"安源小区","lon":"121.45122","lat":"31.24479","category":"47","category_name":"住宅区","address":"长安路1050弄"},{"poiid":"B2094757D66BA6F94298","title":"老好阁汤面馆","lon":"121.45169510662","lat":"31.245099579204","category":"68","category_name":"快餐厅","address":"闸北区天目西路448号(恒丰路口)"},{"poiid":"B2094750D76FA4F9429E","title":"健康煮(恒汇店)","lon":"121.453","lat":"31.2459","category":"86","category_name":"火锅店","address":"闸北区天目西路429号恒汇国际202室(近恒丰路)"},{"poiid":"B2094654DB69A5FE419A","title":"肯德基(恒丰店)","lon":"121.45371","lat":"31.24669","category":"68","category_name":"快餐厅","address":"闸北区天目西路311号(近恒丰路)"},{"poiid":"B2094655D26CAAFD4598","title":"不夜城金融大厦","lon":"121.45138","lat":"31.245","category":"46","category_name":"楼宇","address":""},{"poiid":"B2094654D565AAF8439A","title":"康海大楼","lon":"121.45041302455","lat":"31.244337975789","category":"47","category_name":"住宅区","address":"西康路838号"},{"poiid":"B2094654DB6BA5FD409A","title":"喜士多便利连锁","lon":"121.45108","lat":"31.24519","category":"117","category_name":"便民商店/便利店","address":"天目西路550甲"},{"poiid":"B2094757D164ABF94992","title":"天蜀阁","lon":"121.452382","lat":"31.245173","category":"71","category_name":"四川菜","address":"闸北区恒丰路500号浦西洲际酒店3楼(近裕通路)"},{"poiid":"B2094757D06AA5FD499B","title":"兴业银行(闸北支行)","lon":"121.45089","lat":"31.24483","category":"150","category_name":"银行","address":"闸北区天目西路500号(长寿路天目西路)"},{"poiid":"B2094757D169A0FE419D","title":"焊点1088公社","lon":"121.451264","lat":"31.246948","category":"500","category_name":"未知分类","address":"闸北区长安路1088号(近天目西路)"},{"poiid":"B2094655D26DA7FC479E","title":"安源小区(东门)","lon":"121.45145","lat":"31.2449","category":"47","category_name":"住宅区","address":""},{"poiid":"B2094654DA6CA7F84098","title":"不夜城都市工业园","lon":"121.45118","lat":"31.24772","category":"45","category_name":"产业园区","address":"上海闸北区恒丰路610号"},{"poiid":"B2094757D068ABFF479F","title":"全家便利(长安店)","lon":"121.45199","lat":"31.24609","category":"117","category_name":"便民商店/便利店","address":"上海闸北区天目西路511号(近长安路)"},{"poiid":"B2094655D26AABFA499A","title":"M50艺术产业园","lon":"121.44866","lat":"31.24753","category":"248","category_name":"生活娱乐","address":"普陀区莫干山路50号"},{"poiid":"B2094654DA6CA5F84299","title":"台球俱乐部","lon":"121.45138","lat":"31.24516","category":"171","category_name":"台球厅","address":""},{"poiid":"B2094655D26AA7FD4493","title":"七号影棚","lon":"121.45012","lat":"31.24571","category":"247","category_name":"餐饮美食","address":"闸北区天目西路547号逸升阁9楼906室(近长安路)查看地图"},{"poiid":"B2094654DA6CA7FF4592","title":"中房华东大厦","lon":"121.45095","lat":"31.24722","category":"46","category_name":"楼宇","address":"上海闸北区长安路1138号"},{"poiid":"B2094757D169AAFB459D","title":"原平路","lon":"121.450488","lat":"31.244972","category":"500","category_name":"未知分类","address":"上海原平路教师公寓"},{"poiid":"B2094654DA6CA5F8429C","title":"东方网点网吧文化花园店","lon":"121.45138","lat":"31.24509","category":"176","category_name":"网吧","address":"天目西路500号3层"},{"poiid":"B2094654DB6AA3FB489D","title":"广场长城假日酒店大堂吧","lon":"121.454153054","lat":"31.245983793","category":"67","category_name":"甜品店","address":"上海闸北区天目西路285号(近民立路)  "},{"poiid":"B2094655D36CA2FD459E","title":"上海新凌通信科技有限公司","lon":"121.45223","lat":"31.24517","category":"138","category_name":"家电电子卖场","address":"天目西路488号长安大厦1号楼2层"},{"poiid":"B2094757D06EAAF4439A","title":"全聚德 闸北店","lon":"121.4503227965","lat":"31.245534803561","category":"260","category_name":"其他","address":"闸北区天目西路547号联通国际大厦内(近长安路)"},{"poiid":"B2094757D06EAAFA479C","title":"浦西洲际酒店","lon":"121.45369052","lat":"31.244797228","category":"217","category_name":"旅馆招待所","address":"上海市闸北区恒丰路500号(上海火车站近天目西路)"},{"poiid":"B2094655D26AABFD4092","title":"M50创意园(莫干山路)","lon":"121.44866","lat":"31.24753","category":"247","category_name":"餐饮美食","address":"普陀区莫干山路50号M50创意园区内(近澳门路)"},{"poiid":"B209475CD564A7F8439E","title":"上海滩中信泰富店","lon":"121.45602","lat":"31.22851","category":"119","category_name":"商场","address":"\"南京西路1168号中信泰富广场，店铺号221.\r\n\""},{"poiid":"B2094757D66DA4FA4198","title":"星巴克 STARBUCKS(恒汇国际店)","lon":"121.452896886","lat":"31.2460654409","category":"65","category_name":"咖啡厅","address":"闸北区天目西路437号恒汇国际大厦1楼(近恒丰路)"},{"poiid":"B2094757D06FA3FB489F","title":"恒汇国际大厦","lon":"121.45268046","lat":"31.246137006","category":"46","category_name":"楼宇","address":"黄浦中山南路、复兴路口"},{"poiid":"B2094655D26EA2F9439C","title":"上海广场长城假日酒店","lon":"121.45368","lat":"31.24693","category":"214","category_name":"四星级宾馆","address":"上海市闸北区恒丰路585号(天目西路口)"},{"poiid":"B2094757D06FA2FB409A","title":"联通国际大厦","lon":"121.449743","lat":"31.246076","category":"46","category_name":"楼宇","address":"上海市闸北区天目西路547号"},{"poiid":"B2094757D06FA6F5499F","title":"江南村","lon":"121.45173645","lat":"31.24502182","category":"500","category_name":"未知分类","address":"上海闸北区长安路1033号3楼"},{"poiid":"B2094757D06FABF94899","title":"宝矿洲际商务中心","lon":"121.453241726","lat":"31.2444672929","category":"46","category_name":"楼宇","address":"上海闸北区裕通路100号(恒丰路500号)"},{"poiid":"B2094757D56DA0F84492","title":"天目西路营业厅","lon":"121.451435","lat":"31.245592","category":"151","category_name":"电讯营业厅","address":"闸北区天目西路547号"},{"poiid":"B2094757D06FAAF84992","title":"美上海餐厅","lon":"121.452622997","lat":"31.2453309489","category":"76","category_name":"上海菜","address":"闸北区天目西路477号恒汇国际大厦(近恒丰路)"},{"poiid":"B2094757D569A7F4419F","title":"江南邨酒家","lon":"121.4517361","lat":"31.24502694","category":"70","category_name":"综合酒楼","address":"长安路1033号长安大厦3层"},{"poiid":"B2094757D06FA5F5479E","title":"星巴克 STARBUCKS (洲际中心店)","lon":"121.4535958","lat":"31.2438824","category":"260","category_name":"其他","address":"闸北区裕通路100号宝矿洲际商务中心1楼(近火车站)"},{"poiid":"B2094757D56DA6F5479A","title":"环智国际大厦","lon":"121.45422220230103","lat":"31.244507776936864","category":"252","category_name":"楼宇机构","address":"上海,上海市,恒丰路436号"},{"poiid":"B2094757D165A3F8439B","title":"地铁一号线上海火车站","lon":"121.448891886","lat":"31.2422573664","category":"36","category_name":"地铁站","address":"上海轨道交通一号线上海火车站"},{"poiid":"B2094757D66DA2F54998","title":"苏河一号","lon":"121.45146058","lat":"31.247447768","category":"500","category_name":"未知分类","address":"上海市普陀区莫干山路"},{"poiid":"B2094751D36FA3FC4792","title":"雍记大酒店(恒丰店)","lon":"121.45266","lat":"31.24672","category":"72","category_name":"广东菜","address":"闸北区恒丰路600号机电大厦1-2楼(近上海火车站)"},{"poiid":"B2094757D06FA5F4419D","title":"大奥通讯商城","lon":"121.45099","lat":"31.24547","category":"138","category_name":"家电电子卖场","address":"闸北区天目西路547号联通国际大厦内(近长安路)"},{"poiid":"B2094750D66DA4FD489D","title":"Singa星歌KTV","lon":"121.450927","lat":"31.24785","category":"170","category_name":"KTV","address":"恒丰路666号，靠近长安路"},{"poiid":"B2094654DA6CA5FA409F","title":"静安河滨花园","lon":"121.45119","lat":"31.241392","category":"47","category_name":"住宅区","address":"上海市闸北区汉中路333弄"},{"poiid":"B2094757D069AAFF419C","title":"上海不夜城广场","lon":"121.45133","lat":"31.24552","category":"249","category_name":"购物服务","address":"闸北区天目西路547号联通国际大厦内(近长安路)"},{"poiid":"B2094654DB69A4FE429D","title":"莫泰168连锁旅店(火车站店)","lon":"121.45201","lat":"31.24631","category":"216","category_name":"经济型连锁酒店","address":"闸北区长安路1105号(近天目西路)"},{"poiid":"B2094757D06AABFD419C","title":"浦西洲际大酒店ECCO自助餐厅","lon":"121.45437","lat":"31.24532","category":"268","category_name":"自助","address":"闸北区恒丰路500号浦西洲际酒店1楼(近上海火车站)"},{"poiid":"B2094757D069A0FB4093","title":"上岛咖啡(长安路店)","lon":"121.45176598","lat":"31.245837036","category":"260","category_name":"其他","address":"闸北区天目西路488号长安大厦内"},{"poiid":"B2094757D464AAF4479B","title":"蓝与白 闸北店","lon":"121.450824054","lat":"31.245202793","category":"68","category_name":"快餐厅","address":"闸北区天目西路511号锦程大厦内(近长安路)"},{"poiid":"B2094757D069A4F44199","title":"联通天目西路营业厅","lon":"121.45106","lat":"31.245792","category":"138","category_name":"家电电子卖场","address":"上海闸北区天目西路547号"},{"poiid":"B2094757D068A2FB4192","title":"天目西路恒丰路天桥","lon":"121.450901","lat":"31.245653","category":"500","category_name":"未知分类","address":"上海闸北区天目西路恒丰路"},{"poiid":"B2094751D064A7FF439A","title":"青藤宠物医院（静安区）","lon":"121.450928","lat":"31.244598","category":"162","category_name":"医院","address":"昌化路567号"},{"poiid":"B2094655D26CAAFD499E","title":"安源小区","lon":"121.45122","lat":"31.24479","category":"47","category_name":"住宅区","address":"长安路1050弄"},{"poiid":"B2094757D66BA6F94298","title":"老好阁汤面馆","lon":"121.45169510662","lat":"31.245099579204","category":"68","category_name":"快餐厅","address":"闸北区天目西路448号(恒丰路口)"},{"poiid":"B2094750D76FA4F9429E","title":"健康煮(恒汇店)","lon":"121.453","lat":"31.2459","category":"86","category_name":"火锅店","address":"闸北区天目西路429号恒汇国际202室(近恒丰路)"},{"poiid":"B2094654DB69A5FE419A","title":"肯德基(恒丰店)","lon":"121.45371","lat":"31.24669","category":"68","category_name":"快餐厅","address":"闸北区天目西路311号(近恒丰路)"},{"poiid":"B2094655D26CAAFD4598","title":"不夜城金融大厦","lon":"121.45138","lat":"31.245","category":"46","category_name":"楼宇","address":""},{"poiid":"B2094654D565AAF8439A","title":"康海大楼","lon":"121.45041302455","lat":"31.244337975789","category":"47","category_name":"住宅区","address":"西康路838号"},{"poiid":"B2094654DB6BA5FD409A","title":"喜士多便利连锁","lon":"121.45108","lat":"31.24519","category":"117","category_name":"便民商店/便利店","address":"天目西路550甲"},{"poiid":"B2094757D164ABF94992","title":"天蜀阁","lon":"121.452382","lat":"31.245173","category":"71","category_name":"四川菜","address":"闸北区恒丰路500号浦西洲际酒店3楼(近裕通路)"},{"poiid":"B2094757D06AA5FD499B","title":"兴业银行(闸北支行)","lon":"121.45089","lat":"31.24483","category":"150","category_name":"银行","address":"闸北区天目西路500号(长寿路天目西路)"},{"poiid":"B2094757D169A0FE419D","title":"焊点1088公社","lon":"121.451264","lat":"31.246948","category":"500","category_name":"未知分类","address":"闸北区长安路1088号(近天目西路)"},{"poiid":"B2094655D26DA7FC479E","title":"安源小区(东门)","lon":"121.45145","lat":"31.2449","category":"47","category_name":"住宅区","address":""},{"poiid":"B2094654DA6CA7F84098","title":"不夜城都市工业园","lon":"121.45118","lat":"31.24772","category":"45","category_name":"产业园区","address":"上海闸北区恒丰路610号"},{"poiid":"B2094757D068ABFF479F","title":"全家便利(长安店)","lon":"121.45199","lat":"31.24609","category":"117","category_name":"便民商店/便利店","address":"上海闸北区天目西路511号(近长安路)"},{"poiid":"B2094655D26AABFA499A","title":"M50艺术产业园","lon":"121.44866","lat":"31.24753","category":"248","category_name":"生活娱乐","address":"普陀区莫干山路50号"},{"poiid":"B2094654DA6CA5F84299","title":"台球俱乐部","lon":"121.45138","lat":"31.24516","category":"171","category_name":"台球厅","address":""},{"poiid":"B2094655D26AA7FD4493","title":"七号影棚","lon":"121.45012","lat":"31.24571","category":"247","category_name":"餐饮美食","address":"闸北区天目西路547号逸升阁9楼906室(近长安路)查看地图"},{"poiid":"B2094654DA6CA7FF4592","title":"中房华东大厦","lon":"121.45095","lat":"31.24722","category":"46","category_name":"楼宇","address":"上海闸北区长安路1138号"},{"poiid":"B2094757D169AAFB459D","title":"原平路","lon":"121.450488","lat":"31.244972","category":"500","category_name":"未知分类","address":"上海原平路教师公寓"},{"poiid":"B2094654DA6CA5F8429C","title":"东方网点网吧文化花园店","lon":"121.45138","lat":"31.24509","category":"176","category_name":"网吧","address":"天目西路500号3层"},{"poiid":"B2094654DB6AA3FB489D","title":"广场长城假日酒店大堂吧","lon":"121.454153054","lat":"31.245983793","category":"67","category_name":"甜品店","address":"上海闸北区天目西路285号(近民立路)  "},{"poiid":"B2094655D36CA2FD459E","title":"上海新凌通信科技有限公司","lon":"121.45223","lat":"31.24517","category":"138","category_name":"家电电子卖场","address":"天目西路488号长安大厦1号楼2层"}]