[{"poiid":"B2094757D06EAAFE409C","title":"王朝大酒店 徐汇店","lon":"121.46048529876","lat":"31.20305230008","category":"76","category_name":"上海菜","address":"徐汇区肇嘉浜路288号(近大木桥路)"},{"poiid":"B2094757D06EAAF54292","title":"辣府","lon":"121.46055803420836","lat":"31.204216638609246","category":"71","category_name":"四川菜","address":"徐汇区嘉善路512号附5号(近肇嘉浜路)"},{"poiid":"B2094757D06FA7FF459C","title":"旭日屋 襄阳南路","lon":"121.45815664124","lat":"31.204645031668","category":"95","category_name":"日本料理","address":"徐汇区襄阳南路533号(近肇嘉浜路)"},{"poiid":"B2094753D76FAAFA449C","title":"上海滩国泰旗舰店","lon":"121.466011","lat":"31.216125","category":"249","category_name":"购物服务","address":"淮海中路868号"},{"poiid":"B209475CD564A7F84292","title":"上海滩新天地店","lon":"121.47463","lat":"31.22164","category":"119","category_name":"商场","address":"\"太仓路181弄新天地北里15号\r\n\""},{"poiid":"B209475CD564A7F8439E","title":"上海滩中信泰富店","lon":"121.45602","lat":"31.22851","category":"119","category_name":"商场","address":"\"南京西路1168号中信泰富广场，店铺号221.\r\n\""},{"poiid":"B2094751DA6FAAF8459A","title":"捞王猪肚鸡火锅","lon":"121.461071","lat":"31.203251","category":"247","category_name":"餐饮美食","address":"肇嘉浜路嘉善路"},{"poiid":"B2094757D06EAAF44499","title":"嘉善路地铁站","lon":"121.46090136","lat":"31.202866912","category":"36","category_name":"地铁站","address":"上海轨道交通 九号线 轨交嘉善路站 9"},{"poiid":"B2094655D26BA0FA479B","title":"新苑私房菜","lon":"121.4603","lat":"31.20464","category":"76","category_name":"上海菜","address":"徐汇区嘉善路508号尚街1号楼102室(肇嘉浜路建国西路间)"},{"poiid":"B2094757D06FA4F94993","title":"小鹭鹭酒家","lon":"121.46125473","lat":"31.202688713","category":"71","category_name":"四川菜","address":"徐汇区肇嘉浜路268号(近嘉善路)"},{"poiid":"B2094757D06FA0F9439A","title":"木村日本料理(肇嘉浜路店)","lon":"121.460549838","lat":"31.2040251418","category":"95","category_name":"日本料理","address":"徐汇区嘉善路524号(近肇嘉浜路)"},{"poiid":"B2094757D06FABFD4893","title":"上海市工商局","lon":"121.461493314","lat":"31.2023573778","category":"46","category_name":"楼宇","address":"上海肇嘉浜路301号"},{"poiid":"B2094757D168AAFC429E","title":"好友汇","lon":"121.46108","lat":"31.201038","category":"500","category_name":"未知分类","address":"上海市肇嘉浜路263号"},{"poiid":"B2094757D068A7FD4799","title":"上海市高级人民法院","lon":"121.45943123","lat":"31.203331163","category":"608","category_name":"法院","address":"上海市徐汇区肇嘉浜路308号"},{"poiid":"B2094757D06FA0F94892","title":"陌生人火锅餐厅(肇嘉浜路店)","lon":"121.46145","lat":"31.20307","category":"86","category_name":"火锅店","address":"徐汇区肇嘉浜路268号(近嘉善路)"},{"poiid":"B2094757D06FA0FF419B","title":"沃歌斯 建国西路店 wagas","lon":"121.46050136399","lat":"31.206048786127","category":"94","category_name":"西餐厅","address":"徐汇区建国西路283号尚街LOFT1104-1105室(近嘉善路)"},{"poiid":"B2094757D06FA1F94199","title":"x-club镭战主题酒吧","lon":"121.4580286","lat":"31.202248626","category":"260","category_name":"其他","address":"徐汇区肇嘉浜路366号裕华大厦B1楼(襄阳南路口)"},{"poiid":"B2094757D06FAAF54998","title":"亚太企业大厦","lon":"121.460398738","lat":"31.2025817111","category":"46","category_name":"楼宇","address":"丰台学城海鹰路1号，3号"},{"poiid":"B2094757DB69A4F44799","title":"美粤华大酒店","lon":"121.46171300553","lat":"31.203175634525","category":"72","category_name":"广东菜","address":"徐汇区肇嘉浜路238号(陕西南路口)"},{"poiid":"B2094757D06BA2F54793","title":"城日本料理","lon":"121.460953738","lat":"31.2022887049","category":"95","category_name":"日本料理","address":"徐汇区肇嘉浜路265号(近大木桥路)"},{"poiid":"B2094655D264A5FA469F","title":"尚街创意园","lon":"121.4603","lat":"31.20464","category":"45","category_name":"产业园区","address":"嘉善路508号"},{"poiid":"B2094757D068A3FA409A","title":"肇嘉浜路大木桥路","lon":"121.46147","lat":"31.202822","category":"38","category_name":"公交车站","address":"上海肇嘉浜路大木桥路"},{"poiid":"B2094757D068A0FF409A","title":"襄阳南路","lon":"121.45744273","lat":"31.201941697","category":"34","category_name":"港口码头","address":"上海卢湾区襄阳南路"},{"poiid":"B2094752D469A3FB4292","title":"平壤饭店","lon":"121.459587","lat":"31.202561","category":"247","category_name":"餐饮美食","address":"上海肇家浜路359号二楼"},{"poiid":"B209475CD36FA5F8499C","title":"捞王锅物料理 肇嘉浜路店","lon":"121.46121","lat":"31.20346","category":"72","category_name":"广东菜","address":"肇嘉浜路268号2楼(近嘉善路地铁站2号出口)"},{"poiid":"B2094654DB64AAFB499C","title":"工商大厦","lon":"121.46143","lat":"31.20242","category":"46","category_name":"楼宇","address":"上海市四川北路1851号"},{"poiid":"B2094654DB64A6FC469A","title":"西湘记","lon":"121.45824","lat":"31.20174","category":"77","category_name":"湖南菜","address":"徐汇区肇嘉浜路407号(近襄阳南路)"},{"poiid":"B2094757D068A5FB499B","title":"招商银行大木桥支行(肇嘉浜路333号)","lon":"121.46071624","lat":"31.202276229","category":"46","category_name":"楼宇","address":"上海市徐汇区肇嘉浜路333号"},{"poiid":"B2094750D664A3F54598","title":"鸿公馆","lon":"121.458","lat":"31.2034","category":"72","category_name":"广东菜","address":"徐汇区襄阳南路578号乙(近肇嘉浜路)"},{"poiid":"B2094655D26BA3FD449D","title":"渔蒙家火锅 肇嘉浜路店","lon":"121.459707054","lat":"31.201780793","category":"257","category_name":"中餐厅","address":"徐汇区肇嘉浜路359号(近大木桥路)"},{"poiid":"B2094757D165AAFE4392","title":"QUEEN'S PALACE婚纱礼服馆","lon":"121.458569738","lat":"31.2023247056","category":"260","category_name":"其他","address":"卢湾区徐家汇路618号日月光中心广场B2楼台湾馆口(近瑞金二路)"},{"poiid":"B2094750D76CAAF54698","title":"可颂坊(肇嘉浜路店)","lon":"121.458","lat":"31.2024","category":"112","category_name":"糕饼店","address":"徐汇区肇嘉浜路376号(近襄阳南路)"},{"poiid":"B2094654DA6DA6FB4798","title":"城隍庙特色小吃","lon":"121.46061983052","lat":"31.203044561955","category":"68","category_name":"快餐厅","address":"徐汇区嘉善路518号(近建国西路)"},{"poiid":"B2094655D26EA0F5459E","title":"全家便利店(肇嘉浜店)","lon":"121.46025","lat":"31.20239","category":"117","category_name":"便民商店/便利店","address":"徐汇区肇嘉浜路359-361号105室(近襄阳南路)"},{"poiid":"B2094654DA6EA2FF499F","title":"嘉乐公寓","lon":"121.45933","lat":"31.201952","category":"47","category_name":"住宅区","address":"肇嘉浜路383号"},{"poiid":"B2094655D268A3FF419B","title":"境界桌球","lon":"121.45993","lat":"31.20219","category":"171","category_name":"台球厅","address":"徐汇区肇嘉浜路359号6楼(近大木桥路)"},{"poiid":"B2094757D568A0F5429B","title":"阿婆葱油饼","lon":"121.4582589","lat":"31.20335306","category":"68","category_name":"快餐厅","address":"徐汇区襄阳南路578弄口(近肇嘉浜路)"},{"poiid":"B2094655D36DA6FD4698","title":"嘉善路","lon":"121.4609","lat":"31.20286","category":"38","category_name":"公交车站","address":""},{"poiid":"B2094757D069A1FC4192","title":"上茶新概念茶坊(徐汇店)","lon":"121.46111","lat":"31.2023","category":"260","category_name":"其他","address":"徐汇区肇嘉浜路333号2楼(近大木桥路)"},{"poiid":"B2094654DA6EA2FF489F","title":"中国科学院上海分院研究生公寓","lon":"121.45835","lat":"31.20177","category":"47","category_name":"住宅区","address":"肇嘉浜路407"},{"poiid":"B2094654DA6EA2F9409F","title":"山夫茶馆","lon":"121.46152","lat":"31.20101","category":"76","category_name":"上海菜","address":"徐汇区大木桥路85号(近肇嘉浜路)"},{"poiid":"B2094757D56DA3FC489F","title":"早安巴黎 肇嘉浜路店 Bon Matin","lon":"121.461264054","lat":"31.203140793","category":"247","category_name":"餐饮美食","address":"肇嘉浜路288号601室近大木桥路"},{"poiid":"B2094654DA6EA2FF4998","title":"兴南花园","lon":"121.45892","lat":"31.200953","category":"47","category_name":"住宅区","address":"肇嘉浜路393号"},{"poiid":"B2094757D66EA6F44992","title":"嘉韵保健会所","lon":"121.459657738","lat":"31.2011786812","category":"500","category_name":"未知分类","address":"上海肇嘉浜路333号"},{"poiid":"B2094654DA6EA2FE499A","title":"徐汇嘉馨公寓","lon":"121.4596","lat":"31.20101","category":"47","category_name":"住宅区","address":"上海市徐汇区医学院路15号"},{"poiid":"B2094654DA6EA2F8409E","title":"中国民生银行上海西南支行","lon":"121.46038","lat":"31.20228","category":"150","category_name":"银行","address":"肇嘉浜路333-3"},{"poiid":"B209475DDA69A5FF469A","title":"人和馆","lon":"121.458038","lat":"31.201763","category":"247","category_name":"餐饮美食","address":"上海市 肇加浜路407弄"},{"poiid":"B2094654DA6EA2FF499E","title":"上海恺宏口腔门诊部","lon":"121.45877","lat":"31.20177","category":"162","category_name":"医院","address":"徐汇区肇嘉浜路393号2楼"},{"poiid":"B2094752DB6AA3F84692","title":"同一首歌","lon":"121.459739","lat":"31.200976","category":"170","category_name":"KTV","address":"上海市 斜土路"},{"poiid":"B2094654DA6EA2F8419A","title":"上海市南洋初级中学","lon":"121.46044","lat":"31.20132","category":"55","category_name":"中学","address":"徐汇区大木桥路40号(近肇嘉浜路)"},{"poiid":"B2094757D06EAAFE409C","title":"王朝大酒店 徐汇店","lon":"121.46048529876","lat":"31.20305230008","category":"76","category_name":"上海菜","address":"徐汇区肇嘉浜路288号(近大木桥路)"},{"poiid":"B2094757D06EAAF54292","title":"辣府","lon":"121.46055803420836","lat":"31.204216638609246","category":"71","category_name":"四川菜","address":"徐汇区嘉善路512号附5号(近肇嘉浜路)"},{"poiid":"B2094757D06FA7FF459C","title":"旭日屋 襄阳南路","lon":"121.45815664124","lat":"31.204645031668","category":"95","category_name":"日本料理","address":"徐汇区襄阳南路533号(近肇嘉浜路)"},{"poiid":"B2094753D76FAAFA449C","title":"上海滩国泰旗舰店","lon":"121.466011","lat":"31.216125","category":"249","category_name":"购物服务","address":"淮海中路868号"},{"poiid":"B209475CD564A7F84292","title":"上海滩新天地店","lon":"121.47463","lat":"31.22164","category":"119","category_name":"商场","address":"\"太仓路181弄新天地北里15号\r\n\""},{"poiid":"B209475CD564A7F8439E","title":"上海滩中信泰富店","lon":"121.45602","lat":"31.22851","category":"119","category_name":"商场","address":"\"南京西路1168号中信泰富广场，店铺号221.\r\n\""},{"poiid":"B2094751DA6FAAF8459A","title":"捞王猪肚鸡火锅","lon":"121.461071","lat":"31.203251","category":"247","category_name":"餐饮美食","address":"肇嘉浜路嘉善路"},{"poiid":"B2094757D06EAAF44499","title":"嘉善路地铁站","lon":"121.46090136","lat":"31.202866912","category":"36","category_name":"地铁站","address":"上海轨道交通 九号线 轨交嘉善路站 9"},{"poiid":"B2094655D26BA0FA479B","title":"新苑私房菜","lon":"121.4603","lat":"31.20464","category":"76","category_name":"上海菜","address":"徐汇区嘉善路508号尚街1号楼102室(肇嘉浜路建国西路间)"},{"poiid":"B2094757D06FA4F94993","title":"小鹭鹭酒家","lon":"121.46125473","lat":"31.202688713","category":"71","category_name":"四川菜","address":"徐汇区肇嘉浜路268号(近嘉善路)"},{"poiid":"B2094757D06FA0F9439A","title":"木村日本料理(肇嘉浜路店)","lon":"121.460549838","lat":"31.2040251418","category":"95","category_name":"日本料理","address":"徐汇区嘉善路524号(近肇嘉浜路)"},{"poiid":"B2094757D06FABFD4893","title":"上海市工商局","lon":"121.461493314","lat":"31.2023573778","category":"46","category_name":"楼宇","address":"上海肇嘉浜路301号"},{"poiid":"B2094757D168AAFC429E","title":"好友汇","lon":"121.46108","lat":"31.201038","category":"500","category_name":"未知分类","address":"上海市肇嘉浜路263号"},{"poiid":"B2094757D068A7FD4799","title":"上海市高级人民法院","lon":"121.45943123","lat":"31.203331163","category":"608","category_name":"法院","address":"上海市徐汇区肇嘉浜路308号"},{"poiid":"B2094757D06FA0F94892","title":"陌生人火锅餐厅(肇嘉浜路店)","lon":"121.46145","lat":"31.20307","category":"86","category_name":"火锅店","address":"徐汇区肇嘉浜路268号(近嘉善路)"},{"poiid":"B2094757D06FA0FF419B","title":"沃歌斯 建国西路店 wagas","lon":"121.46050136399","lat":"31.206048786127","category":"94","category_name":"西餐厅","address":"徐汇区建国西路283号尚街LOFT1104-1105室(近嘉善路)"},{"poiid":"B2094757D06FA1F94199","title":"x-club镭战主题酒吧","lon":"121.4580286","lat":"31.202248626","category":"260","category_name":"其他","address":"徐汇区肇嘉浜路366号裕华大厦B1楼(襄阳南路口)"},{"poiid":"B2094757D06FAAF54998","title":"亚太企业大厦","lon":"121.460398738","lat":"31.2025817111","category":"46","category_name":"楼宇","address":"丰台学城海鹰路1号，3号"},{"poiid":"B2094757DB69A4F44799","title":"美粤华大酒店","lon":"121.46171300553","lat":"31.203175634525","category":"72","category_name":"广东菜","address":"徐汇区肇嘉浜路238号(陕西南路口)"},{"poiid":"B2094757D06BA2F54793","title":"城日本料理","lon":"121.460953738","lat":"31.2022887049","category":"95","category_name":"日本料理","address":"徐汇区肇嘉浜路265号(近大木桥路)"},{"poiid":"B2094655D264A5FA469F","title":"尚街创意园","lon":"121.4603","lat":"31.20464","category":"45","category_name":"产业园区","address":"嘉善路508号"},{"poiid":"B2094757D068A3FA409A","title":"肇嘉浜路大木桥路","lon":"121.46147","lat":"31.202822","category":"38","category_name":"公交车站","address":"上海肇嘉浜路大木桥路"},{"poiid":"B2094757D068A0FF409A","title":"襄阳南路","lon":"121.45744273","lat":"31.201941697","category":"34","category_name":"港口码头","address":"上海卢湾区襄阳南路"},{"poiid":"B2094752D469A3FB4292","title":"平壤饭店","lon":"121.459587","lat":"31.202561","category":"247","category_name":"餐饮美食","address":"上海肇家浜路359号二楼"},{"poiid":"B209475CD36FA5F8499C","title":"捞王锅物料理 肇嘉浜路店","lon":"121.46121","lat":"31.20346","category":"72","category_name":"广东菜","address":"肇嘉浜路268号2楼(近嘉善路地铁站2号出口)"},{"poiid":"B2094654DB64AAFB499C","title":"工商大厦","lon":"121.46143","lat":"31.20242","category":"46","category_name":"楼宇","address":"上海市四川北路1851号"},{"poiid":"B2094654DB64A6FC469A","title":"西湘记","lon":"121.45824","lat":"31.20174","category":"77","category_name":"湖南菜","address":"徐汇区肇嘉浜路407号(近襄阳南路)"},{"poiid":"B2094757D068A5FB499B","title":"招商银行大木桥支行(肇嘉浜路333号)","lon":"121.46071624","lat":"31.202276229","category":"46","category_name":"楼宇","address":"上海市徐汇区肇嘉浜路333号"},{"poiid":"B2094750D664A3F54598","title":"鸿公馆","lon":"121.458","lat":"31.2034","category":"72","category_name":"广东菜","address":"徐汇区襄阳南路578号乙(近肇嘉浜路)"},{"poiid":"B2094655D26BA3FD449D","title":"渔蒙家火锅 肇嘉浜路店","lon":"121.459707054","lat":"31.201780793","category":"257","category_name":"中餐厅","address":"徐汇区肇嘉浜路359号(近大木桥路)"},{"poiid":"B2094757D165AAFE4392","title":"QUEEN'S PALACE婚纱礼服馆","lon":"121.458569738","lat":"31.2023247056","category":"260","category_name":"其他","address":"卢湾区徐家汇路618号日月光中心广场B2楼台湾馆口(近瑞金二路)"},{"poiid":"B2094750D76CAAF54698","title":"可颂坊(肇嘉浜路店)","lon":"121.458","lat":"31.2024","category":"112","category_name":"糕饼店","address":"徐汇区肇嘉浜路376号(近襄阳南路)"},{"poiid":"B2094654DA6DA6FB4798","title":"城隍庙特色小吃","lon":"121.46061983052","lat":"31.203044561955","category":"68","category_name":"快餐厅","address":"徐汇区嘉善路518号(近建国西路)"},{"poiid":"B2094655D26EA0F5459E","title":"全家便利店(肇嘉浜店)","lon":"121.46025","lat":"31.20239","category":"117","category_name":"便民商店/便利店","address":"徐汇区肇嘉浜路359-361号105室(近襄阳南路)"},{"poiid":"B2094654DA6EA2FF499F","title":"嘉乐公寓","lon":"121.45933","lat":"31.201952","category":"47","category_name":"住宅区","address":"肇嘉浜路383号"},{"poiid":"B2094655D268A3FF419B","title":"境界桌球","lon":"121.45993","lat":"31.20219","category":"171","category_name":"台球厅","address":"徐汇区肇嘉浜路359号6楼(近大木桥路)"},{"poiid":"B2094757D568A0F5429B","title":"阿婆葱油饼","lon":"121.4582589","lat":"31.20335306","category":"68","category_name":"快餐厅","address":"徐汇区襄阳南路578弄口(近肇嘉浜路)"},{"poiid":"B2094655D36DA6FD4698","title":"嘉善路","lon":"121.4609","lat":"31.20286","category":"38","category_name":"公交车站","address":""},{"poiid":"B2094757D069A1FC4192","title":"上茶新概念茶坊(徐汇店)","lon":"121.46111","lat":"31.2023","category":"260","category_name":"其他","address":"徐汇区肇嘉浜路333号2楼(近大木桥路)"},{"poiid":"B2094654DA6EA2FF489F","title":"中国科学院上海分院研究生公寓","lon":"121.45835","lat":"31.20177","category":"47","category_name":"住宅区","address":"肇嘉浜路407"},{"poiid":"B2094654DA6EA2F9409F","title":"山夫茶馆","lon":"121.46152","lat":"31.20101","category":"76","category_name":"上海菜","address":"徐汇区大木桥路85号(近肇嘉浜路)"},{"poiid":"B2094757D56DA3FC489F","title":"早安巴黎 肇嘉浜路店 Bon Matin","lon":"121.461264054","lat":"31.203140793","category":"247","category_name":"餐饮美食","address":"肇嘉浜路288号601室近大木桥路"},{"poiid":"B2094654DA6EA2FF4998","title":"兴南花园","lon":"121.45892","lat":"31.200953","category":"47","category_name":"住宅区","address":"肇嘉浜路393号"},{"poiid":"B2094757D66EA6F44992","title":"嘉韵保健会所","lon":"121.459657738","lat":"31.2011786812","category":"500","category_name":"未知分类","address":"上海肇嘉浜路333号"},{"poiid":"B2094654DA6EA2FE499A","title":"徐汇嘉馨公寓","lon":"121.4596","lat":"31.20101","category":"47","category_name":"住宅区","address":"上海市徐汇区医学院路15号"},{"poiid":"B2094654DA6EA2F8409E","title":"中国民生银行上海西南支行","lon":"121.46038","lat":"31.20228","category":"150","category_name":"银行","address":"肇嘉浜路333-3"},{"poiid":"B209475DDA69A5FF469A","title":"人和馆","lon":"121.458038","lat":"31.201763","category":"247","category_name":"餐饮美食","address":"上海市 肇加浜路407弄"},{"poiid":"B2094654DA6EA2FF499E","title":"上海恺宏口腔门诊部","lon":"121.45877","lat":"31.20177","category":"162","category_name":"医院","address":"徐汇区肇嘉浜路393号2楼"},{"poiid":"B2094752DB6AA3F84692","title":"同一首歌","lon":"121.459739","lat":"31.200976","category":"170","category_name":"KTV","address":"上海市 斜土路"},{"poiid":"B2094654DA6EA2F8419A","title":"上海市南洋初级中学","lon":"121.46044","lat":"31.20132","category":"55","category_name":"中学","address":"徐汇区大木桥路40号(近肇嘉浜路)"},{"poiid":"B2094757D06EAAFE409C","title":"王朝大酒店 徐汇店","lon":"121.46048529876","lat":"31.20305230008","category":"76","category_name":"上海菜","address":"徐汇区肇嘉浜路288号(近大木桥路)"},{"poiid":"B2094757D06EAAF54292","title":"辣府","lon":"121.46055803420836","lat":"31.204216638609246","category":"71","category_name":"四川菜","address":"徐汇区嘉善路512号附5号(近肇嘉浜路)"},{"poiid":"B2094757D06FA7FF459C","title":"旭日屋 襄阳南路","lon":"121.45815664124","lat":"31.204645031668","category":"95","category_name":"日本料理","address":"徐汇区襄阳南路533号(近肇嘉浜路)"},{"poiid":"B2094753D76FAAFA449C","title":"上海滩国泰旗舰店","lon":"121.466011","lat":"31.216125","category":"249","category_name":"购物服务","address":"淮海中路868号"},{"poiid":"B209475CD564A7F84292","title":"上海滩新天地店","lon":"121.47463","lat":"31.22164","category":"119","category_name":"商场","address":"\"太仓路181弄新天地北里15号\r\n\""},{"poiid":"B209475CD564A7F8439E","title":"上海滩中信泰富店","lon":"121.45602","lat":"31.22851","category":"119","category_name":"商场","address":"\"南京西路1168号中信泰富广场，店铺号221.\r\n\""},{"poiid":"B2094751DA6FAAF8459A","title":"捞王猪肚鸡火锅","lon":"121.461071","lat":"31.203251","category":"247","category_name":"餐饮美食","address":"肇嘉浜路嘉善路"},{"poiid":"B2094757D06EAAF44499","title":"嘉善路地铁站","lon":"121.46090136","lat":"31.202866912","category":"36","category_name":"地铁站","address":"上海轨道交通 九号线 轨交嘉善路站 9"},{"poiid":"B2094655D26BA0FA479B","title":"新苑私房菜","lon":"121.4603","lat":"31.20464","category":"76","category_name":"上海菜","address":"徐汇区嘉善路508号尚街1号楼102室(肇嘉浜路建国西路间)"},{"poiid":"B2094757D06FA4F94993","title":"小鹭鹭酒家","lon":"121.46125473","lat":"31.202688713","category":"71","category_name":"四川菜","address":"徐汇区肇嘉浜路268号(近嘉善路)"},{"poiid":"B2094757D06FA0F9439A","title":"木村日本料理(肇嘉浜路店)","lon":"121.460549838","lat":"31.2040251418","category":"95","category_name":"日本料理","address":"徐汇区嘉善路524号(近肇嘉浜路)"},{"poiid":"B2094757D06FABFD4893","title":"上海市工商局","lon":"121.461493314","lat":"31.2023573778","category":"46","category_name":"楼宇","address":"上海肇嘉浜路301号"},{"poiid":"B2094757D168AAFC429E","title":"好友汇","lon":"121.46108","lat":"31.201038","category":"500","category_name":"未知分类","address":"上海市肇嘉浜路263号"},{"poiid":"B2094757D068A7FD4799","title":"上海市高级人民法院","lon":"121.45943123","lat":"31.203331163","category":"608","category_name":"法院","address":"上海市徐汇区肇嘉浜路308号"},{"poiid":"B2094757D06FA0F94892","title":"陌生人火锅餐厅(肇嘉浜路店)","lon":"121.46145","lat":"31.20307","category":"86","category_name":"火锅店","address":"徐汇区肇嘉浜路268号(近嘉善路)"},{"poiid":"B2094757D06FA0FF419B","title":"沃歌斯 建国西路店 wagas","lon":"121.46050136399","lat":"31.206048786127","category":"94","category_name":"西餐厅","address":"徐汇区建国西路283号尚街LOFT1104-1105室(近嘉善路)"},{"poiid":"B2094757D06FA1F94199","title":"x-club镭战主题酒吧","lon":"121.4580286","lat":"31.202248626","category":"260","category_name":"其他","address":"徐汇区肇嘉浜路366号裕华大厦B1楼(襄阳南路口)"},{"poiid":"B2094757D06FAAF54998","title":"亚太企业大厦","lon":"121.460398738","lat":"31.2025817111","category":"46","category_name":"楼宇","address":"丰台学城海鹰路1号，3号"},{"poiid":"B2094757DB69A4F44799","title":"美粤华大酒店","lon":"121.46171300553","lat":"31.203175634525","category":"72","category_name":"广东菜","address":"徐汇区肇嘉浜路238号(陕西南路口)"},{"poiid":"B2094757D06BA2F54793","title":"城日本料理","lon":"121.460953738","lat":"31.2022887049","category":"95","category_name":"日本料理","address":"徐汇区肇嘉浜路265号(近大木桥路)"},{"poiid":"B2094655D264A5FA469F","title":"尚街创意园","lon":"121.4603","lat":"31.20464","category":"45","category_name":"产业园区","address":"嘉善路508号"},{"poiid":"B2094757D068A3FA409A","title":"肇嘉浜路大木桥路","lon":"121.46147","lat":"31.202822","category":"38","category_name":"公交车站","address":"上海肇嘉浜路大木桥路"},{"poiid":"B2094757D068A0FF409A","title":"襄阳南路","lon":"121.45744273","lat":"31.201941697","category":"34","category_name":"港口码头","address":"上海卢湾区襄阳南路"},{"poiid":"B2094752D469A3FB4292","title":"平壤饭店","lon":"121.459587","lat":"31.202561","category":"247","category_name":"餐饮美食","address":"上海肇家浜路359号二楼"},{"poiid":"B209475CD36FA5F8499C","title":"捞王锅物料理 肇嘉浜路店","lon":"121.46121","lat":"31.20346","category":"72","category_name":"广东菜","address":"肇嘉浜路268号2楼(近嘉善路地铁站2号出口)"},{"poiid":"B2094654DB64AAFB499C","title":"工商大厦","lon":"121.46143","lat":"31.20242","category":"46","category_name":"楼宇","address":"上海市四川北路1851号"},{"poiid":"B2094654DB64A6FC469A","title":"西湘记","lon":"121.45824","lat":"31.20174","category":"77","category_name":"湖南菜","address":"徐汇区肇嘉浜路407号(近襄阳南路)"},{"poiid":"B2094757D068A5FB499B","title":"招商银行大木桥支行(肇嘉浜路333号)","lon":"121.46071624","lat":"31.202276229","category":"46","category_name":"楼宇","address":"上海市徐汇区肇嘉浜路333号"},{"poiid":"B2094750D664A3F54598","title":"鸿公馆","lon":"121.458","lat":"31.2034","category":"72","category_name":"广东菜","address":"徐汇区襄阳南路578号乙(近肇嘉浜路)"},{"poiid":"B2094655D26BA3FD449D","title":"渔蒙家火锅 肇嘉浜路店","lon":"121.459707054","lat":"31.201780793","category":"257","category_name":"中餐厅","address":"徐汇区肇嘉浜路359号(近大木桥路)"},{"poiid":"B2094757D165AAFE4392","title":"QUEEN'S PALACE婚纱礼服馆","lon":"121.458569738","lat":"31.2023247056","category":"260","category_name":"其他","address":"卢湾区徐家汇路618号日月光中心广场B2楼台湾馆口(近瑞金二路)"},{"poiid":"B2094750D76CAAF54698","title":"可颂坊(肇嘉浜路店)","lon":"121.458","lat":"31.2024","category":"112","category_name":"糕饼店","address":"徐汇区肇嘉浜路376号(近襄阳南路)"},{"poiid":"B2094654DA6DA6FB4798","title":"城隍庙特色小吃","lon":"121.46061983052","lat":"31.203044561955","category":"68","category_name":"快餐厅","address":"徐汇区嘉善路518号(近建国西路)"},{"poiid":"B2094655D26EA0F5459E","title":"全家便利店(肇嘉浜店)","lon":"121.46025","lat":"31.20239","category":"117","category_name":"便民商店/便利店","address":"徐汇区肇嘉浜路359-361号105室(近襄阳南路)"},{"poiid":"B2094654DA6EA2FF499F","title":"嘉乐公寓","lon":"121.45933","lat":"31.201952","category":"47","category_name":"住宅区","address":"肇嘉浜路383号"},{"poiid":"B2094655D268A3FF419B","title":"境界桌球","lon":"121.45993","lat":"31.20219","category":"171","category_name":"台球厅","address":"徐汇区肇嘉浜路359号6楼(近大木桥路)"},{"poiid":"B2094757D568A0F5429B","title":"阿婆葱油饼","lon":"121.4582589","lat":"31.20335306","category":"68","category_name":"快餐厅","address":"徐汇区襄阳南路578弄口(近肇嘉浜路)"},{"poiid":"B2094655D36DA6FD4698","title":"嘉善路","lon":"121.4609","lat":"31.20286","category":"38","category_name":"公交车站","address":""},{"poiid":"B2094757D069A1FC4192","title":"上茶新概念茶坊(徐汇店)","lon":"121.46111","lat":"31.2023","category":"260","category_name":"其他","address":"徐汇区肇嘉浜路333号2楼(近大木桥路)"},{"poiid":"B2094654DA6EA2FF489F","title":"中国科学院上海分院研究生公寓","lon":"121.45835","lat":"31.20177","category":"47","category_name":"住宅区","address":"肇嘉浜路407"},{"poiid":"B2094654DA6EA2F9409F","title":"山夫茶馆","lon":"121.46152","lat":"31.20101","category":"76","category_name":"上海菜","address":"徐汇区大木桥路85号(近肇嘉浜路)"},{"poiid":"B2094757D56DA3FC489F","title":"早安巴黎 肇嘉浜路店 Bon Matin","lon":"121.461264054","lat":"31.203140793","category":"247","category_name":"餐饮美食","address":"肇嘉浜路288号601室近大木桥路"},{"poiid":"B2094654DA6EA2FF4998","title":"兴南花园","lon":"121.45892","lat":"31.200953","category":"47","category_name":"住宅区","address":"肇嘉浜路393号"},{"poiid":"B2094757D66EA6F44992","title":"嘉韵保健会所","lon":"121.459657738","lat":"31.2011786812","category":"500","category_name":"未知分类","address":"上海肇嘉浜路333号"},{"poiid":"B2094654DA6EA2FE499A","title":"徐汇嘉馨公寓","lon":"121.4596","lat":"31.20101","category":"47","category_name":"住宅区","address":"上海市徐汇区医学院路15号"},{"poiid":"B2094654DA6EA2F8409E","title":"中国民生银行上海西南支行","lon":"121.46038","lat":"31.20228","category":"150","category_name":"银行","address":"肇嘉浜路333-3"},{"poiid":"B209475DDA69A5FF469A","title":"人和馆","lon":"121.458038","lat":"31.201763","category":"247","category_name":"餐饮美食","address":"上海市 肇加浜路407弄"},{"poiid":"B2094654DA6EA2FF499E","title":"上海恺宏口腔门诊部","lon":"121.45877","lat":"31.20177","category":"162","category_name":"医院","address":"徐汇区肇嘉浜路393号2楼"},{"poiid":"B2094752DB6AA3F84692","title":"同一首歌","lon":"121.459739","lat":"31.200976","category":"170","category_name":"KTV","address":"上海市 斜土路"},{"poiid":"B2094654DA6EA2F8419A","title":"上海市南洋初级中学","lon":"121.46044","lat":"31.20132","category":"55","category_name":"中学","address":"徐汇区大木桥路40号(近肇嘉浜路)"},{"poiid":"B2094757D06EAAFE409C","title":"王朝大酒店 徐汇店","lon":"121.46048529876","lat":"31.20305230008","category":"76","category_name":"上海菜","address":"徐汇区肇嘉浜路288号(近大木桥路)"},{"poiid":"B2094757D06EAAF54292","title":"辣府","lon":"121.46055803420836","lat":"31.204216638609246","category":"71","category_name":"四川菜","address":"徐汇区嘉善路512号附5号(近肇嘉浜路)"},{"poiid":"B2094757D06FA7FF459C","title":"旭日屋 襄阳南路","lon":"121.45815664124","lat":"31.204645031668","category":"95","category_name":"日本料理","address":"徐汇区襄阳南路533号(近肇嘉浜路)"},{"poiid":"B2094753D76FAAFA449C","title":"上海滩国泰旗舰店","lon":"121.466011","lat":"31.216125","category":"249","category_name":"购物服务","address":"淮海中路868号"},{"poiid":"B209475CD564A7F84292","title":"上海滩新天地店","lon":"121.47463","lat":"31.22164","category":"119","category_name":"商场","address":"\"太仓路181弄新天地北里15号\r\n\""},{"poiid":"B209475CD564A7F8439E","title":"上海滩中信泰富店","lon":"121.45602","lat":"31.22851","category":"119","category_name":"商场","address":"\"南京西路1168号中信泰富广场，店铺号221.\r\n\""},{"poiid":"B2094751DA6FAAF8459A","title":"捞王猪肚鸡火锅","lon":"121.461071","lat":"31.203251","category":"247","category_name":"餐饮美食","address":"肇嘉浜路嘉善路"},{"poiid":"B2094757D06EAAF44499","title":"嘉善路地铁站","lon":"121.46090136","lat":"31.202866912","category":"36","category_name":"地铁站","address":"上海轨道交通 九号线 轨交嘉善路站 9"},{"poiid":"B2094655D26BA0FA479B","title":"新苑私房菜","lon":"121.4603","lat":"31.20464","category":"76","category_name":"上海菜","address":"徐汇区嘉善路508号尚街1号楼102室(肇嘉浜路建国西路间)"},{"poiid":"B2094757D06FA4F94993","title":"小鹭鹭酒家","lon":"121.46125473","lat":"31.202688713","category":"71","category_name":"四川菜","address":"徐汇区肇嘉浜路268号(近嘉善路)"},{"poiid":"B2094757D06FA0F9439A","title":"木村日本料理(肇嘉浜路店)","lon":"121.460549838","lat":"31.2040251418","category":"95","category_name":"日本料理","address":"徐汇区嘉善路524号(近肇嘉浜路)"},{"poiid":"B2094757D06FABFD4893","title":"上海市工商局","lon":"121.461493314","lat":"31.2023573778","category":"46","category_name":"楼宇","address":"上海肇嘉浜路301号"},{"poiid":"B2094757D168AAFC429E","title":"好友汇","lon":"121.46108","lat":"31.201038","category":"500","category_name":"未知分类","address":"上海市肇嘉浜路263号"},{"poiid":"B2094757D068A7FD4799","title":"上海市高级人民法院","lon":"121.45943123","lat":"31.203331163","category":"608","category_name":"法院","address":"上海市徐汇区肇嘉浜路308号"},{"poiid":"B2094757D06FA0F94892","title":"陌生人火锅餐厅(肇嘉浜路店)","lon":"121.46145","lat":"31.20307","category":"86","category_name":"火锅店","address":"徐汇区肇嘉浜路268号(近嘉善路)"},{"poiid":"B2094757D06FA0FF419B","title":"沃歌斯 建国西路店 wagas","lon":"121.46050136399","lat":"31.206048786127","category":"94","category_name":"西餐厅","address":"徐汇区建国西路283号尚街LOFT1104-1105室(近嘉善路)"},{"poiid":"B2094757D06FA1F94199","title":"x-club镭战主题酒吧","lon":"121.4580286","lat":"31.202248626","category":"260","category_name":"其他","address":"徐汇区肇嘉浜路366号裕华大厦B1楼(襄阳南路口)"},{"poiid":"B2094757D06FAAF54998","title":"亚太企业大厦","lon":"121.460398738","lat":"31.2025817111","category":"46","category_name":"楼宇","address":"丰台学城海鹰路1号，3号"},{"poiid":"B2094757DB69A4F44799","title":"美粤华大酒店","lon":"121.46171300553","lat":"31.203175634525","category":"72","category_name":"广东菜","address":"徐汇区肇嘉浜路238号(陕西南路口)"},{"poiid":"B2094757D06BA2F54793","title":"城日本料理","lon":"121.460953738","lat":"31.2022887049","category":"95","category_name":"日本料理","address":"徐汇区肇嘉浜路265号(近大木桥路)"},{"poiid":"B2094655D264A5FA469F","title":"尚街创意园","lon":"121.4603","lat":"31.20464","category":"45","category_name":"产业园区","address":"嘉善路508号"},{"poiid":"B2094757D068A3FA409A","title":"肇嘉浜路大木桥路","lon":"121.46147","lat":"31.202822","category":"38","category_name":"公交车站","address":"上海肇嘉浜路大木桥路"},{"poiid":"B2094757D068A0FF409A","title":"襄阳南路","lon":"121.45744273","lat":"31.201941697","category":"34","category_name":"港口码头","address":"上海卢湾区襄阳南路"},{"poiid":"B2094752D469A3FB4292","title":"平壤饭店","lon":"121.459587","lat":"31.202561","category":"247","category_name":"餐饮美食","address":"上海肇家浜路359号二楼"},{"poiid":"B209475CD36FA5F8499C","title":"捞王锅物料理 肇嘉浜路店","lon":"121.46121","lat":"31.20346","category":"72","category_name":"广东菜","address":"肇嘉浜路268号2楼(近嘉善路地铁站2号出口)"},{"poiid":"B2094654DB64AAFB499C","title":"工商大厦","lon":"121.46143","lat":"31.20242","category":"46","category_name":"楼宇","address":"上海市四川北路1851号"},{"poiid":"B2094654DB64A6FC469A","title":"西湘记","lon":"121.45824","lat":"31.20174","category":"77","category_name":"湖南菜","address":"徐汇区肇嘉浜路407号(近襄阳南路)"},{"poiid":"B2094757D068A5FB499B","title":"招商银行大木桥支行(肇嘉浜路333号)","lon":"121.46071624","lat":"31.202276229","category":"46","category_name":"楼宇","address":"上海市徐汇区肇嘉浜路333号"},{"poiid":"B2094750D664A3F54598","title":"鸿公馆","lon":"121.458","lat":"31.2034","category":"72","category_name":"广东菜","address":"徐汇区襄阳南路578号乙(近肇嘉浜路)"},{"poiid":"B2094655D26BA3FD449D","title":"渔蒙家火锅 肇嘉浜路店","lon":"121.459707054","lat":"31.201780793","category":"257","category_name":"中餐厅","address":"徐汇区肇嘉浜路359号(近大木桥路)"},{"poiid":"B2094757D165AAFE4392","title":"QUEEN'S PALACE婚纱礼服馆","lon":"121.458569738","lat":"31.2023247056","category":"260","category_name":"其他","address":"卢湾区徐家汇路618号日月光中心广场B2楼台湾馆口(近瑞金二路)"},{"poiid":"B2094750D76CAAF54698","title":"可颂坊(肇嘉浜路店)","lon":"121.458","lat":"31.2024","category":"112","category_name":"糕饼店","address":"徐汇区肇嘉浜路376号(近襄阳南路)"},{"poiid":"B2094654DA6DA6FB4798","title":"城隍庙特色小吃","lon":"121.46061983052","lat":"31.203044561955","category":"68","category_name":"快餐厅","address":"徐汇区嘉善路518号(近建国西路)"},{"poiid":"B2094655D26EA0F5459E","title":"全家便利店(肇嘉浜店)","lon":"121.46025","lat":"31.20239","category":"117","category_name":"便民商店/便利店","address":"徐汇区肇嘉浜路359-361号105室(近襄阳南路)"},{"poiid":"B2094654DA6EA2FF499F","title":"嘉乐公寓","lon":"121.45933","lat":"31.201952","category":"47","category_name":"住宅区","address":"肇嘉浜路383号"},{"poiid":"B2094655D268A3FF419B","title":"境界桌球","lon":"121.45993","lat":"31.20219","category":"171","category_name":"台球厅","address":"徐汇区肇嘉浜路359号6楼(近大木桥路)"},{"poiid":"B2094757D568A0F5429B","title":"阿婆葱油饼","lon":"121.4582589","lat":"31.20335306","category":"68","category_name":"快餐厅","address":"徐汇区襄阳南路578弄口(近肇嘉浜路)"},{"poiid":"B2094655D36DA6FD4698","title":"嘉善路","lon":"121.4609","lat":"31.20286","category":"38","category_name":"公交车站","address":""},{"poiid":"B2094757D069A1FC4192","title":"上茶新概念茶坊(徐汇店)","lon":"121.46111","lat":"31.2023","category":"260","category_name":"其他","address":"徐汇区肇嘉浜路333号2楼(近大木桥路)"},{"poiid":"B2094654DA6EA2FF489F","title":"中国科学院上海分院研究生公寓","lon":"121.45835","lat":"31.20177","category":"47","category_name":"住宅区","address":"肇嘉浜路407"},{"poiid":"B2094654DA6EA2F9409F","title":"山夫茶馆","lon":"121.46152","lat":"31.20101","category":"76","category_name":"上海菜","address":"徐汇区大木桥路85号(近肇嘉浜路)"},{"poiid":"B2094757D56DA3FC489F","title":"早安巴黎 肇嘉浜路店 Bon Matin","lon":"121.461264054","lat":"31.203140793","category":"247","category_name":"餐饮美食","address":"肇嘉浜路288号601室近大木桥路"},{"poiid":"B2094654DA6EA2FF4998","title":"兴南花园","lon":"121.45892","lat":"31.200953","category":"47","category_name":"住宅区","address":"肇嘉浜路393号"},{"poiid":"B2094757D66EA6F44992","title":"嘉韵保健会所","lon":"121.459657738","lat":"31.2011786812","category":"500","category_name":"未知分类","address":"上海肇嘉浜路333号"},{"poiid":"B2094654DA6EA2FE499A","title":"徐汇嘉馨公寓","lon":"121.4596","lat":"31.20101","category":"47","category_name":"住宅区","address":"上海市徐汇区医学院路15号"},{"poiid":"B2094654DA6EA2F8409E","title":"中国民生银行上海西南支行","lon":"121.46038","lat":"31.20228","category":"150","category_name":"银行","address":"肇嘉浜路333-3"},{"poiid":"B209475DDA69A5FF469A","title":"人和馆","lon":"121.458038","lat":"31.201763","category":"247","category_name":"餐饮美食","address":"上海市 肇加浜路407弄"},{"poiid":"B2094654DA6EA2FF499E","title":"上海恺宏口腔门诊部","lon":"121.45877","lat":"31.20177","category":"162","category_name":"医院","address":"徐汇区肇嘉浜路393号2楼"},{"poiid":"B2094752DB6AA3F84692","title":"同一首歌","lon":"121.459739","lat":"31.200976","category":"170","category_name":"KTV","address":"上海市 斜土路"},{"poiid":"B2094654DA6EA2F8419A","title":"上海市南洋初级中学","lon":"121.46044","lat":"31.20132","category":"55","category_name":"中学","address":"徐汇区大木桥路40号(近肇嘉浜路)"}]