[{"poiid":"B2094654D565A5FA4492","title":"中山公园","lon":"121.42031","lat":"31.22094","category":"196","category_name":"公园","address":"长宁区长宁路780号(近定西路)"},{"poiid":"B2094757D06FA3FA4792","title":"巴黎春天(新宁店)","lon":"121.4215261","lat":"31.2193322","category":"119","category_name":"商场","address":"长宁区长宁路823号巴黎春天(定西路口)"},{"poiid":"B2094655D26AAAF4409B","title":"莲餐厅","lon":"121.42374","lat":"31.22021","category":"260","category_name":"其他","address":"长宁区长宁路641号(近愚园路)"},{"poiid":"B2094655D26FA6F44993","title":"贝多芬广场","lon":"121.421","lat":"31.2241","category":"46","category_name":"楼宇","address":"长宁区长宁路1200号贝多芬广场内(近轻轨中山公园站)"},{"poiid":"B2094757D06FA0F4479F","title":"长宁区政府","lon":"121.42471055","lat":"31.220813466","category":"253","category_name":"校园生活","address":"上海长宁路599号"},{"poiid":"B2094757D66BA3F84999","title":"三月咖啡馆 SIMBA COFFEE","lon":"121.421185054","lat":"31.224780793","category":"260","category_name":"其他","address":"长宁区万航渡路1384弄12号湖丝栈创意园区1号楼2楼(近华阳路)"},{"poiid":"B2094757D06FA5FD449C","title":"竹家庄避风塘(中山公园店)","lon":"121.4215715","lat":"31.2194413","category":"72","category_name":"广东菜","address":"长宁区长宁路772号(定西路口)"},{"poiid":"B2094654D565A5FD4598","title":"新时空国际商务广场","lon":"121.42330348883","lat":"31.223410258486","category":"46","category_name":"楼宇","address":"长宁路1031号(汇川路口)"},{"poiid":"B2094753D26CA7FE479F","title":"Ashley爱室丽家居（中山公园旗舰店）","lon":"121.42205356005","lat":"31.219201760961","category":"249","category_name":"购物服务","address":"长宁区愚园路1398号"},{"poiid":"B2094655D26BA6F44098","title":"尚街会馆","lon":"121.42463","lat":"31.22177","category":"46","category_name":"楼宇","address":"长宁区长宁路546号(近华阳路)"},{"poiid":"B2094654D565A5FD4798","title":"兆丰广场","lon":"121.424","lat":"31.224","category":"46","category_name":"楼宇","address":"上海市长宁路1027号"},{"poiid":"B2094757D06FA6F84093","title":"兆丰别墅","lon":"121.42242","lat":"31.220419","category":"47","category_name":"住宅区","address":"上海长宁路712弄"},{"poiid":"B2094654DB6BA6F94492","title":"锦江之星(中山公园店)","lon":"121.42503","lat":"31.22184","category":"216","category_name":"经济型连锁酒店","address":"上海市长宁区长宁路546号(邮编200051)"},{"poiid":"B2094757D069A6FD439E","title":"中山公园翻斗乐","lon":"121.421014","lat":"31.219922","category":"196","category_name":"公园","address":"长宁区长宁路780号中山公园内(近定西路)"},{"poiid":"B2094757D66CA4FE449B","title":"大胡子烧烤","lon":"121.42285358","lat":"31.222736284","category":"68","category_name":"快餐厅","address":"长宁区华阳路(近长宁路)"},{"poiid":"B2094655D26DA1FC409F","title":"湖丝栈创意产业园","lon":"121.42192","lat":"31.22534","category":"45","category_name":"产业园区","address":"万航渡路1384弄12"},{"poiid":"B2094757D06AA3FB4992","title":"汇都精作坊","lon":"121.42476","lat":"31.221551","category":"72","category_name":"广东菜","address":"长宁区长宁路546号尚街会馆1楼(近中山公园)"},{"poiid":"B2094757D06FA3FB489A","title":"COCO壱番屋(中山公园店)","lon":"121.4227","lat":"31.21971","category":"95","category_name":"日本料理","address":"长宁区长宁路730号(近定西路)"},{"poiid":"B2094751D468A5FA459F","title":"地铁二号线江苏路站","lon":"121.423034","lat":"31.22212","category":"500","category_name":"未知分类","address":null},{"poiid":"B2094757D06AA3FC419B","title":"大胡子清真餐饮店","lon":"121.422336054","lat":"31.223140793","category":"90","category_name":"清真餐馆","address":"长宁区华阳路217号(近长宁支路)"},{"poiid":"B2094750D36BA2FF459E","title":"南京东路步行街","lon":"121.423423","lat":"31.224243","category":"500","category_name":"未知分类","address":null},{"poiid":"B2094757D06FA6FF4192","title":"萨莉亚(中山公园店)","lon":"121.421981109","lat":"31.2197772971","category":"94","category_name":"西餐厅","address":"长宁区长宁路748号1楼(近定西路)"},{"poiid":"B2094654D565A5FA459E","title":"必胜客中山餐厅","lon":"121.42168","lat":"31.21965","category":"68","category_name":"快餐厅","address":"长宁路770"},{"poiid":"B2094757D469A7FC4892","title":"大个子葱油饼","lon":"121.42256","lat":"31.22313","category":"68","category_name":"快餐厅","address":"长宁区华阳路172弄2-22号(长宁支路口)"},{"poiid":"B2094757D568A6FC4592","title":"莲·创意楚菜","lon":"121.423797","lat":"31.220224","category":"257","category_name":"中餐厅","address":"长宁路641"},{"poiid":"B2094655D26DA3FC409D","title":"三泾北宅","lon":"121.42201029997","lat":"31.221542472714","category":"47","category_name":"住宅区","address":"长宁路1135弄"},{"poiid":"B2094757D064A6F54698","title":"民心小区","lon":"121.42525","lat":"31.223598","category":"47","category_name":"住宅区","address":"上海长宁区长宁路396弄"},{"poiid":"B2094757D06AA0FB439B","title":"华秀小区","lon":"121.4231","lat":"31.224098","category":"47","category_name":"住宅区","address":"上海万航渡路1424弄"},{"poiid":"B2094757D16CA6FC4693","title":"长宁区华阳街道社区卫生服务中心","lon":"121.423778586","lat":"31.222970289","category":"162","category_name":"医院","address":"上海市长宁区华阳路225号"},{"poiid":"B2094654DB6BA6F9469F","title":"罗森(华阳路)","lon":"121.42279","lat":"31.22342","category":"117","category_name":"便民商店/便利店","address":"长宁区长宁支路333号(长宁支路华阳路)"},{"poiid":"B2094655D26EA5FC4093","title":"COCO一番屋(中山公园店)","lon":"121.42177","lat":"31.21969","category":"247","category_name":"餐饮美食","address":"长宁区长宁路730号"},{"poiid":"B2094655D265AAFB469C","title":"华四小区","lon":"121.42332","lat":"31.22166","category":"47","category_name":"住宅区","address":"华阳路298弄1-6号"},{"poiid":"B2094757D069A4FD4193","title":"三商巧福(中山公园店)","lon":"121.421662","lat":"31.219663","category":"68","category_name":"快餐厅","address":"长宁区长宁路770号2楼(近Ashely)"},{"poiid":"B2094654D565A5FB4392","title":"金阳小区","lon":"121.42384","lat":"31.222725","category":"47","category_name":"住宅区","address":"华阳路249弄1-11号"},{"poiid":"B2094757DA64A6FE4492","title":"长宁来福士广场","lon":"121.421941","lat":"31.221843","category":"252","category_name":"楼宇机构","address":"长宁区长宁路的中山公园区域内"},{"poiid":"B2094654D565A5F44899","title":"久香面包房 长宁支路店","lon":"121.42362","lat":"31.22396","category":"112","category_name":"糕饼店","address":"长宁区长宁支路312号(近华阳路)"},{"poiid":"B2094654D565A5FA499F","title":"上海市长宁区卫生学校","lon":"121.42127","lat":"31.22307","category":"54","category_name":"职业技术学校","address":"华阳路112"},{"poiid":"B2094655D264A0F44792","title":"华阳小苑(东门)","lon":"121.42217","lat":"31.2233","category":"47","category_name":"住宅区","address":"华阳路164"},{"poiid":"B2094757D16EA6FC479E","title":"上海市现代职业技术学校","lon":"121.421276","lat":"31.22307","category":"253","category_name":"校园生活","address":"上海华阳路112号"},{"poiid":"B2094655D26DA7FA4498","title":"华电小区(西门)","lon":"121.42234","lat":"31.22333","category":"47","category_name":"住宅区","address":"华阳路165弄1-3号"},{"poiid":"B2094655D26BA0FF409C","title":"华四小区(东门)","lon":"121.42371","lat":"31.22179","category":"47","category_name":"住宅区","address":"华阳路298弄1-6号"},{"poiid":"B2094655D26BA7F5479A","title":"华阳小苑","lon":"121.42206","lat":"31.22324","category":"47","category_name":"住宅区","address":"华阳路164"},{"poiid":"B2094753DA6EA3FA4298","title":"凯欣豪园二期","lon":"121.424","lat":"31.2228","category":"47","category_name":"住宅区","address":"汇川路88号"},{"poiid":"B2094654D565A5FB449E","title":"盛业公寓","lon":"121.42419","lat":"31.221888","category":"47","category_name":"住宅区","address":"盛业公寓位于长宁华阳路269号"},{"poiid":"B2094757D064A1FF429B","title":"米娜视觉","lon":"121.42251948","lat":"31.221376157","category":"500","category_name":"未知分类","address":"上海长宁区长宁路515号"},{"poiid":"B2094655D26DA7F94993","title":"上海市现代职业技术学校(东门)","lon":"121.42185","lat":"31.22352","category":"678","category_name":"学校大门","address":"华阳路112"},{"poiid":"B2094654D565A5FB439B","title":"华电小区","lon":"121.42265","lat":"31.223539","category":"47","category_name":"住宅区","address":"华阳路165弄1-3号"},{"poiid":"B2094655D265A7FB4992","title":"上海市省吾中学","lon":"121.42348","lat":"31.22438","category":"55","category_name":"中学","address":"长宁支路315弄2"},{"poiid":"B2094757D16EA0FD479C","title":"长宁支路四川万氏老爹烧烤摊","lon":"121.42408","lat":"31.22434","category":"68","category_name":"快餐厅","address":"长宁区长宁支路307号光明便利店附近(近华阳路)"},{"poiid":"B2094757D064ABFA479E","title":"华馨小区","lon":"121.42066","lat":"31.22364","category":"47","category_name":"住宅区","address":"上海万航渡路1486弄"},{"poiid":"B2094654D565A5FA4492","title":"中山公园","lon":"121.42031","lat":"31.22094","category":"196","category_name":"公园","address":"长宁区长宁路780号(近定西路)"},{"poiid":"B2094757D06FA3FA4792","title":"巴黎春天(新宁店)","lon":"121.4215261","lat":"31.2193322","category":"119","category_name":"商场","address":"长宁区长宁路823号巴黎春天(定西路口)"},{"poiid":"B2094655D26AAAF4409B","title":"莲餐厅","lon":"121.42374","lat":"31.22021","category":"260","category_name":"其他","address":"长宁区长宁路641号(近愚园路)"},{"poiid":"B2094655D26FA6F44993","title":"贝多芬广场","lon":"121.421","lat":"31.2241","category":"46","category_name":"楼宇","address":"长宁区长宁路1200号贝多芬广场内(近轻轨中山公园站)"},{"poiid":"B2094757D06FA0F4479F","title":"长宁区政府","lon":"121.42471055","lat":"31.220813466","category":"253","category_name":"校园生活","address":"上海长宁路599号"},{"poiid":"B2094757D66BA3F84999","title":"三月咖啡馆 SIMBA COFFEE","lon":"121.421185054","lat":"31.224780793","category":"260","category_name":"其他","address":"长宁区万航渡路1384弄12号湖丝栈创意园区1号楼2楼(近华阳路)"},{"poiid":"B2094757D06FA5FD449C","title":"竹家庄避风塘(中山公园店)","lon":"121.4215715","lat":"31.2194413","category":"72","category_name":"广东菜","address":"长宁区长宁路772号(定西路口)"},{"poiid":"B2094654D565A5FD4598","title":"新时空国际商务广场","lon":"121.42330348883","lat":"31.223410258486","category":"46","category_name":"楼宇","address":"长宁路1031号(汇川路口)"},{"poiid":"B2094753D26CA7FE479F","title":"Ashley爱室丽家居（中山公园旗舰店）","lon":"121.42205356005","lat":"31.219201760961","category":"249","category_name":"购物服务","address":"长宁区愚园路1398号"},{"poiid":"B2094655D26BA6F44098","title":"尚街会馆","lon":"121.42463","lat":"31.22177","category":"46","category_name":"楼宇","address":"长宁区长宁路546号(近华阳路)"},{"poiid":"B2094654D565A5FD4798","title":"兆丰广场","lon":"121.424","lat":"31.224","category":"46","category_name":"楼宇","address":"上海市长宁路1027号"},{"poiid":"B2094757D06FA6F84093","title":"兆丰别墅","lon":"121.42242","lat":"31.220419","category":"47","category_name":"住宅区","address":"上海长宁路712弄"},{"poiid":"B2094654DB6BA6F94492","title":"锦江之星(中山公园店)","lon":"121.42503","lat":"31.22184","category":"216","category_name":"经济型连锁酒店","address":"上海市长宁区长宁路546号(邮编200051)"},{"poiid":"B2094757D069A6FD439E","title":"中山公园翻斗乐","lon":"121.421014","lat":"31.219922","category":"196","category_name":"公园","address":"长宁区长宁路780号中山公园内(近定西路)"},{"poiid":"B2094757D66CA4FE449B","title":"大胡子烧烤","lon":"121.42285358","lat":"31.222736284","category":"68","category_name":"快餐厅","address":"长宁区华阳路(近长宁路)"},{"poiid":"B2094655D26DA1FC409F","title":"湖丝栈创意产业园","lon":"121.42192","lat":"31.22534","category":"45","category_name":"产业园区","address":"万航渡路1384弄12"},{"poiid":"B2094757D06AA3FB4992","title":"汇都精作坊","lon":"121.42476","lat":"31.221551","category":"72","category_name":"广东菜","address":"长宁区长宁路546号尚街会馆1楼(近中山公园)"},{"poiid":"B2094757D06FA3FB489A","title":"COCO壱番屋(中山公园店)","lon":"121.4227","lat":"31.21971","category":"95","category_name":"日本料理","address":"长宁区长宁路730号(近定西路)"},{"poiid":"B2094751D468A5FA459F","title":"地铁二号线江苏路站","lon":"121.423034","lat":"31.22212","category":"500","category_name":"未知分类","address":null},{"poiid":"B2094757D06AA3FC419B","title":"大胡子清真餐饮店","lon":"121.422336054","lat":"31.223140793","category":"90","category_name":"清真餐馆","address":"长宁区华阳路217号(近长宁支路)"},{"poiid":"B2094750D36BA2FF459E","title":"南京东路步行街","lon":"121.423423","lat":"31.224243","category":"500","category_name":"未知分类","address":null},{"poiid":"B2094757D06FA6FF4192","title":"萨莉亚(中山公园店)","lon":"121.421981109","lat":"31.2197772971","category":"94","category_name":"西餐厅","address":"长宁区长宁路748号1楼(近定西路)"},{"poiid":"B2094654D565A5FA459E","title":"必胜客中山餐厅","lon":"121.42168","lat":"31.21965","category":"68","category_name":"快餐厅","address":"长宁路770"},{"poiid":"B2094757D469A7FC4892","title":"大个子葱油饼","lon":"121.42256","lat":"31.22313","category":"68","category_name":"快餐厅","address":"长宁区华阳路172弄2-22号(长宁支路口)"},{"poiid":"B2094757D568A6FC4592","title":"莲·创意楚菜","lon":"121.423797","lat":"31.220224","category":"257","category_name":"中餐厅","address":"长宁路641"},{"poiid":"B2094655D26DA3FC409D","title":"三泾北宅","lon":"121.42201029997","lat":"31.221542472714","category":"47","category_name":"住宅区","address":"长宁路1135弄"},{"poiid":"B2094757D064A6F54698","title":"民心小区","lon":"121.42525","lat":"31.223598","category":"47","category_name":"住宅区","address":"上海长宁区长宁路396弄"},{"poiid":"B2094757D06AA0FB439B","title":"华秀小区","lon":"121.4231","lat":"31.224098","category":"47","category_name":"住宅区","address":"上海万航渡路1424弄"},{"poiid":"B2094757D16CA6FC4693","title":"长宁区华阳街道社区卫生服务中心","lon":"121.423778586","lat":"31.222970289","category":"162","category_name":"医院","address":"上海市长宁区华阳路225号"},{"poiid":"B2094654DB6BA6F9469F","title":"罗森(华阳路)","lon":"121.42279","lat":"31.22342","category":"117","category_name":"便民商店/便利店","address":"长宁区长宁支路333号(长宁支路华阳路)"},{"poiid":"B2094655D26EA5FC4093","title":"COCO一番屋(中山公园店)","lon":"121.42177","lat":"31.21969","category":"247","category_name":"餐饮美食","address":"长宁区长宁路730号"},{"poiid":"B2094655D265AAFB469C","title":"华四小区","lon":"121.42332","lat":"31.22166","category":"47","category_name":"住宅区","address":"华阳路298弄1-6号"},{"poiid":"B2094757D069A4FD4193","title":"三商巧福(中山公园店)","lon":"121.421662","lat":"31.219663","category":"68","category_name":"快餐厅","address":"长宁区长宁路770号2楼(近Ashely)"},{"poiid":"B2094654D565A5FB4392","title":"金阳小区","lon":"121.42384","lat":"31.222725","category":"47","category_name":"住宅区","address":"华阳路249弄1-11号"},{"poiid":"B2094757DA64A6FE4492","title":"长宁来福士广场","lon":"121.421941","lat":"31.221843","category":"252","category_name":"楼宇机构","address":"长宁区长宁路的中山公园区域内"},{"poiid":"B2094654D565A5F44899","title":"久香面包房 长宁支路店","lon":"121.42362","lat":"31.22396","category":"112","category_name":"糕饼店","address":"长宁区长宁支路312号(近华阳路)"},{"poiid":"B2094654D565A5FA499F","title":"上海市长宁区卫生学校","lon":"121.42127","lat":"31.22307","category":"54","category_name":"职业技术学校","address":"华阳路112"},{"poiid":"B2094655D264A0F44792","title":"华阳小苑(东门)","lon":"121.42217","lat":"31.2233","category":"47","category_name":"住宅区","address":"华阳路164"},{"poiid":"B2094757D16EA6FC479E","title":"上海市现代职业技术学校","lon":"121.421276","lat":"31.22307","category":"253","category_name":"校园生活","address":"上海华阳路112号"},{"poiid":"B2094655D26DA7FA4498","title":"华电小区(西门)","lon":"121.42234","lat":"31.22333","category":"47","category_name":"住宅区","address":"华阳路165弄1-3号"},{"poiid":"B2094655D26BA0FF409C","title":"华四小区(东门)","lon":"121.42371","lat":"31.22179","category":"47","category_name":"住宅区","address":"华阳路298弄1-6号"},{"poiid":"B2094655D26BA7F5479A","title":"华阳小苑","lon":"121.42206","lat":"31.22324","category":"47","category_name":"住宅区","address":"华阳路164"},{"poiid":"B2094753DA6EA3FA4298","title":"凯欣豪园二期","lon":"121.424","lat":"31.2228","category":"47","category_name":"住宅区","address":"汇川路88号"},{"poiid":"B2094654D565A5FB449E","title":"盛业公寓","lon":"121.42419","lat":"31.221888","category":"47","category_name":"住宅区","address":"盛业公寓位于长宁华阳路269号"},{"poiid":"B2094757D064A1FF429B","title":"米娜视觉","lon":"121.42251948","lat":"31.221376157","category":"500","category_name":"未知分类","address":"上海长宁区长宁路515号"},{"poiid":"B2094655D26DA7F94993","title":"上海市现代职业技术学校(东门)","lon":"121.42185","lat":"31.22352","category":"678","category_name":"学校大门","address":"华阳路112"},{"poiid":"B2094654D565A5FB439B","title":"华电小区","lon":"121.42265","lat":"31.223539","category":"47","category_name":"住宅区","address":"华阳路165弄1-3号"},{"poiid":"B2094655D265A7FB4992","title":"上海市省吾中学","lon":"121.42348","lat":"31.22438","category":"55","category_name":"中学","address":"长宁支路315弄2"},{"poiid":"B2094757D16EA0FD479C","title":"长宁支路四川万氏老爹烧烤摊","lon":"121.42408","lat":"31.22434","category":"68","category_name":"快餐厅","address":"长宁区长宁支路307号光明便利店附近(近华阳路)"},{"poiid":"B2094757D064ABFA479E","title":"华馨小区","lon":"121.42066","lat":"31.22364","category":"47","category_name":"住宅区","address":"上海万航渡路1486弄"},{"poiid":"B2094654D565A5FA4492","title":"中山公园","lon":"121.42031","lat":"31.22094","category":"196","category_name":"公园","address":"长宁区长宁路780号(近定西路)"},{"poiid":"B2094757D06FA3FA4792","title":"巴黎春天(新宁店)","lon":"121.4215261","lat":"31.2193322","category":"119","category_name":"商场","address":"长宁区长宁路823号巴黎春天(定西路口)"},{"poiid":"B2094655D26AAAF4409B","title":"莲餐厅","lon":"121.42374","lat":"31.22021","category":"260","category_name":"其他","address":"长宁区长宁路641号(近愚园路)"},{"poiid":"B2094655D26FA6F44993","title":"贝多芬广场","lon":"121.421","lat":"31.2241","category":"46","category_name":"楼宇","address":"长宁区长宁路1200号贝多芬广场内(近轻轨中山公园站)"},{"poiid":"B2094757D06FA0F4479F","title":"长宁区政府","lon":"121.42471055","lat":"31.220813466","category":"253","category_name":"校园生活","address":"上海长宁路599号"},{"poiid":"B2094757D66BA3F84999","title":"三月咖啡馆 SIMBA COFFEE","lon":"121.421185054","lat":"31.224780793","category":"260","category_name":"其他","address":"长宁区万航渡路1384弄12号湖丝栈创意园区1号楼2楼(近华阳路)"},{"poiid":"B2094757D06FA5FD449C","title":"竹家庄避风塘(中山公园店)","lon":"121.4215715","lat":"31.2194413","category":"72","category_name":"广东菜","address":"长宁区长宁路772号(定西路口)"},{"poiid":"B2094654D565A5FD4598","title":"新时空国际商务广场","lon":"121.42330348883","lat":"31.223410258486","category":"46","category_name":"楼宇","address":"长宁路1031号(汇川路口)"},{"poiid":"B2094753D26CA7FE479F","title":"Ashley爱室丽家居（中山公园旗舰店）","lon":"121.42205356005","lat":"31.219201760961","category":"249","category_name":"购物服务","address":"长宁区愚园路1398号"},{"poiid":"B2094655D26BA6F44098","title":"尚街会馆","lon":"121.42463","lat":"31.22177","category":"46","category_name":"楼宇","address":"长宁区长宁路546号(近华阳路)"},{"poiid":"B2094654D565A5FD4798","title":"兆丰广场","lon":"121.424","lat":"31.224","category":"46","category_name":"楼宇","address":"上海市长宁路1027号"},{"poiid":"B2094757D06FA6F84093","title":"兆丰别墅","lon":"121.42242","lat":"31.220419","category":"47","category_name":"住宅区","address":"上海长宁路712弄"},{"poiid":"B2094654DB6BA6F94492","title":"锦江之星(中山公园店)","lon":"121.42503","lat":"31.22184","category":"216","category_name":"经济型连锁酒店","address":"上海市长宁区长宁路546号(邮编200051)"},{"poiid":"B2094757D069A6FD439E","title":"中山公园翻斗乐","lon":"121.421014","lat":"31.219922","category":"196","category_name":"公园","address":"长宁区长宁路780号中山公园内(近定西路)"},{"poiid":"B2094757D66CA4FE449B","title":"大胡子烧烤","lon":"121.42285358","lat":"31.222736284","category":"68","category_name":"快餐厅","address":"长宁区华阳路(近长宁路)"},{"poiid":"B2094655D26DA1FC409F","title":"湖丝栈创意产业园","lon":"121.42192","lat":"31.22534","category":"45","category_name":"产业园区","address":"万航渡路1384弄12"},{"poiid":"B2094757D06AA3FB4992","title":"汇都精作坊","lon":"121.42476","lat":"31.221551","category":"72","category_name":"广东菜","address":"长宁区长宁路546号尚街会馆1楼(近中山公园)"},{"poiid":"B2094757D06FA3FB489A","title":"COCO壱番屋(中山公园店)","lon":"121.4227","lat":"31.21971","category":"95","category_name":"日本料理","address":"长宁区长宁路730号(近定西路)"},{"poiid":"B2094751D468A5FA459F","title":"地铁二号线江苏路站","lon":"121.423034","lat":"31.22212","category":"500","category_name":"未知分类","address":null},{"poiid":"B2094757D06AA3FC419B","title":"大胡子清真餐饮店","lon":"121.422336054","lat":"31.223140793","category":"90","category_name":"清真餐馆","address":"长宁区华阳路217号(近长宁支路)"},{"poiid":"B2094750D36BA2FF459E","title":"南京东路步行街","lon":"121.423423","lat":"31.224243","category":"500","category_name":"未知分类","address":null},{"poiid":"B2094757D06FA6FF4192","title":"萨莉亚(中山公园店)","lon":"121.421981109","lat":"31.2197772971","category":"94","category_name":"西餐厅","address":"长宁区长宁路748号1楼(近定西路)"},{"poiid":"B2094654D565A5FA459E","title":"必胜客中山餐厅","lon":"121.42168","lat":"31.21965","category":"68","category_name":"快餐厅","address":"长宁路770"},{"poiid":"B2094757D469A7FC4892","title":"大个子葱油饼","lon":"121.42256","lat":"31.22313","category":"68","category_name":"快餐厅","address":"长宁区华阳路172弄2-22号(长宁支路口)"},{"poiid":"B2094757D568A6FC4592","title":"莲·创意楚菜","lon":"121.423797","lat":"31.220224","category":"257","category_name":"中餐厅","address":"长宁路641"},{"poiid":"B2094655D26DA3FC409D","title":"三泾北宅","lon":"121.42201029997","lat":"31.221542472714","category":"47","category_name":"住宅区","address":"长宁路1135弄"},{"poiid":"B2094757D064A6F54698","title":"民心小区","lon":"121.42525","lat":"31.223598","category":"47","category_name":"住宅区","address":"上海长宁区长宁路396弄"},{"poiid":"B2094757D06AA0FB439B","title":"华秀小区","lon":"121.4231","lat":"31.224098","category":"47","category_name":"住宅区","address":"上海万航渡路1424弄"},{"poiid":"B2094757D16CA6FC4693","title":"长宁区华阳街道社区卫生服务中心","lon":"121.423778586","lat":"31.222970289","category":"162","category_name":"医院","address":"上海市长宁区华阳路225号"},{"poiid":"B2094654DB6BA6F9469F","title":"罗森(华阳路)","lon":"121.42279","lat":"31.22342","category":"117","category_name":"便民商店/便利店","address":"长宁区长宁支路333号(长宁支路华阳路)"},{"poiid":"B2094655D26EA5FC4093","title":"COCO一番屋(中山公园店)","lon":"121.42177","lat":"31.21969","category":"247","category_name":"餐饮美食","address":"长宁区长宁路730号"},{"poiid":"B2094655D265AAFB469C","title":"华四小区","lon":"121.42332","lat":"31.22166","category":"47","category_name":"住宅区","address":"华阳路298弄1-6号"},{"poiid":"B2094757D069A4FD4193","title":"三商巧福(中山公园店)","lon":"121.421662","lat":"31.219663","category":"68","category_name":"快餐厅","address":"长宁区长宁路770号2楼(近Ashely)"},{"poiid":"B2094654D565A5FB4392","title":"金阳小区","lon":"121.42384","lat":"31.222725","category":"47","category_name":"住宅区","address":"华阳路249弄1-11号"},{"poiid":"B2094757DA64A6FE4492","title":"长宁来福士广场","lon":"121.421941","lat":"31.221843","category":"252","category_name":"楼宇机构","address":"长宁区长宁路的中山公园区域内"},{"poiid":"B2094654D565A5F44899","title":"久香面包房 长宁支路店","lon":"121.42362","lat":"31.22396","category":"112","category_name":"糕饼店","address":"长宁区长宁支路312号(近华阳路)"},{"poiid":"B2094654D565A5FA499F","title":"上海市长宁区卫生学校","lon":"121.42127","lat":"31.22307","category":"54","category_name":"职业技术学校","address":"华阳路112"},{"poiid":"B2094655D264A0F44792","title":"华阳小苑(东门)","lon":"121.42217","lat":"31.2233","category":"47","category_name":"住宅区","address":"华阳路164"},{"poiid":"B2094757D16EA6FC479E","title":"上海市现代职业技术学校","lon":"121.421276","lat":"31.22307","category":"253","category_name":"校园生活","address":"上海华阳路112号"},{"poiid":"B2094655D26DA7FA4498","title":"华电小区(西门)","lon":"121.42234","lat":"31.22333","category":"47","category_name":"住宅区","address":"华阳路165弄1-3号"},{"poiid":"B2094655D26BA0FF409C","title":"华四小区(东门)","lon":"121.42371","lat":"31.22179","category":"47","category_name":"住宅区","address":"华阳路298弄1-6号"},{"poiid":"B2094655D26BA7F5479A","title":"华阳小苑","lon":"121.42206","lat":"31.22324","category":"47","category_name":"住宅区","address":"华阳路164"},{"poiid":"B2094753DA6EA3FA4298","title":"凯欣豪园二期","lon":"121.424","lat":"31.2228","category":"47","category_name":"住宅区","address":"汇川路88号"},{"poiid":"B2094654D565A5FB449E","title":"盛业公寓","lon":"121.42419","lat":"31.221888","category":"47","category_name":"住宅区","address":"盛业公寓位于长宁华阳路269号"},{"poiid":"B2094757D064A1FF429B","title":"米娜视觉","lon":"121.42251948","lat":"31.221376157","category":"500","category_name":"未知分类","address":"上海长宁区长宁路515号"},{"poiid":"B2094655D26DA7F94993","title":"上海市现代职业技术学校(东门)","lon":"121.42185","lat":"31.22352","category":"678","category_name":"学校大门","address":"华阳路112"},{"poiid":"B2094654D565A5FB439B","title":"华电小区","lon":"121.42265","lat":"31.223539","category":"47","category_name":"住宅区","address":"华阳路165弄1-3号"},{"poiid":"B2094655D265A7FB4992","title":"上海市省吾中学","lon":"121.42348","lat":"31.22438","category":"55","category_name":"中学","address":"长宁支路315弄2"},{"poiid":"B2094757D16EA0FD479C","title":"长宁支路四川万氏老爹烧烤摊","lon":"121.42408","lat":"31.22434","category":"68","category_name":"快餐厅","address":"长宁区长宁支路307号光明便利店附近(近华阳路)"},{"poiid":"B2094757D064ABFA479E","title":"华馨小区","lon":"121.42066","lat":"31.22364","category":"47","category_name":"住宅区","address":"上海万航渡路1486弄"},{"poiid":"B2094654D565A5FA4492","title":"中山公园","lon":"121.42031","lat":"31.22094","category":"196","category_name":"公园","address":"长宁区长宁路780号(近定西路)"},{"poiid":"B2094757D06FA3FA4792","title":"巴黎春天(新宁店)","lon":"121.4215261","lat":"31.2193322","category":"119","category_name":"商场","address":"长宁区长宁路823号巴黎春天(定西路口)"},{"poiid":"B2094655D26AAAF4409B","title":"莲餐厅","lon":"121.42374","lat":"31.22021","category":"260","category_name":"其他","address":"长宁区长宁路641号(近愚园路)"},{"poiid":"B2094655D26FA6F44993","title":"贝多芬广场","lon":"121.421","lat":"31.2241","category":"46","category_name":"楼宇","address":"长宁区长宁路1200号贝多芬广场内(近轻轨中山公园站)"},{"poiid":"B2094757D06FA0F4479F","title":"长宁区政府","lon":"121.42471055","lat":"31.220813466","category":"253","category_name":"校园生活","address":"上海长宁路599号"},{"poiid":"B2094757D66BA3F84999","title":"三月咖啡馆 SIMBA COFFEE","lon":"121.421185054","lat":"31.224780793","category":"260","category_name":"其他","address":"长宁区万航渡路1384弄12号湖丝栈创意园区1号楼2楼(近华阳路)"},{"poiid":"B2094757D06FA5FD449C","title":"竹家庄避风塘(中山公园店)","lon":"121.4215715","lat":"31.2194413","category":"72","category_name":"广东菜","address":"长宁区长宁路772号(定西路口)"},{"poiid":"B2094654D565A5FD4598","title":"新时空国际商务广场","lon":"121.42330348883","lat":"31.223410258486","category":"46","category_name":"楼宇","address":"长宁路1031号(汇川路口)"},{"poiid":"B2094753D26CA7FE479F","title":"Ashley爱室丽家居（中山公园旗舰店）","lon":"121.42205356005","lat":"31.219201760961","category":"249","category_name":"购物服务","address":"长宁区愚园路1398号"},{"poiid":"B2094655D26BA6F44098","title":"尚街会馆","lon":"121.42463","lat":"31.22177","category":"46","category_name":"楼宇","address":"长宁区长宁路546号(近华阳路)"},{"poiid":"B2094654D565A5FD4798","title":"兆丰广场","lon":"121.424","lat":"31.224","category":"46","category_name":"楼宇","address":"上海市长宁路1027号"},{"poiid":"B2094757D06FA6F84093","title":"兆丰别墅","lon":"121.42242","lat":"31.220419","category":"47","category_name":"住宅区","address":"上海长宁路712弄"},{"poiid":"B2094654DB6BA6F94492","title":"锦江之星(中山公园店)","lon":"121.42503","lat":"31.22184","category":"216","category_name":"经济型连锁酒店","address":"上海市长宁区长宁路546号(邮编200051)"},{"poiid":"B2094757D069A6FD439E","title":"中山公园翻斗乐","lon":"121.421014","lat":"31.219922","category":"196","category_name":"公园","address":"长宁区长宁路780号中山公园内(近定西路)"},{"poiid":"B2094757D66CA4FE449B","title":"大胡子烧烤","lon":"121.42285358","lat":"31.222736284","category":"68","category_name":"快餐厅","address":"长宁区华阳路(近长宁路)"},{"poiid":"B2094655D26DA1FC409F","title":"湖丝栈创意产业园","lon":"121.42192","lat":"31.22534","category":"45","category_name":"产业园区","address":"万航渡路1384弄12"},{"poiid":"B2094757D06AA3FB4992","title":"汇都精作坊","lon":"121.42476","lat":"31.221551","category":"72","category_name":"广东菜","address":"长宁区长宁路546号尚街会馆1楼(近中山公园)"},{"poiid":"B2094757D06FA3FB489A","title":"COCO壱番屋(中山公园店)","lon":"121.4227","lat":"31.21971","category":"95","category_name":"日本料理","address":"长宁区长宁路730号(近定西路)"},{"poiid":"B2094751D468A5FA459F","title":"地铁二号线江苏路站","lon":"121.423034","lat":"31.22212","category":"500","category_name":"未知分类","address":null},{"poiid":"B2094757D06AA3FC419B","title":"大胡子清真餐饮店","lon":"121.422336054","lat":"31.223140793","category":"90","category_name":"清真餐馆","address":"长宁区华阳路217号(近长宁支路)"},{"poiid":"B2094750D36BA2FF459E","title":"南京东路步行街","lon":"121.423423","lat":"31.224243","category":"500","category_name":"未知分类","address":null},{"poiid":"B2094757D06FA6FF4192","title":"萨莉亚(中山公园店)","lon":"121.421981109","lat":"31.2197772971","category":"94","category_name":"西餐厅","address":"长宁区长宁路748号1楼(近定西路)"},{"poiid":"B2094654D565A5FA459E","title":"必胜客中山餐厅","lon":"121.42168","lat":"31.21965","category":"68","category_name":"快餐厅","address":"长宁路770"},{"poiid":"B2094757D469A7FC4892","title":"大个子葱油饼","lon":"121.42256","lat":"31.22313","category":"68","category_name":"快餐厅","address":"长宁区华阳路172弄2-22号(长宁支路口)"},{"poiid":"B2094757D568A6FC4592","title":"莲·创意楚菜","lon":"121.423797","lat":"31.220224","category":"257","category_name":"中餐厅","address":"长宁路641"},{"poiid":"B2094655D26DA3FC409D","title":"三泾北宅","lon":"121.42201029997","lat":"31.221542472714","category":"47","category_name":"住宅区","address":"长宁路1135弄"},{"poiid":"B2094757D064A6F54698","title":"民心小区","lon":"121.42525","lat":"31.223598","category":"47","category_name":"住宅区","address":"上海长宁区长宁路396弄"},{"poiid":"B2094757D06AA0FB439B","title":"华秀小区","lon":"121.4231","lat":"31.224098","category":"47","category_name":"住宅区","address":"上海万航渡路1424弄"},{"poiid":"B2094757D16CA6FC4693","title":"长宁区华阳街道社区卫生服务中心","lon":"121.423778586","lat":"31.222970289","category":"162","category_name":"医院","address":"上海市长宁区华阳路225号"},{"poiid":"B2094654DB6BA6F9469F","title":"罗森(华阳路)","lon":"121.42279","lat":"31.22342","category":"117","category_name":"便民商店/便利店","address":"长宁区长宁支路333号(长宁支路华阳路)"},{"poiid":"B2094655D26EA5FC4093","title":"COCO一番屋(中山公园店)","lon":"121.42177","lat":"31.21969","category":"247","category_name":"餐饮美食","address":"长宁区长宁路730号"},{"poiid":"B2094655D265AAFB469C","title":"华四小区","lon":"121.42332","lat":"31.22166","category":"47","category_name":"住宅区","address":"华阳路298弄1-6号"},{"poiid":"B2094757D069A4FD4193","title":"三商巧福(中山公园店)","lon":"121.421662","lat":"31.219663","category":"68","category_name":"快餐厅","address":"长宁区长宁路770号2楼(近Ashely)"},{"poiid":"B2094654D565A5FB4392","title":"金阳小区","lon":"121.42384","lat":"31.222725","category":"47","category_name":"住宅区","address":"华阳路249弄1-11号"},{"poiid":"B2094757DA64A6FE4492","title":"长宁来福士广场","lon":"121.421941","lat":"31.221843","category":"252","category_name":"楼宇机构","address":"长宁区长宁路的中山公园区域内"},{"poiid":"B2094654D565A5F44899","title":"久香面包房 长宁支路店","lon":"121.42362","lat":"31.22396","category":"112","category_name":"糕饼店","address":"长宁区长宁支路312号(近华阳路)"},{"poiid":"B2094654D565A5FA499F","title":"上海市长宁区卫生学校","lon":"121.42127","lat":"31.22307","category":"54","category_name":"职业技术学校","address":"华阳路112"},{"poiid":"B2094655D264A0F44792","title":"华阳小苑(东门)","lon":"121.42217","lat":"31.2233","category":"47","category_name":"住宅区","address":"华阳路164"},{"poiid":"B2094757D16EA6FC479E","title":"上海市现代职业技术学校","lon":"121.421276","lat":"31.22307","category":"253","category_name":"校园生活","address":"上海华阳路112号"},{"poiid":"B2094655D26DA7FA4498","title":"华电小区(西门)","lon":"121.42234","lat":"31.22333","category":"47","category_name":"住宅区","address":"华阳路165弄1-3号"},{"poiid":"B2094655D26BA0FF409C","title":"华四小区(东门)","lon":"121.42371","lat":"31.22179","category":"47","category_name":"住宅区","address":"华阳路298弄1-6号"},{"poiid":"B2094655D26BA7F5479A","title":"华阳小苑","lon":"121.42206","lat":"31.22324","category":"47","category_name":"住宅区","address":"华阳路164"},{"poiid":"B2094753DA6EA3FA4298","title":"凯欣豪园二期","lon":"121.424","lat":"31.2228","category":"47","category_name":"住宅区","address":"汇川路88号"},{"poiid":"B2094654D565A5FB449E","title":"盛业公寓","lon":"121.42419","lat":"31.221888","category":"47","category_name":"住宅区","address":"盛业公寓位于长宁华阳路269号"},{"poiid":"B2094757D064A1FF429B","title":"米娜视觉","lon":"121.42251948","lat":"31.221376157","category":"500","category_name":"未知分类","address":"上海长宁区长宁路515号"},{"poiid":"B2094655D26DA7F94993","title":"上海市现代职业技术学校(东门)","lon":"121.42185","lat":"31.22352","category":"678","category_name":"学校大门","address":"华阳路112"},{"poiid":"B2094654D565A5FB439B","title":"华电小区","lon":"121.42265","lat":"31.223539","category":"47","category_name":"住宅区","address":"华阳路165弄1-3号"},{"poiid":"B2094655D265A7FB4992","title":"上海市省吾中学","lon":"121.42348","lat":"31.22438","category":"55","category_name":"中学","address":"长宁支路315弄2"},{"poiid":"B2094757D16EA0FD479C","title":"长宁支路四川万氏老爹烧烤摊","lon":"121.42408","lat":"31.22434","category":"68","category_name":"快餐厅","address":"长宁区长宁支路307号光明便利店附近(近华阳路)"},{"poiid":"B2094757D064ABFA479E","title":"华馨小区","lon":"121.42066","lat":"31.22364","category":"47","category_name":"住宅区","address":"上海万航渡路1486弄"}]