[{"poiid":"B2094757D06FABFD439A","title":"张江集电港二期","lon":"121.635397","lat":"31.216483","category":"47","category_name":"住宅区","address":"浦东新区张东路1387号"},{"poiid":"B2094654DB64A3FA4799","title":"张江集电港","lon":"121.63318","lat":"31.22205","category":"252","category_name":"楼宇机构","address":"卫清西路139_149号等"},{"poiid":"B2094654DA6AA4FE4793","title":"玉兰香苑","lon":"121.63323","lat":"31.200127","category":"47","category_name":"住宅区","address":"上海市浦东新区益江路126弄、益江路286弄"},{"poiid":"B2094757D06EAAF94799","title":"妈妈糖休闲咖啡馆 mamatown","lon":"121.62242","lat":"31.21869","category":"94","category_name":"西餐厅","address":"浦东新区青桐路199弄中芯花园23号"},{"poiid":"B2094757D06FA1F54498","title":"永达国际汽车广场","lon":"121.62713285","lat":"31.222678767","category":"500","category_name":"未知分类","address":"上海龙东大道2777号"},{"poiid":"B2094757D06AA4FA4692","title":"展讯中心","lon":"121.634","lat":"31.2169","category":"500","category_name":"未知分类","address":"上海浦东新区张江高科祖冲之路2288弄1号楼"},{"poiid":"B2094750DA6DA0FB429E","title":"张江家乐福","lon":"121.638771","lat":"31.203567","category":"249","category_name":"购物服务","address":"浦东新区张江高科中路2860号(近张东路)"},{"poiid":"B2094757D068AAF84893","title":"龙东商务酒店","lon":"121.633540458","lat":"31.2227017056","category":"214","category_name":"四星级宾馆","address":"浦东新区龙东大道3000号(张东路口)"},{"poiid":"B2094757D068A0F5479E","title":"宝诚宝马4S店(龙东大道店)","lon":"121.630592","lat":"31.224612","category":"158","category_name":"汽车销售","address":"浦东新区龙东大道2777号(近申江路)"},{"poiid":"B2094757D068A7F8409D","title":"展讯豪生酒店","lon":"121.62515517","lat":"31.206159597","category":"217","category_name":"旅馆招待所","address":"上海市浦东新区祖冲之路2288弄（近申江路）"},{"poiid":"B2094757D06FA0FF409F","title":"阳光花城","lon":"121.62379","lat":"31.207195","category":"500","category_name":"未知分类","address":"上海市浦东新区紫薇路667弄"},{"poiid":"B2094757D068A3F9499E","title":"毕加索小镇","lon":"121.64792633","lat":"31.221918106","category":"500","category_name":"未知分类","address":"上海市浦东新区春泉路45弄"},{"poiid":"B2094757D068A4F8469C","title":"唐园大酒店","lon":"121.64786","lat":"31.22455","category":"76","category_name":"上海菜","address":"浦东新区唐陆路2400号(近龙东大道)"},{"poiid":"B2094750D76CA4FC479C","title":"妈妈糖2.0(张东路店)","lon":"121.634","lat":"31.2187","category":"94","category_name":"西餐厅","address":"浦东新区张东路1387号集电子社区中心2楼"},{"poiid":"B2094757D068A2FB4592","title":"台北雅厨","lon":"121.62232","lat":"31.21868","category":"91","category_name":"台湾菜","address":"浦东新区青桐路199弄中芯花园15号(近广兰路)"},{"poiid":"B2094757D46BA5FE4492","title":"妈妈糖休闲咖啡馆 张东路店","lon":"121.6361072","lat":"31.2006146","category":"65","category_name":"咖啡厅","address":"浦东新区张东路1387号集电子社区中心2楼"},{"poiid":"B2094757D064AAF5499F","title":"瑞慈健康管理中心(张东路店)","lon":"121.6329","lat":"31.21723","category":"162","category_name":"医院","address":"上海浦东新区张东路1388号15幢(近丹桂路)"},{"poiid":"B2094655D265ABF9499B","title":"保利金爵公寓(一期)","lon":"121.651128","lat":"31.206772","category":"47","category_name":"住宅区","address":"浦东新区创新西路75弄131号B座"},{"poiid":"B2094655D36DA0F54292","title":"玉兰香苑二期A块","lon":"121.63422596141","lat":"31.202460117491","category":"38","category_name":"公交车站","address":"益江路511弄"},{"poiid":"B2094757D164AAF54999","title":"肯德基","lon":"121.63701427","lat":"31.203571737","category":"68","category_name":"快餐厅","address":"浦东新区高科中路2860号家乐福(近外环线)"},{"poiid":"B2094757D06BA5FD4499","title":"永和大王(张江家乐福店)","lon":"121.63938","lat":"31.20406","category":"68","category_name":"快餐厅","address":"浦东新区高科中路2860号家乐福2楼"},{"poiid":"B2094757D06FA4F4479E","title":"友乐达台北精致面馆(张江店)","lon":"121.62252","lat":"31.21871","category":"68","category_name":"快餐厅","address":"浦东新区青桐路199弄中芯花园17号(近广兰路)"},{"poiid":"B2094757D069A5FE489C","title":"威尔士健身会所(张江店)","lon":"121.62643","lat":"31.20966","category":"221","category_name":"健身中心","address":"浦东新区祖冲之路2288号(近申江路)"},{"poiid":"B2094757D069AAF5459A","title":"外汇交易中心","lon":"121.63539886","lat":"31.216482162","category":"500","category_name":"未知分类","address":"上海张东路1387号"},{"poiid":"B2094655D36DA0F54293","title":"玉兰香苑二期C块","lon":"121.63363854614","lat":"31.203943272246","category":"38","category_name":"公交车站","address":"益江路396弄"},{"poiid":"B2094757D069A6FE429B","title":"51job","lon":"121.633905","lat":"31.217677","category":"500","category_name":"未知分类","address":"上海张东路1387弄3号"},{"poiid":"B2094655D26EA0F8409C","title":"强生千亩园林餐厅","lon":"121.63900116319462","lat":"31.22349341978972","category":"87","category_name":"特色／地方风味餐厅","address":"上海市浦东新区龙东大道3166号"},{"poiid":"B2094757D06BAAFD479C","title":"中共上海市浦东新区区委党校","lon":"121.62418597","lat":"31.219276804","category":"260","category_name":"其他","address":"上海市浦东新区龙东大道"},{"poiid":"B2094750D568ABF84299","title":"上海天之骄子","lon":"121.62937","lat":"31.211645","category":"47","category_name":"住宅区","address":"浦东祖冲之路2305号(盛夏路口)"},{"poiid":"B2094654DB64A3FA469D","title":"张江集电港·会展中心(张东路)","lon":"121.63236","lat":"31.22277","category":"185","category_name":"会展中心","address":"龙东大道3000号"},{"poiid":"B2094757D16CA4FD4493","title":"张江集电港二期1388号","lon":"121.63578897","lat":"31.21655274","category":"47","category_name":"住宅区","address":"上海市浦东新区张东路"},{"poiid":"B2094757D06FAAFB449D","title":"玉兰香苑一期","lon":"121.633535","lat":"31.200113","category":"47","category_name":"住宅区","address":"上海浦东新区益江路126弄"},{"poiid":"B2094654DA6BA2F4409B","title":"科技领袖之都(金秋路)","lon":"121.6354","lat":"31.21648","category":"47","category_name":"住宅区","address":"上海市浦东新区张东路"},{"poiid":"B2094757D06BA4FB439E","title":"外环线龙东大道口","lon":"121.64317097","lat":"31.210425597","category":"500","category_name":"未知分类","address":"上海市浦东新区新前路"},{"poiid":"B2094757D164A3FB4392","title":"迦拿咖啡","lon":"121.63431","lat":"31.21658","category":"94","category_name":"西餐厅","address":"浦东新区张东路1387号张江集电港二期21幢101室"},{"poiid":"B2094654DA6AAAFD429D","title":"唐人苑","lon":"121.64923","lat":"31.208265","category":"47","category_name":"住宅区","address":"唐镇路127弄"},{"poiid":"B2094757D064A4FC4893","title":"小城故事(浦东店)","lon":"121.63064","lat":"31.22243","category":"91","category_name":"台湾菜","address":"浦东新区龙东大道3000号龙东商务酒店2号楼102室(张东路口)"},{"poiid":"B2094757D169A6F44199","title":"凌华科技(中国)有限公司","lon":"121.637857","lat":"31.214002","category":"263","category_name":"公司","address":"上海芳春路300号"},{"poiid":"B2094757D064A4FD4993","title":"张江名流豪庭","lon":"121.63859283","lat":"31.215198259","category":"500","category_name":"未知分类","address":"上海浦东新区春泉路45弄"},{"poiid":"B2094757D065A1FD4092","title":"AMD","lon":"121.63495156","lat":"31.220122434","category":"46","category_name":"楼宇","address":"上海张东路1387号第46-48幢"},{"poiid":"B2094655D36DA7FD4299","title":"张东路祖冲之路","lon":"121.63276","lat":"31.21281","category":"38","category_name":"公交车站","address":""},{"poiid":"B2094757D66EA6F94793","title":"张江国际豪庭","lon":"121.642386375","lat":"31.2168653481","category":"252","category_name":"楼宇机构","address":"上海银樽路58号"},{"poiid":"B2094757D06AA3FB479E","title":"感恩堂","lon":"121.62321","lat":"31.21502","category":"500","category_name":"未知分类","address":"浦东新区丹桂路700号(丹桂路青桐路)"},{"poiid":"B2094655D36DA7FD4298","title":"张东路金秋路","lon":"121.63276","lat":"31.21656","category":"38","category_name":"公交车站","address":""},{"poiid":"B2094757D16EA3FB479C","title":"玉兰香苑四期","lon":"121.64327000318","lat":"31.206748315762","category":"500","category_name":"未知分类","address":"上海市浦东新区张江镇张东路"},{"poiid":"B2094757D568A6F8409E","title":"傣妹(张江店)","lon":"121.638185","lat":"31.205402","category":"86","category_name":"火锅店","address":"浦东新区张江高科技园区高科中路2860号家乐福1楼(近玉兰香苑)"},{"poiid":"B2094757D069A6FB4193","title":"玉兰香苑三期","lon":"121.63968528917","lat":"31.20365227148","category":"500","category_name":"未知分类","address":"上海浦东新区益江路玉兰香苑三期"},{"poiid":"B2094654DA6AA4FF419B","title":"上海微电子装备有限公司(张东路)","lon":"121.63317","lat":"31.2154","category":"263","category_name":"公司","address":"张东路1525号"},{"poiid":"B2094654DA6AA4FD449A","title":"上海微电子装备有限公司","lon":"121.6352","lat":"31.21572","category":"263","category_name":"公司","address":"浦东新区张东路1525号"},{"poiid":"B2094757DA64ABF8479E","title":"张江集电港","lon":"121.635391","lat":"31.217871","category":"252","category_name":"楼宇机构","address":"卫清西路139_149号等"},{"poiid":"B2094757D06FABFD439A","title":"张江集电港二期","lon":"121.635397","lat":"31.216483","category":"47","category_name":"住宅区","address":"浦东新区张东路1387号"},{"poiid":"B2094654DB64A3FA4799","title":"张江集电港","lon":"121.63318","lat":"31.22205","category":"252","category_name":"楼宇机构","address":"卫清西路139_149号等"},{"poiid":"B2094654DA6AA4FE4793","title":"玉兰香苑","lon":"121.63323","lat":"31.200127","category":"47","category_name":"住宅区","address":"上海市浦东新区益江路126弄、益江路286弄"},{"poiid":"B2094757D06EAAF94799","title":"妈妈糖休闲咖啡馆 mamatown","lon":"121.62242","lat":"31.21869","category":"94","category_name":"西餐厅","address":"浦东新区青桐路199弄中芯花园23号"},{"poiid":"B2094757D06FA1F54498","title":"永达国际汽车广场","lon":"121.62713285","lat":"31.222678767","category":"500","category_name":"未知分类","address":"上海龙东大道2777号"},{"poiid":"B2094757D06AA4FA4692","title":"展讯中心","lon":"121.634","lat":"31.2169","category":"500","category_name":"未知分类","address":"上海浦东新区张江高科祖冲之路2288弄1号楼"},{"poiid":"B2094750DA6DA0FB429E","title":"张江家乐福","lon":"121.638771","lat":"31.203567","category":"249","category_name":"购物服务","address":"浦东新区张江高科中路2860号(近张东路)"},{"poiid":"B2094757D068AAF84893","title":"龙东商务酒店","lon":"121.633540458","lat":"31.2227017056","category":"214","category_name":"四星级宾馆","address":"浦东新区龙东大道3000号(张东路口)"},{"poiid":"B2094757D068A0F5479E","title":"宝诚宝马4S店(龙东大道店)","lon":"121.630592","lat":"31.224612","category":"158","category_name":"汽车销售","address":"浦东新区龙东大道2777号(近申江路)"},{"poiid":"B2094757D068A7F8409D","title":"展讯豪生酒店","lon":"121.62515517","lat":"31.206159597","category":"217","category_name":"旅馆招待所","address":"上海市浦东新区祖冲之路2288弄（近申江路）"},{"poiid":"B2094757D06FA0FF409F","title":"阳光花城","lon":"121.62379","lat":"31.207195","category":"500","category_name":"未知分类","address":"上海市浦东新区紫薇路667弄"},{"poiid":"B2094757D068A3F9499E","title":"毕加索小镇","lon":"121.64792633","lat":"31.221918106","category":"500","category_name":"未知分类","address":"上海市浦东新区春泉路45弄"},{"poiid":"B2094757D068A4F8469C","title":"唐园大酒店","lon":"121.64786","lat":"31.22455","category":"76","category_name":"上海菜","address":"浦东新区唐陆路2400号(近龙东大道)"},{"poiid":"B2094750D76CA4FC479C","title":"妈妈糖2.0(张东路店)","lon":"121.634","lat":"31.2187","category":"94","category_name":"西餐厅","address":"浦东新区张东路1387号集电子社区中心2楼"},{"poiid":"B2094757D068A2FB4592","title":"台北雅厨","lon":"121.62232","lat":"31.21868","category":"91","category_name":"台湾菜","address":"浦东新区青桐路199弄中芯花园15号(近广兰路)"},{"poiid":"B2094757D46BA5FE4492","title":"妈妈糖休闲咖啡馆 张东路店","lon":"121.6361072","lat":"31.2006146","category":"65","category_name":"咖啡厅","address":"浦东新区张东路1387号集电子社区中心2楼"},{"poiid":"B2094757D064AAF5499F","title":"瑞慈健康管理中心(张东路店)","lon":"121.6329","lat":"31.21723","category":"162","category_name":"医院","address":"上海浦东新区张东路1388号15幢(近丹桂路)"},{"poiid":"B2094655D265ABF9499B","title":"保利金爵公寓(一期)","lon":"121.651128","lat":"31.206772","category":"47","category_name":"住宅区","address":"浦东新区创新西路75弄131号B座"},{"poiid":"B2094655D36DA0F54292","title":"玉兰香苑二期A块","lon":"121.63422596141","lat":"31.202460117491","category":"38","category_name":"公交车站","address":"益江路511弄"},{"poiid":"B2094757D164AAF54999","title":"肯德基","lon":"121.63701427","lat":"31.203571737","category":"68","category_name":"快餐厅","address":"浦东新区高科中路2860号家乐福(近外环线)"},{"poiid":"B2094757D06BA5FD4499","title":"永和大王(张江家乐福店)","lon":"121.63938","lat":"31.20406","category":"68","category_name":"快餐厅","address":"浦东新区高科中路2860号家乐福2楼"},{"poiid":"B2094757D06FA4F4479E","title":"友乐达台北精致面馆(张江店)","lon":"121.62252","lat":"31.21871","category":"68","category_name":"快餐厅","address":"浦东新区青桐路199弄中芯花园17号(近广兰路)"},{"poiid":"B2094757D069A5FE489C","title":"威尔士健身会所(张江店)","lon":"121.62643","lat":"31.20966","category":"221","category_name":"健身中心","address":"浦东新区祖冲之路2288号(近申江路)"},{"poiid":"B2094757D069AAF5459A","title":"外汇交易中心","lon":"121.63539886","lat":"31.216482162","category":"500","category_name":"未知分类","address":"上海张东路1387号"},{"poiid":"B2094655D36DA0F54293","title":"玉兰香苑二期C块","lon":"121.63363854614","lat":"31.203943272246","category":"38","category_name":"公交车站","address":"益江路396弄"},{"poiid":"B2094757D069A6FE429B","title":"51job","lon":"121.633905","lat":"31.217677","category":"500","category_name":"未知分类","address":"上海张东路1387弄3号"},{"poiid":"B2094655D26EA0F8409C","title":"强生千亩园林餐厅","lon":"121.63900116319462","lat":"31.22349341978972","category":"87","category_name":"特色／地方风味餐厅","address":"上海市浦东新区龙东大道3166号"},{"poiid":"B2094757D06BAAFD479C","title":"中共上海市浦东新区区委党校","lon":"121.62418597","lat":"31.219276804","category":"260","category_name":"其他","address":"上海市浦东新区龙东大道"},{"poiid":"B2094750D568ABF84299","title":"上海天之骄子","lon":"121.62937","lat":"31.211645","category":"47","category_name":"住宅区","address":"浦东祖冲之路2305号(盛夏路口)"},{"poiid":"B2094654DB64A3FA469D","title":"张江集电港·会展中心(张东路)","lon":"121.63236","lat":"31.22277","category":"185","category_name":"会展中心","address":"龙东大道3000号"},{"poiid":"B2094757D16CA4FD4493","title":"张江集电港二期1388号","lon":"121.63578897","lat":"31.21655274","category":"47","category_name":"住宅区","address":"上海市浦东新区张东路"},{"poiid":"B2094757D06FAAFB449D","title":"玉兰香苑一期","lon":"121.633535","lat":"31.200113","category":"47","category_name":"住宅区","address":"上海浦东新区益江路126弄"},{"poiid":"B2094654DA6BA2F4409B","title":"科技领袖之都(金秋路)","lon":"121.6354","lat":"31.21648","category":"47","category_name":"住宅区","address":"上海市浦东新区张东路"},{"poiid":"B2094757D06BA4FB439E","title":"外环线龙东大道口","lon":"121.64317097","lat":"31.210425597","category":"500","category_name":"未知分类","address":"上海市浦东新区新前路"},{"poiid":"B2094757D164A3FB4392","title":"迦拿咖啡","lon":"121.63431","lat":"31.21658","category":"94","category_name":"西餐厅","address":"浦东新区张东路1387号张江集电港二期21幢101室"},{"poiid":"B2094654DA6AAAFD429D","title":"唐人苑","lon":"121.64923","lat":"31.208265","category":"47","category_name":"住宅区","address":"唐镇路127弄"},{"poiid":"B2094757D064A4FC4893","title":"小城故事(浦东店)","lon":"121.63064","lat":"31.22243","category":"91","category_name":"台湾菜","address":"浦东新区龙东大道3000号龙东商务酒店2号楼102室(张东路口)"},{"poiid":"B2094757D169A6F44199","title":"凌华科技(中国)有限公司","lon":"121.637857","lat":"31.214002","category":"263","category_name":"公司","address":"上海芳春路300号"},{"poiid":"B2094757D064A4FD4993","title":"张江名流豪庭","lon":"121.63859283","lat":"31.215198259","category":"500","category_name":"未知分类","address":"上海浦东新区春泉路45弄"},{"poiid":"B2094757D065A1FD4092","title":"AMD","lon":"121.63495156","lat":"31.220122434","category":"46","category_name":"楼宇","address":"上海张东路1387号第46-48幢"},{"poiid":"B2094655D36DA7FD4299","title":"张东路祖冲之路","lon":"121.63276","lat":"31.21281","category":"38","category_name":"公交车站","address":""},{"poiid":"B2094757D66EA6F94793","title":"张江国际豪庭","lon":"121.642386375","lat":"31.2168653481","category":"252","category_name":"楼宇机构","address":"上海银樽路58号"},{"poiid":"B2094757D06AA3FB479E","title":"感恩堂","lon":"121.62321","lat":"31.21502","category":"500","category_name":"未知分类","address":"浦东新区丹桂路700号(丹桂路青桐路)"},{"poiid":"B2094655D36DA7FD4298","title":"张东路金秋路","lon":"121.63276","lat":"31.21656","category":"38","category_name":"公交车站","address":""},{"poiid":"B2094757D16EA3FB479C","title":"玉兰香苑四期","lon":"121.64327000318","lat":"31.206748315762","category":"500","category_name":"未知分类","address":"上海市浦东新区张江镇张东路"},{"poiid":"B2094757D568A6F8409E","title":"傣妹(张江店)","lon":"121.638185","lat":"31.205402","category":"86","category_name":"火锅店","address":"浦东新区张江高科技园区高科中路2860号家乐福1楼(近玉兰香苑)"},{"poiid":"B2094757D069A6FB4193","title":"玉兰香苑三期","lon":"121.63968528917","lat":"31.20365227148","category":"500","category_name":"未知分类","address":"上海浦东新区益江路玉兰香苑三期"},{"poiid":"B2094654DA6AA4FF419B","title":"上海微电子装备有限公司(张东路)","lon":"121.63317","lat":"31.2154","category":"263","category_name":"公司","address":"张东路1525号"},{"poiid":"B2094654DA6AA4FD449A","title":"上海微电子装备有限公司","lon":"121.6352","lat":"31.21572","category":"263","category_name":"公司","address":"浦东新区张东路1525号"},{"poiid":"B2094757DA64ABF8479E","title":"张江集电港","lon":"121.635391","lat":"31.217871","category":"252","category_name":"楼宇机构","address":"卫清西路139_149号等"},{"poiid":"B2094757D06FABFD439A","title":"张江集电港二期","lon":"121.635397","lat":"31.216483","category":"47","category_name":"住宅区","address":"浦东新区张东路1387号"},{"poiid":"B2094654DB64A3FA4799","title":"张江集电港","lon":"121.63318","lat":"31.22205","category":"252","category_name":"楼宇机构","address":"卫清西路139_149号等"},{"poiid":"B2094654DA6AA4FE4793","title":"玉兰香苑","lon":"121.63323","lat":"31.200127","category":"47","category_name":"住宅区","address":"上海市浦东新区益江路126弄、益江路286弄"},{"poiid":"B2094757D06EAAF94799","title":"妈妈糖休闲咖啡馆 mamatown","lon":"121.62242","lat":"31.21869","category":"94","category_name":"西餐厅","address":"浦东新区青桐路199弄中芯花园23号"},{"poiid":"B2094757D06FA1F54498","title":"永达国际汽车广场","lon":"121.62713285","lat":"31.222678767","category":"500","category_name":"未知分类","address":"上海龙东大道2777号"},{"poiid":"B2094757D06AA4FA4692","title":"展讯中心","lon":"121.634","lat":"31.2169","category":"500","category_name":"未知分类","address":"上海浦东新区张江高科祖冲之路2288弄1号楼"},{"poiid":"B2094750DA6DA0FB429E","title":"张江家乐福","lon":"121.638771","lat":"31.203567","category":"249","category_name":"购物服务","address":"浦东新区张江高科中路2860号(近张东路)"},{"poiid":"B2094757D068AAF84893","title":"龙东商务酒店","lon":"121.633540458","lat":"31.2227017056","category":"214","category_name":"四星级宾馆","address":"浦东新区龙东大道3000号(张东路口)"},{"poiid":"B2094757D068A0F5479E","title":"宝诚宝马4S店(龙东大道店)","lon":"121.630592","lat":"31.224612","category":"158","category_name":"汽车销售","address":"浦东新区龙东大道2777号(近申江路)"},{"poiid":"B2094757D068A7F8409D","title":"展讯豪生酒店","lon":"121.62515517","lat":"31.206159597","category":"217","category_name":"旅馆招待所","address":"上海市浦东新区祖冲之路2288弄（近申江路）"},{"poiid":"B2094757D06FA0FF409F","title":"阳光花城","lon":"121.62379","lat":"31.207195","category":"500","category_name":"未知分类","address":"上海市浦东新区紫薇路667弄"},{"poiid":"B2094757D068A3F9499E","title":"毕加索小镇","lon":"121.64792633","lat":"31.221918106","category":"500","category_name":"未知分类","address":"上海市浦东新区春泉路45弄"},{"poiid":"B2094757D068A4F8469C","title":"唐园大酒店","lon":"121.64786","lat":"31.22455","category":"76","category_name":"上海菜","address":"浦东新区唐陆路2400号(近龙东大道)"},{"poiid":"B2094750D76CA4FC479C","title":"妈妈糖2.0(张东路店)","lon":"121.634","lat":"31.2187","category":"94","category_name":"西餐厅","address":"浦东新区张东路1387号集电子社区中心2楼"},{"poiid":"B2094757D068A2FB4592","title":"台北雅厨","lon":"121.62232","lat":"31.21868","category":"91","category_name":"台湾菜","address":"浦东新区青桐路199弄中芯花园15号(近广兰路)"},{"poiid":"B2094757D46BA5FE4492","title":"妈妈糖休闲咖啡馆 张东路店","lon":"121.6361072","lat":"31.2006146","category":"65","category_name":"咖啡厅","address":"浦东新区张东路1387号集电子社区中心2楼"},{"poiid":"B2094757D064AAF5499F","title":"瑞慈健康管理中心(张东路店)","lon":"121.6329","lat":"31.21723","category":"162","category_name":"医院","address":"上海浦东新区张东路1388号15幢(近丹桂路)"},{"poiid":"B2094655D265ABF9499B","title":"保利金爵公寓(一期)","lon":"121.651128","lat":"31.206772","category":"47","category_name":"住宅区","address":"浦东新区创新西路75弄131号B座"},{"poiid":"B2094655D36DA0F54292","title":"玉兰香苑二期A块","lon":"121.63422596141","lat":"31.202460117491","category":"38","category_name":"公交车站","address":"益江路511弄"},{"poiid":"B2094757D164AAF54999","title":"肯德基","lon":"121.63701427","lat":"31.203571737","category":"68","category_name":"快餐厅","address":"浦东新区高科中路2860号家乐福(近外环线)"},{"poiid":"B2094757D06BA5FD4499","title":"永和大王(张江家乐福店)","lon":"121.63938","lat":"31.20406","category":"68","category_name":"快餐厅","address":"浦东新区高科中路2860号家乐福2楼"},{"poiid":"B2094757D06FA4F4479E","title":"友乐达台北精致面馆(张江店)","lon":"121.62252","lat":"31.21871","category":"68","category_name":"快餐厅","address":"浦东新区青桐路199弄中芯花园17号(近广兰路)"},{"poiid":"B2094757D069A5FE489C","title":"威尔士健身会所(张江店)","lon":"121.62643","lat":"31.20966","category":"221","category_name":"健身中心","address":"浦东新区祖冲之路2288号(近申江路)"},{"poiid":"B2094757D069AAF5459A","title":"外汇交易中心","lon":"121.63539886","lat":"31.216482162","category":"500","category_name":"未知分类","address":"上海张东路1387号"},{"poiid":"B2094655D36DA0F54293","title":"玉兰香苑二期C块","lon":"121.63363854614","lat":"31.203943272246","category":"38","category_name":"公交车站","address":"益江路396弄"},{"poiid":"B2094757D069A6FE429B","title":"51job","lon":"121.633905","lat":"31.217677","category":"500","category_name":"未知分类","address":"上海张东路1387弄3号"},{"poiid":"B2094655D26EA0F8409C","title":"强生千亩园林餐厅","lon":"121.63900116319462","lat":"31.22349341978972","category":"87","category_name":"特色／地方风味餐厅","address":"上海市浦东新区龙东大道3166号"},{"poiid":"B2094757D06BAAFD479C","title":"中共上海市浦东新区区委党校","lon":"121.62418597","lat":"31.219276804","category":"260","category_name":"其他","address":"上海市浦东新区龙东大道"},{"poiid":"B2094750D568ABF84299","title":"上海天之骄子","lon":"121.62937","lat":"31.211645","category":"47","category_name":"住宅区","address":"浦东祖冲之路2305号(盛夏路口)"},{"poiid":"B2094654DB64A3FA469D","title":"张江集电港·会展中心(张东路)","lon":"121.63236","lat":"31.22277","category":"185","category_name":"会展中心","address":"龙东大道3000号"},{"poiid":"B2094757D16CA4FD4493","title":"张江集电港二期1388号","lon":"121.63578897","lat":"31.21655274","category":"47","category_name":"住宅区","address":"上海市浦东新区张东路"},{"poiid":"B2094757D06FAAFB449D","title":"玉兰香苑一期","lon":"121.633535","lat":"31.200113","category":"47","category_name":"住宅区","address":"上海浦东新区益江路126弄"},{"poiid":"B2094654DA6BA2F4409B","title":"科技领袖之都(金秋路)","lon":"121.6354","lat":"31.21648","category":"47","category_name":"住宅区","address":"上海市浦东新区张东路"},{"poiid":"B2094757D06BA4FB439E","title":"外环线龙东大道口","lon":"121.64317097","lat":"31.210425597","category":"500","category_name":"未知分类","address":"上海市浦东新区新前路"},{"poiid":"B2094757D164A3FB4392","title":"迦拿咖啡","lon":"121.63431","lat":"31.21658","category":"94","category_name":"西餐厅","address":"浦东新区张东路1387号张江集电港二期21幢101室"},{"poiid":"B2094654DA6AAAFD429D","title":"唐人苑","lon":"121.64923","lat":"31.208265","category":"47","category_name":"住宅区","address":"唐镇路127弄"},{"poiid":"B2094757D064A4FC4893","title":"小城故事(浦东店)","lon":"121.63064","lat":"31.22243","category":"91","category_name":"台湾菜","address":"浦东新区龙东大道3000号龙东商务酒店2号楼102室(张东路口)"},{"poiid":"B2094757D169A6F44199","title":"凌华科技(中国)有限公司","lon":"121.637857","lat":"31.214002","category":"263","category_name":"公司","address":"上海芳春路300号"},{"poiid":"B2094757D064A4FD4993","title":"张江名流豪庭","lon":"121.63859283","lat":"31.215198259","category":"500","category_name":"未知分类","address":"上海浦东新区春泉路45弄"},{"poiid":"B2094757D065A1FD4092","title":"AMD","lon":"121.63495156","lat":"31.220122434","category":"46","category_name":"楼宇","address":"上海张东路1387号第46-48幢"},{"poiid":"B2094655D36DA7FD4299","title":"张东路祖冲之路","lon":"121.63276","lat":"31.21281","category":"38","category_name":"公交车站","address":""},{"poiid":"B2094757D66EA6F94793","title":"张江国际豪庭","lon":"121.642386375","lat":"31.2168653481","category":"252","category_name":"楼宇机构","address":"上海银樽路58号"},{"poiid":"B2094757D06AA3FB479E","title":"感恩堂","lon":"121.62321","lat":"31.21502","category":"500","category_name":"未知分类","address":"浦东新区丹桂路700号(丹桂路青桐路)"},{"poiid":"B2094655D36DA7FD4298","title":"张东路金秋路","lon":"121.63276","lat":"31.21656","category":"38","category_name":"公交车站","address":""},{"poiid":"B2094757D16EA3FB479C","title":"玉兰香苑四期","lon":"121.64327000318","lat":"31.206748315762","category":"500","category_name":"未知分类","address":"上海市浦东新区张江镇张东路"},{"poiid":"B2094757D568A6F8409E","title":"傣妹(张江店)","lon":"121.638185","lat":"31.205402","category":"86","category_name":"火锅店","address":"浦东新区张江高科技园区高科中路2860号家乐福1楼(近玉兰香苑)"},{"poiid":"B2094757D069A6FB4193","title":"玉兰香苑三期","lon":"121.63968528917","lat":"31.20365227148","category":"500","category_name":"未知分类","address":"上海浦东新区益江路玉兰香苑三期"},{"poiid":"B2094654DA6AA4FF419B","title":"上海微电子装备有限公司(张东路)","lon":"121.63317","lat":"31.2154","category":"263","category_name":"公司","address":"张东路1525号"},{"poiid":"B2094654DA6AA4FD449A","title":"上海微电子装备有限公司","lon":"121.6352","lat":"31.21572","category":"263","category_name":"公司","address":"浦东新区张东路1525号"},{"poiid":"B2094757DA64ABF8479E","title":"张江集电港","lon":"121.635391","lat":"31.217871","category":"252","category_name":"楼宇机构","address":"卫清西路139_149号等"},{"poiid":"B2094757D06FABFD439A","title":"张江集电港二期","lon":"121.635397","lat":"31.216483","category":"47","category_name":"住宅区","address":"浦东新区张东路1387号"},{"poiid":"B2094654DB64A3FA4799","title":"张江集电港","lon":"121.63318","lat":"31.22205","category":"252","category_name":"楼宇机构","address":"卫清西路139_149号等"},{"poiid":"B2094654DA6AA4FE4793","title":"玉兰香苑","lon":"121.63323","lat":"31.200127","category":"47","category_name":"住宅区","address":"上海市浦东新区益江路126弄、益江路286弄"},{"poiid":"B2094757D06EAAF94799","title":"妈妈糖休闲咖啡馆 mamatown","lon":"121.62242","lat":"31.21869","category":"94","category_name":"西餐厅","address":"浦东新区青桐路199弄中芯花园23号"},{"poiid":"B2094757D06FA1F54498","title":"永达国际汽车广场","lon":"121.62713285","lat":"31.222678767","category":"500","category_name":"未知分类","address":"上海龙东大道2777号"},{"poiid":"B2094757D06AA4FA4692","title":"展讯中心","lon":"121.634","lat":"31.2169","category":"500","category_name":"未知分类","address":"上海浦东新区张江高科祖冲之路2288弄1号楼"},{"poiid":"B2094750DA6DA0FB429E","title":"张江家乐福","lon":"121.638771","lat":"31.203567","category":"249","category_name":"购物服务","address":"浦东新区张江高科中路2860号(近张东路)"},{"poiid":"B2094757D068AAF84893","title":"龙东商务酒店","lon":"121.633540458","lat":"31.2227017056","category":"214","category_name":"四星级宾馆","address":"浦东新区龙东大道3000号(张东路口)"},{"poiid":"B2094757D068A0F5479E","title":"宝诚宝马4S店(龙东大道店)","lon":"121.630592","lat":"31.224612","category":"158","category_name":"汽车销售","address":"浦东新区龙东大道2777号(近申江路)"},{"poiid":"B2094757D068A7F8409D","title":"展讯豪生酒店","lon":"121.62515517","lat":"31.206159597","category":"217","category_name":"旅馆招待所","address":"上海市浦东新区祖冲之路2288弄（近申江路）"},{"poiid":"B2094757D06FA0FF409F","title":"阳光花城","lon":"121.62379","lat":"31.207195","category":"500","category_name":"未知分类","address":"上海市浦东新区紫薇路667弄"},{"poiid":"B2094757D068A3F9499E","title":"毕加索小镇","lon":"121.64792633","lat":"31.221918106","category":"500","category_name":"未知分类","address":"上海市浦东新区春泉路45弄"},{"poiid":"B2094757D068A4F8469C","title":"唐园大酒店","lon":"121.64786","lat":"31.22455","category":"76","category_name":"上海菜","address":"浦东新区唐陆路2400号(近龙东大道)"},{"poiid":"B2094750D76CA4FC479C","title":"妈妈糖2.0(张东路店)","lon":"121.634","lat":"31.2187","category":"94","category_name":"西餐厅","address":"浦东新区张东路1387号集电子社区中心2楼"},{"poiid":"B2094757D068A2FB4592","title":"台北雅厨","lon":"121.62232","lat":"31.21868","category":"91","category_name":"台湾菜","address":"浦东新区青桐路199弄中芯花园15号(近广兰路)"},{"poiid":"B2094757D46BA5FE4492","title":"妈妈糖休闲咖啡馆 张东路店","lon":"121.6361072","lat":"31.2006146","category":"65","category_name":"咖啡厅","address":"浦东新区张东路1387号集电子社区中心2楼"},{"poiid":"B2094757D064AAF5499F","title":"瑞慈健康管理中心(张东路店)","lon":"121.6329","lat":"31.21723","category":"162","category_name":"医院","address":"上海浦东新区张东路1388号15幢(近丹桂路)"},{"poiid":"B2094655D265ABF9499B","title":"保利金爵公寓(一期)","lon":"121.651128","lat":"31.206772","category":"47","category_name":"住宅区","address":"浦东新区创新西路75弄131号B座"},{"poiid":"B2094655D36DA0F54292","title":"玉兰香苑二期A块","lon":"121.63422596141","lat":"31.202460117491","category":"38","category_name":"公交车站","address":"益江路511弄"},{"poiid":"B2094757D164AAF54999","title":"肯德基","lon":"121.63701427","lat":"31.203571737","category":"68","category_name":"快餐厅","address":"浦东新区高科中路2860号家乐福(近外环线)"},{"poiid":"B2094757D06BA5FD4499","title":"永和大王(张江家乐福店)","lon":"121.63938","lat":"31.20406","category":"68","category_name":"快餐厅","address":"浦东新区高科中路2860号家乐福2楼"},{"poiid":"B2094757D06FA4F4479E","title":"友乐达台北精致面馆(张江店)","lon":"121.62252","lat":"31.21871","category":"68","category_name":"快餐厅","address":"浦东新区青桐路199弄中芯花园17号(近广兰路)"},{"poiid":"B2094757D069A5FE489C","title":"威尔士健身会所(张江店)","lon":"121.62643","lat":"31.20966","category":"221","category_name":"健身中心","address":"浦东新区祖冲之路2288号(近申江路)"},{"poiid":"B2094757D069AAF5459A","title":"外汇交易中心","lon":"121.63539886","lat":"31.216482162","category":"500","category_name":"未知分类","address":"上海张东路1387号"},{"poiid":"B2094655D36DA0F54293","title":"玉兰香苑二期C块","lon":"121.63363854614","lat":"31.203943272246","category":"38","category_name":"公交车站","address":"益江路396弄"},{"poiid":"B2094757D069A6FE429B","title":"51job","lon":"121.633905","lat":"31.217677","category":"500","category_name":"未知分类","address":"上海张东路1387弄3号"},{"poiid":"B2094655D26EA0F8409C","title":"强生千亩园林餐厅","lon":"121.63900116319462","lat":"31.22349341978972","category":"87","category_name":"特色／地方风味餐厅","address":"上海市浦东新区龙东大道3166号"},{"poiid":"B2094757D06BAAFD479C","title":"中共上海市浦东新区区委党校","lon":"121.62418597","lat":"31.219276804","category":"260","category_name":"其他","address":"上海市浦东新区龙东大道"},{"poiid":"B2094750D568ABF84299","title":"上海天之骄子","lon":"121.62937","lat":"31.211645","category":"47","category_name":"住宅区","address":"浦东祖冲之路2305号(盛夏路口)"},{"poiid":"B2094654DB64A3FA469D","title":"张江集电港·会展中心(张东路)","lon":"121.63236","lat":"31.22277","category":"185","category_name":"会展中心","address":"龙东大道3000号"},{"poiid":"B2094757D16CA4FD4493","title":"张江集电港二期1388号","lon":"121.63578897","lat":"31.21655274","category":"47","category_name":"住宅区","address":"上海市浦东新区张东路"},{"poiid":"B2094757D06FAAFB449D","title":"玉兰香苑一期","lon":"121.633535","lat":"31.200113","category":"47","category_name":"住宅区","address":"上海浦东新区益江路126弄"},{"poiid":"B2094654DA6BA2F4409B","title":"科技领袖之都(金秋路)","lon":"121.6354","lat":"31.21648","category":"47","category_name":"住宅区","address":"上海市浦东新区张东路"},{"poiid":"B2094757D06BA4FB439E","title":"外环线龙东大道口","lon":"121.64317097","lat":"31.210425597","category":"500","category_name":"未知分类","address":"上海市浦东新区新前路"},{"poiid":"B2094757D164A3FB4392","title":"迦拿咖啡","lon":"121.63431","lat":"31.21658","category":"94","category_name":"西餐厅","address":"浦东新区张东路1387号张江集电港二期21幢101室"},{"poiid":"B2094654DA6AAAFD429D","title":"唐人苑","lon":"121.64923","lat":"31.208265","category":"47","category_name":"住宅区","address":"唐镇路127弄"},{"poiid":"B2094757D064A4FC4893","title":"小城故事(浦东店)","lon":"121.63064","lat":"31.22243","category":"91","category_name":"台湾菜","address":"浦东新区龙东大道3000号龙东商务酒店2号楼102室(张东路口)"},{"poiid":"B2094757D169A6F44199","title":"凌华科技(中国)有限公司","lon":"121.637857","lat":"31.214002","category":"263","category_name":"公司","address":"上海芳春路300号"},{"poiid":"B2094757D064A4FD4993","title":"张江名流豪庭","lon":"121.63859283","lat":"31.215198259","category":"500","category_name":"未知分类","address":"上海浦东新区春泉路45弄"},{"poiid":"B2094757D065A1FD4092","title":"AMD","lon":"121.63495156","lat":"31.220122434","category":"46","category_name":"楼宇","address":"上海张东路1387号第46-48幢"},{"poiid":"B2094655D36DA7FD4299","title":"张东路祖冲之路","lon":"121.63276","lat":"31.21281","category":"38","category_name":"公交车站","address":""},{"poiid":"B2094757D66EA6F94793","title":"张江国际豪庭","lon":"121.642386375","lat":"31.2168653481","category":"252","category_name":"楼宇机构","address":"上海银樽路58号"},{"poiid":"B2094757D06AA3FB479E","title":"感恩堂","lon":"121.62321","lat":"31.21502","category":"500","category_name":"未知分类","address":"浦东新区丹桂路700号(丹桂路青桐路)"},{"poiid":"B2094655D36DA7FD4298","title":"张东路金秋路","lon":"121.63276","lat":"31.21656","category":"38","category_name":"公交车站","address":""},{"poiid":"B2094757D16EA3FB479C","title":"玉兰香苑四期","lon":"121.64327000318","lat":"31.206748315762","category":"500","category_name":"未知分类","address":"上海市浦东新区张江镇张东路"},{"poiid":"B2094757D568A6F8409E","title":"傣妹(张江店)","lon":"121.638185","lat":"31.205402","category":"86","category_name":"火锅店","address":"浦东新区张江高科技园区高科中路2860号家乐福1楼(近玉兰香苑)"},{"poiid":"B2094757D069A6FB4193","title":"玉兰香苑三期","lon":"121.63968528917","lat":"31.20365227148","category":"500","category_name":"未知分类","address":"上海浦东新区益江路玉兰香苑三期"},{"poiid":"B2094654DA6AA4FF419B","title":"上海微电子装备有限公司(张东路)","lon":"121.63317","lat":"31.2154","category":"263","category_name":"公司","address":"张东路1525号"},{"poiid":"B2094654DA6AA4FD449A","title":"上海微电子装备有限公司","lon":"121.6352","lat":"31.21572","category":"263","category_name":"公司","address":"浦东新区张东路1525号"},{"poiid":"B2094757DA64ABF8479E","title":"张江集电港","lon":"121.635391","lat":"31.217871","category":"252","category_name":"楼宇机构","address":"卫清西路139_149号等"}]