[{"poiid":"B2094654DB64A2FD419C","title":"上海康城","lon":"121.35881","lat":"31.10166","category":"47","category_name":"住宅区","address":"上海市闵行区莘松路980弄"},{"poiid":"B2094757D06FA5FD479B","title":"莘庄公园","lon":"121.373303237","lat":"31.1020471815","category":"196","category_name":"公园","address":"上海市闵行区莘浜路421号"},{"poiid":"B2094757D168A1FD4092","title":"莘松路西环路","lon":"121.367515257","lat":"31.103149725","category":"500","category_name":"未知分类","address":"上海莘松路西环路"},{"poiid":"B2094757D068AAF4409F","title":"浅水湾花园","lon":"121.36124","lat":"31.097576","category":"47","category_name":"住宅区","address":"上海市松江区莘松路999弄"},{"poiid":"B2094655D26AA2FA479A","title":"麦当劳康城店","lon":"121.35682","lat":"31.09989","category":"68","category_name":"快餐厅","address":"闵行区莘松路1028号巴比伦广场内(近上海康城)"},{"poiid":"B2094757D66CAAFA4199","title":"青春农庄","lon":"121.366871757","lat":"31.0982198263","category":"87","category_name":"特色／地方风味餐厅","address":"闵行区中春路4755弄98号(近青春路)"},{"poiid":"B2094654DB64A2FD429F","title":"锦江之星(莘松路店)","lon":"121.36436","lat":"31.10051","category":"216","category_name":"经济型连锁酒店","address":"上海市闵行区莘松路855号(乐购超市旁)"},{"poiid":"B2094757D06BAAF5479F","title":"棒约翰比萨(莘松店)","lon":"121.3632","lat":"31.10044","category":"94","category_name":"西餐厅","address":"闵行区莘松路855号乐购莘松店内(莘松地道旁)"},{"poiid":"B2094757D069A3F5449E","title":"肯德基 KFC (莘松店)","lon":"121.364028","lat":"31.097723","category":"68","category_name":"快餐厅","address":"闵行区莘松路855号乐购内(莘松地道旁)"},{"poiid":"B2094757D068A7F5459B","title":"乐购莘松店","lon":"121.36471455","lat":"31.099643024","category":"500","category_name":"未知分类","address":"上海莘松路958弄"},{"poiid":"B2094757D16DA4FB4493","title":"上海康城维园道","lon":"121.35380697","lat":"31.103291268","category":"252","category_name":"楼宇机构","address":"上海市闵行区莘松路958弄"},{"poiid":"B2094654DB69ABF94992","title":"今海明珠大酒楼(松江店)","lon":"121.35432","lat":"31.09911","category":"70","category_name":"综合酒楼","address":"闵行区莘松路1098号(巴比伦生活恒泰生活广场西侧)"},{"poiid":"B2094757D06AAAF84398","title":"冰火工房(莘松乐购店)","lon":"121.3623","lat":"31.10021","category":"68","category_name":"快餐厅","address":"闵行区莘松路855号莘松乐购1楼(莘松地道旁)"},{"poiid":"B2094757D469A5F94592","title":"七欣天迷宗蟹 莘庄店","lon":"121.361126","lat":"31.100904","category":"257","category_name":"中餐厅","address":"闵行区莘松路1028号巴比伦广场101室(近上海康城)"},{"poiid":"B2094655D26EABFA429D","title":"乐购超市(莘松店)","lon":"121.3644","lat":"31.09795","category":"118","category_name":"超级市场","address":"闵行区莘松路855号"},{"poiid":"B2094757D568A5F9449C","title":"恒泰生活广场","lon":"121.364","lat":"31.1058","category":"201","category_name":"城市广场","address":"莘松路1000号"},{"poiid":"B2094757D464A0F8419A","title":"良利海鲜酒楼","lon":"121.36149914258","lat":"31.100801488739","category":"75","category_name":"浙江菜","address":"闵行区莘松路1108号4楼(春九路口)"},{"poiid":"B2094757D06AA0FC4698","title":"吴记老锅底麻辣火锅(巴比伦店)","lon":"121.35562","lat":"31.09937","category":"86","category_name":"火锅店","address":"上海闵行区莘松路1078弄3号(近春九路)  "},{"poiid":"B2094654DA64A2F84893","title":"永乐生活电器(浅水湾花园东)","lon":"121.36419","lat":"31.09886","category":"138","category_name":"家电电子卖场","address":""},{"poiid":"B2094757D66DA4FD4592","title":"EcoG溢柯花园生活中心","lon":"121.36436","lat":"31.09917","category":"249","category_name":"购物服务","address":"上海闵行区莘松路855号2幢2楼(莘松地道旁)  "},{"poiid":"B2094757D66CA6FB489F","title":"新丁香海鲜大酒店","lon":"121.364154857","lat":"31.1009933818","category":"88","category_name":"海鲜酒楼","address":"上海市闵行区莘松路"},{"poiid":"B2094757D06AAAFA4893","title":"口吅品牛肉面馆 莘松路","lon":"121.35775","lat":"31.10022","category":"68","category_name":"快餐厅","address":"闵行区莘松路1028号巴比伦广场二区(近上海康城)"},{"poiid":"B2094654DA64A2FB489F","title":"上海百饰得建材市场经营管理有限公司","lon":"121.36342","lat":"31.09891","category":"263","category_name":"公司","address":""},{"poiid":"B2094654DB64A5FD419B","title":"特力屋家居生活馆(莘松店)","lon":"121.3644","lat":"31.09795","category":"123","category_name":"家具建材市场","address":"闵行区莘松路855号1楼(百饰得乐购旁)"},{"poiid":"B2094757D069A0F94899","title":"红蜘蛛烧烤(莘松路店)","lon":"121.356","lat":"31.09928","category":"68","category_name":"快餐厅","address":"闵行区莘松路1028号巴比伦广场内(近上海康城)"},{"poiid":"B2094654DA64A2F5419E","title":"雅阁花园","lon":"121.36195","lat":"31.091791","category":"47","category_name":"住宅区","address":"上海市松江区场东路168弄"},{"poiid":"B2094757D06FA3FD489F","title":"绿洲长岛花园","lon":"121.354833","lat":"31.103406","category":"47","category_name":"住宅区","address":"上海市松江区莘松路1288弄"},{"poiid":"B2094655D26BA3FD4998","title":"小肥羊 莘庄店","lon":"121.369995054","lat":"31.106995793","category":"86","category_name":"火锅店","address":"闵行区莘谭路423号(莘西路西环路间)"},{"poiid":"B2094654DA64A2F8489E","title":"莘松水果店","lon":"121.36299","lat":"31.10119","category":"117","category_name":"便民商店/便利店","address":""},{"poiid":"B2094757D068AAF44599","title":"公园天下","lon":"121.372984","lat":"31.100528","category":"196","category_name":"公园","address":"闵行区西园路128弄(近莘庄公园)"},{"poiid":"B2094654DA64A2F8459C","title":"莘松建材市场","lon":"121.36287","lat":"31.10118","category":"123","category_name":"家具建材市场","address":"闵行区莘松路地铁一号线莘庄站(莘松路莘西路)"},{"poiid":"B2094757D46FA6FF429D","title":"火云轩 莘松店","lon":"121.365049054","lat":"31.096239793","category":"86","category_name":"火锅店","address":"闵行区莘松路1494号(近场西路)"},{"poiid":"B2094757D66DA6FD479A","title":"天鹅轩","lon":"121.36538385","lat":"31.09890781","category":"500","category_name":"未知分类","address":"上海动物园"},{"poiid":"B2094654DA64A2F9499E","title":"上海师范大学康城实验学校","lon":"121.35532","lat":"31.10125","category":"55","category_name":"中学","address":"闵行区莘松路958弄瀑布弯道18号"},{"poiid":"B2094655D26EABF44298","title":"巴比馒头(莘松路店)","lon":"121.35975","lat":"31.10089","category":"87","category_name":"特色／地方风味餐厅","address":"闵行区莘松路958弄(上海康城小区内)"},{"poiid":"B2094654DA64A2FA409B","title":"百佳花园","lon":"121.35724","lat":"31.097345","category":"47","category_name":"住宅区","address":"上海市松江区场东路333弄"},{"poiid":"B2094654DB69A6F9419A","title":"万宇漓水花苑","lon":"121.36596","lat":"31.10274","category":"47","category_name":"住宅区","address":"松江区莘松路"},{"poiid":"B2094757D168A7FC479B","title":"中石化莘松路加油站","lon":"121.36021885","lat":"31.097700315","category":"154","category_name":"加油加气站","address":"上海市松江区莘松路"},{"poiid":"B2094654DA64A2F8459D","title":"上海师资培训中心实验基地附属中学","lon":"121.36827","lat":"31.10134","category":"55","category_name":"中学","address":"闵行区中春路4949号(近莘松路)"},{"poiid":"B2094655D36DA1FB4393","title":"西环路","lon":"121.3666","lat":"31.10742","category":"38","category_name":"公交车站","address":""},{"poiid":"B2094757D66DA2FF4693","title":"莘庄消防队","lon":"121.36376325","lat":"31.102957421","category":"500","category_name":"未知分类","address":"上海莘松路585号"},{"poiid":"B2094757D66EA1F5489B","title":"莘庄2路康城(北大门)终点站","lon":"121.36393915","lat":"31.102794817","category":"500","category_name":"未知分类","address":"上海市闵行区康城北门"},{"poiid":"B2094757D169A1FB4093","title":"上海康城江山道","lon":"121.358814","lat":"31.101666","category":"252","category_name":"楼宇机构","address":"上海莘松路958弄"},{"poiid":"B2094654DA64A2F8489D","title":"柳明公寓","lon":"121.36754","lat":"31.10251","category":"47","category_name":"住宅区","address":"莘松路577弄"},{"poiid":"B2094654DA64A2F8439E","title":"碧春园","lon":"121.36901","lat":"31.100262","category":"47","category_name":"住宅区","address":"中春路4915弄"},{"poiid":"B2094655D36DA1FB4498","title":"西环路莘谭路","lon":"121.36771","lat":"31.10517","category":"38","category_name":"公交车站","address":""},{"poiid":"B2094654DA64A2FA459A","title":"雅仕居","lon":"121.35769","lat":"31.094622","category":"47","category_name":"住宅区","address":"新南路99弄"},{"poiid":"B2094654DA64A2F4449A","title":"陆昌庙","lon":"121.36585","lat":"31.09534","category":"244","category_name":"寺庙道观","address":""},{"poiid":"B2094654DA64A2F4439E","title":"恩乐好友宠物中心","lon":"121.36512","lat":"31.09546","category":"117","category_name":"便民商店/便利店","address":""},{"poiid":"B2094654DA64AAFA419B","title":"莘松四村","lon":"121.36943","lat":"31.105217","category":"47","category_name":"住宅区","address":"莘松路470弄"},{"poiid":"B2094654DB64A2FD419C","title":"上海康城","lon":"121.35881","lat":"31.10166","category":"47","category_name":"住宅区","address":"上海市闵行区莘松路980弄"},{"poiid":"B2094757D06FA5FD479B","title":"莘庄公园","lon":"121.373303237","lat":"31.1020471815","category":"196","category_name":"公园","address":"上海市闵行区莘浜路421号"},{"poiid":"B2094757D168A1FD4092","title":"莘松路西环路","lon":"121.367515257","lat":"31.103149725","category":"500","category_name":"未知分类","address":"上海莘松路西环路"},{"poiid":"B2094757D068AAF4409F","title":"浅水湾花园","lon":"121.36124","lat":"31.097576","category":"47","category_name":"住宅区","address":"上海市松江区莘松路999弄"},{"poiid":"B2094655D26AA2FA479A","title":"麦当劳康城店","lon":"121.35682","lat":"31.09989","category":"68","category_name":"快餐厅","address":"闵行区莘松路1028号巴比伦广场内(近上海康城)"},{"poiid":"B2094757D66CAAFA4199","title":"青春农庄","lon":"121.366871757","lat":"31.0982198263","category":"87","category_name":"特色／地方风味餐厅","address":"闵行区中春路4755弄98号(近青春路)"},{"poiid":"B2094654DB64A2FD429F","title":"锦江之星(莘松路店)","lon":"121.36436","lat":"31.10051","category":"216","category_name":"经济型连锁酒店","address":"上海市闵行区莘松路855号(乐购超市旁)"},{"poiid":"B2094757D06BAAF5479F","title":"棒约翰比萨(莘松店)","lon":"121.3632","lat":"31.10044","category":"94","category_name":"西餐厅","address":"闵行区莘松路855号乐购莘松店内(莘松地道旁)"},{"poiid":"B2094757D069A3F5449E","title":"肯德基 KFC (莘松店)","lon":"121.364028","lat":"31.097723","category":"68","category_name":"快餐厅","address":"闵行区莘松路855号乐购内(莘松地道旁)"},{"poiid":"B2094757D068A7F5459B","title":"乐购莘松店","lon":"121.36471455","lat":"31.099643024","category":"500","category_name":"未知分类","address":"上海莘松路958弄"},{"poiid":"B2094757D16DA4FB4493","title":"上海康城维园道","lon":"121.35380697","lat":"31.103291268","category":"252","category_name":"楼宇机构","address":"上海市闵行区莘松路958弄"},{"poiid":"B2094654DB69ABF94992","title":"今海明珠大酒楼(松江店)","lon":"121.35432","lat":"31.09911","category":"70","category_name":"综合酒楼","address":"闵行区莘松路1098号(巴比伦生活恒泰生活广场西侧)"},{"poiid":"B2094757D06AAAF84398","title":"冰火工房(莘松乐购店)","lon":"121.3623","lat":"31.10021","category":"68","category_name":"快餐厅","address":"闵行区莘松路855号莘松乐购1楼(莘松地道旁)"},{"poiid":"B2094757D469A5F94592","title":"七欣天迷宗蟹 莘庄店","lon":"121.361126","lat":"31.100904","category":"257","category_name":"中餐厅","address":"闵行区莘松路1028号巴比伦广场101室(近上海康城)"},{"poiid":"B2094655D26EABFA429D","title":"乐购超市(莘松店)","lon":"121.3644","lat":"31.09795","category":"118","category_name":"超级市场","address":"闵行区莘松路855号"},{"poiid":"B2094757D568A5F9449C","title":"恒泰生活广场","lon":"121.364","lat":"31.1058","category":"201","category_name":"城市广场","address":"莘松路1000号"},{"poiid":"B2094757D464A0F8419A","title":"良利海鲜酒楼","lon":"121.36149914258","lat":"31.100801488739","category":"75","category_name":"浙江菜","address":"闵行区莘松路1108号4楼(春九路口)"},{"poiid":"B2094757D06AA0FC4698","title":"吴记老锅底麻辣火锅(巴比伦店)","lon":"121.35562","lat":"31.09937","category":"86","category_name":"火锅店","address":"上海闵行区莘松路1078弄3号(近春九路)  "},{"poiid":"B2094654DA64A2F84893","title":"永乐生活电器(浅水湾花园东)","lon":"121.36419","lat":"31.09886","category":"138","category_name":"家电电子卖场","address":""},{"poiid":"B2094757D66DA4FD4592","title":"EcoG溢柯花园生活中心","lon":"121.36436","lat":"31.09917","category":"249","category_name":"购物服务","address":"上海闵行区莘松路855号2幢2楼(莘松地道旁)  "},{"poiid":"B2094757D66CA6FB489F","title":"新丁香海鲜大酒店","lon":"121.364154857","lat":"31.1009933818","category":"88","category_name":"海鲜酒楼","address":"上海市闵行区莘松路"},{"poiid":"B2094757D06AAAFA4893","title":"口吅品牛肉面馆 莘松路","lon":"121.35775","lat":"31.10022","category":"68","category_name":"快餐厅","address":"闵行区莘松路1028号巴比伦广场二区(近上海康城)"},{"poiid":"B2094654DA64A2FB489F","title":"上海百饰得建材市场经营管理有限公司","lon":"121.36342","lat":"31.09891","category":"263","category_name":"公司","address":""},{"poiid":"B2094654DB64A5FD419B","title":"特力屋家居生活馆(莘松店)","lon":"121.3644","lat":"31.09795","category":"123","category_name":"家具建材市场","address":"闵行区莘松路855号1楼(百饰得乐购旁)"},{"poiid":"B2094757D069A0F94899","title":"红蜘蛛烧烤(莘松路店)","lon":"121.356","lat":"31.09928","category":"68","category_name":"快餐厅","address":"闵行区莘松路1028号巴比伦广场内(近上海康城)"},{"poiid":"B2094654DA64A2F5419E","title":"雅阁花园","lon":"121.36195","lat":"31.091791","category":"47","category_name":"住宅区","address":"上海市松江区场东路168弄"},{"poiid":"B2094757D06FA3FD489F","title":"绿洲长岛花园","lon":"121.354833","lat":"31.103406","category":"47","category_name":"住宅区","address":"上海市松江区莘松路1288弄"},{"poiid":"B2094655D26BA3FD4998","title":"小肥羊 莘庄店","lon":"121.369995054","lat":"31.106995793","category":"86","category_name":"火锅店","address":"闵行区莘谭路423号(莘西路西环路间)"},{"poiid":"B2094654DA64A2F8489E","title":"莘松水果店","lon":"121.36299","lat":"31.10119","category":"117","category_name":"便民商店/便利店","address":""},{"poiid":"B2094757D068AAF44599","title":"公园天下","lon":"121.372984","lat":"31.100528","category":"196","category_name":"公园","address":"闵行区西园路128弄(近莘庄公园)"},{"poiid":"B2094654DA64A2F8459C","title":"莘松建材市场","lon":"121.36287","lat":"31.10118","category":"123","category_name":"家具建材市场","address":"闵行区莘松路地铁一号线莘庄站(莘松路莘西路)"},{"poiid":"B2094757D46FA6FF429D","title":"火云轩 莘松店","lon":"121.365049054","lat":"31.096239793","category":"86","category_name":"火锅店","address":"闵行区莘松路1494号(近场西路)"},{"poiid":"B2094757D66DA6FD479A","title":"天鹅轩","lon":"121.36538385","lat":"31.09890781","category":"500","category_name":"未知分类","address":"上海动物园"},{"poiid":"B2094654DA64A2F9499E","title":"上海师范大学康城实验学校","lon":"121.35532","lat":"31.10125","category":"55","category_name":"中学","address":"闵行区莘松路958弄瀑布弯道18号"},{"poiid":"B2094655D26EABF44298","title":"巴比馒头(莘松路店)","lon":"121.35975","lat":"31.10089","category":"87","category_name":"特色／地方风味餐厅","address":"闵行区莘松路958弄(上海康城小区内)"},{"poiid":"B2094654DA64A2FA409B","title":"百佳花园","lon":"121.35724","lat":"31.097345","category":"47","category_name":"住宅区","address":"上海市松江区场东路333弄"},{"poiid":"B2094654DB69A6F9419A","title":"万宇漓水花苑","lon":"121.36596","lat":"31.10274","category":"47","category_name":"住宅区","address":"松江区莘松路"},{"poiid":"B2094757D168A7FC479B","title":"中石化莘松路加油站","lon":"121.36021885","lat":"31.097700315","category":"154","category_name":"加油加气站","address":"上海市松江区莘松路"},{"poiid":"B2094654DA64A2F8459D","title":"上海师资培训中心实验基地附属中学","lon":"121.36827","lat":"31.10134","category":"55","category_name":"中学","address":"闵行区中春路4949号(近莘松路)"},{"poiid":"B2094655D36DA1FB4393","title":"西环路","lon":"121.3666","lat":"31.10742","category":"38","category_name":"公交车站","address":""},{"poiid":"B2094757D66DA2FF4693","title":"莘庄消防队","lon":"121.36376325","lat":"31.102957421","category":"500","category_name":"未知分类","address":"上海莘松路585号"},{"poiid":"B2094757D66EA1F5489B","title":"莘庄2路康城(北大门)终点站","lon":"121.36393915","lat":"31.102794817","category":"500","category_name":"未知分类","address":"上海市闵行区康城北门"},{"poiid":"B2094757D169A1FB4093","title":"上海康城江山道","lon":"121.358814","lat":"31.101666","category":"252","category_name":"楼宇机构","address":"上海莘松路958弄"},{"poiid":"B2094654DA64A2F8489D","title":"柳明公寓","lon":"121.36754","lat":"31.10251","category":"47","category_name":"住宅区","address":"莘松路577弄"},{"poiid":"B2094654DA64A2F8439E","title":"碧春园","lon":"121.36901","lat":"31.100262","category":"47","category_name":"住宅区","address":"中春路4915弄"},{"poiid":"B2094655D36DA1FB4498","title":"西环路莘谭路","lon":"121.36771","lat":"31.10517","category":"38","category_name":"公交车站","address":""},{"poiid":"B2094654DA64A2FA459A","title":"雅仕居","lon":"121.35769","lat":"31.094622","category":"47","category_name":"住宅区","address":"新南路99弄"},{"poiid":"B2094654DA64A2F4449A","title":"陆昌庙","lon":"121.36585","lat":"31.09534","category":"244","category_name":"寺庙道观","address":""},{"poiid":"B2094654DA64A2F4439E","title":"恩乐好友宠物中心","lon":"121.36512","lat":"31.09546","category":"117","category_name":"便民商店/便利店","address":""},{"poiid":"B2094654DA64AAFA419B","title":"莘松四村","lon":"121.36943","lat":"31.105217","category":"47","category_name":"住宅区","address":"莘松路470弄"},{"poiid":"B2094654DB64A2FD419C","title":"上海康城","lon":"121.35881","lat":"31.10166","category":"47","category_name":"住宅区","address":"上海市闵行区莘松路980弄"},{"poiid":"B2094757D06FA5FD479B","title":"莘庄公园","lon":"121.373303237","lat":"31.1020471815","category":"196","category_name":"公园","address":"上海市闵行区莘浜路421号"},{"poiid":"B2094757D168A1FD4092","title":"莘松路西环路","lon":"121.367515257","lat":"31.103149725","category":"500","category_name":"未知分类","address":"上海莘松路西环路"},{"poiid":"B2094757D068AAF4409F","title":"浅水湾花园","lon":"121.36124","lat":"31.097576","category":"47","category_name":"住宅区","address":"上海市松江区莘松路999弄"},{"poiid":"B2094655D26AA2FA479A","title":"麦当劳康城店","lon":"121.35682","lat":"31.09989","category":"68","category_name":"快餐厅","address":"闵行区莘松路1028号巴比伦广场内(近上海康城)"},{"poiid":"B2094757D66CAAFA4199","title":"青春农庄","lon":"121.366871757","lat":"31.0982198263","category":"87","category_name":"特色／地方风味餐厅","address":"闵行区中春路4755弄98号(近青春路)"},{"poiid":"B2094654DB64A2FD429F","title":"锦江之星(莘松路店)","lon":"121.36436","lat":"31.10051","category":"216","category_name":"经济型连锁酒店","address":"上海市闵行区莘松路855号(乐购超市旁)"},{"poiid":"B2094757D06BAAF5479F","title":"棒约翰比萨(莘松店)","lon":"121.3632","lat":"31.10044","category":"94","category_name":"西餐厅","address":"闵行区莘松路855号乐购莘松店内(莘松地道旁)"},{"poiid":"B2094757D069A3F5449E","title":"肯德基 KFC (莘松店)","lon":"121.364028","lat":"31.097723","category":"68","category_name":"快餐厅","address":"闵行区莘松路855号乐购内(莘松地道旁)"},{"poiid":"B2094757D068A7F5459B","title":"乐购莘松店","lon":"121.36471455","lat":"31.099643024","category":"500","category_name":"未知分类","address":"上海莘松路958弄"},{"poiid":"B2094757D16DA4FB4493","title":"上海康城维园道","lon":"121.35380697","lat":"31.103291268","category":"252","category_name":"楼宇机构","address":"上海市闵行区莘松路958弄"},{"poiid":"B2094654DB69ABF94992","title":"今海明珠大酒楼(松江店)","lon":"121.35432","lat":"31.09911","category":"70","category_name":"综合酒楼","address":"闵行区莘松路1098号(巴比伦生活恒泰生活广场西侧)"},{"poiid":"B2094757D06AAAF84398","title":"冰火工房(莘松乐购店)","lon":"121.3623","lat":"31.10021","category":"68","category_name":"快餐厅","address":"闵行区莘松路855号莘松乐购1楼(莘松地道旁)"},{"poiid":"B2094757D469A5F94592","title":"七欣天迷宗蟹 莘庄店","lon":"121.361126","lat":"31.100904","category":"257","category_name":"中餐厅","address":"闵行区莘松路1028号巴比伦广场101室(近上海康城)"},{"poiid":"B2094655D26EABFA429D","title":"乐购超市(莘松店)","lon":"121.3644","lat":"31.09795","category":"118","category_name":"超级市场","address":"闵行区莘松路855号"},{"poiid":"B2094757D568A5F9449C","title":"恒泰生活广场","lon":"121.364","lat":"31.1058","category":"201","category_name":"城市广场","address":"莘松路1000号"},{"poiid":"B2094757D464A0F8419A","title":"良利海鲜酒楼","lon":"121.36149914258","lat":"31.100801488739","category":"75","category_name":"浙江菜","address":"闵行区莘松路1108号4楼(春九路口)"},{"poiid":"B2094757D06AA0FC4698","title":"吴记老锅底麻辣火锅(巴比伦店)","lon":"121.35562","lat":"31.09937","category":"86","category_name":"火锅店","address":"上海闵行区莘松路1078弄3号(近春九路)  "},{"poiid":"B2094654DA64A2F84893","title":"永乐生活电器(浅水湾花园东)","lon":"121.36419","lat":"31.09886","category":"138","category_name":"家电电子卖场","address":""},{"poiid":"B2094757D66DA4FD4592","title":"EcoG溢柯花园生活中心","lon":"121.36436","lat":"31.09917","category":"249","category_name":"购物服务","address":"上海闵行区莘松路855号2幢2楼(莘松地道旁)  "},{"poiid":"B2094757D66CA6FB489F","title":"新丁香海鲜大酒店","lon":"121.364154857","lat":"31.1009933818","category":"88","category_name":"海鲜酒楼","address":"上海市闵行区莘松路"},{"poiid":"B2094757D06AAAFA4893","title":"口吅品牛肉面馆 莘松路","lon":"121.35775","lat":"31.10022","category":"68","category_name":"快餐厅","address":"闵行区莘松路1028号巴比伦广场二区(近上海康城)"},{"poiid":"B2094654DA64A2FB489F","title":"上海百饰得建材市场经营管理有限公司","lon":"121.36342","lat":"31.09891","category":"263","category_name":"公司","address":""},{"poiid":"B2094654DB64A5FD419B","title":"特力屋家居生活馆(莘松店)","lon":"121.3644","lat":"31.09795","category":"123","category_name":"家具建材市场","address":"闵行区莘松路855号1楼(百饰得乐购旁)"},{"poiid":"B2094757D069A0F94899","title":"红蜘蛛烧烤(莘松路店)","lon":"121.356","lat":"31.09928","category":"68","category_name":"快餐厅","address":"闵行区莘松路1028号巴比伦广场内(近上海康城)"},{"poiid":"B2094654DA64A2F5419E","title":"雅阁花园","lon":"121.36195","lat":"31.091791","category":"47","category_name":"住宅区","address":"上海市松江区场东路168弄"},{"poiid":"B2094757D06FA3FD489F","title":"绿洲长岛花园","lon":"121.354833","lat":"31.103406","category":"47","category_name":"住宅区","address":"上海市松江区莘松路1288弄"},{"poiid":"B2094655D26BA3FD4998","title":"小肥羊 莘庄店","lon":"121.369995054","lat":"31.106995793","category":"86","category_name":"火锅店","address":"闵行区莘谭路423号(莘西路西环路间)"},{"poiid":"B2094654DA64A2F8489E","title":"莘松水果店","lon":"121.36299","lat":"31.10119","category":"117","category_name":"便民商店/便利店","address":""},{"poiid":"B2094757D068AAF44599","title":"公园天下","lon":"121.372984","lat":"31.100528","category":"196","category_name":"公园","address":"闵行区西园路128弄(近莘庄公园)"},{"poiid":"B2094654DA64A2F8459C","title":"莘松建材市场","lon":"121.36287","lat":"31.10118","category":"123","category_name":"家具建材市场","address":"闵行区莘松路地铁一号线莘庄站(莘松路莘西路)"},{"poiid":"B2094757D46FA6FF429D","title":"火云轩 莘松店","lon":"121.365049054","lat":"31.096239793","category":"86","category_name":"火锅店","address":"闵行区莘松路1494号(近场西路)"},{"poiid":"B2094757D66DA6FD479A","title":"天鹅轩","lon":"121.36538385","lat":"31.09890781","category":"500","category_name":"未知分类","address":"上海动物园"},{"poiid":"B2094654DA64A2F9499E","title":"上海师范大学康城实验学校","lon":"121.35532","lat":"31.10125","category":"55","category_name":"中学","address":"闵行区莘松路958弄瀑布弯道18号"},{"poiid":"B2094655D26EABF44298","title":"巴比馒头(莘松路店)","lon":"121.35975","lat":"31.10089","category":"87","category_name":"特色／地方风味餐厅","address":"闵行区莘松路958弄(上海康城小区内)"},{"poiid":"B2094654DA64A2FA409B","title":"百佳花园","lon":"121.35724","lat":"31.097345","category":"47","category_name":"住宅区","address":"上海市松江区场东路333弄"},{"poiid":"B2094654DB69A6F9419A","title":"万宇漓水花苑","lon":"121.36596","lat":"31.10274","category":"47","category_name":"住宅区","address":"松江区莘松路"},{"poiid":"B2094757D168A7FC479B","title":"中石化莘松路加油站","lon":"121.36021885","lat":"31.097700315","category":"154","category_name":"加油加气站","address":"上海市松江区莘松路"},{"poiid":"B2094654DA64A2F8459D","title":"上海师资培训中心实验基地附属中学","lon":"121.36827","lat":"31.10134","category":"55","category_name":"中学","address":"闵行区中春路4949号(近莘松路)"},{"poiid":"B2094655D36DA1FB4393","title":"西环路","lon":"121.3666","lat":"31.10742","category":"38","category_name":"公交车站","address":""},{"poiid":"B2094757D66DA2FF4693","title":"莘庄消防队","lon":"121.36376325","lat":"31.102957421","category":"500","category_name":"未知分类","address":"上海莘松路585号"},{"poiid":"B2094757D66EA1F5489B","title":"莘庄2路康城(北大门)终点站","lon":"121.36393915","lat":"31.102794817","category":"500","category_name":"未知分类","address":"上海市闵行区康城北门"},{"poiid":"B2094757D169A1FB4093","title":"上海康城江山道","lon":"121.358814","lat":"31.101666","category":"252","category_name":"楼宇机构","address":"上海莘松路958弄"},{"poiid":"B2094654DA64A2F8489D","title":"柳明公寓","lon":"121.36754","lat":"31.10251","category":"47","category_name":"住宅区","address":"莘松路577弄"},{"poiid":"B2094654DA64A2F8439E","title":"碧春园","lon":"121.36901","lat":"31.100262","category":"47","category_name":"住宅区","address":"中春路4915弄"},{"poiid":"B2094655D36DA1FB4498","title":"西环路莘谭路","lon":"121.36771","lat":"31.10517","category":"38","category_name":"公交车站","address":""},{"poiid":"B2094654DA64A2FA459A","title":"雅仕居","lon":"121.35769","lat":"31.094622","category":"47","category_name":"住宅区","address":"新南路99弄"},{"poiid":"B2094654DA64A2F4449A","title":"陆昌庙","lon":"121.36585","lat":"31.09534","category":"244","category_name":"寺庙道观","address":""},{"poiid":"B2094654DA64A2F4439E","title":"恩乐好友宠物中心","lon":"121.36512","lat":"31.09546","category":"117","category_name":"便民商店/便利店","address":""},{"poiid":"B2094654DA64AAFA419B","title":"莘松四村","lon":"121.36943","lat":"31.105217","category":"47","category_name":"住宅区","address":"莘松路470弄"},{"poiid":"B2094654DB64A2FD419C","title":"上海康城","lon":"121.35881","lat":"31.10166","category":"47","category_name":"住宅区","address":"上海市闵行区莘松路980弄"},{"poiid":"B2094757D06FA5FD479B","title":"莘庄公园","lon":"121.373303237","lat":"31.1020471815","category":"196","category_name":"公园","address":"上海市闵行区莘浜路421号"},{"poiid":"B2094757D168A1FD4092","title":"莘松路西环路","lon":"121.367515257","lat":"31.103149725","category":"500","category_name":"未知分类","address":"上海莘松路西环路"},{"poiid":"B2094757D068AAF4409F","title":"浅水湾花园","lon":"121.36124","lat":"31.097576","category":"47","category_name":"住宅区","address":"上海市松江区莘松路999弄"},{"poiid":"B2094655D26AA2FA479A","title":"麦当劳康城店","lon":"121.35682","lat":"31.09989","category":"68","category_name":"快餐厅","address":"闵行区莘松路1028号巴比伦广场内(近上海康城)"},{"poiid":"B2094757D66CAAFA4199","title":"青春农庄","lon":"121.366871757","lat":"31.0982198263","category":"87","category_name":"特色／地方风味餐厅","address":"闵行区中春路4755弄98号(近青春路)"},{"poiid":"B2094654DB64A2FD429F","title":"锦江之星(莘松路店)","lon":"121.36436","lat":"31.10051","category":"216","category_name":"经济型连锁酒店","address":"上海市闵行区莘松路855号(乐购超市旁)"},{"poiid":"B2094757D06BAAF5479F","title":"棒约翰比萨(莘松店)","lon":"121.3632","lat":"31.10044","category":"94","category_name":"西餐厅","address":"闵行区莘松路855号乐购莘松店内(莘松地道旁)"},{"poiid":"B2094757D069A3F5449E","title":"肯德基 KFC (莘松店)","lon":"121.364028","lat":"31.097723","category":"68","category_name":"快餐厅","address":"闵行区莘松路855号乐购内(莘松地道旁)"},{"poiid":"B2094757D068A7F5459B","title":"乐购莘松店","lon":"121.36471455","lat":"31.099643024","category":"500","category_name":"未知分类","address":"上海莘松路958弄"},{"poiid":"B2094757D16DA4FB4493","title":"上海康城维园道","lon":"121.35380697","lat":"31.103291268","category":"252","category_name":"楼宇机构","address":"上海市闵行区莘松路958弄"},{"poiid":"B2094654DB69ABF94992","title":"今海明珠大酒楼(松江店)","lon":"121.35432","lat":"31.09911","category":"70","category_name":"综合酒楼","address":"闵行区莘松路1098号(巴比伦生活恒泰生活广场西侧)"},{"poiid":"B2094757D06AAAF84398","title":"冰火工房(莘松乐购店)","lon":"121.3623","lat":"31.10021","category":"68","category_name":"快餐厅","address":"闵行区莘松路855号莘松乐购1楼(莘松地道旁)"},{"poiid":"B2094757D469A5F94592","title":"七欣天迷宗蟹 莘庄店","lon":"121.361126","lat":"31.100904","category":"257","category_name":"中餐厅","address":"闵行区莘松路1028号巴比伦广场101室(近上海康城)"},{"poiid":"B2094655D26EABFA429D","title":"乐购超市(莘松店)","lon":"121.3644","lat":"31.09795","category":"118","category_name":"超级市场","address":"闵行区莘松路855号"},{"poiid":"B2094757D568A5F9449C","title":"恒泰生活广场","lon":"121.364","lat":"31.1058","category":"201","category_name":"城市广场","address":"莘松路1000号"},{"poiid":"B2094757D464A0F8419A","title":"良利海鲜酒楼","lon":"121.36149914258","lat":"31.100801488739","category":"75","category_name":"浙江菜","address":"闵行区莘松路1108号4楼(春九路口)"},{"poiid":"B2094757D06AA0FC4698","title":"吴记老锅底麻辣火锅(巴比伦店)","lon":"121.35562","lat":"31.09937","category":"86","category_name":"火锅店","address":"上海闵行区莘松路1078弄3号(近春九路)  "},{"poiid":"B2094654DA64A2F84893","title":"永乐生活电器(浅水湾花园东)","lon":"121.36419","lat":"31.09886","category":"138","category_name":"家电电子卖场","address":""},{"poiid":"B2094757D66DA4FD4592","title":"EcoG溢柯花园生活中心","lon":"121.36436","lat":"31.09917","category":"249","category_name":"购物服务","address":"上海闵行区莘松路855号2幢2楼(莘松地道旁)  "},{"poiid":"B2094757D66CA6FB489F","title":"新丁香海鲜大酒店","lon":"121.364154857","lat":"31.1009933818","category":"88","category_name":"海鲜酒楼","address":"上海市闵行区莘松路"},{"poiid":"B2094757D06AAAFA4893","title":"口吅品牛肉面馆 莘松路","lon":"121.35775","lat":"31.10022","category":"68","category_name":"快餐厅","address":"闵行区莘松路1028号巴比伦广场二区(近上海康城)"},{"poiid":"B2094654DA64A2FB489F","title":"上海百饰得建材市场经营管理有限公司","lon":"121.36342","lat":"31.09891","category":"263","category_name":"公司","address":""},{"poiid":"B2094654DB64A5FD419B","title":"特力屋家居生活馆(莘松店)","lon":"121.3644","lat":"31.09795","category":"123","category_name":"家具建材市场","address":"闵行区莘松路855号1楼(百饰得乐购旁)"},{"poiid":"B2094757D069A0F94899","title":"红蜘蛛烧烤(莘松路店)","lon":"121.356","lat":"31.09928","category":"68","category_name":"快餐厅","address":"闵行区莘松路1028号巴比伦广场内(近上海康城)"},{"poiid":"B2094654DA64A2F5419E","title":"雅阁花园","lon":"121.36195","lat":"31.091791","category":"47","category_name":"住宅区","address":"上海市松江区场东路168弄"},{"poiid":"B2094757D06FA3FD489F","title":"绿洲长岛花园","lon":"121.354833","lat":"31.103406","category":"47","category_name":"住宅区","address":"上海市松江区莘松路1288弄"},{"poiid":"B2094655D26BA3FD4998","title":"小肥羊 莘庄店","lon":"121.369995054","lat":"31.106995793","category":"86","category_name":"火锅店","address":"闵行区莘谭路423号(莘西路西环路间)"},{"poiid":"B2094654DA64A2F8489E","title":"莘松水果店","lon":"121.36299","lat":"31.10119","category":"117","category_name":"便民商店/便利店","address":""},{"poiid":"B2094757D068AAF44599","title":"公园天下","lon":"121.372984","lat":"31.100528","category":"196","category_name":"公园","address":"闵行区西园路128弄(近莘庄公园)"},{"poiid":"B2094654DA64A2F8459C","title":"莘松建材市场","lon":"121.36287","lat":"31.10118","category":"123","category_name":"家具建材市场","address":"闵行区莘松路地铁一号线莘庄站(莘松路莘西路)"},{"poiid":"B2094757D46FA6FF429D","title":"火云轩 莘松店","lon":"121.365049054","lat":"31.096239793","category":"86","category_name":"火锅店","address":"闵行区莘松路1494号(近场西路)"},{"poiid":"B2094757D66DA6FD479A","title":"天鹅轩","lon":"121.36538385","lat":"31.09890781","category":"500","category_name":"未知分类","address":"上海动物园"},{"poiid":"B2094654DA64A2F9499E","title":"上海师范大学康城实验学校","lon":"121.35532","lat":"31.10125","category":"55","category_name":"中学","address":"闵行区莘松路958弄瀑布弯道18号"},{"poiid":"B2094655D26EABF44298","title":"巴比馒头(莘松路店)","lon":"121.35975","lat":"31.10089","category":"87","category_name":"特色／地方风味餐厅","address":"闵行区莘松路958弄(上海康城小区内)"},{"poiid":"B2094654DA64A2FA409B","title":"百佳花园","lon":"121.35724","lat":"31.097345","category":"47","category_name":"住宅区","address":"上海市松江区场东路333弄"},{"poiid":"B2094654DB69A6F9419A","title":"万宇漓水花苑","lon":"121.36596","lat":"31.10274","category":"47","category_name":"住宅区","address":"松江区莘松路"},{"poiid":"B2094757D168A7FC479B","title":"中石化莘松路加油站","lon":"121.36021885","lat":"31.097700315","category":"154","category_name":"加油加气站","address":"上海市松江区莘松路"},{"poiid":"B2094654DA64A2F8459D","title":"上海师资培训中心实验基地附属中学","lon":"121.36827","lat":"31.10134","category":"55","category_name":"中学","address":"闵行区中春路4949号(近莘松路)"},{"poiid":"B2094655D36DA1FB4393","title":"西环路","lon":"121.3666","lat":"31.10742","category":"38","category_name":"公交车站","address":""},{"poiid":"B2094757D66DA2FF4693","title":"莘庄消防队","lon":"121.36376325","lat":"31.102957421","category":"500","category_name":"未知分类","address":"上海莘松路585号"},{"poiid":"B2094757D66EA1F5489B","title":"莘庄2路康城(北大门)终点站","lon":"121.36393915","lat":"31.102794817","category":"500","category_name":"未知分类","address":"上海市闵行区康城北门"},{"poiid":"B2094757D169A1FB4093","title":"上海康城江山道","lon":"121.358814","lat":"31.101666","category":"252","category_name":"楼宇机构","address":"上海莘松路958弄"},{"poiid":"B2094654DA64A2F8489D","title":"柳明公寓","lon":"121.36754","lat":"31.10251","category":"47","category_name":"住宅区","address":"莘松路577弄"},{"poiid":"B2094654DA64A2F8439E","title":"碧春园","lon":"121.36901","lat":"31.100262","category":"47","category_name":"住宅区","address":"中春路4915弄"},{"poiid":"B2094655D36DA1FB4498","title":"西环路莘谭路","lon":"121.36771","lat":"31.10517","category":"38","category_name":"公交车站","address":""},{"poiid":"B2094654DA64A2FA459A","title":"雅仕居","lon":"121.35769","lat":"31.094622","category":"47","category_name":"住宅区","address":"新南路99弄"},{"poiid":"B2094654DA64A2F4449A","title":"陆昌庙","lon":"121.36585","lat":"31.09534","category":"244","category_name":"寺庙道观","address":""},{"poiid":"B2094654DA64A2F4439E","title":"恩乐好友宠物中心","lon":"121.36512","lat":"31.09546","category":"117","category_name":"便民商店/便利店","address":""},{"poiid":"B2094654DA64AAFA419B","title":"莘松四村","lon":"121.36943","lat":"31.105217","category":"47","category_name":"住宅区","address":"莘松路470弄"}]