[{"poiid":"B2094757DA6FA2FC419B","title":"上海市皮肤病医院","lon":"121.426462000001","lat":"31.2133200000002","category":"162","category_name":"医院","address":"长宁区武夷路200号"},{"poiid":"B2094757D06FA7FA449E","title":"香港永祥烧腊餐厅(长宁店)","lon":"121.4228","lat":"31.21495","category":"72","category_name":"广东菜","address":"长宁区定西路1271号(近安化路)"},{"poiid":"B2094757D06FA5FD439A","title":"純粹私房咖啡工作室","lon":"121.42457458","lat":"31.217086173","category":"65","category_name":"咖啡厅","address":"长宁区宣化路299弄富都花园2号1B铺"},{"poiid":"B2094757D06AA6FE4398","title":"上海质量管理科学研究院","lon":"121.425811458","lat":"31.2132286803","category":"46","category_name":"楼宇","address":"长宁区武夷路258号(近定西路)"},{"poiid":"B2094757D569A6FF459E","title":"迎龙大厦写字楼","lon":"121.4251619","lat":"31.21624111","category":"46","category_name":"楼宇","address":"延安西路1358号"},{"poiid":"B2094654D565A6FD4292","title":"上海市长宁区业余大学","lon":"121.42285","lat":"31.21508","category":"53","category_name":"成人教育","address":"长宁区定西路1300号"},{"poiid":"B2094757D065A0FE4592","title":"武夷路定西路","lon":"121.42580828","lat":"31.213553304","category":"500","category_name":"未知分类","address":"上海武夷路413号"},{"poiid":"B2094757D06FA5FB4498","title":"龙峰大厦","lon":"121.427169","lat":"31.214745","category":"46","category_name":"楼宇","address":"普陀区长寿路137号(近陕西北路)"},{"poiid":"B2094757D16FA1F84999","title":"星伟桌球俱乐部","lon":"121.423278586","lat":"31.216527163","category":"500","category_name":"未知分类","address":"上海长宁区宣化路311号6楼"},{"poiid":"B2094752D165A0FD4398","title":"boom cafe","lon":"121.424805","lat":"31.216415","category":"247","category_name":"餐饮美食","address":"宣化路1310弄6号"},{"poiid":"B2094654D565A6FD439E","title":"友乐达台北精致面馆 中山店 YOLOTA","lon":"121.42204507084","lat":"31.216839198355","category":"68","category_name":"快餐厅","address":"长宁区定西路1310弄福安大厦2号(近宣化路)"},{"poiid":"B2094757D06AA7FA4798","title":"红叶日本料理","lon":"121.424188586","lat":"31.2131870977","category":"268","category_name":"自助","address":"长宁区武夷路295弄1号"},{"poiid":"B2094757D064AAFD4892","title":"唐宫","lon":"121.42402658","lat":"31.21436512","category":"260","category_name":"其他","address":"上海市长宁区长宁路安化路492号"},{"poiid":"B2094654D565A6FD479D","title":"富都花园","lon":"121.42453","lat":"31.216513","category":"47","category_name":"住宅区","address":"富都花园位于长宁宣化路299弄1-4号"},{"poiid":"B2094757D16CA7FB409B","title":"yue1525粤","lon":"121.42632032","lat":"31.216147429","category":"500","category_name":"未知分类","address":"上海定西路1525"},{"poiid":"B2094757D16CAAF5439E","title":"蒋荣兴","lon":"121.425220586","lat":"31.214992133","category":"500","category_name":"未知分类","address":"长宁区安西路651号1楼(安化路口)"},{"poiid":"B2094654D564A7FA4392","title":"禾森商务中心","lon":"121.427","lat":"31.2145","category":"46","category_name":"楼宇","address":"闸北区江场西路38号(近共和新路)"},{"poiid":"B2094757D06BA4F4489E","title":"爱吃咖喱","lon":"121.426623153","lat":"31.2135507048","category":"95","category_name":"日本料理","address":"长宁区武夷路269号(安西路口)"},{"poiid":"B2094654D565A7F44393","title":"鸿凯湾绿苑","lon":"121.42421","lat":"31.215353","category":"47","category_name":"住宅区","address":"安西路500弄1号-12号"},{"poiid":"B2094757DB6EAAF44798","title":"宜家","lon":"121.425454","lat":"31.214746","category":"249","category_name":"购物服务","address":"宜家"},{"poiid":"B2094757D064A5F5469C","title":"安化路","lon":"121.426094586","lat":"31.2149811328","category":"500","category_name":"未知分类","address":"上海市长宁区定西路"},{"poiid":"B209475DD569A2FB4998","title":"末那寿司","lon":"121.425392","lat":"31.214717","category":"247","category_name":"餐饮美食","address":"上海市 长宁路890号玫瑰坊B1-68B商铺"},{"poiid":"B2094750D664A6FA439C","title":"ホルモン酒场(武夷路店)","lon":"121.424","lat":"31.2131","category":"269","category_name":"烧烤","address":"长宁区武夷路304号(近定西路)"},{"poiid":"B2094654D565A7F4439D","title":"阳光100","lon":"121.42503","lat":"31.21545","category":"148","category_name":"美容美发店","address":"安西路502"},{"poiid":"B2094750D26AA3F9429E","title":"陈记甜品窝 宣化路店","lon":"121.42570495606","lat":"31.216875435059","category":"67","category_name":"甜品店","address":"长宁区宣化路233号(安西路口)"},{"poiid":"B209475CDB64AAFE4192","title":"合点寿司承知之助","lon":"121.42675","lat":"31.215496","category":"247","category_name":"餐饮美食","address":"上海市 宣化路300号华宁弘基生活中心4楼"},{"poiid":"B2094757D66FA2FC489C","title":"纯粹咖啡馆","lon":"121.42436858","lat":"31.216199156","category":"65","category_name":"咖啡厅","address":"上海市长宁区长宁路"},{"poiid":"B2094654D565A7F4449E","title":"快客(安西路)","lon":"121.42495","lat":"31.21614","category":"117","category_name":"便民商店/便利店","address":"安西路488-490"},{"poiid":"B2094655D26BA5FD4592","title":"东湖铭座","lon":"121.425471","lat":"31.214117","category":"47","category_name":"住宅区","address":"上海市长宁区法华镇路881号"},{"poiid":"B2094654D565A7F94598","title":"穆氏特色葱油饼小笼","lon":"121.42524","lat":"31.21341","category":"68","category_name":"快餐厅","address":"长宁区武夷路295号(安西路口)"},{"poiid":"B2094753D76AA3FA479C","title":"和萌牛肠烧烤(武夷路店)","lon":"121.4244","lat":"31.21312","category":"95","category_name":"日本料理","address":"上海市长宁区武夷路304号(近定西路)"},{"poiid":"B2094751D26DA4FE439A","title":"Fat MAMA","lon":"121.42382","lat":"31.215375","category":"247","category_name":"餐饮美食","address":"静安区昌平路1000号(近延平路)"},{"poiid":"B2094757D068A2FB409A","title":"大众点评网","lon":"121.4246101","lat":"31.2147032","category":"630","category_name":"电子商务公司","address":"上海普陀区陕西北路1438号财富时代大厦806室(近长寿路)  "},{"poiid":"B2094654DB65AAF54492","title":"印度驻上海总领事馆","lon":"121.42526","lat":"31.21385","category":"252","category_name":"楼宇机构","address":"长宁区延安西路2200号1008室"},{"poiid":"B2094655D265A1F94792","title":"华阳小区(北门)","lon":"121.42433","lat":"31.21462","category":"47","category_name":"住宅区","address":"安化路331弄26支弄1-44号"},{"poiid":"B2094757D16CA3FA409D","title":"长宁区江苏街道社区卫生服务中心","lon":"121.42412258","lat":"31.213105096","category":"162","category_name":"医院","address":"上海市长宁区武夷路320弄4号"},{"poiid":"B2094757D168A2F54598","title":"home sweet home","lon":"121.425885","lat":"31.214747","category":"500","category_name":"未知分类","address":"上海安化路安西路"},{"poiid":"B2094757D16DA0FE4199","title":"安化路300弄","lon":"121.426187586","lat":"31.2149651325","category":"252","category_name":"楼宇机构","address":"上海市长宁区安化路安西路"},{"poiid":"B2094757D16FA2FE4499","title":"金都苑","lon":"121.42375","lat":"31.215979","category":"500","category_name":"未知分类","address":"上海市长宁区定西路1310弄"},{"poiid":"B2094655D264A6F8429B","title":"华阳小区","lon":"121.42421","lat":"31.214359","category":"47","category_name":"住宅区","address":"安化路331弄26支弄1-44号"},{"poiid":"B2094751D565A5FC409C","title":"华宁弘基生活中心","lon":"121.426032","lat":"31.216545","category":"627","category_name":"一般地点标志","address":"上海市长宁区宣化路300号"},{"poiid":"B2094750D768A6FC499A","title":"老北京涮锅","lon":"121.423","lat":"31.2147","category":"86","category_name":"火锅店","address":"长宁区安化路399号(近定西路)"},{"poiid":"B209475CD26BA3FA4399","title":"中山公园龙之梦丽晶大酒店","lon":"121.424278","lat":"31.214702","category":"500","category_name":"未知分类","address":"上海市 长宁路"},{"poiid":"B2094757D16BA4FB449B","title":"友樂達台北精緻麵館","lon":"121.42709517","lat":"31.214315275","category":"247","category_name":"餐饮美食","address":"上海定西路1310弄2號"},{"poiid":"B2094752D16BA3FC429A","title":"古意湘味浓","lon":"121.423202","lat":"31.216085","category":"247","category_name":"餐饮美食","address":"富民路87号巨富大厦1楼A座(近巨鹿路)"},{"poiid":"B2094655D26AA5FD4292","title":"水榭华庭","lon":"121.42346","lat":"31.21379","category":"47","category_name":"住宅区","address":"长宁区武夷路351号(近定西路)"},{"poiid":"B2094757D064A1FF479B","title":"YUE 1525","lon":"121.42631314","lat":"31.216097762","category":"500","category_name":"未知分类","address":"上海定西路1525"},{"poiid":"B2094757D168A6F5429F","title":"东华大学第四教学楼","lon":"121.42402558","lat":"31.214281119","category":"500","category_name":"未知分类","address":"上海长宁区延安西路1882号东华大学延安路校区"},{"poiid":"B2094757D66EA3F4409D","title":"中共上海建工(集团)总公司委员会党校","lon":"121.42692458","lat":"31.214144116","category":"500","category_name":"未知分类","address":"上海市长宁区武夷路150号"},{"poiid":"B2094757D065A2F5459D","title":"美宫足浴保健按摩(定西路店)","lon":"121.42282","lat":"31.21547","category":"149","category_name":"洗浴推拿场所","address":"长宁区定西路1318号(近宣化路)"},{"poiid":"B2094757DA6FA2FC419B","title":"上海市皮肤病医院","lon":"121.426462000001","lat":"31.2133200000002","category":"162","category_name":"医院","address":"长宁区武夷路200号"},{"poiid":"B2094757D06FA7FA449E","title":"香港永祥烧腊餐厅(长宁店)","lon":"121.4228","lat":"31.21495","category":"72","category_name":"广东菜","address":"长宁区定西路1271号(近安化路)"},{"poiid":"B2094757D06FA5FD439A","title":"純粹私房咖啡工作室","lon":"121.42457458","lat":"31.217086173","category":"65","category_name":"咖啡厅","address":"长宁区宣化路299弄富都花园2号1B铺"},{"poiid":"B2094757D06AA6FE4398","title":"上海质量管理科学研究院","lon":"121.425811458","lat":"31.2132286803","category":"46","category_name":"楼宇","address":"长宁区武夷路258号(近定西路)"},{"poiid":"B2094757D569A6FF459E","title":"迎龙大厦写字楼","lon":"121.4251619","lat":"31.21624111","category":"46","category_name":"楼宇","address":"延安西路1358号"},{"poiid":"B2094654D565A6FD4292","title":"上海市长宁区业余大学","lon":"121.42285","lat":"31.21508","category":"53","category_name":"成人教育","address":"长宁区定西路1300号"},{"poiid":"B2094757D065A0FE4592","title":"武夷路定西路","lon":"121.42580828","lat":"31.213553304","category":"500","category_name":"未知分类","address":"上海武夷路413号"},{"poiid":"B2094757D06FA5FB4498","title":"龙峰大厦","lon":"121.427169","lat":"31.214745","category":"46","category_name":"楼宇","address":"普陀区长寿路137号(近陕西北路)"},{"poiid":"B2094757D16FA1F84999","title":"星伟桌球俱乐部","lon":"121.423278586","lat":"31.216527163","category":"500","category_name":"未知分类","address":"上海长宁区宣化路311号6楼"},{"poiid":"B2094752D165A0FD4398","title":"boom cafe","lon":"121.424805","lat":"31.216415","category":"247","category_name":"餐饮美食","address":"宣化路1310弄6号"},{"poiid":"B2094654D565A6FD439E","title":"友乐达台北精致面馆 中山店 YOLOTA","lon":"121.42204507084","lat":"31.216839198355","category":"68","category_name":"快餐厅","address":"长宁区定西路1310弄福安大厦2号(近宣化路)"},{"poiid":"B2094757D06AA7FA4798","title":"红叶日本料理","lon":"121.424188586","lat":"31.2131870977","category":"268","category_name":"自助","address":"长宁区武夷路295弄1号"},{"poiid":"B2094757D064AAFD4892","title":"唐宫","lon":"121.42402658","lat":"31.21436512","category":"260","category_name":"其他","address":"上海市长宁区长宁路安化路492号"},{"poiid":"B2094654D565A6FD479D","title":"富都花园","lon":"121.42453","lat":"31.216513","category":"47","category_name":"住宅区","address":"富都花园位于长宁宣化路299弄1-4号"},{"poiid":"B2094757D16CA7FB409B","title":"yue1525粤","lon":"121.42632032","lat":"31.216147429","category":"500","category_name":"未知分类","address":"上海定西路1525"},{"poiid":"B2094757D16CAAF5439E","title":"蒋荣兴","lon":"121.425220586","lat":"31.214992133","category":"500","category_name":"未知分类","address":"长宁区安西路651号1楼(安化路口)"},{"poiid":"B2094654D564A7FA4392","title":"禾森商务中心","lon":"121.427","lat":"31.2145","category":"46","category_name":"楼宇","address":"闸北区江场西路38号(近共和新路)"},{"poiid":"B2094757D06BA4F4489E","title":"爱吃咖喱","lon":"121.426623153","lat":"31.2135507048","category":"95","category_name":"日本料理","address":"长宁区武夷路269号(安西路口)"},{"poiid":"B2094654D565A7F44393","title":"鸿凯湾绿苑","lon":"121.42421","lat":"31.215353","category":"47","category_name":"住宅区","address":"安西路500弄1号-12号"},{"poiid":"B2094757DB6EAAF44798","title":"宜家","lon":"121.425454","lat":"31.214746","category":"249","category_name":"购物服务","address":"宜家"},{"poiid":"B2094757D064A5F5469C","title":"安化路","lon":"121.426094586","lat":"31.2149811328","category":"500","category_name":"未知分类","address":"上海市长宁区定西路"},{"poiid":"B209475DD569A2FB4998","title":"末那寿司","lon":"121.425392","lat":"31.214717","category":"247","category_name":"餐饮美食","address":"上海市 长宁路890号玫瑰坊B1-68B商铺"},{"poiid":"B2094750D664A6FA439C","title":"ホルモン酒场(武夷路店)","lon":"121.424","lat":"31.2131","category":"269","category_name":"烧烤","address":"长宁区武夷路304号(近定西路)"},{"poiid":"B2094654D565A7F4439D","title":"阳光100","lon":"121.42503","lat":"31.21545","category":"148","category_name":"美容美发店","address":"安西路502"},{"poiid":"B2094750D26AA3F9429E","title":"陈记甜品窝 宣化路店","lon":"121.42570495606","lat":"31.216875435059","category":"67","category_name":"甜品店","address":"长宁区宣化路233号(安西路口)"},{"poiid":"B209475CDB64AAFE4192","title":"合点寿司承知之助","lon":"121.42675","lat":"31.215496","category":"247","category_name":"餐饮美食","address":"上海市 宣化路300号华宁弘基生活中心4楼"},{"poiid":"B2094757D66FA2FC489C","title":"纯粹咖啡馆","lon":"121.42436858","lat":"31.216199156","category":"65","category_name":"咖啡厅","address":"上海市长宁区长宁路"},{"poiid":"B2094654D565A7F4449E","title":"快客(安西路)","lon":"121.42495","lat":"31.21614","category":"117","category_name":"便民商店/便利店","address":"安西路488-490"},{"poiid":"B2094655D26BA5FD4592","title":"东湖铭座","lon":"121.425471","lat":"31.214117","category":"47","category_name":"住宅区","address":"上海市长宁区法华镇路881号"},{"poiid":"B2094654D565A7F94598","title":"穆氏特色葱油饼小笼","lon":"121.42524","lat":"31.21341","category":"68","category_name":"快餐厅","address":"长宁区武夷路295号(安西路口)"},{"poiid":"B2094753D76AA3FA479C","title":"和萌牛肠烧烤(武夷路店)","lon":"121.4244","lat":"31.21312","category":"95","category_name":"日本料理","address":"上海市长宁区武夷路304号(近定西路)"},{"poiid":"B2094751D26DA4FE439A","title":"Fat MAMA","lon":"121.42382","lat":"31.215375","category":"247","category_name":"餐饮美食","address":"静安区昌平路1000号(近延平路)"},{"poiid":"B2094757D068A2FB409A","title":"大众点评网","lon":"121.4246101","lat":"31.2147032","category":"630","category_name":"电子商务公司","address":"上海普陀区陕西北路1438号财富时代大厦806室(近长寿路)  "},{"poiid":"B2094654DB65AAF54492","title":"印度驻上海总领事馆","lon":"121.42526","lat":"31.21385","category":"252","category_name":"楼宇机构","address":"长宁区延安西路2200号1008室"},{"poiid":"B2094655D265A1F94792","title":"华阳小区(北门)","lon":"121.42433","lat":"31.21462","category":"47","category_name":"住宅区","address":"安化路331弄26支弄1-44号"},{"poiid":"B2094757D16CA3FA409D","title":"长宁区江苏街道社区卫生服务中心","lon":"121.42412258","lat":"31.213105096","category":"162","category_name":"医院","address":"上海市长宁区武夷路320弄4号"},{"poiid":"B2094757D168A2F54598","title":"home sweet home","lon":"121.425885","lat":"31.214747","category":"500","category_name":"未知分类","address":"上海安化路安西路"},{"poiid":"B2094757D16DA0FE4199","title":"安化路300弄","lon":"121.426187586","lat":"31.2149651325","category":"252","category_name":"楼宇机构","address":"上海市长宁区安化路安西路"},{"poiid":"B2094757D16FA2FE4499","title":"金都苑","lon":"121.42375","lat":"31.215979","category":"500","category_name":"未知分类","address":"上海市长宁区定西路1310弄"},{"poiid":"B2094655D264A6F8429B","title":"华阳小区","lon":"121.42421","lat":"31.214359","category":"47","category_name":"住宅区","address":"安化路331弄26支弄1-44号"},{"poiid":"B2094751D565A5FC409C","title":"华宁弘基生活中心","lon":"121.426032","lat":"31.216545","category":"627","category_name":"一般地点标志","address":"上海市长宁区宣化路300号"},{"poiid":"B2094750D768A6FC499A","title":"老北京涮锅","lon":"121.423","lat":"31.2147","category":"86","category_name":"火锅店","address":"长宁区安化路399号(近定西路)"},{"poiid":"B209475CD26BA3FA4399","title":"中山公园龙之梦丽晶大酒店","lon":"121.424278","lat":"31.214702","category":"500","category_name":"未知分类","address":"上海市 长宁路"},{"poiid":"B2094757D16BA4FB449B","title":"友樂達台北精緻麵館","lon":"121.42709517","lat":"31.214315275","category":"247","category_name":"餐饮美食","address":"上海定西路1310弄2號"},{"poiid":"B2094752D16BA3FC429A","title":"古意湘味浓","lon":"121.423202","lat":"31.216085","category":"247","category_name":"餐饮美食","address":"富民路87号巨富大厦1楼A座(近巨鹿路)"},{"poiid":"B2094655D26AA5FD4292","title":"水榭华庭","lon":"121.42346","lat":"31.21379","category":"47","category_name":"住宅区","address":"长宁区武夷路351号(近定西路)"},{"poiid":"B2094757D064A1FF479B","title":"YUE 1525","lon":"121.42631314","lat":"31.216097762","category":"500","category_name":"未知分类","address":"上海定西路1525"},{"poiid":"B2094757D168A6F5429F","title":"东华大学第四教学楼","lon":"121.42402558","lat":"31.214281119","category":"500","category_name":"未知分类","address":"上海长宁区延安西路1882号东华大学延安路校区"},{"poiid":"B2094757D66EA3F4409D","title":"中共上海建工(集团)总公司委员会党校","lon":"121.42692458","lat":"31.214144116","category":"500","category_name":"未知分类","address":"上海市长宁区武夷路150号"},{"poiid":"B2094757D065A2F5459D","title":"美宫足浴保健按摩(定西路店)","lon":"121.42282","lat":"31.21547","category":"149","category_name":"洗浴推拿场所","address":"长宁区定西路1318号(近宣化路)"},{"poiid":"B2094757DA6FA2FC419B","title":"上海市皮肤病医院","lon":"121.426462000001","lat":"31.2133200000002","category":"162","category_name":"医院","address":"长宁区武夷路200号"},{"poiid":"B2094757D06FA7FA449E","title":"香港永祥烧腊餐厅(长宁店)","lon":"121.4228","lat":"31.21495","category":"72","category_name":"广东菜","address":"长宁区定西路1271号(近安化路)"},{"poiid":"B2094757D06FA5FD439A","title":"純粹私房咖啡工作室","lon":"121.42457458","lat":"31.217086173","category":"65","category_name":"咖啡厅","address":"长宁区宣化路299弄富都花园2号1B铺"},{"poiid":"B2094757D06AA6FE4398","title":"上海质量管理科学研究院","lon":"121.425811458","lat":"31.2132286803","category":"46","category_name":"楼宇","address":"长宁区武夷路258号(近定西路)"},{"poiid":"B2094757D569A6FF459E","title":"迎龙大厦写字楼","lon":"121.4251619","lat":"31.21624111","category":"46","category_name":"楼宇","address":"延安西路1358号"},{"poiid":"B2094654D565A6FD4292","title":"上海市长宁区业余大学","lon":"121.42285","lat":"31.21508","category":"53","category_name":"成人教育","address":"长宁区定西路1300号"},{"poiid":"B2094757D065A0FE4592","title":"武夷路定西路","lon":"121.42580828","lat":"31.213553304","category":"500","category_name":"未知分类","address":"上海武夷路413号"},{"poiid":"B2094757D06FA5FB4498","title":"龙峰大厦","lon":"121.427169","lat":"31.214745","category":"46","category_name":"楼宇","address":"普陀区长寿路137号(近陕西北路)"},{"poiid":"B2094757D16FA1F84999","title":"星伟桌球俱乐部","lon":"121.423278586","lat":"31.216527163","category":"500","category_name":"未知分类","address":"上海长宁区宣化路311号6楼"},{"poiid":"B2094752D165A0FD4398","title":"boom cafe","lon":"121.424805","lat":"31.216415","category":"247","category_name":"餐饮美食","address":"宣化路1310弄6号"},{"poiid":"B2094654D565A6FD439E","title":"友乐达台北精致面馆 中山店 YOLOTA","lon":"121.42204507084","lat":"31.216839198355","category":"68","category_name":"快餐厅","address":"长宁区定西路1310弄福安大厦2号(近宣化路)"},{"poiid":"B2094757D06AA7FA4798","title":"红叶日本料理","lon":"121.424188586","lat":"31.2131870977","category":"268","category_name":"自助","address":"长宁区武夷路295弄1号"},{"poiid":"B2094757D064AAFD4892","title":"唐宫","lon":"121.42402658","lat":"31.21436512","category":"260","category_name":"其他","address":"上海市长宁区长宁路安化路492号"},{"poiid":"B2094654D565A6FD479D","title":"富都花园","lon":"121.42453","lat":"31.216513","category":"47","category_name":"住宅区","address":"富都花园位于长宁宣化路299弄1-4号"},{"poiid":"B2094757D16CA7FB409B","title":"yue1525粤","lon":"121.42632032","lat":"31.216147429","category":"500","category_name":"未知分类","address":"上海定西路1525"},{"poiid":"B2094757D16CAAF5439E","title":"蒋荣兴","lon":"121.425220586","lat":"31.214992133","category":"500","category_name":"未知分类","address":"长宁区安西路651号1楼(安化路口)"},{"poiid":"B2094654D564A7FA4392","title":"禾森商务中心","lon":"121.427","lat":"31.2145","category":"46","category_name":"楼宇","address":"闸北区江场西路38号(近共和新路)"},{"poiid":"B2094757D06BA4F4489E","title":"爱吃咖喱","lon":"121.426623153","lat":"31.2135507048","category":"95","category_name":"日本料理","address":"长宁区武夷路269号(安西路口)"},{"poiid":"B2094654D565A7F44393","title":"鸿凯湾绿苑","lon":"121.42421","lat":"31.215353","category":"47","category_name":"住宅区","address":"安西路500弄1号-12号"},{"poiid":"B2094757DB6EAAF44798","title":"宜家","lon":"121.425454","lat":"31.214746","category":"249","category_name":"购物服务","address":"宜家"},{"poiid":"B2094757D064A5F5469C","title":"安化路","lon":"121.426094586","lat":"31.2149811328","category":"500","category_name":"未知分类","address":"上海市长宁区定西路"},{"poiid":"B209475DD569A2FB4998","title":"末那寿司","lon":"121.425392","lat":"31.214717","category":"247","category_name":"餐饮美食","address":"上海市 长宁路890号玫瑰坊B1-68B商铺"},{"poiid":"B2094750D664A6FA439C","title":"ホルモン酒场(武夷路店)","lon":"121.424","lat":"31.2131","category":"269","category_name":"烧烤","address":"长宁区武夷路304号(近定西路)"},{"poiid":"B2094654D565A7F4439D","title":"阳光100","lon":"121.42503","lat":"31.21545","category":"148","category_name":"美容美发店","address":"安西路502"},{"poiid":"B2094750D26AA3F9429E","title":"陈记甜品窝 宣化路店","lon":"121.42570495606","lat":"31.216875435059","category":"67","category_name":"甜品店","address":"长宁区宣化路233号(安西路口)"},{"poiid":"B209475CDB64AAFE4192","title":"合点寿司承知之助","lon":"121.42675","lat":"31.215496","category":"247","category_name":"餐饮美食","address":"上海市 宣化路300号华宁弘基生活中心4楼"},{"poiid":"B2094757D66FA2FC489C","title":"纯粹咖啡馆","lon":"121.42436858","lat":"31.216199156","category":"65","category_name":"咖啡厅","address":"上海市长宁区长宁路"},{"poiid":"B2094654D565A7F4449E","title":"快客(安西路)","lon":"121.42495","lat":"31.21614","category":"117","category_name":"便民商店/便利店","address":"安西路488-490"},{"poiid":"B2094655D26BA5FD4592","title":"东湖铭座","lon":"121.425471","lat":"31.214117","category":"47","category_name":"住宅区","address":"上海市长宁区法华镇路881号"},{"poiid":"B2094654D565A7F94598","title":"穆氏特色葱油饼小笼","lon":"121.42524","lat":"31.21341","category":"68","category_name":"快餐厅","address":"长宁区武夷路295号(安西路口)"},{"poiid":"B2094753D76AA3FA479C","title":"和萌牛肠烧烤(武夷路店)","lon":"121.4244","lat":"31.21312","category":"95","category_name":"日本料理","address":"上海市长宁区武夷路304号(近定西路)"},{"poiid":"B2094751D26DA4FE439A","title":"Fat MAMA","lon":"121.42382","lat":"31.215375","category":"247","category_name":"餐饮美食","address":"静安区昌平路1000号(近延平路)"},{"poiid":"B2094757D068A2FB409A","title":"大众点评网","lon":"121.4246101","lat":"31.2147032","category":"630","category_name":"电子商务公司","address":"上海普陀区陕西北路1438号财富时代大厦806室(近长寿路)  "},{"poiid":"B2094654DB65AAF54492","title":"印度驻上海总领事馆","lon":"121.42526","lat":"31.21385","category":"252","category_name":"楼宇机构","address":"长宁区延安西路2200号1008室"},{"poiid":"B2094655D265A1F94792","title":"华阳小区(北门)","lon":"121.42433","lat":"31.21462","category":"47","category_name":"住宅区","address":"安化路331弄26支弄1-44号"},{"poiid":"B2094757D16CA3FA409D","title":"长宁区江苏街道社区卫生服务中心","lon":"121.42412258","lat":"31.213105096","category":"162","category_name":"医院","address":"上海市长宁区武夷路320弄4号"},{"poiid":"B2094757D168A2F54598","title":"home sweet home","lon":"121.425885","lat":"31.214747","category":"500","category_name":"未知分类","address":"上海安化路安西路"},{"poiid":"B2094757D16DA0FE4199","title":"安化路300弄","lon":"121.426187586","lat":"31.2149651325","category":"252","category_name":"楼宇机构","address":"上海市长宁区安化路安西路"},{"poiid":"B2094757D16FA2FE4499","title":"金都苑","lon":"121.42375","lat":"31.215979","category":"500","category_name":"未知分类","address":"上海市长宁区定西路1310弄"},{"poiid":"B2094655D264A6F8429B","title":"华阳小区","lon":"121.42421","lat":"31.214359","category":"47","category_name":"住宅区","address":"安化路331弄26支弄1-44号"},{"poiid":"B2094751D565A5FC409C","title":"华宁弘基生活中心","lon":"121.426032","lat":"31.216545","category":"627","category_name":"一般地点标志","address":"上海市长宁区宣化路300号"},{"poiid":"B2094750D768A6FC499A","title":"老北京涮锅","lon":"121.423","lat":"31.2147","category":"86","category_name":"火锅店","address":"长宁区安化路399号(近定西路)"},{"poiid":"B209475CD26BA3FA4399","title":"中山公园龙之梦丽晶大酒店","lon":"121.424278","lat":"31.214702","category":"500","category_name":"未知分类","address":"上海市 长宁路"},{"poiid":"B2094757D16BA4FB449B","title":"友樂達台北精緻麵館","lon":"121.42709517","lat":"31.214315275","category":"247","category_name":"餐饮美食","address":"上海定西路1310弄2號"},{"poiid":"B2094752D16BA3FC429A","title":"古意湘味浓","lon":"121.423202","lat":"31.216085","category":"247","category_name":"餐饮美食","address":"富民路87号巨富大厦1楼A座(近巨鹿路)"},{"poiid":"B2094655D26AA5FD4292","title":"水榭华庭","lon":"121.42346","lat":"31.21379","category":"47","category_name":"住宅区","address":"长宁区武夷路351号(近定西路)"},{"poiid":"B2094757D064A1FF479B","title":"YUE 1525","lon":"121.42631314","lat":"31.216097762","category":"500","category_name":"未知分类","address":"上海定西路1525"},{"poiid":"B2094757D168A6F5429F","title":"东华大学第四教学楼","lon":"121.42402558","lat":"31.214281119","category":"500","category_name":"未知分类","address":"上海长宁区延安西路1882号东华大学延安路校区"},{"poiid":"B2094757D66EA3F4409D","title":"中共上海建工(集团)总公司委员会党校","lon":"121.42692458","lat":"31.214144116","category":"500","category_name":"未知分类","address":"上海市长宁区武夷路150号"},{"poiid":"B2094757D065A2F5459D","title":"美宫足浴保健按摩(定西路店)","lon":"121.42282","lat":"31.21547","category":"149","category_name":"洗浴推拿场所","address":"长宁区定西路1318号(近宣化路)"},{"poiid":"B2094757DA6FA2FC419B","title":"上海市皮肤病医院","lon":"121.426462000001","lat":"31.2133200000002","category":"162","category_name":"医院","address":"长宁区武夷路200号"},{"poiid":"B2094757D06FA7FA449E","title":"香港永祥烧腊餐厅(长宁店)","lon":"121.4228","lat":"31.21495","category":"72","category_name":"广东菜","address":"长宁区定西路1271号(近安化路)"},{"poiid":"B2094757D06FA5FD439A","title":"純粹私房咖啡工作室","lon":"121.42457458","lat":"31.217086173","category":"65","category_name":"咖啡厅","address":"长宁区宣化路299弄富都花园2号1B铺"},{"poiid":"B2094757D06AA6FE4398","title":"上海质量管理科学研究院","lon":"121.425811458","lat":"31.2132286803","category":"46","category_name":"楼宇","address":"长宁区武夷路258号(近定西路)"},{"poiid":"B2094757D569A6FF459E","title":"迎龙大厦写字楼","lon":"121.4251619","lat":"31.21624111","category":"46","category_name":"楼宇","address":"延安西路1358号"},{"poiid":"B2094654D565A6FD4292","title":"上海市长宁区业余大学","lon":"121.42285","lat":"31.21508","category":"53","category_name":"成人教育","address":"长宁区定西路1300号"},{"poiid":"B2094757D065A0FE4592","title":"武夷路定西路","lon":"121.42580828","lat":"31.213553304","category":"500","category_name":"未知分类","address":"上海武夷路413号"},{"poiid":"B2094757D06FA5FB4498","title":"龙峰大厦","lon":"121.427169","lat":"31.214745","category":"46","category_name":"楼宇","address":"普陀区长寿路137号(近陕西北路)"},{"poiid":"B2094757D16FA1F84999","title":"星伟桌球俱乐部","lon":"121.423278586","lat":"31.216527163","category":"500","category_name":"未知分类","address":"上海长宁区宣化路311号6楼"},{"poiid":"B2094752D165A0FD4398","title":"boom cafe","lon":"121.424805","lat":"31.216415","category":"247","category_name":"餐饮美食","address":"宣化路1310弄6号"},{"poiid":"B2094654D565A6FD439E","title":"友乐达台北精致面馆 中山店 YOLOTA","lon":"121.42204507084","lat":"31.216839198355","category":"68","category_name":"快餐厅","address":"长宁区定西路1310弄福安大厦2号(近宣化路)"},{"poiid":"B2094757D06AA7FA4798","title":"红叶日本料理","lon":"121.424188586","lat":"31.2131870977","category":"268","category_name":"自助","address":"长宁区武夷路295弄1号"},{"poiid":"B2094757D064AAFD4892","title":"唐宫","lon":"121.42402658","lat":"31.21436512","category":"260","category_name":"其他","address":"上海市长宁区长宁路安化路492号"},{"poiid":"B2094654D565A6FD479D","title":"富都花园","lon":"121.42453","lat":"31.216513","category":"47","category_name":"住宅区","address":"富都花园位于长宁宣化路299弄1-4号"},{"poiid":"B2094757D16CA7FB409B","title":"yue1525粤","lon":"121.42632032","lat":"31.216147429","category":"500","category_name":"未知分类","address":"上海定西路1525"},{"poiid":"B2094757D16CAAF5439E","title":"蒋荣兴","lon":"121.425220586","lat":"31.214992133","category":"500","category_name":"未知分类","address":"长宁区安西路651号1楼(安化路口)"},{"poiid":"B2094654D564A7FA4392","title":"禾森商务中心","lon":"121.427","lat":"31.2145","category":"46","category_name":"楼宇","address":"闸北区江场西路38号(近共和新路)"},{"poiid":"B2094757D06BA4F4489E","title":"爱吃咖喱","lon":"121.426623153","lat":"31.2135507048","category":"95","category_name":"日本料理","address":"长宁区武夷路269号(安西路口)"},{"poiid":"B2094654D565A7F44393","title":"鸿凯湾绿苑","lon":"121.42421","lat":"31.215353","category":"47","category_name":"住宅区","address":"安西路500弄1号-12号"},{"poiid":"B2094757DB6EAAF44798","title":"宜家","lon":"121.425454","lat":"31.214746","category":"249","category_name":"购物服务","address":"宜家"},{"poiid":"B2094757D064A5F5469C","title":"安化路","lon":"121.426094586","lat":"31.2149811328","category":"500","category_name":"未知分类","address":"上海市长宁区定西路"},{"poiid":"B209475DD569A2FB4998","title":"末那寿司","lon":"121.425392","lat":"31.214717","category":"247","category_name":"餐饮美食","address":"上海市 长宁路890号玫瑰坊B1-68B商铺"},{"poiid":"B2094750D664A6FA439C","title":"ホルモン酒场(武夷路店)","lon":"121.424","lat":"31.2131","category":"269","category_name":"烧烤","address":"长宁区武夷路304号(近定西路)"},{"poiid":"B2094654D565A7F4439D","title":"阳光100","lon":"121.42503","lat":"31.21545","category":"148","category_name":"美容美发店","address":"安西路502"},{"poiid":"B2094750D26AA3F9429E","title":"陈记甜品窝 宣化路店","lon":"121.42570495606","lat":"31.216875435059","category":"67","category_name":"甜品店","address":"长宁区宣化路233号(安西路口)"},{"poiid":"B209475CDB64AAFE4192","title":"合点寿司承知之助","lon":"121.42675","lat":"31.215496","category":"247","category_name":"餐饮美食","address":"上海市 宣化路300号华宁弘基生活中心4楼"},{"poiid":"B2094757D66FA2FC489C","title":"纯粹咖啡馆","lon":"121.42436858","lat":"31.216199156","category":"65","category_name":"咖啡厅","address":"上海市长宁区长宁路"},{"poiid":"B2094654D565A7F4449E","title":"快客(安西路)","lon":"121.42495","lat":"31.21614","category":"117","category_name":"便民商店/便利店","address":"安西路488-490"},{"poiid":"B2094655D26BA5FD4592","title":"东湖铭座","lon":"121.425471","lat":"31.214117","category":"47","category_name":"住宅区","address":"上海市长宁区法华镇路881号"},{"poiid":"B2094654D565A7F94598","title":"穆氏特色葱油饼小笼","lon":"121.42524","lat":"31.21341","category":"68","category_name":"快餐厅","address":"长宁区武夷路295号(安西路口)"},{"poiid":"B2094753D76AA3FA479C","title":"和萌牛肠烧烤(武夷路店)","lon":"121.4244","lat":"31.21312","category":"95","category_name":"日本料理","address":"上海市长宁区武夷路304号(近定西路)"},{"poiid":"B2094751D26DA4FE439A","title":"Fat MAMA","lon":"121.42382","lat":"31.215375","category":"247","category_name":"餐饮美食","address":"静安区昌平路1000号(近延平路)"},{"poiid":"B2094757D068A2FB409A","title":"大众点评网","lon":"121.4246101","lat":"31.2147032","category":"630","category_name":"电子商务公司","address":"上海普陀区陕西北路1438号财富时代大厦806室(近长寿路)  "},{"poiid":"B2094654DB65AAF54492","title":"印度驻上海总领事馆","lon":"121.42526","lat":"31.21385","category":"252","category_name":"楼宇机构","address":"长宁区延安西路2200号1008室"},{"poiid":"B2094655D265A1F94792","title":"华阳小区(北门)","lon":"121.42433","lat":"31.21462","category":"47","category_name":"住宅区","address":"安化路331弄26支弄1-44号"},{"poiid":"B2094757D16CA3FA409D","title":"长宁区江苏街道社区卫生服务中心","lon":"121.42412258","lat":"31.213105096","category":"162","category_name":"医院","address":"上海市长宁区武夷路320弄4号"},{"poiid":"B2094757D168A2F54598","title":"home sweet home","lon":"121.425885","lat":"31.214747","category":"500","category_name":"未知分类","address":"上海安化路安西路"},{"poiid":"B2094757D16DA0FE4199","title":"安化路300弄","lon":"121.426187586","lat":"31.2149651325","category":"252","category_name":"楼宇机构","address":"上海市长宁区安化路安西路"},{"poiid":"B2094757D16FA2FE4499","title":"金都苑","lon":"121.42375","lat":"31.215979","category":"500","category_name":"未知分类","address":"上海市长宁区定西路1310弄"},{"poiid":"B2094655D264A6F8429B","title":"华阳小区","lon":"121.42421","lat":"31.214359","category":"47","category_name":"住宅区","address":"安化路331弄26支弄1-44号"},{"poiid":"B2094751D565A5FC409C","title":"华宁弘基生活中心","lon":"121.426032","lat":"31.216545","category":"627","category_name":"一般地点标志","address":"上海市长宁区宣化路300号"},{"poiid":"B2094750D768A6FC499A","title":"老北京涮锅","lon":"121.423","lat":"31.2147","category":"86","category_name":"火锅店","address":"长宁区安化路399号(近定西路)"},{"poiid":"B209475CD26BA3FA4399","title":"中山公园龙之梦丽晶大酒店","lon":"121.424278","lat":"31.214702","category":"500","category_name":"未知分类","address":"上海市 长宁路"},{"poiid":"B2094757D16BA4FB449B","title":"友樂達台北精緻麵館","lon":"121.42709517","lat":"31.214315275","category":"247","category_name":"餐饮美食","address":"上海定西路1310弄2號"},{"poiid":"B2094752D16BA3FC429A","title":"古意湘味浓","lon":"121.423202","lat":"31.216085","category":"247","category_name":"餐饮美食","address":"富民路87号巨富大厦1楼A座(近巨鹿路)"},{"poiid":"B2094655D26AA5FD4292","title":"水榭华庭","lon":"121.42346","lat":"31.21379","category":"47","category_name":"住宅区","address":"长宁区武夷路351号(近定西路)"},{"poiid":"B2094757D064A1FF479B","title":"YUE 1525","lon":"121.42631314","lat":"31.216097762","category":"500","category_name":"未知分类","address":"上海定西路1525"},{"poiid":"B2094757D168A6F5429F","title":"东华大学第四教学楼","lon":"121.42402558","lat":"31.214281119","category":"500","category_name":"未知分类","address":"上海长宁区延安西路1882号东华大学延安路校区"},{"poiid":"B2094757D66EA3F4409D","title":"中共上海建工(集团)总公司委员会党校","lon":"121.42692458","lat":"31.214144116","category":"500","category_name":"未知分类","address":"上海市长宁区武夷路150号"},{"poiid":"B2094757D065A2F5459D","title":"美宫足浴保健按摩(定西路店)","lon":"121.42282","lat":"31.21547","category":"149","category_name":"洗浴推拿场所","address":"长宁区定西路1318号(近宣化路)"}]