[{"poiid":"B2094655D265A5FA4098","title":"浦东嘉里中心","lon":"121.56254","lat":"31.21279","category":"46","category_name":"楼宇","address":"浦东新区花木路芳甸路"},{"poiid":"B2094757D06FA6FE449A","title":"浦东嘉里大酒店(Kerry Hotel)","lon":"121.562339396","lat":"31.2128867007","category":"217","category_name":"旅馆招待所","address":"浦东新区花木路1388号(近芳甸路)"},{"poiid":"B2094655D26AA6F9489A","title":"新国际展览中心","lon":"121.5654","lat":"31.21161","category":"247","category_name":"餐饮美食","address":"浦东新区龙阳路2345号(近芳甸路)"},{"poiid":"B2094757D16DA1FE4098","title":"California pizza kitchen(嘉里城店)","lon":"121.5616","lat":"31.21347","category":"94","category_name":"西餐厅","address":"浦东新区花木路1378号浦东嘉里城2楼L231室(近芳甸路)"},{"poiid":"B2094757D064A2F9439A","title":"新旺茶餐厅(嘉里城店)","lon":"121.563320975","lat":"31.2123346421","category":"72","category_name":"广东菜","address":"浦东新区花木路1378号浦东嘉里城1楼L126单元"},{"poiid":"B2094757D06FA4FD429B","title":"蓝蛙(嘉里城店)","lon":"121.562534178","lat":"31.2128727619","category":"260","category_name":"其他","address":"浦东新区花木路1378号嘉里城商场1楼L131号(近浦东新博览中心)"},{"poiid":"B2094757D06FA6FB4392","title":"新元素(嘉里城店)","lon":"121.56213664","lat":"31.213014313","category":"94","category_name":"西餐厅","address":"浦东新区花木路1378号浦东嘉里城1楼(近梅花路)"},{"poiid":"B2094757D069A2F4499B","title":"Baker&Spice(嘉里城店)","lon":"121.563149975","lat":"31.2127126509","category":"67","category_name":"甜品店","address":"浦东新区花木路1378号嘉里城(近芳甸路)"},{"poiid":"B2094757D06FA7F9459C","title":"和民居食屋(浦东嘉里城店)","lon":"121.56422097","lat":"31.212740651","category":"95","category_name":"日本料理","address":"上海市浦东新区花木路1378号浦东嘉里城商场地下一层B105b号单元"},{"poiid":"B2094757D06FA2F84993","title":"星巴克 STARBUCKS (浦东嘉里中心店)","lon":"121.5616098","lat":"31.2134727","category":"260","category_name":"其他","address":"浦东新区花木路1378号嘉里城商场1楼L110单元"},{"poiid":"B2094757D06BA0FC439E","title":"Johnny Moo（浦东嘉里城旗舰店）","lon":"121.56301597","lat":"31.212829653","category":"94","category_name":"西餐厅","address":"浦东新区花木路1378号浦东嘉里城2楼(近芳甸路)"},{"poiid":"B2094655D26DA1F94998","title":"世纪公园(四号门)","lon":"121.56079","lat":"31.21623","category":"680","category_name":"楼宇机构","address":"芳甸路858"},{"poiid":"B2094757D065A6FF479C","title":"逸谷","lon":"121.563296975","lat":"31.2123126416","category":"72","category_name":"广东菜","address":"浦东新区花木路1378号嘉里城2楼219A号(近芳甸路)"},{"poiid":"B2094757D06AA2FD4498","title":"大茴香(嘉里城店)","lon":"121.563372638","lat":"31.2124443102","category":"99","category_name":"泰国／越南菜品餐厅","address":"浦东新区花木路1378号嘉里城商场1楼115室(近芳甸路,新国际展览中心W5展馆对面)"},{"poiid":"B2094757D064A0FC479E","title":"赤坂亭(浦东嘉里店)","lon":"121.563086975","lat":"31.2127956529","category":"269","category_name":"烧烤","address":"浦东新区花木路1378号浦东嘉里城商场2楼L234单元"},{"poiid":"B2094757D068A3F8479E","title":"友乐达台北精致面馆(浦东嘉里城店)","lon":"121.56402197","lat":"31.211982633","category":"68","category_name":"快餐厅","address":"浦东新区花木路1378号浦东嘉里城B1楼05A号(近梅花路)"},{"poiid":"B2094757D068A2FD489E","title":"九间堂","lon":"121.5620138","lat":"31.222304185","category":"500","category_name":"未知分类","address":"浦东新区芳甸路599弄1号(近锦绣路)"},{"poiid":"B2094757D069A4FE419A","title":"小南国(浦东嘉里城)","lon":"121.563241975","lat":"31.2125196464","category":"500","category_name":"未知分类","address":"上海市浦东新区花木路1378号浦东嘉里城2楼"},{"poiid":"B2094757D06FA7F4479C","title":"仁恒河滨城","lon":"121.5674189","lat":"31.227980431","category":"47","category_name":"住宅区","address":"奉贤区南桥南奉公路8889号"},{"poiid":"B2094757D06FA4FF4893","title":"The COOK·厨","lon":"121.56314097","lat":"31.212868654","category":"217","category_name":"旅馆招待所","address":"上海浦东新区花木路1388号嘉里大酒店1楼(近芳甸路)"},{"poiid":"B2094757D66DA0FA499D","title":"上海出入境","lon":"121.559001975","lat":"31.220153825","category":"500","category_name":"未知分类","address":"上海市浦东新区民生路1500号"},{"poiid":"B2094757D064A1F5499B","title":"龙阳路磁悬浮","lon":"121.560088975","lat":"31.2184807858","category":"500","category_name":"未知分类","address":"上海龙阳路"},{"poiid":"B2094757D068A7F84793","title":"Ole' Supermarket(浦东嘉里城店)","lon":"121.563133227","lat":"31.2132648841","category":"118","category_name":"超级市场","address":"浦东新区花木路1378号嘉里城B108商铺(近新国际博览中心)"},{"poiid":"B2094757D465A3FA439E","title":"俏江南 花木路店","lon":"121.5616098","lat":"31.2134727","category":"247","category_name":"餐饮美食","address":"浦东新区花木路1378号浦东嘉里城L215号(近浦东新国际展览中心)"},{"poiid":"B2094757D06FABFA469F","title":"紫竹国际大厦","lon":"121.56824976597","lat":"31.217863825633","category":"46","category_name":"楼宇","address":"普陀区大渡河路588号"},{"poiid":"B2094757D069AAFB4399","title":"The BREW•酿","lon":"121.56264494","lat":"31.213571604","category":"172","category_name":"酒吧","address":"浦东新区花木路1388号嘉里大酒店1楼(近芳甸路)"},{"poiid":"B2094757D06BA5F9419F","title":"瑞亚湖滨精品酒店","lon":"121.57144497","lat":"31.224963937","category":"217","category_name":"旅馆招待所","address":"上海市浦东新区罗山路1609号"},{"poiid":"B2094757D069A3FA4992","title":"有心","lon":"121.5616098","lat":"31.2134727","category":"75","category_name":"浙江菜","address":"浦东新区花木路1378号嘉里城商场1楼113号(近芳甸路)"},{"poiid":"B2094757D469A3F5429C","title":"瑞亚湖滨酒店多功能厅","lon":"121.570945","lat":"31.226697","category":"76","category_name":"上海菜","address":"罗山路1609号瑞亚湖滨酒店1楼近锦绣路"},{"poiid":"B2094757D06EAAFC4392","title":"太平洋咖啡Pacific Coffee(浦东嘉里城店)","lon":"121.564106638","lat":"31.212344308","category":"260","category_name":"其他","address":"浦东新区花木路1378号浦东嘉里城2楼L205号(近7号线花木路站)"},{"poiid":"B2094750D569ABFD459F","title":"浦东世纪花园二期","lon":"121.565551","lat":"31.219154","category":"47","category_name":"住宅区","address":"上海市浦东新区花木路1108号"},{"poiid":"B2094751D469A0F8479C","title":"唐鱼儿麻辣鲜鱼火锅","lon":"121.560104","lat":"31.225509","category":"86","category_name":"火锅店","address":"浦东新区芳甸路199弄40号大拇指广场46号(近迎春路)"},{"poiid":"B2094757D068ABFF459F","title":"永达东风日产4s店","lon":"121.570136","lat":"31.226448","category":"158","category_name":"汽车销售","address":"上海罗山路1447号"},{"poiid":"B2094753D76AA4FF459C","title":"泰迪之家(嘉里城店)","lon":"121.562709","lat":"31.212447","category":"99","category_name":"泰国／越南菜品餐厅","address":"上海市浦东新区花木路1378号嘉里城1楼L225号铺"},{"poiid":"B2094757D068A3FF459E","title":"Afternoon Tea(花木路店)","lon":"121.562549975","lat":"31.2125306467","category":"94","category_name":"西餐厅","address":"浦东新区花木路1378号浦东嘉里城L109铺"},{"poiid":"B2094757D569A3FB409D","title":"仁恒河滨城一期","lon":"121.566375","lat":"31.22726806","category":"47","category_name":"住宅区","address":"上海市浦东新区丁香路1599弄"},{"poiid":"B2094655D26FA5F84293","title":"御翠园","lon":"121.5723460187","lat":"31.223593222378","category":"47","category_name":"住宅区","address":"上海市浦东新区花木路1883弄"},{"poiid":"B2094654DA69A2FA4399","title":"广洋新景苑","lon":"121.56838","lat":"31.22351","category":"47","category_name":"住宅区","address":"柳杉路99弄1-27号"},{"poiid":"B2094757D66BA0FD489D","title":"诺心Tableau 浦东嘉里中心店 TableauBakeryCafe","lon":"121.5616097","lat":"31.2134733","category":"67","category_name":"甜品店","address":"浦东新区花木路1378号浦东嘉里城B1楼11单元(近花木地铁站7号线)"},{"poiid":"B2094757D16EA5F8479F","title":"斗香园(嘉里店)","lon":"121.563118975","lat":"31.2124096439","category":"68","category_name":"快餐厅","address":"浦东新区花木路1378号嘉里城中心B1楼B103号(近新国际博览中心)"},{"poiid":"B2094654DA69A2FA4492","title":"金色维也纳","lon":"121.56512","lat":"31.22323","category":"47","category_name":"住宅区","address":"锦绣路333弄1-56号"},{"poiid":"B2094757D064A2FE449C","title":"Coffee Bean 浦东嘉里中心店","lon":"121.56428097","lat":"31.212755651","category":"65","category_name":"咖啡厅","address":"上海市浦东嘉里中心"},{"poiid":"B2094757DA6EABFA4693","title":"越味风(嘉里城店)","lon":"121.561609700001","lat":"31.2134733","category":"99","category_name":"泰国／越南菜品餐厅","address":"浦东新区花木路1378号嘉里城商场B1楼"},{"poiid":"B2094750DB68AAFF4298","title":"嘉里城","lon":"121.563339","lat":"31.212678","category":"248","category_name":"生活娱乐","address":"浦东新区花木路1378号"},{"poiid":"B2094655D36CA0FD459E","title":"锦绣路罗山路","lon":"121.56943","lat":"31.22644","category":"38","category_name":"公交车站","address":""},{"poiid":"B2094757D164A6FA459D","title":"电力通信公司","lon":"121.567393975","lat":"31.2212988518","category":"263","category_name":"公司","address":"上海柳杉路223号"},{"poiid":"B2094655D26EA4FE4999","title":"松坊餐厅(四季店)","lon":"121.56896","lat":"31.21805","category":"257","category_name":"中餐厅","address":"浦东新区花木路1983号"},{"poiid":"B2094654DA69A2FA4398","title":"小风车广洋新景幼儿园","lon":"121.56747","lat":"31.22271","category":"57","category_name":"幼儿园","address":"浦东新区花四路99弄27号"},{"poiid":"B2094757D165A6FA4892","title":"俏江南","lon":"121.55993697","lat":"31.21867379","category":"500","category_name":"未知分类","address":"上海市浦东新区锦绣路"},{"poiid":"B2094655D268A1F5409B","title":"御翠园(东二门)","lon":"121.56739","lat":"31.22037","category":"656","category_name":"大门","address":""},{"poiid":"B2094655D265A5FA4098","title":"浦东嘉里中心","lon":"121.56254","lat":"31.21279","category":"46","category_name":"楼宇","address":"浦东新区花木路芳甸路"},{"poiid":"B2094757D06FA6FE449A","title":"浦东嘉里大酒店(Kerry Hotel)","lon":"121.562339396","lat":"31.2128867007","category":"217","category_name":"旅馆招待所","address":"浦东新区花木路1388号(近芳甸路)"},{"poiid":"B2094655D26AA6F9489A","title":"新国际展览中心","lon":"121.5654","lat":"31.21161","category":"247","category_name":"餐饮美食","address":"浦东新区龙阳路2345号(近芳甸路)"},{"poiid":"B2094757D16DA1FE4098","title":"California pizza kitchen(嘉里城店)","lon":"121.5616","lat":"31.21347","category":"94","category_name":"西餐厅","address":"浦东新区花木路1378号浦东嘉里城2楼L231室(近芳甸路)"},{"poiid":"B2094757D064A2F9439A","title":"新旺茶餐厅(嘉里城店)","lon":"121.563320975","lat":"31.2123346421","category":"72","category_name":"广东菜","address":"浦东新区花木路1378号浦东嘉里城1楼L126单元"},{"poiid":"B2094757D06FA4FD429B","title":"蓝蛙(嘉里城店)","lon":"121.562534178","lat":"31.2128727619","category":"260","category_name":"其他","address":"浦东新区花木路1378号嘉里城商场1楼L131号(近浦东新博览中心)"},{"poiid":"B2094757D06FA6FB4392","title":"新元素(嘉里城店)","lon":"121.56213664","lat":"31.213014313","category":"94","category_name":"西餐厅","address":"浦东新区花木路1378号浦东嘉里城1楼(近梅花路)"},{"poiid":"B2094757D069A2F4499B","title":"Baker&Spice(嘉里城店)","lon":"121.563149975","lat":"31.2127126509","category":"67","category_name":"甜品店","address":"浦东新区花木路1378号嘉里城(近芳甸路)"},{"poiid":"B2094757D06FA7F9459C","title":"和民居食屋(浦东嘉里城店)","lon":"121.56422097","lat":"31.212740651","category":"95","category_name":"日本料理","address":"上海市浦东新区花木路1378号浦东嘉里城商场地下一层B105b号单元"},{"poiid":"B2094757D06FA2F84993","title":"星巴克 STARBUCKS (浦东嘉里中心店)","lon":"121.5616098","lat":"31.2134727","category":"260","category_name":"其他","address":"浦东新区花木路1378号嘉里城商场1楼L110单元"},{"poiid":"B2094757D06BA0FC439E","title":"Johnny Moo（浦东嘉里城旗舰店）","lon":"121.56301597","lat":"31.212829653","category":"94","category_name":"西餐厅","address":"浦东新区花木路1378号浦东嘉里城2楼(近芳甸路)"},{"poiid":"B2094655D26DA1F94998","title":"世纪公园(四号门)","lon":"121.56079","lat":"31.21623","category":"680","category_name":"楼宇机构","address":"芳甸路858"},{"poiid":"B2094757D065A6FF479C","title":"逸谷","lon":"121.563296975","lat":"31.2123126416","category":"72","category_name":"广东菜","address":"浦东新区花木路1378号嘉里城2楼219A号(近芳甸路)"},{"poiid":"B2094757D06AA2FD4498","title":"大茴香(嘉里城店)","lon":"121.563372638","lat":"31.2124443102","category":"99","category_name":"泰国／越南菜品餐厅","address":"浦东新区花木路1378号嘉里城商场1楼115室(近芳甸路,新国际展览中心W5展馆对面)"},{"poiid":"B2094757D064A0FC479E","title":"赤坂亭(浦东嘉里店)","lon":"121.563086975","lat":"31.2127956529","category":"269","category_name":"烧烤","address":"浦东新区花木路1378号浦东嘉里城商场2楼L234单元"},{"poiid":"B2094757D068A3F8479E","title":"友乐达台北精致面馆(浦东嘉里城店)","lon":"121.56402197","lat":"31.211982633","category":"68","category_name":"快餐厅","address":"浦东新区花木路1378号浦东嘉里城B1楼05A号(近梅花路)"},{"poiid":"B2094757D068A2FD489E","title":"九间堂","lon":"121.5620138","lat":"31.222304185","category":"500","category_name":"未知分类","address":"浦东新区芳甸路599弄1号(近锦绣路)"},{"poiid":"B2094757D069A4FE419A","title":"小南国(浦东嘉里城)","lon":"121.563241975","lat":"31.2125196464","category":"500","category_name":"未知分类","address":"上海市浦东新区花木路1378号浦东嘉里城2楼"},{"poiid":"B2094757D06FA7F4479C","title":"仁恒河滨城","lon":"121.5674189","lat":"31.227980431","category":"47","category_name":"住宅区","address":"奉贤区南桥南奉公路8889号"},{"poiid":"B2094757D06FA4FF4893","title":"The COOK·厨","lon":"121.56314097","lat":"31.212868654","category":"217","category_name":"旅馆招待所","address":"上海浦东新区花木路1388号嘉里大酒店1楼(近芳甸路)"},{"poiid":"B2094757D66DA0FA499D","title":"上海出入境","lon":"121.559001975","lat":"31.220153825","category":"500","category_name":"未知分类","address":"上海市浦东新区民生路1500号"},{"poiid":"B2094757D064A1F5499B","title":"龙阳路磁悬浮","lon":"121.560088975","lat":"31.2184807858","category":"500","category_name":"未知分类","address":"上海龙阳路"},{"poiid":"B2094757D068A7F84793","title":"Ole' Supermarket(浦东嘉里城店)","lon":"121.563133227","lat":"31.2132648841","category":"118","category_name":"超级市场","address":"浦东新区花木路1378号嘉里城B108商铺(近新国际博览中心)"},{"poiid":"B2094757D465A3FA439E","title":"俏江南 花木路店","lon":"121.5616098","lat":"31.2134727","category":"247","category_name":"餐饮美食","address":"浦东新区花木路1378号浦东嘉里城L215号(近浦东新国际展览中心)"},{"poiid":"B2094757D06FABFA469F","title":"紫竹国际大厦","lon":"121.56824976597","lat":"31.217863825633","category":"46","category_name":"楼宇","address":"普陀区大渡河路588号"},{"poiid":"B2094757D069AAFB4399","title":"The BREW•酿","lon":"121.56264494","lat":"31.213571604","category":"172","category_name":"酒吧","address":"浦东新区花木路1388号嘉里大酒店1楼(近芳甸路)"},{"poiid":"B2094757D06BA5F9419F","title":"瑞亚湖滨精品酒店","lon":"121.57144497","lat":"31.224963937","category":"217","category_name":"旅馆招待所","address":"上海市浦东新区罗山路1609号"},{"poiid":"B2094757D069A3FA4992","title":"有心","lon":"121.5616098","lat":"31.2134727","category":"75","category_name":"浙江菜","address":"浦东新区花木路1378号嘉里城商场1楼113号(近芳甸路)"},{"poiid":"B2094757D469A3F5429C","title":"瑞亚湖滨酒店多功能厅","lon":"121.570945","lat":"31.226697","category":"76","category_name":"上海菜","address":"罗山路1609号瑞亚湖滨酒店1楼近锦绣路"},{"poiid":"B2094757D06EAAFC4392","title":"太平洋咖啡Pacific Coffee(浦东嘉里城店)","lon":"121.564106638","lat":"31.212344308","category":"260","category_name":"其他","address":"浦东新区花木路1378号浦东嘉里城2楼L205号(近7号线花木路站)"},{"poiid":"B2094750D569ABFD459F","title":"浦东世纪花园二期","lon":"121.565551","lat":"31.219154","category":"47","category_name":"住宅区","address":"上海市浦东新区花木路1108号"},{"poiid":"B2094751D469A0F8479C","title":"唐鱼儿麻辣鲜鱼火锅","lon":"121.560104","lat":"31.225509","category":"86","category_name":"火锅店","address":"浦东新区芳甸路199弄40号大拇指广场46号(近迎春路)"},{"poiid":"B2094757D068ABFF459F","title":"永达东风日产4s店","lon":"121.570136","lat":"31.226448","category":"158","category_name":"汽车销售","address":"上海罗山路1447号"},{"poiid":"B2094753D76AA4FF459C","title":"泰迪之家(嘉里城店)","lon":"121.562709","lat":"31.212447","category":"99","category_name":"泰国／越南菜品餐厅","address":"上海市浦东新区花木路1378号嘉里城1楼L225号铺"},{"poiid":"B2094757D068A3FF459E","title":"Afternoon Tea(花木路店)","lon":"121.562549975","lat":"31.2125306467","category":"94","category_name":"西餐厅","address":"浦东新区花木路1378号浦东嘉里城L109铺"},{"poiid":"B2094757D569A3FB409D","title":"仁恒河滨城一期","lon":"121.566375","lat":"31.22726806","category":"47","category_name":"住宅区","address":"上海市浦东新区丁香路1599弄"},{"poiid":"B2094655D26FA5F84293","title":"御翠园","lon":"121.5723460187","lat":"31.223593222378","category":"47","category_name":"住宅区","address":"上海市浦东新区花木路1883弄"},{"poiid":"B2094654DA69A2FA4399","title":"广洋新景苑","lon":"121.56838","lat":"31.22351","category":"47","category_name":"住宅区","address":"柳杉路99弄1-27号"},{"poiid":"B2094757D66BA0FD489D","title":"诺心Tableau 浦东嘉里中心店 TableauBakeryCafe","lon":"121.5616097","lat":"31.2134733","category":"67","category_name":"甜品店","address":"浦东新区花木路1378号浦东嘉里城B1楼11单元(近花木地铁站7号线)"},{"poiid":"B2094757D16EA5F8479F","title":"斗香园(嘉里店)","lon":"121.563118975","lat":"31.2124096439","category":"68","category_name":"快餐厅","address":"浦东新区花木路1378号嘉里城中心B1楼B103号(近新国际博览中心)"},{"poiid":"B2094654DA69A2FA4492","title":"金色维也纳","lon":"121.56512","lat":"31.22323","category":"47","category_name":"住宅区","address":"锦绣路333弄1-56号"},{"poiid":"B2094757D064A2FE449C","title":"Coffee Bean 浦东嘉里中心店","lon":"121.56428097","lat":"31.212755651","category":"65","category_name":"咖啡厅","address":"上海市浦东嘉里中心"},{"poiid":"B2094757DA6EABFA4693","title":"越味风(嘉里城店)","lon":"121.561609700001","lat":"31.2134733","category":"99","category_name":"泰国／越南菜品餐厅","address":"浦东新区花木路1378号嘉里城商场B1楼"},{"poiid":"B2094750DB68AAFF4298","title":"嘉里城","lon":"121.563339","lat":"31.212678","category":"248","category_name":"生活娱乐","address":"浦东新区花木路1378号"},{"poiid":"B2094655D36CA0FD459E","title":"锦绣路罗山路","lon":"121.56943","lat":"31.22644","category":"38","category_name":"公交车站","address":""},{"poiid":"B2094757D164A6FA459D","title":"电力通信公司","lon":"121.567393975","lat":"31.2212988518","category":"263","category_name":"公司","address":"上海柳杉路223号"},{"poiid":"B2094655D26EA4FE4999","title":"松坊餐厅(四季店)","lon":"121.56896","lat":"31.21805","category":"257","category_name":"中餐厅","address":"浦东新区花木路1983号"},{"poiid":"B2094654DA69A2FA4398","title":"小风车广洋新景幼儿园","lon":"121.56747","lat":"31.22271","category":"57","category_name":"幼儿园","address":"浦东新区花四路99弄27号"},{"poiid":"B2094757D165A6FA4892","title":"俏江南","lon":"121.55993697","lat":"31.21867379","category":"500","category_name":"未知分类","address":"上海市浦东新区锦绣路"},{"poiid":"B2094655D268A1F5409B","title":"御翠园(东二门)","lon":"121.56739","lat":"31.22037","category":"656","category_name":"大门","address":""},{"poiid":"B2094655D265A5FA4098","title":"浦东嘉里中心","lon":"121.56254","lat":"31.21279","category":"46","category_name":"楼宇","address":"浦东新区花木路芳甸路"},{"poiid":"B2094757D06FA6FE449A","title":"浦东嘉里大酒店(Kerry Hotel)","lon":"121.562339396","lat":"31.2128867007","category":"217","category_name":"旅馆招待所","address":"浦东新区花木路1388号(近芳甸路)"},{"poiid":"B2094655D26AA6F9489A","title":"新国际展览中心","lon":"121.5654","lat":"31.21161","category":"247","category_name":"餐饮美食","address":"浦东新区龙阳路2345号(近芳甸路)"},{"poiid":"B2094757D16DA1FE4098","title":"California pizza kitchen(嘉里城店)","lon":"121.5616","lat":"31.21347","category":"94","category_name":"西餐厅","address":"浦东新区花木路1378号浦东嘉里城2楼L231室(近芳甸路)"},{"poiid":"B2094757D064A2F9439A","title":"新旺茶餐厅(嘉里城店)","lon":"121.563320975","lat":"31.2123346421","category":"72","category_name":"广东菜","address":"浦东新区花木路1378号浦东嘉里城1楼L126单元"},{"poiid":"B2094757D06FA4FD429B","title":"蓝蛙(嘉里城店)","lon":"121.562534178","lat":"31.2128727619","category":"260","category_name":"其他","address":"浦东新区花木路1378号嘉里城商场1楼L131号(近浦东新博览中心)"},{"poiid":"B2094757D06FA6FB4392","title":"新元素(嘉里城店)","lon":"121.56213664","lat":"31.213014313","category":"94","category_name":"西餐厅","address":"浦东新区花木路1378号浦东嘉里城1楼(近梅花路)"},{"poiid":"B2094757D069A2F4499B","title":"Baker&Spice(嘉里城店)","lon":"121.563149975","lat":"31.2127126509","category":"67","category_name":"甜品店","address":"浦东新区花木路1378号嘉里城(近芳甸路)"},{"poiid":"B2094757D06FA7F9459C","title":"和民居食屋(浦东嘉里城店)","lon":"121.56422097","lat":"31.212740651","category":"95","category_name":"日本料理","address":"上海市浦东新区花木路1378号浦东嘉里城商场地下一层B105b号单元"},{"poiid":"B2094757D06FA2F84993","title":"星巴克 STARBUCKS (浦东嘉里中心店)","lon":"121.5616098","lat":"31.2134727","category":"260","category_name":"其他","address":"浦东新区花木路1378号嘉里城商场1楼L110单元"},{"poiid":"B2094757D06BA0FC439E","title":"Johnny Moo（浦东嘉里城旗舰店）","lon":"121.56301597","lat":"31.212829653","category":"94","category_name":"西餐厅","address":"浦东新区花木路1378号浦东嘉里城2楼(近芳甸路)"},{"poiid":"B2094655D26DA1F94998","title":"世纪公园(四号门)","lon":"121.56079","lat":"31.21623","category":"680","category_name":"楼宇机构","address":"芳甸路858"},{"poiid":"B2094757D065A6FF479C","title":"逸谷","lon":"121.563296975","lat":"31.2123126416","category":"72","category_name":"广东菜","address":"浦东新区花木路1378号嘉里城2楼219A号(近芳甸路)"},{"poiid":"B2094757D06AA2FD4498","title":"大茴香(嘉里城店)","lon":"121.563372638","lat":"31.2124443102","category":"99","category_name":"泰国／越南菜品餐厅","address":"浦东新区花木路1378号嘉里城商场1楼115室(近芳甸路,新国际展览中心W5展馆对面)"},{"poiid":"B2094757D064A0FC479E","title":"赤坂亭(浦东嘉里店)","lon":"121.563086975","lat":"31.2127956529","category":"269","category_name":"烧烤","address":"浦东新区花木路1378号浦东嘉里城商场2楼L234单元"},{"poiid":"B2094757D068A3F8479E","title":"友乐达台北精致面馆(浦东嘉里城店)","lon":"121.56402197","lat":"31.211982633","category":"68","category_name":"快餐厅","address":"浦东新区花木路1378号浦东嘉里城B1楼05A号(近梅花路)"},{"poiid":"B2094757D068A2FD489E","title":"九间堂","lon":"121.5620138","lat":"31.222304185","category":"500","category_name":"未知分类","address":"浦东新区芳甸路599弄1号(近锦绣路)"},{"poiid":"B2094757D069A4FE419A","title":"小南国(浦东嘉里城)","lon":"121.563241975","lat":"31.2125196464","category":"500","category_name":"未知分类","address":"上海市浦东新区花木路1378号浦东嘉里城2楼"},{"poiid":"B2094757D06FA7F4479C","title":"仁恒河滨城","lon":"121.5674189","lat":"31.227980431","category":"47","category_name":"住宅区","address":"奉贤区南桥南奉公路8889号"},{"poiid":"B2094757D06FA4FF4893","title":"The COOK·厨","lon":"121.56314097","lat":"31.212868654","category":"217","category_name":"旅馆招待所","address":"上海浦东新区花木路1388号嘉里大酒店1楼(近芳甸路)"},{"poiid":"B2094757D66DA0FA499D","title":"上海出入境","lon":"121.559001975","lat":"31.220153825","category":"500","category_name":"未知分类","address":"上海市浦东新区民生路1500号"},{"poiid":"B2094757D064A1F5499B","title":"龙阳路磁悬浮","lon":"121.560088975","lat":"31.2184807858","category":"500","category_name":"未知分类","address":"上海龙阳路"},{"poiid":"B2094757D068A7F84793","title":"Ole' Supermarket(浦东嘉里城店)","lon":"121.563133227","lat":"31.2132648841","category":"118","category_name":"超级市场","address":"浦东新区花木路1378号嘉里城B108商铺(近新国际博览中心)"},{"poiid":"B2094757D465A3FA439E","title":"俏江南 花木路店","lon":"121.5616098","lat":"31.2134727","category":"247","category_name":"餐饮美食","address":"浦东新区花木路1378号浦东嘉里城L215号(近浦东新国际展览中心)"},{"poiid":"B2094757D06FABFA469F","title":"紫竹国际大厦","lon":"121.56824976597","lat":"31.217863825633","category":"46","category_name":"楼宇","address":"普陀区大渡河路588号"},{"poiid":"B2094757D069AAFB4399","title":"The BREW•酿","lon":"121.56264494","lat":"31.213571604","category":"172","category_name":"酒吧","address":"浦东新区花木路1388号嘉里大酒店1楼(近芳甸路)"},{"poiid":"B2094757D06BA5F9419F","title":"瑞亚湖滨精品酒店","lon":"121.57144497","lat":"31.224963937","category":"217","category_name":"旅馆招待所","address":"上海市浦东新区罗山路1609号"},{"poiid":"B2094757D069A3FA4992","title":"有心","lon":"121.5616098","lat":"31.2134727","category":"75","category_name":"浙江菜","address":"浦东新区花木路1378号嘉里城商场1楼113号(近芳甸路)"},{"poiid":"B2094757D469A3F5429C","title":"瑞亚湖滨酒店多功能厅","lon":"121.570945","lat":"31.226697","category":"76","category_name":"上海菜","address":"罗山路1609号瑞亚湖滨酒店1楼近锦绣路"},{"poiid":"B2094757D06EAAFC4392","title":"太平洋咖啡Pacific Coffee(浦东嘉里城店)","lon":"121.564106638","lat":"31.212344308","category":"260","category_name":"其他","address":"浦东新区花木路1378号浦东嘉里城2楼L205号(近7号线花木路站)"},{"poiid":"B2094750D569ABFD459F","title":"浦东世纪花园二期","lon":"121.565551","lat":"31.219154","category":"47","category_name":"住宅区","address":"上海市浦东新区花木路1108号"},{"poiid":"B2094751D469A0F8479C","title":"唐鱼儿麻辣鲜鱼火锅","lon":"121.560104","lat":"31.225509","category":"86","category_name":"火锅店","address":"浦东新区芳甸路199弄40号大拇指广场46号(近迎春路)"},{"poiid":"B2094757D068ABFF459F","title":"永达东风日产4s店","lon":"121.570136","lat":"31.226448","category":"158","category_name":"汽车销售","address":"上海罗山路1447号"},{"poiid":"B2094753D76AA4FF459C","title":"泰迪之家(嘉里城店)","lon":"121.562709","lat":"31.212447","category":"99","category_name":"泰国／越南菜品餐厅","address":"上海市浦东新区花木路1378号嘉里城1楼L225号铺"},{"poiid":"B2094757D068A3FF459E","title":"Afternoon Tea(花木路店)","lon":"121.562549975","lat":"31.2125306467","category":"94","category_name":"西餐厅","address":"浦东新区花木路1378号浦东嘉里城L109铺"},{"poiid":"B2094757D569A3FB409D","title":"仁恒河滨城一期","lon":"121.566375","lat":"31.22726806","category":"47","category_name":"住宅区","address":"上海市浦东新区丁香路1599弄"},{"poiid":"B2094655D26FA5F84293","title":"御翠园","lon":"121.5723460187","lat":"31.223593222378","category":"47","category_name":"住宅区","address":"上海市浦东新区花木路1883弄"},{"poiid":"B2094654DA69A2FA4399","title":"广洋新景苑","lon":"121.56838","lat":"31.22351","category":"47","category_name":"住宅区","address":"柳杉路99弄1-27号"},{"poiid":"B2094757D66BA0FD489D","title":"诺心Tableau 浦东嘉里中心店 TableauBakeryCafe","lon":"121.5616097","lat":"31.2134733","category":"67","category_name":"甜品店","address":"浦东新区花木路1378号浦东嘉里城B1楼11单元(近花木地铁站7号线)"},{"poiid":"B2094757D16EA5F8479F","title":"斗香园(嘉里店)","lon":"121.563118975","lat":"31.2124096439","category":"68","category_name":"快餐厅","address":"浦东新区花木路1378号嘉里城中心B1楼B103号(近新国际博览中心)"},{"poiid":"B2094654DA69A2FA4492","title":"金色维也纳","lon":"121.56512","lat":"31.22323","category":"47","category_name":"住宅区","address":"锦绣路333弄1-56号"},{"poiid":"B2094757D064A2FE449C","title":"Coffee Bean 浦东嘉里中心店","lon":"121.56428097","lat":"31.212755651","category":"65","category_name":"咖啡厅","address":"上海市浦东嘉里中心"},{"poiid":"B2094757DA6EABFA4693","title":"越味风(嘉里城店)","lon":"121.561609700001","lat":"31.2134733","category":"99","category_name":"泰国／越南菜品餐厅","address":"浦东新区花木路1378号嘉里城商场B1楼"},{"poiid":"B2094750DB68AAFF4298","title":"嘉里城","lon":"121.563339","lat":"31.212678","category":"248","category_name":"生活娱乐","address":"浦东新区花木路1378号"},{"poiid":"B2094655D36CA0FD459E","title":"锦绣路罗山路","lon":"121.56943","lat":"31.22644","category":"38","category_name":"公交车站","address":""},{"poiid":"B2094757D164A6FA459D","title":"电力通信公司","lon":"121.567393975","lat":"31.2212988518","category":"263","category_name":"公司","address":"上海柳杉路223号"},{"poiid":"B2094655D26EA4FE4999","title":"松坊餐厅(四季店)","lon":"121.56896","lat":"31.21805","category":"257","category_name":"中餐厅","address":"浦东新区花木路1983号"},{"poiid":"B2094654DA69A2FA4398","title":"小风车广洋新景幼儿园","lon":"121.56747","lat":"31.22271","category":"57","category_name":"幼儿园","address":"浦东新区花四路99弄27号"},{"poiid":"B2094757D165A6FA4892","title":"俏江南","lon":"121.55993697","lat":"31.21867379","category":"500","category_name":"未知分类","address":"上海市浦东新区锦绣路"},{"poiid":"B2094655D268A1F5409B","title":"御翠园(东二门)","lon":"121.56739","lat":"31.22037","category":"656","category_name":"大门","address":""},{"poiid":"B2094655D265A5FA4098","title":"浦东嘉里中心","lon":"121.56254","lat":"31.21279","category":"46","category_name":"楼宇","address":"浦东新区花木路芳甸路"},{"poiid":"B2094757D06FA6FE449A","title":"浦东嘉里大酒店(Kerry Hotel)","lon":"121.562339396","lat":"31.2128867007","category":"217","category_name":"旅馆招待所","address":"浦东新区花木路1388号(近芳甸路)"},{"poiid":"B2094655D26AA6F9489A","title":"新国际展览中心","lon":"121.5654","lat":"31.21161","category":"247","category_name":"餐饮美食","address":"浦东新区龙阳路2345号(近芳甸路)"},{"poiid":"B2094757D16DA1FE4098","title":"California pizza kitchen(嘉里城店)","lon":"121.5616","lat":"31.21347","category":"94","category_name":"西餐厅","address":"浦东新区花木路1378号浦东嘉里城2楼L231室(近芳甸路)"},{"poiid":"B2094757D064A2F9439A","title":"新旺茶餐厅(嘉里城店)","lon":"121.563320975","lat":"31.2123346421","category":"72","category_name":"广东菜","address":"浦东新区花木路1378号浦东嘉里城1楼L126单元"},{"poiid":"B2094757D06FA4FD429B","title":"蓝蛙(嘉里城店)","lon":"121.562534178","lat":"31.2128727619","category":"260","category_name":"其他","address":"浦东新区花木路1378号嘉里城商场1楼L131号(近浦东新博览中心)"},{"poiid":"B2094757D06FA6FB4392","title":"新元素(嘉里城店)","lon":"121.56213664","lat":"31.213014313","category":"94","category_name":"西餐厅","address":"浦东新区花木路1378号浦东嘉里城1楼(近梅花路)"},{"poiid":"B2094757D069A2F4499B","title":"Baker&Spice(嘉里城店)","lon":"121.563149975","lat":"31.2127126509","category":"67","category_name":"甜品店","address":"浦东新区花木路1378号嘉里城(近芳甸路)"},{"poiid":"B2094757D06FA7F9459C","title":"和民居食屋(浦东嘉里城店)","lon":"121.56422097","lat":"31.212740651","category":"95","category_name":"日本料理","address":"上海市浦东新区花木路1378号浦东嘉里城商场地下一层B105b号单元"},{"poiid":"B2094757D06FA2F84993","title":"星巴克 STARBUCKS (浦东嘉里中心店)","lon":"121.5616098","lat":"31.2134727","category":"260","category_name":"其他","address":"浦东新区花木路1378号嘉里城商场1楼L110单元"},{"poiid":"B2094757D06BA0FC439E","title":"Johnny Moo（浦东嘉里城旗舰店）","lon":"121.56301597","lat":"31.212829653","category":"94","category_name":"西餐厅","address":"浦东新区花木路1378号浦东嘉里城2楼(近芳甸路)"},{"poiid":"B2094655D26DA1F94998","title":"世纪公园(四号门)","lon":"121.56079","lat":"31.21623","category":"680","category_name":"楼宇机构","address":"芳甸路858"},{"poiid":"B2094757D065A6FF479C","title":"逸谷","lon":"121.563296975","lat":"31.2123126416","category":"72","category_name":"广东菜","address":"浦东新区花木路1378号嘉里城2楼219A号(近芳甸路)"},{"poiid":"B2094757D06AA2FD4498","title":"大茴香(嘉里城店)","lon":"121.563372638","lat":"31.2124443102","category":"99","category_name":"泰国／越南菜品餐厅","address":"浦东新区花木路1378号嘉里城商场1楼115室(近芳甸路,新国际展览中心W5展馆对面)"},{"poiid":"B2094757D064A0FC479E","title":"赤坂亭(浦东嘉里店)","lon":"121.563086975","lat":"31.2127956529","category":"269","category_name":"烧烤","address":"浦东新区花木路1378号浦东嘉里城商场2楼L234单元"},{"poiid":"B2094757D068A3F8479E","title":"友乐达台北精致面馆(浦东嘉里城店)","lon":"121.56402197","lat":"31.211982633","category":"68","category_name":"快餐厅","address":"浦东新区花木路1378号浦东嘉里城B1楼05A号(近梅花路)"},{"poiid":"B2094757D068A2FD489E","title":"九间堂","lon":"121.5620138","lat":"31.222304185","category":"500","category_name":"未知分类","address":"浦东新区芳甸路599弄1号(近锦绣路)"},{"poiid":"B2094757D069A4FE419A","title":"小南国(浦东嘉里城)","lon":"121.563241975","lat":"31.2125196464","category":"500","category_name":"未知分类","address":"上海市浦东新区花木路1378号浦东嘉里城2楼"},{"poiid":"B2094757D06FA7F4479C","title":"仁恒河滨城","lon":"121.5674189","lat":"31.227980431","category":"47","category_name":"住宅区","address":"奉贤区南桥南奉公路8889号"},{"poiid":"B2094757D06FA4FF4893","title":"The COOK·厨","lon":"121.56314097","lat":"31.212868654","category":"217","category_name":"旅馆招待所","address":"上海浦东新区花木路1388号嘉里大酒店1楼(近芳甸路)"},{"poiid":"B2094757D66DA0FA499D","title":"上海出入境","lon":"121.559001975","lat":"31.220153825","category":"500","category_name":"未知分类","address":"上海市浦东新区民生路1500号"},{"poiid":"B2094757D064A1F5499B","title":"龙阳路磁悬浮","lon":"121.560088975","lat":"31.2184807858","category":"500","category_name":"未知分类","address":"上海龙阳路"},{"poiid":"B2094757D068A7F84793","title":"Ole' Supermarket(浦东嘉里城店)","lon":"121.563133227","lat":"31.2132648841","category":"118","category_name":"超级市场","address":"浦东新区花木路1378号嘉里城B108商铺(近新国际博览中心)"},{"poiid":"B2094757D465A3FA439E","title":"俏江南 花木路店","lon":"121.5616098","lat":"31.2134727","category":"247","category_name":"餐饮美食","address":"浦东新区花木路1378号浦东嘉里城L215号(近浦东新国际展览中心)"},{"poiid":"B2094757D06FABFA469F","title":"紫竹国际大厦","lon":"121.56824976597","lat":"31.217863825633","category":"46","category_name":"楼宇","address":"普陀区大渡河路588号"},{"poiid":"B2094757D069AAFB4399","title":"The BREW•酿","lon":"121.56264494","lat":"31.213571604","category":"172","category_name":"酒吧","address":"浦东新区花木路1388号嘉里大酒店1楼(近芳甸路)"},{"poiid":"B2094757D06BA5F9419F","title":"瑞亚湖滨精品酒店","lon":"121.57144497","lat":"31.224963937","category":"217","category_name":"旅馆招待所","address":"上海市浦东新区罗山路1609号"},{"poiid":"B2094757D069A3FA4992","title":"有心","lon":"121.5616098","lat":"31.2134727","category":"75","category_name":"浙江菜","address":"浦东新区花木路1378号嘉里城商场1楼113号(近芳甸路)"},{"poiid":"B2094757D469A3F5429C","title":"瑞亚湖滨酒店多功能厅","lon":"121.570945","lat":"31.226697","category":"76","category_name":"上海菜","address":"罗山路1609号瑞亚湖滨酒店1楼近锦绣路"},{"poiid":"B2094757D06EAAFC4392","title":"太平洋咖啡Pacific Coffee(浦东嘉里城店)","lon":"121.564106638","lat":"31.212344308","category":"260","category_name":"其他","address":"浦东新区花木路1378号浦东嘉里城2楼L205号(近7号线花木路站)"},{"poiid":"B2094750D569ABFD459F","title":"浦东世纪花园二期","lon":"121.565551","lat":"31.219154","category":"47","category_name":"住宅区","address":"上海市浦东新区花木路1108号"},{"poiid":"B2094751D469A0F8479C","title":"唐鱼儿麻辣鲜鱼火锅","lon":"121.560104","lat":"31.225509","category":"86","category_name":"火锅店","address":"浦东新区芳甸路199弄40号大拇指广场46号(近迎春路)"},{"poiid":"B2094757D068ABFF459F","title":"永达东风日产4s店","lon":"121.570136","lat":"31.226448","category":"158","category_name":"汽车销售","address":"上海罗山路1447号"},{"poiid":"B2094753D76AA4FF459C","title":"泰迪之家(嘉里城店)","lon":"121.562709","lat":"31.212447","category":"99","category_name":"泰国／越南菜品餐厅","address":"上海市浦东新区花木路1378号嘉里城1楼L225号铺"},{"poiid":"B2094757D068A3FF459E","title":"Afternoon Tea(花木路店)","lon":"121.562549975","lat":"31.2125306467","category":"94","category_name":"西餐厅","address":"浦东新区花木路1378号浦东嘉里城L109铺"},{"poiid":"B2094757D569A3FB409D","title":"仁恒河滨城一期","lon":"121.566375","lat":"31.22726806","category":"47","category_name":"住宅区","address":"上海市浦东新区丁香路1599弄"},{"poiid":"B2094655D26FA5F84293","title":"御翠园","lon":"121.5723460187","lat":"31.223593222378","category":"47","category_name":"住宅区","address":"上海市浦东新区花木路1883弄"},{"poiid":"B2094654DA69A2FA4399","title":"广洋新景苑","lon":"121.56838","lat":"31.22351","category":"47","category_name":"住宅区","address":"柳杉路99弄1-27号"},{"poiid":"B2094757D66BA0FD489D","title":"诺心Tableau 浦东嘉里中心店 TableauBakeryCafe","lon":"121.5616097","lat":"31.2134733","category":"67","category_name":"甜品店","address":"浦东新区花木路1378号浦东嘉里城B1楼11单元(近花木地铁站7号线)"},{"poiid":"B2094757D16EA5F8479F","title":"斗香园(嘉里店)","lon":"121.563118975","lat":"31.2124096439","category":"68","category_name":"快餐厅","address":"浦东新区花木路1378号嘉里城中心B1楼B103号(近新国际博览中心)"},{"poiid":"B2094654DA69A2FA4492","title":"金色维也纳","lon":"121.56512","lat":"31.22323","category":"47","category_name":"住宅区","address":"锦绣路333弄1-56号"},{"poiid":"B2094757D064A2FE449C","title":"Coffee Bean 浦东嘉里中心店","lon":"121.56428097","lat":"31.212755651","category":"65","category_name":"咖啡厅","address":"上海市浦东嘉里中心"},{"poiid":"B2094757DA6EABFA4693","title":"越味风(嘉里城店)","lon":"121.561609700001","lat":"31.2134733","category":"99","category_name":"泰国／越南菜品餐厅","address":"浦东新区花木路1378号嘉里城商场B1楼"},{"poiid":"B2094750DB68AAFF4298","title":"嘉里城","lon":"121.563339","lat":"31.212678","category":"248","category_name":"生活娱乐","address":"浦东新区花木路1378号"},{"poiid":"B2094655D36CA0FD459E","title":"锦绣路罗山路","lon":"121.56943","lat":"31.22644","category":"38","category_name":"公交车站","address":""},{"poiid":"B2094757D164A6FA459D","title":"电力通信公司","lon":"121.567393975","lat":"31.2212988518","category":"263","category_name":"公司","address":"上海柳杉路223号"},{"poiid":"B2094655D26EA4FE4999","title":"松坊餐厅(四季店)","lon":"121.56896","lat":"31.21805","category":"257","category_name":"中餐厅","address":"浦东新区花木路1983号"},{"poiid":"B2094654DA69A2FA4398","title":"小风车广洋新景幼儿园","lon":"121.56747","lat":"31.22271","category":"57","category_name":"幼儿园","address":"浦东新区花四路99弄27号"},{"poiid":"B2094757D165A6FA4892","title":"俏江南","lon":"121.55993697","lat":"31.21867379","category":"500","category_name":"未知分类","address":"上海市浦东新区锦绣路"},{"poiid":"B2094655D268A1F5409B","title":"御翠园(东二门)","lon":"121.56739","lat":"31.22037","category":"656","category_name":"大门","address":""}]