[{"poiid":"B2094757D06EAAFB459E","title":"新旺茶餐厅(汉口路店)","lon":"121.48448","lat":"31.23519","category":"72","category_name":"广东菜","address":"黄浦区汉口路309号(山东中路口)"},{"poiid":"B2094757D06FA2FE449F","title":"名人购物中心","lon":"121.484624738","lat":"31.235713417","category":"119","category_name":"商场","address":"上海黄浦区南京东路300号(近河南中路)"},{"poiid":"B2094655D26AABFB419E","title":"M1NT","lon":"121.48417","lat":"31.23492","category":"260","category_name":"其他","address":"黄浦区福州路318号高腾大厦24楼(近山东中路)"},{"poiid":"B2094753D76FAAFA449C","title":"上海滩国泰旗舰店","lon":"121.466011","lat":"31.216125","category":"249","category_name":"购物服务","address":"淮海中路868号"},{"poiid":"B209475CD564A7F84292","title":"上海滩新天地店","lon":"121.47463","lat":"31.22164","category":"119","category_name":"商场","address":"\"太仓路181弄新天地北里15号\r\n\""},{"poiid":"B209475CD564A7F8439E","title":"上海滩中信泰富店","lon":"121.45602","lat":"31.22851","category":"119","category_name":"商场","address":"\"南京西路1168号中信泰富广场，店铺号221.\r\n\""},{"poiid":"B209475CD564A7F84392","title":"上海滩浦东香格里拉店","lon":"121.50058","lat":"31.23634","category":"119","category_name":"商场","address":"浦东富成路33号香格里拉酒店内大堂层"},{"poiid":"B2094757D06EAAFB419F","title":"仁济医院(西部)","lon":"121.48445382","lat":"31.233387977","category":"162","category_name":"医院","address":"黄浦区山东中路145号(近福州路)"},{"poiid":"B2094757D06FA0FA4499","title":"大马头茶餐厅","lon":"121.482732","lat":"31.235167","category":"72","category_name":"广东菜","address":"黄浦区九江路399号华盛大厦1楼(近地铁2号线4号口)"},{"poiid":"B2094655D264A4F8469D","title":"杏花楼福州路总店","lon":"121.48391","lat":"31.23401","category":"67","category_name":"甜品店","address":"黄浦区福州路343号(近山东中路)"},{"poiid":"B2094654DB6BABFD4292","title":"CoCo壱番屋(九江路店)","lon":"121.48282","lat":"31.23544","category":"95","category_name":"日本料理","address":"黄浦区汉口路399号华盛大厦103室(近山西南路)"},{"poiid":"B2094757D06FA3F44693","title":"悦来大酒店","lon":"121.4829","lat":"31.23501","category":"76","category_name":"上海菜","address":"黄浦区汉口路398号华盛大厦4楼(置地广场对面)"},{"poiid":"B2094654DA6FABF9429D","title":"港陆广场","lon":"121.485","lat":"31.2353","category":"46","category_name":"楼宇","address":"黄浦区西藏中路18号(近延安东路)"},{"poiid":"B2094654DB69ABFA4599","title":"上海外文书店(原版书店)","lon":"121.48305","lat":"31.23415","category":"125","category_name":"书店","address":"黄浦区福州路390号4楼(近上海书城)"},{"poiid":"B2094757D06AA3FB479C","title":"东瀛造型名人购物中心店","lon":"121.483731738","lat":"31.2347973974","category":"500","category_name":"未知分类","address":"上海南京东路300号5楼"},{"poiid":"B2094654DA6FA5F54592","title":"振鼎鸡 福州路店","lon":"121.481516054","lat":"31.233358793","category":"68","category_name":"快餐厅","address":"黄浦区福州路440号(近福建中路)"},{"poiid":"B2094654DA6FA5F4489B","title":"高腾大厦","lon":"121.48427","lat":"31.23464","category":"46","category_name":"楼宇","address":"越秀区环市东路362-366号"},{"poiid":"B2094757D069A5F5479A","title":"mint club","lon":"121.48444573","lat":"31.234723395","category":"500","category_name":"未知分类","address":"上海市福州路高腾大厦"},{"poiid":"B2094757D068A2F9419B","title":"三马路酒楼","lon":"121.482737","lat":"31.235036","category":"75","category_name":"浙江菜","address":"黄浦区汉口路413号(近山西南路)"},{"poiid":"B2094654DB6AA6F84798","title":"上海吴宫大酒店","lon":"121.48212","lat":"31.23358","category":"76","category_name":"上海菜","address":"黄浦区福州路431号(近福建中路)"},{"poiid":"B2094750DA68A2F5409D","title":"上海外滩中心威斯汀大饭店","lon":"121.484069","lat":"31.234144","category":"251","category_name":"出行住宿","address":null},{"poiid":"B2094757D164AAFA4692","title":"Puma(置地广场)","lon":"121.48366773","lat":"31.234341387","category":"500","category_name":"未知分类","address":"上海南京东路409-459号7F"},{"poiid":"B2094654DA6FA5F54798","title":"九江路金融广场","lon":"121.48319","lat":"31.23591","category":"46","category_name":"楼宇","address":"上海黄浦区九江路333号"},{"poiid":"B2094757D06FA1F8419C","title":"楚楚园馅饼粥(汉口路店)","lon":"121.48438","lat":"31.23524","category":"68","category_name":"快餐厅","address":"黄浦区汉口路309号(近山东中路)"},{"poiid":"B2094655D264A1F54099","title":"汉庭快捷酒店(上海南京东路店)","lon":"121.48452","lat":"31.235","category":"216","category_name":"经济型连锁酒店","address":"上海市黄浦区山东中路230号(近南京东路)"},{"poiid":"B2094757D06FAAFE449F","title":"Citta'享咖(福州路店)","lon":"121.48456","lat":"31.23418","category":"260","category_name":"其他","address":"黄浦区福州路318号102C(近山东中路)"},{"poiid":"B2094757D06FA0FD489B","title":"外文书店(福州店)","lon":"121.48325","lat":"31.23381","category":"125","category_name":"书店","address":"黄浦区福州路390号(近上海书城)"},{"poiid":"B2094757D66DA4F5459D","title":"味千拉面","lon":"121.482595738","lat":"31.2351284045","category":"247","category_name":"餐饮美食","address":"上海南京东路300号名人购物中心B1层"},{"poiid":"B2094654DA6FA5F5459F","title":"中外运大厦","lon":"121.48178","lat":"31.23399","category":"46","category_name":"楼宇","address":"卫清西路139_149号等"},{"poiid":"B2094757D065AAFC469E","title":"外滩私房菜","lon":"121.48534973","lat":"31.234815397","category":"76","category_name":"上海菜","address":"黄浦区河南中路256号(近福州路)"},{"poiid":"B2094757DA69A2FD489C","title":"上海外文书店日文部","lon":"121.48303","lat":"31.23411","category":"119","category_name":"商场","address":"福州路390号4楼"},{"poiid":"B2094654DA6FABFA489F","title":"上海第二医科大学附属仁济医院","lon":"121.48449","lat":"31.23353","category":"162","category_name":"医院","address":"山东中路145"},{"poiid":"B2094757D06FAAF4429F","title":"上海文化商厦","lon":"121.483677144","lat":"31.2339277566","category":"125","category_name":"书店","address":"黄浦区福州路355号(近山东中路)"},{"poiid":"B2094757D16AA2F9429E","title":"仁济医院综合楼5号楼","lon":"121.483628738","lat":"31.2343413877","category":"500","category_name":"未知分类","address":"上海山东中路145号"},{"poiid":"B209475CD76EA2FA4892","title":"锅源","lon":"121.483749","lat":"31.234395","category":"500","category_name":"未知分类","address":"上海市 黄浦区九江路288号宏伊广场5楼509-510"},{"poiid":"B2094757D069AAFD449E","title":"九江路外滩","lon":"121.485418907","lat":"31.233909491","category":"500","category_name":"未知分类","address":"上海九江路四川中路"},{"poiid":"B2094654DA6FABFF4493","title":"上海古籍书店","lon":"121.4828","lat":"31.2338","category":"125","category_name":"书店","address":"黄浦区福州路401号(近上海书城)"},{"poiid":"B2094757D06BAAFC4099","title":"国际金融中心","lon":"121.48386923","lat":"31.234831898","category":"500","category_name":"未知分类","address":"上海世纪大道8号"},{"poiid":"B2094757D06FA1FB479A","title":"银岛棋牌桌球(山西南路店)","lon":"121.48313","lat":"31.2353","category":"171","category_name":"台球厅","address":"上海黄浦区山西南路99号华盛商务大厦27-29楼(置地广场对面)"},{"poiid":"B2094654DB69AAFA4399","title":"磨磨茶茶","lon":"121.48185800627","lat":"31.233738243004","category":"110","category_name":"其他亚洲菜","address":"黄浦区福州路452号(近福建中路)"},{"poiid":"B2094751D26CA1FE4898","title":"上海WESTIN酒店","lon":"121.483749","lat":"31.234281","category":"247","category_name":"餐饮美食","address":null},{"poiid":"B2094752D76FA1F4479F","title":"星巴克福建中路店","lon":"121.482845","lat":"31.234606","category":"247","category_name":"餐饮美食","address":"福建中路353號"},{"poiid":"B2094757D168A7FD469D","title":"老渔父舟山海鲜面","lon":"121.484289738","lat":"31.2354264108","category":"68","category_name":"快餐厅","address":"黄浦区山东中路222号(近福州路)"},{"poiid":"B209475CD464A1FF419B","title":"顺风港湾","lon":"121.483764","lat":"31.234479","category":"500","category_name":"未知分类","address":"上海市 南京东路299号宏伊广场7楼(近河南中路)"},{"poiid":"B2094757D068A0FA459D","title":"自力教育福州路校区","lon":"121.48357426","lat":"31.232512423","category":"500","category_name":"未知分类","address":"黄浦区福州路355号东门文化商厦5楼(近山东中路)"},{"poiid":"B2094752D264A2F5459A","title":"Citta' espresso club(福州路店)","lon":"121.48427907765","lat":"31.234670708624","category":"65","category_name":"咖啡厅","address":"黄浦区福州路318号102C"},{"poiid":"B2094654DA6FA5FA4893","title":"小梁园明档店","lon":"121.48458","lat":"31.23471","category":"257","category_name":"中餐厅","address":"黄浦区山东中路212号(近河南中路)"},{"poiid":"B2094750D16AA7FA469A","title":"上海外灘華爾道夫酒店","lon":"121.482269","lat":"31.232975","category":"251","category_name":"出行住宿","address":null},{"poiid":"B2094750DA69A3FD4598","title":"甜爱路","lon":"121.483757","lat":"31.234424","category":"500","category_name":"未知分类","address":null},{"poiid":"B209475DD165AAF9439B","title":"年代秀饭堂","lon":"121.484077","lat":"31.234943","category":"247","category_name":"餐饮美食","address":"上海市 上海市黄浦区山东中路208号"},{"poiid":"B2094757D06EAAFB459E","title":"新旺茶餐厅(汉口路店)","lon":"121.48448","lat":"31.23519","category":"72","category_name":"广东菜","address":"黄浦区汉口路309号(山东中路口)"},{"poiid":"B2094757D06FA2FE449F","title":"名人购物中心","lon":"121.484624738","lat":"31.235713417","category":"119","category_name":"商场","address":"上海黄浦区南京东路300号(近河南中路)"},{"poiid":"B2094655D26AABFB419E","title":"M1NT","lon":"121.48417","lat":"31.23492","category":"260","category_name":"其他","address":"黄浦区福州路318号高腾大厦24楼(近山东中路)"},{"poiid":"B2094753D76FAAFA449C","title":"上海滩国泰旗舰店","lon":"121.466011","lat":"31.216125","category":"249","category_name":"购物服务","address":"淮海中路868号"},{"poiid":"B209475CD564A7F84292","title":"上海滩新天地店","lon":"121.47463","lat":"31.22164","category":"119","category_name":"商场","address":"\"太仓路181弄新天地北里15号\r\n\""},{"poiid":"B209475CD564A7F8439E","title":"上海滩中信泰富店","lon":"121.45602","lat":"31.22851","category":"119","category_name":"商场","address":"\"南京西路1168号中信泰富广场，店铺号221.\r\n\""},{"poiid":"B209475CD564A7F84392","title":"上海滩浦东香格里拉店","lon":"121.50058","lat":"31.23634","category":"119","category_name":"商场","address":"浦东富成路33号香格里拉酒店内大堂层"},{"poiid":"B2094757D06EAAFB419F","title":"仁济医院(西部)","lon":"121.48445382","lat":"31.233387977","category":"162","category_name":"医院","address":"黄浦区山东中路145号(近福州路)"},{"poiid":"B2094757D06FA0FA4499","title":"大马头茶餐厅","lon":"121.482732","lat":"31.235167","category":"72","category_name":"广东菜","address":"黄浦区九江路399号华盛大厦1楼(近地铁2号线4号口)"},{"poiid":"B2094655D264A4F8469D","title":"杏花楼福州路总店","lon":"121.48391","lat":"31.23401","category":"67","category_name":"甜品店","address":"黄浦区福州路343号(近山东中路)"},{"poiid":"B2094654DB6BABFD4292","title":"CoCo壱番屋(九江路店)","lon":"121.48282","lat":"31.23544","category":"95","category_name":"日本料理","address":"黄浦区汉口路399号华盛大厦103室(近山西南路)"},{"poiid":"B2094757D06FA3F44693","title":"悦来大酒店","lon":"121.4829","lat":"31.23501","category":"76","category_name":"上海菜","address":"黄浦区汉口路398号华盛大厦4楼(置地广场对面)"},{"poiid":"B2094654DA6FABF9429D","title":"港陆广场","lon":"121.485","lat":"31.2353","category":"46","category_name":"楼宇","address":"黄浦区西藏中路18号(近延安东路)"},{"poiid":"B2094654DB69ABFA4599","title":"上海外文书店(原版书店)","lon":"121.48305","lat":"31.23415","category":"125","category_name":"书店","address":"黄浦区福州路390号4楼(近上海书城)"},{"poiid":"B2094757D06AA3FB479C","title":"东瀛造型名人购物中心店","lon":"121.483731738","lat":"31.2347973974","category":"500","category_name":"未知分类","address":"上海南京东路300号5楼"},{"poiid":"B2094654DA6FA5F54592","title":"振鼎鸡 福州路店","lon":"121.481516054","lat":"31.233358793","category":"68","category_name":"快餐厅","address":"黄浦区福州路440号(近福建中路)"},{"poiid":"B2094654DA6FA5F4489B","title":"高腾大厦","lon":"121.48427","lat":"31.23464","category":"46","category_name":"楼宇","address":"越秀区环市东路362-366号"},{"poiid":"B2094757D069A5F5479A","title":"mint club","lon":"121.48444573","lat":"31.234723395","category":"500","category_name":"未知分类","address":"上海市福州路高腾大厦"},{"poiid":"B2094757D068A2F9419B","title":"三马路酒楼","lon":"121.482737","lat":"31.235036","category":"75","category_name":"浙江菜","address":"黄浦区汉口路413号(近山西南路)"},{"poiid":"B2094654DB6AA6F84798","title":"上海吴宫大酒店","lon":"121.48212","lat":"31.23358","category":"76","category_name":"上海菜","address":"黄浦区福州路431号(近福建中路)"},{"poiid":"B2094750DA68A2F5409D","title":"上海外滩中心威斯汀大饭店","lon":"121.484069","lat":"31.234144","category":"251","category_name":"出行住宿","address":null},{"poiid":"B2094757D164AAFA4692","title":"Puma(置地广场)","lon":"121.48366773","lat":"31.234341387","category":"500","category_name":"未知分类","address":"上海南京东路409-459号7F"},{"poiid":"B2094654DA6FA5F54798","title":"九江路金融广场","lon":"121.48319","lat":"31.23591","category":"46","category_name":"楼宇","address":"上海黄浦区九江路333号"},{"poiid":"B2094757D06FA1F8419C","title":"楚楚园馅饼粥(汉口路店)","lon":"121.48438","lat":"31.23524","category":"68","category_name":"快餐厅","address":"黄浦区汉口路309号(近山东中路)"},{"poiid":"B2094655D264A1F54099","title":"汉庭快捷酒店(上海南京东路店)","lon":"121.48452","lat":"31.235","category":"216","category_name":"经济型连锁酒店","address":"上海市黄浦区山东中路230号(近南京东路)"},{"poiid":"B2094757D06FAAFE449F","title":"Citta'享咖(福州路店)","lon":"121.48456","lat":"31.23418","category":"260","category_name":"其他","address":"黄浦区福州路318号102C(近山东中路)"},{"poiid":"B2094757D06FA0FD489B","title":"外文书店(福州店)","lon":"121.48325","lat":"31.23381","category":"125","category_name":"书店","address":"黄浦区福州路390号(近上海书城)"},{"poiid":"B2094757D66DA4F5459D","title":"味千拉面","lon":"121.482595738","lat":"31.2351284045","category":"247","category_name":"餐饮美食","address":"上海南京东路300号名人购物中心B1层"},{"poiid":"B2094654DA6FA5F5459F","title":"中外运大厦","lon":"121.48178","lat":"31.23399","category":"46","category_name":"楼宇","address":"卫清西路139_149号等"},{"poiid":"B2094757D065AAFC469E","title":"外滩私房菜","lon":"121.48534973","lat":"31.234815397","category":"76","category_name":"上海菜","address":"黄浦区河南中路256号(近福州路)"},{"poiid":"B2094757DA69A2FD489C","title":"上海外文书店日文部","lon":"121.48303","lat":"31.23411","category":"119","category_name":"商场","address":"福州路390号4楼"},{"poiid":"B2094654DA6FABFA489F","title":"上海第二医科大学附属仁济医院","lon":"121.48449","lat":"31.23353","category":"162","category_name":"医院","address":"山东中路145"},{"poiid":"B2094757D06FAAF4429F","title":"上海文化商厦","lon":"121.483677144","lat":"31.2339277566","category":"125","category_name":"书店","address":"黄浦区福州路355号(近山东中路)"},{"poiid":"B2094757D16AA2F9429E","title":"仁济医院综合楼5号楼","lon":"121.483628738","lat":"31.2343413877","category":"500","category_name":"未知分类","address":"上海山东中路145号"},{"poiid":"B209475CD76EA2FA4892","title":"锅源","lon":"121.483749","lat":"31.234395","category":"500","category_name":"未知分类","address":"上海市 黄浦区九江路288号宏伊广场5楼509-510"},{"poiid":"B2094757D069AAFD449E","title":"九江路外滩","lon":"121.485418907","lat":"31.233909491","category":"500","category_name":"未知分类","address":"上海九江路四川中路"},{"poiid":"B2094654DA6FABFF4493","title":"上海古籍书店","lon":"121.4828","lat":"31.2338","category":"125","category_name":"书店","address":"黄浦区福州路401号(近上海书城)"},{"poiid":"B2094757D06BAAFC4099","title":"国际金融中心","lon":"121.48386923","lat":"31.234831898","category":"500","category_name":"未知分类","address":"上海世纪大道8号"},{"poiid":"B2094757D06FA1FB479A","title":"银岛棋牌桌球(山西南路店)","lon":"121.48313","lat":"31.2353","category":"171","category_name":"台球厅","address":"上海黄浦区山西南路99号华盛商务大厦27-29楼(置地广场对面)"},{"poiid":"B2094654DB69AAFA4399","title":"磨磨茶茶","lon":"121.48185800627","lat":"31.233738243004","category":"110","category_name":"其他亚洲菜","address":"黄浦区福州路452号(近福建中路)"},{"poiid":"B2094751D26CA1FE4898","title":"上海WESTIN酒店","lon":"121.483749","lat":"31.234281","category":"247","category_name":"餐饮美食","address":null},{"poiid":"B2094752D76FA1F4479F","title":"星巴克福建中路店","lon":"121.482845","lat":"31.234606","category":"247","category_name":"餐饮美食","address":"福建中路353號"},{"poiid":"B2094757D168A7FD469D","title":"老渔父舟山海鲜面","lon":"121.484289738","lat":"31.2354264108","category":"68","category_name":"快餐厅","address":"黄浦区山东中路222号(近福州路)"},{"poiid":"B209475CD464A1FF419B","title":"顺风港湾","lon":"121.483764","lat":"31.234479","category":"500","category_name":"未知分类","address":"上海市 南京东路299号宏伊广场7楼(近河南中路)"},{"poiid":"B2094757D068A0FA459D","title":"自力教育福州路校区","lon":"121.48357426","lat":"31.232512423","category":"500","category_name":"未知分类","address":"黄浦区福州路355号东门文化商厦5楼(近山东中路)"},{"poiid":"B2094752D264A2F5459A","title":"Citta' espresso club(福州路店)","lon":"121.48427907765","lat":"31.234670708624","category":"65","category_name":"咖啡厅","address":"黄浦区福州路318号102C"},{"poiid":"B2094654DA6FA5FA4893","title":"小梁园明档店","lon":"121.48458","lat":"31.23471","category":"257","category_name":"中餐厅","address":"黄浦区山东中路212号(近河南中路)"},{"poiid":"B2094750D16AA7FA469A","title":"上海外灘華爾道夫酒店","lon":"121.482269","lat":"31.232975","category":"251","category_name":"出行住宿","address":null},{"poiid":"B2094750DA69A3FD4598","title":"甜爱路","lon":"121.483757","lat":"31.234424","category":"500","category_name":"未知分类","address":null},{"poiid":"B209475DD165AAF9439B","title":"年代秀饭堂","lon":"121.484077","lat":"31.234943","category":"247","category_name":"餐饮美食","address":"上海市 上海市黄浦区山东中路208号"},{"poiid":"B2094757D06EAAFB459E","title":"新旺茶餐厅(汉口路店)","lon":"121.48448","lat":"31.23519","category":"72","category_name":"广东菜","address":"黄浦区汉口路309号(山东中路口)"},{"poiid":"B2094757D06FA2FE449F","title":"名人购物中心","lon":"121.484624738","lat":"31.235713417","category":"119","category_name":"商场","address":"上海黄浦区南京东路300号(近河南中路)"},{"poiid":"B2094655D26AABFB419E","title":"M1NT","lon":"121.48417","lat":"31.23492","category":"260","category_name":"其他","address":"黄浦区福州路318号高腾大厦24楼(近山东中路)"},{"poiid":"B2094753D76FAAFA449C","title":"上海滩国泰旗舰店","lon":"121.466011","lat":"31.216125","category":"249","category_name":"购物服务","address":"淮海中路868号"},{"poiid":"B209475CD564A7F84292","title":"上海滩新天地店","lon":"121.47463","lat":"31.22164","category":"119","category_name":"商场","address":"\"太仓路181弄新天地北里15号\r\n\""},{"poiid":"B209475CD564A7F8439E","title":"上海滩中信泰富店","lon":"121.45602","lat":"31.22851","category":"119","category_name":"商场","address":"\"南京西路1168号中信泰富广场，店铺号221.\r\n\""},{"poiid":"B209475CD564A7F84392","title":"上海滩浦东香格里拉店","lon":"121.50058","lat":"31.23634","category":"119","category_name":"商场","address":"浦东富成路33号香格里拉酒店内大堂层"},{"poiid":"B2094757D06EAAFB419F","title":"仁济医院(西部)","lon":"121.48445382","lat":"31.233387977","category":"162","category_name":"医院","address":"黄浦区山东中路145号(近福州路)"},{"poiid":"B2094757D06FA0FA4499","title":"大马头茶餐厅","lon":"121.482732","lat":"31.235167","category":"72","category_name":"广东菜","address":"黄浦区九江路399号华盛大厦1楼(近地铁2号线4号口)"},{"poiid":"B2094655D264A4F8469D","title":"杏花楼福州路总店","lon":"121.48391","lat":"31.23401","category":"67","category_name":"甜品店","address":"黄浦区福州路343号(近山东中路)"},{"poiid":"B2094654DB6BABFD4292","title":"CoCo壱番屋(九江路店)","lon":"121.48282","lat":"31.23544","category":"95","category_name":"日本料理","address":"黄浦区汉口路399号华盛大厦103室(近山西南路)"},{"poiid":"B2094757D06FA3F44693","title":"悦来大酒店","lon":"121.4829","lat":"31.23501","category":"76","category_name":"上海菜","address":"黄浦区汉口路398号华盛大厦4楼(置地广场对面)"},{"poiid":"B2094654DA6FABF9429D","title":"港陆广场","lon":"121.485","lat":"31.2353","category":"46","category_name":"楼宇","address":"黄浦区西藏中路18号(近延安东路)"},{"poiid":"B2094654DB69ABFA4599","title":"上海外文书店(原版书店)","lon":"121.48305","lat":"31.23415","category":"125","category_name":"书店","address":"黄浦区福州路390号4楼(近上海书城)"},{"poiid":"B2094757D06AA3FB479C","title":"东瀛造型名人购物中心店","lon":"121.483731738","lat":"31.2347973974","category":"500","category_name":"未知分类","address":"上海南京东路300号5楼"},{"poiid":"B2094654DA6FA5F54592","title":"振鼎鸡 福州路店","lon":"121.481516054","lat":"31.233358793","category":"68","category_name":"快餐厅","address":"黄浦区福州路440号(近福建中路)"},{"poiid":"B2094654DA6FA5F4489B","title":"高腾大厦","lon":"121.48427","lat":"31.23464","category":"46","category_name":"楼宇","address":"越秀区环市东路362-366号"},{"poiid":"B2094757D069A5F5479A","title":"mint club","lon":"121.48444573","lat":"31.234723395","category":"500","category_name":"未知分类","address":"上海市福州路高腾大厦"},{"poiid":"B2094757D068A2F9419B","title":"三马路酒楼","lon":"121.482737","lat":"31.235036","category":"75","category_name":"浙江菜","address":"黄浦区汉口路413号(近山西南路)"},{"poiid":"B2094654DB6AA6F84798","title":"上海吴宫大酒店","lon":"121.48212","lat":"31.23358","category":"76","category_name":"上海菜","address":"黄浦区福州路431号(近福建中路)"},{"poiid":"B2094750DA68A2F5409D","title":"上海外滩中心威斯汀大饭店","lon":"121.484069","lat":"31.234144","category":"251","category_name":"出行住宿","address":null},{"poiid":"B2094757D164AAFA4692","title":"Puma(置地广场)","lon":"121.48366773","lat":"31.234341387","category":"500","category_name":"未知分类","address":"上海南京东路409-459号7F"},{"poiid":"B2094654DA6FA5F54798","title":"九江路金融广场","lon":"121.48319","lat":"31.23591","category":"46","category_name":"楼宇","address":"上海黄浦区九江路333号"},{"poiid":"B2094757D06FA1F8419C","title":"楚楚园馅饼粥(汉口路店)","lon":"121.48438","lat":"31.23524","category":"68","category_name":"快餐厅","address":"黄浦区汉口路309号(近山东中路)"},{"poiid":"B2094655D264A1F54099","title":"汉庭快捷酒店(上海南京东路店)","lon":"121.48452","lat":"31.235","category":"216","category_name":"经济型连锁酒店","address":"上海市黄浦区山东中路230号(近南京东路)"},{"poiid":"B2094757D06FAAFE449F","title":"Citta'享咖(福州路店)","lon":"121.48456","lat":"31.23418","category":"260","category_name":"其他","address":"黄浦区福州路318号102C(近山东中路)"},{"poiid":"B2094757D06FA0FD489B","title":"外文书店(福州店)","lon":"121.48325","lat":"31.23381","category":"125","category_name":"书店","address":"黄浦区福州路390号(近上海书城)"},{"poiid":"B2094757D66DA4F5459D","title":"味千拉面","lon":"121.482595738","lat":"31.2351284045","category":"247","category_name":"餐饮美食","address":"上海南京东路300号名人购物中心B1层"},{"poiid":"B2094654DA6FA5F5459F","title":"中外运大厦","lon":"121.48178","lat":"31.23399","category":"46","category_name":"楼宇","address":"卫清西路139_149号等"},{"poiid":"B2094757D065AAFC469E","title":"外滩私房菜","lon":"121.48534973","lat":"31.234815397","category":"76","category_name":"上海菜","address":"黄浦区河南中路256号(近福州路)"},{"poiid":"B2094757DA69A2FD489C","title":"上海外文书店日文部","lon":"121.48303","lat":"31.23411","category":"119","category_name":"商场","address":"福州路390号4楼"},{"poiid":"B2094654DA6FABFA489F","title":"上海第二医科大学附属仁济医院","lon":"121.48449","lat":"31.23353","category":"162","category_name":"医院","address":"山东中路145"},{"poiid":"B2094757D06FAAF4429F","title":"上海文化商厦","lon":"121.483677144","lat":"31.2339277566","category":"125","category_name":"书店","address":"黄浦区福州路355号(近山东中路)"},{"poiid":"B2094757D16AA2F9429E","title":"仁济医院综合楼5号楼","lon":"121.483628738","lat":"31.2343413877","category":"500","category_name":"未知分类","address":"上海山东中路145号"},{"poiid":"B209475CD76EA2FA4892","title":"锅源","lon":"121.483749","lat":"31.234395","category":"500","category_name":"未知分类","address":"上海市 黄浦区九江路288号宏伊广场5楼509-510"},{"poiid":"B2094757D069AAFD449E","title":"九江路外滩","lon":"121.485418907","lat":"31.233909491","category":"500","category_name":"未知分类","address":"上海九江路四川中路"},{"poiid":"B2094654DA6FABFF4493","title":"上海古籍书店","lon":"121.4828","lat":"31.2338","category":"125","category_name":"书店","address":"黄浦区福州路401号(近上海书城)"},{"poiid":"B2094757D06BAAFC4099","title":"国际金融中心","lon":"121.48386923","lat":"31.234831898","category":"500","category_name":"未知分类","address":"上海世纪大道8号"},{"poiid":"B2094757D06FA1FB479A","title":"银岛棋牌桌球(山西南路店)","lon":"121.48313","lat":"31.2353","category":"171","category_name":"台球厅","address":"上海黄浦区山西南路99号华盛商务大厦27-29楼(置地广场对面)"},{"poiid":"B2094654DB69AAFA4399","title":"磨磨茶茶","lon":"121.48185800627","lat":"31.233738243004","category":"110","category_name":"其他亚洲菜","address":"黄浦区福州路452号(近福建中路)"},{"poiid":"B2094751D26CA1FE4898","title":"上海WESTIN酒店","lon":"121.483749","lat":"31.234281","category":"247","category_name":"餐饮美食","address":null},{"poiid":"B2094752D76FA1F4479F","title":"星巴克福建中路店","lon":"121.482845","lat":"31.234606","category":"247","category_name":"餐饮美食","address":"福建中路353號"},{"poiid":"B2094757D168A7FD469D","title":"老渔父舟山海鲜面","lon":"121.484289738","lat":"31.2354264108","category":"68","category_name":"快餐厅","address":"黄浦区山东中路222号(近福州路)"},{"poiid":"B209475CD464A1FF419B","title":"顺风港湾","lon":"121.483764","lat":"31.234479","category":"500","category_name":"未知分类","address":"上海市 南京东路299号宏伊广场7楼(近河南中路)"},{"poiid":"B2094757D068A0FA459D","title":"自力教育福州路校区","lon":"121.48357426","lat":"31.232512423","category":"500","category_name":"未知分类","address":"黄浦区福州路355号东门文化商厦5楼(近山东中路)"},{"poiid":"B2094752D264A2F5459A","title":"Citta' espresso club(福州路店)","lon":"121.48427907765","lat":"31.234670708624","category":"65","category_name":"咖啡厅","address":"黄浦区福州路318号102C"},{"poiid":"B2094654DA6FA5FA4893","title":"小梁园明档店","lon":"121.48458","lat":"31.23471","category":"257","category_name":"中餐厅","address":"黄浦区山东中路212号(近河南中路)"},{"poiid":"B2094750D16AA7FA469A","title":"上海外灘華爾道夫酒店","lon":"121.482269","lat":"31.232975","category":"251","category_name":"出行住宿","address":null},{"poiid":"B2094750DA69A3FD4598","title":"甜爱路","lon":"121.483757","lat":"31.234424","category":"500","category_name":"未知分类","address":null},{"poiid":"B209475DD165AAF9439B","title":"年代秀饭堂","lon":"121.484077","lat":"31.234943","category":"247","category_name":"餐饮美食","address":"上海市 上海市黄浦区山东中路208号"},{"poiid":"B2094757D06EAAFB459E","title":"新旺茶餐厅(汉口路店)","lon":"121.48448","lat":"31.23519","category":"72","category_name":"广东菜","address":"黄浦区汉口路309号(山东中路口)"},{"poiid":"B2094757D06FA2FE449F","title":"名人购物中心","lon":"121.484624738","lat":"31.235713417","category":"119","category_name":"商场","address":"上海黄浦区南京东路300号(近河南中路)"},{"poiid":"B2094655D26AABFB419E","title":"M1NT","lon":"121.48417","lat":"31.23492","category":"260","category_name":"其他","address":"黄浦区福州路318号高腾大厦24楼(近山东中路)"},{"poiid":"B2094753D76FAAFA449C","title":"上海滩国泰旗舰店","lon":"121.466011","lat":"31.216125","category":"249","category_name":"购物服务","address":"淮海中路868号"},{"poiid":"B209475CD564A7F84292","title":"上海滩新天地店","lon":"121.47463","lat":"31.22164","category":"119","category_name":"商场","address":"\"太仓路181弄新天地北里15号\r\n\""},{"poiid":"B209475CD564A7F8439E","title":"上海滩中信泰富店","lon":"121.45602","lat":"31.22851","category":"119","category_name":"商场","address":"\"南京西路1168号中信泰富广场，店铺号221.\r\n\""},{"poiid":"B209475CD564A7F84392","title":"上海滩浦东香格里拉店","lon":"121.50058","lat":"31.23634","category":"119","category_name":"商场","address":"浦东富成路33号香格里拉酒店内大堂层"},{"poiid":"B2094757D06EAAFB419F","title":"仁济医院(西部)","lon":"121.48445382","lat":"31.233387977","category":"162","category_name":"医院","address":"黄浦区山东中路145号(近福州路)"},{"poiid":"B2094757D06FA0FA4499","title":"大马头茶餐厅","lon":"121.482732","lat":"31.235167","category":"72","category_name":"广东菜","address":"黄浦区九江路399号华盛大厦1楼(近地铁2号线4号口)"},{"poiid":"B2094655D264A4F8469D","title":"杏花楼福州路总店","lon":"121.48391","lat":"31.23401","category":"67","category_name":"甜品店","address":"黄浦区福州路343号(近山东中路)"},{"poiid":"B2094654DB6BABFD4292","title":"CoCo壱番屋(九江路店)","lon":"121.48282","lat":"31.23544","category":"95","category_name":"日本料理","address":"黄浦区汉口路399号华盛大厦103室(近山西南路)"},{"poiid":"B2094757D06FA3F44693","title":"悦来大酒店","lon":"121.4829","lat":"31.23501","category":"76","category_name":"上海菜","address":"黄浦区汉口路398号华盛大厦4楼(置地广场对面)"},{"poiid":"B2094654DA6FABF9429D","title":"港陆广场","lon":"121.485","lat":"31.2353","category":"46","category_name":"楼宇","address":"黄浦区西藏中路18号(近延安东路)"},{"poiid":"B2094654DB69ABFA4599","title":"上海外文书店(原版书店)","lon":"121.48305","lat":"31.23415","category":"125","category_name":"书店","address":"黄浦区福州路390号4楼(近上海书城)"},{"poiid":"B2094757D06AA3FB479C","title":"东瀛造型名人购物中心店","lon":"121.483731738","lat":"31.2347973974","category":"500","category_name":"未知分类","address":"上海南京东路300号5楼"},{"poiid":"B2094654DA6FA5F54592","title":"振鼎鸡 福州路店","lon":"121.481516054","lat":"31.233358793","category":"68","category_name":"快餐厅","address":"黄浦区福州路440号(近福建中路)"},{"poiid":"B2094654DA6FA5F4489B","title":"高腾大厦","lon":"121.48427","lat":"31.23464","category":"46","category_name":"楼宇","address":"越秀区环市东路362-366号"},{"poiid":"B2094757D069A5F5479A","title":"mint club","lon":"121.48444573","lat":"31.234723395","category":"500","category_name":"未知分类","address":"上海市福州路高腾大厦"},{"poiid":"B2094757D068A2F9419B","title":"三马路酒楼","lon":"121.482737","lat":"31.235036","category":"75","category_name":"浙江菜","address":"黄浦区汉口路413号(近山西南路)"},{"poiid":"B2094654DB6AA6F84798","title":"上海吴宫大酒店","lon":"121.48212","lat":"31.23358","category":"76","category_name":"上海菜","address":"黄浦区福州路431号(近福建中路)"},{"poiid":"B2094750DA68A2F5409D","title":"上海外滩中心威斯汀大饭店","lon":"121.484069","lat":"31.234144","category":"251","category_name":"出行住宿","address":null},{"poiid":"B2094757D164AAFA4692","title":"Puma(置地广场)","lon":"121.48366773","lat":"31.234341387","category":"500","category_name":"未知分类","address":"上海南京东路409-459号7F"},{"poiid":"B2094654DA6FA5F54798","title":"九江路金融广场","lon":"121.48319","lat":"31.23591","category":"46","category_name":"楼宇","address":"上海黄浦区九江路333号"},{"poiid":"B2094757D06FA1F8419C","title":"楚楚园馅饼粥(汉口路店)","lon":"121.48438","lat":"31.23524","category":"68","category_name":"快餐厅","address":"黄浦区汉口路309号(近山东中路)"},{"poiid":"B2094655D264A1F54099","title":"汉庭快捷酒店(上海南京东路店)","lon":"121.48452","lat":"31.235","category":"216","category_name":"经济型连锁酒店","address":"上海市黄浦区山东中路230号(近南京东路)"},{"poiid":"B2094757D06FAAFE449F","title":"Citta'享咖(福州路店)","lon":"121.48456","lat":"31.23418","category":"260","category_name":"其他","address":"黄浦区福州路318号102C(近山东中路)"},{"poiid":"B2094757D06FA0FD489B","title":"外文书店(福州店)","lon":"121.48325","lat":"31.23381","category":"125","category_name":"书店","address":"黄浦区福州路390号(近上海书城)"},{"poiid":"B2094757D66DA4F5459D","title":"味千拉面","lon":"121.482595738","lat":"31.2351284045","category":"247","category_name":"餐饮美食","address":"上海南京东路300号名人购物中心B1层"},{"poiid":"B2094654DA6FA5F5459F","title":"中外运大厦","lon":"121.48178","lat":"31.23399","category":"46","category_name":"楼宇","address":"卫清西路139_149号等"},{"poiid":"B2094757D065AAFC469E","title":"外滩私房菜","lon":"121.48534973","lat":"31.234815397","category":"76","category_name":"上海菜","address":"黄浦区河南中路256号(近福州路)"},{"poiid":"B2094757DA69A2FD489C","title":"上海外文书店日文部","lon":"121.48303","lat":"31.23411","category":"119","category_name":"商场","address":"福州路390号4楼"},{"poiid":"B2094654DA6FABFA489F","title":"上海第二医科大学附属仁济医院","lon":"121.48449","lat":"31.23353","category":"162","category_name":"医院","address":"山东中路145"},{"poiid":"B2094757D06FAAF4429F","title":"上海文化商厦","lon":"121.483677144","lat":"31.2339277566","category":"125","category_name":"书店","address":"黄浦区福州路355号(近山东中路)"},{"poiid":"B2094757D16AA2F9429E","title":"仁济医院综合楼5号楼","lon":"121.483628738","lat":"31.2343413877","category":"500","category_name":"未知分类","address":"上海山东中路145号"},{"poiid":"B209475CD76EA2FA4892","title":"锅源","lon":"121.483749","lat":"31.234395","category":"500","category_name":"未知分类","address":"上海市 黄浦区九江路288号宏伊广场5楼509-510"},{"poiid":"B2094757D069AAFD449E","title":"九江路外滩","lon":"121.485418907","lat":"31.233909491","category":"500","category_name":"未知分类","address":"上海九江路四川中路"},{"poiid":"B2094654DA6FABFF4493","title":"上海古籍书店","lon":"121.4828","lat":"31.2338","category":"125","category_name":"书店","address":"黄浦区福州路401号(近上海书城)"},{"poiid":"B2094757D06BAAFC4099","title":"国际金融中心","lon":"121.48386923","lat":"31.234831898","category":"500","category_name":"未知分类","address":"上海世纪大道8号"},{"poiid":"B2094757D06FA1FB479A","title":"银岛棋牌桌球(山西南路店)","lon":"121.48313","lat":"31.2353","category":"171","category_name":"台球厅","address":"上海黄浦区山西南路99号华盛商务大厦27-29楼(置地广场对面)"},{"poiid":"B2094654DB69AAFA4399","title":"磨磨茶茶","lon":"121.48185800627","lat":"31.233738243004","category":"110","category_name":"其他亚洲菜","address":"黄浦区福州路452号(近福建中路)"},{"poiid":"B2094751D26CA1FE4898","title":"上海WESTIN酒店","lon":"121.483749","lat":"31.234281","category":"247","category_name":"餐饮美食","address":null},{"poiid":"B2094752D76FA1F4479F","title":"星巴克福建中路店","lon":"121.482845","lat":"31.234606","category":"247","category_name":"餐饮美食","address":"福建中路353號"},{"poiid":"B2094757D168A7FD469D","title":"老渔父舟山海鲜面","lon":"121.484289738","lat":"31.2354264108","category":"68","category_name":"快餐厅","address":"黄浦区山东中路222号(近福州路)"},{"poiid":"B209475CD464A1FF419B","title":"顺风港湾","lon":"121.483764","lat":"31.234479","category":"500","category_name":"未知分类","address":"上海市 南京东路299号宏伊广场7楼(近河南中路)"},{"poiid":"B2094757D068A0FA459D","title":"自力教育福州路校区","lon":"121.48357426","lat":"31.232512423","category":"500","category_name":"未知分类","address":"黄浦区福州路355号东门文化商厦5楼(近山东中路)"},{"poiid":"B2094752D264A2F5459A","title":"Citta' espresso club(福州路店)","lon":"121.48427907765","lat":"31.234670708624","category":"65","category_name":"咖啡厅","address":"黄浦区福州路318号102C"},{"poiid":"B2094654DA6FA5FA4893","title":"小梁园明档店","lon":"121.48458","lat":"31.23471","category":"257","category_name":"中餐厅","address":"黄浦区山东中路212号(近河南中路)"},{"poiid":"B2094750D16AA7FA469A","title":"上海外灘華爾道夫酒店","lon":"121.482269","lat":"31.232975","category":"251","category_name":"出行住宿","address":null},{"poiid":"B2094750DA69A3FD4598","title":"甜爱路","lon":"121.483757","lat":"31.234424","category":"500","category_name":"未知分类","address":null},{"poiid":"B209475DD165AAF9439B","title":"年代秀饭堂","lon":"121.484077","lat":"31.234943","category":"247","category_name":"餐饮美食","address":"上海市 上海市黄浦区山东中路208号"},{"poiid":"B2094757D06EAAFB459E","title":"新旺茶餐厅(汉口路店)","lon":"121.48448","lat":"31.23519","category":"72","category_name":"广东菜","address":"黄浦区汉口路309号(山东中路口)"},{"poiid":"B2094757D06FA2FE449F","title":"名人购物中心","lon":"121.484624738","lat":"31.235713417","category":"119","category_name":"商场","address":"上海黄浦区南京东路300号(近河南中路)"},{"poiid":"B2094655D26AABFB419E","title":"M1NT","lon":"121.48417","lat":"31.23492","category":"260","category_name":"其他","address":"黄浦区福州路318号高腾大厦24楼(近山东中路)"},{"poiid":"B2094753D76FAAFA449C","title":"上海滩国泰旗舰店","lon":"121.466011","lat":"31.216125","category":"249","category_name":"购物服务","address":"淮海中路868号"},{"poiid":"B209475CD564A7F84292","title":"上海滩新天地店","lon":"121.47463","lat":"31.22164","category":"119","category_name":"商场","address":"\"太仓路181弄新天地北里15号\r\n\""},{"poiid":"B209475CD564A7F8439E","title":"上海滩中信泰富店","lon":"121.45602","lat":"31.22851","category":"119","category_name":"商场","address":"\"南京西路1168号中信泰富广场，店铺号221.\r\n\""},{"poiid":"B209475CD564A7F84392","title":"上海滩浦东香格里拉店","lon":"121.50058","lat":"31.23634","category":"119","category_name":"商场","address":"浦东富成路33号香格里拉酒店内大堂层"},{"poiid":"B2094757D06EAAFB419F","title":"仁济医院(西部)","lon":"121.48445382","lat":"31.233387977","category":"162","category_name":"医院","address":"黄浦区山东中路145号(近福州路)"},{"poiid":"B2094757D06FA0FA4499","title":"大马头茶餐厅","lon":"121.482732","lat":"31.235167","category":"72","category_name":"广东菜","address":"黄浦区九江路399号华盛大厦1楼(近地铁2号线4号口)"},{"poiid":"B2094655D264A4F8469D","title":"杏花楼福州路总店","lon":"121.48391","lat":"31.23401","category":"67","category_name":"甜品店","address":"黄浦区福州路343号(近山东中路)"},{"poiid":"B2094654DB6BABFD4292","title":"CoCo壱番屋(九江路店)","lon":"121.48282","lat":"31.23544","category":"95","category_name":"日本料理","address":"黄浦区汉口路399号华盛大厦103室(近山西南路)"},{"poiid":"B2094757D06FA3F44693","title":"悦来大酒店","lon":"121.4829","lat":"31.23501","category":"76","category_name":"上海菜","address":"黄浦区汉口路398号华盛大厦4楼(置地广场对面)"},{"poiid":"B2094654DA6FABF9429D","title":"港陆广场","lon":"121.485","lat":"31.2353","category":"46","category_name":"楼宇","address":"黄浦区西藏中路18号(近延安东路)"},{"poiid":"B2094654DB69ABFA4599","title":"上海外文书店(原版书店)","lon":"121.48305","lat":"31.23415","category":"125","category_name":"书店","address":"黄浦区福州路390号4楼(近上海书城)"},{"poiid":"B2094757D06AA3FB479C","title":"东瀛造型名人购物中心店","lon":"121.483731738","lat":"31.2347973974","category":"500","category_name":"未知分类","address":"上海南京东路300号5楼"},{"poiid":"B2094654DA6FA5F54592","title":"振鼎鸡 福州路店","lon":"121.481516054","lat":"31.233358793","category":"68","category_name":"快餐厅","address":"黄浦区福州路440号(近福建中路)"},{"poiid":"B2094654DA6FA5F4489B","title":"高腾大厦","lon":"121.48427","lat":"31.23464","category":"46","category_name":"楼宇","address":"越秀区环市东路362-366号"},{"poiid":"B2094757D069A5F5479A","title":"mint club","lon":"121.48444573","lat":"31.234723395","category":"500","category_name":"未知分类","address":"上海市福州路高腾大厦"},{"poiid":"B2094757D068A2F9419B","title":"三马路酒楼","lon":"121.482737","lat":"31.235036","category":"75","category_name":"浙江菜","address":"黄浦区汉口路413号(近山西南路)"},{"poiid":"B2094654DB6AA6F84798","title":"上海吴宫大酒店","lon":"121.48212","lat":"31.23358","category":"76","category_name":"上海菜","address":"黄浦区福州路431号(近福建中路)"},{"poiid":"B2094750DA68A2F5409D","title":"上海外滩中心威斯汀大饭店","lon":"121.484069","lat":"31.234144","category":"251","category_name":"出行住宿","address":null},{"poiid":"B2094757D164AAFA4692","title":"Puma(置地广场)","lon":"121.48366773","lat":"31.234341387","category":"500","category_name":"未知分类","address":"上海南京东路409-459号7F"},{"poiid":"B2094654DA6FA5F54798","title":"九江路金融广场","lon":"121.48319","lat":"31.23591","category":"46","category_name":"楼宇","address":"上海黄浦区九江路333号"},{"poiid":"B2094757D06FA1F8419C","title":"楚楚园馅饼粥(汉口路店)","lon":"121.48438","lat":"31.23524","category":"68","category_name":"快餐厅","address":"黄浦区汉口路309号(近山东中路)"},{"poiid":"B2094655D264A1F54099","title":"汉庭快捷酒店(上海南京东路店)","lon":"121.48452","lat":"31.235","category":"216","category_name":"经济型连锁酒店","address":"上海市黄浦区山东中路230号(近南京东路)"},{"poiid":"B2094757D06FAAFE449F","title":"Citta'享咖(福州路店)","lon":"121.48456","lat":"31.23418","category":"260","category_name":"其他","address":"黄浦区福州路318号102C(近山东中路)"},{"poiid":"B2094757D06FA0FD489B","title":"外文书店(福州店)","lon":"121.48325","lat":"31.23381","category":"125","category_name":"书店","address":"黄浦区福州路390号(近上海书城)"},{"poiid":"B2094757D66DA4F5459D","title":"味千拉面","lon":"121.482595738","lat":"31.2351284045","category":"247","category_name":"餐饮美食","address":"上海南京东路300号名人购物中心B1层"},{"poiid":"B2094654DA6FA5F5459F","title":"中外运大厦","lon":"121.48178","lat":"31.23399","category":"46","category_name":"楼宇","address":"卫清西路139_149号等"},{"poiid":"B2094757D065AAFC469E","title":"外滩私房菜","lon":"121.48534973","lat":"31.234815397","category":"76","category_name":"上海菜","address":"黄浦区河南中路256号(近福州路)"},{"poiid":"B2094757DA69A2FD489C","title":"上海外文书店日文部","lon":"121.48303","lat":"31.23411","category":"119","category_name":"商场","address":"福州路390号4楼"},{"poiid":"B2094654DA6FABFA489F","title":"上海第二医科大学附属仁济医院","lon":"121.48449","lat":"31.23353","category":"162","category_name":"医院","address":"山东中路145"},{"poiid":"B2094757D06FAAF4429F","title":"上海文化商厦","lon":"121.483677144","lat":"31.2339277566","category":"125","category_name":"书店","address":"黄浦区福州路355号(近山东中路)"},{"poiid":"B2094757D16AA2F9429E","title":"仁济医院综合楼5号楼","lon":"121.483628738","lat":"31.2343413877","category":"500","category_name":"未知分类","address":"上海山东中路145号"},{"poiid":"B209475CD76EA2FA4892","title":"锅源","lon":"121.483749","lat":"31.234395","category":"500","category_name":"未知分类","address":"上海市 黄浦区九江路288号宏伊广场5楼509-510"},{"poiid":"B2094757D069AAFD449E","title":"九江路外滩","lon":"121.485418907","lat":"31.233909491","category":"500","category_name":"未知分类","address":"上海九江路四川中路"},{"poiid":"B2094654DA6FABFF4493","title":"上海古籍书店","lon":"121.4828","lat":"31.2338","category":"125","category_name":"书店","address":"黄浦区福州路401号(近上海书城)"},{"poiid":"B2094757D06BAAFC4099","title":"国际金融中心","lon":"121.48386923","lat":"31.234831898","category":"500","category_name":"未知分类","address":"上海世纪大道8号"},{"poiid":"B2094757D06FA1FB479A","title":"银岛棋牌桌球(山西南路店)","lon":"121.48313","lat":"31.2353","category":"171","category_name":"台球厅","address":"上海黄浦区山西南路99号华盛商务大厦27-29楼(置地广场对面)"},{"poiid":"B2094654DB69AAFA4399","title":"磨磨茶茶","lon":"121.48185800627","lat":"31.233738243004","category":"110","category_name":"其他亚洲菜","address":"黄浦区福州路452号(近福建中路)"},{"poiid":"B2094751D26CA1FE4898","title":"上海WESTIN酒店","lon":"121.483749","lat":"31.234281","category":"247","category_name":"餐饮美食","address":null},{"poiid":"B2094752D76FA1F4479F","title":"星巴克福建中路店","lon":"121.482845","lat":"31.234606","category":"247","category_name":"餐饮美食","address":"福建中路353號"},{"poiid":"B2094757D168A7FD469D","title":"老渔父舟山海鲜面","lon":"121.484289738","lat":"31.2354264108","category":"68","category_name":"快餐厅","address":"黄浦区山东中路222号(近福州路)"},{"poiid":"B209475CD464A1FF419B","title":"顺风港湾","lon":"121.483764","lat":"31.234479","category":"500","category_name":"未知分类","address":"上海市 南京东路299号宏伊广场7楼(近河南中路)"},{"poiid":"B2094757D068A0FA459D","title":"自力教育福州路校区","lon":"121.48357426","lat":"31.232512423","category":"500","category_name":"未知分类","address":"黄浦区福州路355号东门文化商厦5楼(近山东中路)"},{"poiid":"B2094752D264A2F5459A","title":"Citta' espresso club(福州路店)","lon":"121.48427907765","lat":"31.234670708624","category":"65","category_name":"咖啡厅","address":"黄浦区福州路318号102C"},{"poiid":"B2094654DA6FA5FA4893","title":"小梁园明档店","lon":"121.48458","lat":"31.23471","category":"257","category_name":"中餐厅","address":"黄浦区山东中路212号(近河南中路)"},{"poiid":"B2094750D16AA7FA469A","title":"上海外灘華爾道夫酒店","lon":"121.482269","lat":"31.232975","category":"251","category_name":"出行住宿","address":null},{"poiid":"B2094750DA69A3FD4598","title":"甜爱路","lon":"121.483757","lat":"31.234424","category":"500","category_name":"未知分类","address":null},{"poiid":"B209475DD165AAF9439B","title":"年代秀饭堂","lon":"121.484077","lat":"31.234943","category":"247","category_name":"餐饮美食","address":"上海市 上海市黄浦区山东中路208号"}]