[{"poiid":"B2094757D06EAAF4449E","title":"华东师范大学图书馆","lon":"121.45299218","lat":"31.029252247","category":"253","category_name":"校园生活","address":"闵行区东川路500号华东师范大学内(近莲花南路)"},{"poiid":"B2094757D068A0FD4792","title":"华东师范大学(闵行校区)","lon":"121.454761","lat":"31.024937","category":"671","category_name":"高校中心点","address":"闵行区东川路500号华东师范大学内(近莲花南路)"},{"poiid":"B2094757D06FA5F94193","title":"华东师范大学本科生公寓","lon":"121.451945128","lat":"31.0369379445","category":"253","category_name":"校园生活","address":"上海闵行区东川路500号华东师范大学闵行校区"},{"poiid":"B2094757D069A1FC419D","title":"紫竹科学园区","lon":"121.45352312","lat":"31.02358667","category":"45","category_name":"产业园区","address":"上海市闵行区东川路555号"},{"poiid":"B2094757D06FABF94392","title":"华东师范大学研究生公寓","lon":"121.457642","lat":"31.034028","category":"253","category_name":"校园生活","address":"上海闵行区虹梅南路5800号"},{"poiid":"B2094757D068A3F84399","title":"上海东海学院","lon":"121.458895","lat":"31.029841","category":"253","category_name":"校园生活","address":"闵行区虹梅南路6001号(近东川路)"},{"poiid":"B2094757D069A3FE489A","title":"华师大第二教学楼","lon":"121.45323181","lat":"31.030958175","category":"253","category_name":"校园生活","address":"上海闵行区东川路500号华东师范大学闵行校区"},{"poiid":"B2094757D06EAAFD4499","title":"华东师范大学第三教学楼","lon":"121.45367407","lat":"31.026412186","category":"253","category_name":"校园生活","address":"上海闵行区东川路500号华东师范大学闵行校区"},{"poiid":"B2094757D06EAAFB439B","title":"华东师范大学 第一教学楼","lon":"121.45475769","lat":"31.024936676","category":"253","category_name":"校园生活","address":"上海闵行区东川路500号"},{"poiid":"B2094757D06FA1FD499C","title":"华东师范大学第四教学楼","lon":"121.45424652","lat":"31.025007247","category":"253","category_name":"校园生活","address":"上海闵行区东川路500号华东师范大学闵行校区"},{"poiid":"B2094757D06AA0F8459A","title":"闵行交大","lon":"121.445414","lat":"31.030615","category":"253","category_name":"校园生活","address":"上海市闵行区东川路800号"},{"poiid":"B2094757D064A1F9459F","title":"华东师范大学 大学生活动中心C区舞厅","lon":"121.45395257","lat":"31.033214743","category":"500","category_name":"未知分类","address":"上海东川路500号"},{"poiid":"B2094757D06FA6FF4293","title":"微软 上海","lon":"121.45035963","lat":"31.019618749","category":"46","category_name":"楼宇","address":"上海紫星路999号"},{"poiid":"B2094757D06FAAFE4292","title":"上海交通大学电信群楼","lon":"121.441542","lat":"31.025742","category":"253","category_name":"校园生活","address":"上海市闵行区东川路800号"},{"poiid":"B2094757D064A6FC4098","title":"英特尔亚太研发有限公司","lon":"121.448820678","lat":"31.0199671956","category":"46","category_name":"楼宇","address":"上海闵行区紫竹科学园区紫星路880号"},{"poiid":"B2094757D16FA7FA419B","title":"上海交通大学机械与动力学院","lon":"121.444980328","lat":"31.0271016423","category":"500","category_name":"未知分类","address":"上海市闵行区东川路800号"},{"poiid":"B2094757D66FA0FB4393","title":"华东师范大学室内体育馆","lon":"121.44826912","lat":"31.033560875","category":"500","category_name":"未知分类","address":"上海市闵行区东川路500号"},{"poiid":"B2094757D569A3FD409E","title":"东海学院学生公寓","lon":"121.458534","lat":"31.030658","category":"47","category_name":"住宅区","address":"中国上海市闵行区虹梅南路"},{"poiid":"B2094757D065A7F5429A","title":"华东师范大学传播学院","lon":"121.455982245","lat":"31.0347335278","category":"52","category_name":"高等院校","address":"上海闵行区东川路500号华东师范大学闵行校区"},{"poiid":"B2094757D16DA0FF4699","title":"木兰船建大楼","lon":"121.44559445","lat":"31.030406582","category":"253","category_name":"校园生活","address":"上海交通大学(闵行区东川路800号)庙门处"},{"poiid":"B2094757D06BA6FE409C","title":"华师大河西食堂","lon":"121.44917712","lat":"31.0348119","category":"500","category_name":"未知分类","address":"上海市闵行区莲花南路"},{"poiid":"B2094757D165A3F9479B","title":"华东师范大学图书馆四楼","lon":"121.45306912","lat":"31.029283787","category":"181","category_name":"图书馆","address":"上海市闵行区莲花南路"},{"poiid":"B2094757D06AA4FC419B","title":"华东师范大学闵行校大学生活动中心A区201苹果校园体验中心","lon":"121.454175628","lat":"31.032728358","category":"138","category_name":"家电电子卖场","address":"上海东川路500号"},{"poiid":"B2094757D164ABFF429F","title":"虹梅新苑","lon":"121.45612964","lat":"31.041384576","category":"47","category_name":"住宅区","address":"虹梅新苑位于闵行永德路360弄"},{"poiid":"B2094757D06BA2FB4299","title":"华东师范大学实验A楼","lon":"121.45414912","lat":"31.032553854","category":"253","category_name":"校园生活","address":"上海闵行区东川路500号华东师范大学闵行校区"},{"poiid":"B2094757D06AA7F5459C","title":"华东师范大学数学楼","lon":"121.450620528","lat":"31.0336423768","category":"253","category_name":"校园生活","address":"上海东川路500号"},{"poiid":"B2094655D265AAF5419B","title":"华东师范大学(西南门)","lon":"121.44951","lat":"31.02765","category":"52","category_name":"高等院校","address":""},{"poiid":"B2094757D064A1FB459D","title":"华东师范大学体育与健康学院","lon":"121.458413003","lat":"31.0305680921","category":"253","category_name":"校园生活","address":"上海闵行区东川路500号"},{"poiid":"B2094752D66AA6FF4398","title":"华东师范大学音乐系","lon":"121.453058","lat":"31.03114","category":"253","category_name":"校园生活","address":null},{"poiid":"B2094750DA6AA6FC4393","title":"华东师范大学资源与环境科学学院","lon":"121.449554","lat":"31.03322","category":"500","category_name":"未知分类","address":"上海闵行区东川路500号华东师范大学闵行校区"},{"poiid":"B2094655D264A0FF429A","title":"微软中国上海科技园区","lon":"121.45018","lat":"31.02005","category":"45","category_name":"产业园区","address":"紫星路999"},{"poiid":"B2094757D068A5FC4092","title":"季风书园(华师大店)","lon":"121.455200795","lat":"31.0310643959","category":"260","category_name":"其他","address":"上海闵行区虹梅南路5858号教师之家内"},{"poiid":"B2094654DB69A6FA4198","title":"紫竹信息数码港","lon":"121.45375","lat":"31.02316","category":"46","category_name":"楼宇","address":"东川路555号"},{"poiid":"B2094757D06BABF8499F","title":"剑川路","lon":"121.447519","lat":"31.031021","category":"500","category_name":"未知分类","address":"上海剑川路"},{"poiid":"B2094757D069AAFC459A","title":"华东师范大学东操场","lon":"121.44801987","lat":"31.034724149","category":"253","category_name":"校园生活","address":"上海东川路500号"},{"poiid":"B2094757D069A0F44092","title":"华东师范大学外语学院","lon":"121.455313096","lat":"31.027346418","category":"253","category_name":"校园生活","address":"上海闵行区东川路500号华东师范大学闵行校区"},{"poiid":"B2094757D168A3F5429D","title":"华东师范大学数学楼计算机实验室","lon":"121.453049528","lat":"31.0284866708","category":"253","category_name":"校园生活","address":"上海市东川路500号"},{"poiid":"B2094753D66FAAFF4599","title":"超级玛丽量贩式KTV","lon":"121.452975","lat":"31.033394","category":"170","category_name":"KTV","address":"上海市 上海市闵行区"},{"poiid":"B2094655D36CA0FA419D","title":"剑川路莲花南路","lon":"121.44726","lat":"31.03548","category":"38","category_name":"公交车站","address":""},{"poiid":"B2094753D66EABFA429E","title":"上海交通大学闵行校区","lon":"121.44704212960812","lat":"31.032041974089303","category":"52","category_name":"高等院校","address":"上海市 上海 南洋北路"},{"poiid":"B2094750D56CA7FC479B","title":"闵行区教育学院","lon":"121.461166","lat":"31.034742","category":"253","category_name":"校园生活","address":"紫龙路835号"},{"poiid":"B2094757D16AAAFF4893","title":"上海交大机动群楼","lon":"121.44770412","lat":"31.025469708","category":"500","category_name":"未知分类","address":"上海市闵行区宣怀大道"},{"poiid":"B209475CD46FA7F44698","title":"华闵餐厅","lon":"121.45462","lat":"31.030645","category":"500","category_name":"未知分类","address":"上海市 华东师范大学闵行校区"},{"poiid":"B2094757D16DA0FE4198","title":"华师大游泳馆(闵行校区)","lon":"121.45451","lat":"31.02473","category":"220","category_name":"运动场所","address":"闵行区东川路500号华东师范大学体育与健康学院体育场馆(近莲花南路)"},{"poiid":"B209475CD76BA1FB4399","title":"华东师范大学","lon":"121.447967","lat":"31.027359","category":"52","category_name":"高等院校","address":"上海市 上海市闵行区华东师范大学"},{"poiid":"B2094655D36CA1FA4892","title":"莲花南路剑川路","lon":"121.4469","lat":"31.033","category":"38","category_name":"公交车站","address":""},{"poiid":"B2094757D06AA6F4429E","title":"交大闵行生物楼","lon":"121.443048085","lat":"31.029491444","category":"253","category_name":"校园生活","address":"上海交大闵行校区"},{"poiid":"B2094757D16DA6F4419F","title":"上海交通大学农业与生物学院","lon":"121.44184312","lat":"31.03188784","category":"500","category_name":"未知分类","address":"上海市闵行区剑川路"},{"poiid":"B2094757D06FA2FA4993","title":"华东师范大学 华闵食堂","lon":"121.45985341","lat":"31.0302342422","category":"260","category_name":"其他","address":"上海闵行区东川路500号"},{"poiid":"B2094757D66FA0F5419F","title":"华东师大闵行校区人文楼5303学术报告厅","lon":"121.45308177","lat":"31.026732569","category":"500","category_name":"未知分类","address":"上海东川路500号"},{"poiid":"B2094757D06EAAF4449E","title":"华东师范大学图书馆","lon":"121.45299218","lat":"31.029252247","category":"253","category_name":"校园生活","address":"闵行区东川路500号华东师范大学内(近莲花南路)"},{"poiid":"B2094757D068A0FD4792","title":"华东师范大学(闵行校区)","lon":"121.454761","lat":"31.024937","category":"671","category_name":"高校中心点","address":"闵行区东川路500号华东师范大学内(近莲花南路)"},{"poiid":"B2094757D06FA5F94193","title":"华东师范大学本科生公寓","lon":"121.451945128","lat":"31.0369379445","category":"253","category_name":"校园生活","address":"上海闵行区东川路500号华东师范大学闵行校区"},{"poiid":"B2094757D069A1FC419D","title":"紫竹科学园区","lon":"121.45352312","lat":"31.02358667","category":"45","category_name":"产业园区","address":"上海市闵行区东川路555号"},{"poiid":"B2094757D06FABF94392","title":"华东师范大学研究生公寓","lon":"121.457642","lat":"31.034028","category":"253","category_name":"校园生活","address":"上海闵行区虹梅南路5800号"},{"poiid":"B2094757D068A3F84399","title":"上海东海学院","lon":"121.458895","lat":"31.029841","category":"253","category_name":"校园生活","address":"闵行区虹梅南路6001号(近东川路)"},{"poiid":"B2094757D069A3FE489A","title":"华师大第二教学楼","lon":"121.45323181","lat":"31.030958175","category":"253","category_name":"校园生活","address":"上海闵行区东川路500号华东师范大学闵行校区"},{"poiid":"B2094757D06EAAFD4499","title":"华东师范大学第三教学楼","lon":"121.45367407","lat":"31.026412186","category":"253","category_name":"校园生活","address":"上海闵行区东川路500号华东师范大学闵行校区"},{"poiid":"B2094757D06EAAFB439B","title":"华东师范大学 第一教学楼","lon":"121.45475769","lat":"31.024936676","category":"253","category_name":"校园生活","address":"上海闵行区东川路500号"},{"poiid":"B2094757D06FA1FD499C","title":"华东师范大学第四教学楼","lon":"121.45424652","lat":"31.025007247","category":"253","category_name":"校园生活","address":"上海闵行区东川路500号华东师范大学闵行校区"},{"poiid":"B2094757D06AA0F8459A","title":"闵行交大","lon":"121.445414","lat":"31.030615","category":"253","category_name":"校园生活","address":"上海市闵行区东川路800号"},{"poiid":"B2094757D064A1F9459F","title":"华东师范大学 大学生活动中心C区舞厅","lon":"121.45395257","lat":"31.033214743","category":"500","category_name":"未知分类","address":"上海东川路500号"},{"poiid":"B2094757D06FA6FF4293","title":"微软 上海","lon":"121.45035963","lat":"31.019618749","category":"46","category_name":"楼宇","address":"上海紫星路999号"},{"poiid":"B2094757D06FAAFE4292","title":"上海交通大学电信群楼","lon":"121.441542","lat":"31.025742","category":"253","category_name":"校园生活","address":"上海市闵行区东川路800号"},{"poiid":"B2094757D064A6FC4098","title":"英特尔亚太研发有限公司","lon":"121.448820678","lat":"31.0199671956","category":"46","category_name":"楼宇","address":"上海闵行区紫竹科学园区紫星路880号"},{"poiid":"B2094757D16FA7FA419B","title":"上海交通大学机械与动力学院","lon":"121.444980328","lat":"31.0271016423","category":"500","category_name":"未知分类","address":"上海市闵行区东川路800号"},{"poiid":"B2094757D66FA0FB4393","title":"华东师范大学室内体育馆","lon":"121.44826912","lat":"31.033560875","category":"500","category_name":"未知分类","address":"上海市闵行区东川路500号"},{"poiid":"B2094757D569A3FD409E","title":"东海学院学生公寓","lon":"121.458534","lat":"31.030658","category":"47","category_name":"住宅区","address":"中国上海市闵行区虹梅南路"},{"poiid":"B2094757D065A7F5429A","title":"华东师范大学传播学院","lon":"121.455982245","lat":"31.0347335278","category":"52","category_name":"高等院校","address":"上海闵行区东川路500号华东师范大学闵行校区"},{"poiid":"B2094757D16DA0FF4699","title":"木兰船建大楼","lon":"121.44559445","lat":"31.030406582","category":"253","category_name":"校园生活","address":"上海交通大学(闵行区东川路800号)庙门处"},{"poiid":"B2094757D06BA6FE409C","title":"华师大河西食堂","lon":"121.44917712","lat":"31.0348119","category":"500","category_name":"未知分类","address":"上海市闵行区莲花南路"},{"poiid":"B2094757D165A3F9479B","title":"华东师范大学图书馆四楼","lon":"121.45306912","lat":"31.029283787","category":"181","category_name":"图书馆","address":"上海市闵行区莲花南路"},{"poiid":"B2094757D06AA4FC419B","title":"华东师范大学闵行校大学生活动中心A区201苹果校园体验中心","lon":"121.454175628","lat":"31.032728358","category":"138","category_name":"家电电子卖场","address":"上海东川路500号"},{"poiid":"B2094757D164ABFF429F","title":"虹梅新苑","lon":"121.45612964","lat":"31.041384576","category":"47","category_name":"住宅区","address":"虹梅新苑位于闵行永德路360弄"},{"poiid":"B2094757D06BA2FB4299","title":"华东师范大学实验A楼","lon":"121.45414912","lat":"31.032553854","category":"253","category_name":"校园生活","address":"上海闵行区东川路500号华东师范大学闵行校区"},{"poiid":"B2094757D06AA7F5459C","title":"华东师范大学数学楼","lon":"121.450620528","lat":"31.0336423768","category":"253","category_name":"校园生活","address":"上海东川路500号"},{"poiid":"B2094655D265AAF5419B","title":"华东师范大学(西南门)","lon":"121.44951","lat":"31.02765","category":"52","category_name":"高等院校","address":""},{"poiid":"B2094757D064A1FB459D","title":"华东师范大学体育与健康学院","lon":"121.458413003","lat":"31.0305680921","category":"253","category_name":"校园生活","address":"上海闵行区东川路500号"},{"poiid":"B2094752D66AA6FF4398","title":"华东师范大学音乐系","lon":"121.453058","lat":"31.03114","category":"253","category_name":"校园生活","address":null},{"poiid":"B2094750DA6AA6FC4393","title":"华东师范大学资源与环境科学学院","lon":"121.449554","lat":"31.03322","category":"500","category_name":"未知分类","address":"上海闵行区东川路500号华东师范大学闵行校区"},{"poiid":"B2094655D264A0FF429A","title":"微软中国上海科技园区","lon":"121.45018","lat":"31.02005","category":"45","category_name":"产业园区","address":"紫星路999"},{"poiid":"B2094757D068A5FC4092","title":"季风书园(华师大店)","lon":"121.455200795","lat":"31.0310643959","category":"260","category_name":"其他","address":"上海闵行区虹梅南路5858号教师之家内"},{"poiid":"B2094654DB69A6FA4198","title":"紫竹信息数码港","lon":"121.45375","lat":"31.02316","category":"46","category_name":"楼宇","address":"东川路555号"},{"poiid":"B2094757D06BABF8499F","title":"剑川路","lon":"121.447519","lat":"31.031021","category":"500","category_name":"未知分类","address":"上海剑川路"},{"poiid":"B2094757D069AAFC459A","title":"华东师范大学东操场","lon":"121.44801987","lat":"31.034724149","category":"253","category_name":"校园生活","address":"上海东川路500号"},{"poiid":"B2094757D069A0F44092","title":"华东师范大学外语学院","lon":"121.455313096","lat":"31.027346418","category":"253","category_name":"校园生活","address":"上海闵行区东川路500号华东师范大学闵行校区"},{"poiid":"B2094757D168A3F5429D","title":"华东师范大学数学楼计算机实验室","lon":"121.453049528","lat":"31.0284866708","category":"253","category_name":"校园生活","address":"上海市东川路500号"},{"poiid":"B2094753D66FAAFF4599","title":"超级玛丽量贩式KTV","lon":"121.452975","lat":"31.033394","category":"170","category_name":"KTV","address":"上海市 上海市闵行区"},{"poiid":"B2094655D36CA0FA419D","title":"剑川路莲花南路","lon":"121.44726","lat":"31.03548","category":"38","category_name":"公交车站","address":""},{"poiid":"B2094753D66EABFA429E","title":"上海交通大学闵行校区","lon":"121.44704212960812","lat":"31.032041974089303","category":"52","category_name":"高等院校","address":"上海市 上海 南洋北路"},{"poiid":"B2094750D56CA7FC479B","title":"闵行区教育学院","lon":"121.461166","lat":"31.034742","category":"253","category_name":"校园生活","address":"紫龙路835号"},{"poiid":"B2094757D16AAAFF4893","title":"上海交大机动群楼","lon":"121.44770412","lat":"31.025469708","category":"500","category_name":"未知分类","address":"上海市闵行区宣怀大道"},{"poiid":"B209475CD46FA7F44698","title":"华闵餐厅","lon":"121.45462","lat":"31.030645","category":"500","category_name":"未知分类","address":"上海市 华东师范大学闵行校区"},{"poiid":"B2094757D16DA0FE4198","title":"华师大游泳馆(闵行校区)","lon":"121.45451","lat":"31.02473","category":"220","category_name":"运动场所","address":"闵行区东川路500号华东师范大学体育与健康学院体育场馆(近莲花南路)"},{"poiid":"B209475CD76BA1FB4399","title":"华东师范大学","lon":"121.447967","lat":"31.027359","category":"52","category_name":"高等院校","address":"上海市 上海市闵行区华东师范大学"},{"poiid":"B2094655D36CA1FA4892","title":"莲花南路剑川路","lon":"121.4469","lat":"31.033","category":"38","category_name":"公交车站","address":""},{"poiid":"B2094757D06AA6F4429E","title":"交大闵行生物楼","lon":"121.443048085","lat":"31.029491444","category":"253","category_name":"校园生活","address":"上海交大闵行校区"},{"poiid":"B2094757D16DA6F4419F","title":"上海交通大学农业与生物学院","lon":"121.44184312","lat":"31.03188784","category":"500","category_name":"未知分类","address":"上海市闵行区剑川路"},{"poiid":"B2094757D06FA2FA4993","title":"华东师范大学 华闵食堂","lon":"121.45985341","lat":"31.0302342422","category":"260","category_name":"其他","address":"上海闵行区东川路500号"},{"poiid":"B2094757D66FA0F5419F","title":"华东师大闵行校区人文楼5303学术报告厅","lon":"121.45308177","lat":"31.026732569","category":"500","category_name":"未知分类","address":"上海东川路500号"},{"poiid":"B2094757D06EAAF4449E","title":"华东师范大学图书馆","lon":"121.45299218","lat":"31.029252247","category":"253","category_name":"校园生活","address":"闵行区东川路500号华东师范大学内(近莲花南路)"},{"poiid":"B2094757D068A0FD4792","title":"华东师范大学(闵行校区)","lon":"121.454761","lat":"31.024937","category":"671","category_name":"高校中心点","address":"闵行区东川路500号华东师范大学内(近莲花南路)"},{"poiid":"B2094757D06FA5F94193","title":"华东师范大学本科生公寓","lon":"121.451945128","lat":"31.0369379445","category":"253","category_name":"校园生活","address":"上海闵行区东川路500号华东师范大学闵行校区"},{"poiid":"B2094757D069A1FC419D","title":"紫竹科学园区","lon":"121.45352312","lat":"31.02358667","category":"45","category_name":"产业园区","address":"上海市闵行区东川路555号"},{"poiid":"B2094757D06FABF94392","title":"华东师范大学研究生公寓","lon":"121.457642","lat":"31.034028","category":"253","category_name":"校园生活","address":"上海闵行区虹梅南路5800号"},{"poiid":"B2094757D068A3F84399","title":"上海东海学院","lon":"121.458895","lat":"31.029841","category":"253","category_name":"校园生活","address":"闵行区虹梅南路6001号(近东川路)"},{"poiid":"B2094757D069A3FE489A","title":"华师大第二教学楼","lon":"121.45323181","lat":"31.030958175","category":"253","category_name":"校园生活","address":"上海闵行区东川路500号华东师范大学闵行校区"},{"poiid":"B2094757D06EAAFD4499","title":"华东师范大学第三教学楼","lon":"121.45367407","lat":"31.026412186","category":"253","category_name":"校园生活","address":"上海闵行区东川路500号华东师范大学闵行校区"},{"poiid":"B2094757D06EAAFB439B","title":"华东师范大学 第一教学楼","lon":"121.45475769","lat":"31.024936676","category":"253","category_name":"校园生活","address":"上海闵行区东川路500号"},{"poiid":"B2094757D06FA1FD499C","title":"华东师范大学第四教学楼","lon":"121.45424652","lat":"31.025007247","category":"253","category_name":"校园生活","address":"上海闵行区东川路500号华东师范大学闵行校区"},{"poiid":"B2094757D06AA0F8459A","title":"闵行交大","lon":"121.445414","lat":"31.030615","category":"253","category_name":"校园生活","address":"上海市闵行区东川路800号"},{"poiid":"B2094757D064A1F9459F","title":"华东师范大学 大学生活动中心C区舞厅","lon":"121.45395257","lat":"31.033214743","category":"500","category_name":"未知分类","address":"上海东川路500号"},{"poiid":"B2094757D06FA6FF4293","title":"微软 上海","lon":"121.45035963","lat":"31.019618749","category":"46","category_name":"楼宇","address":"上海紫星路999号"},{"poiid":"B2094757D06FAAFE4292","title":"上海交通大学电信群楼","lon":"121.441542","lat":"31.025742","category":"253","category_name":"校园生活","address":"上海市闵行区东川路800号"},{"poiid":"B2094757D064A6FC4098","title":"英特尔亚太研发有限公司","lon":"121.448820678","lat":"31.0199671956","category":"46","category_name":"楼宇","address":"上海闵行区紫竹科学园区紫星路880号"},{"poiid":"B2094757D16FA7FA419B","title":"上海交通大学机械与动力学院","lon":"121.444980328","lat":"31.0271016423","category":"500","category_name":"未知分类","address":"上海市闵行区东川路800号"},{"poiid":"B2094757D66FA0FB4393","title":"华东师范大学室内体育馆","lon":"121.44826912","lat":"31.033560875","category":"500","category_name":"未知分类","address":"上海市闵行区东川路500号"},{"poiid":"B2094757D569A3FD409E","title":"东海学院学生公寓","lon":"121.458534","lat":"31.030658","category":"47","category_name":"住宅区","address":"中国上海市闵行区虹梅南路"},{"poiid":"B2094757D065A7F5429A","title":"华东师范大学传播学院","lon":"121.455982245","lat":"31.0347335278","category":"52","category_name":"高等院校","address":"上海闵行区东川路500号华东师范大学闵行校区"},{"poiid":"B2094757D16DA0FF4699","title":"木兰船建大楼","lon":"121.44559445","lat":"31.030406582","category":"253","category_name":"校园生活","address":"上海交通大学(闵行区东川路800号)庙门处"},{"poiid":"B2094757D06BA6FE409C","title":"华师大河西食堂","lon":"121.44917712","lat":"31.0348119","category":"500","category_name":"未知分类","address":"上海市闵行区莲花南路"},{"poiid":"B2094757D165A3F9479B","title":"华东师范大学图书馆四楼","lon":"121.45306912","lat":"31.029283787","category":"181","category_name":"图书馆","address":"上海市闵行区莲花南路"},{"poiid":"B2094757D06AA4FC419B","title":"华东师范大学闵行校大学生活动中心A区201苹果校园体验中心","lon":"121.454175628","lat":"31.032728358","category":"138","category_name":"家电电子卖场","address":"上海东川路500号"},{"poiid":"B2094757D164ABFF429F","title":"虹梅新苑","lon":"121.45612964","lat":"31.041384576","category":"47","category_name":"住宅区","address":"虹梅新苑位于闵行永德路360弄"},{"poiid":"B2094757D06BA2FB4299","title":"华东师范大学实验A楼","lon":"121.45414912","lat":"31.032553854","category":"253","category_name":"校园生活","address":"上海闵行区东川路500号华东师范大学闵行校区"},{"poiid":"B2094757D06AA7F5459C","title":"华东师范大学数学楼","lon":"121.450620528","lat":"31.0336423768","category":"253","category_name":"校园生活","address":"上海东川路500号"},{"poiid":"B2094655D265AAF5419B","title":"华东师范大学(西南门)","lon":"121.44951","lat":"31.02765","category":"52","category_name":"高等院校","address":""},{"poiid":"B2094757D064A1FB459D","title":"华东师范大学体育与健康学院","lon":"121.458413003","lat":"31.0305680921","category":"253","category_name":"校园生活","address":"上海闵行区东川路500号"},{"poiid":"B2094752D66AA6FF4398","title":"华东师范大学音乐系","lon":"121.453058","lat":"31.03114","category":"253","category_name":"校园生活","address":null},{"poiid":"B2094750DA6AA6FC4393","title":"华东师范大学资源与环境科学学院","lon":"121.449554","lat":"31.03322","category":"500","category_name":"未知分类","address":"上海闵行区东川路500号华东师范大学闵行校区"},{"poiid":"B2094655D264A0FF429A","title":"微软中国上海科技园区","lon":"121.45018","lat":"31.02005","category":"45","category_name":"产业园区","address":"紫星路999"},{"poiid":"B2094757D068A5FC4092","title":"季风书园(华师大店)","lon":"121.455200795","lat":"31.0310643959","category":"260","category_name":"其他","address":"上海闵行区虹梅南路5858号教师之家内"},{"poiid":"B2094654DB69A6FA4198","title":"紫竹信息数码港","lon":"121.45375","lat":"31.02316","category":"46","category_name":"楼宇","address":"东川路555号"},{"poiid":"B2094757D06BABF8499F","title":"剑川路","lon":"121.447519","lat":"31.031021","category":"500","category_name":"未知分类","address":"上海剑川路"},{"poiid":"B2094757D069AAFC459A","title":"华东师范大学东操场","lon":"121.44801987","lat":"31.034724149","category":"253","category_name":"校园生活","address":"上海东川路500号"},{"poiid":"B2094757D069A0F44092","title":"华东师范大学外语学院","lon":"121.455313096","lat":"31.027346418","category":"253","category_name":"校园生活","address":"上海闵行区东川路500号华东师范大学闵行校区"},{"poiid":"B2094757D168A3F5429D","title":"华东师范大学数学楼计算机实验室","lon":"121.453049528","lat":"31.0284866708","category":"253","category_name":"校园生活","address":"上海市东川路500号"},{"poiid":"B2094753D66FAAFF4599","title":"超级玛丽量贩式KTV","lon":"121.452975","lat":"31.033394","category":"170","category_name":"KTV","address":"上海市 上海市闵行区"},{"poiid":"B2094655D36CA0FA419D","title":"剑川路莲花南路","lon":"121.44726","lat":"31.03548","category":"38","category_name":"公交车站","address":""},{"poiid":"B2094753D66EABFA429E","title":"上海交通大学闵行校区","lon":"121.44704212960812","lat":"31.032041974089303","category":"52","category_name":"高等院校","address":"上海市 上海 南洋北路"},{"poiid":"B2094750D56CA7FC479B","title":"闵行区教育学院","lon":"121.461166","lat":"31.034742","category":"253","category_name":"校园生活","address":"紫龙路835号"},{"poiid":"B2094757D16AAAFF4893","title":"上海交大机动群楼","lon":"121.44770412","lat":"31.025469708","category":"500","category_name":"未知分类","address":"上海市闵行区宣怀大道"},{"poiid":"B209475CD46FA7F44698","title":"华闵餐厅","lon":"121.45462","lat":"31.030645","category":"500","category_name":"未知分类","address":"上海市 华东师范大学闵行校区"},{"poiid":"B2094757D16DA0FE4198","title":"华师大游泳馆(闵行校区)","lon":"121.45451","lat":"31.02473","category":"220","category_name":"运动场所","address":"闵行区东川路500号华东师范大学体育与健康学院体育场馆(近莲花南路)"},{"poiid":"B209475CD76BA1FB4399","title":"华东师范大学","lon":"121.447967","lat":"31.027359","category":"52","category_name":"高等院校","address":"上海市 上海市闵行区华东师范大学"},{"poiid":"B2094655D36CA1FA4892","title":"莲花南路剑川路","lon":"121.4469","lat":"31.033","category":"38","category_name":"公交车站","address":""},{"poiid":"B2094757D06AA6F4429E","title":"交大闵行生物楼","lon":"121.443048085","lat":"31.029491444","category":"253","category_name":"校园生活","address":"上海交大闵行校区"},{"poiid":"B2094757D16DA6F4419F","title":"上海交通大学农业与生物学院","lon":"121.44184312","lat":"31.03188784","category":"500","category_name":"未知分类","address":"上海市闵行区剑川路"},{"poiid":"B2094757D06FA2FA4993","title":"华东师范大学 华闵食堂","lon":"121.45985341","lat":"31.0302342422","category":"260","category_name":"其他","address":"上海闵行区东川路500号"},{"poiid":"B2094757D66FA0F5419F","title":"华东师大闵行校区人文楼5303学术报告厅","lon":"121.45308177","lat":"31.026732569","category":"500","category_name":"未知分类","address":"上海东川路500号"},{"poiid":"B2094757D06EAAF4449E","title":"华东师范大学图书馆","lon":"121.45299218","lat":"31.029252247","category":"253","category_name":"校园生活","address":"闵行区东川路500号华东师范大学内(近莲花南路)"},{"poiid":"B2094757D068A0FD4792","title":"华东师范大学(闵行校区)","lon":"121.454761","lat":"31.024937","category":"671","category_name":"高校中心点","address":"闵行区东川路500号华东师范大学内(近莲花南路)"},{"poiid":"B2094757D06FA5F94193","title":"华东师范大学本科生公寓","lon":"121.451945128","lat":"31.0369379445","category":"253","category_name":"校园生活","address":"上海闵行区东川路500号华东师范大学闵行校区"},{"poiid":"B2094757D069A1FC419D","title":"紫竹科学园区","lon":"121.45352312","lat":"31.02358667","category":"45","category_name":"产业园区","address":"上海市闵行区东川路555号"},{"poiid":"B2094757D06FABF94392","title":"华东师范大学研究生公寓","lon":"121.457642","lat":"31.034028","category":"253","category_name":"校园生活","address":"上海闵行区虹梅南路5800号"},{"poiid":"B2094757D068A3F84399","title":"上海东海学院","lon":"121.458895","lat":"31.029841","category":"253","category_name":"校园生活","address":"闵行区虹梅南路6001号(近东川路)"},{"poiid":"B2094757D069A3FE489A","title":"华师大第二教学楼","lon":"121.45323181","lat":"31.030958175","category":"253","category_name":"校园生活","address":"上海闵行区东川路500号华东师范大学闵行校区"},{"poiid":"B2094757D06EAAFD4499","title":"华东师范大学第三教学楼","lon":"121.45367407","lat":"31.026412186","category":"253","category_name":"校园生活","address":"上海闵行区东川路500号华东师范大学闵行校区"},{"poiid":"B2094757D06EAAFB439B","title":"华东师范大学 第一教学楼","lon":"121.45475769","lat":"31.024936676","category":"253","category_name":"校园生活","address":"上海闵行区东川路500号"},{"poiid":"B2094757D06FA1FD499C","title":"华东师范大学第四教学楼","lon":"121.45424652","lat":"31.025007247","category":"253","category_name":"校园生活","address":"上海闵行区东川路500号华东师范大学闵行校区"},{"poiid":"B2094757D06AA0F8459A","title":"闵行交大","lon":"121.445414","lat":"31.030615","category":"253","category_name":"校园生活","address":"上海市闵行区东川路800号"},{"poiid":"B2094757D064A1F9459F","title":"华东师范大学 大学生活动中心C区舞厅","lon":"121.45395257","lat":"31.033214743","category":"500","category_name":"未知分类","address":"上海东川路500号"},{"poiid":"B2094757D06FA6FF4293","title":"微软 上海","lon":"121.45035963","lat":"31.019618749","category":"46","category_name":"楼宇","address":"上海紫星路999号"},{"poiid":"B2094757D06FAAFE4292","title":"上海交通大学电信群楼","lon":"121.441542","lat":"31.025742","category":"253","category_name":"校园生活","address":"上海市闵行区东川路800号"},{"poiid":"B2094757D064A6FC4098","title":"英特尔亚太研发有限公司","lon":"121.448820678","lat":"31.0199671956","category":"46","category_name":"楼宇","address":"上海闵行区紫竹科学园区紫星路880号"},{"poiid":"B2094757D16FA7FA419B","title":"上海交通大学机械与动力学院","lon":"121.444980328","lat":"31.0271016423","category":"500","category_name":"未知分类","address":"上海市闵行区东川路800号"},{"poiid":"B2094757D66FA0FB4393","title":"华东师范大学室内体育馆","lon":"121.44826912","lat":"31.033560875","category":"500","category_name":"未知分类","address":"上海市闵行区东川路500号"},{"poiid":"B2094757D569A3FD409E","title":"东海学院学生公寓","lon":"121.458534","lat":"31.030658","category":"47","category_name":"住宅区","address":"中国上海市闵行区虹梅南路"},{"poiid":"B2094757D065A7F5429A","title":"华东师范大学传播学院","lon":"121.455982245","lat":"31.0347335278","category":"52","category_name":"高等院校","address":"上海闵行区东川路500号华东师范大学闵行校区"},{"poiid":"B2094757D16DA0FF4699","title":"木兰船建大楼","lon":"121.44559445","lat":"31.030406582","category":"253","category_name":"校园生活","address":"上海交通大学(闵行区东川路800号)庙门处"},{"poiid":"B2094757D06BA6FE409C","title":"华师大河西食堂","lon":"121.44917712","lat":"31.0348119","category":"500","category_name":"未知分类","address":"上海市闵行区莲花南路"},{"poiid":"B2094757D165A3F9479B","title":"华东师范大学图书馆四楼","lon":"121.45306912","lat":"31.029283787","category":"181","category_name":"图书馆","address":"上海市闵行区莲花南路"},{"poiid":"B2094757D06AA4FC419B","title":"华东师范大学闵行校大学生活动中心A区201苹果校园体验中心","lon":"121.454175628","lat":"31.032728358","category":"138","category_name":"家电电子卖场","address":"上海东川路500号"},{"poiid":"B2094757D164ABFF429F","title":"虹梅新苑","lon":"121.45612964","lat":"31.041384576","category":"47","category_name":"住宅区","address":"虹梅新苑位于闵行永德路360弄"},{"poiid":"B2094757D06BA2FB4299","title":"华东师范大学实验A楼","lon":"121.45414912","lat":"31.032553854","category":"253","category_name":"校园生活","address":"上海闵行区东川路500号华东师范大学闵行校区"},{"poiid":"B2094757D06AA7F5459C","title":"华东师范大学数学楼","lon":"121.450620528","lat":"31.0336423768","category":"253","category_name":"校园生活","address":"上海东川路500号"},{"poiid":"B2094655D265AAF5419B","title":"华东师范大学(西南门)","lon":"121.44951","lat":"31.02765","category":"52","category_name":"高等院校","address":""},{"poiid":"B2094757D064A1FB459D","title":"华东师范大学体育与健康学院","lon":"121.458413003","lat":"31.0305680921","category":"253","category_name":"校园生活","address":"上海闵行区东川路500号"},{"poiid":"B2094752D66AA6FF4398","title":"华东师范大学音乐系","lon":"121.453058","lat":"31.03114","category":"253","category_name":"校园生活","address":null},{"poiid":"B2094750DA6AA6FC4393","title":"华东师范大学资源与环境科学学院","lon":"121.449554","lat":"31.03322","category":"500","category_name":"未知分类","address":"上海闵行区东川路500号华东师范大学闵行校区"},{"poiid":"B2094655D264A0FF429A","title":"微软中国上海科技园区","lon":"121.45018","lat":"31.02005","category":"45","category_name":"产业园区","address":"紫星路999"},{"poiid":"B2094757D068A5FC4092","title":"季风书园(华师大店)","lon":"121.455200795","lat":"31.0310643959","category":"260","category_name":"其他","address":"上海闵行区虹梅南路5858号教师之家内"},{"poiid":"B2094654DB69A6FA4198","title":"紫竹信息数码港","lon":"121.45375","lat":"31.02316","category":"46","category_name":"楼宇","address":"东川路555号"},{"poiid":"B2094757D06BABF8499F","title":"剑川路","lon":"121.447519","lat":"31.031021","category":"500","category_name":"未知分类","address":"上海剑川路"},{"poiid":"B2094757D069AAFC459A","title":"华东师范大学东操场","lon":"121.44801987","lat":"31.034724149","category":"253","category_name":"校园生活","address":"上海东川路500号"},{"poiid":"B2094757D069A0F44092","title":"华东师范大学外语学院","lon":"121.455313096","lat":"31.027346418","category":"253","category_name":"校园生活","address":"上海闵行区东川路500号华东师范大学闵行校区"},{"poiid":"B2094757D168A3F5429D","title":"华东师范大学数学楼计算机实验室","lon":"121.453049528","lat":"31.0284866708","category":"253","category_name":"校园生活","address":"上海市东川路500号"},{"poiid":"B2094753D66FAAFF4599","title":"超级玛丽量贩式KTV","lon":"121.452975","lat":"31.033394","category":"170","category_name":"KTV","address":"上海市 上海市闵行区"},{"poiid":"B2094655D36CA0FA419D","title":"剑川路莲花南路","lon":"121.44726","lat":"31.03548","category":"38","category_name":"公交车站","address":""},{"poiid":"B2094753D66EABFA429E","title":"上海交通大学闵行校区","lon":"121.44704212960812","lat":"31.032041974089303","category":"52","category_name":"高等院校","address":"上海市 上海 南洋北路"},{"poiid":"B2094750D56CA7FC479B","title":"闵行区教育学院","lon":"121.461166","lat":"31.034742","category":"253","category_name":"校园生活","address":"紫龙路835号"},{"poiid":"B2094757D16AAAFF4893","title":"上海交大机动群楼","lon":"121.44770412","lat":"31.025469708","category":"500","category_name":"未知分类","address":"上海市闵行区宣怀大道"},{"poiid":"B209475CD46FA7F44698","title":"华闵餐厅","lon":"121.45462","lat":"31.030645","category":"500","category_name":"未知分类","address":"上海市 华东师范大学闵行校区"},{"poiid":"B2094757D16DA0FE4198","title":"华师大游泳馆(闵行校区)","lon":"121.45451","lat":"31.02473","category":"220","category_name":"运动场所","address":"闵行区东川路500号华东师范大学体育与健康学院体育场馆(近莲花南路)"},{"poiid":"B209475CD76BA1FB4399","title":"华东师范大学","lon":"121.447967","lat":"31.027359","category":"52","category_name":"高等院校","address":"上海市 上海市闵行区华东师范大学"},{"poiid":"B2094655D36CA1FA4892","title":"莲花南路剑川路","lon":"121.4469","lat":"31.033","category":"38","category_name":"公交车站","address":""},{"poiid":"B2094757D06AA6F4429E","title":"交大闵行生物楼","lon":"121.443048085","lat":"31.029491444","category":"253","category_name":"校园生活","address":"上海交大闵行校区"},{"poiid":"B2094757D16DA6F4419F","title":"上海交通大学农业与生物学院","lon":"121.44184312","lat":"31.03188784","category":"500","category_name":"未知分类","address":"上海市闵行区剑川路"},{"poiid":"B2094757D06FA2FA4993","title":"华东师范大学 华闵食堂","lon":"121.45985341","lat":"31.0302342422","category":"260","category_name":"其他","address":"上海闵行区东川路500号"},{"poiid":"B2094757D66FA0F5419F","title":"华东师大闵行校区人文楼5303学术报告厅","lon":"121.45308177","lat":"31.026732569","category":"500","category_name":"未知分类","address":"上海东川路500号"}]