[{"poiid":"B2094757D06FA2FF4199","title":"辛香汇(百联虹口店)","lon":"121.46732","lat":"31.27265","category":"71","category_name":"四川菜","address":"虹口区同丰路699号百联虹口购物中心4楼(近北宝兴路)"},{"poiid":"B2094757D068A1FE4293","title":"上海大学(延长校区)","lon":"121.4596366","lat":"31.2729947","category":"671","category_name":"高校中心点","address":"闸北区延长路149号上海大学内(近共和新路)"},{"poiid":"B2094655D265A3FB4193","title":"老李羊蝎子涮锅(闸北店)","lon":"121.46549","lat":"31.27302","category":"86","category_name":"火锅店","address":"闸北区北宝兴路182号(近洛川东路)"},{"poiid":"B2094757D06FA7FF409C","title":"好乐迪(百联虹口店)","lon":"121.464715103","lat":"31.2709744338","category":"170","category_name":"KTV","address":"上海同丰路699号"},{"poiid":"B2094757D06FA0FD469E","title":"嘉利明珠城","lon":"121.4636","lat":"31.273628","category":"47","category_name":"住宅区","address":"平型关路377弄"},{"poiid":"B2094757D06EAAF94992","title":"巴麦隆烤肉(延长路店)","lon":"121.4633","lat":"31.27423","category":"68","category_name":"快餐厅","address":"闸北区延长路22号(北宝兴路延长路)"},{"poiid":"B2094757D064A0F5469C","title":"盱眙倪氏龙虾","lon":"121.46307659","lat":"31.275142231","category":"68","category_name":"快餐厅","address":"闸北区北宝兴路276号(近延长路)"},{"poiid":"B2094757D16DA0F4429C","title":"斗牛士虹口百联店","lon":"121.466597103","lat":"31.272898474","category":"94","category_name":"西餐厅","address":"虹口区同丰路699号百联购物中心4楼1-102室(北宝兴路洛川东路)"},{"poiid":"B2094757D068A7F84893","title":"餐匠韩国料理自助烤肉","lon":"121.461091","lat":"31.273771","category":"96","category_name":"韩国料理","address":"闸北区延长路123号(近平型关路)"},{"poiid":"B2094757D06FA0F5459F","title":"肯德基 KFC (洛川店)","lon":"121.463477","lat":"31.271269","category":"68","category_name":"快餐厅","address":"闸北区洛川东路221号(近平型关路)"},{"poiid":"B2094655D26BA1FC459F","title":"平型关路延长路","lon":"121.46224","lat":"31.27288","category":"38","category_name":"公交车站","address":""},{"poiid":"B2094655D265AAF54192","title":"木房子特色烤鱼 北宝兴路店","lon":"121.464176054","lat":"31.274371793","category":"71","category_name":"四川菜","address":"闸北区北宝兴路252号(近延长路)"},{"poiid":"B2094757D06FA4FA4099","title":"北宝兴路洛川东路","lon":"121.465499","lat":"31.273287","category":"500","category_name":"未知分类","address":"上海北宝兴路洛川东路"},{"poiid":"B2094757D16DAAFC469A","title":"唐老鸭海味鲜大排档","lon":"121.465463903","lat":"31.2729590753","category":"68","category_name":"快餐厅","address":"闸北区北宝兴路191号(近同丰路)"},{"poiid":"B2094757D06AA5F94298","title":"琪琪面馆","lon":"121.46451","lat":"31.27442","category":"68","category_name":"快餐厅","address":"闸北区北宝兴路296-298号(近延长路)"},{"poiid":"B2094654D56DA5FB469E","title":"满陆港式茶餐厅","lon":"121.4619621241","lat":"31.273795392152","category":"72","category_name":"广东菜","address":"上海闸北区延长路36号(近北宝兴路)  "},{"poiid":"B2094750D56EA3FC469A","title":"炭路者","lon":"121.462196","lat":"31.27342","category":"68","category_name":"快餐厅","address":"闸北区延长路48号(近平型关路)"},{"poiid":"B2094757D06BA2FD4492","title":"99靓味馆","lon":"121.464987103","lat":"31.2732196807","category":"72","category_name":"广东菜","address":"虹口区同丰路699号百联购物中心4楼(近北宝兴路)"},{"poiid":"B2094757D065A6F8469D","title":"小杨生煎虹口百联店","lon":"121.465121503","lat":"31.2733471834","category":"68","category_name":"快餐厅","address":"虹口区同丰路699号虹口百联第一食品B1楼(近北宝兴路)"},{"poiid":"B2094757D76EA3FB459A","title":"王记烧烤","lon":"121.461826054","lat":"31.273692793","category":"68","category_name":"快餐厅","address":"闸北区延长路48号(近平型关路)"},{"poiid":"B2094655D26CA0FE449B","title":"吴记私房菜","lon":"121.46363","lat":"31.27469","category":"76","category_name":"上海菜","address":"闸北区延长路10号(近北宝兴路)"},{"poiid":"B2094757D064A5F5499C","title":"闸北公园后门","lon":"121.463266814","lat":"31.2708266105","category":"680","category_name":"楼宇机构","address":"上海平型关路368号"},{"poiid":"B2094757D06FA1F8409A","title":"新理想家园","lon":"121.462","lat":"31.2734","category":"47","category_name":"住宅区","address":"上海闸北区洛川中路600弄"},{"poiid":"B2094750D664A2F5459D","title":"老李羊羯子(北宝兴路店)","lon":"121.464","lat":"31.2747","category":"86","category_name":"火锅店","address":"虹口区北宝兴路182号(近凉城路)"},{"poiid":"B2094757D16CABFA429B","title":"老北京羊羯子王","lon":"121.46442","lat":"31.27408","category":"86","category_name":"火锅店","address":"闸北区北宝兴路280号(近延长路)"},{"poiid":"B2094757D66CA2FF499F","title":"味千拉面(百联虹口店)","lon":"121.465550103","lat":"31.2732004803","category":"95","category_name":"日本料理","address":"虹口区同丰路699号百联虹口购物中心"},{"poiid":"B2094757D06BA2FB4498","title":"新招鲜","lon":"121.46321052","lat":"31.274461966","category":"500","category_name":"未知分类","address":"上海延长路北宝兴路"},{"poiid":"B2094757D069ABF9489B","title":"鼎中鼎澳门豆捞(北宝兴路店)","lon":"121.46598","lat":"31.27226","category":"86","category_name":"火锅店","address":"闸北区北宝兴路152号嘉利明珠城(洛川东路口)"},{"poiid":"B2094752DB6AAAFB4398","title":"阿木龙虾","lon":"121.461442","lat":"31.274998","category":"247","category_name":"餐饮美食","address":"上海市 闸北区北宝兴路167号"},{"poiid":"B2094757D06AA1FE439A","title":"川川川川菜馆 平型关路店","lon":"121.4610364434","lat":"31.274981176498","category":"71","category_name":"四川菜","address":"闸北区平型关路603号(近民晏路)"},{"poiid":"B2094655D26CA7FE439E","title":"中国移动延长路营业厅","lon":"121.46334","lat":"31.27451","category":"151","category_name":"电讯营业厅","address":""},{"poiid":"B2094757D168A3FF429F","title":"喜德棒","lon":"121.464461","lat":"31.274155","category":"247","category_name":"餐饮美食","address":"上海北宝兴路268号"},{"poiid":"B2094757D469A6FE409C","title":"胡杨林烧烤吧","lon":"121.4656292","lat":"31.2731649","category":"68","category_name":"快餐厅","address":"虹口区北宝兴路155号(近洛川东路)"},{"poiid":"B2094757D16DA6FC4592","title":"食其家 百联虹口店","lon":"121.465132903","lat":"31.2733495834","category":"95","category_name":"日本料理","address":"虹口区同丰路699号百联虹口购物中心(北宝兴路洛川东路)"},{"poiid":"B2094654D56DA5FA4198","title":"意和家园","lon":"121.4642","lat":"31.276701","category":"47","category_name":"住宅区","address":"上海市虹口区株洲路290号"},{"poiid":"B2094757D16FA7FC4598","title":"添添生滚粥","lon":"121.463815103","lat":"31.2736744902","category":"247","category_name":"餐饮美食","address":"上海延长路近平型关路"},{"poiid":"B2094654D56DA5FB4693","title":"文峰美发美容延长店","lon":"121.46363","lat":"31.27452","category":"148","category_name":"美容美发店","address":"共和新路"},{"poiid":"B2094654D56DA5FB4392","title":"峥宸苑","lon":"121.46225","lat":"31.2749","category":"47","category_name":"住宅区","address":"上海延长路99弄"},{"poiid":"B2094757D16CA0FE499A","title":"禾绿寿司(虹口百联店)","lon":"121.465366103","lat":"31.2735044867","category":"247","category_name":"餐饮美食","address":"上海同丰路699号"},{"poiid":"B2094655D26DA4FF459D","title":"好德便利No.685","lon":"121.46347","lat":"31.2746","category":"117","category_name":"便民商店/便利店","address":"延长路20"},{"poiid":"B2094757D164ABFE459E","title":"源日本涮锅铁板烧","lon":"121.464347103","lat":"31.2750735195","category":"247","category_name":"餐饮美食","address":"上海北宝兴路280号"},{"poiid":"B2094757D165A7FB4693","title":"66路北宝兴路民晏路站","lon":"121.46300648","lat":"31.275271806","category":"38","category_name":"公交车站","address":"上海北宝兴路(近民晏路)"},{"poiid":"B2094654D56DA5FB449A","title":"快客No.6729","lon":"121.46254","lat":"31.27453","category":"117","category_name":"便民商店/便利店","address":"延长路101"},{"poiid":"B2094753D265AAFE489A","title":"炭路者串烤(延长路店)","lon":"121.461941","lat":"31.273737","category":"96","category_name":"韩国料理","address":"闸北区延长路50号"},{"poiid":"B2094757D16CA6F4429F","title":"上海移动通信(延长路营业厅)","lon":"121.4634","lat":"31.27431","category":"249","category_name":"购物服务","address":"上海闸北区延长路24-26号(近平型关路)  "},{"poiid":"B2094654D56CA3FE499B","title":"香吧岛龙虾延长店","lon":"121.46126","lat":"31.27386","category":"257","category_name":"中餐厅","address":""},{"poiid":"B2094757D165A3FD449D","title":"韩林碳烤","lon":"121.465628103","lat":"31.2726234683","category":"247","category_name":"餐饮美食","address":"上海虹口百联四楼"},{"poiid":"B2094655D36CA5F5459F","title":"北宝兴路民晏路","lon":"121.46324","lat":"31.27519","category":"38","category_name":"公交车站","address":""},{"poiid":"B2094655D265A5FE409C","title":"湘阁里辣","lon":"121.46459","lat":"31.27412","category":"77","category_name":"湖南菜","address":"上海闸北区北宝兴路258号(近延长路)  "},{"poiid":"B2094757D56DA2F8469B","title":"韩林炭烤 北宝兴路店","lon":"121.4643048","lat":"31.2746797","category":"247","category_name":"餐饮美食","address":"北宝兴路288号近延长路"},{"poiid":"B2094757D06FA2FF4199","title":"辛香汇(百联虹口店)","lon":"121.46732","lat":"31.27265","category":"71","category_name":"四川菜","address":"虹口区同丰路699号百联虹口购物中心4楼(近北宝兴路)"},{"poiid":"B2094757D068A1FE4293","title":"上海大学(延长校区)","lon":"121.4596366","lat":"31.2729947","category":"671","category_name":"高校中心点","address":"闸北区延长路149号上海大学内(近共和新路)"},{"poiid":"B2094655D265A3FB4193","title":"老李羊蝎子涮锅(闸北店)","lon":"121.46549","lat":"31.27302","category":"86","category_name":"火锅店","address":"闸北区北宝兴路182号(近洛川东路)"},{"poiid":"B2094757D06FA7FF409C","title":"好乐迪(百联虹口店)","lon":"121.464715103","lat":"31.2709744338","category":"170","category_name":"KTV","address":"上海同丰路699号"},{"poiid":"B2094757D06FA0FD469E","title":"嘉利明珠城","lon":"121.4636","lat":"31.273628","category":"47","category_name":"住宅区","address":"平型关路377弄"},{"poiid":"B2094757D06EAAF94992","title":"巴麦隆烤肉(延长路店)","lon":"121.4633","lat":"31.27423","category":"68","category_name":"快餐厅","address":"闸北区延长路22号(北宝兴路延长路)"},{"poiid":"B2094757D064A0F5469C","title":"盱眙倪氏龙虾","lon":"121.46307659","lat":"31.275142231","category":"68","category_name":"快餐厅","address":"闸北区北宝兴路276号(近延长路)"},{"poiid":"B2094757D16DA0F4429C","title":"斗牛士虹口百联店","lon":"121.466597103","lat":"31.272898474","category":"94","category_name":"西餐厅","address":"虹口区同丰路699号百联购物中心4楼1-102室(北宝兴路洛川东路)"},{"poiid":"B2094757D068A7F84893","title":"餐匠韩国料理自助烤肉","lon":"121.461091","lat":"31.273771","category":"96","category_name":"韩国料理","address":"闸北区延长路123号(近平型关路)"},{"poiid":"B2094757D06FA0F5459F","title":"肯德基 KFC (洛川店)","lon":"121.463477","lat":"31.271269","category":"68","category_name":"快餐厅","address":"闸北区洛川东路221号(近平型关路)"},{"poiid":"B2094655D26BA1FC459F","title":"平型关路延长路","lon":"121.46224","lat":"31.27288","category":"38","category_name":"公交车站","address":""},{"poiid":"B2094655D265AAF54192","title":"木房子特色烤鱼 北宝兴路店","lon":"121.464176054","lat":"31.274371793","category":"71","category_name":"四川菜","address":"闸北区北宝兴路252号(近延长路)"},{"poiid":"B2094757D06FA4FA4099","title":"北宝兴路洛川东路","lon":"121.465499","lat":"31.273287","category":"500","category_name":"未知分类","address":"上海北宝兴路洛川东路"},{"poiid":"B2094757D16DAAFC469A","title":"唐老鸭海味鲜大排档","lon":"121.465463903","lat":"31.2729590753","category":"68","category_name":"快餐厅","address":"闸北区北宝兴路191号(近同丰路)"},{"poiid":"B2094757D06AA5F94298","title":"琪琪面馆","lon":"121.46451","lat":"31.27442","category":"68","category_name":"快餐厅","address":"闸北区北宝兴路296-298号(近延长路)"},{"poiid":"B2094654D56DA5FB469E","title":"满陆港式茶餐厅","lon":"121.4619621241","lat":"31.273795392152","category":"72","category_name":"广东菜","address":"上海闸北区延长路36号(近北宝兴路)  "},{"poiid":"B2094750D56EA3FC469A","title":"炭路者","lon":"121.462196","lat":"31.27342","category":"68","category_name":"快餐厅","address":"闸北区延长路48号(近平型关路)"},{"poiid":"B2094757D06BA2FD4492","title":"99靓味馆","lon":"121.464987103","lat":"31.2732196807","category":"72","category_name":"广东菜","address":"虹口区同丰路699号百联购物中心4楼(近北宝兴路)"},{"poiid":"B2094757D065A6F8469D","title":"小杨生煎虹口百联店","lon":"121.465121503","lat":"31.2733471834","category":"68","category_name":"快餐厅","address":"虹口区同丰路699号虹口百联第一食品B1楼(近北宝兴路)"},{"poiid":"B2094757D76EA3FB459A","title":"王记烧烤","lon":"121.461826054","lat":"31.273692793","category":"68","category_name":"快餐厅","address":"闸北区延长路48号(近平型关路)"},{"poiid":"B2094655D26CA0FE449B","title":"吴记私房菜","lon":"121.46363","lat":"31.27469","category":"76","category_name":"上海菜","address":"闸北区延长路10号(近北宝兴路)"},{"poiid":"B2094757D064A5F5499C","title":"闸北公园后门","lon":"121.463266814","lat":"31.2708266105","category":"680","category_name":"楼宇机构","address":"上海平型关路368号"},{"poiid":"B2094757D06FA1F8409A","title":"新理想家园","lon":"121.462","lat":"31.2734","category":"47","category_name":"住宅区","address":"上海闸北区洛川中路600弄"},{"poiid":"B2094750D664A2F5459D","title":"老李羊羯子(北宝兴路店)","lon":"121.464","lat":"31.2747","category":"86","category_name":"火锅店","address":"虹口区北宝兴路182号(近凉城路)"},{"poiid":"B2094757D16CABFA429B","title":"老北京羊羯子王","lon":"121.46442","lat":"31.27408","category":"86","category_name":"火锅店","address":"闸北区北宝兴路280号(近延长路)"},{"poiid":"B2094757D66CA2FF499F","title":"味千拉面(百联虹口店)","lon":"121.465550103","lat":"31.2732004803","category":"95","category_name":"日本料理","address":"虹口区同丰路699号百联虹口购物中心"},{"poiid":"B2094757D06BA2FB4498","title":"新招鲜","lon":"121.46321052","lat":"31.274461966","category":"500","category_name":"未知分类","address":"上海延长路北宝兴路"},{"poiid":"B2094757D069ABF9489B","title":"鼎中鼎澳门豆捞(北宝兴路店)","lon":"121.46598","lat":"31.27226","category":"86","category_name":"火锅店","address":"闸北区北宝兴路152号嘉利明珠城(洛川东路口)"},{"poiid":"B2094752DB6AAAFB4398","title":"阿木龙虾","lon":"121.461442","lat":"31.274998","category":"247","category_name":"餐饮美食","address":"上海市 闸北区北宝兴路167号"},{"poiid":"B2094757D06AA1FE439A","title":"川川川川菜馆 平型关路店","lon":"121.4610364434","lat":"31.274981176498","category":"71","category_name":"四川菜","address":"闸北区平型关路603号(近民晏路)"},{"poiid":"B2094655D26CA7FE439E","title":"中国移动延长路营业厅","lon":"121.46334","lat":"31.27451","category":"151","category_name":"电讯营业厅","address":""},{"poiid":"B2094757D168A3FF429F","title":"喜德棒","lon":"121.464461","lat":"31.274155","category":"247","category_name":"餐饮美食","address":"上海北宝兴路268号"},{"poiid":"B2094757D469A6FE409C","title":"胡杨林烧烤吧","lon":"121.4656292","lat":"31.2731649","category":"68","category_name":"快餐厅","address":"虹口区北宝兴路155号(近洛川东路)"},{"poiid":"B2094757D16DA6FC4592","title":"食其家 百联虹口店","lon":"121.465132903","lat":"31.2733495834","category":"95","category_name":"日本料理","address":"虹口区同丰路699号百联虹口购物中心(北宝兴路洛川东路)"},{"poiid":"B2094654D56DA5FA4198","title":"意和家园","lon":"121.4642","lat":"31.276701","category":"47","category_name":"住宅区","address":"上海市虹口区株洲路290号"},{"poiid":"B2094757D16FA7FC4598","title":"添添生滚粥","lon":"121.463815103","lat":"31.2736744902","category":"247","category_name":"餐饮美食","address":"上海延长路近平型关路"},{"poiid":"B2094654D56DA5FB4693","title":"文峰美发美容延长店","lon":"121.46363","lat":"31.27452","category":"148","category_name":"美容美发店","address":"共和新路"},{"poiid":"B2094654D56DA5FB4392","title":"峥宸苑","lon":"121.46225","lat":"31.2749","category":"47","category_name":"住宅区","address":"上海延长路99弄"},{"poiid":"B2094757D16CA0FE499A","title":"禾绿寿司(虹口百联店)","lon":"121.465366103","lat":"31.2735044867","category":"247","category_name":"餐饮美食","address":"上海同丰路699号"},{"poiid":"B2094655D26DA4FF459D","title":"好德便利No.685","lon":"121.46347","lat":"31.2746","category":"117","category_name":"便民商店/便利店","address":"延长路20"},{"poiid":"B2094757D164ABFE459E","title":"源日本涮锅铁板烧","lon":"121.464347103","lat":"31.2750735195","category":"247","category_name":"餐饮美食","address":"上海北宝兴路280号"},{"poiid":"B2094757D165A7FB4693","title":"66路北宝兴路民晏路站","lon":"121.46300648","lat":"31.275271806","category":"38","category_name":"公交车站","address":"上海北宝兴路(近民晏路)"},{"poiid":"B2094654D56DA5FB449A","title":"快客No.6729","lon":"121.46254","lat":"31.27453","category":"117","category_name":"便民商店/便利店","address":"延长路101"},{"poiid":"B2094753D265AAFE489A","title":"炭路者串烤(延长路店)","lon":"121.461941","lat":"31.273737","category":"96","category_name":"韩国料理","address":"闸北区延长路50号"},{"poiid":"B2094757D16CA6F4429F","title":"上海移动通信(延长路营业厅)","lon":"121.4634","lat":"31.27431","category":"249","category_name":"购物服务","address":"上海闸北区延长路24-26号(近平型关路)  "},{"poiid":"B2094654D56CA3FE499B","title":"香吧岛龙虾延长店","lon":"121.46126","lat":"31.27386","category":"257","category_name":"中餐厅","address":""},{"poiid":"B2094757D165A3FD449D","title":"韩林碳烤","lon":"121.465628103","lat":"31.2726234683","category":"247","category_name":"餐饮美食","address":"上海虹口百联四楼"},{"poiid":"B2094655D36CA5F5459F","title":"北宝兴路民晏路","lon":"121.46324","lat":"31.27519","category":"38","category_name":"公交车站","address":""},{"poiid":"B2094655D265A5FE409C","title":"湘阁里辣","lon":"121.46459","lat":"31.27412","category":"77","category_name":"湖南菜","address":"上海闸北区北宝兴路258号(近延长路)  "},{"poiid":"B2094757D56DA2F8469B","title":"韩林炭烤 北宝兴路店","lon":"121.4643048","lat":"31.2746797","category":"247","category_name":"餐饮美食","address":"北宝兴路288号近延长路"},{"poiid":"B2094757D06FA2FF4199","title":"辛香汇(百联虹口店)","lon":"121.46732","lat":"31.27265","category":"71","category_name":"四川菜","address":"虹口区同丰路699号百联虹口购物中心4楼(近北宝兴路)"},{"poiid":"B2094757D068A1FE4293","title":"上海大学(延长校区)","lon":"121.4596366","lat":"31.2729947","category":"671","category_name":"高校中心点","address":"闸北区延长路149号上海大学内(近共和新路)"},{"poiid":"B2094655D265A3FB4193","title":"老李羊蝎子涮锅(闸北店)","lon":"121.46549","lat":"31.27302","category":"86","category_name":"火锅店","address":"闸北区北宝兴路182号(近洛川东路)"},{"poiid":"B2094757D06FA7FF409C","title":"好乐迪(百联虹口店)","lon":"121.464715103","lat":"31.2709744338","category":"170","category_name":"KTV","address":"上海同丰路699号"},{"poiid":"B2094757D06FA0FD469E","title":"嘉利明珠城","lon":"121.4636","lat":"31.273628","category":"47","category_name":"住宅区","address":"平型关路377弄"},{"poiid":"B2094757D06EAAF94992","title":"巴麦隆烤肉(延长路店)","lon":"121.4633","lat":"31.27423","category":"68","category_name":"快餐厅","address":"闸北区延长路22号(北宝兴路延长路)"},{"poiid":"B2094757D064A0F5469C","title":"盱眙倪氏龙虾","lon":"121.46307659","lat":"31.275142231","category":"68","category_name":"快餐厅","address":"闸北区北宝兴路276号(近延长路)"},{"poiid":"B2094757D16DA0F4429C","title":"斗牛士虹口百联店","lon":"121.466597103","lat":"31.272898474","category":"94","category_name":"西餐厅","address":"虹口区同丰路699号百联购物中心4楼1-102室(北宝兴路洛川东路)"},{"poiid":"B2094757D068A7F84893","title":"餐匠韩国料理自助烤肉","lon":"121.461091","lat":"31.273771","category":"96","category_name":"韩国料理","address":"闸北区延长路123号(近平型关路)"},{"poiid":"B2094757D06FA0F5459F","title":"肯德基 KFC (洛川店)","lon":"121.463477","lat":"31.271269","category":"68","category_name":"快餐厅","address":"闸北区洛川东路221号(近平型关路)"},{"poiid":"B2094655D26BA1FC459F","title":"平型关路延长路","lon":"121.46224","lat":"31.27288","category":"38","category_name":"公交车站","address":""},{"poiid":"B2094655D265AAF54192","title":"木房子特色烤鱼 北宝兴路店","lon":"121.464176054","lat":"31.274371793","category":"71","category_name":"四川菜","address":"闸北区北宝兴路252号(近延长路)"},{"poiid":"B2094757D06FA4FA4099","title":"北宝兴路洛川东路","lon":"121.465499","lat":"31.273287","category":"500","category_name":"未知分类","address":"上海北宝兴路洛川东路"},{"poiid":"B2094757D16DAAFC469A","title":"唐老鸭海味鲜大排档","lon":"121.465463903","lat":"31.2729590753","category":"68","category_name":"快餐厅","address":"闸北区北宝兴路191号(近同丰路)"},{"poiid":"B2094757D06AA5F94298","title":"琪琪面馆","lon":"121.46451","lat":"31.27442","category":"68","category_name":"快餐厅","address":"闸北区北宝兴路296-298号(近延长路)"},{"poiid":"B2094654D56DA5FB469E","title":"满陆港式茶餐厅","lon":"121.4619621241","lat":"31.273795392152","category":"72","category_name":"广东菜","address":"上海闸北区延长路36号(近北宝兴路)  "},{"poiid":"B2094750D56EA3FC469A","title":"炭路者","lon":"121.462196","lat":"31.27342","category":"68","category_name":"快餐厅","address":"闸北区延长路48号(近平型关路)"},{"poiid":"B2094757D06BA2FD4492","title":"99靓味馆","lon":"121.464987103","lat":"31.2732196807","category":"72","category_name":"广东菜","address":"虹口区同丰路699号百联购物中心4楼(近北宝兴路)"},{"poiid":"B2094757D065A6F8469D","title":"小杨生煎虹口百联店","lon":"121.465121503","lat":"31.2733471834","category":"68","category_name":"快餐厅","address":"虹口区同丰路699号虹口百联第一食品B1楼(近北宝兴路)"},{"poiid":"B2094757D76EA3FB459A","title":"王记烧烤","lon":"121.461826054","lat":"31.273692793","category":"68","category_name":"快餐厅","address":"闸北区延长路48号(近平型关路)"},{"poiid":"B2094655D26CA0FE449B","title":"吴记私房菜","lon":"121.46363","lat":"31.27469","category":"76","category_name":"上海菜","address":"闸北区延长路10号(近北宝兴路)"},{"poiid":"B2094757D064A5F5499C","title":"闸北公园后门","lon":"121.463266814","lat":"31.2708266105","category":"680","category_name":"楼宇机构","address":"上海平型关路368号"},{"poiid":"B2094757D06FA1F8409A","title":"新理想家园","lon":"121.462","lat":"31.2734","category":"47","category_name":"住宅区","address":"上海闸北区洛川中路600弄"},{"poiid":"B2094750D664A2F5459D","title":"老李羊羯子(北宝兴路店)","lon":"121.464","lat":"31.2747","category":"86","category_name":"火锅店","address":"虹口区北宝兴路182号(近凉城路)"},{"poiid":"B2094757D16CABFA429B","title":"老北京羊羯子王","lon":"121.46442","lat":"31.27408","category":"86","category_name":"火锅店","address":"闸北区北宝兴路280号(近延长路)"},{"poiid":"B2094757D66CA2FF499F","title":"味千拉面(百联虹口店)","lon":"121.465550103","lat":"31.2732004803","category":"95","category_name":"日本料理","address":"虹口区同丰路699号百联虹口购物中心"},{"poiid":"B2094757D06BA2FB4498","title":"新招鲜","lon":"121.46321052","lat":"31.274461966","category":"500","category_name":"未知分类","address":"上海延长路北宝兴路"},{"poiid":"B2094757D069ABF9489B","title":"鼎中鼎澳门豆捞(北宝兴路店)","lon":"121.46598","lat":"31.27226","category":"86","category_name":"火锅店","address":"闸北区北宝兴路152号嘉利明珠城(洛川东路口)"},{"poiid":"B2094752DB6AAAFB4398","title":"阿木龙虾","lon":"121.461442","lat":"31.274998","category":"247","category_name":"餐饮美食","address":"上海市 闸北区北宝兴路167号"},{"poiid":"B2094757D06AA1FE439A","title":"川川川川菜馆 平型关路店","lon":"121.4610364434","lat":"31.274981176498","category":"71","category_name":"四川菜","address":"闸北区平型关路603号(近民晏路)"},{"poiid":"B2094655D26CA7FE439E","title":"中国移动延长路营业厅","lon":"121.46334","lat":"31.27451","category":"151","category_name":"电讯营业厅","address":""},{"poiid":"B2094757D168A3FF429F","title":"喜德棒","lon":"121.464461","lat":"31.274155","category":"247","category_name":"餐饮美食","address":"上海北宝兴路268号"},{"poiid":"B2094757D469A6FE409C","title":"胡杨林烧烤吧","lon":"121.4656292","lat":"31.2731649","category":"68","category_name":"快餐厅","address":"虹口区北宝兴路155号(近洛川东路)"},{"poiid":"B2094757D16DA6FC4592","title":"食其家 百联虹口店","lon":"121.465132903","lat":"31.2733495834","category":"95","category_name":"日本料理","address":"虹口区同丰路699号百联虹口购物中心(北宝兴路洛川东路)"},{"poiid":"B2094654D56DA5FA4198","title":"意和家园","lon":"121.4642","lat":"31.276701","category":"47","category_name":"住宅区","address":"上海市虹口区株洲路290号"},{"poiid":"B2094757D16FA7FC4598","title":"添添生滚粥","lon":"121.463815103","lat":"31.2736744902","category":"247","category_name":"餐饮美食","address":"上海延长路近平型关路"},{"poiid":"B2094654D56DA5FB4693","title":"文峰美发美容延长店","lon":"121.46363","lat":"31.27452","category":"148","category_name":"美容美发店","address":"共和新路"},{"poiid":"B2094654D56DA5FB4392","title":"峥宸苑","lon":"121.46225","lat":"31.2749","category":"47","category_name":"住宅区","address":"上海延长路99弄"},{"poiid":"B2094757D16CA0FE499A","title":"禾绿寿司(虹口百联店)","lon":"121.465366103","lat":"31.2735044867","category":"247","category_name":"餐饮美食","address":"上海同丰路699号"},{"poiid":"B2094655D26DA4FF459D","title":"好德便利No.685","lon":"121.46347","lat":"31.2746","category":"117","category_name":"便民商店/便利店","address":"延长路20"},{"poiid":"B2094757D164ABFE459E","title":"源日本涮锅铁板烧","lon":"121.464347103","lat":"31.2750735195","category":"247","category_name":"餐饮美食","address":"上海北宝兴路280号"},{"poiid":"B2094757D165A7FB4693","title":"66路北宝兴路民晏路站","lon":"121.46300648","lat":"31.275271806","category":"38","category_name":"公交车站","address":"上海北宝兴路(近民晏路)"},{"poiid":"B2094654D56DA5FB449A","title":"快客No.6729","lon":"121.46254","lat":"31.27453","category":"117","category_name":"便民商店/便利店","address":"延长路101"},{"poiid":"B2094753D265AAFE489A","title":"炭路者串烤(延长路店)","lon":"121.461941","lat":"31.273737","category":"96","category_name":"韩国料理","address":"闸北区延长路50号"},{"poiid":"B2094757D16CA6F4429F","title":"上海移动通信(延长路营业厅)","lon":"121.4634","lat":"31.27431","category":"249","category_name":"购物服务","address":"上海闸北区延长路24-26号(近平型关路)  "},{"poiid":"B2094654D56CA3FE499B","title":"香吧岛龙虾延长店","lon":"121.46126","lat":"31.27386","category":"257","category_name":"中餐厅","address":""},{"poiid":"B2094757D165A3FD449D","title":"韩林碳烤","lon":"121.465628103","lat":"31.2726234683","category":"247","category_name":"餐饮美食","address":"上海虹口百联四楼"},{"poiid":"B2094655D36CA5F5459F","title":"北宝兴路民晏路","lon":"121.46324","lat":"31.27519","category":"38","category_name":"公交车站","address":""},{"poiid":"B2094655D265A5FE409C","title":"湘阁里辣","lon":"121.46459","lat":"31.27412","category":"77","category_name":"湖南菜","address":"上海闸北区北宝兴路258号(近延长路)  "},{"poiid":"B2094757D56DA2F8469B","title":"韩林炭烤 北宝兴路店","lon":"121.4643048","lat":"31.2746797","category":"247","category_name":"餐饮美食","address":"北宝兴路288号近延长路"},{"poiid":"B2094757D06FA2FF4199","title":"辛香汇(百联虹口店)","lon":"121.46732","lat":"31.27265","category":"71","category_name":"四川菜","address":"虹口区同丰路699号百联虹口购物中心4楼(近北宝兴路)"},{"poiid":"B2094757D068A1FE4293","title":"上海大学(延长校区)","lon":"121.4596366","lat":"31.2729947","category":"671","category_name":"高校中心点","address":"闸北区延长路149号上海大学内(近共和新路)"},{"poiid":"B2094655D265A3FB4193","title":"老李羊蝎子涮锅(闸北店)","lon":"121.46549","lat":"31.27302","category":"86","category_name":"火锅店","address":"闸北区北宝兴路182号(近洛川东路)"},{"poiid":"B2094757D06FA7FF409C","title":"好乐迪(百联虹口店)","lon":"121.464715103","lat":"31.2709744338","category":"170","category_name":"KTV","address":"上海同丰路699号"},{"poiid":"B2094757D06FA0FD469E","title":"嘉利明珠城","lon":"121.4636","lat":"31.273628","category":"47","category_name":"住宅区","address":"平型关路377弄"},{"poiid":"B2094757D06EAAF94992","title":"巴麦隆烤肉(延长路店)","lon":"121.4633","lat":"31.27423","category":"68","category_name":"快餐厅","address":"闸北区延长路22号(北宝兴路延长路)"},{"poiid":"B2094757D064A0F5469C","title":"盱眙倪氏龙虾","lon":"121.46307659","lat":"31.275142231","category":"68","category_name":"快餐厅","address":"闸北区北宝兴路276号(近延长路)"},{"poiid":"B2094757D16DA0F4429C","title":"斗牛士虹口百联店","lon":"121.466597103","lat":"31.272898474","category":"94","category_name":"西餐厅","address":"虹口区同丰路699号百联购物中心4楼1-102室(北宝兴路洛川东路)"},{"poiid":"B2094757D068A7F84893","title":"餐匠韩国料理自助烤肉","lon":"121.461091","lat":"31.273771","category":"96","category_name":"韩国料理","address":"闸北区延长路123号(近平型关路)"},{"poiid":"B2094757D06FA0F5459F","title":"肯德基 KFC (洛川店)","lon":"121.463477","lat":"31.271269","category":"68","category_name":"快餐厅","address":"闸北区洛川东路221号(近平型关路)"},{"poiid":"B2094655D26BA1FC459F","title":"平型关路延长路","lon":"121.46224","lat":"31.27288","category":"38","category_name":"公交车站","address":""},{"poiid":"B2094655D265AAF54192","title":"木房子特色烤鱼 北宝兴路店","lon":"121.464176054","lat":"31.274371793","category":"71","category_name":"四川菜","address":"闸北区北宝兴路252号(近延长路)"},{"poiid":"B2094757D06FA4FA4099","title":"北宝兴路洛川东路","lon":"121.465499","lat":"31.273287","category":"500","category_name":"未知分类","address":"上海北宝兴路洛川东路"},{"poiid":"B2094757D16DAAFC469A","title":"唐老鸭海味鲜大排档","lon":"121.465463903","lat":"31.2729590753","category":"68","category_name":"快餐厅","address":"闸北区北宝兴路191号(近同丰路)"},{"poiid":"B2094757D06AA5F94298","title":"琪琪面馆","lon":"121.46451","lat":"31.27442","category":"68","category_name":"快餐厅","address":"闸北区北宝兴路296-298号(近延长路)"},{"poiid":"B2094654D56DA5FB469E","title":"满陆港式茶餐厅","lon":"121.4619621241","lat":"31.273795392152","category":"72","category_name":"广东菜","address":"上海闸北区延长路36号(近北宝兴路)  "},{"poiid":"B2094750D56EA3FC469A","title":"炭路者","lon":"121.462196","lat":"31.27342","category":"68","category_name":"快餐厅","address":"闸北区延长路48号(近平型关路)"},{"poiid":"B2094757D06BA2FD4492","title":"99靓味馆","lon":"121.464987103","lat":"31.2732196807","category":"72","category_name":"广东菜","address":"虹口区同丰路699号百联购物中心4楼(近北宝兴路)"},{"poiid":"B2094757D065A6F8469D","title":"小杨生煎虹口百联店","lon":"121.465121503","lat":"31.2733471834","category":"68","category_name":"快餐厅","address":"虹口区同丰路699号虹口百联第一食品B1楼(近北宝兴路)"},{"poiid":"B2094757D76EA3FB459A","title":"王记烧烤","lon":"121.461826054","lat":"31.273692793","category":"68","category_name":"快餐厅","address":"闸北区延长路48号(近平型关路)"},{"poiid":"B2094655D26CA0FE449B","title":"吴记私房菜","lon":"121.46363","lat":"31.27469","category":"76","category_name":"上海菜","address":"闸北区延长路10号(近北宝兴路)"},{"poiid":"B2094757D064A5F5499C","title":"闸北公园后门","lon":"121.463266814","lat":"31.2708266105","category":"680","category_name":"楼宇机构","address":"上海平型关路368号"},{"poiid":"B2094757D06FA1F8409A","title":"新理想家园","lon":"121.462","lat":"31.2734","category":"47","category_name":"住宅区","address":"上海闸北区洛川中路600弄"},{"poiid":"B2094750D664A2F5459D","title":"老李羊羯子(北宝兴路店)","lon":"121.464","lat":"31.2747","category":"86","category_name":"火锅店","address":"虹口区北宝兴路182号(近凉城路)"},{"poiid":"B2094757D16CABFA429B","title":"老北京羊羯子王","lon":"121.46442","lat":"31.27408","category":"86","category_name":"火锅店","address":"闸北区北宝兴路280号(近延长路)"},{"poiid":"B2094757D66CA2FF499F","title":"味千拉面(百联虹口店)","lon":"121.465550103","lat":"31.2732004803","category":"95","category_name":"日本料理","address":"虹口区同丰路699号百联虹口购物中心"},{"poiid":"B2094757D06BA2FB4498","title":"新招鲜","lon":"121.46321052","lat":"31.274461966","category":"500","category_name":"未知分类","address":"上海延长路北宝兴路"},{"poiid":"B2094757D069ABF9489B","title":"鼎中鼎澳门豆捞(北宝兴路店)","lon":"121.46598","lat":"31.27226","category":"86","category_name":"火锅店","address":"闸北区北宝兴路152号嘉利明珠城(洛川东路口)"},{"poiid":"B2094752DB6AAAFB4398","title":"阿木龙虾","lon":"121.461442","lat":"31.274998","category":"247","category_name":"餐饮美食","address":"上海市 闸北区北宝兴路167号"},{"poiid":"B2094757D06AA1FE439A","title":"川川川川菜馆 平型关路店","lon":"121.4610364434","lat":"31.274981176498","category":"71","category_name":"四川菜","address":"闸北区平型关路603号(近民晏路)"},{"poiid":"B2094655D26CA7FE439E","title":"中国移动延长路营业厅","lon":"121.46334","lat":"31.27451","category":"151","category_name":"电讯营业厅","address":""},{"poiid":"B2094757D168A3FF429F","title":"喜德棒","lon":"121.464461","lat":"31.274155","category":"247","category_name":"餐饮美食","address":"上海北宝兴路268号"},{"poiid":"B2094757D469A6FE409C","title":"胡杨林烧烤吧","lon":"121.4656292","lat":"31.2731649","category":"68","category_name":"快餐厅","address":"虹口区北宝兴路155号(近洛川东路)"},{"poiid":"B2094757D16DA6FC4592","title":"食其家 百联虹口店","lon":"121.465132903","lat":"31.2733495834","category":"95","category_name":"日本料理","address":"虹口区同丰路699号百联虹口购物中心(北宝兴路洛川东路)"},{"poiid":"B2094654D56DA5FA4198","title":"意和家园","lon":"121.4642","lat":"31.276701","category":"47","category_name":"住宅区","address":"上海市虹口区株洲路290号"},{"poiid":"B2094757D16FA7FC4598","title":"添添生滚粥","lon":"121.463815103","lat":"31.2736744902","category":"247","category_name":"餐饮美食","address":"上海延长路近平型关路"},{"poiid":"B2094654D56DA5FB4693","title":"文峰美发美容延长店","lon":"121.46363","lat":"31.27452","category":"148","category_name":"美容美发店","address":"共和新路"},{"poiid":"B2094654D56DA5FB4392","title":"峥宸苑","lon":"121.46225","lat":"31.2749","category":"47","category_name":"住宅区","address":"上海延长路99弄"},{"poiid":"B2094757D16CA0FE499A","title":"禾绿寿司(虹口百联店)","lon":"121.465366103","lat":"31.2735044867","category":"247","category_name":"餐饮美食","address":"上海同丰路699号"},{"poiid":"B2094655D26DA4FF459D","title":"好德便利No.685","lon":"121.46347","lat":"31.2746","category":"117","category_name":"便民商店/便利店","address":"延长路20"},{"poiid":"B2094757D164ABFE459E","title":"源日本涮锅铁板烧","lon":"121.464347103","lat":"31.2750735195","category":"247","category_name":"餐饮美食","address":"上海北宝兴路280号"},{"poiid":"B2094757D165A7FB4693","title":"66路北宝兴路民晏路站","lon":"121.46300648","lat":"31.275271806","category":"38","category_name":"公交车站","address":"上海北宝兴路(近民晏路)"},{"poiid":"B2094654D56DA5FB449A","title":"快客No.6729","lon":"121.46254","lat":"31.27453","category":"117","category_name":"便民商店/便利店","address":"延长路101"},{"poiid":"B2094753D265AAFE489A","title":"炭路者串烤(延长路店)","lon":"121.461941","lat":"31.273737","category":"96","category_name":"韩国料理","address":"闸北区延长路50号"},{"poiid":"B2094757D16CA6F4429F","title":"上海移动通信(延长路营业厅)","lon":"121.4634","lat":"31.27431","category":"249","category_name":"购物服务","address":"上海闸北区延长路24-26号(近平型关路)  "},{"poiid":"B2094654D56CA3FE499B","title":"香吧岛龙虾延长店","lon":"121.46126","lat":"31.27386","category":"257","category_name":"中餐厅","address":""},{"poiid":"B2094757D165A3FD449D","title":"韩林碳烤","lon":"121.465628103","lat":"31.2726234683","category":"247","category_name":"餐饮美食","address":"上海虹口百联四楼"},{"poiid":"B2094655D36CA5F5459F","title":"北宝兴路民晏路","lon":"121.46324","lat":"31.27519","category":"38","category_name":"公交车站","address":""},{"poiid":"B2094655D265A5FE409C","title":"湘阁里辣","lon":"121.46459","lat":"31.27412","category":"77","category_name":"湖南菜","address":"上海闸北区北宝兴路258号(近延长路)  "},{"poiid":"B2094757D56DA2F8469B","title":"韩林炭烤 北宝兴路店","lon":"121.4643048","lat":"31.2746797","category":"247","category_name":"餐饮美食","address":"北宝兴路288号近延长路"}]