[{"poiid":"B2094654DB6BA5F4439B","title":"X2创意空间","lon":"121.46488","lat":"31.1983","category":"45","category_name":"产业园区","address":"西湖区古墩路沿线"},{"poiid":"B2094757D069A2FF489E","title":"上海市会计从业资格考试茶陵路考点","lon":"121.46706959","lat":"31.197133599","category":"190","category_name":"培训机构","address":"上海市徐汇区茶陵路200号(近瞿溪路)"},{"poiid":"B2094757D068A6F54598","title":"公安博物馆","lon":"121.468262304","lat":"31.198382026","category":"182","category_name":"博物馆","address":"徐汇区瑞金南路518号"},{"poiid":"B2094753D76FAAFA449C","title":"上海滩国泰旗舰店","lon":"121.466011","lat":"31.216125","category":"249","category_name":"购物服务","address":"淮海中路868号"},{"poiid":"B209475CD564A7F84292","title":"上海滩新天地店","lon":"121.47463","lat":"31.22164","category":"119","category_name":"商场","address":"\"太仓路181弄新天地北里15号\r\n\""},{"poiid":"B2094757D06FA5FE459F","title":"鼎园瑞峰公寓酒店","lon":"121.467066","lat":"31.201305","category":"217","category_name":"旅馆招待所","address":"徐汇区斜土路1077号(瑞金南路口)"},{"poiid":"B2094751DB65AAF9419B","title":"不争天下秘制龙虾","lon":"121.46509","lat":"31.19947","category":"68","category_name":"快餐厅","address":"徐汇区斜土路1179号(近大木桥路)"},{"poiid":"B2094655D26FA6FB499B","title":"瑞金南苑","lon":"121.46726","lat":"31.19966","category":"47","category_name":"住宅区","address":"瑞金南路458弄1-23号"},{"poiid":"B2094757D06AA2FF4698","title":"香满堂(斜土路二店)","lon":"121.46561","lat":"31.19949","category":"68","category_name":"快餐厅","address":"徐汇区斜土路1185号(近茶陵北路)"},{"poiid":"B2094757D168A1FB4099","title":"四号线鲁班路地铁站","lon":"121.469253338","lat":"31.1998083521","category":"36","category_name":"地铁站","address":"上海瞿溪路1110号"},{"poiid":"B2094654DA6EA3F5499F","title":"之俊大厦","lon":"121.46408","lat":"31.19934","category":"46","category_name":"楼宇","address":"浦东临港新城主城区申港大道200号"},{"poiid":"B2094757DA6EAAFD409B","title":"爱可焙EcoBake","lon":"121.465036999998","lat":"31.1990479999999","category":"67","category_name":"甜品店","address":"徐汇区斜土路1222号(近茶陵北路)"},{"poiid":"B2094757D66BA5F44798","title":"宝荔茶餐厅","lon":"121.465371054","lat":"31.199067793","category":"72","category_name":"广东菜","address":"徐汇区茶陵北路20号楼裙房(近斜土路)"},{"poiid":"B2094655D36CA2FA439F","title":"瑞金南路瞿溪路","lon":"121.46942","lat":"31.19686","category":"38","category_name":"公交车站","address":"上海瞿溪路"},{"poiid":"B2094757D06EAAF8439A","title":"土豆网办公室 Tudou Office","lon":"121.46459198","lat":"31.198873519","category":"46","category_name":"楼宇","address":"上海斜土路1238号六号楼"},{"poiid":"B2094757D06BA6F9479E","title":"上海市注册会计师服务中心","lon":"121.46636123","lat":"31.197638693","category":"260","category_name":"其他","address":"上海茶陵路200号"},{"poiid":"B2094757D06AABFF499D","title":"丝庐花语","lon":"121.46703","lat":"31.195787","category":"249","category_name":"购物服务","address":"上海茶陵路78号零陵路29号"},{"poiid":"B2094757D465A4F84498","title":"尚记","lon":"121.465211","lat":"31.19833","category":"76","category_name":"上海菜","address":"徐汇区茶陵北路28号(近斜土路)"},{"poiid":"B2094757D468A4F9499D","title":"良轩","lon":"121.46484699574","lat":"31.198938415694","category":"76","category_name":"上海菜","address":"徐汇区茶陵北路10号(斜土路口)"},{"poiid":"B2094757D069A1FC449F","title":"泓和坊老北京涮锅(斜土路店)","lon":"121.46557","lat":"31.1997","category":"86","category_name":"火锅店","address":"徐汇区斜土路1179号(近瑞金南路)"},{"poiid":"B2094654DA6DA4FD409E","title":"KTV","lon":"121.46485","lat":"31.19709","category":"170","category_name":"KTV","address":""},{"poiid":"B2094654DB64A6FB419D","title":"汉庭快捷(大木桥路店)","lon":"121.46448","lat":"31.19735","category":"216","category_name":"经济型连锁酒店","address":"徐汇区茶陵路333号(近大木桥路)"},{"poiid":"B2094654DA6DA5F94292","title":"新湖云庭","lon":"121.468","lat":"31.1983","category":"47","category_name":"住宅区","address":"上海市徐汇区小木桥路538弄"},{"poiid":"B2094654DB6BA5F44293","title":"沈大成 斜土路店","lon":"121.46654468668","lat":"31.200357618331","category":"68","category_name":"快餐厅","address":"卢湾区斜土路1120号(近瑞金南路)"},{"poiid":"B2094757D068A3FC489C","title":"7天连锁酒店(大木桥店)","lon":"121.46675","lat":"31.19754","category":"217","category_name":"旅馆招待所","address":"徐汇区茶陵路218号(近瞿溪路)"},{"poiid":"B2094757D06BA0FB419C","title":"日晖医院","lon":"121.464444753","lat":"31.1965844114","category":"162","category_name":"医院","address":"徐汇区零陵北路2号(近茶陵路)"},{"poiid":"B2094655D268A3FB4493","title":"现代都市工业园区","lon":"121.46795","lat":"31.19843","category":"45","category_name":"产业园区","address":"瑞金南路500号"},{"poiid":"B2094655D26FA6F4449F","title":"天合雅园","lon":"121.46564","lat":"31.196671","category":"47","category_name":"住宅区","address":"天合雅园位于徐汇茶陵北路,零陵路"},{"poiid":"B2094757D665A3FC439C","title":"栖凤渡湘菜","lon":"121.465483054","lat":"31.198696793","category":"77","category_name":"湖南菜","address":"徐汇区茶陵北路8号(近斜土路)"},{"poiid":"B2094757D064A7F54793","title":"上海市职业能力考试院","lon":"121.46774573","lat":"31.200262661","category":"52","category_name":"高等院校","address":"卢湾区瑞金南路438号(近斜土路)"},{"poiid":"B2094654DA6DA5F94899","title":"泰莱大厦","lon":"121.467","lat":"31.196","category":"47","category_name":"住宅区","address":"上海市徐汇区中山南二路508号"},{"poiid":"B2094757D568A5FC429B","title":"天天理发店(茶陵路)","lon":"121.46684652","lat":"31.19799045","category":"148","category_name":"美容美发店","address":"茶陵路223-1"},{"poiid":"B2094655D26FA5FC499D","title":"日晖新城","lon":"121.46569","lat":"31.19633","category":"47","category_name":"住宅区","address":"零陵北路9弄15"},{"poiid":"B2094757D16CABF44399","title":"凯睿爱宠之家","lon":"121.46562273","lat":"31.197774608","category":"500","category_name":"未知分类","address":"徐汇区茶陵路222号和224号(近茶陵北路)"},{"poiid":"B2094757D568A5FD439C","title":"Mika s Cafe","lon":"121.4656078","lat":"31.19759833","category":"65","category_name":"咖啡厅","address":"茶陵路220号"},{"poiid":"B2094757D66EA4F4439F","title":"枫林小区","lon":"121.466","lat":"31.1985","category":"47","category_name":"住宅区","address":"上海零陵路250弄"},{"poiid":"B2094757D06AA0F5499C","title":"瑞南新苑","lon":"121.46907456","lat":"31.200111521","category":"500","category_name":"未知分类","address":"上海市卢湾区瑞金南路185弄"},{"poiid":"B2094654DA6DA4FD489A","title":"日晖五村","lon":"121.46673","lat":"31.198866","category":"47","category_name":"住宅区","address":"茶陵路225弄"},{"poiid":"B2094655D36CA2F9489A","title":"日晖新村","lon":"121.46559","lat":"31.19773","category":"38","category_name":"公交车站","address":""},{"poiid":"B2094654DB69ABFA499B","title":"金仕堡健身会所(花域会所)","lon":"121.46626","lat":"31.19769","category":"221","category_name":"健身中心","address":"徐汇区茶陵路218号2层"},{"poiid":"B2094654DA6DA4FD4398","title":"莎蔓莉莎美容院(茶陵路)","lon":"121.46594","lat":"31.19762","category":"148","category_name":"美容美发店","address":""},{"poiid":"B2094757D165A0FB419E","title":"茶陵北路斜土路","lon":"121.465023738","lat":"31.1986736279","category":"500","category_name":"未知分类","address":"上海茶陵北路斜土路"},{"poiid":"B2094757D065A1F4499C","title":"黑土地东北菜","lon":"121.46558","lat":"31.19779","category":"247","category_name":"餐饮美食","address":"上海徐汇区茶陵北路28号(近斜土路)  "},{"poiid":"B2094750D26AA3F84498","title":"永達集團","lon":"121.466415","lat":"31.198377","category":"263","category_name":"公司","address":"瑞金南路299號"},{"poiid":"B2094654DA6DA4FD409D","title":"人和点心店","lon":"121.46492","lat":"31.19719","category":"68","category_name":"快餐厅","address":"徐汇区零陵北路1号(近72路终点站)"},{"poiid":"B2094655D268A5FB4099","title":"日晖五村(边门)","lon":"121.46556","lat":"31.19824","category":"47","category_name":"住宅区","address":""},{"poiid":"B2094757D16BA3F9459E","title":"涉谷造型","lon":"121.46726989","lat":"31.198005676","category":"148","category_name":"美容美发店","address":"上海大木橋路"},{"poiid":"B2094757D66EA1F4469F","title":"鑫鼎鑫饭店","lon":"121.46539453","lat":"31.197480602","category":"247","category_name":"餐饮美食","address":"上海浦秀路江月路口"},{"poiid":"B2094757D065A0F44099","title":"EvE king 婚纱礼服","lon":"121.469114738","lat":"31.1978706108","category":"260","category_name":"其他","address":"上海卢湾区瑞金南路500号3号楼1楼"},{"poiid":"B2094757D064A3FE4998","title":"九号线肇嘉浜路站","lon":"121.465588738","lat":"31.2004316653","category":"500","category_name":"未知分类","address":"上海肇嘉浜路东安路口"},{"poiid":"B2094654DB6BA5F4439B","title":"X2创意空间","lon":"121.46488","lat":"31.1983","category":"45","category_name":"产业园区","address":"西湖区古墩路沿线"},{"poiid":"B2094757D069A2FF489E","title":"上海市会计从业资格考试茶陵路考点","lon":"121.46706959","lat":"31.197133599","category":"190","category_name":"培训机构","address":"上海市徐汇区茶陵路200号(近瞿溪路)"},{"poiid":"B2094757D068A6F54598","title":"公安博物馆","lon":"121.468262304","lat":"31.198382026","category":"182","category_name":"博物馆","address":"徐汇区瑞金南路518号"},{"poiid":"B2094753D76FAAFA449C","title":"上海滩国泰旗舰店","lon":"121.466011","lat":"31.216125","category":"249","category_name":"购物服务","address":"淮海中路868号"},{"poiid":"B209475CD564A7F84292","title":"上海滩新天地店","lon":"121.47463","lat":"31.22164","category":"119","category_name":"商场","address":"\"太仓路181弄新天地北里15号\r\n\""},{"poiid":"B2094757D06FA5FE459F","title":"鼎园瑞峰公寓酒店","lon":"121.467066","lat":"31.201305","category":"217","category_name":"旅馆招待所","address":"徐汇区斜土路1077号(瑞金南路口)"},{"poiid":"B2094751DB65AAF9419B","title":"不争天下秘制龙虾","lon":"121.46509","lat":"31.19947","category":"68","category_name":"快餐厅","address":"徐汇区斜土路1179号(近大木桥路)"},{"poiid":"B2094655D26FA6FB499B","title":"瑞金南苑","lon":"121.46726","lat":"31.19966","category":"47","category_name":"住宅区","address":"瑞金南路458弄1-23号"},{"poiid":"B2094757D06AA2FF4698","title":"香满堂(斜土路二店)","lon":"121.46561","lat":"31.19949","category":"68","category_name":"快餐厅","address":"徐汇区斜土路1185号(近茶陵北路)"},{"poiid":"B2094757D168A1FB4099","title":"四号线鲁班路地铁站","lon":"121.469253338","lat":"31.1998083521","category":"36","category_name":"地铁站","address":"上海瞿溪路1110号"},{"poiid":"B2094654DA6EA3F5499F","title":"之俊大厦","lon":"121.46408","lat":"31.19934","category":"46","category_name":"楼宇","address":"浦东临港新城主城区申港大道200号"},{"poiid":"B2094757DA6EAAFD409B","title":"爱可焙EcoBake","lon":"121.465036999998","lat":"31.1990479999999","category":"67","category_name":"甜品店","address":"徐汇区斜土路1222号(近茶陵北路)"},{"poiid":"B2094757D66BA5F44798","title":"宝荔茶餐厅","lon":"121.465371054","lat":"31.199067793","category":"72","category_name":"广东菜","address":"徐汇区茶陵北路20号楼裙房(近斜土路)"},{"poiid":"B2094655D36CA2FA439F","title":"瑞金南路瞿溪路","lon":"121.46942","lat":"31.19686","category":"38","category_name":"公交车站","address":"上海瞿溪路"},{"poiid":"B2094757D06EAAF8439A","title":"土豆网办公室 Tudou Office","lon":"121.46459198","lat":"31.198873519","category":"46","category_name":"楼宇","address":"上海斜土路1238号六号楼"},{"poiid":"B2094757D06BA6F9479E","title":"上海市注册会计师服务中心","lon":"121.46636123","lat":"31.197638693","category":"260","category_name":"其他","address":"上海茶陵路200号"},{"poiid":"B2094757D06AABFF499D","title":"丝庐花语","lon":"121.46703","lat":"31.195787","category":"249","category_name":"购物服务","address":"上海茶陵路78号零陵路29号"},{"poiid":"B2094757D465A4F84498","title":"尚记","lon":"121.465211","lat":"31.19833","category":"76","category_name":"上海菜","address":"徐汇区茶陵北路28号(近斜土路)"},{"poiid":"B2094757D468A4F9499D","title":"良轩","lon":"121.46484699574","lat":"31.198938415694","category":"76","category_name":"上海菜","address":"徐汇区茶陵北路10号(斜土路口)"},{"poiid":"B2094757D069A1FC449F","title":"泓和坊老北京涮锅(斜土路店)","lon":"121.46557","lat":"31.1997","category":"86","category_name":"火锅店","address":"徐汇区斜土路1179号(近瑞金南路)"},{"poiid":"B2094654DA6DA4FD409E","title":"KTV","lon":"121.46485","lat":"31.19709","category":"170","category_name":"KTV","address":""},{"poiid":"B2094654DB64A6FB419D","title":"汉庭快捷(大木桥路店)","lon":"121.46448","lat":"31.19735","category":"216","category_name":"经济型连锁酒店","address":"徐汇区茶陵路333号(近大木桥路)"},{"poiid":"B2094654DA6DA5F94292","title":"新湖云庭","lon":"121.468","lat":"31.1983","category":"47","category_name":"住宅区","address":"上海市徐汇区小木桥路538弄"},{"poiid":"B2094654DB6BA5F44293","title":"沈大成 斜土路店","lon":"121.46654468668","lat":"31.200357618331","category":"68","category_name":"快餐厅","address":"卢湾区斜土路1120号(近瑞金南路)"},{"poiid":"B2094757D068A3FC489C","title":"7天连锁酒店(大木桥店)","lon":"121.46675","lat":"31.19754","category":"217","category_name":"旅馆招待所","address":"徐汇区茶陵路218号(近瞿溪路)"},{"poiid":"B2094757D06BA0FB419C","title":"日晖医院","lon":"121.464444753","lat":"31.1965844114","category":"162","category_name":"医院","address":"徐汇区零陵北路2号(近茶陵路)"},{"poiid":"B2094655D268A3FB4493","title":"现代都市工业园区","lon":"121.46795","lat":"31.19843","category":"45","category_name":"产业园区","address":"瑞金南路500号"},{"poiid":"B2094655D26FA6F4449F","title":"天合雅园","lon":"121.46564","lat":"31.196671","category":"47","category_name":"住宅区","address":"天合雅园位于徐汇茶陵北路,零陵路"},{"poiid":"B2094757D665A3FC439C","title":"栖凤渡湘菜","lon":"121.465483054","lat":"31.198696793","category":"77","category_name":"湖南菜","address":"徐汇区茶陵北路8号(近斜土路)"},{"poiid":"B2094757D064A7F54793","title":"上海市职业能力考试院","lon":"121.46774573","lat":"31.200262661","category":"52","category_name":"高等院校","address":"卢湾区瑞金南路438号(近斜土路)"},{"poiid":"B2094654DA6DA5F94899","title":"泰莱大厦","lon":"121.467","lat":"31.196","category":"47","category_name":"住宅区","address":"上海市徐汇区中山南二路508号"},{"poiid":"B2094757D568A5FC429B","title":"天天理发店(茶陵路)","lon":"121.46684652","lat":"31.19799045","category":"148","category_name":"美容美发店","address":"茶陵路223-1"},{"poiid":"B2094655D26FA5FC499D","title":"日晖新城","lon":"121.46569","lat":"31.19633","category":"47","category_name":"住宅区","address":"零陵北路9弄15"},{"poiid":"B2094757D16CABF44399","title":"凯睿爱宠之家","lon":"121.46562273","lat":"31.197774608","category":"500","category_name":"未知分类","address":"徐汇区茶陵路222号和224号(近茶陵北路)"},{"poiid":"B2094757D568A5FD439C","title":"Mika s Cafe","lon":"121.4656078","lat":"31.19759833","category":"65","category_name":"咖啡厅","address":"茶陵路220号"},{"poiid":"B2094757D66EA4F4439F","title":"枫林小区","lon":"121.466","lat":"31.1985","category":"47","category_name":"住宅区","address":"上海零陵路250弄"},{"poiid":"B2094757D06AA0F5499C","title":"瑞南新苑","lon":"121.46907456","lat":"31.200111521","category":"500","category_name":"未知分类","address":"上海市卢湾区瑞金南路185弄"},{"poiid":"B2094654DA6DA4FD489A","title":"日晖五村","lon":"121.46673","lat":"31.198866","category":"47","category_name":"住宅区","address":"茶陵路225弄"},{"poiid":"B2094655D36CA2F9489A","title":"日晖新村","lon":"121.46559","lat":"31.19773","category":"38","category_name":"公交车站","address":""},{"poiid":"B2094654DB69ABFA499B","title":"金仕堡健身会所(花域会所)","lon":"121.46626","lat":"31.19769","category":"221","category_name":"健身中心","address":"徐汇区茶陵路218号2层"},{"poiid":"B2094654DA6DA4FD4398","title":"莎蔓莉莎美容院(茶陵路)","lon":"121.46594","lat":"31.19762","category":"148","category_name":"美容美发店","address":""},{"poiid":"B2094757D165A0FB419E","title":"茶陵北路斜土路","lon":"121.465023738","lat":"31.1986736279","category":"500","category_name":"未知分类","address":"上海茶陵北路斜土路"},{"poiid":"B2094757D065A1F4499C","title":"黑土地东北菜","lon":"121.46558","lat":"31.19779","category":"247","category_name":"餐饮美食","address":"上海徐汇区茶陵北路28号(近斜土路)  "},{"poiid":"B2094750D26AA3F84498","title":"永達集團","lon":"121.466415","lat":"31.198377","category":"263","category_name":"公司","address":"瑞金南路299號"},{"poiid":"B2094654DA6DA4FD409D","title":"人和点心店","lon":"121.46492","lat":"31.19719","category":"68","category_name":"快餐厅","address":"徐汇区零陵北路1号(近72路终点站)"},{"poiid":"B2094655D268A5FB4099","title":"日晖五村(边门)","lon":"121.46556","lat":"31.19824","category":"47","category_name":"住宅区","address":""},{"poiid":"B2094757D16BA3F9459E","title":"涉谷造型","lon":"121.46726989","lat":"31.198005676","category":"148","category_name":"美容美发店","address":"上海大木橋路"},{"poiid":"B2094757D66EA1F4469F","title":"鑫鼎鑫饭店","lon":"121.46539453","lat":"31.197480602","category":"247","category_name":"餐饮美食","address":"上海浦秀路江月路口"},{"poiid":"B2094757D065A0F44099","title":"EvE king 婚纱礼服","lon":"121.469114738","lat":"31.1978706108","category":"260","category_name":"其他","address":"上海卢湾区瑞金南路500号3号楼1楼"},{"poiid":"B2094757D064A3FE4998","title":"九号线肇嘉浜路站","lon":"121.465588738","lat":"31.2004316653","category":"500","category_name":"未知分类","address":"上海肇嘉浜路东安路口"},{"poiid":"B2094654DB6BA5F4439B","title":"X2创意空间","lon":"121.46488","lat":"31.1983","category":"45","category_name":"产业园区","address":"西湖区古墩路沿线"},{"poiid":"B2094757D069A2FF489E","title":"上海市会计从业资格考试茶陵路考点","lon":"121.46706959","lat":"31.197133599","category":"190","category_name":"培训机构","address":"上海市徐汇区茶陵路200号(近瞿溪路)"},{"poiid":"B2094757D068A6F54598","title":"公安博物馆","lon":"121.468262304","lat":"31.198382026","category":"182","category_name":"博物馆","address":"徐汇区瑞金南路518号"},{"poiid":"B2094753D76FAAFA449C","title":"上海滩国泰旗舰店","lon":"121.466011","lat":"31.216125","category":"249","category_name":"购物服务","address":"淮海中路868号"},{"poiid":"B209475CD564A7F84292","title":"上海滩新天地店","lon":"121.47463","lat":"31.22164","category":"119","category_name":"商场","address":"\"太仓路181弄新天地北里15号\r\n\""},{"poiid":"B2094757D06FA5FE459F","title":"鼎园瑞峰公寓酒店","lon":"121.467066","lat":"31.201305","category":"217","category_name":"旅馆招待所","address":"徐汇区斜土路1077号(瑞金南路口)"},{"poiid":"B2094751DB65AAF9419B","title":"不争天下秘制龙虾","lon":"121.46509","lat":"31.19947","category":"68","category_name":"快餐厅","address":"徐汇区斜土路1179号(近大木桥路)"},{"poiid":"B2094655D26FA6FB499B","title":"瑞金南苑","lon":"121.46726","lat":"31.19966","category":"47","category_name":"住宅区","address":"瑞金南路458弄1-23号"},{"poiid":"B2094757D06AA2FF4698","title":"香满堂(斜土路二店)","lon":"121.46561","lat":"31.19949","category":"68","category_name":"快餐厅","address":"徐汇区斜土路1185号(近茶陵北路)"},{"poiid":"B2094757D168A1FB4099","title":"四号线鲁班路地铁站","lon":"121.469253338","lat":"31.1998083521","category":"36","category_name":"地铁站","address":"上海瞿溪路1110号"},{"poiid":"B2094654DA6EA3F5499F","title":"之俊大厦","lon":"121.46408","lat":"31.19934","category":"46","category_name":"楼宇","address":"浦东临港新城主城区申港大道200号"},{"poiid":"B2094757DA6EAAFD409B","title":"爱可焙EcoBake","lon":"121.465036999998","lat":"31.1990479999999","category":"67","category_name":"甜品店","address":"徐汇区斜土路1222号(近茶陵北路)"},{"poiid":"B2094757D66BA5F44798","title":"宝荔茶餐厅","lon":"121.465371054","lat":"31.199067793","category":"72","category_name":"广东菜","address":"徐汇区茶陵北路20号楼裙房(近斜土路)"},{"poiid":"B2094655D36CA2FA439F","title":"瑞金南路瞿溪路","lon":"121.46942","lat":"31.19686","category":"38","category_name":"公交车站","address":"上海瞿溪路"},{"poiid":"B2094757D06EAAF8439A","title":"土豆网办公室 Tudou Office","lon":"121.46459198","lat":"31.198873519","category":"46","category_name":"楼宇","address":"上海斜土路1238号六号楼"},{"poiid":"B2094757D06BA6F9479E","title":"上海市注册会计师服务中心","lon":"121.46636123","lat":"31.197638693","category":"260","category_name":"其他","address":"上海茶陵路200号"},{"poiid":"B2094757D06AABFF499D","title":"丝庐花语","lon":"121.46703","lat":"31.195787","category":"249","category_name":"购物服务","address":"上海茶陵路78号零陵路29号"},{"poiid":"B2094757D465A4F84498","title":"尚记","lon":"121.465211","lat":"31.19833","category":"76","category_name":"上海菜","address":"徐汇区茶陵北路28号(近斜土路)"},{"poiid":"B2094757D468A4F9499D","title":"良轩","lon":"121.46484699574","lat":"31.198938415694","category":"76","category_name":"上海菜","address":"徐汇区茶陵北路10号(斜土路口)"},{"poiid":"B2094757D069A1FC449F","title":"泓和坊老北京涮锅(斜土路店)","lon":"121.46557","lat":"31.1997","category":"86","category_name":"火锅店","address":"徐汇区斜土路1179号(近瑞金南路)"},{"poiid":"B2094654DA6DA4FD409E","title":"KTV","lon":"121.46485","lat":"31.19709","category":"170","category_name":"KTV","address":""},{"poiid":"B2094654DB64A6FB419D","title":"汉庭快捷(大木桥路店)","lon":"121.46448","lat":"31.19735","category":"216","category_name":"经济型连锁酒店","address":"徐汇区茶陵路333号(近大木桥路)"},{"poiid":"B2094654DA6DA5F94292","title":"新湖云庭","lon":"121.468","lat":"31.1983","category":"47","category_name":"住宅区","address":"上海市徐汇区小木桥路538弄"},{"poiid":"B2094654DB6BA5F44293","title":"沈大成 斜土路店","lon":"121.46654468668","lat":"31.200357618331","category":"68","category_name":"快餐厅","address":"卢湾区斜土路1120号(近瑞金南路)"},{"poiid":"B2094757D068A3FC489C","title":"7天连锁酒店(大木桥店)","lon":"121.46675","lat":"31.19754","category":"217","category_name":"旅馆招待所","address":"徐汇区茶陵路218号(近瞿溪路)"},{"poiid":"B2094757D06BA0FB419C","title":"日晖医院","lon":"121.464444753","lat":"31.1965844114","category":"162","category_name":"医院","address":"徐汇区零陵北路2号(近茶陵路)"},{"poiid":"B2094655D268A3FB4493","title":"现代都市工业园区","lon":"121.46795","lat":"31.19843","category":"45","category_name":"产业园区","address":"瑞金南路500号"},{"poiid":"B2094655D26FA6F4449F","title":"天合雅园","lon":"121.46564","lat":"31.196671","category":"47","category_name":"住宅区","address":"天合雅园位于徐汇茶陵北路,零陵路"},{"poiid":"B2094757D665A3FC439C","title":"栖凤渡湘菜","lon":"121.465483054","lat":"31.198696793","category":"77","category_name":"湖南菜","address":"徐汇区茶陵北路8号(近斜土路)"},{"poiid":"B2094757D064A7F54793","title":"上海市职业能力考试院","lon":"121.46774573","lat":"31.200262661","category":"52","category_name":"高等院校","address":"卢湾区瑞金南路438号(近斜土路)"},{"poiid":"B2094654DA6DA5F94899","title":"泰莱大厦","lon":"121.467","lat":"31.196","category":"47","category_name":"住宅区","address":"上海市徐汇区中山南二路508号"},{"poiid":"B2094757D568A5FC429B","title":"天天理发店(茶陵路)","lon":"121.46684652","lat":"31.19799045","category":"148","category_name":"美容美发店","address":"茶陵路223-1"},{"poiid":"B2094655D26FA5FC499D","title":"日晖新城","lon":"121.46569","lat":"31.19633","category":"47","category_name":"住宅区","address":"零陵北路9弄15"},{"poiid":"B2094757D16CABF44399","title":"凯睿爱宠之家","lon":"121.46562273","lat":"31.197774608","category":"500","category_name":"未知分类","address":"徐汇区茶陵路222号和224号(近茶陵北路)"},{"poiid":"B2094757D568A5FD439C","title":"Mika s Cafe","lon":"121.4656078","lat":"31.19759833","category":"65","category_name":"咖啡厅","address":"茶陵路220号"},{"poiid":"B2094757D66EA4F4439F","title":"枫林小区","lon":"121.466","lat":"31.1985","category":"47","category_name":"住宅区","address":"上海零陵路250弄"},{"poiid":"B2094757D06AA0F5499C","title":"瑞南新苑","lon":"121.46907456","lat":"31.200111521","category":"500","category_name":"未知分类","address":"上海市卢湾区瑞金南路185弄"},{"poiid":"B2094654DA6DA4FD489A","title":"日晖五村","lon":"121.46673","lat":"31.198866","category":"47","category_name":"住宅区","address":"茶陵路225弄"},{"poiid":"B2094655D36CA2F9489A","title":"日晖新村","lon":"121.46559","lat":"31.19773","category":"38","category_name":"公交车站","address":""},{"poiid":"B2094654DB69ABFA499B","title":"金仕堡健身会所(花域会所)","lon":"121.46626","lat":"31.19769","category":"221","category_name":"健身中心","address":"徐汇区茶陵路218号2层"},{"poiid":"B2094654DA6DA4FD4398","title":"莎蔓莉莎美容院(茶陵路)","lon":"121.46594","lat":"31.19762","category":"148","category_name":"美容美发店","address":""},{"poiid":"B2094757D165A0FB419E","title":"茶陵北路斜土路","lon":"121.465023738","lat":"31.1986736279","category":"500","category_name":"未知分类","address":"上海茶陵北路斜土路"},{"poiid":"B2094757D065A1F4499C","title":"黑土地东北菜","lon":"121.46558","lat":"31.19779","category":"247","category_name":"餐饮美食","address":"上海徐汇区茶陵北路28号(近斜土路)  "},{"poiid":"B2094750D26AA3F84498","title":"永達集團","lon":"121.466415","lat":"31.198377","category":"263","category_name":"公司","address":"瑞金南路299號"},{"poiid":"B2094654DA6DA4FD409D","title":"人和点心店","lon":"121.46492","lat":"31.19719","category":"68","category_name":"快餐厅","address":"徐汇区零陵北路1号(近72路终点站)"},{"poiid":"B2094655D268A5FB4099","title":"日晖五村(边门)","lon":"121.46556","lat":"31.19824","category":"47","category_name":"住宅区","address":""},{"poiid":"B2094757D16BA3F9459E","title":"涉谷造型","lon":"121.46726989","lat":"31.198005676","category":"148","category_name":"美容美发店","address":"上海大木橋路"},{"poiid":"B2094757D66EA1F4469F","title":"鑫鼎鑫饭店","lon":"121.46539453","lat":"31.197480602","category":"247","category_name":"餐饮美食","address":"上海浦秀路江月路口"},{"poiid":"B2094757D065A0F44099","title":"EvE king 婚纱礼服","lon":"121.469114738","lat":"31.1978706108","category":"260","category_name":"其他","address":"上海卢湾区瑞金南路500号3号楼1楼"},{"poiid":"B2094757D064A3FE4998","title":"九号线肇嘉浜路站","lon":"121.465588738","lat":"31.2004316653","category":"500","category_name":"未知分类","address":"上海肇嘉浜路东安路口"},{"poiid":"B2094654DB6BA5F4439B","title":"X2创意空间","lon":"121.46488","lat":"31.1983","category":"45","category_name":"产业园区","address":"西湖区古墩路沿线"},{"poiid":"B2094757D069A2FF489E","title":"上海市会计从业资格考试茶陵路考点","lon":"121.46706959","lat":"31.197133599","category":"190","category_name":"培训机构","address":"上海市徐汇区茶陵路200号(近瞿溪路)"},{"poiid":"B2094757D068A6F54598","title":"公安博物馆","lon":"121.468262304","lat":"31.198382026","category":"182","category_name":"博物馆","address":"徐汇区瑞金南路518号"},{"poiid":"B2094753D76FAAFA449C","title":"上海滩国泰旗舰店","lon":"121.466011","lat":"31.216125","category":"249","category_name":"购物服务","address":"淮海中路868号"},{"poiid":"B209475CD564A7F84292","title":"上海滩新天地店","lon":"121.47463","lat":"31.22164","category":"119","category_name":"商场","address":"\"太仓路181弄新天地北里15号\r\n\""},{"poiid":"B2094757D06FA5FE459F","title":"鼎园瑞峰公寓酒店","lon":"121.467066","lat":"31.201305","category":"217","category_name":"旅馆招待所","address":"徐汇区斜土路1077号(瑞金南路口)"},{"poiid":"B2094751DB65AAF9419B","title":"不争天下秘制龙虾","lon":"121.46509","lat":"31.19947","category":"68","category_name":"快餐厅","address":"徐汇区斜土路1179号(近大木桥路)"},{"poiid":"B2094655D26FA6FB499B","title":"瑞金南苑","lon":"121.46726","lat":"31.19966","category":"47","category_name":"住宅区","address":"瑞金南路458弄1-23号"},{"poiid":"B2094757D06AA2FF4698","title":"香满堂(斜土路二店)","lon":"121.46561","lat":"31.19949","category":"68","category_name":"快餐厅","address":"徐汇区斜土路1185号(近茶陵北路)"},{"poiid":"B2094757D168A1FB4099","title":"四号线鲁班路地铁站","lon":"121.469253338","lat":"31.1998083521","category":"36","category_name":"地铁站","address":"上海瞿溪路1110号"},{"poiid":"B2094654DA6EA3F5499F","title":"之俊大厦","lon":"121.46408","lat":"31.19934","category":"46","category_name":"楼宇","address":"浦东临港新城主城区申港大道200号"},{"poiid":"B2094757DA6EAAFD409B","title":"爱可焙EcoBake","lon":"121.465036999998","lat":"31.1990479999999","category":"67","category_name":"甜品店","address":"徐汇区斜土路1222号(近茶陵北路)"},{"poiid":"B2094757D66BA5F44798","title":"宝荔茶餐厅","lon":"121.465371054","lat":"31.199067793","category":"72","category_name":"广东菜","address":"徐汇区茶陵北路20号楼裙房(近斜土路)"},{"poiid":"B2094655D36CA2FA439F","title":"瑞金南路瞿溪路","lon":"121.46942","lat":"31.19686","category":"38","category_name":"公交车站","address":"上海瞿溪路"},{"poiid":"B2094757D06EAAF8439A","title":"土豆网办公室 Tudou Office","lon":"121.46459198","lat":"31.198873519","category":"46","category_name":"楼宇","address":"上海斜土路1238号六号楼"},{"poiid":"B2094757D06BA6F9479E","title":"上海市注册会计师服务中心","lon":"121.46636123","lat":"31.197638693","category":"260","category_name":"其他","address":"上海茶陵路200号"},{"poiid":"B2094757D06AABFF499D","title":"丝庐花语","lon":"121.46703","lat":"31.195787","category":"249","category_name":"购物服务","address":"上海茶陵路78号零陵路29号"},{"poiid":"B2094757D465A4F84498","title":"尚记","lon":"121.465211","lat":"31.19833","category":"76","category_name":"上海菜","address":"徐汇区茶陵北路28号(近斜土路)"},{"poiid":"B2094757D468A4F9499D","title":"良轩","lon":"121.46484699574","lat":"31.198938415694","category":"76","category_name":"上海菜","address":"徐汇区茶陵北路10号(斜土路口)"},{"poiid":"B2094757D069A1FC449F","title":"泓和坊老北京涮锅(斜土路店)","lon":"121.46557","lat":"31.1997","category":"86","category_name":"火锅店","address":"徐汇区斜土路1179号(近瑞金南路)"},{"poiid":"B2094654DA6DA4FD409E","title":"KTV","lon":"121.46485","lat":"31.19709","category":"170","category_name":"KTV","address":""},{"poiid":"B2094654DB64A6FB419D","title":"汉庭快捷(大木桥路店)","lon":"121.46448","lat":"31.19735","category":"216","category_name":"经济型连锁酒店","address":"徐汇区茶陵路333号(近大木桥路)"},{"poiid":"B2094654DA6DA5F94292","title":"新湖云庭","lon":"121.468","lat":"31.1983","category":"47","category_name":"住宅区","address":"上海市徐汇区小木桥路538弄"},{"poiid":"B2094654DB6BA5F44293","title":"沈大成 斜土路店","lon":"121.46654468668","lat":"31.200357618331","category":"68","category_name":"快餐厅","address":"卢湾区斜土路1120号(近瑞金南路)"},{"poiid":"B2094757D068A3FC489C","title":"7天连锁酒店(大木桥店)","lon":"121.46675","lat":"31.19754","category":"217","category_name":"旅馆招待所","address":"徐汇区茶陵路218号(近瞿溪路)"},{"poiid":"B2094757D06BA0FB419C","title":"日晖医院","lon":"121.464444753","lat":"31.1965844114","category":"162","category_name":"医院","address":"徐汇区零陵北路2号(近茶陵路)"},{"poiid":"B2094655D268A3FB4493","title":"现代都市工业园区","lon":"121.46795","lat":"31.19843","category":"45","category_name":"产业园区","address":"瑞金南路500号"},{"poiid":"B2094655D26FA6F4449F","title":"天合雅园","lon":"121.46564","lat":"31.196671","category":"47","category_name":"住宅区","address":"天合雅园位于徐汇茶陵北路,零陵路"},{"poiid":"B2094757D665A3FC439C","title":"栖凤渡湘菜","lon":"121.465483054","lat":"31.198696793","category":"77","category_name":"湖南菜","address":"徐汇区茶陵北路8号(近斜土路)"},{"poiid":"B2094757D064A7F54793","title":"上海市职业能力考试院","lon":"121.46774573","lat":"31.200262661","category":"52","category_name":"高等院校","address":"卢湾区瑞金南路438号(近斜土路)"},{"poiid":"B2094654DA6DA5F94899","title":"泰莱大厦","lon":"121.467","lat":"31.196","category":"47","category_name":"住宅区","address":"上海市徐汇区中山南二路508号"},{"poiid":"B2094757D568A5FC429B","title":"天天理发店(茶陵路)","lon":"121.46684652","lat":"31.19799045","category":"148","category_name":"美容美发店","address":"茶陵路223-1"},{"poiid":"B2094655D26FA5FC499D","title":"日晖新城","lon":"121.46569","lat":"31.19633","category":"47","category_name":"住宅区","address":"零陵北路9弄15"},{"poiid":"B2094757D16CABF44399","title":"凯睿爱宠之家","lon":"121.46562273","lat":"31.197774608","category":"500","category_name":"未知分类","address":"徐汇区茶陵路222号和224号(近茶陵北路)"},{"poiid":"B2094757D568A5FD439C","title":"Mika s Cafe","lon":"121.4656078","lat":"31.19759833","category":"65","category_name":"咖啡厅","address":"茶陵路220号"},{"poiid":"B2094757D66EA4F4439F","title":"枫林小区","lon":"121.466","lat":"31.1985","category":"47","category_name":"住宅区","address":"上海零陵路250弄"},{"poiid":"B2094757D06AA0F5499C","title":"瑞南新苑","lon":"121.46907456","lat":"31.200111521","category":"500","category_name":"未知分类","address":"上海市卢湾区瑞金南路185弄"},{"poiid":"B2094654DA6DA4FD489A","title":"日晖五村","lon":"121.46673","lat":"31.198866","category":"47","category_name":"住宅区","address":"茶陵路225弄"},{"poiid":"B2094655D36CA2F9489A","title":"日晖新村","lon":"121.46559","lat":"31.19773","category":"38","category_name":"公交车站","address":""},{"poiid":"B2094654DB69ABFA499B","title":"金仕堡健身会所(花域会所)","lon":"121.46626","lat":"31.19769","category":"221","category_name":"健身中心","address":"徐汇区茶陵路218号2层"},{"poiid":"B2094654DA6DA4FD4398","title":"莎蔓莉莎美容院(茶陵路)","lon":"121.46594","lat":"31.19762","category":"148","category_name":"美容美发店","address":""},{"poiid":"B2094757D165A0FB419E","title":"茶陵北路斜土路","lon":"121.465023738","lat":"31.1986736279","category":"500","category_name":"未知分类","address":"上海茶陵北路斜土路"},{"poiid":"B2094757D065A1F4499C","title":"黑土地东北菜","lon":"121.46558","lat":"31.19779","category":"247","category_name":"餐饮美食","address":"上海徐汇区茶陵北路28号(近斜土路)  "},{"poiid":"B2094750D26AA3F84498","title":"永達集團","lon":"121.466415","lat":"31.198377","category":"263","category_name":"公司","address":"瑞金南路299號"},{"poiid":"B2094654DA6DA4FD409D","title":"人和点心店","lon":"121.46492","lat":"31.19719","category":"68","category_name":"快餐厅","address":"徐汇区零陵北路1号(近72路终点站)"},{"poiid":"B2094655D268A5FB4099","title":"日晖五村(边门)","lon":"121.46556","lat":"31.19824","category":"47","category_name":"住宅区","address":""},{"poiid":"B2094757D16BA3F9459E","title":"涉谷造型","lon":"121.46726989","lat":"31.198005676","category":"148","category_name":"美容美发店","address":"上海大木橋路"},{"poiid":"B2094757D66EA1F4469F","title":"鑫鼎鑫饭店","lon":"121.46539453","lat":"31.197480602","category":"247","category_name":"餐饮美食","address":"上海浦秀路江月路口"},{"poiid":"B2094757D065A0F44099","title":"EvE king 婚纱礼服","lon":"121.469114738","lat":"31.1978706108","category":"260","category_name":"其他","address":"上海卢湾区瑞金南路500号3号楼1楼"},{"poiid":"B2094757D064A3FE4998","title":"九号线肇嘉浜路站","lon":"121.465588738","lat":"31.2004316653","category":"500","category_name":"未知分类","address":"上海肇嘉浜路东安路口"}]