[{"poiid":"B2094757D06EABF54693","title":"STAYREAL(新天地店)","lon":"121.4748631","lat":"31.2170296","category":"141","category_name":"服装鞋帽皮具店","address":"上海市马当路245号新天地时尚B101-B102"},{"poiid":"B2094757D06EAAF44293","title":"瑞金医院(卢湾分院)","lon":"121.472367079","lat":"31.2182978875","category":"162","category_name":"医院","address":"卢湾区重庆南路149号(近南昌路)"},{"poiid":"B2094757D06FA4FA4192","title":"SMUDGEstore(林俊杰SMG)","lon":"121.47483764","lat":"31.215852575","category":"141","category_name":"服装鞋帽皮具店","address":"上海市卢湾区马当路新天地时尚B108号"},{"poiid":"B2094753D76FAAFA449C","title":"上海滩国泰旗舰店","lon":"121.466011","lat":"31.216125","category":"249","category_name":"购物服务","address":"淮海中路868号"},{"poiid":"B209475CD564A7F84292","title":"上海滩新天地店","lon":"121.47463","lat":"31.22164","category":"119","category_name":"商场","address":"\"太仓路181弄新天地北里15号\r\n\""},{"poiid":"B209475CD564A7F8439E","title":"上海滩中信泰富店","lon":"121.45602","lat":"31.22851","category":"119","category_name":"商场","address":"\"南京西路1168号中信泰富广场，店铺号221.\r\n\""},{"poiid":"B2094751D265A1FB459E","title":"萌果酱女仆咖啡屋 Maid Jump","lon":"121.47213","lat":"31.21763","category":"247","category_name":"餐饮美食","address":"卢湾区自忠路453号甲(近淡水路)"},{"poiid":"B2094757D16FA6F44399","title":"新天地PAULANER","lon":"121.473980542","lat":"31.2169820769","category":"500","category_name":"未知分类","address":"上海新天地"},{"poiid":"B2094757D06FAAF54292","title":"新天地时尚中庭","lon":"121.474863","lat":"31.21703","category":"119","category_name":"商场","address":"上海卢湾区马当路245号"},{"poiid":"B2094757D06EAAFB4592","title":"新天地地铁站","lon":"121.47513982","lat":"31.216345887","category":"36","category_name":"地铁站","address":"上海轨道交通 十号线 轨交新天地站 10"},{"poiid":"B2094757D468A0FB499C","title":"香啡缤 新天地时尚店","lon":"121.474843","lat":"31.2171292","category":"260","category_name":"其他","address":"卢湾区马当路245号新天地时尚购物广场B129a室(近复兴中路)"},{"poiid":"B2094757D068A4F94598","title":"I.T(新天地店)","lon":"121.474807738","lat":"31.2165414084","category":"141","category_name":"服装鞋帽皮具店","address":"卢湾区兴业路123弄新天地南里号楼2楼(近马当路)"},{"poiid":"B2094757D069ABFA409C","title":"上海市基督教诸圣堂","lon":"121.473615","lat":"31.215621","category":"245","category_name":"教堂","address":"上海复兴中路425号(近淡水路)"},{"poiid":"B2094757D068A2F9409D","title":"Lavazza Espression(新天地店)","lon":"121.47317673","lat":"31.216841014","category":"260","category_name":"其他","address":"卢湾区马当路245号新天地时尚商场1楼"},{"poiid":"B2094757D06AA0FD4092","title":"Urban Soup Kitchen","lon":"121.47502","lat":"31.21742","category":"94","category_name":"西餐厅","address":"卢湾区马当路280号(近自忠路)"},{"poiid":"B2094655D36CA6FF4293","title":"复兴中路","lon":"121.47073","lat":"31.21609","category":"38","category_name":"公交车站","address":""},{"poiid":"B2094757DB6FA7F8499B","title":"Mix drink","lon":"121.47339","lat":"31.21652","category":"113","category_name":"冷饮店","address":"卢湾区淡水路238号(近自忠路)"},{"poiid":"B2094757D06EAAFD4992","title":"地铁十号线","lon":"121.47509765","lat":"31.216314315","category":"36","category_name":"地铁站","address":"上海虹桥火车站/航中路- 新江湾城 轨道交通十号线 轨交 10"},{"poiid":"B2094757D069A0F54699","title":"Yogo Juice(新天地店)","lon":"121.47470973","lat":"31.217293024","category":"113","category_name":"冷饮店","address":"卢湾区马当路245号新天地时尚购物广场B128室(近复兴中路)"},{"poiid":"B209475CD26FA5F8489B","title":"一人前寿司专门店","lon":"121.474746","lat":"31.217882","category":"500","category_name":"未知分类","address":"上海市 马当路245号新天地时尚地下一层129室"},{"poiid":"B2094752DB6CA5FA469D","title":"思南公館","lon":"121.473636","lat":"31.21627","category":"500","category_name":"未知分类","address":"上海市 上海市思南路"},{"poiid":"B2094757D064A5FB469E","title":"黎云阁","lon":"121.47304678","lat":"31.215470918","category":"76","category_name":"上海菜","address":"卢湾区复兴中路470号(近淡水路)"},{"poiid":"B2094757D069A7FA409D","title":"Parkway Health(淡水路门诊部)","lon":"121.47327","lat":"31.21829","category":"162","category_name":"医院","address":"上海卢湾区淡水路170号2-3楼(近兴业路)"},{"poiid":"B2094654DB65A4F8479E","title":"复兴公园(南门)","lon":"121.47041","lat":"31.21575","category":"656","category_name":"大门","address":"上海卢湾区皋兰路2号甲(近思南路)"},{"poiid":"B2094757D06AA0FB409C","title":"品芳面馆","lon":"121.470912054","lat":"31.216979793","category":"68","category_name":"快餐厅","address":"卢湾区重庆南路183号(复兴中路重庆南路)"},{"poiid":"B2094757D169A5F9469D","title":"南北高架淮海路","lon":"121.47080473","lat":"31.21662301","category":"500","category_name":"未知分类","address":"上海市南北高架"},{"poiid":"B2094757D06FA4F9489B","title":"BAZAAR","lon":"121.47508073","lat":"31.216721012","category":"249","category_name":"购物服务","address":"卢湾区马当路245号新天地时尚购物广场"},{"poiid":"B2094757D069A7F4469F","title":"新天地人工湖","lon":"121.47291015","lat":"31.217486148","category":"500","category_name":"未知分类","address":"上海新天地"},{"poiid":"B2094757D068ABFF4598","title":"大韩民国临时政府旧址","lon":"121.47505","lat":"31.21707","category":"260","category_name":"其他","address":"卢湾区马当路302-304号(马当路自忠路)"},{"poiid":"B2094757D06BA1F8419D","title":"The Five Tables Bistro","lon":"121.47461813","lat":"31.217152521","category":"94","category_name":"西餐厅","address":"卢湾区淡水路210号(近自忠路)"},{"poiid":"B2094655D26CA4F94699","title":"钱柜卢湾店(东门)","lon":"121.47074","lat":"31.21645","category":"68","category_name":"快餐厅","address":""},{"poiid":"B2094750D76CA3FF4098","title":"3Q脆皮鸡排","lon":"121.474","lat":"31.2144","category":"68","category_name":"快餐厅","address":"卢湾区合肥路297号(近淡水路)"},{"poiid":"B2094757D06FA4FA4692","title":"Francfranc(新天地旗舰店)","lon":"121.47508563","lat":"31.2167971579","category":"123","category_name":"家具建材市场","address":"卢湾区马当路245号新天地时尚购物广场1-2楼(近复兴中路)"},{"poiid":"B2094757D16DA4F94292","title":"翠步摇","lon":"121.47301572","lat":"31.217306995","category":"500","category_name":"未知分类","address":"卢湾区淡水路213号"},{"poiid":"B2094654DA6EA4FA459F","title":"上海市卢湾区教育学院","lon":"121.47191","lat":"31.21754","category":"53","category_name":"成人教育","address":"自忠路455"},{"poiid":"B2094757D06BA0FF419D","title":"金沙概念餐厅","lon":"121.47122234588","lat":"31.217087273718","category":"76","category_name":"上海菜","address":"卢湾区自忠路453-455号(重庆南路自忠路)"},{"poiid":"B2094750D665ABF8439B","title":"上海口味粽王","lon":"121.472","lat":"31.2156","category":"68","category_name":"快餐厅","address":"卢湾区复兴中路488号(淡水路复兴中路)"},{"poiid":"B2094757D06BA3F44498","title":"Musee platinum","lon":"121.47511773","lat":"31.216438006","category":"500","category_name":"未知分类","address":"上海市卢湾区马当路 新天地时尚2楼"},{"poiid":"B2094757D46DABFA4792","title":"宜芝多 新天地店","lon":"121.4748631","lat":"31.2170296","category":"112","category_name":"糕饼店","address":"卢湾区马当路245号新天地时尚B2楼(近复兴中路)"},{"poiid":"B2094655D26AA0F9489F","title":"地铁马当路站","lon":"121.47497","lat":"31.21624","category":"36","category_name":"地铁站","address":""},{"poiid":"B2094753D26BA3FF4593","title":"Caffeine-Shanghai","lon":"121.47322834","lat":"31.21616892","category":"247","category_name":"餐饮美食","address":"淡水路264号（近复兴中路）"},{"poiid":"B2094655D36DA7F9459E","title":"重庆南路复兴中路","lon":"121.47099","lat":"31.21581","category":"38","category_name":"公交车站","address":""},{"poiid":"B2094757D169A4FA489D","title":"城市浓汤 Urban Soup Kitchen","lon":"121.474549054","lat":"31.218663793","category":"94","category_name":"西餐厅","address":"马当路280号近自忠路"},{"poiid":"B2094757D468AAFD4798","title":"西树泡芙 新天地店 Chez Choux","lon":"121.4748631","lat":"31.2170296","category":"67","category_name":"甜品店","address":"卢湾区马当路245号新天地时尚购物广场B2楼"},{"poiid":"B209475CD16BA7FA489D","title":"一人前寿司场","lon":"121.475036","lat":"31.217124","category":"247","category_name":"餐饮美食","address":"上海市 新天地"},{"poiid":"B2094750D76DA0FC429F","title":"阿三老式葱油饼","lon":"121.475","lat":"31.2167","category":"68","category_name":"快餐厅","address":"卢湾区马当路菜场内(合肥路口)"},{"poiid":"B2094757D16DA0FC499F","title":"渡口书店(新天地時尚店)","lon":"121.474843454","lat":"31.217367011","category":"125","category_name":"书店","address":"上海卢湾区马当路245号新天地时尚B1楼"},{"poiid":"B209475CD36AA6FF4398","title":"卯花寿司 淡水路店","lon":"121.47321","lat":"31.218","category":"95","category_name":"日本料理","address":"淡水路198号(近自忠路)"},{"poiid":"B2094750D268A3FD469C","title":"萌果酱女仆咖啡厅","lon":"121.472351","lat":"31.21784","category":"247","category_name":"餐饮美食","address":"自忠路453号甲"},{"poiid":"B2094757D664A7F8489E","title":"河南拉面馆 淡水路店","lon":"121.47325","lat":"31.21617","category":"247","category_name":"餐饮美食","address":"卢湾区淡水路266号对面(近复兴中路)"},{"poiid":"B2094757D06EABF54693","title":"STAYREAL(新天地店)","lon":"121.4748631","lat":"31.2170296","category":"141","category_name":"服装鞋帽皮具店","address":"上海市马当路245号新天地时尚B101-B102"},{"poiid":"B2094757D06EAAF44293","title":"瑞金医院(卢湾分院)","lon":"121.472367079","lat":"31.2182978875","category":"162","category_name":"医院","address":"卢湾区重庆南路149号(近南昌路)"},{"poiid":"B2094757D06FA4FA4192","title":"SMUDGEstore(林俊杰SMG)","lon":"121.47483764","lat":"31.215852575","category":"141","category_name":"服装鞋帽皮具店","address":"上海市卢湾区马当路新天地时尚B108号"},{"poiid":"B2094753D76FAAFA449C","title":"上海滩国泰旗舰店","lon":"121.466011","lat":"31.216125","category":"249","category_name":"购物服务","address":"淮海中路868号"},{"poiid":"B209475CD564A7F84292","title":"上海滩新天地店","lon":"121.47463","lat":"31.22164","category":"119","category_name":"商场","address":"\"太仓路181弄新天地北里15号\r\n\""},{"poiid":"B209475CD564A7F8439E","title":"上海滩中信泰富店","lon":"121.45602","lat":"31.22851","category":"119","category_name":"商场","address":"\"南京西路1168号中信泰富广场，店铺号221.\r\n\""},{"poiid":"B2094751D265A1FB459E","title":"萌果酱女仆咖啡屋 Maid Jump","lon":"121.47213","lat":"31.21763","category":"247","category_name":"餐饮美食","address":"卢湾区自忠路453号甲(近淡水路)"},{"poiid":"B2094757D16FA6F44399","title":"新天地PAULANER","lon":"121.473980542","lat":"31.2169820769","category":"500","category_name":"未知分类","address":"上海新天地"},{"poiid":"B2094757D06FAAF54292","title":"新天地时尚中庭","lon":"121.474863","lat":"31.21703","category":"119","category_name":"商场","address":"上海卢湾区马当路245号"},{"poiid":"B2094757D06EAAFB4592","title":"新天地地铁站","lon":"121.47513982","lat":"31.216345887","category":"36","category_name":"地铁站","address":"上海轨道交通 十号线 轨交新天地站 10"},{"poiid":"B2094757D468A0FB499C","title":"香啡缤 新天地时尚店","lon":"121.474843","lat":"31.2171292","category":"260","category_name":"其他","address":"卢湾区马当路245号新天地时尚购物广场B129a室(近复兴中路)"},{"poiid":"B2094757D068A4F94598","title":"I.T(新天地店)","lon":"121.474807738","lat":"31.2165414084","category":"141","category_name":"服装鞋帽皮具店","address":"卢湾区兴业路123弄新天地南里号楼2楼(近马当路)"},{"poiid":"B2094757D069ABFA409C","title":"上海市基督教诸圣堂","lon":"121.473615","lat":"31.215621","category":"245","category_name":"教堂","address":"上海复兴中路425号(近淡水路)"},{"poiid":"B2094757D068A2F9409D","title":"Lavazza Espression(新天地店)","lon":"121.47317673","lat":"31.216841014","category":"260","category_name":"其他","address":"卢湾区马当路245号新天地时尚商场1楼"},{"poiid":"B2094757D06AA0FD4092","title":"Urban Soup Kitchen","lon":"121.47502","lat":"31.21742","category":"94","category_name":"西餐厅","address":"卢湾区马当路280号(近自忠路)"},{"poiid":"B2094655D36CA6FF4293","title":"复兴中路","lon":"121.47073","lat":"31.21609","category":"38","category_name":"公交车站","address":""},{"poiid":"B2094757DB6FA7F8499B","title":"Mix drink","lon":"121.47339","lat":"31.21652","category":"113","category_name":"冷饮店","address":"卢湾区淡水路238号(近自忠路)"},{"poiid":"B2094757D06EAAFD4992","title":"地铁十号线","lon":"121.47509765","lat":"31.216314315","category":"36","category_name":"地铁站","address":"上海虹桥火车站/航中路- 新江湾城 轨道交通十号线 轨交 10"},{"poiid":"B2094757D069A0F54699","title":"Yogo Juice(新天地店)","lon":"121.47470973","lat":"31.217293024","category":"113","category_name":"冷饮店","address":"卢湾区马当路245号新天地时尚购物广场B128室(近复兴中路)"},{"poiid":"B209475CD26FA5F8489B","title":"一人前寿司专门店","lon":"121.474746","lat":"31.217882","category":"500","category_name":"未知分类","address":"上海市 马当路245号新天地时尚地下一层129室"},{"poiid":"B2094752DB6CA5FA469D","title":"思南公館","lon":"121.473636","lat":"31.21627","category":"500","category_name":"未知分类","address":"上海市 上海市思南路"},{"poiid":"B2094757D064A5FB469E","title":"黎云阁","lon":"121.47304678","lat":"31.215470918","category":"76","category_name":"上海菜","address":"卢湾区复兴中路470号(近淡水路)"},{"poiid":"B2094757D069A7FA409D","title":"Parkway Health(淡水路门诊部)","lon":"121.47327","lat":"31.21829","category":"162","category_name":"医院","address":"上海卢湾区淡水路170号2-3楼(近兴业路)"},{"poiid":"B2094654DB65A4F8479E","title":"复兴公园(南门)","lon":"121.47041","lat":"31.21575","category":"656","category_name":"大门","address":"上海卢湾区皋兰路2号甲(近思南路)"},{"poiid":"B2094757D06AA0FB409C","title":"品芳面馆","lon":"121.470912054","lat":"31.216979793","category":"68","category_name":"快餐厅","address":"卢湾区重庆南路183号(复兴中路重庆南路)"},{"poiid":"B2094757D169A5F9469D","title":"南北高架淮海路","lon":"121.47080473","lat":"31.21662301","category":"500","category_name":"未知分类","address":"上海市南北高架"},{"poiid":"B2094757D06FA4F9489B","title":"BAZAAR","lon":"121.47508073","lat":"31.216721012","category":"249","category_name":"购物服务","address":"卢湾区马当路245号新天地时尚购物广场"},{"poiid":"B2094757D069A7F4469F","title":"新天地人工湖","lon":"121.47291015","lat":"31.217486148","category":"500","category_name":"未知分类","address":"上海新天地"},{"poiid":"B2094757D068ABFF4598","title":"大韩民国临时政府旧址","lon":"121.47505","lat":"31.21707","category":"260","category_name":"其他","address":"卢湾区马当路302-304号(马当路自忠路)"},{"poiid":"B2094757D06BA1F8419D","title":"The Five Tables Bistro","lon":"121.47461813","lat":"31.217152521","category":"94","category_name":"西餐厅","address":"卢湾区淡水路210号(近自忠路)"},{"poiid":"B2094655D26CA4F94699","title":"钱柜卢湾店(东门)","lon":"121.47074","lat":"31.21645","category":"68","category_name":"快餐厅","address":""},{"poiid":"B2094750D76CA3FF4098","title":"3Q脆皮鸡排","lon":"121.474","lat":"31.2144","category":"68","category_name":"快餐厅","address":"卢湾区合肥路297号(近淡水路)"},{"poiid":"B2094757D06FA4FA4692","title":"Francfranc(新天地旗舰店)","lon":"121.47508563","lat":"31.2167971579","category":"123","category_name":"家具建材市场","address":"卢湾区马当路245号新天地时尚购物广场1-2楼(近复兴中路)"},{"poiid":"B2094757D16DA4F94292","title":"翠步摇","lon":"121.47301572","lat":"31.217306995","category":"500","category_name":"未知分类","address":"卢湾区淡水路213号"},{"poiid":"B2094654DA6EA4FA459F","title":"上海市卢湾区教育学院","lon":"121.47191","lat":"31.21754","category":"53","category_name":"成人教育","address":"自忠路455"},{"poiid":"B2094757D06BA0FF419D","title":"金沙概念餐厅","lon":"121.47122234588","lat":"31.217087273718","category":"76","category_name":"上海菜","address":"卢湾区自忠路453-455号(重庆南路自忠路)"},{"poiid":"B2094750D665ABF8439B","title":"上海口味粽王","lon":"121.472","lat":"31.2156","category":"68","category_name":"快餐厅","address":"卢湾区复兴中路488号(淡水路复兴中路)"},{"poiid":"B2094757D06BA3F44498","title":"Musee platinum","lon":"121.47511773","lat":"31.216438006","category":"500","category_name":"未知分类","address":"上海市卢湾区马当路 新天地时尚2楼"},{"poiid":"B2094757D46DABFA4792","title":"宜芝多 新天地店","lon":"121.4748631","lat":"31.2170296","category":"112","category_name":"糕饼店","address":"卢湾区马当路245号新天地时尚B2楼(近复兴中路)"},{"poiid":"B2094655D26AA0F9489F","title":"地铁马当路站","lon":"121.47497","lat":"31.21624","category":"36","category_name":"地铁站","address":""},{"poiid":"B2094753D26BA3FF4593","title":"Caffeine-Shanghai","lon":"121.47322834","lat":"31.21616892","category":"247","category_name":"餐饮美食","address":"淡水路264号（近复兴中路）"},{"poiid":"B2094655D36DA7F9459E","title":"重庆南路复兴中路","lon":"121.47099","lat":"31.21581","category":"38","category_name":"公交车站","address":""},{"poiid":"B2094757D169A4FA489D","title":"城市浓汤 Urban Soup Kitchen","lon":"121.474549054","lat":"31.218663793","category":"94","category_name":"西餐厅","address":"马当路280号近自忠路"},{"poiid":"B2094757D468AAFD4798","title":"西树泡芙 新天地店 Chez Choux","lon":"121.4748631","lat":"31.2170296","category":"67","category_name":"甜品店","address":"卢湾区马当路245号新天地时尚购物广场B2楼"},{"poiid":"B209475CD16BA7FA489D","title":"一人前寿司场","lon":"121.475036","lat":"31.217124","category":"247","category_name":"餐饮美食","address":"上海市 新天地"},{"poiid":"B2094750D76DA0FC429F","title":"阿三老式葱油饼","lon":"121.475","lat":"31.2167","category":"68","category_name":"快餐厅","address":"卢湾区马当路菜场内(合肥路口)"},{"poiid":"B2094757D16DA0FC499F","title":"渡口书店(新天地時尚店)","lon":"121.474843454","lat":"31.217367011","category":"125","category_name":"书店","address":"上海卢湾区马当路245号新天地时尚B1楼"},{"poiid":"B209475CD36AA6FF4398","title":"卯花寿司 淡水路店","lon":"121.47321","lat":"31.218","category":"95","category_name":"日本料理","address":"淡水路198号(近自忠路)"},{"poiid":"B2094750D268A3FD469C","title":"萌果酱女仆咖啡厅","lon":"121.472351","lat":"31.21784","category":"247","category_name":"餐饮美食","address":"自忠路453号甲"},{"poiid":"B2094757D664A7F8489E","title":"河南拉面馆 淡水路店","lon":"121.47325","lat":"31.21617","category":"247","category_name":"餐饮美食","address":"卢湾区淡水路266号对面(近复兴中路)"},{"poiid":"B2094757D06EABF54693","title":"STAYREAL(新天地店)","lon":"121.4748631","lat":"31.2170296","category":"141","category_name":"服装鞋帽皮具店","address":"上海市马当路245号新天地时尚B101-B102"},{"poiid":"B2094757D06EAAF44293","title":"瑞金医院(卢湾分院)","lon":"121.472367079","lat":"31.2182978875","category":"162","category_name":"医院","address":"卢湾区重庆南路149号(近南昌路)"},{"poiid":"B2094757D06FA4FA4192","title":"SMUDGEstore(林俊杰SMG)","lon":"121.47483764","lat":"31.215852575","category":"141","category_name":"服装鞋帽皮具店","address":"上海市卢湾区马当路新天地时尚B108号"},{"poiid":"B2094753D76FAAFA449C","title":"上海滩国泰旗舰店","lon":"121.466011","lat":"31.216125","category":"249","category_name":"购物服务","address":"淮海中路868号"},{"poiid":"B209475CD564A7F84292","title":"上海滩新天地店","lon":"121.47463","lat":"31.22164","category":"119","category_name":"商场","address":"\"太仓路181弄新天地北里15号\r\n\""},{"poiid":"B209475CD564A7F8439E","title":"上海滩中信泰富店","lon":"121.45602","lat":"31.22851","category":"119","category_name":"商场","address":"\"南京西路1168号中信泰富广场，店铺号221.\r\n\""},{"poiid":"B2094751D265A1FB459E","title":"萌果酱女仆咖啡屋 Maid Jump","lon":"121.47213","lat":"31.21763","category":"247","category_name":"餐饮美食","address":"卢湾区自忠路453号甲(近淡水路)"},{"poiid":"B2094757D16FA6F44399","title":"新天地PAULANER","lon":"121.473980542","lat":"31.2169820769","category":"500","category_name":"未知分类","address":"上海新天地"},{"poiid":"B2094757D06FAAF54292","title":"新天地时尚中庭","lon":"121.474863","lat":"31.21703","category":"119","category_name":"商场","address":"上海卢湾区马当路245号"},{"poiid":"B2094757D06EAAFB4592","title":"新天地地铁站","lon":"121.47513982","lat":"31.216345887","category":"36","category_name":"地铁站","address":"上海轨道交通 十号线 轨交新天地站 10"},{"poiid":"B2094757D468A0FB499C","title":"香啡缤 新天地时尚店","lon":"121.474843","lat":"31.2171292","category":"260","category_name":"其他","address":"卢湾区马当路245号新天地时尚购物广场B129a室(近复兴中路)"},{"poiid":"B2094757D068A4F94598","title":"I.T(新天地店)","lon":"121.474807738","lat":"31.2165414084","category":"141","category_name":"服装鞋帽皮具店","address":"卢湾区兴业路123弄新天地南里号楼2楼(近马当路)"},{"poiid":"B2094757D069ABFA409C","title":"上海市基督教诸圣堂","lon":"121.473615","lat":"31.215621","category":"245","category_name":"教堂","address":"上海复兴中路425号(近淡水路)"},{"poiid":"B2094757D068A2F9409D","title":"Lavazza Espression(新天地店)","lon":"121.47317673","lat":"31.216841014","category":"260","category_name":"其他","address":"卢湾区马当路245号新天地时尚商场1楼"},{"poiid":"B2094757D06AA0FD4092","title":"Urban Soup Kitchen","lon":"121.47502","lat":"31.21742","category":"94","category_name":"西餐厅","address":"卢湾区马当路280号(近自忠路)"},{"poiid":"B2094655D36CA6FF4293","title":"复兴中路","lon":"121.47073","lat":"31.21609","category":"38","category_name":"公交车站","address":""},{"poiid":"B2094757DB6FA7F8499B","title":"Mix drink","lon":"121.47339","lat":"31.21652","category":"113","category_name":"冷饮店","address":"卢湾区淡水路238号(近自忠路)"},{"poiid":"B2094757D06EAAFD4992","title":"地铁十号线","lon":"121.47509765","lat":"31.216314315","category":"36","category_name":"地铁站","address":"上海虹桥火车站/航中路- 新江湾城 轨道交通十号线 轨交 10"},{"poiid":"B2094757D069A0F54699","title":"Yogo Juice(新天地店)","lon":"121.47470973","lat":"31.217293024","category":"113","category_name":"冷饮店","address":"卢湾区马当路245号新天地时尚购物广场B128室(近复兴中路)"},{"poiid":"B209475CD26FA5F8489B","title":"一人前寿司专门店","lon":"121.474746","lat":"31.217882","category":"500","category_name":"未知分类","address":"上海市 马当路245号新天地时尚地下一层129室"},{"poiid":"B2094752DB6CA5FA469D","title":"思南公館","lon":"121.473636","lat":"31.21627","category":"500","category_name":"未知分类","address":"上海市 上海市思南路"},{"poiid":"B2094757D064A5FB469E","title":"黎云阁","lon":"121.47304678","lat":"31.215470918","category":"76","category_name":"上海菜","address":"卢湾区复兴中路470号(近淡水路)"},{"poiid":"B2094757D069A7FA409D","title":"Parkway Health(淡水路门诊部)","lon":"121.47327","lat":"31.21829","category":"162","category_name":"医院","address":"上海卢湾区淡水路170号2-3楼(近兴业路)"},{"poiid":"B2094654DB65A4F8479E","title":"复兴公园(南门)","lon":"121.47041","lat":"31.21575","category":"656","category_name":"大门","address":"上海卢湾区皋兰路2号甲(近思南路)"},{"poiid":"B2094757D06AA0FB409C","title":"品芳面馆","lon":"121.470912054","lat":"31.216979793","category":"68","category_name":"快餐厅","address":"卢湾区重庆南路183号(复兴中路重庆南路)"},{"poiid":"B2094757D169A5F9469D","title":"南北高架淮海路","lon":"121.47080473","lat":"31.21662301","category":"500","category_name":"未知分类","address":"上海市南北高架"},{"poiid":"B2094757D06FA4F9489B","title":"BAZAAR","lon":"121.47508073","lat":"31.216721012","category":"249","category_name":"购物服务","address":"卢湾区马当路245号新天地时尚购物广场"},{"poiid":"B2094757D069A7F4469F","title":"新天地人工湖","lon":"121.47291015","lat":"31.217486148","category":"500","category_name":"未知分类","address":"上海新天地"},{"poiid":"B2094757D068ABFF4598","title":"大韩民国临时政府旧址","lon":"121.47505","lat":"31.21707","category":"260","category_name":"其他","address":"卢湾区马当路302-304号(马当路自忠路)"},{"poiid":"B2094757D06BA1F8419D","title":"The Five Tables Bistro","lon":"121.47461813","lat":"31.217152521","category":"94","category_name":"西餐厅","address":"卢湾区淡水路210号(近自忠路)"},{"poiid":"B2094655D26CA4F94699","title":"钱柜卢湾店(东门)","lon":"121.47074","lat":"31.21645","category":"68","category_name":"快餐厅","address":""},{"poiid":"B2094750D76CA3FF4098","title":"3Q脆皮鸡排","lon":"121.474","lat":"31.2144","category":"68","category_name":"快餐厅","address":"卢湾区合肥路297号(近淡水路)"},{"poiid":"B2094757D06FA4FA4692","title":"Francfranc(新天地旗舰店)","lon":"121.47508563","lat":"31.2167971579","category":"123","category_name":"家具建材市场","address":"卢湾区马当路245号新天地时尚购物广场1-2楼(近复兴中路)"},{"poiid":"B2094757D16DA4F94292","title":"翠步摇","lon":"121.47301572","lat":"31.217306995","category":"500","category_name":"未知分类","address":"卢湾区淡水路213号"},{"poiid":"B2094654DA6EA4FA459F","title":"上海市卢湾区教育学院","lon":"121.47191","lat":"31.21754","category":"53","category_name":"成人教育","address":"自忠路455"},{"poiid":"B2094757D06BA0FF419D","title":"金沙概念餐厅","lon":"121.47122234588","lat":"31.217087273718","category":"76","category_name":"上海菜","address":"卢湾区自忠路453-455号(重庆南路自忠路)"},{"poiid":"B2094750D665ABF8439B","title":"上海口味粽王","lon":"121.472","lat":"31.2156","category":"68","category_name":"快餐厅","address":"卢湾区复兴中路488号(淡水路复兴中路)"},{"poiid":"B2094757D06BA3F44498","title":"Musee platinum","lon":"121.47511773","lat":"31.216438006","category":"500","category_name":"未知分类","address":"上海市卢湾区马当路 新天地时尚2楼"},{"poiid":"B2094757D46DABFA4792","title":"宜芝多 新天地店","lon":"121.4748631","lat":"31.2170296","category":"112","category_name":"糕饼店","address":"卢湾区马当路245号新天地时尚B2楼(近复兴中路)"},{"poiid":"B2094655D26AA0F9489F","title":"地铁马当路站","lon":"121.47497","lat":"31.21624","category":"36","category_name":"地铁站","address":""},{"poiid":"B2094753D26BA3FF4593","title":"Caffeine-Shanghai","lon":"121.47322834","lat":"31.21616892","category":"247","category_name":"餐饮美食","address":"淡水路264号（近复兴中路）"},{"poiid":"B2094655D36DA7F9459E","title":"重庆南路复兴中路","lon":"121.47099","lat":"31.21581","category":"38","category_name":"公交车站","address":""},{"poiid":"B2094757D169A4FA489D","title":"城市浓汤 Urban Soup Kitchen","lon":"121.474549054","lat":"31.218663793","category":"94","category_name":"西餐厅","address":"马当路280号近自忠路"},{"poiid":"B2094757D468AAFD4798","title":"西树泡芙 新天地店 Chez Choux","lon":"121.4748631","lat":"31.2170296","category":"67","category_name":"甜品店","address":"卢湾区马当路245号新天地时尚购物广场B2楼"},{"poiid":"B209475CD16BA7FA489D","title":"一人前寿司场","lon":"121.475036","lat":"31.217124","category":"247","category_name":"餐饮美食","address":"上海市 新天地"},{"poiid":"B2094750D76DA0FC429F","title":"阿三老式葱油饼","lon":"121.475","lat":"31.2167","category":"68","category_name":"快餐厅","address":"卢湾区马当路菜场内(合肥路口)"},{"poiid":"B2094757D16DA0FC499F","title":"渡口书店(新天地時尚店)","lon":"121.474843454","lat":"31.217367011","category":"125","category_name":"书店","address":"上海卢湾区马当路245号新天地时尚B1楼"},{"poiid":"B209475CD36AA6FF4398","title":"卯花寿司 淡水路店","lon":"121.47321","lat":"31.218","category":"95","category_name":"日本料理","address":"淡水路198号(近自忠路)"},{"poiid":"B2094750D268A3FD469C","title":"萌果酱女仆咖啡厅","lon":"121.472351","lat":"31.21784","category":"247","category_name":"餐饮美食","address":"自忠路453号甲"},{"poiid":"B2094757D664A7F8489E","title":"河南拉面馆 淡水路店","lon":"121.47325","lat":"31.21617","category":"247","category_name":"餐饮美食","address":"卢湾区淡水路266号对面(近复兴中路)"},{"poiid":"B2094757D06EABF54693","title":"STAYREAL(新天地店)","lon":"121.4748631","lat":"31.2170296","category":"141","category_name":"服装鞋帽皮具店","address":"上海市马当路245号新天地时尚B101-B102"},{"poiid":"B2094757D06EAAF44293","title":"瑞金医院(卢湾分院)","lon":"121.472367079","lat":"31.2182978875","category":"162","category_name":"医院","address":"卢湾区重庆南路149号(近南昌路)"},{"poiid":"B2094757D06FA4FA4192","title":"SMUDGEstore(林俊杰SMG)","lon":"121.47483764","lat":"31.215852575","category":"141","category_name":"服装鞋帽皮具店","address":"上海市卢湾区马当路新天地时尚B108号"},{"poiid":"B2094753D76FAAFA449C","title":"上海滩国泰旗舰店","lon":"121.466011","lat":"31.216125","category":"249","category_name":"购物服务","address":"淮海中路868号"},{"poiid":"B209475CD564A7F84292","title":"上海滩新天地店","lon":"121.47463","lat":"31.22164","category":"119","category_name":"商场","address":"\"太仓路181弄新天地北里15号\r\n\""},{"poiid":"B209475CD564A7F8439E","title":"上海滩中信泰富店","lon":"121.45602","lat":"31.22851","category":"119","category_name":"商场","address":"\"南京西路1168号中信泰富广场，店铺号221.\r\n\""},{"poiid":"B2094751D265A1FB459E","title":"萌果酱女仆咖啡屋 Maid Jump","lon":"121.47213","lat":"31.21763","category":"247","category_name":"餐饮美食","address":"卢湾区自忠路453号甲(近淡水路)"},{"poiid":"B2094757D16FA6F44399","title":"新天地PAULANER","lon":"121.473980542","lat":"31.2169820769","category":"500","category_name":"未知分类","address":"上海新天地"},{"poiid":"B2094757D06FAAF54292","title":"新天地时尚中庭","lon":"121.474863","lat":"31.21703","category":"119","category_name":"商场","address":"上海卢湾区马当路245号"},{"poiid":"B2094757D06EAAFB4592","title":"新天地地铁站","lon":"121.47513982","lat":"31.216345887","category":"36","category_name":"地铁站","address":"上海轨道交通 十号线 轨交新天地站 10"},{"poiid":"B2094757D468A0FB499C","title":"香啡缤 新天地时尚店","lon":"121.474843","lat":"31.2171292","category":"260","category_name":"其他","address":"卢湾区马当路245号新天地时尚购物广场B129a室(近复兴中路)"},{"poiid":"B2094757D068A4F94598","title":"I.T(新天地店)","lon":"121.474807738","lat":"31.2165414084","category":"141","category_name":"服装鞋帽皮具店","address":"卢湾区兴业路123弄新天地南里号楼2楼(近马当路)"},{"poiid":"B2094757D069ABFA409C","title":"上海市基督教诸圣堂","lon":"121.473615","lat":"31.215621","category":"245","category_name":"教堂","address":"上海复兴中路425号(近淡水路)"},{"poiid":"B2094757D068A2F9409D","title":"Lavazza Espression(新天地店)","lon":"121.47317673","lat":"31.216841014","category":"260","category_name":"其他","address":"卢湾区马当路245号新天地时尚商场1楼"},{"poiid":"B2094757D06AA0FD4092","title":"Urban Soup Kitchen","lon":"121.47502","lat":"31.21742","category":"94","category_name":"西餐厅","address":"卢湾区马当路280号(近自忠路)"},{"poiid":"B2094655D36CA6FF4293","title":"复兴中路","lon":"121.47073","lat":"31.21609","category":"38","category_name":"公交车站","address":""},{"poiid":"B2094757DB6FA7F8499B","title":"Mix drink","lon":"121.47339","lat":"31.21652","category":"113","category_name":"冷饮店","address":"卢湾区淡水路238号(近自忠路)"},{"poiid":"B2094757D06EAAFD4992","title":"地铁十号线","lon":"121.47509765","lat":"31.216314315","category":"36","category_name":"地铁站","address":"上海虹桥火车站/航中路- 新江湾城 轨道交通十号线 轨交 10"},{"poiid":"B2094757D069A0F54699","title":"Yogo Juice(新天地店)","lon":"121.47470973","lat":"31.217293024","category":"113","category_name":"冷饮店","address":"卢湾区马当路245号新天地时尚购物广场B128室(近复兴中路)"},{"poiid":"B209475CD26FA5F8489B","title":"一人前寿司专门店","lon":"121.474746","lat":"31.217882","category":"500","category_name":"未知分类","address":"上海市 马当路245号新天地时尚地下一层129室"},{"poiid":"B2094752DB6CA5FA469D","title":"思南公館","lon":"121.473636","lat":"31.21627","category":"500","category_name":"未知分类","address":"上海市 上海市思南路"},{"poiid":"B2094757D064A5FB469E","title":"黎云阁","lon":"121.47304678","lat":"31.215470918","category":"76","category_name":"上海菜","address":"卢湾区复兴中路470号(近淡水路)"},{"poiid":"B2094757D069A7FA409D","title":"Parkway Health(淡水路门诊部)","lon":"121.47327","lat":"31.21829","category":"162","category_name":"医院","address":"上海卢湾区淡水路170号2-3楼(近兴业路)"},{"poiid":"B2094654DB65A4F8479E","title":"复兴公园(南门)","lon":"121.47041","lat":"31.21575","category":"656","category_name":"大门","address":"上海卢湾区皋兰路2号甲(近思南路)"},{"poiid":"B2094757D06AA0FB409C","title":"品芳面馆","lon":"121.470912054","lat":"31.216979793","category":"68","category_name":"快餐厅","address":"卢湾区重庆南路183号(复兴中路重庆南路)"},{"poiid":"B2094757D169A5F9469D","title":"南北高架淮海路","lon":"121.47080473","lat":"31.21662301","category":"500","category_name":"未知分类","address":"上海市南北高架"},{"poiid":"B2094757D06FA4F9489B","title":"BAZAAR","lon":"121.47508073","lat":"31.216721012","category":"249","category_name":"购物服务","address":"卢湾区马当路245号新天地时尚购物广场"},{"poiid":"B2094757D069A7F4469F","title":"新天地人工湖","lon":"121.47291015","lat":"31.217486148","category":"500","category_name":"未知分类","address":"上海新天地"},{"poiid":"B2094757D068ABFF4598","title":"大韩民国临时政府旧址","lon":"121.47505","lat":"31.21707","category":"260","category_name":"其他","address":"卢湾区马当路302-304号(马当路自忠路)"},{"poiid":"B2094757D06BA1F8419D","title":"The Five Tables Bistro","lon":"121.47461813","lat":"31.217152521","category":"94","category_name":"西餐厅","address":"卢湾区淡水路210号(近自忠路)"},{"poiid":"B2094655D26CA4F94699","title":"钱柜卢湾店(东门)","lon":"121.47074","lat":"31.21645","category":"68","category_name":"快餐厅","address":""},{"poiid":"B2094750D76CA3FF4098","title":"3Q脆皮鸡排","lon":"121.474","lat":"31.2144","category":"68","category_name":"快餐厅","address":"卢湾区合肥路297号(近淡水路)"},{"poiid":"B2094757D06FA4FA4692","title":"Francfranc(新天地旗舰店)","lon":"121.47508563","lat":"31.2167971579","category":"123","category_name":"家具建材市场","address":"卢湾区马当路245号新天地时尚购物广场1-2楼(近复兴中路)"},{"poiid":"B2094757D16DA4F94292","title":"翠步摇","lon":"121.47301572","lat":"31.217306995","category":"500","category_name":"未知分类","address":"卢湾区淡水路213号"},{"poiid":"B2094654DA6EA4FA459F","title":"上海市卢湾区教育学院","lon":"121.47191","lat":"31.21754","category":"53","category_name":"成人教育","address":"自忠路455"},{"poiid":"B2094757D06BA0FF419D","title":"金沙概念餐厅","lon":"121.47122234588","lat":"31.217087273718","category":"76","category_name":"上海菜","address":"卢湾区自忠路453-455号(重庆南路自忠路)"},{"poiid":"B2094750D665ABF8439B","title":"上海口味粽王","lon":"121.472","lat":"31.2156","category":"68","category_name":"快餐厅","address":"卢湾区复兴中路488号(淡水路复兴中路)"},{"poiid":"B2094757D06BA3F44498","title":"Musee platinum","lon":"121.47511773","lat":"31.216438006","category":"500","category_name":"未知分类","address":"上海市卢湾区马当路 新天地时尚2楼"},{"poiid":"B2094757D46DABFA4792","title":"宜芝多 新天地店","lon":"121.4748631","lat":"31.2170296","category":"112","category_name":"糕饼店","address":"卢湾区马当路245号新天地时尚B2楼(近复兴中路)"},{"poiid":"B2094655D26AA0F9489F","title":"地铁马当路站","lon":"121.47497","lat":"31.21624","category":"36","category_name":"地铁站","address":""},{"poiid":"B2094753D26BA3FF4593","title":"Caffeine-Shanghai","lon":"121.47322834","lat":"31.21616892","category":"247","category_name":"餐饮美食","address":"淡水路264号（近复兴中路）"},{"poiid":"B2094655D36DA7F9459E","title":"重庆南路复兴中路","lon":"121.47099","lat":"31.21581","category":"38","category_name":"公交车站","address":""},{"poiid":"B2094757D169A4FA489D","title":"城市浓汤 Urban Soup Kitchen","lon":"121.474549054","lat":"31.218663793","category":"94","category_name":"西餐厅","address":"马当路280号近自忠路"},{"poiid":"B2094757D468AAFD4798","title":"西树泡芙 新天地店 Chez Choux","lon":"121.4748631","lat":"31.2170296","category":"67","category_name":"甜品店","address":"卢湾区马当路245号新天地时尚购物广场B2楼"},{"poiid":"B209475CD16BA7FA489D","title":"一人前寿司场","lon":"121.475036","lat":"31.217124","category":"247","category_name":"餐饮美食","address":"上海市 新天地"},{"poiid":"B2094750D76DA0FC429F","title":"阿三老式葱油饼","lon":"121.475","lat":"31.2167","category":"68","category_name":"快餐厅","address":"卢湾区马当路菜场内(合肥路口)"},{"poiid":"B2094757D16DA0FC499F","title":"渡口书店(新天地時尚店)","lon":"121.474843454","lat":"31.217367011","category":"125","category_name":"书店","address":"上海卢湾区马当路245号新天地时尚B1楼"},{"poiid":"B209475CD36AA6FF4398","title":"卯花寿司 淡水路店","lon":"121.47321","lat":"31.218","category":"95","category_name":"日本料理","address":"淡水路198号(近自忠路)"},{"poiid":"B2094750D268A3FD469C","title":"萌果酱女仆咖啡厅","lon":"121.472351","lat":"31.21784","category":"247","category_name":"餐饮美食","address":"自忠路453号甲"},{"poiid":"B2094757D664A7F8489E","title":"河南拉面馆 淡水路店","lon":"121.47325","lat":"31.21617","category":"247","category_name":"餐饮美食","address":"卢湾区淡水路266号对面(近复兴中路)"}]