[{"poiid":"B2094654DB6AA6FF459C","title":"上海金茂君悦大酒店","lon":"121.50588","lat":"31.23522","category":"213","category_name":"五星级宾馆","address":"浦东新区世纪大道88号金茂大厦53-87楼(近二号线陆家嘴站)"},{"poiid":"B2094757D06FA2FE4493","title":"仁清•东京新怀石料理(金茂店)","lon":"121.50594","lat":"31.23477","category":"95","category_name":"日本料理","address":"浦东新区世纪大道88号金茂大厦裙楼3楼(近二号线陆家嘴站)"},{"poiid":"B2094750D26CA3FE4592","title":"鹿港小镇 正大店","lon":"121.5044996","lat":"31.2354647","category":"91","category_name":"台湾菜","address":"浦东新区陆家嘴西路168号正大广场8楼810室(近东方明珠)"},{"poiid":"B209475CD564A7F84392","title":"上海滩浦东香格里拉店","lon":"121.50058","lat":"31.23634","category":"119","category_name":"商场","address":"浦东富成路33号香格里拉酒店内大堂层"},{"poiid":"B2094750DA6AA4F4489F","title":"一风堂拉面","lon":"121.505241","lat":"31.235317","category":"247","category_name":"餐饮美食","address":"国金商场LG1"},{"poiid":"B2094757D06FA1FA4399","title":"外滩游艇会","lon":"121.50381","lat":"31.23071","category":"260","category_name":"其他","address":"浦东新区滨江大道3510号(近东昌路渡口)"},{"poiid":"B2094757D06FA2FD4698","title":"星巴克 STARBUCKS (金茂大厦店)","lon":"121.505466","lat":"31.235254","category":"65","category_name":"咖啡厅","address":"浦东新区世纪大道88号金茂大厦JLIFE时尚生活中心2楼(近二号线陆家嘴站)"},{"poiid":"B2094757D06FA6FF439A","title":"金茂君悦咖啡厅","lon":"121.50615","lat":"31.23475","category":"268","category_name":"自助","address":"浦东新区世纪大道88号金茂君悦大酒店54楼(近二号线陆家嘴站6号口)"},{"poiid":"B2094757D068ABFD489C","title":"Kaefer滨江壹号","lon":"121.50282273","lat":"31.232060339","category":"47","category_name":"住宅区","address":"浦东新区滨江大道富城路拾步街由隆花园(近花园石桥路)"},{"poiid":"B2094654DA69A7FB4792","title":"拉图餐厅 La Tour","lon":"121.50515","lat":"31.23502","category":"94","category_name":"西餐厅","address":"浦东新区世纪大道88号金茂大厦裙楼5楼(近二号线陆家嘴站)"},{"poiid":"B2094750D268A4FC499B","title":"小金牛越南餐厅","lon":"121.5044996","lat":"31.2354647","category":"99","category_name":"泰国／越南菜品餐厅","address":"浦东新区陆家嘴西路168号正大广场8楼21号铺(近东方明珠)"},{"poiid":"B2094750D26BA1FA4898","title":"玛托 MATTO","lon":"121.5044996","lat":"31.2354647","category":"94","category_name":"西餐厅","address":"浦东新区陆家嘴西路168号正大广场1楼GF50铺(近富城路)"},{"poiid":"B2094757D06FA0FB429F","title":"威尔士健身会所(金茂店)","lon":"121.50616","lat":"31.23493","category":"221","category_name":"健身中心","address":"浦东新区世纪大道88号金茂大厦裙楼生活时尚中心J.LIFE3-4楼(近二号线陆家嘴站)"},{"poiid":"B2094757D068A3F94898","title":"天萃庭","lon":"121.50614","lat":"31.23497","category":"72","category_name":"广东菜","address":"浦东新区世纪大道88号金茂大厦裙楼6楼(近二号线陆家嘴站)"},{"poiid":"B2094654DA69A7FB459E","title":"上海金茂大厦88层观光厅","lon":"121.50562","lat":"31.23524","category":"240","category_name":"国家级景点","address":"上海市浦东新区世纪大道88号金茂大厦"},{"poiid":"B2094757D068A6F4499F","title":"君悦轩(花园石桥店)","lon":"121.50239","lat":"31.23334","category":"72","category_name":"广东菜","address":"浦东新区花园石桥路66号东亚银行金融大厦3楼(近陆家嘴环路)"},{"poiid":"B2094750DB6DA0FC459A","title":"一風堂（IPPUDO SH）","lon":"121.50502","lat":"31.235397","category":"247","category_name":"餐饮美食","address":null},{"poiid":"B2094655D26EA6FF409F","title":"金茂君悦宴会厅","lon":"121.50546","lat":"31.23525","category":"257","category_name":"中餐厅","address":"浦东新区世纪大道88号金茂大厦裙楼2楼(近陆家嘴东路)查看地图"},{"poiid":"B2094757D065A7F9409F","title":"Pizzeria Alla Torre(陆家嘴店)","lon":"121.50102","lat":"31.23548","category":"94","category_name":"西餐厅","address":"上海浦东新区陆家嘴环路165号1楼(富城路名商路)"},{"poiid":"B2094654DB69A7FE409C","title":"日珍日本餐厅","lon":"121.505615054","lat":"31.235306793","category":"95","category_name":"日本料理","address":"浦东新区世纪大道88号金茂君悦大酒店56楼(近二号线陆家嘴站)"},{"poiid":"B2094757D169A3F84892","title":"金茂大厦56楼意庐Cucina","lon":"121.50576283","lat":"31.235074653","category":"500","category_name":"未知分类","address":"上海世纪大道88号"},{"poiid":"B2094757D06BA1FA459D","title":"上海中心","lon":"121.506470701","lat":"31.2333594809","category":"500","category_name":"未知分类","address":"上海银城中路501号"},{"poiid":"B2094757D065A7F54592","title":"Park Hyatt 92F Bar","lon":"121.50675873","lat":"31.234378388","category":"260","category_name":"其他","address":"上海市浦东新区世纪大道"},{"poiid":"B2094751D56DA6F4479F","title":"ifc 一风堂","lon":"121.504761","lat":"31.235413","category":"247","category_name":"餐饮美食","address":"上海浦东新区世纪大道8号国金中心LG1 79-80"},{"poiid":"B2094757D069A4FB489E","title":"普京餐厅","lon":"121.50502014","lat":"31.234098434","category":"500","category_name":"未知分类","address":"上海正大广埸"},{"poiid":"B2094757D06BA1FC429F","title":"科瓦齿科(金茂店)","lon":"121.505166736","lat":"31.235647382","category":"162","category_name":"医院","address":"浦东新区世纪大道88号金茂大厦裙房时尚生活中心3N1-3N3(近二号线陆家嘴站)"},{"poiid":"B2094757D469A2FD499B","title":"天庭 Patio Lounge","lon":"121.505615054","lat":"31.235306793","category":"65","category_name":"咖啡厅","address":"世纪大道88号金茂大厦56楼近东泰路"},{"poiid":"B2094757D06FA6FE499F","title":"肯德基 KFC (浦南店)","lon":"121.50421566","lat":"31.234155366","category":"68","category_name":"快餐厅","address":"浦东新区浦东南路800号(近东昌路)"},{"poiid":"B2094757D66EA1FC4398","title":"东昌路地铁站","lon":"121.506740438","lat":"31.2342075849","category":"36","category_name":"地铁站","address":"上海东昌路"},{"poiid":"B2094757D068A4FF489C","title":"华尔街英语上海金茂中心","lon":"121.50498875064852","lat":"31.234724185492258","category":"190","category_name":"培训机构","address":"浦东新区世纪大道88号金茂大厦3楼(近二号线陆家嘴站)"},{"poiid":"B2094654DB69A0F94493","title":"金茂俱乐部上海餐厅","lon":"121.50546","lat":"31.23525","category":"76","category_name":"上海菜","address":"浦东新区世纪大道88号金茂君悦大酒店86楼(近二号线陆家嘴站)"},{"poiid":"B209475DDB6CA0F94899","title":"糖纸","lon":"121.504615","lat":"31.235277","category":"247","category_name":"餐饮美食","address":"上海市 陆家嘴正大广场3楼"},{"poiid":"B2094750DA68A5F4449D","title":"金贸君悦大酒店","lon":"121.502555","lat":"31.234514","category":"500","category_name":"未知分类","address":null},{"poiid":"B2094757D66CABFA4898","title":"上海银行总行","lon":"121.504295","lat":"31.233946","category":"150","category_name":"银行","address":"浦东新区银城中路168号(近东园路)"},{"poiid":"B2094757D16EA5FA4293","title":"安薇塔","lon":"121.502328738","lat":"31.2342943867","category":"500","category_name":"未知分类","address":"上海市 国金中心 LG2"},{"poiid":"B2094757DA64A1F54393","title":"上海中心大厦","lon":"121.504746","lat":"31.233757","category":"252","category_name":"楼宇机构","address":"浦东新区银城中路501号(近花园石桥路)"},{"poiid":"B2094655D36DA0FB419A","title":"银城中路陆家嘴环路(环球中心)","lon":"121.50436","lat":"31.23193","category":"38","category_name":"公交车站","address":""},{"poiid":"B2094757D66CA0FD479E","title":"松鹤楼游船码头","lon":"121.502754738","lat":"31.2317393323","category":"500","category_name":"未知分类","address":"上海中山东二路505号"},{"poiid":"B2094757D069A3F4419C","title":"港泰风茶餐厅","lon":"121.50589822","lat":"31.230998536","category":"72","category_name":"广东菜","address":"浦东新区东昌路540号(近浦东南路)"},{"poiid":"B2094654DB6BABFC429E","title":"上海鹏利辉盛阁公寓(银城中路)","lon":"121.50334","lat":"31.23164","category":"47","category_name":"住宅区","address":"上海市浦东新区陆家嘴银城中路600弄1号（陆家嘴环路）"},{"poiid":"B2094654DA6EA4FC489D","title":"埃力生国际大厦","lon":"121.502","lat":"31.2333","category":"46","category_name":"楼宇","address":"上海市黄浦区南京东路409-459号"},{"poiid":"B2094757D069A4F4499A","title":"金茂时尚生活中心","lon":"121.50573","lat":"31.23498","category":"119","category_name":"商场","address":"浦东新区世纪大道88号金茂大厦裙楼内(近陆家嘴东路)"},{"poiid":"B2094753D46AA6F4429E","title":"中国海关","lon":"121.504631","lat":"31.232267","category":"500","category_name":"未知分类","address":"上海市 陆家嘴西路"},{"poiid":"B2094757D068A7FB439D","title":"盛大金磐","lon":"121.50597524","lat":"31.231531638","category":"500","category_name":"未知分类","address":"上海浦东新区东泰路200弄"},{"poiid":"B2094757D16FAAF4469F","title":"小城故乡台湾牛肉面（正大店）","lon":"121.50504303","lat":"31.234155654","category":"247","category_name":"餐饮美食","address":"上海陆家嘴正大广场b2楼"},{"poiid":"B2094757D06FABF54699","title":"都恩客(国金中心店)","lon":"121.503481707","lat":"31.2351654898","category":"112","category_name":"糕饼店","address":"浦东新区世纪大道8号国金中心商场LG2楼(近东泰路)"},{"poiid":"B2094753D568A7FF469E","title":"金牌外婆家","lon":"121.50476","lat":"31.235616","category":"247","category_name":"餐饮美食","address":"上海市 国金"},{"poiid":"B2094757D16FA1FA4693","title":"安居客","lon":"121.50455474","lat":"31.233558654","category":"500","category_name":"未知分类","address":"上海浦东陆家嘴环路166号未来资产大厦11楼"},{"poiid":"B2094757D065A7F9469C","title":"花旗大厦花旗银行","lon":"121.50367547","lat":"31.231474696","category":"500","category_name":"未知分类","address":"上海市"},{"poiid":"B2094757D76DAAFD499E","title":"The Grill 烧烤屋","lon":"121.505615054","lat":"31.235306793","category":"269","category_name":"烧烤","address":"世纪大道88号金茂大厦56楼近花园石桥路"},{"poiid":"B2094654DB6AA6FF459C","title":"上海金茂君悦大酒店","lon":"121.50588","lat":"31.23522","category":"213","category_name":"五星级宾馆","address":"浦东新区世纪大道88号金茂大厦53-87楼(近二号线陆家嘴站)"},{"poiid":"B2094757D06FA2FE4493","title":"仁清•东京新怀石料理(金茂店)","lon":"121.50594","lat":"31.23477","category":"95","category_name":"日本料理","address":"浦东新区世纪大道88号金茂大厦裙楼3楼(近二号线陆家嘴站)"},{"poiid":"B2094750D26CA3FE4592","title":"鹿港小镇 正大店","lon":"121.5044996","lat":"31.2354647","category":"91","category_name":"台湾菜","address":"浦东新区陆家嘴西路168号正大广场8楼810室(近东方明珠)"},{"poiid":"B209475CD564A7F84392","title":"上海滩浦东香格里拉店","lon":"121.50058","lat":"31.23634","category":"119","category_name":"商场","address":"浦东富成路33号香格里拉酒店内大堂层"},{"poiid":"B2094750DA6AA4F4489F","title":"一风堂拉面","lon":"121.505241","lat":"31.235317","category":"247","category_name":"餐饮美食","address":"国金商场LG1"},{"poiid":"B2094757D06FA1FA4399","title":"外滩游艇会","lon":"121.50381","lat":"31.23071","category":"260","category_name":"其他","address":"浦东新区滨江大道3510号(近东昌路渡口)"},{"poiid":"B2094757D06FA2FD4698","title":"星巴克 STARBUCKS (金茂大厦店)","lon":"121.505466","lat":"31.235254","category":"65","category_name":"咖啡厅","address":"浦东新区世纪大道88号金茂大厦JLIFE时尚生活中心2楼(近二号线陆家嘴站)"},{"poiid":"B2094757D06FA6FF439A","title":"金茂君悦咖啡厅","lon":"121.50615","lat":"31.23475","category":"268","category_name":"自助","address":"浦东新区世纪大道88号金茂君悦大酒店54楼(近二号线陆家嘴站6号口)"},{"poiid":"B2094757D068ABFD489C","title":"Kaefer滨江壹号","lon":"121.50282273","lat":"31.232060339","category":"47","category_name":"住宅区","address":"浦东新区滨江大道富城路拾步街由隆花园(近花园石桥路)"},{"poiid":"B2094654DA69A7FB4792","title":"拉图餐厅 La Tour","lon":"121.50515","lat":"31.23502","category":"94","category_name":"西餐厅","address":"浦东新区世纪大道88号金茂大厦裙楼5楼(近二号线陆家嘴站)"},{"poiid":"B2094750D268A4FC499B","title":"小金牛越南餐厅","lon":"121.5044996","lat":"31.2354647","category":"99","category_name":"泰国／越南菜品餐厅","address":"浦东新区陆家嘴西路168号正大广场8楼21号铺(近东方明珠)"},{"poiid":"B2094750D26BA1FA4898","title":"玛托 MATTO","lon":"121.5044996","lat":"31.2354647","category":"94","category_name":"西餐厅","address":"浦东新区陆家嘴西路168号正大广场1楼GF50铺(近富城路)"},{"poiid":"B2094757D06FA0FB429F","title":"威尔士健身会所(金茂店)","lon":"121.50616","lat":"31.23493","category":"221","category_name":"健身中心","address":"浦东新区世纪大道88号金茂大厦裙楼生活时尚中心J.LIFE3-4楼(近二号线陆家嘴站)"},{"poiid":"B2094757D068A3F94898","title":"天萃庭","lon":"121.50614","lat":"31.23497","category":"72","category_name":"广东菜","address":"浦东新区世纪大道88号金茂大厦裙楼6楼(近二号线陆家嘴站)"},{"poiid":"B2094654DA69A7FB459E","title":"上海金茂大厦88层观光厅","lon":"121.50562","lat":"31.23524","category":"240","category_name":"国家级景点","address":"上海市浦东新区世纪大道88号金茂大厦"},{"poiid":"B2094757D068A6F4499F","title":"君悦轩(花园石桥店)","lon":"121.50239","lat":"31.23334","category":"72","category_name":"广东菜","address":"浦东新区花园石桥路66号东亚银行金融大厦3楼(近陆家嘴环路)"},{"poiid":"B2094750DB6DA0FC459A","title":"一風堂（IPPUDO SH）","lon":"121.50502","lat":"31.235397","category":"247","category_name":"餐饮美食","address":null},{"poiid":"B2094655D26EA6FF409F","title":"金茂君悦宴会厅","lon":"121.50546","lat":"31.23525","category":"257","category_name":"中餐厅","address":"浦东新区世纪大道88号金茂大厦裙楼2楼(近陆家嘴东路)查看地图"},{"poiid":"B2094757D065A7F9409F","title":"Pizzeria Alla Torre(陆家嘴店)","lon":"121.50102","lat":"31.23548","category":"94","category_name":"西餐厅","address":"上海浦东新区陆家嘴环路165号1楼(富城路名商路)"},{"poiid":"B2094654DB69A7FE409C","title":"日珍日本餐厅","lon":"121.505615054","lat":"31.235306793","category":"95","category_name":"日本料理","address":"浦东新区世纪大道88号金茂君悦大酒店56楼(近二号线陆家嘴站)"},{"poiid":"B2094757D169A3F84892","title":"金茂大厦56楼意庐Cucina","lon":"121.50576283","lat":"31.235074653","category":"500","category_name":"未知分类","address":"上海世纪大道88号"},{"poiid":"B2094757D06BA1FA459D","title":"上海中心","lon":"121.506470701","lat":"31.2333594809","category":"500","category_name":"未知分类","address":"上海银城中路501号"},{"poiid":"B2094757D065A7F54592","title":"Park Hyatt 92F Bar","lon":"121.50675873","lat":"31.234378388","category":"260","category_name":"其他","address":"上海市浦东新区世纪大道"},{"poiid":"B2094751D56DA6F4479F","title":"ifc 一风堂","lon":"121.504761","lat":"31.235413","category":"247","category_name":"餐饮美食","address":"上海浦东新区世纪大道8号国金中心LG1 79-80"},{"poiid":"B2094757D069A4FB489E","title":"普京餐厅","lon":"121.50502014","lat":"31.234098434","category":"500","category_name":"未知分类","address":"上海正大广埸"},{"poiid":"B2094757D06BA1FC429F","title":"科瓦齿科(金茂店)","lon":"121.505166736","lat":"31.235647382","category":"162","category_name":"医院","address":"浦东新区世纪大道88号金茂大厦裙房时尚生活中心3N1-3N3(近二号线陆家嘴站)"},{"poiid":"B2094757D469A2FD499B","title":"天庭 Patio Lounge","lon":"121.505615054","lat":"31.235306793","category":"65","category_name":"咖啡厅","address":"世纪大道88号金茂大厦56楼近东泰路"},{"poiid":"B2094757D06FA6FE499F","title":"肯德基 KFC (浦南店)","lon":"121.50421566","lat":"31.234155366","category":"68","category_name":"快餐厅","address":"浦东新区浦东南路800号(近东昌路)"},{"poiid":"B2094757D66EA1FC4398","title":"东昌路地铁站","lon":"121.506740438","lat":"31.2342075849","category":"36","category_name":"地铁站","address":"上海东昌路"},{"poiid":"B2094757D068A4FF489C","title":"华尔街英语上海金茂中心","lon":"121.50498875064852","lat":"31.234724185492258","category":"190","category_name":"培训机构","address":"浦东新区世纪大道88号金茂大厦3楼(近二号线陆家嘴站)"},{"poiid":"B2094654DB69A0F94493","title":"金茂俱乐部上海餐厅","lon":"121.50546","lat":"31.23525","category":"76","category_name":"上海菜","address":"浦东新区世纪大道88号金茂君悦大酒店86楼(近二号线陆家嘴站)"},{"poiid":"B209475DDB6CA0F94899","title":"糖纸","lon":"121.504615","lat":"31.235277","category":"247","category_name":"餐饮美食","address":"上海市 陆家嘴正大广场3楼"},{"poiid":"B2094750DA68A5F4449D","title":"金贸君悦大酒店","lon":"121.502555","lat":"31.234514","category":"500","category_name":"未知分类","address":null},{"poiid":"B2094757D66CABFA4898","title":"上海银行总行","lon":"121.504295","lat":"31.233946","category":"150","category_name":"银行","address":"浦东新区银城中路168号(近东园路)"},{"poiid":"B2094757D16EA5FA4293","title":"安薇塔","lon":"121.502328738","lat":"31.2342943867","category":"500","category_name":"未知分类","address":"上海市 国金中心 LG2"},{"poiid":"B2094757DA64A1F54393","title":"上海中心大厦","lon":"121.504746","lat":"31.233757","category":"252","category_name":"楼宇机构","address":"浦东新区银城中路501号(近花园石桥路)"},{"poiid":"B2094655D36DA0FB419A","title":"银城中路陆家嘴环路(环球中心)","lon":"121.50436","lat":"31.23193","category":"38","category_name":"公交车站","address":""},{"poiid":"B2094757D66CA0FD479E","title":"松鹤楼游船码头","lon":"121.502754738","lat":"31.2317393323","category":"500","category_name":"未知分类","address":"上海中山东二路505号"},{"poiid":"B2094757D069A3F4419C","title":"港泰风茶餐厅","lon":"121.50589822","lat":"31.230998536","category":"72","category_name":"广东菜","address":"浦东新区东昌路540号(近浦东南路)"},{"poiid":"B2094654DB6BABFC429E","title":"上海鹏利辉盛阁公寓(银城中路)","lon":"121.50334","lat":"31.23164","category":"47","category_name":"住宅区","address":"上海市浦东新区陆家嘴银城中路600弄1号（陆家嘴环路）"},{"poiid":"B2094654DA6EA4FC489D","title":"埃力生国际大厦","lon":"121.502","lat":"31.2333","category":"46","category_name":"楼宇","address":"上海市黄浦区南京东路409-459号"},{"poiid":"B2094757D069A4F4499A","title":"金茂时尚生活中心","lon":"121.50573","lat":"31.23498","category":"119","category_name":"商场","address":"浦东新区世纪大道88号金茂大厦裙楼内(近陆家嘴东路)"},{"poiid":"B2094753D46AA6F4429E","title":"中国海关","lon":"121.504631","lat":"31.232267","category":"500","category_name":"未知分类","address":"上海市 陆家嘴西路"},{"poiid":"B2094757D068A7FB439D","title":"盛大金磐","lon":"121.50597524","lat":"31.231531638","category":"500","category_name":"未知分类","address":"上海浦东新区东泰路200弄"},{"poiid":"B2094757D16FAAF4469F","title":"小城故乡台湾牛肉面（正大店）","lon":"121.50504303","lat":"31.234155654","category":"247","category_name":"餐饮美食","address":"上海陆家嘴正大广场b2楼"},{"poiid":"B2094757D06FABF54699","title":"都恩客(国金中心店)","lon":"121.503481707","lat":"31.2351654898","category":"112","category_name":"糕饼店","address":"浦东新区世纪大道8号国金中心商场LG2楼(近东泰路)"},{"poiid":"B2094753D568A7FF469E","title":"金牌外婆家","lon":"121.50476","lat":"31.235616","category":"247","category_name":"餐饮美食","address":"上海市 国金"},{"poiid":"B2094757D16FA1FA4693","title":"安居客","lon":"121.50455474","lat":"31.233558654","category":"500","category_name":"未知分类","address":"上海浦东陆家嘴环路166号未来资产大厦11楼"},{"poiid":"B2094757D065A7F9469C","title":"花旗大厦花旗银行","lon":"121.50367547","lat":"31.231474696","category":"500","category_name":"未知分类","address":"上海市"},{"poiid":"B2094757D76DAAFD499E","title":"The Grill 烧烤屋","lon":"121.505615054","lat":"31.235306793","category":"269","category_name":"烧烤","address":"世纪大道88号金茂大厦56楼近花园石桥路"},{"poiid":"B2094654DB6AA6FF459C","title":"上海金茂君悦大酒店","lon":"121.50588","lat":"31.23522","category":"213","category_name":"五星级宾馆","address":"浦东新区世纪大道88号金茂大厦53-87楼(近二号线陆家嘴站)"},{"poiid":"B2094757D06FA2FE4493","title":"仁清•东京新怀石料理(金茂店)","lon":"121.50594","lat":"31.23477","category":"95","category_name":"日本料理","address":"浦东新区世纪大道88号金茂大厦裙楼3楼(近二号线陆家嘴站)"},{"poiid":"B2094750D26CA3FE4592","title":"鹿港小镇 正大店","lon":"121.5044996","lat":"31.2354647","category":"91","category_name":"台湾菜","address":"浦东新区陆家嘴西路168号正大广场8楼810室(近东方明珠)"},{"poiid":"B209475CD564A7F84392","title":"上海滩浦东香格里拉店","lon":"121.50058","lat":"31.23634","category":"119","category_name":"商场","address":"浦东富成路33号香格里拉酒店内大堂层"},{"poiid":"B2094750DA6AA4F4489F","title":"一风堂拉面","lon":"121.505241","lat":"31.235317","category":"247","category_name":"餐饮美食","address":"国金商场LG1"},{"poiid":"B2094757D06FA1FA4399","title":"外滩游艇会","lon":"121.50381","lat":"31.23071","category":"260","category_name":"其他","address":"浦东新区滨江大道3510号(近东昌路渡口)"},{"poiid":"B2094757D06FA2FD4698","title":"星巴克 STARBUCKS (金茂大厦店)","lon":"121.505466","lat":"31.235254","category":"65","category_name":"咖啡厅","address":"浦东新区世纪大道88号金茂大厦JLIFE时尚生活中心2楼(近二号线陆家嘴站)"},{"poiid":"B2094757D06FA6FF439A","title":"金茂君悦咖啡厅","lon":"121.50615","lat":"31.23475","category":"268","category_name":"自助","address":"浦东新区世纪大道88号金茂君悦大酒店54楼(近二号线陆家嘴站6号口)"},{"poiid":"B2094757D068ABFD489C","title":"Kaefer滨江壹号","lon":"121.50282273","lat":"31.232060339","category":"47","category_name":"住宅区","address":"浦东新区滨江大道富城路拾步街由隆花园(近花园石桥路)"},{"poiid":"B2094654DA69A7FB4792","title":"拉图餐厅 La Tour","lon":"121.50515","lat":"31.23502","category":"94","category_name":"西餐厅","address":"浦东新区世纪大道88号金茂大厦裙楼5楼(近二号线陆家嘴站)"},{"poiid":"B2094750D268A4FC499B","title":"小金牛越南餐厅","lon":"121.5044996","lat":"31.2354647","category":"99","category_name":"泰国／越南菜品餐厅","address":"浦东新区陆家嘴西路168号正大广场8楼21号铺(近东方明珠)"},{"poiid":"B2094750D26BA1FA4898","title":"玛托 MATTO","lon":"121.5044996","lat":"31.2354647","category":"94","category_name":"西餐厅","address":"浦东新区陆家嘴西路168号正大广场1楼GF50铺(近富城路)"},{"poiid":"B2094757D06FA0FB429F","title":"威尔士健身会所(金茂店)","lon":"121.50616","lat":"31.23493","category":"221","category_name":"健身中心","address":"浦东新区世纪大道88号金茂大厦裙楼生活时尚中心J.LIFE3-4楼(近二号线陆家嘴站)"},{"poiid":"B2094757D068A3F94898","title":"天萃庭","lon":"121.50614","lat":"31.23497","category":"72","category_name":"广东菜","address":"浦东新区世纪大道88号金茂大厦裙楼6楼(近二号线陆家嘴站)"},{"poiid":"B2094654DA69A7FB459E","title":"上海金茂大厦88层观光厅","lon":"121.50562","lat":"31.23524","category":"240","category_name":"国家级景点","address":"上海市浦东新区世纪大道88号金茂大厦"},{"poiid":"B2094757D068A6F4499F","title":"君悦轩(花园石桥店)","lon":"121.50239","lat":"31.23334","category":"72","category_name":"广东菜","address":"浦东新区花园石桥路66号东亚银行金融大厦3楼(近陆家嘴环路)"},{"poiid":"B2094750DB6DA0FC459A","title":"一風堂（IPPUDO SH）","lon":"121.50502","lat":"31.235397","category":"247","category_name":"餐饮美食","address":null},{"poiid":"B2094655D26EA6FF409F","title":"金茂君悦宴会厅","lon":"121.50546","lat":"31.23525","category":"257","category_name":"中餐厅","address":"浦东新区世纪大道88号金茂大厦裙楼2楼(近陆家嘴东路)查看地图"},{"poiid":"B2094757D065A7F9409F","title":"Pizzeria Alla Torre(陆家嘴店)","lon":"121.50102","lat":"31.23548","category":"94","category_name":"西餐厅","address":"上海浦东新区陆家嘴环路165号1楼(富城路名商路)"},{"poiid":"B2094654DB69A7FE409C","title":"日珍日本餐厅","lon":"121.505615054","lat":"31.235306793","category":"95","category_name":"日本料理","address":"浦东新区世纪大道88号金茂君悦大酒店56楼(近二号线陆家嘴站)"},{"poiid":"B2094757D169A3F84892","title":"金茂大厦56楼意庐Cucina","lon":"121.50576283","lat":"31.235074653","category":"500","category_name":"未知分类","address":"上海世纪大道88号"},{"poiid":"B2094757D06BA1FA459D","title":"上海中心","lon":"121.506470701","lat":"31.2333594809","category":"500","category_name":"未知分类","address":"上海银城中路501号"},{"poiid":"B2094757D065A7F54592","title":"Park Hyatt 92F Bar","lon":"121.50675873","lat":"31.234378388","category":"260","category_name":"其他","address":"上海市浦东新区世纪大道"},{"poiid":"B2094751D56DA6F4479F","title":"ifc 一风堂","lon":"121.504761","lat":"31.235413","category":"247","category_name":"餐饮美食","address":"上海浦东新区世纪大道8号国金中心LG1 79-80"},{"poiid":"B2094757D069A4FB489E","title":"普京餐厅","lon":"121.50502014","lat":"31.234098434","category":"500","category_name":"未知分类","address":"上海正大广埸"},{"poiid":"B2094757D06BA1FC429F","title":"科瓦齿科(金茂店)","lon":"121.505166736","lat":"31.235647382","category":"162","category_name":"医院","address":"浦东新区世纪大道88号金茂大厦裙房时尚生活中心3N1-3N3(近二号线陆家嘴站)"},{"poiid":"B2094757D469A2FD499B","title":"天庭 Patio Lounge","lon":"121.505615054","lat":"31.235306793","category":"65","category_name":"咖啡厅","address":"世纪大道88号金茂大厦56楼近东泰路"},{"poiid":"B2094757D06FA6FE499F","title":"肯德基 KFC (浦南店)","lon":"121.50421566","lat":"31.234155366","category":"68","category_name":"快餐厅","address":"浦东新区浦东南路800号(近东昌路)"},{"poiid":"B2094757D66EA1FC4398","title":"东昌路地铁站","lon":"121.506740438","lat":"31.2342075849","category":"36","category_name":"地铁站","address":"上海东昌路"},{"poiid":"B2094757D068A4FF489C","title":"华尔街英语上海金茂中心","lon":"121.50498875064852","lat":"31.234724185492258","category":"190","category_name":"培训机构","address":"浦东新区世纪大道88号金茂大厦3楼(近二号线陆家嘴站)"},{"poiid":"B2094654DB69A0F94493","title":"金茂俱乐部上海餐厅","lon":"121.50546","lat":"31.23525","category":"76","category_name":"上海菜","address":"浦东新区世纪大道88号金茂君悦大酒店86楼(近二号线陆家嘴站)"},{"poiid":"B209475DDB6CA0F94899","title":"糖纸","lon":"121.504615","lat":"31.235277","category":"247","category_name":"餐饮美食","address":"上海市 陆家嘴正大广场3楼"},{"poiid":"B2094750DA68A5F4449D","title":"金贸君悦大酒店","lon":"121.502555","lat":"31.234514","category":"500","category_name":"未知分类","address":null},{"poiid":"B2094757D66CABFA4898","title":"上海银行总行","lon":"121.504295","lat":"31.233946","category":"150","category_name":"银行","address":"浦东新区银城中路168号(近东园路)"},{"poiid":"B2094757D16EA5FA4293","title":"安薇塔","lon":"121.502328738","lat":"31.2342943867","category":"500","category_name":"未知分类","address":"上海市 国金中心 LG2"},{"poiid":"B2094757DA64A1F54393","title":"上海中心大厦","lon":"121.504746","lat":"31.233757","category":"252","category_name":"楼宇机构","address":"浦东新区银城中路501号(近花园石桥路)"},{"poiid":"B2094655D36DA0FB419A","title":"银城中路陆家嘴环路(环球中心)","lon":"121.50436","lat":"31.23193","category":"38","category_name":"公交车站","address":""},{"poiid":"B2094757D66CA0FD479E","title":"松鹤楼游船码头","lon":"121.502754738","lat":"31.2317393323","category":"500","category_name":"未知分类","address":"上海中山东二路505号"},{"poiid":"B2094757D069A3F4419C","title":"港泰风茶餐厅","lon":"121.50589822","lat":"31.230998536","category":"72","category_name":"广东菜","address":"浦东新区东昌路540号(近浦东南路)"},{"poiid":"B2094654DB6BABFC429E","title":"上海鹏利辉盛阁公寓(银城中路)","lon":"121.50334","lat":"31.23164","category":"47","category_name":"住宅区","address":"上海市浦东新区陆家嘴银城中路600弄1号（陆家嘴环路）"},{"poiid":"B2094654DA6EA4FC489D","title":"埃力生国际大厦","lon":"121.502","lat":"31.2333","category":"46","category_name":"楼宇","address":"上海市黄浦区南京东路409-459号"},{"poiid":"B2094757D069A4F4499A","title":"金茂时尚生活中心","lon":"121.50573","lat":"31.23498","category":"119","category_name":"商场","address":"浦东新区世纪大道88号金茂大厦裙楼内(近陆家嘴东路)"},{"poiid":"B2094753D46AA6F4429E","title":"中国海关","lon":"121.504631","lat":"31.232267","category":"500","category_name":"未知分类","address":"上海市 陆家嘴西路"},{"poiid":"B2094757D068A7FB439D","title":"盛大金磐","lon":"121.50597524","lat":"31.231531638","category":"500","category_name":"未知分类","address":"上海浦东新区东泰路200弄"},{"poiid":"B2094757D16FAAF4469F","title":"小城故乡台湾牛肉面（正大店）","lon":"121.50504303","lat":"31.234155654","category":"247","category_name":"餐饮美食","address":"上海陆家嘴正大广场b2楼"},{"poiid":"B2094757D06FABF54699","title":"都恩客(国金中心店)","lon":"121.503481707","lat":"31.2351654898","category":"112","category_name":"糕饼店","address":"浦东新区世纪大道8号国金中心商场LG2楼(近东泰路)"},{"poiid":"B2094753D568A7FF469E","title":"金牌外婆家","lon":"121.50476","lat":"31.235616","category":"247","category_name":"餐饮美食","address":"上海市 国金"},{"poiid":"B2094757D16FA1FA4693","title":"安居客","lon":"121.50455474","lat":"31.233558654","category":"500","category_name":"未知分类","address":"上海浦东陆家嘴环路166号未来资产大厦11楼"},{"poiid":"B2094757D065A7F9469C","title":"花旗大厦花旗银行","lon":"121.50367547","lat":"31.231474696","category":"500","category_name":"未知分类","address":"上海市"},{"poiid":"B2094757D76DAAFD499E","title":"The Grill 烧烤屋","lon":"121.505615054","lat":"31.235306793","category":"269","category_name":"烧烤","address":"世纪大道88号金茂大厦56楼近花园石桥路"}]