[{"poiid":"B2094757D06FA7F84593","title":"黔香阁(浦东店)","lon":"121.51129","lat":"31.22987","category":"83","category_name":"云贵菜","address":"浦东新区浦城路171号(近商城路)"},{"poiid":"B2094654DA6EA4F9439D","title":"新源广场","lon":"121.51","lat":"31.2273","category":"46","category_name":"楼宇","address":"中山南路268号"},{"poiid":"B2094757D16EA7FC419E","title":"滨江大道黄浦江畔","lon":"121.50977173","lat":"31.226162213","category":"500","category_name":"未知分类","address":"上海市浦东新区滨江大道"},{"poiid":"B209475CD564A7F84392","title":"上海滩浦东香格里拉店","lon":"121.50058","lat":"31.23634","category":"119","category_name":"商场","address":"浦东富成路33号香格里拉酒店内大堂层"},{"poiid":"B2094655D265A0F54793","title":"小南国世茂滨江店","lon":"121.51357","lat":"31.22296","category":"247","category_name":"餐饮美食","address":"浦东新区潍坊西路1弄18号世茂滨江内(近浦城路)"},{"poiid":"B2094757D06AA6FB479E","title":"子羽港式粤菜餐厅","lon":"121.514010738","lat":"31.2268292276","category":"72","category_name":"广东菜","address":"浦东新区浦东南路1138号上海湾广场133号铺(近张扬路)"},{"poiid":"B2094757D06FA1FD4698","title":"星巴克(浦城路店)","lon":"121.512253","lat":"31.227622","category":"260","category_name":"其他","address":"浦东新区浦城路367号(启新路口)"},{"poiid":"B2094757D068A6FE429C","title":"金外滩花园","lon":"121.507","lat":"31.228","category":"47","category_name":"住宅区","address":"上海市黄浦区中山南路222号"},{"poiid":"B2094757D06FA6F8449F","title":"上海湾生活时尚中心","lon":"121.51491","lat":"31.22667","category":"119","category_name":"商场","address":"浦东新区浦东南路1138号上海湾广场内(近张杨路)"},{"poiid":"B2094757D064A7FB419C","title":"世贸滨江","lon":"121.51353927","lat":"31.222660133","category":"47","category_name":"住宅区","address":"上海世贸滨江"},{"poiid":"B2094757D06FA4F8459D","title":"一兆韦德(菊园店)","lon":"121.51270768","lat":"31.226597462","category":"148","category_name":"美容美发店","address":"浦东新区浦城路367号(近东昌路地铁站)"},{"poiid":"B2094757D068A5F8439A","title":"商城路","lon":"121.51235199","lat":"31.2294406891","category":"260","category_name":"其他","address":"上海商城路"},{"poiid":"B2094757D06BA5FA479A","title":"怡景坊海鲜酒家","lon":"121.5103","lat":"31.22614","category":"72","category_name":"广东菜","address":"浦东新区浦明路266号(近启新路)"},{"poiid":"B2094655D264A0FE4098","title":"华润外滩九里","lon":"121.508","lat":"31.224","category":"47","category_name":"住宅区","address":"黄浦区中山南路460号"},{"poiid":"B2094757D06FA5FA459B","title":"上海新东方学校(陆家嘴校区)","lon":"121.51188","lat":"31.22923","category":"253","category_name":"校园生活","address":"浦东新区浦城路190号(商城路路口)"},{"poiid":"B2094757D069A3F4439F","title":"凯德·江临天下(Summit Panorama)","lon":"121.51181768","lat":"31.2262234648","category":"47","category_name":"住宅区","address":"上海市浦东新区浦明路233弄"},{"poiid":"B2094654DA69A1F54192","title":"杨家渡轮渡站(张杨路)","lon":"121.50875","lat":"31.22412","category":"34","category_name":"港口码头","address":"张杨路1号"},{"poiid":"B2094757D069A3F5499E","title":"学俊宋记香辣蟹(潍坊西路店)","lon":"121.51451497","lat":"31.223547926","category":"71","category_name":"四川菜","address":"浦东新区潍坊西路73号(近浦城路)"},{"poiid":"B2094757D06AA3FE4492","title":"洋泾·菊园实验学校","lon":"121.512277683","lat":"31.2272614634","category":"55","category_name":"中学","address":"上海浦东新区浦城路333号"},{"poiid":"B2094757D568A5FE499B","title":"伊藤家上海湾店","lon":"121.5138769","lat":"31.22671306","category":"95","category_name":"日本料理","address":"浦东新区浦城路398号上海湾广场(近张杨路)"},{"poiid":"B2094655D265A6F84893","title":"绿城黄浦湾","lon":"121.511","lat":"31.2238","category":"47","category_name":"住宅区","address":"黄浦区中山南路566弄"},{"poiid":"B2094757D064ABFA499D","title":"财富海景花园","lon":"121.5089","lat":"31.225681","category":"47","category_name":"住宅区","address":"上海市浦东新区浦明路258弄"},{"poiid":"B2094654DA69A1F54193","title":"东昌滨江绿地","lon":"121.50794","lat":"31.22484","category":"202","category_name":"公园广场","address":"浦东新区商城路(东方路商城路)"},{"poiid":"B2094757D068A2FD449A","title":"卡玛生活瑜伽会馆","lon":"121.51181","lat":"31.22961","category":"148","category_name":"美容美发店","address":"浦东新区浦城路172号3-4楼(近商城路)"},{"poiid":"B2094751DB6CA4FD4493","title":"浦东机场T2航站楼","lon":"121.5129","lat":"31.2273","category":"500","category_name":"未知分类","address":null},{"poiid":"B2094757D168AAF8429E","title":"汇豪天下","lon":"121.50957","lat":"31.227482","category":"500","category_name":"未知分类","address":"上海市浦东新区商城路108弄"},{"poiid":"B2094654DA69A6FE4792","title":"菊园","lon":"121.51377","lat":"31.22844","category":"47","category_name":"住宅区","address":"菊园(汇豪天下)位于浦东浦民路233弄"},{"poiid":"B2094757D16FA3F5409D","title":"嘉颐汇会所","lon":"121.508835","lat":"31.226796","category":"500","category_name":"未知分类","address":"上海浦东新区浦明路266号"},{"poiid":"B2094655D26AA7FB4898","title":"世贸滨江花园热带风情会所","lon":"121.51357","lat":"31.22296","category":"247","category_name":"餐饮美食","address":"浦东新区潍坊西路1弄世茂滨江花园16号(近浦城路)"},{"poiid":"B2094655D264A7FB429D","title":"中国商飞大厦(南二门)","lon":"121.51002","lat":"31.22488","category":"46","category_name":"楼宇","address":"张杨路25"},{"poiid":"B2094757D16EABFE439D","title":"兰馨电影院","lon":"121.514868","lat":"31.226305","category":"178","category_name":"电影院","address":"张杨路400"},{"poiid":"B2094757D465A5F4409B","title":"红摩西餐厅&酒吧 Rouge Morile Restaurant&Bar","lon":"121.508812054","lat":"31.224427793","category":"94","category_name":"西餐厅","address":"浦东新区滨江大道3888号红摩广场内(近张杨路)"},{"poiid":"B2094757D16FA0FC499D","title":"Juicy Couture(国金中心店)","lon":"121.50991173","lat":"31.226380218","category":"141","category_name":"服装鞋帽皮具店","address":"上海浦东新区陆家嘴世纪大道8号国金中心商场L3-13"},{"poiid":"B2094757D065AAFB469C","title":"新世纪影城七号厅","lon":"121.51478473","lat":"31.227090233","category":"178","category_name":"电影院","address":"上海市浦东新区张杨路501号第一八佰伴10楼"},{"poiid":"B2094655D26DA1F4449F","title":"楚炫堂生态炖鱼馆(上海湾店)","lon":"121.51387","lat":"31.22671","category":"86","category_name":"火锅店","address":"浦东新区浦东南路1138号上海湾休闲广场2楼(八佰伴对面)"},{"poiid":"B2094655D26BA5FA4699","title":"中国商飞大厦(南一门)","lon":"121.50949","lat":"31.22464","category":"46","category_name":"楼宇","address":"张杨路25"},{"poiid":"B2094655D26AABFE459D","title":"尼纳DIY烘培工坊 Nina Cake","lon":"121.510396054","lat":"31.224649793","category":"247","category_name":"餐饮美食","address":"浦东新区张杨路188号汤臣中心C座718室(近浦明路)"},{"poiid":"B2094654DA69ABFB469D","title":"中芬宾馆","lon":"121.51039","lat":"31.22434","category":"250","category_name":"公园户外","address":"浦东新区张杨路88号滨江大厦(近滨江大道)"},{"poiid":"B2094655D26DA1FB4392","title":"罗森","lon":"121.51181","lat":"31.22504","category":"117","category_name":"便民商店/便利店","address":"浦东新区张杨路188号汤臣中心1楼大厅"},{"poiid":"B2094757D06AA0F4489E","title":"中国商用飞机有限责任公司","lon":"121.50968728","lat":"31.224799112","category":"500","category_name":"未知分类","address":"上海张扬路25号"},{"poiid":"B2094655D265A2F5479C","title":"滨江凯旋门","lon":"121.51074","lat":"31.223579","category":"47","category_name":"住宅区","address":"上海市浦东新区浦明路与张杨路交叉口"},{"poiid":"B2094757D064A5FD4598","title":"滨江大道篮球场","lon":"121.50904347","lat":"31.2245733115","category":"220","category_name":"运动场所","address":"上海浦东新区滨江大道(近杨家渡轮渡站)"},{"poiid":"B2094655D36DA6FF469A","title":"杨家渡","lon":"121.50893","lat":"31.22434","category":"38","category_name":"公交车站","address":""},{"poiid":"B2094757D66EA4F54698","title":"super daddy 老爸奶茶","lon":"121.511814","lat":"31.225004","category":"247","category_name":"餐饮美食","address":"上海浦东新区张杨路188号汤臣中心大厅"},{"poiid":"B2094750D76FA4F4489E","title":"億方砂锅粥(浦东八佰伴店)","lon":"121.515","lat":"31.2263","category":"72","category_name":"广东菜","address":"上海市浦东新区张杨路400号,(近上海湾)"},{"poiid":"B2094757D66CA7FF4492","title":"愛爾蘭瘋薯(信義威秀影城店)","lon":"121.51207183","lat":"31.225298995","category":"247","category_name":"餐饮美食","address":"台北市信義區松壽路18號"},{"poiid":"B2094757DB6AA0FD4893","title":"钱柜（上海湾店）","lon":"121.514","lat":"31.2267","category":"172","category_name":"酒吧","address":"浦东新区浦东南路1138号上海湾广场内(近张杨路)"},{"poiid":"B2094757D66CAAF54893","title":"徐教院附中","lon":"121.50874093","lat":"31.225605701","category":"55","category_name":"中学","address":"上海上中路50号"},{"poiid":"B2094757D06BA2FB449D","title":"张杨路","lon":"121.51377868","lat":"31.225069046","category":"500","category_name":"未知分类","address":"上海张杨路"},{"poiid":"B2094654DA69ABFB469C","title":"美欧咖啡","lon":"121.508312054","lat":"31.224316793","category":"260","category_name":"其他","address":"浦东新区张杨路88号中芬宾馆1楼(浦明路张杨路)"},{"poiid":"B2094757D06FA7F84593","title":"黔香阁(浦东店)","lon":"121.51129","lat":"31.22987","category":"83","category_name":"云贵菜","address":"浦东新区浦城路171号(近商城路)"},{"poiid":"B2094654DA6EA4F9439D","title":"新源广场","lon":"121.51","lat":"31.2273","category":"46","category_name":"楼宇","address":"中山南路268号"},{"poiid":"B2094757D16EA7FC419E","title":"滨江大道黄浦江畔","lon":"121.50977173","lat":"31.226162213","category":"500","category_name":"未知分类","address":"上海市浦东新区滨江大道"},{"poiid":"B209475CD564A7F84392","title":"上海滩浦东香格里拉店","lon":"121.50058","lat":"31.23634","category":"119","category_name":"商场","address":"浦东富成路33号香格里拉酒店内大堂层"},{"poiid":"B2094655D265A0F54793","title":"小南国世茂滨江店","lon":"121.51357","lat":"31.22296","category":"247","category_name":"餐饮美食","address":"浦东新区潍坊西路1弄18号世茂滨江内(近浦城路)"},{"poiid":"B2094757D06AA6FB479E","title":"子羽港式粤菜餐厅","lon":"121.514010738","lat":"31.2268292276","category":"72","category_name":"广东菜","address":"浦东新区浦东南路1138号上海湾广场133号铺(近张扬路)"},{"poiid":"B2094757D06FA1FD4698","title":"星巴克(浦城路店)","lon":"121.512253","lat":"31.227622","category":"260","category_name":"其他","address":"浦东新区浦城路367号(启新路口)"},{"poiid":"B2094757D068A6FE429C","title":"金外滩花园","lon":"121.507","lat":"31.228","category":"47","category_name":"住宅区","address":"上海市黄浦区中山南路222号"},{"poiid":"B2094757D06FA6F8449F","title":"上海湾生活时尚中心","lon":"121.51491","lat":"31.22667","category":"119","category_name":"商场","address":"浦东新区浦东南路1138号上海湾广场内(近张杨路)"},{"poiid":"B2094757D064A7FB419C","title":"世贸滨江","lon":"121.51353927","lat":"31.222660133","category":"47","category_name":"住宅区","address":"上海世贸滨江"},{"poiid":"B2094757D06FA4F8459D","title":"一兆韦德(菊园店)","lon":"121.51270768","lat":"31.226597462","category":"148","category_name":"美容美发店","address":"浦东新区浦城路367号(近东昌路地铁站)"},{"poiid":"B2094757D068A5F8439A","title":"商城路","lon":"121.51235199","lat":"31.2294406891","category":"260","category_name":"其他","address":"上海商城路"},{"poiid":"B2094757D06BA5FA479A","title":"怡景坊海鲜酒家","lon":"121.5103","lat":"31.22614","category":"72","category_name":"广东菜","address":"浦东新区浦明路266号(近启新路)"},{"poiid":"B2094655D264A0FE4098","title":"华润外滩九里","lon":"121.508","lat":"31.224","category":"47","category_name":"住宅区","address":"黄浦区中山南路460号"},{"poiid":"B2094757D06FA5FA459B","title":"上海新东方学校(陆家嘴校区)","lon":"121.51188","lat":"31.22923","category":"253","category_name":"校园生活","address":"浦东新区浦城路190号(商城路路口)"},{"poiid":"B2094757D069A3F4439F","title":"凯德·江临天下(Summit Panorama)","lon":"121.51181768","lat":"31.2262234648","category":"47","category_name":"住宅区","address":"上海市浦东新区浦明路233弄"},{"poiid":"B2094654DA69A1F54192","title":"杨家渡轮渡站(张杨路)","lon":"121.50875","lat":"31.22412","category":"34","category_name":"港口码头","address":"张杨路1号"},{"poiid":"B2094757D069A3F5499E","title":"学俊宋记香辣蟹(潍坊西路店)","lon":"121.51451497","lat":"31.223547926","category":"71","category_name":"四川菜","address":"浦东新区潍坊西路73号(近浦城路)"},{"poiid":"B2094757D06AA3FE4492","title":"洋泾·菊园实验学校","lon":"121.512277683","lat":"31.2272614634","category":"55","category_name":"中学","address":"上海浦东新区浦城路333号"},{"poiid":"B2094757D568A5FE499B","title":"伊藤家上海湾店","lon":"121.5138769","lat":"31.22671306","category":"95","category_name":"日本料理","address":"浦东新区浦城路398号上海湾广场(近张杨路)"},{"poiid":"B2094655D265A6F84893","title":"绿城黄浦湾","lon":"121.511","lat":"31.2238","category":"47","category_name":"住宅区","address":"黄浦区中山南路566弄"},{"poiid":"B2094757D064ABFA499D","title":"财富海景花园","lon":"121.5089","lat":"31.225681","category":"47","category_name":"住宅区","address":"上海市浦东新区浦明路258弄"},{"poiid":"B2094654DA69A1F54193","title":"东昌滨江绿地","lon":"121.50794","lat":"31.22484","category":"202","category_name":"公园广场","address":"浦东新区商城路(东方路商城路)"},{"poiid":"B2094757D068A2FD449A","title":"卡玛生活瑜伽会馆","lon":"121.51181","lat":"31.22961","category":"148","category_name":"美容美发店","address":"浦东新区浦城路172号3-4楼(近商城路)"},{"poiid":"B2094751DB6CA4FD4493","title":"浦东机场T2航站楼","lon":"121.5129","lat":"31.2273","category":"500","category_name":"未知分类","address":null},{"poiid":"B2094757D168AAF8429E","title":"汇豪天下","lon":"121.50957","lat":"31.227482","category":"500","category_name":"未知分类","address":"上海市浦东新区商城路108弄"},{"poiid":"B2094654DA69A6FE4792","title":"菊园","lon":"121.51377","lat":"31.22844","category":"47","category_name":"住宅区","address":"菊园(汇豪天下)位于浦东浦民路233弄"},{"poiid":"B2094757D16FA3F5409D","title":"嘉颐汇会所","lon":"121.508835","lat":"31.226796","category":"500","category_name":"未知分类","address":"上海浦东新区浦明路266号"},{"poiid":"B2094655D26AA7FB4898","title":"世贸滨江花园热带风情会所","lon":"121.51357","lat":"31.22296","category":"247","category_name":"餐饮美食","address":"浦东新区潍坊西路1弄世茂滨江花园16号(近浦城路)"},{"poiid":"B2094655D264A7FB429D","title":"中国商飞大厦(南二门)","lon":"121.51002","lat":"31.22488","category":"46","category_name":"楼宇","address":"张杨路25"},{"poiid":"B2094757D16EABFE439D","title":"兰馨电影院","lon":"121.514868","lat":"31.226305","category":"178","category_name":"电影院","address":"张杨路400"},{"poiid":"B2094757D465A5F4409B","title":"红摩西餐厅&酒吧 Rouge Morile Restaurant&Bar","lon":"121.508812054","lat":"31.224427793","category":"94","category_name":"西餐厅","address":"浦东新区滨江大道3888号红摩广场内(近张杨路)"},{"poiid":"B2094757D16FA0FC499D","title":"Juicy Couture(国金中心店)","lon":"121.50991173","lat":"31.226380218","category":"141","category_name":"服装鞋帽皮具店","address":"上海浦东新区陆家嘴世纪大道8号国金中心商场L3-13"},{"poiid":"B2094757D065AAFB469C","title":"新世纪影城七号厅","lon":"121.51478473","lat":"31.227090233","category":"178","category_name":"电影院","address":"上海市浦东新区张杨路501号第一八佰伴10楼"},{"poiid":"B2094655D26DA1F4449F","title":"楚炫堂生态炖鱼馆(上海湾店)","lon":"121.51387","lat":"31.22671","category":"86","category_name":"火锅店","address":"浦东新区浦东南路1138号上海湾休闲广场2楼(八佰伴对面)"},{"poiid":"B2094655D26BA5FA4699","title":"中国商飞大厦(南一门)","lon":"121.50949","lat":"31.22464","category":"46","category_name":"楼宇","address":"张杨路25"},{"poiid":"B2094655D26AABFE459D","title":"尼纳DIY烘培工坊 Nina Cake","lon":"121.510396054","lat":"31.224649793","category":"247","category_name":"餐饮美食","address":"浦东新区张杨路188号汤臣中心C座718室(近浦明路)"},{"poiid":"B2094654DA69ABFB469D","title":"中芬宾馆","lon":"121.51039","lat":"31.22434","category":"250","category_name":"公园户外","address":"浦东新区张杨路88号滨江大厦(近滨江大道)"},{"poiid":"B2094655D26DA1FB4392","title":"罗森","lon":"121.51181","lat":"31.22504","category":"117","category_name":"便民商店/便利店","address":"浦东新区张杨路188号汤臣中心1楼大厅"},{"poiid":"B2094757D06AA0F4489E","title":"中国商用飞机有限责任公司","lon":"121.50968728","lat":"31.224799112","category":"500","category_name":"未知分类","address":"上海张扬路25号"},{"poiid":"B2094655D265A2F5479C","title":"滨江凯旋门","lon":"121.51074","lat":"31.223579","category":"47","category_name":"住宅区","address":"上海市浦东新区浦明路与张杨路交叉口"},{"poiid":"B2094757D064A5FD4598","title":"滨江大道篮球场","lon":"121.50904347","lat":"31.2245733115","category":"220","category_name":"运动场所","address":"上海浦东新区滨江大道(近杨家渡轮渡站)"},{"poiid":"B2094655D36DA6FF469A","title":"杨家渡","lon":"121.50893","lat":"31.22434","category":"38","category_name":"公交车站","address":""},{"poiid":"B2094757D66EA4F54698","title":"super daddy 老爸奶茶","lon":"121.511814","lat":"31.225004","category":"247","category_name":"餐饮美食","address":"上海浦东新区张杨路188号汤臣中心大厅"},{"poiid":"B2094750D76FA4F4489E","title":"億方砂锅粥(浦东八佰伴店)","lon":"121.515","lat":"31.2263","category":"72","category_name":"广东菜","address":"上海市浦东新区张杨路400号,(近上海湾)"},{"poiid":"B2094757D66CA7FF4492","title":"愛爾蘭瘋薯(信義威秀影城店)","lon":"121.51207183","lat":"31.225298995","category":"247","category_name":"餐饮美食","address":"台北市信義區松壽路18號"},{"poiid":"B2094757DB6AA0FD4893","title":"钱柜（上海湾店）","lon":"121.514","lat":"31.2267","category":"172","category_name":"酒吧","address":"浦东新区浦东南路1138号上海湾广场内(近张杨路)"},{"poiid":"B2094757D66CAAF54893","title":"徐教院附中","lon":"121.50874093","lat":"31.225605701","category":"55","category_name":"中学","address":"上海上中路50号"},{"poiid":"B2094757D06BA2FB449D","title":"张杨路","lon":"121.51377868","lat":"31.225069046","category":"500","category_name":"未知分类","address":"上海张杨路"},{"poiid":"B2094654DA69ABFB469C","title":"美欧咖啡","lon":"121.508312054","lat":"31.224316793","category":"260","category_name":"其他","address":"浦东新区张杨路88号中芬宾馆1楼(浦明路张杨路)"},{"poiid":"B2094757D06FA7F84593","title":"黔香阁(浦东店)","lon":"121.51129","lat":"31.22987","category":"83","category_name":"云贵菜","address":"浦东新区浦城路171号(近商城路)"},{"poiid":"B2094654DA6EA4F9439D","title":"新源广场","lon":"121.51","lat":"31.2273","category":"46","category_name":"楼宇","address":"中山南路268号"},{"poiid":"B2094757D16EA7FC419E","title":"滨江大道黄浦江畔","lon":"121.50977173","lat":"31.226162213","category":"500","category_name":"未知分类","address":"上海市浦东新区滨江大道"},{"poiid":"B209475CD564A7F84392","title":"上海滩浦东香格里拉店","lon":"121.50058","lat":"31.23634","category":"119","category_name":"商场","address":"浦东富成路33号香格里拉酒店内大堂层"},{"poiid":"B2094655D265A0F54793","title":"小南国世茂滨江店","lon":"121.51357","lat":"31.22296","category":"247","category_name":"餐饮美食","address":"浦东新区潍坊西路1弄18号世茂滨江内(近浦城路)"},{"poiid":"B2094757D06AA6FB479E","title":"子羽港式粤菜餐厅","lon":"121.514010738","lat":"31.2268292276","category":"72","category_name":"广东菜","address":"浦东新区浦东南路1138号上海湾广场133号铺(近张扬路)"},{"poiid":"B2094757D06FA1FD4698","title":"星巴克(浦城路店)","lon":"121.512253","lat":"31.227622","category":"260","category_name":"其他","address":"浦东新区浦城路367号(启新路口)"},{"poiid":"B2094757D068A6FE429C","title":"金外滩花园","lon":"121.507","lat":"31.228","category":"47","category_name":"住宅区","address":"上海市黄浦区中山南路222号"},{"poiid":"B2094757D06FA6F8449F","title":"上海湾生活时尚中心","lon":"121.51491","lat":"31.22667","category":"119","category_name":"商场","address":"浦东新区浦东南路1138号上海湾广场内(近张杨路)"},{"poiid":"B2094757D064A7FB419C","title":"世贸滨江","lon":"121.51353927","lat":"31.222660133","category":"47","category_name":"住宅区","address":"上海世贸滨江"},{"poiid":"B2094757D06FA4F8459D","title":"一兆韦德(菊园店)","lon":"121.51270768","lat":"31.226597462","category":"148","category_name":"美容美发店","address":"浦东新区浦城路367号(近东昌路地铁站)"},{"poiid":"B2094757D068A5F8439A","title":"商城路","lon":"121.51235199","lat":"31.2294406891","category":"260","category_name":"其他","address":"上海商城路"},{"poiid":"B2094757D06BA5FA479A","title":"怡景坊海鲜酒家","lon":"121.5103","lat":"31.22614","category":"72","category_name":"广东菜","address":"浦东新区浦明路266号(近启新路)"},{"poiid":"B2094655D264A0FE4098","title":"华润外滩九里","lon":"121.508","lat":"31.224","category":"47","category_name":"住宅区","address":"黄浦区中山南路460号"},{"poiid":"B2094757D06FA5FA459B","title":"上海新东方学校(陆家嘴校区)","lon":"121.51188","lat":"31.22923","category":"253","category_name":"校园生活","address":"浦东新区浦城路190号(商城路路口)"},{"poiid":"B2094757D069A3F4439F","title":"凯德·江临天下(Summit Panorama)","lon":"121.51181768","lat":"31.2262234648","category":"47","category_name":"住宅区","address":"上海市浦东新区浦明路233弄"},{"poiid":"B2094654DA69A1F54192","title":"杨家渡轮渡站(张杨路)","lon":"121.50875","lat":"31.22412","category":"34","category_name":"港口码头","address":"张杨路1号"},{"poiid":"B2094757D069A3F5499E","title":"学俊宋记香辣蟹(潍坊西路店)","lon":"121.51451497","lat":"31.223547926","category":"71","category_name":"四川菜","address":"浦东新区潍坊西路73号(近浦城路)"},{"poiid":"B2094757D06AA3FE4492","title":"洋泾·菊园实验学校","lon":"121.512277683","lat":"31.2272614634","category":"55","category_name":"中学","address":"上海浦东新区浦城路333号"},{"poiid":"B2094757D568A5FE499B","title":"伊藤家上海湾店","lon":"121.5138769","lat":"31.22671306","category":"95","category_name":"日本料理","address":"浦东新区浦城路398号上海湾广场(近张杨路)"},{"poiid":"B2094655D265A6F84893","title":"绿城黄浦湾","lon":"121.511","lat":"31.2238","category":"47","category_name":"住宅区","address":"黄浦区中山南路566弄"},{"poiid":"B2094757D064ABFA499D","title":"财富海景花园","lon":"121.5089","lat":"31.225681","category":"47","category_name":"住宅区","address":"上海市浦东新区浦明路258弄"},{"poiid":"B2094654DA69A1F54193","title":"东昌滨江绿地","lon":"121.50794","lat":"31.22484","category":"202","category_name":"公园广场","address":"浦东新区商城路(东方路商城路)"},{"poiid":"B2094757D068A2FD449A","title":"卡玛生活瑜伽会馆","lon":"121.51181","lat":"31.22961","category":"148","category_name":"美容美发店","address":"浦东新区浦城路172号3-4楼(近商城路)"},{"poiid":"B2094751DB6CA4FD4493","title":"浦东机场T2航站楼","lon":"121.5129","lat":"31.2273","category":"500","category_name":"未知分类","address":null},{"poiid":"B2094757D168AAF8429E","title":"汇豪天下","lon":"121.50957","lat":"31.227482","category":"500","category_name":"未知分类","address":"上海市浦东新区商城路108弄"},{"poiid":"B2094654DA69A6FE4792","title":"菊园","lon":"121.51377","lat":"31.22844","category":"47","category_name":"住宅区","address":"菊园(汇豪天下)位于浦东浦民路233弄"},{"poiid":"B2094757D16FA3F5409D","title":"嘉颐汇会所","lon":"121.508835","lat":"31.226796","category":"500","category_name":"未知分类","address":"上海浦东新区浦明路266号"},{"poiid":"B2094655D26AA7FB4898","title":"世贸滨江花园热带风情会所","lon":"121.51357","lat":"31.22296","category":"247","category_name":"餐饮美食","address":"浦东新区潍坊西路1弄世茂滨江花园16号(近浦城路)"},{"poiid":"B2094655D264A7FB429D","title":"中国商飞大厦(南二门)","lon":"121.51002","lat":"31.22488","category":"46","category_name":"楼宇","address":"张杨路25"},{"poiid":"B2094757D16EABFE439D","title":"兰馨电影院","lon":"121.514868","lat":"31.226305","category":"178","category_name":"电影院","address":"张杨路400"},{"poiid":"B2094757D465A5F4409B","title":"红摩西餐厅&酒吧 Rouge Morile Restaurant&Bar","lon":"121.508812054","lat":"31.224427793","category":"94","category_name":"西餐厅","address":"浦东新区滨江大道3888号红摩广场内(近张杨路)"},{"poiid":"B2094757D16FA0FC499D","title":"Juicy Couture(国金中心店)","lon":"121.50991173","lat":"31.226380218","category":"141","category_name":"服装鞋帽皮具店","address":"上海浦东新区陆家嘴世纪大道8号国金中心商场L3-13"},{"poiid":"B2094757D065AAFB469C","title":"新世纪影城七号厅","lon":"121.51478473","lat":"31.227090233","category":"178","category_name":"电影院","address":"上海市浦东新区张杨路501号第一八佰伴10楼"},{"poiid":"B2094655D26DA1F4449F","title":"楚炫堂生态炖鱼馆(上海湾店)","lon":"121.51387","lat":"31.22671","category":"86","category_name":"火锅店","address":"浦东新区浦东南路1138号上海湾休闲广场2楼(八佰伴对面)"},{"poiid":"B2094655D26BA5FA4699","title":"中国商飞大厦(南一门)","lon":"121.50949","lat":"31.22464","category":"46","category_name":"楼宇","address":"张杨路25"},{"poiid":"B2094655D26AABFE459D","title":"尼纳DIY烘培工坊 Nina Cake","lon":"121.510396054","lat":"31.224649793","category":"247","category_name":"餐饮美食","address":"浦东新区张杨路188号汤臣中心C座718室(近浦明路)"},{"poiid":"B2094654DA69ABFB469D","title":"中芬宾馆","lon":"121.51039","lat":"31.22434","category":"250","category_name":"公园户外","address":"浦东新区张杨路88号滨江大厦(近滨江大道)"},{"poiid":"B2094655D26DA1FB4392","title":"罗森","lon":"121.51181","lat":"31.22504","category":"117","category_name":"便民商店/便利店","address":"浦东新区张杨路188号汤臣中心1楼大厅"},{"poiid":"B2094757D06AA0F4489E","title":"中国商用飞机有限责任公司","lon":"121.50968728","lat":"31.224799112","category":"500","category_name":"未知分类","address":"上海张扬路25号"},{"poiid":"B2094655D265A2F5479C","title":"滨江凯旋门","lon":"121.51074","lat":"31.223579","category":"47","category_name":"住宅区","address":"上海市浦东新区浦明路与张杨路交叉口"},{"poiid":"B2094757D064A5FD4598","title":"滨江大道篮球场","lon":"121.50904347","lat":"31.2245733115","category":"220","category_name":"运动场所","address":"上海浦东新区滨江大道(近杨家渡轮渡站)"},{"poiid":"B2094655D36DA6FF469A","title":"杨家渡","lon":"121.50893","lat":"31.22434","category":"38","category_name":"公交车站","address":""},{"poiid":"B2094757D66EA4F54698","title":"super daddy 老爸奶茶","lon":"121.511814","lat":"31.225004","category":"247","category_name":"餐饮美食","address":"上海浦东新区张杨路188号汤臣中心大厅"},{"poiid":"B2094750D76FA4F4489E","title":"億方砂锅粥(浦东八佰伴店)","lon":"121.515","lat":"31.2263","category":"72","category_name":"广东菜","address":"上海市浦东新区张杨路400号,(近上海湾)"},{"poiid":"B2094757D66CA7FF4492","title":"愛爾蘭瘋薯(信義威秀影城店)","lon":"121.51207183","lat":"31.225298995","category":"247","category_name":"餐饮美食","address":"台北市信義區松壽路18號"},{"poiid":"B2094757DB6AA0FD4893","title":"钱柜（上海湾店）","lon":"121.514","lat":"31.2267","category":"172","category_name":"酒吧","address":"浦东新区浦东南路1138号上海湾广场内(近张杨路)"},{"poiid":"B2094757D66CAAF54893","title":"徐教院附中","lon":"121.50874093","lat":"31.225605701","category":"55","category_name":"中学","address":"上海上中路50号"},{"poiid":"B2094757D06BA2FB449D","title":"张杨路","lon":"121.51377868","lat":"31.225069046","category":"500","category_name":"未知分类","address":"上海张杨路"},{"poiid":"B2094654DA69ABFB469C","title":"美欧咖啡","lon":"121.508312054","lat":"31.224316793","category":"260","category_name":"其他","address":"浦东新区张杨路88号中芬宾馆1楼(浦明路张杨路)"},{"poiid":"B2094757D06FA7F84593","title":"黔香阁(浦东店)","lon":"121.51129","lat":"31.22987","category":"83","category_name":"云贵菜","address":"浦东新区浦城路171号(近商城路)"},{"poiid":"B2094654DA6EA4F9439D","title":"新源广场","lon":"121.51","lat":"31.2273","category":"46","category_name":"楼宇","address":"中山南路268号"},{"poiid":"B2094757D16EA7FC419E","title":"滨江大道黄浦江畔","lon":"121.50977173","lat":"31.226162213","category":"500","category_name":"未知分类","address":"上海市浦东新区滨江大道"},{"poiid":"B209475CD564A7F84392","title":"上海滩浦东香格里拉店","lon":"121.50058","lat":"31.23634","category":"119","category_name":"商场","address":"浦东富成路33号香格里拉酒店内大堂层"},{"poiid":"B2094655D265A0F54793","title":"小南国世茂滨江店","lon":"121.51357","lat":"31.22296","category":"247","category_name":"餐饮美食","address":"浦东新区潍坊西路1弄18号世茂滨江内(近浦城路)"},{"poiid":"B2094757D06AA6FB479E","title":"子羽港式粤菜餐厅","lon":"121.514010738","lat":"31.2268292276","category":"72","category_name":"广东菜","address":"浦东新区浦东南路1138号上海湾广场133号铺(近张扬路)"},{"poiid":"B2094757D06FA1FD4698","title":"星巴克(浦城路店)","lon":"121.512253","lat":"31.227622","category":"260","category_name":"其他","address":"浦东新区浦城路367号(启新路口)"},{"poiid":"B2094757D068A6FE429C","title":"金外滩花园","lon":"121.507","lat":"31.228","category":"47","category_name":"住宅区","address":"上海市黄浦区中山南路222号"},{"poiid":"B2094757D06FA6F8449F","title":"上海湾生活时尚中心","lon":"121.51491","lat":"31.22667","category":"119","category_name":"商场","address":"浦东新区浦东南路1138号上海湾广场内(近张杨路)"},{"poiid":"B2094757D064A7FB419C","title":"世贸滨江","lon":"121.51353927","lat":"31.222660133","category":"47","category_name":"住宅区","address":"上海世贸滨江"},{"poiid":"B2094757D06FA4F8459D","title":"一兆韦德(菊园店)","lon":"121.51270768","lat":"31.226597462","category":"148","category_name":"美容美发店","address":"浦东新区浦城路367号(近东昌路地铁站)"},{"poiid":"B2094757D068A5F8439A","title":"商城路","lon":"121.51235199","lat":"31.2294406891","category":"260","category_name":"其他","address":"上海商城路"},{"poiid":"B2094757D06BA5FA479A","title":"怡景坊海鲜酒家","lon":"121.5103","lat":"31.22614","category":"72","category_name":"广东菜","address":"浦东新区浦明路266号(近启新路)"},{"poiid":"B2094655D264A0FE4098","title":"华润外滩九里","lon":"121.508","lat":"31.224","category":"47","category_name":"住宅区","address":"黄浦区中山南路460号"},{"poiid":"B2094757D06FA5FA459B","title":"上海新东方学校(陆家嘴校区)","lon":"121.51188","lat":"31.22923","category":"253","category_name":"校园生活","address":"浦东新区浦城路190号(商城路路口)"},{"poiid":"B2094757D069A3F4439F","title":"凯德·江临天下(Summit Panorama)","lon":"121.51181768","lat":"31.2262234648","category":"47","category_name":"住宅区","address":"上海市浦东新区浦明路233弄"},{"poiid":"B2094654DA69A1F54192","title":"杨家渡轮渡站(张杨路)","lon":"121.50875","lat":"31.22412","category":"34","category_name":"港口码头","address":"张杨路1号"},{"poiid":"B2094757D069A3F5499E","title":"学俊宋记香辣蟹(潍坊西路店)","lon":"121.51451497","lat":"31.223547926","category":"71","category_name":"四川菜","address":"浦东新区潍坊西路73号(近浦城路)"},{"poiid":"B2094757D06AA3FE4492","title":"洋泾·菊园实验学校","lon":"121.512277683","lat":"31.2272614634","category":"55","category_name":"中学","address":"上海浦东新区浦城路333号"},{"poiid":"B2094757D568A5FE499B","title":"伊藤家上海湾店","lon":"121.5138769","lat":"31.22671306","category":"95","category_name":"日本料理","address":"浦东新区浦城路398号上海湾广场(近张杨路)"},{"poiid":"B2094655D265A6F84893","title":"绿城黄浦湾","lon":"121.511","lat":"31.2238","category":"47","category_name":"住宅区","address":"黄浦区中山南路566弄"},{"poiid":"B2094757D064ABFA499D","title":"财富海景花园","lon":"121.5089","lat":"31.225681","category":"47","category_name":"住宅区","address":"上海市浦东新区浦明路258弄"},{"poiid":"B2094654DA69A1F54193","title":"东昌滨江绿地","lon":"121.50794","lat":"31.22484","category":"202","category_name":"公园广场","address":"浦东新区商城路(东方路商城路)"},{"poiid":"B2094757D068A2FD449A","title":"卡玛生活瑜伽会馆","lon":"121.51181","lat":"31.22961","category":"148","category_name":"美容美发店","address":"浦东新区浦城路172号3-4楼(近商城路)"},{"poiid":"B2094751DB6CA4FD4493","title":"浦东机场T2航站楼","lon":"121.5129","lat":"31.2273","category":"500","category_name":"未知分类","address":null},{"poiid":"B2094757D168AAF8429E","title":"汇豪天下","lon":"121.50957","lat":"31.227482","category":"500","category_name":"未知分类","address":"上海市浦东新区商城路108弄"},{"poiid":"B2094654DA69A6FE4792","title":"菊园","lon":"121.51377","lat":"31.22844","category":"47","category_name":"住宅区","address":"菊园(汇豪天下)位于浦东浦民路233弄"},{"poiid":"B2094757D16FA3F5409D","title":"嘉颐汇会所","lon":"121.508835","lat":"31.226796","category":"500","category_name":"未知分类","address":"上海浦东新区浦明路266号"},{"poiid":"B2094655D26AA7FB4898","title":"世贸滨江花园热带风情会所","lon":"121.51357","lat":"31.22296","category":"247","category_name":"餐饮美食","address":"浦东新区潍坊西路1弄世茂滨江花园16号(近浦城路)"},{"poiid":"B2094655D264A7FB429D","title":"中国商飞大厦(南二门)","lon":"121.51002","lat":"31.22488","category":"46","category_name":"楼宇","address":"张杨路25"},{"poiid":"B2094757D16EABFE439D","title":"兰馨电影院","lon":"121.514868","lat":"31.226305","category":"178","category_name":"电影院","address":"张杨路400"},{"poiid":"B2094757D465A5F4409B","title":"红摩西餐厅&酒吧 Rouge Morile Restaurant&Bar","lon":"121.508812054","lat":"31.224427793","category":"94","category_name":"西餐厅","address":"浦东新区滨江大道3888号红摩广场内(近张杨路)"},{"poiid":"B2094757D16FA0FC499D","title":"Juicy Couture(国金中心店)","lon":"121.50991173","lat":"31.226380218","category":"141","category_name":"服装鞋帽皮具店","address":"上海浦东新区陆家嘴世纪大道8号国金中心商场L3-13"},{"poiid":"B2094757D065AAFB469C","title":"新世纪影城七号厅","lon":"121.51478473","lat":"31.227090233","category":"178","category_name":"电影院","address":"上海市浦东新区张杨路501号第一八佰伴10楼"},{"poiid":"B2094655D26DA1F4449F","title":"楚炫堂生态炖鱼馆(上海湾店)","lon":"121.51387","lat":"31.22671","category":"86","category_name":"火锅店","address":"浦东新区浦东南路1138号上海湾休闲广场2楼(八佰伴对面)"},{"poiid":"B2094655D26BA5FA4699","title":"中国商飞大厦(南一门)","lon":"121.50949","lat":"31.22464","category":"46","category_name":"楼宇","address":"张杨路25"},{"poiid":"B2094655D26AABFE459D","title":"尼纳DIY烘培工坊 Nina Cake","lon":"121.510396054","lat":"31.224649793","category":"247","category_name":"餐饮美食","address":"浦东新区张杨路188号汤臣中心C座718室(近浦明路)"},{"poiid":"B2094654DA69ABFB469D","title":"中芬宾馆","lon":"121.51039","lat":"31.22434","category":"250","category_name":"公园户外","address":"浦东新区张杨路88号滨江大厦(近滨江大道)"},{"poiid":"B2094655D26DA1FB4392","title":"罗森","lon":"121.51181","lat":"31.22504","category":"117","category_name":"便民商店/便利店","address":"浦东新区张杨路188号汤臣中心1楼大厅"},{"poiid":"B2094757D06AA0F4489E","title":"中国商用飞机有限责任公司","lon":"121.50968728","lat":"31.224799112","category":"500","category_name":"未知分类","address":"上海张扬路25号"},{"poiid":"B2094655D265A2F5479C","title":"滨江凯旋门","lon":"121.51074","lat":"31.223579","category":"47","category_name":"住宅区","address":"上海市浦东新区浦明路与张杨路交叉口"},{"poiid":"B2094757D064A5FD4598","title":"滨江大道篮球场","lon":"121.50904347","lat":"31.2245733115","category":"220","category_name":"运动场所","address":"上海浦东新区滨江大道(近杨家渡轮渡站)"},{"poiid":"B2094655D36DA6FF469A","title":"杨家渡","lon":"121.50893","lat":"31.22434","category":"38","category_name":"公交车站","address":""},{"poiid":"B2094757D66EA4F54698","title":"super daddy 老爸奶茶","lon":"121.511814","lat":"31.225004","category":"247","category_name":"餐饮美食","address":"上海浦东新区张杨路188号汤臣中心大厅"},{"poiid":"B2094750D76FA4F4489E","title":"億方砂锅粥(浦东八佰伴店)","lon":"121.515","lat":"31.2263","category":"72","category_name":"广东菜","address":"上海市浦东新区张杨路400号,(近上海湾)"},{"poiid":"B2094757D66CA7FF4492","title":"愛爾蘭瘋薯(信義威秀影城店)","lon":"121.51207183","lat":"31.225298995","category":"247","category_name":"餐饮美食","address":"台北市信義區松壽路18號"},{"poiid":"B2094757DB6AA0FD4893","title":"钱柜（上海湾店）","lon":"121.514","lat":"31.2267","category":"172","category_name":"酒吧","address":"浦东新区浦东南路1138号上海湾广场内(近张杨路)"},{"poiid":"B2094757D66CAAF54893","title":"徐教院附中","lon":"121.50874093","lat":"31.225605701","category":"55","category_name":"中学","address":"上海上中路50号"},{"poiid":"B2094757D06BA2FB449D","title":"张杨路","lon":"121.51377868","lat":"31.225069046","category":"500","category_name":"未知分类","address":"上海张杨路"},{"poiid":"B2094654DA69ABFB469C","title":"美欧咖啡","lon":"121.508312054","lat":"31.224316793","category":"260","category_name":"其他","address":"浦东新区张杨路88号中芬宾馆1楼(浦明路张杨路)"}]