[{"poiid":"B2094655D26FA5FE4393","title":"上海光大会展中心","lon":"121.42892","lat":"31.16707","category":"260","category_name":"其他","address":"徐汇区漕宝路66号光大会展中心国际大酒店1楼(近习勤路)"},{"poiid":"B2094757D06FA2F9479C","title":"光大会展中心国际大酒店","lon":"121.429373","lat":"31.168133","category":"214","category_name":"四星级宾馆","address":"上海市徐汇区漕宝路66号(光大会展中心旁)"},{"poiid":"B2094757D165A0FA459C","title":"漕宝路","lon":"121.429336586","lat":"31.1651441589","category":"500","category_name":"未知分类","address":"上海市徐汇区漕宝路"},{"poiid":"B2094757D66EA2FE449B","title":"上海大饭堂","lon":"121.43188458","lat":"31.165935174","category":"76","category_name":"上海菜","address":"徐汇区康健路28号(近钦州路)"},{"poiid":"B2094757D16FA2FB4698","title":"徐汇区婚姻登记中心","lon":"121.428157586","lat":"31.1672411999","category":"500","category_name":"未知分类","address":"上海徐汇区龙漕路80号光大会展中心D座3层"},{"poiid":"B2094757D16CA6F84693","title":"沪闵高架南站上匝道","lon":"121.43315058","lat":"31.164494146","category":"500","category_name":"未知分类","address":"上海市徐汇区漕宝路"},{"poiid":"B2094655D269AAFC439A","title":"华夏宾馆","lon":"121.42989","lat":"31.1678","category":"217","category_name":"旅馆招待所","address":"徐汇区漕宝路38号华夏宾馆2楼(近钦州路)"},{"poiid":"B2094654D564A0FA479D","title":"上海光大会展中心E座","lon":"121.42825","lat":"31.16678","category":"46","category_name":"楼宇","address":"漕宝路82"},{"poiid":"B2094757D06BA1F94493","title":"漕河景苑","lon":"121.42992","lat":"31.164713","category":"47","category_name":"住宅区","address":"上海市徐汇区康健路58弄"},{"poiid":"B2094655D26AA2FD459F","title":"鼎中鼎澳门豆捞 习勤路店","lon":"121.42743244675","lat":"31.165274389896","category":"86","category_name":"火锅店","address":"徐汇区习勤路88号(近康建路)"},{"poiid":"B2094655D36CA7F5449E","title":"冠生园路沪闵路","lon":"121.43067","lat":"31.16351","category":"38","category_name":"公交车站","address":""},{"poiid":"B2094654DB64A1FE479B","title":"中海馨园","lon":"121.42883","lat":"31.162169","category":"47","category_name":"住宅区","address":"钦州南路8弄1-25号"},{"poiid":"B2094757D465A4FE4299","title":"重庆鸡公煲 康健路店","lon":"121.430665054","lat":"31.165526793","category":"71","category_name":"四川菜","address":"徐汇区康健路45号农工商超市附近(钦州路口)"},{"poiid":"B2094757D06BA6FD4792","title":"五木铁板烧(漕宝路店)","lon":"121.43019458","lat":"31.168261219","category":"269","category_name":"烧烤","address":"徐汇区漕宝路38号华夏宾馆1楼(近钦州路)"},{"poiid":"B2094757D66CA5FC469C","title":"解放军八五医院分院口腔科","lon":"121.43005758","lat":"31.16519816","category":"162","category_name":"医院","address":"上海市徐汇区柳州路"},{"poiid":"B2094654D564A0F44993","title":"安稳酒家","lon":"121.42729716094","lat":"31.165259803008","category":"76","category_name":"上海菜","address":"徐汇区康健路98号(近习勤路)"},{"poiid":"B2094654D564A0FA4899","title":"上海光大会展中心F座","lon":"121.42871","lat":"31.16653","category":"46","category_name":"楼宇","address":"漕宝路86"},{"poiid":"B2094757D069A1F94093","title":"港饮港食 光大店","lon":"121.42796","lat":"31.16538","category":"72","category_name":"广东菜","address":"徐汇区漕宝路80号光大会展中心D座1楼(习勤路口)"},{"poiid":"B2094757D068ABFF459A","title":"上师大第一教学楼","lon":"121.428322211","lat":"31.1671282608","category":"253","category_name":"校园生活","address":"上海徐汇区桂林路100号西部"},{"poiid":"B2094654D564A0F4469B","title":"曼顿造型沙龙","lon":"121.43082","lat":"31.16523","category":"148","category_name":"美容美发店","address":"徐汇区钦州路286号(近康健路)"},{"poiid":"B2094655D26DA7F54299","title":"梓树园","lon":"121.43021","lat":"31.16258","category":"47","category_name":"住宅区","address":"上海市徐汇区冠生园路219号"},{"poiid":"B2094757D064A0FC479D","title":"河滨国际公寓","lon":"121.43147","lat":"31.164143","category":"47","category_name":"住宅区","address":"徐汇区钦州路211号(近康健路)"},{"poiid":"B2094757D169A7F5469B","title":"功夫堂","lon":"121.43012","lat":"31.16445","category":"149","category_name":"洗浴推拿场所","address":"徐汇区康健路58号(近钦州路)"},{"poiid":"B2094757D16DA0FF429E","title":"民生银行(漕河泾支行)","lon":"121.43047","lat":"31.16502","category":"150","category_name":"银行","address":"上海徐汇区康健路38号  "},{"poiid":"B2094757D164A2F54098","title":"徐汇区","lon":"121.42834458","lat":"31.166519185","category":"500","category_name":"未知分类","address":"上海幸福的窝窝"},{"poiid":"B2094655D26FA6F5499F","title":"康惠苑","lon":"121.43216","lat":"31.16518","category":"47","category_name":"住宅区","address":"都林嘉园位于浦东浦东新区上南路3759弄1号"},{"poiid":"B2094757D16AA7F5429A","title":"徐汇区外地劳动力管理所","lon":"121.430270586","lat":"31.1651291586","category":"500","category_name":"未知分类","address":"上海徐虹北路92号2楼"},{"poiid":"B2094655D26AA2F5479F","title":"光大会展","lon":"121.42893","lat":"31.16707","category":"247","category_name":"餐饮美食","address":"徐汇区漕宝路78号(近习勤路)"},{"poiid":"B2094654DB6BA7FB4098","title":"康州小区","lon":"121.43027","lat":"31.165934","category":"47","category_name":"住宅区","address":"康健路51-55弄"},{"poiid":"B2094654D564A0F4479D","title":"永琪美容美发康健店","lon":"121.42908","lat":"31.16543","category":"148","category_name":"美容美发店","address":"徐汇区康健路26号(近钦州路)"},{"poiid":"B2094757D16AA1FC4092","title":"玲珑面馆","lon":"121.432861086","lat":"31.1654510983","category":"68","category_name":"快餐厅","address":"徐汇区康健路11号(近沪闵路)"},{"poiid":"B2094757D069AAFC4599","title":"四海游龙 光大店","lon":"121.427963","lat":"31.166368","category":"68","category_name":"快餐厅","address":"徐汇区漕宝路78号光大会展中心东馆1楼"},{"poiid":"B2094655D265A3FC499F","title":"爱情湾美容养生会所","lon":"121.43098","lat":"31.16505","category":"148","category_name":"美容美发店","address":"钦州路278"},{"poiid":"B2094654DB6BA7FB409A","title":"求知小学","lon":"121.42824","lat":"31.16531","category":"56","category_name":"小学","address":"习勤路91"},{"poiid":"B2094654DB6CA6F94892","title":"杉德信息大楼","lon":"121.42757","lat":"31.16304","category":"46","category_name":"楼宇","address":"冠生园路227"},{"poiid":"B2094654D564A0F4469E","title":"徐汇区月河菜市场","lon":"121.43121","lat":"31.1649","category":"117","category_name":"便民商店/便利店","address":""},{"poiid":"B2094654D564A0FB489A","title":"九彩天大酒楼","lon":"121.43016","lat":"31.16786","category":"76","category_name":"上海菜","address":"徐汇区漕宝路38号华夏宾馆2楼(漕溪路口)"},{"poiid":"B2094757D16CA2FA4599","title":"牛奶棚(习勤店)","lon":"121.4282","lat":"31.16587","category":"67","category_name":"甜品店","address":"徐汇区习勤路20号(光大会展旁)"},{"poiid":"B2094655D268A7F8439D","title":"康健路43弄小区(西二号门)","lon":"121.43106","lat":"31.16577","category":"47","category_name":"住宅区","address":"康健路43弄1-14号"},{"poiid":"B2094757D064A5FA4098","title":"漕河泾街道","lon":"121.43013572","lat":"31.165782566","category":"500","category_name":"未知分类","address":"上海康健路65号"},{"poiid":"B2094655D268A4F94999","title":"中虹汇之苑(边门)","lon":"121.43077","lat":"31.16641","category":"47","category_name":"住宅区","address":"上海市徐汇区钦州路428弄"},{"poiid":"B2094654D564A0F44792","title":"漕河景苑(北2号门)","lon":"121.42896","lat":"31.16533","category":"47","category_name":"住宅区","address":"康健路58弄"},{"poiid":"B2094655D265ABFA449A","title":"钦州路烧烤摊","lon":"121.43185","lat":"31.16248","category":"68","category_name":"快餐厅","address":"徐汇区钦州路111弄门口(近冠生园路)"},{"poiid":"B2094654D564A0F4499D","title":"福建沙县小吃(习勤路)","lon":"121.42809","lat":"31.16588","category":"68","category_name":"快餐厅","address":"徐汇区习勤路96号(近光大会展中心)"},{"poiid":"B2094655D268A1FB469C","title":"河滨国际公寓(西一号门)","lon":"121.43141","lat":"31.16423","category":"47","category_name":"住宅区","address":"钦州路209-211"},{"poiid":"B2094757D664A4FC439A","title":"味之都 习勤路店","lon":"121.427686054","lat":"31.165316793","category":"68","category_name":"快餐厅","address":"徐汇区习勤路88号(近康健路)"},{"poiid":"B2094750DA6FA2F8439D","title":"上海电气集团","lon":"121.429214","lat":"31.16513","category":"252","category_name":"楼宇机构","address":"钦江路212号"},{"poiid":"B2094757D16EABFC4993","title":"益佳粥店(习勤路店)","lon":"121.428180586","lat":"31.1665741869","category":"68","category_name":"快餐厅","address":"徐汇区习勤路50-3号(近漕宝路)"},{"poiid":"B2094757D569A7FE4998","title":"上海光大会展中心东馆(北门)","lon":"121.42962212","lat":"31.16755859","category":"48","category_name":"楼宇大门","address":"漕宝路78号"},{"poiid":"B2094655D26FAAF5449E","title":"康健路77弄小区(南门)","lon":"121.42876","lat":"31.16568","category":"47","category_name":"住宅区","address":"康健路77弄1-41号"},{"poiid":"B2094655D26FA5FE4393","title":"上海光大会展中心","lon":"121.42892","lat":"31.16707","category":"260","category_name":"其他","address":"徐汇区漕宝路66号光大会展中心国际大酒店1楼(近习勤路)"},{"poiid":"B2094757D06FA2F9479C","title":"光大会展中心国际大酒店","lon":"121.429373","lat":"31.168133","category":"214","category_name":"四星级宾馆","address":"上海市徐汇区漕宝路66号(光大会展中心旁)"},{"poiid":"B2094757D165A0FA459C","title":"漕宝路","lon":"121.429336586","lat":"31.1651441589","category":"500","category_name":"未知分类","address":"上海市徐汇区漕宝路"},{"poiid":"B2094757D66EA2FE449B","title":"上海大饭堂","lon":"121.43188458","lat":"31.165935174","category":"76","category_name":"上海菜","address":"徐汇区康健路28号(近钦州路)"},{"poiid":"B2094757D16FA2FB4698","title":"徐汇区婚姻登记中心","lon":"121.428157586","lat":"31.1672411999","category":"500","category_name":"未知分类","address":"上海徐汇区龙漕路80号光大会展中心D座3层"},{"poiid":"B2094757D16CA6F84693","title":"沪闵高架南站上匝道","lon":"121.43315058","lat":"31.164494146","category":"500","category_name":"未知分类","address":"上海市徐汇区漕宝路"},{"poiid":"B2094655D269AAFC439A","title":"华夏宾馆","lon":"121.42989","lat":"31.1678","category":"217","category_name":"旅馆招待所","address":"徐汇区漕宝路38号华夏宾馆2楼(近钦州路)"},{"poiid":"B2094654D564A0FA479D","title":"上海光大会展中心E座","lon":"121.42825","lat":"31.16678","category":"46","category_name":"楼宇","address":"漕宝路82"},{"poiid":"B2094757D06BA1F94493","title":"漕河景苑","lon":"121.42992","lat":"31.164713","category":"47","category_name":"住宅区","address":"上海市徐汇区康健路58弄"},{"poiid":"B2094655D26AA2FD459F","title":"鼎中鼎澳门豆捞 习勤路店","lon":"121.42743244675","lat":"31.165274389896","category":"86","category_name":"火锅店","address":"徐汇区习勤路88号(近康建路)"},{"poiid":"B2094655D36CA7F5449E","title":"冠生园路沪闵路","lon":"121.43067","lat":"31.16351","category":"38","category_name":"公交车站","address":""},{"poiid":"B2094654DB64A1FE479B","title":"中海馨园","lon":"121.42883","lat":"31.162169","category":"47","category_name":"住宅区","address":"钦州南路8弄1-25号"},{"poiid":"B2094757D465A4FE4299","title":"重庆鸡公煲 康健路店","lon":"121.430665054","lat":"31.165526793","category":"71","category_name":"四川菜","address":"徐汇区康健路45号农工商超市附近(钦州路口)"},{"poiid":"B2094757D06BA6FD4792","title":"五木铁板烧(漕宝路店)","lon":"121.43019458","lat":"31.168261219","category":"269","category_name":"烧烤","address":"徐汇区漕宝路38号华夏宾馆1楼(近钦州路)"},{"poiid":"B2094757D66CA5FC469C","title":"解放军八五医院分院口腔科","lon":"121.43005758","lat":"31.16519816","category":"162","category_name":"医院","address":"上海市徐汇区柳州路"},{"poiid":"B2094654D564A0F44993","title":"安稳酒家","lon":"121.42729716094","lat":"31.165259803008","category":"76","category_name":"上海菜","address":"徐汇区康健路98号(近习勤路)"},{"poiid":"B2094654D564A0FA4899","title":"上海光大会展中心F座","lon":"121.42871","lat":"31.16653","category":"46","category_name":"楼宇","address":"漕宝路86"},{"poiid":"B2094757D069A1F94093","title":"港饮港食 光大店","lon":"121.42796","lat":"31.16538","category":"72","category_name":"广东菜","address":"徐汇区漕宝路80号光大会展中心D座1楼(习勤路口)"},{"poiid":"B2094757D068ABFF459A","title":"上师大第一教学楼","lon":"121.428322211","lat":"31.1671282608","category":"253","category_name":"校园生活","address":"上海徐汇区桂林路100号西部"},{"poiid":"B2094654D564A0F4469B","title":"曼顿造型沙龙","lon":"121.43082","lat":"31.16523","category":"148","category_name":"美容美发店","address":"徐汇区钦州路286号(近康健路)"},{"poiid":"B2094655D26DA7F54299","title":"梓树园","lon":"121.43021","lat":"31.16258","category":"47","category_name":"住宅区","address":"上海市徐汇区冠生园路219号"},{"poiid":"B2094757D064A0FC479D","title":"河滨国际公寓","lon":"121.43147","lat":"31.164143","category":"47","category_name":"住宅区","address":"徐汇区钦州路211号(近康健路)"},{"poiid":"B2094757D169A7F5469B","title":"功夫堂","lon":"121.43012","lat":"31.16445","category":"149","category_name":"洗浴推拿场所","address":"徐汇区康健路58号(近钦州路)"},{"poiid":"B2094757D16DA0FF429E","title":"民生银行(漕河泾支行)","lon":"121.43047","lat":"31.16502","category":"150","category_name":"银行","address":"上海徐汇区康健路38号  "},{"poiid":"B2094757D164A2F54098","title":"徐汇区","lon":"121.42834458","lat":"31.166519185","category":"500","category_name":"未知分类","address":"上海幸福的窝窝"},{"poiid":"B2094655D26FA6F5499F","title":"康惠苑","lon":"121.43216","lat":"31.16518","category":"47","category_name":"住宅区","address":"都林嘉园位于浦东浦东新区上南路3759弄1号"},{"poiid":"B2094757D16AA7F5429A","title":"徐汇区外地劳动力管理所","lon":"121.430270586","lat":"31.1651291586","category":"500","category_name":"未知分类","address":"上海徐虹北路92号2楼"},{"poiid":"B2094655D26AA2F5479F","title":"光大会展","lon":"121.42893","lat":"31.16707","category":"247","category_name":"餐饮美食","address":"徐汇区漕宝路78号(近习勤路)"},{"poiid":"B2094654DB6BA7FB4098","title":"康州小区","lon":"121.43027","lat":"31.165934","category":"47","category_name":"住宅区","address":"康健路51-55弄"},{"poiid":"B2094654D564A0F4479D","title":"永琪美容美发康健店","lon":"121.42908","lat":"31.16543","category":"148","category_name":"美容美发店","address":"徐汇区康健路26号(近钦州路)"},{"poiid":"B2094757D16AA1FC4092","title":"玲珑面馆","lon":"121.432861086","lat":"31.1654510983","category":"68","category_name":"快餐厅","address":"徐汇区康健路11号(近沪闵路)"},{"poiid":"B2094757D069AAFC4599","title":"四海游龙 光大店","lon":"121.427963","lat":"31.166368","category":"68","category_name":"快餐厅","address":"徐汇区漕宝路78号光大会展中心东馆1楼"},{"poiid":"B2094655D265A3FC499F","title":"爱情湾美容养生会所","lon":"121.43098","lat":"31.16505","category":"148","category_name":"美容美发店","address":"钦州路278"},{"poiid":"B2094654DB6BA7FB409A","title":"求知小学","lon":"121.42824","lat":"31.16531","category":"56","category_name":"小学","address":"习勤路91"},{"poiid":"B2094654DB6CA6F94892","title":"杉德信息大楼","lon":"121.42757","lat":"31.16304","category":"46","category_name":"楼宇","address":"冠生园路227"},{"poiid":"B2094654D564A0F4469E","title":"徐汇区月河菜市场","lon":"121.43121","lat":"31.1649","category":"117","category_name":"便民商店/便利店","address":""},{"poiid":"B2094654D564A0FB489A","title":"九彩天大酒楼","lon":"121.43016","lat":"31.16786","category":"76","category_name":"上海菜","address":"徐汇区漕宝路38号华夏宾馆2楼(漕溪路口)"},{"poiid":"B2094757D16CA2FA4599","title":"牛奶棚(习勤店)","lon":"121.4282","lat":"31.16587","category":"67","category_name":"甜品店","address":"徐汇区习勤路20号(光大会展旁)"},{"poiid":"B2094655D268A7F8439D","title":"康健路43弄小区(西二号门)","lon":"121.43106","lat":"31.16577","category":"47","category_name":"住宅区","address":"康健路43弄1-14号"},{"poiid":"B2094757D064A5FA4098","title":"漕河泾街道","lon":"121.43013572","lat":"31.165782566","category":"500","category_name":"未知分类","address":"上海康健路65号"},{"poiid":"B2094655D268A4F94999","title":"中虹汇之苑(边门)","lon":"121.43077","lat":"31.16641","category":"47","category_name":"住宅区","address":"上海市徐汇区钦州路428弄"},{"poiid":"B2094654D564A0F44792","title":"漕河景苑(北2号门)","lon":"121.42896","lat":"31.16533","category":"47","category_name":"住宅区","address":"康健路58弄"},{"poiid":"B2094655D265ABFA449A","title":"钦州路烧烤摊","lon":"121.43185","lat":"31.16248","category":"68","category_name":"快餐厅","address":"徐汇区钦州路111弄门口(近冠生园路)"},{"poiid":"B2094654D564A0F4499D","title":"福建沙县小吃(习勤路)","lon":"121.42809","lat":"31.16588","category":"68","category_name":"快餐厅","address":"徐汇区习勤路96号(近光大会展中心)"},{"poiid":"B2094655D268A1FB469C","title":"河滨国际公寓(西一号门)","lon":"121.43141","lat":"31.16423","category":"47","category_name":"住宅区","address":"钦州路209-211"},{"poiid":"B2094757D664A4FC439A","title":"味之都 习勤路店","lon":"121.427686054","lat":"31.165316793","category":"68","category_name":"快餐厅","address":"徐汇区习勤路88号(近康健路)"},{"poiid":"B2094750DA6FA2F8439D","title":"上海电气集团","lon":"121.429214","lat":"31.16513","category":"252","category_name":"楼宇机构","address":"钦江路212号"},{"poiid":"B2094757D16EABFC4993","title":"益佳粥店(习勤路店)","lon":"121.428180586","lat":"31.1665741869","category":"68","category_name":"快餐厅","address":"徐汇区习勤路50-3号(近漕宝路)"},{"poiid":"B2094757D569A7FE4998","title":"上海光大会展中心东馆(北门)","lon":"121.42962212","lat":"31.16755859","category":"48","category_name":"楼宇大门","address":"漕宝路78号"},{"poiid":"B2094655D26FAAF5449E","title":"康健路77弄小区(南门)","lon":"121.42876","lat":"31.16568","category":"47","category_name":"住宅区","address":"康健路77弄1-41号"},{"poiid":"B2094655D26FA5FE4393","title":"上海光大会展中心","lon":"121.42892","lat":"31.16707","category":"260","category_name":"其他","address":"徐汇区漕宝路66号光大会展中心国际大酒店1楼(近习勤路)"},{"poiid":"B2094757D06FA2F9479C","title":"光大会展中心国际大酒店","lon":"121.429373","lat":"31.168133","category":"214","category_name":"四星级宾馆","address":"上海市徐汇区漕宝路66号(光大会展中心旁)"},{"poiid":"B2094757D165A0FA459C","title":"漕宝路","lon":"121.429336586","lat":"31.1651441589","category":"500","category_name":"未知分类","address":"上海市徐汇区漕宝路"},{"poiid":"B2094757D66EA2FE449B","title":"上海大饭堂","lon":"121.43188458","lat":"31.165935174","category":"76","category_name":"上海菜","address":"徐汇区康健路28号(近钦州路)"},{"poiid":"B2094757D16FA2FB4698","title":"徐汇区婚姻登记中心","lon":"121.428157586","lat":"31.1672411999","category":"500","category_name":"未知分类","address":"上海徐汇区龙漕路80号光大会展中心D座3层"},{"poiid":"B2094757D16CA6F84693","title":"沪闵高架南站上匝道","lon":"121.43315058","lat":"31.164494146","category":"500","category_name":"未知分类","address":"上海市徐汇区漕宝路"},{"poiid":"B2094655D269AAFC439A","title":"华夏宾馆","lon":"121.42989","lat":"31.1678","category":"217","category_name":"旅馆招待所","address":"徐汇区漕宝路38号华夏宾馆2楼(近钦州路)"},{"poiid":"B2094654D564A0FA479D","title":"上海光大会展中心E座","lon":"121.42825","lat":"31.16678","category":"46","category_name":"楼宇","address":"漕宝路82"},{"poiid":"B2094757D06BA1F94493","title":"漕河景苑","lon":"121.42992","lat":"31.164713","category":"47","category_name":"住宅区","address":"上海市徐汇区康健路58弄"},{"poiid":"B2094655D26AA2FD459F","title":"鼎中鼎澳门豆捞 习勤路店","lon":"121.42743244675","lat":"31.165274389896","category":"86","category_name":"火锅店","address":"徐汇区习勤路88号(近康建路)"},{"poiid":"B2094655D36CA7F5449E","title":"冠生园路沪闵路","lon":"121.43067","lat":"31.16351","category":"38","category_name":"公交车站","address":""},{"poiid":"B2094654DB64A1FE479B","title":"中海馨园","lon":"121.42883","lat":"31.162169","category":"47","category_name":"住宅区","address":"钦州南路8弄1-25号"},{"poiid":"B2094757D465A4FE4299","title":"重庆鸡公煲 康健路店","lon":"121.430665054","lat":"31.165526793","category":"71","category_name":"四川菜","address":"徐汇区康健路45号农工商超市附近(钦州路口)"},{"poiid":"B2094757D06BA6FD4792","title":"五木铁板烧(漕宝路店)","lon":"121.43019458","lat":"31.168261219","category":"269","category_name":"烧烤","address":"徐汇区漕宝路38号华夏宾馆1楼(近钦州路)"},{"poiid":"B2094757D66CA5FC469C","title":"解放军八五医院分院口腔科","lon":"121.43005758","lat":"31.16519816","category":"162","category_name":"医院","address":"上海市徐汇区柳州路"},{"poiid":"B2094654D564A0F44993","title":"安稳酒家","lon":"121.42729716094","lat":"31.165259803008","category":"76","category_name":"上海菜","address":"徐汇区康健路98号(近习勤路)"},{"poiid":"B2094654D564A0FA4899","title":"上海光大会展中心F座","lon":"121.42871","lat":"31.16653","category":"46","category_name":"楼宇","address":"漕宝路86"},{"poiid":"B2094757D069A1F94093","title":"港饮港食 光大店","lon":"121.42796","lat":"31.16538","category":"72","category_name":"广东菜","address":"徐汇区漕宝路80号光大会展中心D座1楼(习勤路口)"},{"poiid":"B2094757D068ABFF459A","title":"上师大第一教学楼","lon":"121.428322211","lat":"31.1671282608","category":"253","category_name":"校园生活","address":"上海徐汇区桂林路100号西部"},{"poiid":"B2094654D564A0F4469B","title":"曼顿造型沙龙","lon":"121.43082","lat":"31.16523","category":"148","category_name":"美容美发店","address":"徐汇区钦州路286号(近康健路)"},{"poiid":"B2094655D26DA7F54299","title":"梓树园","lon":"121.43021","lat":"31.16258","category":"47","category_name":"住宅区","address":"上海市徐汇区冠生园路219号"},{"poiid":"B2094757D064A0FC479D","title":"河滨国际公寓","lon":"121.43147","lat":"31.164143","category":"47","category_name":"住宅区","address":"徐汇区钦州路211号(近康健路)"},{"poiid":"B2094757D169A7F5469B","title":"功夫堂","lon":"121.43012","lat":"31.16445","category":"149","category_name":"洗浴推拿场所","address":"徐汇区康健路58号(近钦州路)"},{"poiid":"B2094757D16DA0FF429E","title":"民生银行(漕河泾支行)","lon":"121.43047","lat":"31.16502","category":"150","category_name":"银行","address":"上海徐汇区康健路38号  "},{"poiid":"B2094757D164A2F54098","title":"徐汇区","lon":"121.42834458","lat":"31.166519185","category":"500","category_name":"未知分类","address":"上海幸福的窝窝"},{"poiid":"B2094655D26FA6F5499F","title":"康惠苑","lon":"121.43216","lat":"31.16518","category":"47","category_name":"住宅区","address":"都林嘉园位于浦东浦东新区上南路3759弄1号"},{"poiid":"B2094757D16AA7F5429A","title":"徐汇区外地劳动力管理所","lon":"121.430270586","lat":"31.1651291586","category":"500","category_name":"未知分类","address":"上海徐虹北路92号2楼"},{"poiid":"B2094655D26AA2F5479F","title":"光大会展","lon":"121.42893","lat":"31.16707","category":"247","category_name":"餐饮美食","address":"徐汇区漕宝路78号(近习勤路)"},{"poiid":"B2094654DB6BA7FB4098","title":"康州小区","lon":"121.43027","lat":"31.165934","category":"47","category_name":"住宅区","address":"康健路51-55弄"},{"poiid":"B2094654D564A0F4479D","title":"永琪美容美发康健店","lon":"121.42908","lat":"31.16543","category":"148","category_name":"美容美发店","address":"徐汇区康健路26号(近钦州路)"},{"poiid":"B2094757D16AA1FC4092","title":"玲珑面馆","lon":"121.432861086","lat":"31.1654510983","category":"68","category_name":"快餐厅","address":"徐汇区康健路11号(近沪闵路)"},{"poiid":"B2094757D069AAFC4599","title":"四海游龙 光大店","lon":"121.427963","lat":"31.166368","category":"68","category_name":"快餐厅","address":"徐汇区漕宝路78号光大会展中心东馆1楼"},{"poiid":"B2094655D265A3FC499F","title":"爱情湾美容养生会所","lon":"121.43098","lat":"31.16505","category":"148","category_name":"美容美发店","address":"钦州路278"},{"poiid":"B2094654DB6BA7FB409A","title":"求知小学","lon":"121.42824","lat":"31.16531","category":"56","category_name":"小学","address":"习勤路91"},{"poiid":"B2094654DB6CA6F94892","title":"杉德信息大楼","lon":"121.42757","lat":"31.16304","category":"46","category_name":"楼宇","address":"冠生园路227"},{"poiid":"B2094654D564A0F4469E","title":"徐汇区月河菜市场","lon":"121.43121","lat":"31.1649","category":"117","category_name":"便民商店/便利店","address":""},{"poiid":"B2094654D564A0FB489A","title":"九彩天大酒楼","lon":"121.43016","lat":"31.16786","category":"76","category_name":"上海菜","address":"徐汇区漕宝路38号华夏宾馆2楼(漕溪路口)"},{"poiid":"B2094757D16CA2FA4599","title":"牛奶棚(习勤店)","lon":"121.4282","lat":"31.16587","category":"67","category_name":"甜品店","address":"徐汇区习勤路20号(光大会展旁)"},{"poiid":"B2094655D268A7F8439D","title":"康健路43弄小区(西二号门)","lon":"121.43106","lat":"31.16577","category":"47","category_name":"住宅区","address":"康健路43弄1-14号"},{"poiid":"B2094757D064A5FA4098","title":"漕河泾街道","lon":"121.43013572","lat":"31.165782566","category":"500","category_name":"未知分类","address":"上海康健路65号"},{"poiid":"B2094655D268A4F94999","title":"中虹汇之苑(边门)","lon":"121.43077","lat":"31.16641","category":"47","category_name":"住宅区","address":"上海市徐汇区钦州路428弄"},{"poiid":"B2094654D564A0F44792","title":"漕河景苑(北2号门)","lon":"121.42896","lat":"31.16533","category":"47","category_name":"住宅区","address":"康健路58弄"},{"poiid":"B2094655D265ABFA449A","title":"钦州路烧烤摊","lon":"121.43185","lat":"31.16248","category":"68","category_name":"快餐厅","address":"徐汇区钦州路111弄门口(近冠生园路)"},{"poiid":"B2094654D564A0F4499D","title":"福建沙县小吃(习勤路)","lon":"121.42809","lat":"31.16588","category":"68","category_name":"快餐厅","address":"徐汇区习勤路96号(近光大会展中心)"},{"poiid":"B2094655D268A1FB469C","title":"河滨国际公寓(西一号门)","lon":"121.43141","lat":"31.16423","category":"47","category_name":"住宅区","address":"钦州路209-211"},{"poiid":"B2094757D664A4FC439A","title":"味之都 习勤路店","lon":"121.427686054","lat":"31.165316793","category":"68","category_name":"快餐厅","address":"徐汇区习勤路88号(近康健路)"},{"poiid":"B2094750DA6FA2F8439D","title":"上海电气集团","lon":"121.429214","lat":"31.16513","category":"252","category_name":"楼宇机构","address":"钦江路212号"},{"poiid":"B2094757D16EABFC4993","title":"益佳粥店(习勤路店)","lon":"121.428180586","lat":"31.1665741869","category":"68","category_name":"快餐厅","address":"徐汇区习勤路50-3号(近漕宝路)"},{"poiid":"B2094757D569A7FE4998","title":"上海光大会展中心东馆(北门)","lon":"121.42962212","lat":"31.16755859","category":"48","category_name":"楼宇大门","address":"漕宝路78号"},{"poiid":"B2094655D26FAAF5449E","title":"康健路77弄小区(南门)","lon":"121.42876","lat":"31.16568","category":"47","category_name":"住宅区","address":"康健路77弄1-41号"},{"poiid":"B2094655D26FA5FE4393","title":"上海光大会展中心","lon":"121.42892","lat":"31.16707","category":"260","category_name":"其他","address":"徐汇区漕宝路66号光大会展中心国际大酒店1楼(近习勤路)"},{"poiid":"B2094757D06FA2F9479C","title":"光大会展中心国际大酒店","lon":"121.429373","lat":"31.168133","category":"214","category_name":"四星级宾馆","address":"上海市徐汇区漕宝路66号(光大会展中心旁)"},{"poiid":"B2094757D165A0FA459C","title":"漕宝路","lon":"121.429336586","lat":"31.1651441589","category":"500","category_name":"未知分类","address":"上海市徐汇区漕宝路"},{"poiid":"B2094757D66EA2FE449B","title":"上海大饭堂","lon":"121.43188458","lat":"31.165935174","category":"76","category_name":"上海菜","address":"徐汇区康健路28号(近钦州路)"},{"poiid":"B2094757D16FA2FB4698","title":"徐汇区婚姻登记中心","lon":"121.428157586","lat":"31.1672411999","category":"500","category_name":"未知分类","address":"上海徐汇区龙漕路80号光大会展中心D座3层"},{"poiid":"B2094757D16CA6F84693","title":"沪闵高架南站上匝道","lon":"121.43315058","lat":"31.164494146","category":"500","category_name":"未知分类","address":"上海市徐汇区漕宝路"},{"poiid":"B2094655D269AAFC439A","title":"华夏宾馆","lon":"121.42989","lat":"31.1678","category":"217","category_name":"旅馆招待所","address":"徐汇区漕宝路38号华夏宾馆2楼(近钦州路)"},{"poiid":"B2094654D564A0FA479D","title":"上海光大会展中心E座","lon":"121.42825","lat":"31.16678","category":"46","category_name":"楼宇","address":"漕宝路82"},{"poiid":"B2094757D06BA1F94493","title":"漕河景苑","lon":"121.42992","lat":"31.164713","category":"47","category_name":"住宅区","address":"上海市徐汇区康健路58弄"},{"poiid":"B2094655D26AA2FD459F","title":"鼎中鼎澳门豆捞 习勤路店","lon":"121.42743244675","lat":"31.165274389896","category":"86","category_name":"火锅店","address":"徐汇区习勤路88号(近康建路)"},{"poiid":"B2094655D36CA7F5449E","title":"冠生园路沪闵路","lon":"121.43067","lat":"31.16351","category":"38","category_name":"公交车站","address":""},{"poiid":"B2094654DB64A1FE479B","title":"中海馨园","lon":"121.42883","lat":"31.162169","category":"47","category_name":"住宅区","address":"钦州南路8弄1-25号"},{"poiid":"B2094757D465A4FE4299","title":"重庆鸡公煲 康健路店","lon":"121.430665054","lat":"31.165526793","category":"71","category_name":"四川菜","address":"徐汇区康健路45号农工商超市附近(钦州路口)"},{"poiid":"B2094757D06BA6FD4792","title":"五木铁板烧(漕宝路店)","lon":"121.43019458","lat":"31.168261219","category":"269","category_name":"烧烤","address":"徐汇区漕宝路38号华夏宾馆1楼(近钦州路)"},{"poiid":"B2094757D66CA5FC469C","title":"解放军八五医院分院口腔科","lon":"121.43005758","lat":"31.16519816","category":"162","category_name":"医院","address":"上海市徐汇区柳州路"},{"poiid":"B2094654D564A0F44993","title":"安稳酒家","lon":"121.42729716094","lat":"31.165259803008","category":"76","category_name":"上海菜","address":"徐汇区康健路98号(近习勤路)"},{"poiid":"B2094654D564A0FA4899","title":"上海光大会展中心F座","lon":"121.42871","lat":"31.16653","category":"46","category_name":"楼宇","address":"漕宝路86"},{"poiid":"B2094757D069A1F94093","title":"港饮港食 光大店","lon":"121.42796","lat":"31.16538","category":"72","category_name":"广东菜","address":"徐汇区漕宝路80号光大会展中心D座1楼(习勤路口)"},{"poiid":"B2094757D068ABFF459A","title":"上师大第一教学楼","lon":"121.428322211","lat":"31.1671282608","category":"253","category_name":"校园生活","address":"上海徐汇区桂林路100号西部"},{"poiid":"B2094654D564A0F4469B","title":"曼顿造型沙龙","lon":"121.43082","lat":"31.16523","category":"148","category_name":"美容美发店","address":"徐汇区钦州路286号(近康健路)"},{"poiid":"B2094655D26DA7F54299","title":"梓树园","lon":"121.43021","lat":"31.16258","category":"47","category_name":"住宅区","address":"上海市徐汇区冠生园路219号"},{"poiid":"B2094757D064A0FC479D","title":"河滨国际公寓","lon":"121.43147","lat":"31.164143","category":"47","category_name":"住宅区","address":"徐汇区钦州路211号(近康健路)"},{"poiid":"B2094757D169A7F5469B","title":"功夫堂","lon":"121.43012","lat":"31.16445","category":"149","category_name":"洗浴推拿场所","address":"徐汇区康健路58号(近钦州路)"},{"poiid":"B2094757D16DA0FF429E","title":"民生银行(漕河泾支行)","lon":"121.43047","lat":"31.16502","category":"150","category_name":"银行","address":"上海徐汇区康健路38号  "},{"poiid":"B2094757D164A2F54098","title":"徐汇区","lon":"121.42834458","lat":"31.166519185","category":"500","category_name":"未知分类","address":"上海幸福的窝窝"},{"poiid":"B2094655D26FA6F5499F","title":"康惠苑","lon":"121.43216","lat":"31.16518","category":"47","category_name":"住宅区","address":"都林嘉园位于浦东浦东新区上南路3759弄1号"},{"poiid":"B2094757D16AA7F5429A","title":"徐汇区外地劳动力管理所","lon":"121.430270586","lat":"31.1651291586","category":"500","category_name":"未知分类","address":"上海徐虹北路92号2楼"},{"poiid":"B2094655D26AA2F5479F","title":"光大会展","lon":"121.42893","lat":"31.16707","category":"247","category_name":"餐饮美食","address":"徐汇区漕宝路78号(近习勤路)"},{"poiid":"B2094654DB6BA7FB4098","title":"康州小区","lon":"121.43027","lat":"31.165934","category":"47","category_name":"住宅区","address":"康健路51-55弄"},{"poiid":"B2094654D564A0F4479D","title":"永琪美容美发康健店","lon":"121.42908","lat":"31.16543","category":"148","category_name":"美容美发店","address":"徐汇区康健路26号(近钦州路)"},{"poiid":"B2094757D16AA1FC4092","title":"玲珑面馆","lon":"121.432861086","lat":"31.1654510983","category":"68","category_name":"快餐厅","address":"徐汇区康健路11号(近沪闵路)"},{"poiid":"B2094757D069AAFC4599","title":"四海游龙 光大店","lon":"121.427963","lat":"31.166368","category":"68","category_name":"快餐厅","address":"徐汇区漕宝路78号光大会展中心东馆1楼"},{"poiid":"B2094655D265A3FC499F","title":"爱情湾美容养生会所","lon":"121.43098","lat":"31.16505","category":"148","category_name":"美容美发店","address":"钦州路278"},{"poiid":"B2094654DB6BA7FB409A","title":"求知小学","lon":"121.42824","lat":"31.16531","category":"56","category_name":"小学","address":"习勤路91"},{"poiid":"B2094654DB6CA6F94892","title":"杉德信息大楼","lon":"121.42757","lat":"31.16304","category":"46","category_name":"楼宇","address":"冠生园路227"},{"poiid":"B2094654D564A0F4469E","title":"徐汇区月河菜市场","lon":"121.43121","lat":"31.1649","category":"117","category_name":"便民商店/便利店","address":""},{"poiid":"B2094654D564A0FB489A","title":"九彩天大酒楼","lon":"121.43016","lat":"31.16786","category":"76","category_name":"上海菜","address":"徐汇区漕宝路38号华夏宾馆2楼(漕溪路口)"},{"poiid":"B2094757D16CA2FA4599","title":"牛奶棚(习勤店)","lon":"121.4282","lat":"31.16587","category":"67","category_name":"甜品店","address":"徐汇区习勤路20号(光大会展旁)"},{"poiid":"B2094655D268A7F8439D","title":"康健路43弄小区(西二号门)","lon":"121.43106","lat":"31.16577","category":"47","category_name":"住宅区","address":"康健路43弄1-14号"},{"poiid":"B2094757D064A5FA4098","title":"漕河泾街道","lon":"121.43013572","lat":"31.165782566","category":"500","category_name":"未知分类","address":"上海康健路65号"},{"poiid":"B2094655D268A4F94999","title":"中虹汇之苑(边门)","lon":"121.43077","lat":"31.16641","category":"47","category_name":"住宅区","address":"上海市徐汇区钦州路428弄"},{"poiid":"B2094654D564A0F44792","title":"漕河景苑(北2号门)","lon":"121.42896","lat":"31.16533","category":"47","category_name":"住宅区","address":"康健路58弄"},{"poiid":"B2094655D265ABFA449A","title":"钦州路烧烤摊","lon":"121.43185","lat":"31.16248","category":"68","category_name":"快餐厅","address":"徐汇区钦州路111弄门口(近冠生园路)"},{"poiid":"B2094654D564A0F4499D","title":"福建沙县小吃(习勤路)","lon":"121.42809","lat":"31.16588","category":"68","category_name":"快餐厅","address":"徐汇区习勤路96号(近光大会展中心)"},{"poiid":"B2094655D268A1FB469C","title":"河滨国际公寓(西一号门)","lon":"121.43141","lat":"31.16423","category":"47","category_name":"住宅区","address":"钦州路209-211"},{"poiid":"B2094757D664A4FC439A","title":"味之都 习勤路店","lon":"121.427686054","lat":"31.165316793","category":"68","category_name":"快餐厅","address":"徐汇区习勤路88号(近康健路)"},{"poiid":"B2094750DA6FA2F8439D","title":"上海电气集团","lon":"121.429214","lat":"31.16513","category":"252","category_name":"楼宇机构","address":"钦江路212号"},{"poiid":"B2094757D16EABFC4993","title":"益佳粥店(习勤路店)","lon":"121.428180586","lat":"31.1665741869","category":"68","category_name":"快餐厅","address":"徐汇区习勤路50-3号(近漕宝路)"},{"poiid":"B2094757D569A7FE4998","title":"上海光大会展中心东馆(北门)","lon":"121.42962212","lat":"31.16755859","category":"48","category_name":"楼宇大门","address":"漕宝路78号"},{"poiid":"B2094655D26FAAF5449E","title":"康健路77弄小区(南门)","lon":"121.42876","lat":"31.16568","category":"47","category_name":"住宅区","address":"康健路77弄1-41号"}]