[{"poiid":"B2094757D068A1F44793","title":"松江平高世贸中心","lon":"121.23529618071325","lat":"31.00663743923123","category":"119","category_name":"商场","address":"松江中山中路71号"},{"poiid":"B2094654DB6AA6FF439D","title":"方塔公园","lon":"121.24581","lat":"31.00652","category":"196","category_name":"公园","address":"松江区中山东路235路"},{"poiid":"B2094757D06AA7FF489B","title":"上海松江假日酒店","lon":"121.235974117","lat":"31.0058816693","category":"217","category_name":"旅馆招待所","address":"松江区中山中路83号平高世贸中心(近谷阳路)"},{"poiid":"B2094757D068A6FD459C","title":"PANKOO釜山料理(松江平高店)","lon":"121.23541902","lat":"31.006209294","category":"96","category_name":"韩国料理","address":"上海市松江区中山中路71号5楼平高世贸中心5楼"},{"poiid":"B2094757D068A4FC4593","title":"松江二中","lon":"121.247600486","lat":"31.0086362483","category":"55","category_name":"中学","address":"上海市松江区中山东路250号"},{"poiid":"B2094757D06BA5FB4499","title":"小南国(松江店)","lon":"121.236183219","lat":"31.0092310628","category":"500","category_name":"未知分类","address":"上海市松江区松江长桥街平高"},{"poiid":"B2094757D069A6FA4592","title":"上海红楼戴斯宾馆","lon":"121.23897","lat":"31.00381","category":"217","category_name":"旅馆招待所","address":"松江区普照路1号(近松汇路)"},{"poiid":"B2094751DA69A7F4459D","title":"星巴克","lon":"121.235518","lat":"31.005691","category":"247","category_name":"餐饮美食","address":"上海松江松汇中路568号乐颂坊1楼"},{"poiid":"B2094654DB6EA3F54292","title":"樟馨家园","lon":"121.23857","lat":"31.011311","category":"47","category_name":"住宅区","address":"上海市松江区松乐路88弄"},{"poiid":"B2094757D069AAFA4098","title":"健康煮 中山中路店","lon":"121.2317063","lat":"31.0066983","category":"86","category_name":"火锅店","address":"松江区中山中路73号平高国际世贸中心4楼"},{"poiid":"B2094757D66CA3F94492","title":"松临日本料理松江店","lon":"121.235353467","lat":"31.005958971","category":"95","category_name":"日本料理","address":"松江区中山中路71号平高世贸中心7楼(中山中路谷阳北路)"},{"poiid":"B2094757D06AA0FE489F","title":"田季干锅","lon":"121.23554602","lat":"31.0062322936","category":"71","category_name":"四川菜","address":"松江区中山中路83号平高世贸中心B1楼"},{"poiid":"B2094757D464A0F9499C","title":"鲁山人","lon":"121.23868008277","lat":"31.007122656877","category":"95","category_name":"日本料理","address":"松江区普照路71号(中山东路中山中路)"},{"poiid":"B2094753D36EA1F44592","title":"首尔焖鲜汇(乐颂坊店)","lon":"121.239766","lat":"31.006933","category":"86","category_name":"火锅店","address":"松汇中路568号乐颂坊B座303单元(近普照路)"},{"poiid":"B2094750DA6EA2FC449F","title":"炫音KTV上海平高店","lon":"121.235061","lat":"31.008541","category":"500","category_name":"未知分类","address":"松江区中山中路71号平高世贸中心4楼A号座(近沃尔玛购物广场)"},{"poiid":"B2094757D66FA6FE439B","title":"DQ&lt;松江平高店&gt;","lon":"121.235201467","lat":"31.0084459256","category":"113","category_name":"冷饮店","address":"上海松江平高贸易中心"},{"poiid":"B2094654DB6EA2FF479D","title":"松江方塔","lon":"121.24651","lat":"31.00557","category":"240","category_name":"国家级景点","address":""},{"poiid":"B2094655D268A6F9469A","title":"烤友社","lon":"121.236150054","lat":"31.007009793","category":"96","category_name":"韩国料理","address":"松江区谷阳南路52号(近中山中路)"},{"poiid":"B2094654DB6EA2FC429F","title":"松荣 松江店","lon":"121.23871060014","lat":"31.006320293222","category":"95","category_name":"日本料理","address":"松江区普照路81号(中山东路中山中路)"},{"poiid":"B2094757D168A3FC4299","title":"松临日本料理·铁板烧","lon":"121.239858467","lat":"31.0066479861","category":"247","category_name":"餐饮美食","address":"上海松江中山中路77号平高世贸中心7F"},{"poiid":"B2094757D165A6F8449E","title":"呀咪咖喱屋","lon":"121.235324467","lat":"31.0059899717","category":"247","category_name":"餐饮美食","address":"松汇中路568号A座A131-132"},{"poiid":"B2094750DA6CA3FD4299","title":"black &magic","lon":"121.235366","lat":"31.005924","category":"247","category_name":"餐饮美食","address":"乐颂坊"},{"poiid":"B2094750D56EA4FF429F","title":"精悦蓉香锅牛蛙","lon":"121.235794","lat":"31.006372","category":"247","category_name":"餐饮美食","address":null},{"poiid":"B2094655D26FABF54098","title":"松江宾馆商务楼","lon":"121.24143","lat":"31.0072","category":"46","category_name":"楼宇","address":""},{"poiid":"B2094757D16CA7F9489D","title":"松江区政府第二行政中心","lon":"121.23971557","lat":"31.007217407","category":"500","category_name":"未知分类","address":"上海中山中路38号"},{"poiid":"B2094654DB6EA2FC4899","title":"松江剧场","lon":"121.2387","lat":"31.00584","category":"180","category_name":"剧场","address":"松江区中山中路37号"},{"poiid":"B2094655D36DA7F8449E","title":"中山东路","lon":"121.24404","lat":"31.00703","category":"38","category_name":"公交车站","address":""},{"poiid":"B2094655D264A2F54698","title":"月夏香樟林","lon":"121.23857","lat":"31.01131","category":"47","category_name":"住宅区","address":"上海市松江区松乐路88弄"},{"poiid":"B2094750D76FA5F44992","title":"山沟沟土菜馆","lon":"121.247","lat":"31.0069","category":"87","category_name":"特色／地方风味餐厅","address":"松江区中山东路235号方塔附近"},{"poiid":"B2094757D66BA5FE4492","title":"元祖 中山中路店 Ganso","lon":"121.236446054","lat":"31.008000793","category":"67","category_name":"甜品店","address":"松江区中山中路99号肯德基附近"},{"poiid":"B2094757D06BA1FE469B","title":"松江公安分局","lon":"121.242585","lat":"31.007785","category":"500","category_name":"未知分类","address":"上海松江·中山东路290号"},{"poiid":"B2094757DB64A4FB4099","title":"呷哺呷哺（平高世贸中心店）","lon":"121.235","lat":"31.0066","category":"68","category_name":"快餐厅","address":"松江区中山中路73号B1楼BF-04号"},{"poiid":"B2094757D165AAFF4693","title":"乐都路","lon":"121.23887486","lat":"31.013645639","category":"500","category_name":"未知分类","address":"上海乐都路"},{"poiid":"B2094757D169A4F84392","title":"余天成养生馆","lon":"121.240055517","lat":"31.0042379833","category":"76","category_name":"上海菜","address":"松江区普照路8号(近松汇东路)"},{"poiid":"B2094654DB65A5F5469A","title":"松江区中山小学","lon":"121.24178","lat":"31.00623","category":"56","category_name":"小学","address":"松江区中山东路"},{"poiid":"B2094655D268A6FA469A","title":"松江二中游泳馆","lon":"121.24337","lat":"31.00927","category":"231","category_name":"游泳馆","address":"松江区中山东路250号松江二中"},{"poiid":"B2094655D26EA4FC4692","title":"雅玛海鲜城","lon":"121.24161","lat":"31.00719","category":"88","category_name":"海鲜酒楼","address":"松江区中山东路298号3楼(近白云路)"},{"poiid":"B2094655D268A7FA419F","title":"中山东路274弄小区","lon":"121.2433","lat":"31.00758","category":"47","category_name":"住宅区","address":"中山东路274弄"},{"poiid":"B2094757D664A1F8489E","title":"七欣天迷宗蟹 松江店","lon":"121.243638054","lat":"31.013775793","category":"86","category_name":"火锅店","address":"松江区环城东路980号(近沪松路)"},{"poiid":"B2094655D264A1F44392","title":"松江第二办公中心","lon":"121.23925","lat":"31.00712","category":"46","category_name":"楼宇","address":"中山中路38号"},{"poiid":"B2094757D165A0F4449C","title":"爱茜茜里","lon":"121.23869956","lat":"31.006904091","category":"247","category_name":"餐饮美食","address":"上海松江沃尔玛店"},{"poiid":"B2094654DB6EA3F54293","title":"良友金伴(樟馨家园东)","lon":"121.23915","lat":"31.01027","category":"117","category_name":"便民商店/便利店","address":"松乐路60"},{"poiid":"B2094757D56EA0F9489A","title":"松江二中食堂","lon":"121.2452245","lat":"31.00858483","category":"68","category_name":"快餐厅","address":"松江区中山东路250号(近方塔北路)"},{"poiid":"B2094654DB6EA3F54593","title":"上海市松江区机关幼儿园","lon":"121.23872","lat":"31.00952","category":"57","category_name":"幼儿园","address":"景德路40"},{"poiid":"B2094752D269AAF8429A","title":"渔寿司","lon":"121.235446","lat":"31.005822","category":"247","category_name":"餐饮美食","address":"上海市松江区中山中路150号2楼"},{"poiid":"B2094757D168A7FE499E","title":"味千拉面(平高世贸店)","lon":"121.23533046","lat":"31.006783989","category":"247","category_name":"餐饮美食","address":"松江区上海平高世贸中心B1"},{"poiid":"B2094757D66FA0F94898","title":"荣景苑","lon":"121.241","lat":"31.0103","category":"252","category_name":"楼宇机构","address":"上海松江松汇西路"},{"poiid":"B2094654DB6EA2FC4092","title":"好德(普照路)","lon":"121.23999","lat":"31.00667","category":"117","category_name":"便民商店/便利店","address":"普照路112-114"},{"poiid":"B2094751D46BA6F8459A","title":"乐颂坊商业广场","lon":"121.235503","lat":"31.005955","category":"119","category_name":"商场","address":"松江区松汇中路568号"},{"poiid":"B2094757DB64A4FA479D","title":"炫麦KTV（平高世贸中心店）","lon":"121.235","lat":"31.0066","category":"170","category_name":"KTV","address":"上海松江区中山中路71号 平高世贸中心四层"},{"poiid":"B2094757D068A1F44793","title":"松江平高世贸中心","lon":"121.23529618071325","lat":"31.00663743923123","category":"119","category_name":"商场","address":"松江中山中路71号"},{"poiid":"B2094654DB6AA6FF439D","title":"方塔公园","lon":"121.24581","lat":"31.00652","category":"196","category_name":"公园","address":"松江区中山东路235路"},{"poiid":"B2094757D06AA7FF489B","title":"上海松江假日酒店","lon":"121.235974117","lat":"31.0058816693","category":"217","category_name":"旅馆招待所","address":"松江区中山中路83号平高世贸中心(近谷阳路)"},{"poiid":"B2094757D068A6FD459C","title":"PANKOO釜山料理(松江平高店)","lon":"121.23541902","lat":"31.006209294","category":"96","category_name":"韩国料理","address":"上海市松江区中山中路71号5楼平高世贸中心5楼"},{"poiid":"B2094757D068A4FC4593","title":"松江二中","lon":"121.247600486","lat":"31.0086362483","category":"55","category_name":"中学","address":"上海市松江区中山东路250号"},{"poiid":"B2094757D06BA5FB4499","title":"小南国(松江店)","lon":"121.236183219","lat":"31.0092310628","category":"500","category_name":"未知分类","address":"上海市松江区松江长桥街平高"},{"poiid":"B2094757D069A6FA4592","title":"上海红楼戴斯宾馆","lon":"121.23897","lat":"31.00381","category":"217","category_name":"旅馆招待所","address":"松江区普照路1号(近松汇路)"},{"poiid":"B2094751DA69A7F4459D","title":"星巴克","lon":"121.235518","lat":"31.005691","category":"247","category_name":"餐饮美食","address":"上海松江松汇中路568号乐颂坊1楼"},{"poiid":"B2094654DB6EA3F54292","title":"樟馨家园","lon":"121.23857","lat":"31.011311","category":"47","category_name":"住宅区","address":"上海市松江区松乐路88弄"},{"poiid":"B2094757D069AAFA4098","title":"健康煮 中山中路店","lon":"121.2317063","lat":"31.0066983","category":"86","category_name":"火锅店","address":"松江区中山中路73号平高国际世贸中心4楼"},{"poiid":"B2094757D66CA3F94492","title":"松临日本料理松江店","lon":"121.235353467","lat":"31.005958971","category":"95","category_name":"日本料理","address":"松江区中山中路71号平高世贸中心7楼(中山中路谷阳北路)"},{"poiid":"B2094757D06AA0FE489F","title":"田季干锅","lon":"121.23554602","lat":"31.0062322936","category":"71","category_name":"四川菜","address":"松江区中山中路83号平高世贸中心B1楼"},{"poiid":"B2094757D464A0F9499C","title":"鲁山人","lon":"121.23868008277","lat":"31.007122656877","category":"95","category_name":"日本料理","address":"松江区普照路71号(中山东路中山中路)"},{"poiid":"B2094753D36EA1F44592","title":"首尔焖鲜汇(乐颂坊店)","lon":"121.239766","lat":"31.006933","category":"86","category_name":"火锅店","address":"松汇中路568号乐颂坊B座303单元(近普照路)"},{"poiid":"B2094750DA6EA2FC449F","title":"炫音KTV上海平高店","lon":"121.235061","lat":"31.008541","category":"500","category_name":"未知分类","address":"松江区中山中路71号平高世贸中心4楼A号座(近沃尔玛购物广场)"},{"poiid":"B2094757D66FA6FE439B","title":"DQ&lt;松江平高店&gt;","lon":"121.235201467","lat":"31.0084459256","category":"113","category_name":"冷饮店","address":"上海松江平高贸易中心"},{"poiid":"B2094654DB6EA2FF479D","title":"松江方塔","lon":"121.24651","lat":"31.00557","category":"240","category_name":"国家级景点","address":""},{"poiid":"B2094655D268A6F9469A","title":"烤友社","lon":"121.236150054","lat":"31.007009793","category":"96","category_name":"韩国料理","address":"松江区谷阳南路52号(近中山中路)"},{"poiid":"B2094654DB6EA2FC429F","title":"松荣 松江店","lon":"121.23871060014","lat":"31.006320293222","category":"95","category_name":"日本料理","address":"松江区普照路81号(中山东路中山中路)"},{"poiid":"B2094757D168A3FC4299","title":"松临日本料理·铁板烧","lon":"121.239858467","lat":"31.0066479861","category":"247","category_name":"餐饮美食","address":"上海松江中山中路77号平高世贸中心7F"},{"poiid":"B2094757D165A6F8449E","title":"呀咪咖喱屋","lon":"121.235324467","lat":"31.0059899717","category":"247","category_name":"餐饮美食","address":"松汇中路568号A座A131-132"},{"poiid":"B2094750DA6CA3FD4299","title":"black &magic","lon":"121.235366","lat":"31.005924","category":"247","category_name":"餐饮美食","address":"乐颂坊"},{"poiid":"B2094750D56EA4FF429F","title":"精悦蓉香锅牛蛙","lon":"121.235794","lat":"31.006372","category":"247","category_name":"餐饮美食","address":null},{"poiid":"B2094655D26FABF54098","title":"松江宾馆商务楼","lon":"121.24143","lat":"31.0072","category":"46","category_name":"楼宇","address":""},{"poiid":"B2094757D16CA7F9489D","title":"松江区政府第二行政中心","lon":"121.23971557","lat":"31.007217407","category":"500","category_name":"未知分类","address":"上海中山中路38号"},{"poiid":"B2094654DB6EA2FC4899","title":"松江剧场","lon":"121.2387","lat":"31.00584","category":"180","category_name":"剧场","address":"松江区中山中路37号"},{"poiid":"B2094655D36DA7F8449E","title":"中山东路","lon":"121.24404","lat":"31.00703","category":"38","category_name":"公交车站","address":""},{"poiid":"B2094655D264A2F54698","title":"月夏香樟林","lon":"121.23857","lat":"31.01131","category":"47","category_name":"住宅区","address":"上海市松江区松乐路88弄"},{"poiid":"B2094750D76FA5F44992","title":"山沟沟土菜馆","lon":"121.247","lat":"31.0069","category":"87","category_name":"特色／地方风味餐厅","address":"松江区中山东路235号方塔附近"},{"poiid":"B2094757D66BA5FE4492","title":"元祖 中山中路店 Ganso","lon":"121.236446054","lat":"31.008000793","category":"67","category_name":"甜品店","address":"松江区中山中路99号肯德基附近"},{"poiid":"B2094757D06BA1FE469B","title":"松江公安分局","lon":"121.242585","lat":"31.007785","category":"500","category_name":"未知分类","address":"上海松江·中山东路290号"},{"poiid":"B2094757DB64A4FB4099","title":"呷哺呷哺（平高世贸中心店）","lon":"121.235","lat":"31.0066","category":"68","category_name":"快餐厅","address":"松江区中山中路73号B1楼BF-04号"},{"poiid":"B2094757D165AAFF4693","title":"乐都路","lon":"121.23887486","lat":"31.013645639","category":"500","category_name":"未知分类","address":"上海乐都路"},{"poiid":"B2094757D169A4F84392","title":"余天成养生馆","lon":"121.240055517","lat":"31.0042379833","category":"76","category_name":"上海菜","address":"松江区普照路8号(近松汇东路)"},{"poiid":"B2094654DB65A5F5469A","title":"松江区中山小学","lon":"121.24178","lat":"31.00623","category":"56","category_name":"小学","address":"松江区中山东路"},{"poiid":"B2094655D268A6FA469A","title":"松江二中游泳馆","lon":"121.24337","lat":"31.00927","category":"231","category_name":"游泳馆","address":"松江区中山东路250号松江二中"},{"poiid":"B2094655D26EA4FC4692","title":"雅玛海鲜城","lon":"121.24161","lat":"31.00719","category":"88","category_name":"海鲜酒楼","address":"松江区中山东路298号3楼(近白云路)"},{"poiid":"B2094655D268A7FA419F","title":"中山东路274弄小区","lon":"121.2433","lat":"31.00758","category":"47","category_name":"住宅区","address":"中山东路274弄"},{"poiid":"B2094757D664A1F8489E","title":"七欣天迷宗蟹 松江店","lon":"121.243638054","lat":"31.013775793","category":"86","category_name":"火锅店","address":"松江区环城东路980号(近沪松路)"},{"poiid":"B2094655D264A1F44392","title":"松江第二办公中心","lon":"121.23925","lat":"31.00712","category":"46","category_name":"楼宇","address":"中山中路38号"},{"poiid":"B2094757D165A0F4449C","title":"爱茜茜里","lon":"121.23869956","lat":"31.006904091","category":"247","category_name":"餐饮美食","address":"上海松江沃尔玛店"},{"poiid":"B2094654DB6EA3F54293","title":"良友金伴(樟馨家园东)","lon":"121.23915","lat":"31.01027","category":"117","category_name":"便民商店/便利店","address":"松乐路60"},{"poiid":"B2094757D56EA0F9489A","title":"松江二中食堂","lon":"121.2452245","lat":"31.00858483","category":"68","category_name":"快餐厅","address":"松江区中山东路250号(近方塔北路)"},{"poiid":"B2094654DB6EA3F54593","title":"上海市松江区机关幼儿园","lon":"121.23872","lat":"31.00952","category":"57","category_name":"幼儿园","address":"景德路40"},{"poiid":"B2094752D269AAF8429A","title":"渔寿司","lon":"121.235446","lat":"31.005822","category":"247","category_name":"餐饮美食","address":"上海市松江区中山中路150号2楼"},{"poiid":"B2094757D168A7FE499E","title":"味千拉面(平高世贸店)","lon":"121.23533046","lat":"31.006783989","category":"247","category_name":"餐饮美食","address":"松江区上海平高世贸中心B1"},{"poiid":"B2094757D66FA0F94898","title":"荣景苑","lon":"121.241","lat":"31.0103","category":"252","category_name":"楼宇机构","address":"上海松江松汇西路"},{"poiid":"B2094654DB6EA2FC4092","title":"好德(普照路)","lon":"121.23999","lat":"31.00667","category":"117","category_name":"便民商店/便利店","address":"普照路112-114"},{"poiid":"B2094751D46BA6F8459A","title":"乐颂坊商业广场","lon":"121.235503","lat":"31.005955","category":"119","category_name":"商场","address":"松江区松汇中路568号"},{"poiid":"B2094757DB64A4FA479D","title":"炫麦KTV（平高世贸中心店）","lon":"121.235","lat":"31.0066","category":"170","category_name":"KTV","address":"上海松江区中山中路71号 平高世贸中心四层"},{"poiid":"B2094757D068A1F44793","title":"松江平高世贸中心","lon":"121.23529618071325","lat":"31.00663743923123","category":"119","category_name":"商场","address":"松江中山中路71号"},{"poiid":"B2094654DB6AA6FF439D","title":"方塔公园","lon":"121.24581","lat":"31.00652","category":"196","category_name":"公园","address":"松江区中山东路235路"},{"poiid":"B2094757D06AA7FF489B","title":"上海松江假日酒店","lon":"121.235974117","lat":"31.0058816693","category":"217","category_name":"旅馆招待所","address":"松江区中山中路83号平高世贸中心(近谷阳路)"},{"poiid":"B2094757D068A6FD459C","title":"PANKOO釜山料理(松江平高店)","lon":"121.23541902","lat":"31.006209294","category":"96","category_name":"韩国料理","address":"上海市松江区中山中路71号5楼平高世贸中心5楼"},{"poiid":"B2094757D068A4FC4593","title":"松江二中","lon":"121.247600486","lat":"31.0086362483","category":"55","category_name":"中学","address":"上海市松江区中山东路250号"},{"poiid":"B2094757D06BA5FB4499","title":"小南国(松江店)","lon":"121.236183219","lat":"31.0092310628","category":"500","category_name":"未知分类","address":"上海市松江区松江长桥街平高"},{"poiid":"B2094757D069A6FA4592","title":"上海红楼戴斯宾馆","lon":"121.23897","lat":"31.00381","category":"217","category_name":"旅馆招待所","address":"松江区普照路1号(近松汇路)"},{"poiid":"B2094751DA69A7F4459D","title":"星巴克","lon":"121.235518","lat":"31.005691","category":"247","category_name":"餐饮美食","address":"上海松江松汇中路568号乐颂坊1楼"},{"poiid":"B2094654DB6EA3F54292","title":"樟馨家园","lon":"121.23857","lat":"31.011311","category":"47","category_name":"住宅区","address":"上海市松江区松乐路88弄"},{"poiid":"B2094757D069AAFA4098","title":"健康煮 中山中路店","lon":"121.2317063","lat":"31.0066983","category":"86","category_name":"火锅店","address":"松江区中山中路73号平高国际世贸中心4楼"},{"poiid":"B2094757D66CA3F94492","title":"松临日本料理松江店","lon":"121.235353467","lat":"31.005958971","category":"95","category_name":"日本料理","address":"松江区中山中路71号平高世贸中心7楼(中山中路谷阳北路)"},{"poiid":"B2094757D06AA0FE489F","title":"田季干锅","lon":"121.23554602","lat":"31.0062322936","category":"71","category_name":"四川菜","address":"松江区中山中路83号平高世贸中心B1楼"},{"poiid":"B2094757D464A0F9499C","title":"鲁山人","lon":"121.23868008277","lat":"31.007122656877","category":"95","category_name":"日本料理","address":"松江区普照路71号(中山东路中山中路)"},{"poiid":"B2094753D36EA1F44592","title":"首尔焖鲜汇(乐颂坊店)","lon":"121.239766","lat":"31.006933","category":"86","category_name":"火锅店","address":"松汇中路568号乐颂坊B座303单元(近普照路)"},{"poiid":"B2094750DA6EA2FC449F","title":"炫音KTV上海平高店","lon":"121.235061","lat":"31.008541","category":"500","category_name":"未知分类","address":"松江区中山中路71号平高世贸中心4楼A号座(近沃尔玛购物广场)"},{"poiid":"B2094757D66FA6FE439B","title":"DQ&lt;松江平高店&gt;","lon":"121.235201467","lat":"31.0084459256","category":"113","category_name":"冷饮店","address":"上海松江平高贸易中心"},{"poiid":"B2094654DB6EA2FF479D","title":"松江方塔","lon":"121.24651","lat":"31.00557","category":"240","category_name":"国家级景点","address":""},{"poiid":"B2094655D268A6F9469A","title":"烤友社","lon":"121.236150054","lat":"31.007009793","category":"96","category_name":"韩国料理","address":"松江区谷阳南路52号(近中山中路)"},{"poiid":"B2094654DB6EA2FC429F","title":"松荣 松江店","lon":"121.23871060014","lat":"31.006320293222","category":"95","category_name":"日本料理","address":"松江区普照路81号(中山东路中山中路)"},{"poiid":"B2094757D168A3FC4299","title":"松临日本料理·铁板烧","lon":"121.239858467","lat":"31.0066479861","category":"247","category_name":"餐饮美食","address":"上海松江中山中路77号平高世贸中心7F"},{"poiid":"B2094757D165A6F8449E","title":"呀咪咖喱屋","lon":"121.235324467","lat":"31.0059899717","category":"247","category_name":"餐饮美食","address":"松汇中路568号A座A131-132"},{"poiid":"B2094750DA6CA3FD4299","title":"black &magic","lon":"121.235366","lat":"31.005924","category":"247","category_name":"餐饮美食","address":"乐颂坊"},{"poiid":"B2094750D56EA4FF429F","title":"精悦蓉香锅牛蛙","lon":"121.235794","lat":"31.006372","category":"247","category_name":"餐饮美食","address":null},{"poiid":"B2094655D26FABF54098","title":"松江宾馆商务楼","lon":"121.24143","lat":"31.0072","category":"46","category_name":"楼宇","address":""},{"poiid":"B2094757D16CA7F9489D","title":"松江区政府第二行政中心","lon":"121.23971557","lat":"31.007217407","category":"500","category_name":"未知分类","address":"上海中山中路38号"},{"poiid":"B2094654DB6EA2FC4899","title":"松江剧场","lon":"121.2387","lat":"31.00584","category":"180","category_name":"剧场","address":"松江区中山中路37号"},{"poiid":"B2094655D36DA7F8449E","title":"中山东路","lon":"121.24404","lat":"31.00703","category":"38","category_name":"公交车站","address":""},{"poiid":"B2094655D264A2F54698","title":"月夏香樟林","lon":"121.23857","lat":"31.01131","category":"47","category_name":"住宅区","address":"上海市松江区松乐路88弄"},{"poiid":"B2094750D76FA5F44992","title":"山沟沟土菜馆","lon":"121.247","lat":"31.0069","category":"87","category_name":"特色／地方风味餐厅","address":"松江区中山东路235号方塔附近"},{"poiid":"B2094757D66BA5FE4492","title":"元祖 中山中路店 Ganso","lon":"121.236446054","lat":"31.008000793","category":"67","category_name":"甜品店","address":"松江区中山中路99号肯德基附近"},{"poiid":"B2094757D06BA1FE469B","title":"松江公安分局","lon":"121.242585","lat":"31.007785","category":"500","category_name":"未知分类","address":"上海松江·中山东路290号"},{"poiid":"B2094757DB64A4FB4099","title":"呷哺呷哺（平高世贸中心店）","lon":"121.235","lat":"31.0066","category":"68","category_name":"快餐厅","address":"松江区中山中路73号B1楼BF-04号"},{"poiid":"B2094757D165AAFF4693","title":"乐都路","lon":"121.23887486","lat":"31.013645639","category":"500","category_name":"未知分类","address":"上海乐都路"},{"poiid":"B2094757D169A4F84392","title":"余天成养生馆","lon":"121.240055517","lat":"31.0042379833","category":"76","category_name":"上海菜","address":"松江区普照路8号(近松汇东路)"},{"poiid":"B2094654DB65A5F5469A","title":"松江区中山小学","lon":"121.24178","lat":"31.00623","category":"56","category_name":"小学","address":"松江区中山东路"},{"poiid":"B2094655D268A6FA469A","title":"松江二中游泳馆","lon":"121.24337","lat":"31.00927","category":"231","category_name":"游泳馆","address":"松江区中山东路250号松江二中"},{"poiid":"B2094655D26EA4FC4692","title":"雅玛海鲜城","lon":"121.24161","lat":"31.00719","category":"88","category_name":"海鲜酒楼","address":"松江区中山东路298号3楼(近白云路)"},{"poiid":"B2094655D268A7FA419F","title":"中山东路274弄小区","lon":"121.2433","lat":"31.00758","category":"47","category_name":"住宅区","address":"中山东路274弄"},{"poiid":"B2094757D664A1F8489E","title":"七欣天迷宗蟹 松江店","lon":"121.243638054","lat":"31.013775793","category":"86","category_name":"火锅店","address":"松江区环城东路980号(近沪松路)"},{"poiid":"B2094655D264A1F44392","title":"松江第二办公中心","lon":"121.23925","lat":"31.00712","category":"46","category_name":"楼宇","address":"中山中路38号"},{"poiid":"B2094757D165A0F4449C","title":"爱茜茜里","lon":"121.23869956","lat":"31.006904091","category":"247","category_name":"餐饮美食","address":"上海松江沃尔玛店"},{"poiid":"B2094654DB6EA3F54293","title":"良友金伴(樟馨家园东)","lon":"121.23915","lat":"31.01027","category":"117","category_name":"便民商店/便利店","address":"松乐路60"},{"poiid":"B2094757D56EA0F9489A","title":"松江二中食堂","lon":"121.2452245","lat":"31.00858483","category":"68","category_name":"快餐厅","address":"松江区中山东路250号(近方塔北路)"},{"poiid":"B2094654DB6EA3F54593","title":"上海市松江区机关幼儿园","lon":"121.23872","lat":"31.00952","category":"57","category_name":"幼儿园","address":"景德路40"},{"poiid":"B2094752D269AAF8429A","title":"渔寿司","lon":"121.235446","lat":"31.005822","category":"247","category_name":"餐饮美食","address":"上海市松江区中山中路150号2楼"},{"poiid":"B2094757D168A7FE499E","title":"味千拉面(平高世贸店)","lon":"121.23533046","lat":"31.006783989","category":"247","category_name":"餐饮美食","address":"松江区上海平高世贸中心B1"},{"poiid":"B2094757D66FA0F94898","title":"荣景苑","lon":"121.241","lat":"31.0103","category":"252","category_name":"楼宇机构","address":"上海松江松汇西路"},{"poiid":"B2094654DB6EA2FC4092","title":"好德(普照路)","lon":"121.23999","lat":"31.00667","category":"117","category_name":"便民商店/便利店","address":"普照路112-114"},{"poiid":"B2094751D46BA6F8459A","title":"乐颂坊商业广场","lon":"121.235503","lat":"31.005955","category":"119","category_name":"商场","address":"松江区松汇中路568号"},{"poiid":"B2094757DB64A4FA479D","title":"炫麦KTV（平高世贸中心店）","lon":"121.235","lat":"31.0066","category":"170","category_name":"KTV","address":"上海松江区中山中路71号 平高世贸中心四层"},{"poiid":"B2094757D068A1F44793","title":"松江平高世贸中心","lon":"121.23529618071325","lat":"31.00663743923123","category":"119","category_name":"商场","address":"松江中山中路71号"},{"poiid":"B2094654DB6AA6FF439D","title":"方塔公园","lon":"121.24581","lat":"31.00652","category":"196","category_name":"公园","address":"松江区中山东路235路"},{"poiid":"B2094757D06AA7FF489B","title":"上海松江假日酒店","lon":"121.235974117","lat":"31.0058816693","category":"217","category_name":"旅馆招待所","address":"松江区中山中路83号平高世贸中心(近谷阳路)"},{"poiid":"B2094757D068A6FD459C","title":"PANKOO釜山料理(松江平高店)","lon":"121.23541902","lat":"31.006209294","category":"96","category_name":"韩国料理","address":"上海市松江区中山中路71号5楼平高世贸中心5楼"},{"poiid":"B2094757D068A4FC4593","title":"松江二中","lon":"121.247600486","lat":"31.0086362483","category":"55","category_name":"中学","address":"上海市松江区中山东路250号"},{"poiid":"B2094757D06BA5FB4499","title":"小南国(松江店)","lon":"121.236183219","lat":"31.0092310628","category":"500","category_name":"未知分类","address":"上海市松江区松江长桥街平高"},{"poiid":"B2094757D069A6FA4592","title":"上海红楼戴斯宾馆","lon":"121.23897","lat":"31.00381","category":"217","category_name":"旅馆招待所","address":"松江区普照路1号(近松汇路)"},{"poiid":"B2094751DA69A7F4459D","title":"星巴克","lon":"121.235518","lat":"31.005691","category":"247","category_name":"餐饮美食","address":"上海松江松汇中路568号乐颂坊1楼"},{"poiid":"B2094654DB6EA3F54292","title":"樟馨家园","lon":"121.23857","lat":"31.011311","category":"47","category_name":"住宅区","address":"上海市松江区松乐路88弄"},{"poiid":"B2094757D069AAFA4098","title":"健康煮 中山中路店","lon":"121.2317063","lat":"31.0066983","category":"86","category_name":"火锅店","address":"松江区中山中路73号平高国际世贸中心4楼"},{"poiid":"B2094757D66CA3F94492","title":"松临日本料理松江店","lon":"121.235353467","lat":"31.005958971","category":"95","category_name":"日本料理","address":"松江区中山中路71号平高世贸中心7楼(中山中路谷阳北路)"},{"poiid":"B2094757D06AA0FE489F","title":"田季干锅","lon":"121.23554602","lat":"31.0062322936","category":"71","category_name":"四川菜","address":"松江区中山中路83号平高世贸中心B1楼"},{"poiid":"B2094757D464A0F9499C","title":"鲁山人","lon":"121.23868008277","lat":"31.007122656877","category":"95","category_name":"日本料理","address":"松江区普照路71号(中山东路中山中路)"},{"poiid":"B2094753D36EA1F44592","title":"首尔焖鲜汇(乐颂坊店)","lon":"121.239766","lat":"31.006933","category":"86","category_name":"火锅店","address":"松汇中路568号乐颂坊B座303单元(近普照路)"},{"poiid":"B2094750DA6EA2FC449F","title":"炫音KTV上海平高店","lon":"121.235061","lat":"31.008541","category":"500","category_name":"未知分类","address":"松江区中山中路71号平高世贸中心4楼A号座(近沃尔玛购物广场)"},{"poiid":"B2094757D66FA6FE439B","title":"DQ&lt;松江平高店&gt;","lon":"121.235201467","lat":"31.0084459256","category":"113","category_name":"冷饮店","address":"上海松江平高贸易中心"},{"poiid":"B2094654DB6EA2FF479D","title":"松江方塔","lon":"121.24651","lat":"31.00557","category":"240","category_name":"国家级景点","address":""},{"poiid":"B2094655D268A6F9469A","title":"烤友社","lon":"121.236150054","lat":"31.007009793","category":"96","category_name":"韩国料理","address":"松江区谷阳南路52号(近中山中路)"},{"poiid":"B2094654DB6EA2FC429F","title":"松荣 松江店","lon":"121.23871060014","lat":"31.006320293222","category":"95","category_name":"日本料理","address":"松江区普照路81号(中山东路中山中路)"},{"poiid":"B2094757D168A3FC4299","title":"松临日本料理·铁板烧","lon":"121.239858467","lat":"31.0066479861","category":"247","category_name":"餐饮美食","address":"上海松江中山中路77号平高世贸中心7F"},{"poiid":"B2094757D165A6F8449E","title":"呀咪咖喱屋","lon":"121.235324467","lat":"31.0059899717","category":"247","category_name":"餐饮美食","address":"松汇中路568号A座A131-132"},{"poiid":"B2094750DA6CA3FD4299","title":"black &magic","lon":"121.235366","lat":"31.005924","category":"247","category_name":"餐饮美食","address":"乐颂坊"},{"poiid":"B2094750D56EA4FF429F","title":"精悦蓉香锅牛蛙","lon":"121.235794","lat":"31.006372","category":"247","category_name":"餐饮美食","address":null},{"poiid":"B2094655D26FABF54098","title":"松江宾馆商务楼","lon":"121.24143","lat":"31.0072","category":"46","category_name":"楼宇","address":""},{"poiid":"B2094757D16CA7F9489D","title":"松江区政府第二行政中心","lon":"121.23971557","lat":"31.007217407","category":"500","category_name":"未知分类","address":"上海中山中路38号"},{"poiid":"B2094654DB6EA2FC4899","title":"松江剧场","lon":"121.2387","lat":"31.00584","category":"180","category_name":"剧场","address":"松江区中山中路37号"},{"poiid":"B2094655D36DA7F8449E","title":"中山东路","lon":"121.24404","lat":"31.00703","category":"38","category_name":"公交车站","address":""},{"poiid":"B2094655D264A2F54698","title":"月夏香樟林","lon":"121.23857","lat":"31.01131","category":"47","category_name":"住宅区","address":"上海市松江区松乐路88弄"},{"poiid":"B2094750D76FA5F44992","title":"山沟沟土菜馆","lon":"121.247","lat":"31.0069","category":"87","category_name":"特色／地方风味餐厅","address":"松江区中山东路235号方塔附近"},{"poiid":"B2094757D66BA5FE4492","title":"元祖 中山中路店 Ganso","lon":"121.236446054","lat":"31.008000793","category":"67","category_name":"甜品店","address":"松江区中山中路99号肯德基附近"},{"poiid":"B2094757D06BA1FE469B","title":"松江公安分局","lon":"121.242585","lat":"31.007785","category":"500","category_name":"未知分类","address":"上海松江·中山东路290号"},{"poiid":"B2094757DB64A4FB4099","title":"呷哺呷哺（平高世贸中心店）","lon":"121.235","lat":"31.0066","category":"68","category_name":"快餐厅","address":"松江区中山中路73号B1楼BF-04号"},{"poiid":"B2094757D165AAFF4693","title":"乐都路","lon":"121.23887486","lat":"31.013645639","category":"500","category_name":"未知分类","address":"上海乐都路"},{"poiid":"B2094757D169A4F84392","title":"余天成养生馆","lon":"121.240055517","lat":"31.0042379833","category":"76","category_name":"上海菜","address":"松江区普照路8号(近松汇东路)"},{"poiid":"B2094654DB65A5F5469A","title":"松江区中山小学","lon":"121.24178","lat":"31.00623","category":"56","category_name":"小学","address":"松江区中山东路"},{"poiid":"B2094655D268A6FA469A","title":"松江二中游泳馆","lon":"121.24337","lat":"31.00927","category":"231","category_name":"游泳馆","address":"松江区中山东路250号松江二中"},{"poiid":"B2094655D26EA4FC4692","title":"雅玛海鲜城","lon":"121.24161","lat":"31.00719","category":"88","category_name":"海鲜酒楼","address":"松江区中山东路298号3楼(近白云路)"},{"poiid":"B2094655D268A7FA419F","title":"中山东路274弄小区","lon":"121.2433","lat":"31.00758","category":"47","category_name":"住宅区","address":"中山东路274弄"},{"poiid":"B2094757D664A1F8489E","title":"七欣天迷宗蟹 松江店","lon":"121.243638054","lat":"31.013775793","category":"86","category_name":"火锅店","address":"松江区环城东路980号(近沪松路)"},{"poiid":"B2094655D264A1F44392","title":"松江第二办公中心","lon":"121.23925","lat":"31.00712","category":"46","category_name":"楼宇","address":"中山中路38号"},{"poiid":"B2094757D165A0F4449C","title":"爱茜茜里","lon":"121.23869956","lat":"31.006904091","category":"247","category_name":"餐饮美食","address":"上海松江沃尔玛店"},{"poiid":"B2094654DB6EA3F54293","title":"良友金伴(樟馨家园东)","lon":"121.23915","lat":"31.01027","category":"117","category_name":"便民商店/便利店","address":"松乐路60"},{"poiid":"B2094757D56EA0F9489A","title":"松江二中食堂","lon":"121.2452245","lat":"31.00858483","category":"68","category_name":"快餐厅","address":"松江区中山东路250号(近方塔北路)"},{"poiid":"B2094654DB6EA3F54593","title":"上海市松江区机关幼儿园","lon":"121.23872","lat":"31.00952","category":"57","category_name":"幼儿园","address":"景德路40"},{"poiid":"B2094752D269AAF8429A","title":"渔寿司","lon":"121.235446","lat":"31.005822","category":"247","category_name":"餐饮美食","address":"上海市松江区中山中路150号2楼"},{"poiid":"B2094757D168A7FE499E","title":"味千拉面(平高世贸店)","lon":"121.23533046","lat":"31.006783989","category":"247","category_name":"餐饮美食","address":"松江区上海平高世贸中心B1"},{"poiid":"B2094757D66FA0F94898","title":"荣景苑","lon":"121.241","lat":"31.0103","category":"252","category_name":"楼宇机构","address":"上海松江松汇西路"},{"poiid":"B2094654DB6EA2FC4092","title":"好德(普照路)","lon":"121.23999","lat":"31.00667","category":"117","category_name":"便民商店/便利店","address":"普照路112-114"},{"poiid":"B2094751D46BA6F8459A","title":"乐颂坊商业广场","lon":"121.235503","lat":"31.005955","category":"119","category_name":"商场","address":"松江区松汇中路568号"},{"poiid":"B2094757DB64A4FA479D","title":"炫麦KTV（平高世贸中心店）","lon":"121.235","lat":"31.0066","category":"170","category_name":"KTV","address":"上海松江区中山中路71号 平高世贸中心四层"}]