[{"poiid":"B2094757D06FA2F9489E","title":"嘉定新城地铁站","lon":"121.25468554","lat":"31.329586409","category":"36","category_name":"地铁站","address":"上海轨道交通 十一号线 轨交嘉定新城站 11"},{"poiid":"B2094757D06FA0F5479E","title":"白银路地铁站","lon":"121.24574053","lat":"31.344687124","category":"36","category_name":"地铁站","address":"上海轨道交通 十一号线 轨交白银路站 11"},{"poiid":"B2094751D269AAF8409A","title":"瑞金医院嘉定北院","lon":"121.259979","lat":"31.335048","category":"252","category_name":"楼宇机构","address":"瑞金北院位于嘉定区嘉定新城中心区（马陆镇）希望路999号。东至永盛路、南至双丁路、西至合作路、北至希望路。"},{"poiid":"B2094655D36DA6FD469B","title":"嘉定新城","lon":"121.25464","lat":"31.32956","category":"47","category_name":"住宅区","address":""},{"poiid":"B2094750D26EABFF439C","title":"嘉定妇幼保健医院","lon":"121.250595","lat":"31.356437","category":"162","category_name":"医院","address":"高台路1216号"},{"poiid":"B2094753D768A7FB499A","title":"嘉定新城图书馆","lon":"121.264015","lat":"31.350297","category":"500","category_name":"未知分类","address":"上海市 嘉定区裕民南路1288号"},{"poiid":"B2094757DB69A1FB439F","title":"雍记大酒店 嘉定店","lon":"121.2657311","lat":"31.3363438","category":"72","category_name":"广东菜","address":"嘉定区德富路1288号嘉定国资金融大厦2-3楼(近塔秀路)"},{"poiid":"B2094757D06BA0FF489E","title":"保利家园","lon":"121.25768","lat":"31.355701","category":"47","category_name":"住宅区","address":"上海嘉定区嘉定新城洪德路333弄"},{"poiid":"B2094757D16FA2FB429C","title":"新城金郡","lon":"121.239354289","lat":"31.3435560224","category":"47","category_name":"住宅区","address":"上海白银路地铁站"},{"poiid":"B2094750DA6AA3FF409B","title":"嘉定出入境管理局","lon":"121.259078","lat":"31.342535","category":"617","category_name":"政府机构","address":"嘉定区永盛路1190号"},{"poiid":"B2094655D36DA0F4439F","title":"永盛路白银路","lon":"121.25342","lat":"31.34923","category":"38","category_name":"公交车站","address":""},{"poiid":"B2094750D66FAAF4469F","title":"上海市嘉定区妇幼保健院","lon":"121.247322","lat":"31.349636","category":"162","category_name":"医院","address":"嘉定区高台路1216号"},{"poiid":"B2094757D66DA6FD4792","title":"盘古天地","lon":"121.246903389","lat":"31.3424915005","category":"500","category_name":"未知分类","address":"上海云屏路1188号"},{"poiid":"B2094655D36DA6FC4899","title":"白银路","lon":"121.24572","lat":"31.34468","category":"38","category_name":"公交车站","address":""},{"poiid":"B2094757D56EA3FE499C","title":"上海市公安局嘉定分局","lon":"121.25506281852722","lat":"31.34773634673841","category":"263","category_name":"公司","address":"上海,上海市,永盛路1300号"},{"poiid":"B2094757D168A3F94998","title":"龙湖 郦城国际社区","lon":"121.252030069","lat":"31.3283132785","category":"47","category_name":"住宅区","address":"嘉定新城双单路1509号"},{"poiid":"B2094655D36CA4FD4098","title":"白银路阿克苏路","lon":"121.25992","lat":"31.35259","category":"38","category_name":"公交车站","address":""},{"poiid":"B2094654D469A1FE4798","title":"嘉定区国家税务局第八税务所","lon":"121.24925","lat":"31.36447","category":"250","category_name":"公园户外","address":"叶城路912"},{"poiid":"B2094757DA65A3FB479F","title":"养乐多","lon":"121.25220112173997","lat":"31.343357388444456","category":"263","category_name":"公司","address":"嘉定区伊宁路986号"},{"poiid":"B2094750DB6EA7F9489A","title":"上海市嘉定区人民法院","lon":"121.256591","lat":"31.351579","category":"608","category_name":"法院","address":"德富路1221号"},{"poiid":"B2094757D568A4FF449A","title":"新城西尚海","lon":"121.2515539","lat":"31.34901889","category":"47","category_name":"住宅区","address":"嘉定新城轨道交通11号线白银路站"},{"poiid":"B2094752D26BA2FA4793","title":"嘉定新城雍记大酒店","lon":"121.258453","lat":"31.349838","category":"247","category_name":"餐饮美食","address":"嘉定新城德富路1288号"},{"poiid":"B2094655D265A1F5489C","title":"永盛公寓","lon":"121.26462","lat":"31.33279","category":"47","category_name":"住宅区","address":"马陆镇"},{"poiid":"B2094757D165AAFA419D","title":"嘉定新城规划馆","lon":"121.25833692","lat":"31.339457193","category":"500","category_name":"未知分类","address":"上海市嘉定区伊宁路"},{"poiid":"B2094757D16FA3FC479B","title":"中国馆一楼等候大厅","lon":"121.24703528","lat":"31.342757006","category":"500","category_name":"未知分类","address":"上海浦东中国馆"},{"poiid":"B2094750D564A1FC4798","title":"龙湖蔚澜香醍","lon":"121.253644","lat":"31.351796","category":"47","category_name":"住宅区","address":"上海市嘉定区云谷路1388弄(近塔秀路)"},{"poiid":"B2094655D36DA0F44393","title":"永盛路回城南路","lon":"121.24788","lat":"31.35812","category":"38","category_name":"公交车站","address":""},{"poiid":"B2094757D16CA6F5459E","title":"保利湖畔阳光","lon":"121.265576925","lat":"31.3404722141","category":"500","category_name":"未知分类","address":"上海市嘉定区裕民南路333号"},{"poiid":"B2094757D16AAAFC489F","title":"嘉定6路","lon":"121.245931289","lat":"31.346494083","category":"500","category_name":"未知分类","address":"上海嘉定6路"},{"poiid":"B2094751D56BA6FC459C","title":"嘉定国资金融大厦","lon":"121.252938","lat":"31.351649","category":"263","category_name":"公司","address":"德富路1288号"},{"poiid":"B2094757D568A6FA439D","title":"大卫国际大厦","lon":"121.26272","lat":"31.347561","category":"46","category_name":"楼宇","address":"嘉定区阿克苏路1187号"},{"poiid":"B2094753D269A5F44199","title":"嘉定国资大厦","lon":"121.257034","lat":"31.349564","category":"252","category_name":"楼宇机构","address":"上海市 嘉定区德富路1288号"},{"poiid":"B2094752DB6BABF8409A","title":"远香湖","lon":"121.255026","lat":"31.352098","category":"500","category_name":"未知分类","address":"上海市 上海市嘉定区天祝路裕民南路"},{"poiid":"B2094757D66EA0FB4493","title":"中信泰富又一城","lon":"121.264","lat":"31.3363","category":"47","category_name":"住宅区","address":"轨交11号线嘉定新城站(嘉定云屏路388弄)"},{"poiid":"B2094655D264A3F44898","title":"安泾桥","lon":"121.25001","lat":"31.3365","category":"250","category_name":"公园户外","address":""},{"poiid":"B2094750D26CA6FF479D","title":"嘉定妇幼保健院","lon":"121.2448935449492","lat":"31.35352901311892","category":"162","category_name":"医院","address":"高台路"},{"poiid":"B2094655D264A2FC419E","title":"永年桥","lon":"121.2592","lat":"31.33974","category":"250","category_name":"公园户外","address":""},{"poiid":"B2094753D769A0F94693","title":"嘉定图书馆","lon":"121.25698","lat":"31.35359","category":"500","category_name":"未知分类","address":"上海市 嘉定裕民南路1288号"},{"poiid":"B2094757D065AAFC449E","title":"轨道交通11号线(嘉定新城)","lon":"121.266037225","lat":"31.3364427305","category":"500","category_name":"未知分类","address":"上海嘉定区胜辛路(近双丁路、双单路)"},{"poiid":"B2094757D16CA4FE489F","title":"伊诺咖啡(回城店)","lon":"121.25564","lat":"31.36112","category":"65","category_name":"咖啡厅","address":"嘉定区回城南路1128号"},{"poiid":"B2094654DB6AA6FA4893","title":"钇微(上海)科技有限公司(城固路)","lon":"121.24871","lat":"31.35311","category":"263","category_name":"公司","address":"洪德路918号"},{"poiid":"B2094655D268ABFF479F","title":"Ａ３０永盛路收费站","lon":"121.24566","lat":"31.35415","category":"267","category_name":"收费站","address":""},{"poiid":"B2094457D36BABF4499B","title":"上海保利大剧院","lon":"121.263635","lat":"31.354132","category":"180","category_name":"剧场","address":"上海市嘉定区白银路159号"},{"poiid":"B2094757D165A2F5429C","title":"嘉定新城示范性高级中学","lon":"121.245029053","lat":"31.3533350908","category":"500","category_name":"未知分类","address":"上海嘉定区嘉定新城东至合作路，南至洪德路，西至胜辛路，北至城固路"},{"poiid":"B2094655D26BA0FD4898","title":"保利家园三期","lon":"121.26218","lat":"31.35373","category":"47","category_name":"住宅区","address":"白银路110号"},{"poiid":"B2094750D26EA0FC449E","title":"瑞金医院北院","lon":"121.262123","lat":"31.333534","category":"252","category_name":"楼宇机构","address":"双丁路888号"},{"poiid":"B2094654D469A2FF469A","title":"上海采埃孚转向机有限公司","lon":"121.24752","lat":"31.3586","category":"263","category_name":"公司","address":"永盛路2001号"},{"poiid":"B2094757D064A2FA4792","title":"京东商城华东地区总部","lon":"121.249246","lat":"31.364476","category":"119","category_name":"商场","address":"嘉定区叶城路912号"},{"poiid":"B2094757D16CA4FE439C","title":"嘉定新城发展有限公司","lon":"121.260536718","lat":"31.3374059071","category":"263","category_name":"公司","address":"上海嘉定区伊宁路"},{"poiid":"B2094751D36BABF8429D","title":"上海养乐多工厂","lon":"121.2590208","lat":"31.3346505","category":"500","category_name":"未知分类","address":"嘉定区"},{"poiid":"B2094757D06FA2F9489E","title":"嘉定新城地铁站","lon":"121.25468554","lat":"31.329586409","category":"36","category_name":"地铁站","address":"上海轨道交通 十一号线 轨交嘉定新城站 11"},{"poiid":"B2094757D06FA0F5479E","title":"白银路地铁站","lon":"121.24574053","lat":"31.344687124","category":"36","category_name":"地铁站","address":"上海轨道交通 十一号线 轨交白银路站 11"},{"poiid":"B2094751D269AAF8409A","title":"瑞金医院嘉定北院","lon":"121.259979","lat":"31.335048","category":"252","category_name":"楼宇机构","address":"瑞金北院位于嘉定区嘉定新城中心区（马陆镇）希望路999号。东至永盛路、南至双丁路、西至合作路、北至希望路。"},{"poiid":"B2094655D36DA6FD469B","title":"嘉定新城","lon":"121.25464","lat":"31.32956","category":"47","category_name":"住宅区","address":""},{"poiid":"B2094750D26EABFF439C","title":"嘉定妇幼保健医院","lon":"121.250595","lat":"31.356437","category":"162","category_name":"医院","address":"高台路1216号"},{"poiid":"B2094753D768A7FB499A","title":"嘉定新城图书馆","lon":"121.264015","lat":"31.350297","category":"500","category_name":"未知分类","address":"上海市 嘉定区裕民南路1288号"},{"poiid":"B2094757DB69A1FB439F","title":"雍记大酒店 嘉定店","lon":"121.2657311","lat":"31.3363438","category":"72","category_name":"广东菜","address":"嘉定区德富路1288号嘉定国资金融大厦2-3楼(近塔秀路)"},{"poiid":"B2094757D06BA0FF489E","title":"保利家园","lon":"121.25768","lat":"31.355701","category":"47","category_name":"住宅区","address":"上海嘉定区嘉定新城洪德路333弄"},{"poiid":"B2094757D16FA2FB429C","title":"新城金郡","lon":"121.239354289","lat":"31.3435560224","category":"47","category_name":"住宅区","address":"上海白银路地铁站"},{"poiid":"B2094750DA6AA3FF409B","title":"嘉定出入境管理局","lon":"121.259078","lat":"31.342535","category":"617","category_name":"政府机构","address":"嘉定区永盛路1190号"},{"poiid":"B2094655D36DA0F4439F","title":"永盛路白银路","lon":"121.25342","lat":"31.34923","category":"38","category_name":"公交车站","address":""},{"poiid":"B2094750D66FAAF4469F","title":"上海市嘉定区妇幼保健院","lon":"121.247322","lat":"31.349636","category":"162","category_name":"医院","address":"嘉定区高台路1216号"},{"poiid":"B2094757D66DA6FD4792","title":"盘古天地","lon":"121.246903389","lat":"31.3424915005","category":"500","category_name":"未知分类","address":"上海云屏路1188号"},{"poiid":"B2094655D36DA6FC4899","title":"白银路","lon":"121.24572","lat":"31.34468","category":"38","category_name":"公交车站","address":""},{"poiid":"B2094757D56EA3FE499C","title":"上海市公安局嘉定分局","lon":"121.25506281852722","lat":"31.34773634673841","category":"263","category_name":"公司","address":"上海,上海市,永盛路1300号"},{"poiid":"B2094757D168A3F94998","title":"龙湖 郦城国际社区","lon":"121.252030069","lat":"31.3283132785","category":"47","category_name":"住宅区","address":"嘉定新城双单路1509号"},{"poiid":"B2094655D36CA4FD4098","title":"白银路阿克苏路","lon":"121.25992","lat":"31.35259","category":"38","category_name":"公交车站","address":""},{"poiid":"B2094654D469A1FE4798","title":"嘉定区国家税务局第八税务所","lon":"121.24925","lat":"31.36447","category":"250","category_name":"公园户外","address":"叶城路912"},{"poiid":"B2094757DA65A3FB479F","title":"养乐多","lon":"121.25220112173997","lat":"31.343357388444456","category":"263","category_name":"公司","address":"嘉定区伊宁路986号"},{"poiid":"B2094750DB6EA7F9489A","title":"上海市嘉定区人民法院","lon":"121.256591","lat":"31.351579","category":"608","category_name":"法院","address":"德富路1221号"},{"poiid":"B2094757D568A4FF449A","title":"新城西尚海","lon":"121.2515539","lat":"31.34901889","category":"47","category_name":"住宅区","address":"嘉定新城轨道交通11号线白银路站"},{"poiid":"B2094752D26BA2FA4793","title":"嘉定新城雍记大酒店","lon":"121.258453","lat":"31.349838","category":"247","category_name":"餐饮美食","address":"嘉定新城德富路1288号"},{"poiid":"B2094655D265A1F5489C","title":"永盛公寓","lon":"121.26462","lat":"31.33279","category":"47","category_name":"住宅区","address":"马陆镇"},{"poiid":"B2094757D165AAFA419D","title":"嘉定新城规划馆","lon":"121.25833692","lat":"31.339457193","category":"500","category_name":"未知分类","address":"上海市嘉定区伊宁路"},{"poiid":"B2094757D16FA3FC479B","title":"中国馆一楼等候大厅","lon":"121.24703528","lat":"31.342757006","category":"500","category_name":"未知分类","address":"上海浦东中国馆"},{"poiid":"B2094750D564A1FC4798","title":"龙湖蔚澜香醍","lon":"121.253644","lat":"31.351796","category":"47","category_name":"住宅区","address":"上海市嘉定区云谷路1388弄(近塔秀路)"},{"poiid":"B2094655D36DA0F44393","title":"永盛路回城南路","lon":"121.24788","lat":"31.35812","category":"38","category_name":"公交车站","address":""},{"poiid":"B2094757D16CA6F5459E","title":"保利湖畔阳光","lon":"121.265576925","lat":"31.3404722141","category":"500","category_name":"未知分类","address":"上海市嘉定区裕民南路333号"},{"poiid":"B2094757D16AAAFC489F","title":"嘉定6路","lon":"121.245931289","lat":"31.346494083","category":"500","category_name":"未知分类","address":"上海嘉定6路"},{"poiid":"B2094751D56BA6FC459C","title":"嘉定国资金融大厦","lon":"121.252938","lat":"31.351649","category":"263","category_name":"公司","address":"德富路1288号"},{"poiid":"B2094757D568A6FA439D","title":"大卫国际大厦","lon":"121.26272","lat":"31.347561","category":"46","category_name":"楼宇","address":"嘉定区阿克苏路1187号"},{"poiid":"B2094753D269A5F44199","title":"嘉定国资大厦","lon":"121.257034","lat":"31.349564","category":"252","category_name":"楼宇机构","address":"上海市 嘉定区德富路1288号"},{"poiid":"B2094752DB6BABF8409A","title":"远香湖","lon":"121.255026","lat":"31.352098","category":"500","category_name":"未知分类","address":"上海市 上海市嘉定区天祝路裕民南路"},{"poiid":"B2094757D66EA0FB4493","title":"中信泰富又一城","lon":"121.264","lat":"31.3363","category":"47","category_name":"住宅区","address":"轨交11号线嘉定新城站(嘉定云屏路388弄)"},{"poiid":"B2094655D264A3F44898","title":"安泾桥","lon":"121.25001","lat":"31.3365","category":"250","category_name":"公园户外","address":""},{"poiid":"B2094750D26CA6FF479D","title":"嘉定妇幼保健院","lon":"121.2448935449492","lat":"31.35352901311892","category":"162","category_name":"医院","address":"高台路"},{"poiid":"B2094655D264A2FC419E","title":"永年桥","lon":"121.2592","lat":"31.33974","category":"250","category_name":"公园户外","address":""},{"poiid":"B2094753D769A0F94693","title":"嘉定图书馆","lon":"121.25698","lat":"31.35359","category":"500","category_name":"未知分类","address":"上海市 嘉定裕民南路1288号"},{"poiid":"B2094757D065AAFC449E","title":"轨道交通11号线(嘉定新城)","lon":"121.266037225","lat":"31.3364427305","category":"500","category_name":"未知分类","address":"上海嘉定区胜辛路(近双丁路、双单路)"},{"poiid":"B2094757D16CA4FE489F","title":"伊诺咖啡(回城店)","lon":"121.25564","lat":"31.36112","category":"65","category_name":"咖啡厅","address":"嘉定区回城南路1128号"},{"poiid":"B2094654DB6AA6FA4893","title":"钇微(上海)科技有限公司(城固路)","lon":"121.24871","lat":"31.35311","category":"263","category_name":"公司","address":"洪德路918号"},{"poiid":"B2094655D268ABFF479F","title":"Ａ３０永盛路收费站","lon":"121.24566","lat":"31.35415","category":"267","category_name":"收费站","address":""},{"poiid":"B2094457D36BABF4499B","title":"上海保利大剧院","lon":"121.263635","lat":"31.354132","category":"180","category_name":"剧场","address":"上海市嘉定区白银路159号"},{"poiid":"B2094757D165A2F5429C","title":"嘉定新城示范性高级中学","lon":"121.245029053","lat":"31.3533350908","category":"500","category_name":"未知分类","address":"上海嘉定区嘉定新城东至合作路，南至洪德路，西至胜辛路，北至城固路"},{"poiid":"B2094655D26BA0FD4898","title":"保利家园三期","lon":"121.26218","lat":"31.35373","category":"47","category_name":"住宅区","address":"白银路110号"},{"poiid":"B2094750D26EA0FC449E","title":"瑞金医院北院","lon":"121.262123","lat":"31.333534","category":"252","category_name":"楼宇机构","address":"双丁路888号"},{"poiid":"B2094654D469A2FF469A","title":"上海采埃孚转向机有限公司","lon":"121.24752","lat":"31.3586","category":"263","category_name":"公司","address":"永盛路2001号"},{"poiid":"B2094757D064A2FA4792","title":"京东商城华东地区总部","lon":"121.249246","lat":"31.364476","category":"119","category_name":"商场","address":"嘉定区叶城路912号"},{"poiid":"B2094757D16CA4FE439C","title":"嘉定新城发展有限公司","lon":"121.260536718","lat":"31.3374059071","category":"263","category_name":"公司","address":"上海嘉定区伊宁路"},{"poiid":"B2094751D36BABF8429D","title":"上海养乐多工厂","lon":"121.2590208","lat":"31.3346505","category":"500","category_name":"未知分类","address":"嘉定区"},{"poiid":"B2094757D06FA2F9489E","title":"嘉定新城地铁站","lon":"121.25468554","lat":"31.329586409","category":"36","category_name":"地铁站","address":"上海轨道交通 十一号线 轨交嘉定新城站 11"},{"poiid":"B2094757D06FA0F5479E","title":"白银路地铁站","lon":"121.24574053","lat":"31.344687124","category":"36","category_name":"地铁站","address":"上海轨道交通 十一号线 轨交白银路站 11"},{"poiid":"B2094751D269AAF8409A","title":"瑞金医院嘉定北院","lon":"121.259979","lat":"31.335048","category":"252","category_name":"楼宇机构","address":"瑞金北院位于嘉定区嘉定新城中心区（马陆镇）希望路999号。东至永盛路、南至双丁路、西至合作路、北至希望路。"},{"poiid":"B2094655D36DA6FD469B","title":"嘉定新城","lon":"121.25464","lat":"31.32956","category":"47","category_name":"住宅区","address":""},{"poiid":"B2094750D26EABFF439C","title":"嘉定妇幼保健医院","lon":"121.250595","lat":"31.356437","category":"162","category_name":"医院","address":"高台路1216号"},{"poiid":"B2094753D768A7FB499A","title":"嘉定新城图书馆","lon":"121.264015","lat":"31.350297","category":"500","category_name":"未知分类","address":"上海市 嘉定区裕民南路1288号"},{"poiid":"B2094757DB69A1FB439F","title":"雍记大酒店 嘉定店","lon":"121.2657311","lat":"31.3363438","category":"72","category_name":"广东菜","address":"嘉定区德富路1288号嘉定国资金融大厦2-3楼(近塔秀路)"},{"poiid":"B2094757D06BA0FF489E","title":"保利家园","lon":"121.25768","lat":"31.355701","category":"47","category_name":"住宅区","address":"上海嘉定区嘉定新城洪德路333弄"},{"poiid":"B2094757D16FA2FB429C","title":"新城金郡","lon":"121.239354289","lat":"31.3435560224","category":"47","category_name":"住宅区","address":"上海白银路地铁站"},{"poiid":"B2094750DA6AA3FF409B","title":"嘉定出入境管理局","lon":"121.259078","lat":"31.342535","category":"617","category_name":"政府机构","address":"嘉定区永盛路1190号"},{"poiid":"B2094655D36DA0F4439F","title":"永盛路白银路","lon":"121.25342","lat":"31.34923","category":"38","category_name":"公交车站","address":""},{"poiid":"B2094750D66FAAF4469F","title":"上海市嘉定区妇幼保健院","lon":"121.247322","lat":"31.349636","category":"162","category_name":"医院","address":"嘉定区高台路1216号"},{"poiid":"B2094757D66DA6FD4792","title":"盘古天地","lon":"121.246903389","lat":"31.3424915005","category":"500","category_name":"未知分类","address":"上海云屏路1188号"},{"poiid":"B2094655D36DA6FC4899","title":"白银路","lon":"121.24572","lat":"31.34468","category":"38","category_name":"公交车站","address":""},{"poiid":"B2094757D56EA3FE499C","title":"上海市公安局嘉定分局","lon":"121.25506281852722","lat":"31.34773634673841","category":"263","category_name":"公司","address":"上海,上海市,永盛路1300号"},{"poiid":"B2094757D168A3F94998","title":"龙湖 郦城国际社区","lon":"121.252030069","lat":"31.3283132785","category":"47","category_name":"住宅区","address":"嘉定新城双单路1509号"},{"poiid":"B2094655D36CA4FD4098","title":"白银路阿克苏路","lon":"121.25992","lat":"31.35259","category":"38","category_name":"公交车站","address":""},{"poiid":"B2094654D469A1FE4798","title":"嘉定区国家税务局第八税务所","lon":"121.24925","lat":"31.36447","category":"250","category_name":"公园户外","address":"叶城路912"},{"poiid":"B2094757DA65A3FB479F","title":"养乐多","lon":"121.25220112173997","lat":"31.343357388444456","category":"263","category_name":"公司","address":"嘉定区伊宁路986号"},{"poiid":"B2094750DB6EA7F9489A","title":"上海市嘉定区人民法院","lon":"121.256591","lat":"31.351579","category":"608","category_name":"法院","address":"德富路1221号"},{"poiid":"B2094757D568A4FF449A","title":"新城西尚海","lon":"121.2515539","lat":"31.34901889","category":"47","category_name":"住宅区","address":"嘉定新城轨道交通11号线白银路站"},{"poiid":"B2094752D26BA2FA4793","title":"嘉定新城雍记大酒店","lon":"121.258453","lat":"31.349838","category":"247","category_name":"餐饮美食","address":"嘉定新城德富路1288号"},{"poiid":"B2094655D265A1F5489C","title":"永盛公寓","lon":"121.26462","lat":"31.33279","category":"47","category_name":"住宅区","address":"马陆镇"},{"poiid":"B2094757D165AAFA419D","title":"嘉定新城规划馆","lon":"121.25833692","lat":"31.339457193","category":"500","category_name":"未知分类","address":"上海市嘉定区伊宁路"},{"poiid":"B2094757D16FA3FC479B","title":"中国馆一楼等候大厅","lon":"121.24703528","lat":"31.342757006","category":"500","category_name":"未知分类","address":"上海浦东中国馆"},{"poiid":"B2094750D564A1FC4798","title":"龙湖蔚澜香醍","lon":"121.253644","lat":"31.351796","category":"47","category_name":"住宅区","address":"上海市嘉定区云谷路1388弄(近塔秀路)"},{"poiid":"B2094655D36DA0F44393","title":"永盛路回城南路","lon":"121.24788","lat":"31.35812","category":"38","category_name":"公交车站","address":""},{"poiid":"B2094757D16CA6F5459E","title":"保利湖畔阳光","lon":"121.265576925","lat":"31.3404722141","category":"500","category_name":"未知分类","address":"上海市嘉定区裕民南路333号"},{"poiid":"B2094757D16AAAFC489F","title":"嘉定6路","lon":"121.245931289","lat":"31.346494083","category":"500","category_name":"未知分类","address":"上海嘉定6路"},{"poiid":"B2094751D56BA6FC459C","title":"嘉定国资金融大厦","lon":"121.252938","lat":"31.351649","category":"263","category_name":"公司","address":"德富路1288号"},{"poiid":"B2094757D568A6FA439D","title":"大卫国际大厦","lon":"121.26272","lat":"31.347561","category":"46","category_name":"楼宇","address":"嘉定区阿克苏路1187号"},{"poiid":"B2094753D269A5F44199","title":"嘉定国资大厦","lon":"121.257034","lat":"31.349564","category":"252","category_name":"楼宇机构","address":"上海市 嘉定区德富路1288号"},{"poiid":"B2094752DB6BABF8409A","title":"远香湖","lon":"121.255026","lat":"31.352098","category":"500","category_name":"未知分类","address":"上海市 上海市嘉定区天祝路裕民南路"},{"poiid":"B2094757D66EA0FB4493","title":"中信泰富又一城","lon":"121.264","lat":"31.3363","category":"47","category_name":"住宅区","address":"轨交11号线嘉定新城站(嘉定云屏路388弄)"},{"poiid":"B2094655D264A3F44898","title":"安泾桥","lon":"121.25001","lat":"31.3365","category":"250","category_name":"公园户外","address":""},{"poiid":"B2094750D26CA6FF479D","title":"嘉定妇幼保健院","lon":"121.2448935449492","lat":"31.35352901311892","category":"162","category_name":"医院","address":"高台路"},{"poiid":"B2094655D264A2FC419E","title":"永年桥","lon":"121.2592","lat":"31.33974","category":"250","category_name":"公园户外","address":""},{"poiid":"B2094753D769A0F94693","title":"嘉定图书馆","lon":"121.25698","lat":"31.35359","category":"500","category_name":"未知分类","address":"上海市 嘉定裕民南路1288号"},{"poiid":"B2094757D065AAFC449E","title":"轨道交通11号线(嘉定新城)","lon":"121.266037225","lat":"31.3364427305","category":"500","category_name":"未知分类","address":"上海嘉定区胜辛路(近双丁路、双单路)"},{"poiid":"B2094757D16CA4FE489F","title":"伊诺咖啡(回城店)","lon":"121.25564","lat":"31.36112","category":"65","category_name":"咖啡厅","address":"嘉定区回城南路1128号"},{"poiid":"B2094654DB6AA6FA4893","title":"钇微(上海)科技有限公司(城固路)","lon":"121.24871","lat":"31.35311","category":"263","category_name":"公司","address":"洪德路918号"},{"poiid":"B2094655D268ABFF479F","title":"Ａ３０永盛路收费站","lon":"121.24566","lat":"31.35415","category":"267","category_name":"收费站","address":""},{"poiid":"B2094457D36BABF4499B","title":"上海保利大剧院","lon":"121.263635","lat":"31.354132","category":"180","category_name":"剧场","address":"上海市嘉定区白银路159号"},{"poiid":"B2094757D165A2F5429C","title":"嘉定新城示范性高级中学","lon":"121.245029053","lat":"31.3533350908","category":"500","category_name":"未知分类","address":"上海嘉定区嘉定新城东至合作路，南至洪德路，西至胜辛路，北至城固路"},{"poiid":"B2094655D26BA0FD4898","title":"保利家园三期","lon":"121.26218","lat":"31.35373","category":"47","category_name":"住宅区","address":"白银路110号"},{"poiid":"B2094750D26EA0FC449E","title":"瑞金医院北院","lon":"121.262123","lat":"31.333534","category":"252","category_name":"楼宇机构","address":"双丁路888号"},{"poiid":"B2094654D469A2FF469A","title":"上海采埃孚转向机有限公司","lon":"121.24752","lat":"31.3586","category":"263","category_name":"公司","address":"永盛路2001号"},{"poiid":"B2094757D064A2FA4792","title":"京东商城华东地区总部","lon":"121.249246","lat":"31.364476","category":"119","category_name":"商场","address":"嘉定区叶城路912号"},{"poiid":"B2094757D16CA4FE439C","title":"嘉定新城发展有限公司","lon":"121.260536718","lat":"31.3374059071","category":"263","category_name":"公司","address":"上海嘉定区伊宁路"},{"poiid":"B2094751D36BABF8429D","title":"上海养乐多工厂","lon":"121.2590208","lat":"31.3346505","category":"500","category_name":"未知分类","address":"嘉定区"}]