[{"poiid":"B2094654DA6AA3FE479D","title":"上海浦东游泳馆","lon":"121.50572","lat":"31.18856","category":"231","category_name":"游泳馆","address":"浦东新区浦东南路3669号"},{"poiid":"B2094757D66FA6FB419F","title":"高科西路地铁站","lon":"121.509704","lat":"31.185786","category":"36","category_name":"地铁站","address":"上海轨道交通 六号线 七号线 轨交高科西路站 6 7"},{"poiid":"B2094757D06FA7FA4093","title":"浦东游泳馆新羽毛球馆","lon":"121.505721806","lat":"31.1885572023","category":"220","category_name":"运动场所","address":"浦东新区浦东南路3669号浦东游泳馆南门内(近沂林路)"},{"poiid":"B2094757D069A3FB449F","title":"上海东方尚博创意产业园","lon":"121.51148986","lat":"31.189821243","category":"45","category_name":"产业园区","address":"浦东新区东方路3539号(近地铁7号线高科西路站)"},{"poiid":"B2094757D065A0FB499D","title":"丰华园","lon":"121.51013573","lat":"31.188650414","category":"500","category_name":"未知分类","address":"上海市浦东新区东方路"},{"poiid":"B2094655D26BA2F54492","title":"浦东南路华丰路","lon":"121.50691","lat":"31.19281","category":"38","category_name":"公交车站","address":""},{"poiid":"B2094655D26FA5F84292","title":"临沂六村","lon":"121.51205","lat":"31.193367","category":"47","category_name":"住宅区","address":"上海市浦东新区南码头路551弄"},{"poiid":"B2094757D069A6FB4698","title":"汉庭快捷浦东南路店(原世博村店)","lon":"121.50672","lat":"31.19234","category":"217","category_name":"旅馆招待所","address":"上海浦东新区浦东南路3500号(近华丰路)  "},{"poiid":"B2094654DA6AA3FE4599","title":"宏博坊海鲜大酒楼","lon":"121.50926","lat":"31.18887","category":"88","category_name":"海鲜酒楼","address":"浦东新区东方路3641号(近临沂路)"},{"poiid":"B2094757D068A5FD4292","title":"蛙香馆(东方路店)","lon":"121.51187","lat":"31.19012","category":"71","category_name":"四川菜","address":"浦东新区东方路3490号(近南码头路)"},{"poiid":"B2094757D068ABFF499D","title":"客家小厨 临沂路店","lon":"121.51342","lat":"31.19523","category":"72","category_name":"广东菜","address":"浦东新区临沂路213号(近南码头路)"},{"poiid":"B2094654DA6AA3F9439C","title":"世博大厦","lon":"121.50595","lat":"31.1911","category":"46","category_name":"楼宇","address":"上海浦东南路3588号"},{"poiid":"B2094757D06FA5F54299","title":"临沂五村","lon":"121.510414","lat":"31.190658","category":"47","category_name":"住宅区","address":"临沂路381弄1号-29号"},{"poiid":"B2094757D06AA0FF449B","title":"上海市城市建设设计研究院","lon":"121.513373","lat":"31.190365","category":"46","category_name":"楼宇","address":"上海市浦东新区东方路3447号"},{"poiid":"B2094655D36CA1F9489B","title":"临沂路浦三路","lon":"121.51166","lat":"31.19441","category":"38","category_name":"公交车站","address":""},{"poiid":"B2094655D26FA7FB4299","title":"港机新村","lon":"121.50813","lat":"31.191181","category":"47","category_name":"住宅区","address":"上海浦东南路东方路口"},{"poiid":"B2094757D069A3FF459A","title":"临沂公园","lon":"121.50754","lat":"31.18913","category":"196","category_name":"公园","address":"浦东新区东方路3683号(近浦东南路)"},{"poiid":"B2094655D36CA6FA499B","title":"东明路高科西路","lon":"121.51004","lat":"31.18925","category":"38","category_name":"公交车站","address":""},{"poiid":"B2094655D26AA0F9479A","title":"地铁高科西路站","lon":"121.50979","lat":"31.18557","category":"36","category_name":"地铁站","address":""},{"poiid":"B2094750DB64A5F54599","title":"昌里路","lon":"121.510246","lat":"31.189737","category":"500","category_name":"未知分类","address":null},{"poiid":"B2094757D06BA6F4479E","title":"教发院浦三路校区","lon":"121.514611","lat":"31.192506","category":"500","category_name":"未知分类","address":"上海浦三路385号"},{"poiid":"B2094750D56DA1F44698","title":"浦南医院","lon":"121.510131","lat":"31.192165","category":"162","category_name":"医院","address":"南码头路519号"},{"poiid":"B2094757D068A4F5479C","title":"临沂三村","lon":"121.51024543","lat":"31.194138391","category":"47","category_name":"住宅区","address":"上海南码头路450弄"},{"poiid":"B2094654DA6AA3FE459B","title":"丰艺都市型工业园区","lon":"121.51052","lat":"31.18889","category":"45","category_name":"产业园区","address":"东方路3601"},{"poiid":"B2094655D36CA6FB4793","title":"东方路临沂路","lon":"121.50895","lat":"31.18917","category":"38","category_name":"公交车站","address":""},{"poiid":"B2094757D06AABFE419B","title":"公交63路终点站","lon":"121.510855176","lat":"31.1898326222","category":"38","category_name":"公交车站","address":"上海北海宁路47号"},{"poiid":"B2094757D168A6F8409C","title":"克莉丝汀 临沂路店","lon":"121.508729054","lat":"31.191602793","category":"112","category_name":"糕饼店","address":"浦东新区临沂路366号(近华丰路)"},{"poiid":"B2094655D26AA0FD4998","title":"蒋记桂林米粉","lon":"121.51162","lat":"31.19124","category":"247","category_name":"餐饮美食","address":"浦东新区南码头路561号(近东方路)"},{"poiid":"B2094757D66EA5FA4493","title":"丰华园餐厅","lon":"121.510157438","lat":"31.1879376993","category":"46","category_name":"楼宇","address":"上海浦东东方路3601号丰华园区内"},{"poiid":"B2094654DA6AA3FF439F","title":"姜姐小菜","lon":"121.50938","lat":"31.19065","category":"76","category_name":"上海菜","address":"浦东新区临沂路383号(近华丰路)"},{"poiid":"B2094757D664A7FA459F","title":"蛙辣风暴 东方店","lon":"121.513621054","lat":"31.191272793","category":"71","category_name":"四川菜","address":"浦东新区东方路3490号(南码头路口)"},{"poiid":"B2094454D268A2FC489E","title":"上海梅赛德斯奔驰文化中心","lon":"121.509719","lat":"31.190168","category":"248","category_name":"生活娱乐","address":"上海市 世博大道1200号"},{"poiid":"B2094654DA6AA3FE429D","title":"城建设计大厦","lon":"121.51337","lat":"31.19036","category":"46","category_name":"楼宇","address":"东方路3447号"},{"poiid":"B2094654DA6AA3FE4798","title":"天意洲家园","lon":"121.50825","lat":"31.187544","category":"47","category_name":"住宅区","address":"上海市浦东新区栖山路1876弄"},{"poiid":"B2094654DB65A6F94599","title":"白玉兰小学","lon":"121.5091","lat":"31.1902","category":"56","category_name":"小学","address":"浦东新区临沂路400号(东方路临沂路)"},{"poiid":"B2094654DA6AA3FE4593","title":"万安大楼","lon":"121.50847","lat":"31.18941","category":"46","category_name":"楼宇","address":"东方路3656"},{"poiid":"B2094655D268A2FE469A","title":"振华港机2号研发中心大楼","lon":"121.5126","lat":"31.18969","category":"46","category_name":"楼宇","address":""},{"poiid":"B2094757D66EA1F8409D","title":"河南滋补烩面","lon":"121.512041738","lat":"31.1914024731","category":"247","category_name":"餐饮美食","address":"浦东新区浦三路727号绿洲KTV隔壁(齐河路高科西路间)"},{"poiid":"B2094757DA65A5F54792","title":"如家快捷酒店（上海高科西路世博园店）","lon":"121.510296464","lat":"31.185361774","category":"216","category_name":"经济型连锁酒店","address":"上海市浦东新区高科西路726号"},{"poiid":"B2094757D16AA6FC4598","title":"慕寿司","lon":"121.514321738","lat":"31.1926583998","category":"95","category_name":"日本料理","address":"浦东新区浦三路306号(近东方路)"},{"poiid":"B2094757D168ABF84999","title":"住友昌盛","lon":"121.50943136","lat":"31.189185682","category":"500","category_name":"未知分类","address":"上海东明路660弄"},{"poiid":"B2094757D16FA1FF4599","title":"亮亮老北京热气涮羊肉","lon":"121.51156","lat":"31.19376","category":"86","category_name":"火锅店","address":"浦东新区临沂路213号(临沂路南码头路)"},{"poiid":"B2094655D36DA6FD429C","title":"高科西路","lon":"121.50978","lat":"31.1858","category":"38","category_name":"公交车站","address":""},{"poiid":"B2094757D164ABFC449A","title":"西小宅","lon":"121.509934938","lat":"31.1885608126","category":"500","category_name":"未知分类","address":null},{"poiid":"B2094654DA6AA3FE499E","title":"上海乔家栅小吃世界No.10","lon":"121.50607","lat":"31.19061","category":"68","category_name":"快餐厅","address":"浦东新区浦东南路3633号(东方路口)"},{"poiid":"B2094757D064A6FF449D","title":"东明路白莲泾桥","lon":"121.509852719","lat":"31.187142993","category":"234","category_name":"海滨浴场","address":"上海市浦东新区东明路(高科西路东方路间)"},{"poiid":"B2094655D26DA7F44798","title":"华丰新苑(西门)","lon":"121.50923","lat":"31.19165","category":"47","category_name":"住宅区","address":"临沂路339弄1-3号"},{"poiid":"B2094654DA6AA3FF4393","title":"龙威大药房临沂路药房","lon":"121.50932","lat":"31.19133","category":"162","category_name":"医院","address":"临沂路359"},{"poiid":"B2094757D165A0F94493","title":"久久丫鸭颈王(临沂店)","lon":"121.509019","lat":"31.191244","category":"247","category_name":"餐饮美食","address":"上海浦东临沂路364号"},{"poiid":"B2094654DA6AA3FF459A","title":"华丰新苑","lon":"121.51006","lat":"31.191696","category":"47","category_name":"住宅区","address":"临沂路339弄1-3号"},{"poiid":"B2094654DA6AA3FE479D","title":"上海浦东游泳馆","lon":"121.50572","lat":"31.18856","category":"231","category_name":"游泳馆","address":"浦东新区浦东南路3669号"},{"poiid":"B2094757D66FA6FB419F","title":"高科西路地铁站","lon":"121.509704","lat":"31.185786","category":"36","category_name":"地铁站","address":"上海轨道交通 六号线 七号线 轨交高科西路站 6 7"},{"poiid":"B2094757D06FA7FA4093","title":"浦东游泳馆新羽毛球馆","lon":"121.505721806","lat":"31.1885572023","category":"220","category_name":"运动场所","address":"浦东新区浦东南路3669号浦东游泳馆南门内(近沂林路)"},{"poiid":"B2094757D069A3FB449F","title":"上海东方尚博创意产业园","lon":"121.51148986","lat":"31.189821243","category":"45","category_name":"产业园区","address":"浦东新区东方路3539号(近地铁7号线高科西路站)"},{"poiid":"B2094757D065A0FB499D","title":"丰华园","lon":"121.51013573","lat":"31.188650414","category":"500","category_name":"未知分类","address":"上海市浦东新区东方路"},{"poiid":"B2094655D26BA2F54492","title":"浦东南路华丰路","lon":"121.50691","lat":"31.19281","category":"38","category_name":"公交车站","address":""},{"poiid":"B2094655D26FA5F84292","title":"临沂六村","lon":"121.51205","lat":"31.193367","category":"47","category_name":"住宅区","address":"上海市浦东新区南码头路551弄"},{"poiid":"B2094757D069A6FB4698","title":"汉庭快捷浦东南路店(原世博村店)","lon":"121.50672","lat":"31.19234","category":"217","category_name":"旅馆招待所","address":"上海浦东新区浦东南路3500号(近华丰路)  "},{"poiid":"B2094654DA6AA3FE4599","title":"宏博坊海鲜大酒楼","lon":"121.50926","lat":"31.18887","category":"88","category_name":"海鲜酒楼","address":"浦东新区东方路3641号(近临沂路)"},{"poiid":"B2094757D068A5FD4292","title":"蛙香馆(东方路店)","lon":"121.51187","lat":"31.19012","category":"71","category_name":"四川菜","address":"浦东新区东方路3490号(近南码头路)"},{"poiid":"B2094757D068ABFF499D","title":"客家小厨 临沂路店","lon":"121.51342","lat":"31.19523","category":"72","category_name":"广东菜","address":"浦东新区临沂路213号(近南码头路)"},{"poiid":"B2094654DA6AA3F9439C","title":"世博大厦","lon":"121.50595","lat":"31.1911","category":"46","category_name":"楼宇","address":"上海浦东南路3588号"},{"poiid":"B2094757D06FA5F54299","title":"临沂五村","lon":"121.510414","lat":"31.190658","category":"47","category_name":"住宅区","address":"临沂路381弄1号-29号"},{"poiid":"B2094757D06AA0FF449B","title":"上海市城市建设设计研究院","lon":"121.513373","lat":"31.190365","category":"46","category_name":"楼宇","address":"上海市浦东新区东方路3447号"},{"poiid":"B2094655D36CA1F9489B","title":"临沂路浦三路","lon":"121.51166","lat":"31.19441","category":"38","category_name":"公交车站","address":""},{"poiid":"B2094655D26FA7FB4299","title":"港机新村","lon":"121.50813","lat":"31.191181","category":"47","category_name":"住宅区","address":"上海浦东南路东方路口"},{"poiid":"B2094757D069A3FF459A","title":"临沂公园","lon":"121.50754","lat":"31.18913","category":"196","category_name":"公园","address":"浦东新区东方路3683号(近浦东南路)"},{"poiid":"B2094655D36CA6FA499B","title":"东明路高科西路","lon":"121.51004","lat":"31.18925","category":"38","category_name":"公交车站","address":""},{"poiid":"B2094655D26AA0F9479A","title":"地铁高科西路站","lon":"121.50979","lat":"31.18557","category":"36","category_name":"地铁站","address":""},{"poiid":"B2094750DB64A5F54599","title":"昌里路","lon":"121.510246","lat":"31.189737","category":"500","category_name":"未知分类","address":null},{"poiid":"B2094757D06BA6F4479E","title":"教发院浦三路校区","lon":"121.514611","lat":"31.192506","category":"500","category_name":"未知分类","address":"上海浦三路385号"},{"poiid":"B2094750D56DA1F44698","title":"浦南医院","lon":"121.510131","lat":"31.192165","category":"162","category_name":"医院","address":"南码头路519号"},{"poiid":"B2094757D068A4F5479C","title":"临沂三村","lon":"121.51024543","lat":"31.194138391","category":"47","category_name":"住宅区","address":"上海南码头路450弄"},{"poiid":"B2094654DA6AA3FE459B","title":"丰艺都市型工业园区","lon":"121.51052","lat":"31.18889","category":"45","category_name":"产业园区","address":"东方路3601"},{"poiid":"B2094655D36CA6FB4793","title":"东方路临沂路","lon":"121.50895","lat":"31.18917","category":"38","category_name":"公交车站","address":""},{"poiid":"B2094757D06AABFE419B","title":"公交63路终点站","lon":"121.510855176","lat":"31.1898326222","category":"38","category_name":"公交车站","address":"上海北海宁路47号"},{"poiid":"B2094757D168A6F8409C","title":"克莉丝汀 临沂路店","lon":"121.508729054","lat":"31.191602793","category":"112","category_name":"糕饼店","address":"浦东新区临沂路366号(近华丰路)"},{"poiid":"B2094655D26AA0FD4998","title":"蒋记桂林米粉","lon":"121.51162","lat":"31.19124","category":"247","category_name":"餐饮美食","address":"浦东新区南码头路561号(近东方路)"},{"poiid":"B2094757D66EA5FA4493","title":"丰华园餐厅","lon":"121.510157438","lat":"31.1879376993","category":"46","category_name":"楼宇","address":"上海浦东东方路3601号丰华园区内"},{"poiid":"B2094654DA6AA3FF439F","title":"姜姐小菜","lon":"121.50938","lat":"31.19065","category":"76","category_name":"上海菜","address":"浦东新区临沂路383号(近华丰路)"},{"poiid":"B2094757D664A7FA459F","title":"蛙辣风暴 东方店","lon":"121.513621054","lat":"31.191272793","category":"71","category_name":"四川菜","address":"浦东新区东方路3490号(南码头路口)"},{"poiid":"B2094454D268A2FC489E","title":"上海梅赛德斯奔驰文化中心","lon":"121.509719","lat":"31.190168","category":"248","category_name":"生活娱乐","address":"上海市 世博大道1200号"},{"poiid":"B2094654DA6AA3FE429D","title":"城建设计大厦","lon":"121.51337","lat":"31.19036","category":"46","category_name":"楼宇","address":"东方路3447号"},{"poiid":"B2094654DA6AA3FE4798","title":"天意洲家园","lon":"121.50825","lat":"31.187544","category":"47","category_name":"住宅区","address":"上海市浦东新区栖山路1876弄"},{"poiid":"B2094654DB65A6F94599","title":"白玉兰小学","lon":"121.5091","lat":"31.1902","category":"56","category_name":"小学","address":"浦东新区临沂路400号(东方路临沂路)"},{"poiid":"B2094654DA6AA3FE4593","title":"万安大楼","lon":"121.50847","lat":"31.18941","category":"46","category_name":"楼宇","address":"东方路3656"},{"poiid":"B2094655D268A2FE469A","title":"振华港机2号研发中心大楼","lon":"121.5126","lat":"31.18969","category":"46","category_name":"楼宇","address":""},{"poiid":"B2094757D66EA1F8409D","title":"河南滋补烩面","lon":"121.512041738","lat":"31.1914024731","category":"247","category_name":"餐饮美食","address":"浦东新区浦三路727号绿洲KTV隔壁(齐河路高科西路间)"},{"poiid":"B2094757DA65A5F54792","title":"如家快捷酒店（上海高科西路世博园店）","lon":"121.510296464","lat":"31.185361774","category":"216","category_name":"经济型连锁酒店","address":"上海市浦东新区高科西路726号"},{"poiid":"B2094757D16AA6FC4598","title":"慕寿司","lon":"121.514321738","lat":"31.1926583998","category":"95","category_name":"日本料理","address":"浦东新区浦三路306号(近东方路)"},{"poiid":"B2094757D168ABF84999","title":"住友昌盛","lon":"121.50943136","lat":"31.189185682","category":"500","category_name":"未知分类","address":"上海东明路660弄"},{"poiid":"B2094757D16FA1FF4599","title":"亮亮老北京热气涮羊肉","lon":"121.51156","lat":"31.19376","category":"86","category_name":"火锅店","address":"浦东新区临沂路213号(临沂路南码头路)"},{"poiid":"B2094655D36DA6FD429C","title":"高科西路","lon":"121.50978","lat":"31.1858","category":"38","category_name":"公交车站","address":""},{"poiid":"B2094757D164ABFC449A","title":"西小宅","lon":"121.509934938","lat":"31.1885608126","category":"500","category_name":"未知分类","address":null},{"poiid":"B2094654DA6AA3FE499E","title":"上海乔家栅小吃世界No.10","lon":"121.50607","lat":"31.19061","category":"68","category_name":"快餐厅","address":"浦东新区浦东南路3633号(东方路口)"},{"poiid":"B2094757D064A6FF449D","title":"东明路白莲泾桥","lon":"121.509852719","lat":"31.187142993","category":"234","category_name":"海滨浴场","address":"上海市浦东新区东明路(高科西路东方路间)"},{"poiid":"B2094655D26DA7F44798","title":"华丰新苑(西门)","lon":"121.50923","lat":"31.19165","category":"47","category_name":"住宅区","address":"临沂路339弄1-3号"},{"poiid":"B2094654DA6AA3FF4393","title":"龙威大药房临沂路药房","lon":"121.50932","lat":"31.19133","category":"162","category_name":"医院","address":"临沂路359"},{"poiid":"B2094757D165A0F94493","title":"久久丫鸭颈王(临沂店)","lon":"121.509019","lat":"31.191244","category":"247","category_name":"餐饮美食","address":"上海浦东临沂路364号"},{"poiid":"B2094654DA6AA3FF459A","title":"华丰新苑","lon":"121.51006","lat":"31.191696","category":"47","category_name":"住宅区","address":"临沂路339弄1-3号"},{"poiid":"B2094654DA6AA3FE479D","title":"上海浦东游泳馆","lon":"121.50572","lat":"31.18856","category":"231","category_name":"游泳馆","address":"浦东新区浦东南路3669号"},{"poiid":"B2094757D66FA6FB419F","title":"高科西路地铁站","lon":"121.509704","lat":"31.185786","category":"36","category_name":"地铁站","address":"上海轨道交通 六号线 七号线 轨交高科西路站 6 7"},{"poiid":"B2094757D06FA7FA4093","title":"浦东游泳馆新羽毛球馆","lon":"121.505721806","lat":"31.1885572023","category":"220","category_name":"运动场所","address":"浦东新区浦东南路3669号浦东游泳馆南门内(近沂林路)"},{"poiid":"B2094757D069A3FB449F","title":"上海东方尚博创意产业园","lon":"121.51148986","lat":"31.189821243","category":"45","category_name":"产业园区","address":"浦东新区东方路3539号(近地铁7号线高科西路站)"},{"poiid":"B2094757D065A0FB499D","title":"丰华园","lon":"121.51013573","lat":"31.188650414","category":"500","category_name":"未知分类","address":"上海市浦东新区东方路"},{"poiid":"B2094655D26BA2F54492","title":"浦东南路华丰路","lon":"121.50691","lat":"31.19281","category":"38","category_name":"公交车站","address":""},{"poiid":"B2094655D26FA5F84292","title":"临沂六村","lon":"121.51205","lat":"31.193367","category":"47","category_name":"住宅区","address":"上海市浦东新区南码头路551弄"},{"poiid":"B2094757D069A6FB4698","title":"汉庭快捷浦东南路店(原世博村店)","lon":"121.50672","lat":"31.19234","category":"217","category_name":"旅馆招待所","address":"上海浦东新区浦东南路3500号(近华丰路)  "},{"poiid":"B2094654DA6AA3FE4599","title":"宏博坊海鲜大酒楼","lon":"121.50926","lat":"31.18887","category":"88","category_name":"海鲜酒楼","address":"浦东新区东方路3641号(近临沂路)"},{"poiid":"B2094757D068A5FD4292","title":"蛙香馆(东方路店)","lon":"121.51187","lat":"31.19012","category":"71","category_name":"四川菜","address":"浦东新区东方路3490号(近南码头路)"},{"poiid":"B2094757D068ABFF499D","title":"客家小厨 临沂路店","lon":"121.51342","lat":"31.19523","category":"72","category_name":"广东菜","address":"浦东新区临沂路213号(近南码头路)"},{"poiid":"B2094654DA6AA3F9439C","title":"世博大厦","lon":"121.50595","lat":"31.1911","category":"46","category_name":"楼宇","address":"上海浦东南路3588号"},{"poiid":"B2094757D06FA5F54299","title":"临沂五村","lon":"121.510414","lat":"31.190658","category":"47","category_name":"住宅区","address":"临沂路381弄1号-29号"},{"poiid":"B2094757D06AA0FF449B","title":"上海市城市建设设计研究院","lon":"121.513373","lat":"31.190365","category":"46","category_name":"楼宇","address":"上海市浦东新区东方路3447号"},{"poiid":"B2094655D36CA1F9489B","title":"临沂路浦三路","lon":"121.51166","lat":"31.19441","category":"38","category_name":"公交车站","address":""},{"poiid":"B2094655D26FA7FB4299","title":"港机新村","lon":"121.50813","lat":"31.191181","category":"47","category_name":"住宅区","address":"上海浦东南路东方路口"},{"poiid":"B2094757D069A3FF459A","title":"临沂公园","lon":"121.50754","lat":"31.18913","category":"196","category_name":"公园","address":"浦东新区东方路3683号(近浦东南路)"},{"poiid":"B2094655D36CA6FA499B","title":"东明路高科西路","lon":"121.51004","lat":"31.18925","category":"38","category_name":"公交车站","address":""},{"poiid":"B2094655D26AA0F9479A","title":"地铁高科西路站","lon":"121.50979","lat":"31.18557","category":"36","category_name":"地铁站","address":""},{"poiid":"B2094750DB64A5F54599","title":"昌里路","lon":"121.510246","lat":"31.189737","category":"500","category_name":"未知分类","address":null},{"poiid":"B2094757D06BA6F4479E","title":"教发院浦三路校区","lon":"121.514611","lat":"31.192506","category":"500","category_name":"未知分类","address":"上海浦三路385号"},{"poiid":"B2094750D56DA1F44698","title":"浦南医院","lon":"121.510131","lat":"31.192165","category":"162","category_name":"医院","address":"南码头路519号"},{"poiid":"B2094757D068A4F5479C","title":"临沂三村","lon":"121.51024543","lat":"31.194138391","category":"47","category_name":"住宅区","address":"上海南码头路450弄"},{"poiid":"B2094654DA6AA3FE459B","title":"丰艺都市型工业园区","lon":"121.51052","lat":"31.18889","category":"45","category_name":"产业园区","address":"东方路3601"},{"poiid":"B2094655D36CA6FB4793","title":"东方路临沂路","lon":"121.50895","lat":"31.18917","category":"38","category_name":"公交车站","address":""},{"poiid":"B2094757D06AABFE419B","title":"公交63路终点站","lon":"121.510855176","lat":"31.1898326222","category":"38","category_name":"公交车站","address":"上海北海宁路47号"},{"poiid":"B2094757D168A6F8409C","title":"克莉丝汀 临沂路店","lon":"121.508729054","lat":"31.191602793","category":"112","category_name":"糕饼店","address":"浦东新区临沂路366号(近华丰路)"},{"poiid":"B2094655D26AA0FD4998","title":"蒋记桂林米粉","lon":"121.51162","lat":"31.19124","category":"247","category_name":"餐饮美食","address":"浦东新区南码头路561号(近东方路)"},{"poiid":"B2094757D66EA5FA4493","title":"丰华园餐厅","lon":"121.510157438","lat":"31.1879376993","category":"46","category_name":"楼宇","address":"上海浦东东方路3601号丰华园区内"},{"poiid":"B2094654DA6AA3FF439F","title":"姜姐小菜","lon":"121.50938","lat":"31.19065","category":"76","category_name":"上海菜","address":"浦东新区临沂路383号(近华丰路)"},{"poiid":"B2094757D664A7FA459F","title":"蛙辣风暴 东方店","lon":"121.513621054","lat":"31.191272793","category":"71","category_name":"四川菜","address":"浦东新区东方路3490号(南码头路口)"},{"poiid":"B2094454D268A2FC489E","title":"上海梅赛德斯奔驰文化中心","lon":"121.509719","lat":"31.190168","category":"248","category_name":"生活娱乐","address":"上海市 世博大道1200号"},{"poiid":"B2094654DA6AA3FE429D","title":"城建设计大厦","lon":"121.51337","lat":"31.19036","category":"46","category_name":"楼宇","address":"东方路3447号"},{"poiid":"B2094654DA6AA3FE4798","title":"天意洲家园","lon":"121.50825","lat":"31.187544","category":"47","category_name":"住宅区","address":"上海市浦东新区栖山路1876弄"},{"poiid":"B2094654DB65A6F94599","title":"白玉兰小学","lon":"121.5091","lat":"31.1902","category":"56","category_name":"小学","address":"浦东新区临沂路400号(东方路临沂路)"},{"poiid":"B2094654DA6AA3FE4593","title":"万安大楼","lon":"121.50847","lat":"31.18941","category":"46","category_name":"楼宇","address":"东方路3656"},{"poiid":"B2094655D268A2FE469A","title":"振华港机2号研发中心大楼","lon":"121.5126","lat":"31.18969","category":"46","category_name":"楼宇","address":""},{"poiid":"B2094757D66EA1F8409D","title":"河南滋补烩面","lon":"121.512041738","lat":"31.1914024731","category":"247","category_name":"餐饮美食","address":"浦东新区浦三路727号绿洲KTV隔壁(齐河路高科西路间)"},{"poiid":"B2094757DA65A5F54792","title":"如家快捷酒店（上海高科西路世博园店）","lon":"121.510296464","lat":"31.185361774","category":"216","category_name":"经济型连锁酒店","address":"上海市浦东新区高科西路726号"},{"poiid":"B2094757D16AA6FC4598","title":"慕寿司","lon":"121.514321738","lat":"31.1926583998","category":"95","category_name":"日本料理","address":"浦东新区浦三路306号(近东方路)"},{"poiid":"B2094757D168ABF84999","title":"住友昌盛","lon":"121.50943136","lat":"31.189185682","category":"500","category_name":"未知分类","address":"上海东明路660弄"},{"poiid":"B2094757D16FA1FF4599","title":"亮亮老北京热气涮羊肉","lon":"121.51156","lat":"31.19376","category":"86","category_name":"火锅店","address":"浦东新区临沂路213号(临沂路南码头路)"},{"poiid":"B2094655D36DA6FD429C","title":"高科西路","lon":"121.50978","lat":"31.1858","category":"38","category_name":"公交车站","address":""},{"poiid":"B2094757D164ABFC449A","title":"西小宅","lon":"121.509934938","lat":"31.1885608126","category":"500","category_name":"未知分类","address":null},{"poiid":"B2094654DA6AA3FE499E","title":"上海乔家栅小吃世界No.10","lon":"121.50607","lat":"31.19061","category":"68","category_name":"快餐厅","address":"浦东新区浦东南路3633号(东方路口)"},{"poiid":"B2094757D064A6FF449D","title":"东明路白莲泾桥","lon":"121.509852719","lat":"31.187142993","category":"234","category_name":"海滨浴场","address":"上海市浦东新区东明路(高科西路东方路间)"},{"poiid":"B2094655D26DA7F44798","title":"华丰新苑(西门)","lon":"121.50923","lat":"31.19165","category":"47","category_name":"住宅区","address":"临沂路339弄1-3号"},{"poiid":"B2094654DA6AA3FF4393","title":"龙威大药房临沂路药房","lon":"121.50932","lat":"31.19133","category":"162","category_name":"医院","address":"临沂路359"},{"poiid":"B2094757D165A0F94493","title":"久久丫鸭颈王(临沂店)","lon":"121.509019","lat":"31.191244","category":"247","category_name":"餐饮美食","address":"上海浦东临沂路364号"},{"poiid":"B2094654DA6AA3FF459A","title":"华丰新苑","lon":"121.51006","lat":"31.191696","category":"47","category_name":"住宅区","address":"临沂路339弄1-3号"},{"poiid":"B2094654DA6AA3FE479D","title":"上海浦东游泳馆","lon":"121.50572","lat":"31.18856","category":"231","category_name":"游泳馆","address":"浦东新区浦东南路3669号"},{"poiid":"B2094757D66FA6FB419F","title":"高科西路地铁站","lon":"121.509704","lat":"31.185786","category":"36","category_name":"地铁站","address":"上海轨道交通 六号线 七号线 轨交高科西路站 6 7"},{"poiid":"B2094757D06FA7FA4093","title":"浦东游泳馆新羽毛球馆","lon":"121.505721806","lat":"31.1885572023","category":"220","category_name":"运动场所","address":"浦东新区浦东南路3669号浦东游泳馆南门内(近沂林路)"},{"poiid":"B2094757D069A3FB449F","title":"上海东方尚博创意产业园","lon":"121.51148986","lat":"31.189821243","category":"45","category_name":"产业园区","address":"浦东新区东方路3539号(近地铁7号线高科西路站)"},{"poiid":"B2094757D065A0FB499D","title":"丰华园","lon":"121.51013573","lat":"31.188650414","category":"500","category_name":"未知分类","address":"上海市浦东新区东方路"},{"poiid":"B2094655D26BA2F54492","title":"浦东南路华丰路","lon":"121.50691","lat":"31.19281","category":"38","category_name":"公交车站","address":""},{"poiid":"B2094655D26FA5F84292","title":"临沂六村","lon":"121.51205","lat":"31.193367","category":"47","category_name":"住宅区","address":"上海市浦东新区南码头路551弄"},{"poiid":"B2094757D069A6FB4698","title":"汉庭快捷浦东南路店(原世博村店)","lon":"121.50672","lat":"31.19234","category":"217","category_name":"旅馆招待所","address":"上海浦东新区浦东南路3500号(近华丰路)  "},{"poiid":"B2094654DA6AA3FE4599","title":"宏博坊海鲜大酒楼","lon":"121.50926","lat":"31.18887","category":"88","category_name":"海鲜酒楼","address":"浦东新区东方路3641号(近临沂路)"},{"poiid":"B2094757D068A5FD4292","title":"蛙香馆(东方路店)","lon":"121.51187","lat":"31.19012","category":"71","category_name":"四川菜","address":"浦东新区东方路3490号(近南码头路)"},{"poiid":"B2094757D068ABFF499D","title":"客家小厨 临沂路店","lon":"121.51342","lat":"31.19523","category":"72","category_name":"广东菜","address":"浦东新区临沂路213号(近南码头路)"},{"poiid":"B2094654DA6AA3F9439C","title":"世博大厦","lon":"121.50595","lat":"31.1911","category":"46","category_name":"楼宇","address":"上海浦东南路3588号"},{"poiid":"B2094757D06FA5F54299","title":"临沂五村","lon":"121.510414","lat":"31.190658","category":"47","category_name":"住宅区","address":"临沂路381弄1号-29号"},{"poiid":"B2094757D06AA0FF449B","title":"上海市城市建设设计研究院","lon":"121.513373","lat":"31.190365","category":"46","category_name":"楼宇","address":"上海市浦东新区东方路3447号"},{"poiid":"B2094655D36CA1F9489B","title":"临沂路浦三路","lon":"121.51166","lat":"31.19441","category":"38","category_name":"公交车站","address":""},{"poiid":"B2094655D26FA7FB4299","title":"港机新村","lon":"121.50813","lat":"31.191181","category":"47","category_name":"住宅区","address":"上海浦东南路东方路口"},{"poiid":"B2094757D069A3FF459A","title":"临沂公园","lon":"121.50754","lat":"31.18913","category":"196","category_name":"公园","address":"浦东新区东方路3683号(近浦东南路)"},{"poiid":"B2094655D36CA6FA499B","title":"东明路高科西路","lon":"121.51004","lat":"31.18925","category":"38","category_name":"公交车站","address":""},{"poiid":"B2094655D26AA0F9479A","title":"地铁高科西路站","lon":"121.50979","lat":"31.18557","category":"36","category_name":"地铁站","address":""},{"poiid":"B2094750DB64A5F54599","title":"昌里路","lon":"121.510246","lat":"31.189737","category":"500","category_name":"未知分类","address":null},{"poiid":"B2094757D06BA6F4479E","title":"教发院浦三路校区","lon":"121.514611","lat":"31.192506","category":"500","category_name":"未知分类","address":"上海浦三路385号"},{"poiid":"B2094750D56DA1F44698","title":"浦南医院","lon":"121.510131","lat":"31.192165","category":"162","category_name":"医院","address":"南码头路519号"},{"poiid":"B2094757D068A4F5479C","title":"临沂三村","lon":"121.51024543","lat":"31.194138391","category":"47","category_name":"住宅区","address":"上海南码头路450弄"},{"poiid":"B2094654DA6AA3FE459B","title":"丰艺都市型工业园区","lon":"121.51052","lat":"31.18889","category":"45","category_name":"产业园区","address":"东方路3601"},{"poiid":"B2094655D36CA6FB4793","title":"东方路临沂路","lon":"121.50895","lat":"31.18917","category":"38","category_name":"公交车站","address":""},{"poiid":"B2094757D06AABFE419B","title":"公交63路终点站","lon":"121.510855176","lat":"31.1898326222","category":"38","category_name":"公交车站","address":"上海北海宁路47号"},{"poiid":"B2094757D168A6F8409C","title":"克莉丝汀 临沂路店","lon":"121.508729054","lat":"31.191602793","category":"112","category_name":"糕饼店","address":"浦东新区临沂路366号(近华丰路)"},{"poiid":"B2094655D26AA0FD4998","title":"蒋记桂林米粉","lon":"121.51162","lat":"31.19124","category":"247","category_name":"餐饮美食","address":"浦东新区南码头路561号(近东方路)"},{"poiid":"B2094757D66EA5FA4493","title":"丰华园餐厅","lon":"121.510157438","lat":"31.1879376993","category":"46","category_name":"楼宇","address":"上海浦东东方路3601号丰华园区内"},{"poiid":"B2094654DA6AA3FF439F","title":"姜姐小菜","lon":"121.50938","lat":"31.19065","category":"76","category_name":"上海菜","address":"浦东新区临沂路383号(近华丰路)"},{"poiid":"B2094757D664A7FA459F","title":"蛙辣风暴 东方店","lon":"121.513621054","lat":"31.191272793","category":"71","category_name":"四川菜","address":"浦东新区东方路3490号(南码头路口)"},{"poiid":"B2094454D268A2FC489E","title":"上海梅赛德斯奔驰文化中心","lon":"121.509719","lat":"31.190168","category":"248","category_name":"生活娱乐","address":"上海市 世博大道1200号"},{"poiid":"B2094654DA6AA3FE429D","title":"城建设计大厦","lon":"121.51337","lat":"31.19036","category":"46","category_name":"楼宇","address":"东方路3447号"},{"poiid":"B2094654DA6AA3FE4798","title":"天意洲家园","lon":"121.50825","lat":"31.187544","category":"47","category_name":"住宅区","address":"上海市浦东新区栖山路1876弄"},{"poiid":"B2094654DB65A6F94599","title":"白玉兰小学","lon":"121.5091","lat":"31.1902","category":"56","category_name":"小学","address":"浦东新区临沂路400号(东方路临沂路)"},{"poiid":"B2094654DA6AA3FE4593","title":"万安大楼","lon":"121.50847","lat":"31.18941","category":"46","category_name":"楼宇","address":"东方路3656"},{"poiid":"B2094655D268A2FE469A","title":"振华港机2号研发中心大楼","lon":"121.5126","lat":"31.18969","category":"46","category_name":"楼宇","address":""},{"poiid":"B2094757D66EA1F8409D","title":"河南滋补烩面","lon":"121.512041738","lat":"31.1914024731","category":"247","category_name":"餐饮美食","address":"浦东新区浦三路727号绿洲KTV隔壁(齐河路高科西路间)"},{"poiid":"B2094757DA65A5F54792","title":"如家快捷酒店（上海高科西路世博园店）","lon":"121.510296464","lat":"31.185361774","category":"216","category_name":"经济型连锁酒店","address":"上海市浦东新区高科西路726号"},{"poiid":"B2094757D16AA6FC4598","title":"慕寿司","lon":"121.514321738","lat":"31.1926583998","category":"95","category_name":"日本料理","address":"浦东新区浦三路306号(近东方路)"},{"poiid":"B2094757D168ABF84999","title":"住友昌盛","lon":"121.50943136","lat":"31.189185682","category":"500","category_name":"未知分类","address":"上海东明路660弄"},{"poiid":"B2094757D16FA1FF4599","title":"亮亮老北京热气涮羊肉","lon":"121.51156","lat":"31.19376","category":"86","category_name":"火锅店","address":"浦东新区临沂路213号(临沂路南码头路)"},{"poiid":"B2094655D36DA6FD429C","title":"高科西路","lon":"121.50978","lat":"31.1858","category":"38","category_name":"公交车站","address":""},{"poiid":"B2094757D164ABFC449A","title":"西小宅","lon":"121.509934938","lat":"31.1885608126","category":"500","category_name":"未知分类","address":null},{"poiid":"B2094654DA6AA3FE499E","title":"上海乔家栅小吃世界No.10","lon":"121.50607","lat":"31.19061","category":"68","category_name":"快餐厅","address":"浦东新区浦东南路3633号(东方路口)"},{"poiid":"B2094757D064A6FF449D","title":"东明路白莲泾桥","lon":"121.509852719","lat":"31.187142993","category":"234","category_name":"海滨浴场","address":"上海市浦东新区东明路(高科西路东方路间)"},{"poiid":"B2094655D26DA7F44798","title":"华丰新苑(西门)","lon":"121.50923","lat":"31.19165","category":"47","category_name":"住宅区","address":"临沂路339弄1-3号"},{"poiid":"B2094654DA6AA3FF4393","title":"龙威大药房临沂路药房","lon":"121.50932","lat":"31.19133","category":"162","category_name":"医院","address":"临沂路359"},{"poiid":"B2094757D165A0F94493","title":"久久丫鸭颈王(临沂店)","lon":"121.509019","lat":"31.191244","category":"247","category_name":"餐饮美食","address":"上海浦东临沂路364号"},{"poiid":"B2094654DA6AA3FF459A","title":"华丰新苑","lon":"121.51006","lat":"31.191696","category":"47","category_name":"住宅区","address":"临沂路339弄1-3号"}]