[{"poiid":"B2094757D068AAFE489F","title":"复兴西路","lon":"121.443012","lat":"31.208405","category":"46","category_name":"楼宇","address":"上海永福路"},{"poiid":"B2094654D564A4FA499C","title":"复旦大学附属华山医院","lon":"121.44319306307318","lat":"31.21677253879001","category":"162","category_name":"医院","address":"静安区乌鲁木齐中路12号"},{"poiid":"B2094750D464A7F5429D","title":"万岛日本料理铁板烧","lon":"121.444526","lat":"31.216455","category":"95","category_name":"日本料理","address":"静安区乌鲁木齐北路480号万泰国际5楼(近华山路)"},{"poiid":"B2094753D76FAAFA449C","title":"上海滩国泰旗舰店","lon":"121.466011","lat":"31.216125","category":"249","category_name":"购物服务","address":"淮海中路868号"},{"poiid":"B209475CD564A7F84292","title":"上海滩新天地店","lon":"121.47463","lat":"31.22164","category":"119","category_name":"商场","address":"\"太仓路181弄新天地北里15号\r\n\""},{"poiid":"B209475CD564A7F8439E","title":"上海滩中信泰富店","lon":"121.45602","lat":"31.22851","category":"119","category_name":"商场","address":"\"南京西路1168号中信泰富广场，店铺号221.\r\n\""},{"poiid":"B2094757D06EAAFA4599","title":"华山医院(总院)","lon":"121.4431931134992","lat":"31.21677113543664","category":"162","category_name":"医院","address":"静安区乌鲁木齐中路12号(华山路乌鲁木齐中路)"},{"poiid":"B2094654D564A4FF419E","title":"世纪商贸广场","lon":"121.44701","lat":"31.21528","category":"46","category_name":"楼宇","address":"上海市徐汇区长乐路989号（近常熟路）"},{"poiid":"B2094757D06FA3F44892","title":"上海宾馆","lon":"121.44421","lat":"31.21782","category":"214","category_name":"四星级宾馆","address":"上海静安区乌鲁木齐北路505号(近华山路)  "},{"poiid":"B2094757D06FA6FC429B","title":"La Strada","lon":"121.44373968","lat":"31.2139371011","category":"94","category_name":"西餐厅","address":"徐汇区安福路195号(近乌鲁木齐中路)"},{"poiid":"B2094655D265A1FC4292","title":"COSTA COFFEE(安福路店)","lon":"121.44395","lat":"31.21448","category":"65","category_name":"咖啡厅","address":"徐汇区安福路168号(近乌鲁木齐中路)"},{"poiid":"B2094757D06FA2FC419B","title":"Amokka Café","lon":"121.44438","lat":"31.21392","category":"94","category_name":"西餐厅","address":"徐汇区安福路201号(近乌鲁木齐中路)"},{"poiid":"B2094757D06EAAF8489A","title":"星巴克(世纪商贸店)","lon":"121.446549","lat":"31.215735","category":"260","category_name":"其他","address":"徐汇区长乐路989号世纪商贸广场1楼(近常熟路,安福路)"},{"poiid":"B2094757D16CA1FA439A","title":"Hilton Hotel Shanghai","lon":"121.447136586","lat":"31.2161231551","category":"500","category_name":"未知分类","address":"上海华山路"},{"poiid":"B2094757D068ABFE469A","title":"西班牙总领事馆文化处","lon":"121.443642","lat":"31.2140977094","category":"46","category_name":"楼宇","address":"上海徐汇区安福路208号"},{"poiid":"B2094757D069AAF5459F","title":"MiThai","lon":"121.44390816","lat":"31.21427788","category":"110","category_name":"其他亚洲菜","address":"徐汇区安福路195号2楼(近乌鲁木齐北路)"},{"poiid":"B2094757D06FA0F8489B","title":"Enoterra红酒吧(安福路店)","lon":"121.44748","lat":"31.2147","category":"260","category_name":"其他","address":"徐汇区安福路55号(近常熟路)"},{"poiid":"B2094757D06FA5FC4699","title":"越域秘制牛肉面(长乐路店)","lon":"121.443508","lat":"31.215165","category":"68","category_name":"快餐厅","address":"徐汇区长乐路1127号(近乌鲁木齐中路)"},{"poiid":"B2094757DB69A4FB499E","title":"荣日本料理 华山店","lon":"121.444941","lat":"31.217337","category":"95","category_name":"日本料理","address":"静安区华山路427号2楼(近乌鲁木齐中路)"},{"poiid":"B2094654D564A4FB449C","title":"上海歌剧院","lon":"121.44642206994058","lat":"31.216509748927887","category":"180","category_name":"剧场","address":"静安区常熟路100弄10号(近长乐路)"},{"poiid":"B2094750DB69A2FD489C","title":"上海话剧中心","lon":"121.443702","lat":"31.214429","category":"500","category_name":"未知分类","address":"安福路288号"},{"poiid":"B2094757D06FA3FA479D","title":"路飞堂（华山店）","lon":"121.44359","lat":"31.219215","category":"113","category_name":"冷饮店","address":"静安区乌鲁木齐北路429号(近延安西路)"},{"poiid":"B2094757D068A0FC449C","title":"JustGrapes(安福路店)","lon":"121.44505","lat":"31.21389","category":"94","category_name":"西餐厅","address":"徐汇区安福路162号(近乌鲁木齐中路)"},{"poiid":"B2094654DB65A1F84193","title":"Jamaica Blue(乌鲁木齐中路)","lon":"121.44477","lat":"31.21471","category":"260","category_name":"其他","address":"徐汇区乌鲁木齐中路82号(近长乐路)"},{"poiid":"B2094757D06FA1FB409E","title":"蜀地辣子鱼(安福店)","lon":"121.44467","lat":"31.21375","category":"71","category_name":"四川菜","address":"徐汇区安福路185-187号(近乌鲁木齐中路)"},{"poiid":"B2094654DB69A0FA459E","title":"红宝石(华山店)","lon":"121.4458","lat":"31.21781","category":"67","category_name":"甜品店","address":"静安区华山路375号(静安宾馆对面)"},{"poiid":"B2094757D06FA0FD469B","title":"湖南乡村风味(乌鲁木齐中路店)","lon":"121.44546","lat":"31.21341","category":"77","category_name":"湖南菜","address":"徐汇区乌鲁木齐中路168号(近安福路)"},{"poiid":"B2094757D16CA7F84793","title":"SetteBello","lon":"121.44418258","lat":"31.214072115","category":"94","category_name":"西餐厅","address":"徐汇区安福路193号(近乌鲁木齐路)"},{"poiid":"B2094757D16DA3FD469B","title":"荣居酒屋","lon":"121.44440478","lat":"31.218040692","category":"247","category_name":"餐饮美食","address":"上海华山路427号二楼"},{"poiid":"B2094757D068A1F84199","title":"渔人粤菜馆","lon":"121.447517","lat":"31.216825","category":"72","category_name":"广东菜","address":"静安区常熟路98号3楼(近长乐路)"},{"poiid":"B2094750D269A3FF4893","title":"Italian kitchen26","lon":"121.44738","lat":"31.215356","category":"94","category_name":"西餐厅","address":"徐汇区安福路23号(近常熟路)"},{"poiid":"B2094654D564A4F5419E","title":"原创私房菜","lon":"121.44352","lat":"31.21718","category":"76","category_name":"上海菜","address":"静安区华山路480号(近乌鲁木齐中路)"},{"poiid":"B2094757D168A0F44999","title":"华山医院特需门诊部","lon":"121.44334328","lat":"31.216674446","category":"162","category_name":"医院","address":"上海乌鲁木齐中路12号7F"},{"poiid":"B2094757D06FA3F54198","title":"The Living Room","lon":"121.443536152","lat":"31.2171960868","category":"65","category_name":"咖啡厅","address":"静安区华山路480号(近乌鲁木齐中路)"},{"poiid":"B2094757D16DA6F8429A","title":"华山医院6号楼","lon":"121.443753586","lat":"31.2167181668","category":"162","category_name":"医院","address":"上海市静安区延安西路"},{"poiid":"B2094757D068A4FD459C","title":"米盖尔·德·塞万提斯图书馆","lon":"121.443635131","lat":"31.214141725","category":"181","category_name":"图书馆","address":"徐汇区安福路208号(近乌鲁木齐中路)"},{"poiid":"B2094757D064ABFE489F","title":"1919Bistro","lon":"121.443473186","lat":"31.2168149686","category":"500","category_name":"未知分类","address":"上海乌鲁木齐中路1号"},{"poiid":"B2094757D06FAAFF439D","title":"Ogilvy &amp; Mather.奥美广告","lon":"121.44699","lat":"31.215356","category":"46","category_name":"楼宇","address":"上海徐汇区长乐路989号世纪商贸广场26楼"},{"poiid":"B2094654DB65A4FB449A","title":"复旦大学附属华山医院(北门)","lon":"121.44306","lat":"31.2169","category":"265","category_name":"知名企业","address":"华山路495"},{"poiid":"B2094757D06AABFD4398","title":"华山医院皮肤科普通门诊","lon":"121.443563474","lat":"31.2154032806","category":"162","category_name":"医院","address":"上海静安区乌鲁木齐中路12号3楼"},{"poiid":"B2094751D365A6FE429A","title":"2nd floor","lon":"121.447687","lat":"31.215626","category":"94","category_name":"西餐厅","address":"徐汇区长乐路810号2楼(近常熟路)"},{"poiid":"B2094654DB69A0FB419C","title":"静安宾馆中餐厅","lon":"121.44568894175","lat":"31.218200256688","category":"247","category_name":"餐饮美食","address":"静安区华山路370号静安宾馆内(近乌鲁木齐北路)查看地图"},{"poiid":"B2094757D06AA6F94198","title":"梦曼特西餐厅(长乐店)","lon":"121.44473","lat":"31.21504","category":"94","category_name":"西餐厅","address":"徐汇区乌鲁木齐路66-69号(长乐路口)"},{"poiid":"B2094654D564ABFC439D","title":"合记茶餐厅","lon":"121.44436668466","lat":"31.21697867495","category":"72","category_name":"广东菜","address":"静安区华山路445号(近乌鲁木齐中路)"},{"poiid":"B2094757D06FA3F44098","title":"W K Shanghai","lon":"121.444271","lat":"31.21532","category":"46","category_name":"楼宇","address":"上海长乐路1035号"},{"poiid":"B2094757D069A6FA439B","title":"汇贤居","lon":"121.44571","lat":"31.214794","category":"47","category_name":"住宅区","address":"徐汇区乌鲁木齐路长乐路"},{"poiid":"B2094757D06BAAF44498","title":"Urban Thai","lon":"121.4459","lat":"31.21568","category":"99","category_name":"泰国／越南菜品餐厅","address":"徐汇区长乐路938号(近乌鲁木齐中路)"},{"poiid":"B2094757D069A4FA429D","title":"华山医院住院部","lon":"121.443770586","lat":"31.2153391398","category":"162","category_name":"医院","address":"上海市静安区乌鲁木齐路"},{"poiid":"B2094757D069A7FD4898","title":"组合发型(华山路店)","lon":"121.44613","lat":"31.21746","category":"148","category_name":"美容美发店","address":"静安区华山路383号(近乌鲁木齐中路)"},{"poiid":"B2094757DB68A5FA4198","title":"申城五月天","lon":"121.44546747208","lat":"31.2181232847","category":"72","category_name":"广东菜","address":"静安区华山路370号静安宾馆新楼2楼(近乌鲁木齐路)"},{"poiid":"B2094757D068AAFE489F","title":"复兴西路","lon":"121.443012","lat":"31.208405","category":"46","category_name":"楼宇","address":"上海永福路"},{"poiid":"B2094654D564A4FA499C","title":"复旦大学附属华山医院","lon":"121.44319306307318","lat":"31.21677253879001","category":"162","category_name":"医院","address":"静安区乌鲁木齐中路12号"},{"poiid":"B2094750D464A7F5429D","title":"万岛日本料理铁板烧","lon":"121.444526","lat":"31.216455","category":"95","category_name":"日本料理","address":"静安区乌鲁木齐北路480号万泰国际5楼(近华山路)"},{"poiid":"B2094753D76FAAFA449C","title":"上海滩国泰旗舰店","lon":"121.466011","lat":"31.216125","category":"249","category_name":"购物服务","address":"淮海中路868号"},{"poiid":"B209475CD564A7F84292","title":"上海滩新天地店","lon":"121.47463","lat":"31.22164","category":"119","category_name":"商场","address":"\"太仓路181弄新天地北里15号\r\n\""},{"poiid":"B209475CD564A7F8439E","title":"上海滩中信泰富店","lon":"121.45602","lat":"31.22851","category":"119","category_name":"商场","address":"\"南京西路1168号中信泰富广场，店铺号221.\r\n\""},{"poiid":"B2094757D06EAAFA4599","title":"华山医院(总院)","lon":"121.4431931134992","lat":"31.21677113543664","category":"162","category_name":"医院","address":"静安区乌鲁木齐中路12号(华山路乌鲁木齐中路)"},{"poiid":"B2094654D564A4FF419E","title":"世纪商贸广场","lon":"121.44701","lat":"31.21528","category":"46","category_name":"楼宇","address":"上海市徐汇区长乐路989号（近常熟路）"},{"poiid":"B2094757D06FA3F44892","title":"上海宾馆","lon":"121.44421","lat":"31.21782","category":"214","category_name":"四星级宾馆","address":"上海静安区乌鲁木齐北路505号(近华山路)  "},{"poiid":"B2094757D06FA6FC429B","title":"La Strada","lon":"121.44373968","lat":"31.2139371011","category":"94","category_name":"西餐厅","address":"徐汇区安福路195号(近乌鲁木齐中路)"},{"poiid":"B2094655D265A1FC4292","title":"COSTA COFFEE(安福路店)","lon":"121.44395","lat":"31.21448","category":"65","category_name":"咖啡厅","address":"徐汇区安福路168号(近乌鲁木齐中路)"},{"poiid":"B2094757D06FA2FC419B","title":"Amokka Café","lon":"121.44438","lat":"31.21392","category":"94","category_name":"西餐厅","address":"徐汇区安福路201号(近乌鲁木齐中路)"},{"poiid":"B2094757D06EAAF8489A","title":"星巴克(世纪商贸店)","lon":"121.446549","lat":"31.215735","category":"260","category_name":"其他","address":"徐汇区长乐路989号世纪商贸广场1楼(近常熟路,安福路)"},{"poiid":"B2094757D16CA1FA439A","title":"Hilton Hotel Shanghai","lon":"121.447136586","lat":"31.2161231551","category":"500","category_name":"未知分类","address":"上海华山路"},{"poiid":"B2094757D068ABFE469A","title":"西班牙总领事馆文化处","lon":"121.443642","lat":"31.2140977094","category":"46","category_name":"楼宇","address":"上海徐汇区安福路208号"},{"poiid":"B2094757D069AAF5459F","title":"MiThai","lon":"121.44390816","lat":"31.21427788","category":"110","category_name":"其他亚洲菜","address":"徐汇区安福路195号2楼(近乌鲁木齐北路)"},{"poiid":"B2094757D06FA0F8489B","title":"Enoterra红酒吧(安福路店)","lon":"121.44748","lat":"31.2147","category":"260","category_name":"其他","address":"徐汇区安福路55号(近常熟路)"},{"poiid":"B2094757D06FA5FC4699","title":"越域秘制牛肉面(长乐路店)","lon":"121.443508","lat":"31.215165","category":"68","category_name":"快餐厅","address":"徐汇区长乐路1127号(近乌鲁木齐中路)"},{"poiid":"B2094757DB69A4FB499E","title":"荣日本料理 华山店","lon":"121.444941","lat":"31.217337","category":"95","category_name":"日本料理","address":"静安区华山路427号2楼(近乌鲁木齐中路)"},{"poiid":"B2094654D564A4FB449C","title":"上海歌剧院","lon":"121.44642206994058","lat":"31.216509748927887","category":"180","category_name":"剧场","address":"静安区常熟路100弄10号(近长乐路)"},{"poiid":"B2094750DB69A2FD489C","title":"上海话剧中心","lon":"121.443702","lat":"31.214429","category":"500","category_name":"未知分类","address":"安福路288号"},{"poiid":"B2094757D06FA3FA479D","title":"路飞堂（华山店）","lon":"121.44359","lat":"31.219215","category":"113","category_name":"冷饮店","address":"静安区乌鲁木齐北路429号(近延安西路)"},{"poiid":"B2094757D068A0FC449C","title":"JustGrapes(安福路店)","lon":"121.44505","lat":"31.21389","category":"94","category_name":"西餐厅","address":"徐汇区安福路162号(近乌鲁木齐中路)"},{"poiid":"B2094654DB65A1F84193","title":"Jamaica Blue(乌鲁木齐中路)","lon":"121.44477","lat":"31.21471","category":"260","category_name":"其他","address":"徐汇区乌鲁木齐中路82号(近长乐路)"},{"poiid":"B2094757D06FA1FB409E","title":"蜀地辣子鱼(安福店)","lon":"121.44467","lat":"31.21375","category":"71","category_name":"四川菜","address":"徐汇区安福路185-187号(近乌鲁木齐中路)"},{"poiid":"B2094654DB69A0FA459E","title":"红宝石(华山店)","lon":"121.4458","lat":"31.21781","category":"67","category_name":"甜品店","address":"静安区华山路375号(静安宾馆对面)"},{"poiid":"B2094757D06FA0FD469B","title":"湖南乡村风味(乌鲁木齐中路店)","lon":"121.44546","lat":"31.21341","category":"77","category_name":"湖南菜","address":"徐汇区乌鲁木齐中路168号(近安福路)"},{"poiid":"B2094757D16CA7F84793","title":"SetteBello","lon":"121.44418258","lat":"31.214072115","category":"94","category_name":"西餐厅","address":"徐汇区安福路193号(近乌鲁木齐路)"},{"poiid":"B2094757D16DA3FD469B","title":"荣居酒屋","lon":"121.44440478","lat":"31.218040692","category":"247","category_name":"餐饮美食","address":"上海华山路427号二楼"},{"poiid":"B2094757D068A1F84199","title":"渔人粤菜馆","lon":"121.447517","lat":"31.216825","category":"72","category_name":"广东菜","address":"静安区常熟路98号3楼(近长乐路)"},{"poiid":"B2094750D269A3FF4893","title":"Italian kitchen26","lon":"121.44738","lat":"31.215356","category":"94","category_name":"西餐厅","address":"徐汇区安福路23号(近常熟路)"},{"poiid":"B2094654D564A4F5419E","title":"原创私房菜","lon":"121.44352","lat":"31.21718","category":"76","category_name":"上海菜","address":"静安区华山路480号(近乌鲁木齐中路)"},{"poiid":"B2094757D168A0F44999","title":"华山医院特需门诊部","lon":"121.44334328","lat":"31.216674446","category":"162","category_name":"医院","address":"上海乌鲁木齐中路12号7F"},{"poiid":"B2094757D06FA3F54198","title":"The Living Room","lon":"121.443536152","lat":"31.2171960868","category":"65","category_name":"咖啡厅","address":"静安区华山路480号(近乌鲁木齐中路)"},{"poiid":"B2094757D16DA6F8429A","title":"华山医院6号楼","lon":"121.443753586","lat":"31.2167181668","category":"162","category_name":"医院","address":"上海市静安区延安西路"},{"poiid":"B2094757D068A4FD459C","title":"米盖尔·德·塞万提斯图书馆","lon":"121.443635131","lat":"31.214141725","category":"181","category_name":"图书馆","address":"徐汇区安福路208号(近乌鲁木齐中路)"},{"poiid":"B2094757D064ABFE489F","title":"1919Bistro","lon":"121.443473186","lat":"31.2168149686","category":"500","category_name":"未知分类","address":"上海乌鲁木齐中路1号"},{"poiid":"B2094757D06FAAFF439D","title":"Ogilvy &amp; Mather.奥美广告","lon":"121.44699","lat":"31.215356","category":"46","category_name":"楼宇","address":"上海徐汇区长乐路989号世纪商贸广场26楼"},{"poiid":"B2094654DB65A4FB449A","title":"复旦大学附属华山医院(北门)","lon":"121.44306","lat":"31.2169","category":"265","category_name":"知名企业","address":"华山路495"},{"poiid":"B2094757D06AABFD4398","title":"华山医院皮肤科普通门诊","lon":"121.443563474","lat":"31.2154032806","category":"162","category_name":"医院","address":"上海静安区乌鲁木齐中路12号3楼"},{"poiid":"B2094751D365A6FE429A","title":"2nd floor","lon":"121.447687","lat":"31.215626","category":"94","category_name":"西餐厅","address":"徐汇区长乐路810号2楼(近常熟路)"},{"poiid":"B2094654DB69A0FB419C","title":"静安宾馆中餐厅","lon":"121.44568894175","lat":"31.218200256688","category":"247","category_name":"餐饮美食","address":"静安区华山路370号静安宾馆内(近乌鲁木齐北路)查看地图"},{"poiid":"B2094757D06AA6F94198","title":"梦曼特西餐厅(长乐店)","lon":"121.44473","lat":"31.21504","category":"94","category_name":"西餐厅","address":"徐汇区乌鲁木齐路66-69号(长乐路口)"},{"poiid":"B2094654D564ABFC439D","title":"合记茶餐厅","lon":"121.44436668466","lat":"31.21697867495","category":"72","category_name":"广东菜","address":"静安区华山路445号(近乌鲁木齐中路)"},{"poiid":"B2094757D06FA3F44098","title":"W K Shanghai","lon":"121.444271","lat":"31.21532","category":"46","category_name":"楼宇","address":"上海长乐路1035号"},{"poiid":"B2094757D069A6FA439B","title":"汇贤居","lon":"121.44571","lat":"31.214794","category":"47","category_name":"住宅区","address":"徐汇区乌鲁木齐路长乐路"},{"poiid":"B2094757D06BAAF44498","title":"Urban Thai","lon":"121.4459","lat":"31.21568","category":"99","category_name":"泰国／越南菜品餐厅","address":"徐汇区长乐路938号(近乌鲁木齐中路)"},{"poiid":"B2094757D069A4FA429D","title":"华山医院住院部","lon":"121.443770586","lat":"31.2153391398","category":"162","category_name":"医院","address":"上海市静安区乌鲁木齐路"},{"poiid":"B2094757D069A7FD4898","title":"组合发型(华山路店)","lon":"121.44613","lat":"31.21746","category":"148","category_name":"美容美发店","address":"静安区华山路383号(近乌鲁木齐中路)"},{"poiid":"B2094757DB68A5FA4198","title":"申城五月天","lon":"121.44546747208","lat":"31.2181232847","category":"72","category_name":"广东菜","address":"静安区华山路370号静安宾馆新楼2楼(近乌鲁木齐路)"},{"poiid":"B2094757D068AAFE489F","title":"复兴西路","lon":"121.443012","lat":"31.208405","category":"46","category_name":"楼宇","address":"上海永福路"},{"poiid":"B2094654D564A4FA499C","title":"复旦大学附属华山医院","lon":"121.44319306307318","lat":"31.21677253879001","category":"162","category_name":"医院","address":"静安区乌鲁木齐中路12号"},{"poiid":"B2094750D464A7F5429D","title":"万岛日本料理铁板烧","lon":"121.444526","lat":"31.216455","category":"95","category_name":"日本料理","address":"静安区乌鲁木齐北路480号万泰国际5楼(近华山路)"},{"poiid":"B2094753D76FAAFA449C","title":"上海滩国泰旗舰店","lon":"121.466011","lat":"31.216125","category":"249","category_name":"购物服务","address":"淮海中路868号"},{"poiid":"B209475CD564A7F84292","title":"上海滩新天地店","lon":"121.47463","lat":"31.22164","category":"119","category_name":"商场","address":"\"太仓路181弄新天地北里15号\r\n\""},{"poiid":"B209475CD564A7F8439E","title":"上海滩中信泰富店","lon":"121.45602","lat":"31.22851","category":"119","category_name":"商场","address":"\"南京西路1168号中信泰富广场，店铺号221.\r\n\""},{"poiid":"B2094757D06EAAFA4599","title":"华山医院(总院)","lon":"121.4431931134992","lat":"31.21677113543664","category":"162","category_name":"医院","address":"静安区乌鲁木齐中路12号(华山路乌鲁木齐中路)"},{"poiid":"B2094654D564A4FF419E","title":"世纪商贸广场","lon":"121.44701","lat":"31.21528","category":"46","category_name":"楼宇","address":"上海市徐汇区长乐路989号（近常熟路）"},{"poiid":"B2094757D06FA3F44892","title":"上海宾馆","lon":"121.44421","lat":"31.21782","category":"214","category_name":"四星级宾馆","address":"上海静安区乌鲁木齐北路505号(近华山路)  "},{"poiid":"B2094757D06FA6FC429B","title":"La Strada","lon":"121.44373968","lat":"31.2139371011","category":"94","category_name":"西餐厅","address":"徐汇区安福路195号(近乌鲁木齐中路)"},{"poiid":"B2094655D265A1FC4292","title":"COSTA COFFEE(安福路店)","lon":"121.44395","lat":"31.21448","category":"65","category_name":"咖啡厅","address":"徐汇区安福路168号(近乌鲁木齐中路)"},{"poiid":"B2094757D06FA2FC419B","title":"Amokka Café","lon":"121.44438","lat":"31.21392","category":"94","category_name":"西餐厅","address":"徐汇区安福路201号(近乌鲁木齐中路)"},{"poiid":"B2094757D06EAAF8489A","title":"星巴克(世纪商贸店)","lon":"121.446549","lat":"31.215735","category":"260","category_name":"其他","address":"徐汇区长乐路989号世纪商贸广场1楼(近常熟路,安福路)"},{"poiid":"B2094757D16CA1FA439A","title":"Hilton Hotel Shanghai","lon":"121.447136586","lat":"31.2161231551","category":"500","category_name":"未知分类","address":"上海华山路"},{"poiid":"B2094757D068ABFE469A","title":"西班牙总领事馆文化处","lon":"121.443642","lat":"31.2140977094","category":"46","category_name":"楼宇","address":"上海徐汇区安福路208号"},{"poiid":"B2094757D069AAF5459F","title":"MiThai","lon":"121.44390816","lat":"31.21427788","category":"110","category_name":"其他亚洲菜","address":"徐汇区安福路195号2楼(近乌鲁木齐北路)"},{"poiid":"B2094757D06FA0F8489B","title":"Enoterra红酒吧(安福路店)","lon":"121.44748","lat":"31.2147","category":"260","category_name":"其他","address":"徐汇区安福路55号(近常熟路)"},{"poiid":"B2094757D06FA5FC4699","title":"越域秘制牛肉面(长乐路店)","lon":"121.443508","lat":"31.215165","category":"68","category_name":"快餐厅","address":"徐汇区长乐路1127号(近乌鲁木齐中路)"},{"poiid":"B2094757DB69A4FB499E","title":"荣日本料理 华山店","lon":"121.444941","lat":"31.217337","category":"95","category_name":"日本料理","address":"静安区华山路427号2楼(近乌鲁木齐中路)"},{"poiid":"B2094654D564A4FB449C","title":"上海歌剧院","lon":"121.44642206994058","lat":"31.216509748927887","category":"180","category_name":"剧场","address":"静安区常熟路100弄10号(近长乐路)"},{"poiid":"B2094750DB69A2FD489C","title":"上海话剧中心","lon":"121.443702","lat":"31.214429","category":"500","category_name":"未知分类","address":"安福路288号"},{"poiid":"B2094757D06FA3FA479D","title":"路飞堂（华山店）","lon":"121.44359","lat":"31.219215","category":"113","category_name":"冷饮店","address":"静安区乌鲁木齐北路429号(近延安西路)"},{"poiid":"B2094757D068A0FC449C","title":"JustGrapes(安福路店)","lon":"121.44505","lat":"31.21389","category":"94","category_name":"西餐厅","address":"徐汇区安福路162号(近乌鲁木齐中路)"},{"poiid":"B2094654DB65A1F84193","title":"Jamaica Blue(乌鲁木齐中路)","lon":"121.44477","lat":"31.21471","category":"260","category_name":"其他","address":"徐汇区乌鲁木齐中路82号(近长乐路)"},{"poiid":"B2094757D06FA1FB409E","title":"蜀地辣子鱼(安福店)","lon":"121.44467","lat":"31.21375","category":"71","category_name":"四川菜","address":"徐汇区安福路185-187号(近乌鲁木齐中路)"},{"poiid":"B2094654DB69A0FA459E","title":"红宝石(华山店)","lon":"121.4458","lat":"31.21781","category":"67","category_name":"甜品店","address":"静安区华山路375号(静安宾馆对面)"},{"poiid":"B2094757D06FA0FD469B","title":"湖南乡村风味(乌鲁木齐中路店)","lon":"121.44546","lat":"31.21341","category":"77","category_name":"湖南菜","address":"徐汇区乌鲁木齐中路168号(近安福路)"},{"poiid":"B2094757D16CA7F84793","title":"SetteBello","lon":"121.44418258","lat":"31.214072115","category":"94","category_name":"西餐厅","address":"徐汇区安福路193号(近乌鲁木齐路)"},{"poiid":"B2094757D16DA3FD469B","title":"荣居酒屋","lon":"121.44440478","lat":"31.218040692","category":"247","category_name":"餐饮美食","address":"上海华山路427号二楼"},{"poiid":"B2094757D068A1F84199","title":"渔人粤菜馆","lon":"121.447517","lat":"31.216825","category":"72","category_name":"广东菜","address":"静安区常熟路98号3楼(近长乐路)"},{"poiid":"B2094750D269A3FF4893","title":"Italian kitchen26","lon":"121.44738","lat":"31.215356","category":"94","category_name":"西餐厅","address":"徐汇区安福路23号(近常熟路)"},{"poiid":"B2094654D564A4F5419E","title":"原创私房菜","lon":"121.44352","lat":"31.21718","category":"76","category_name":"上海菜","address":"静安区华山路480号(近乌鲁木齐中路)"},{"poiid":"B2094757D168A0F44999","title":"华山医院特需门诊部","lon":"121.44334328","lat":"31.216674446","category":"162","category_name":"医院","address":"上海乌鲁木齐中路12号7F"},{"poiid":"B2094757D06FA3F54198","title":"The Living Room","lon":"121.443536152","lat":"31.2171960868","category":"65","category_name":"咖啡厅","address":"静安区华山路480号(近乌鲁木齐中路)"},{"poiid":"B2094757D16DA6F8429A","title":"华山医院6号楼","lon":"121.443753586","lat":"31.2167181668","category":"162","category_name":"医院","address":"上海市静安区延安西路"},{"poiid":"B2094757D068A4FD459C","title":"米盖尔·德·塞万提斯图书馆","lon":"121.443635131","lat":"31.214141725","category":"181","category_name":"图书馆","address":"徐汇区安福路208号(近乌鲁木齐中路)"},{"poiid":"B2094757D064ABFE489F","title":"1919Bistro","lon":"121.443473186","lat":"31.2168149686","category":"500","category_name":"未知分类","address":"上海乌鲁木齐中路1号"},{"poiid":"B2094757D06FAAFF439D","title":"Ogilvy &amp; Mather.奥美广告","lon":"121.44699","lat":"31.215356","category":"46","category_name":"楼宇","address":"上海徐汇区长乐路989号世纪商贸广场26楼"},{"poiid":"B2094654DB65A4FB449A","title":"复旦大学附属华山医院(北门)","lon":"121.44306","lat":"31.2169","category":"265","category_name":"知名企业","address":"华山路495"},{"poiid":"B2094757D06AABFD4398","title":"华山医院皮肤科普通门诊","lon":"121.443563474","lat":"31.2154032806","category":"162","category_name":"医院","address":"上海静安区乌鲁木齐中路12号3楼"},{"poiid":"B2094751D365A6FE429A","title":"2nd floor","lon":"121.447687","lat":"31.215626","category":"94","category_name":"西餐厅","address":"徐汇区长乐路810号2楼(近常熟路)"},{"poiid":"B2094654DB69A0FB419C","title":"静安宾馆中餐厅","lon":"121.44568894175","lat":"31.218200256688","category":"247","category_name":"餐饮美食","address":"静安区华山路370号静安宾馆内(近乌鲁木齐北路)查看地图"},{"poiid":"B2094757D06AA6F94198","title":"梦曼特西餐厅(长乐店)","lon":"121.44473","lat":"31.21504","category":"94","category_name":"西餐厅","address":"徐汇区乌鲁木齐路66-69号(长乐路口)"},{"poiid":"B2094654D564ABFC439D","title":"合记茶餐厅","lon":"121.44436668466","lat":"31.21697867495","category":"72","category_name":"广东菜","address":"静安区华山路445号(近乌鲁木齐中路)"},{"poiid":"B2094757D06FA3F44098","title":"W K Shanghai","lon":"121.444271","lat":"31.21532","category":"46","category_name":"楼宇","address":"上海长乐路1035号"},{"poiid":"B2094757D069A6FA439B","title":"汇贤居","lon":"121.44571","lat":"31.214794","category":"47","category_name":"住宅区","address":"徐汇区乌鲁木齐路长乐路"},{"poiid":"B2094757D06BAAF44498","title":"Urban Thai","lon":"121.4459","lat":"31.21568","category":"99","category_name":"泰国／越南菜品餐厅","address":"徐汇区长乐路938号(近乌鲁木齐中路)"},{"poiid":"B2094757D069A4FA429D","title":"华山医院住院部","lon":"121.443770586","lat":"31.2153391398","category":"162","category_name":"医院","address":"上海市静安区乌鲁木齐路"},{"poiid":"B2094757D069A7FD4898","title":"组合发型(华山路店)","lon":"121.44613","lat":"31.21746","category":"148","category_name":"美容美发店","address":"静安区华山路383号(近乌鲁木齐中路)"},{"poiid":"B2094757DB68A5FA4198","title":"申城五月天","lon":"121.44546747208","lat":"31.2181232847","category":"72","category_name":"广东菜","address":"静安区华山路370号静安宾馆新楼2楼(近乌鲁木齐路)"},{"poiid":"B2094757D068AAFE489F","title":"复兴西路","lon":"121.443012","lat":"31.208405","category":"46","category_name":"楼宇","address":"上海永福路"},{"poiid":"B2094654D564A4FA499C","title":"复旦大学附属华山医院","lon":"121.44319306307318","lat":"31.21677253879001","category":"162","category_name":"医院","address":"静安区乌鲁木齐中路12号"},{"poiid":"B2094750D464A7F5429D","title":"万岛日本料理铁板烧","lon":"121.444526","lat":"31.216455","category":"95","category_name":"日本料理","address":"静安区乌鲁木齐北路480号万泰国际5楼(近华山路)"},{"poiid":"B2094753D76FAAFA449C","title":"上海滩国泰旗舰店","lon":"121.466011","lat":"31.216125","category":"249","category_name":"购物服务","address":"淮海中路868号"},{"poiid":"B209475CD564A7F84292","title":"上海滩新天地店","lon":"121.47463","lat":"31.22164","category":"119","category_name":"商场","address":"\"太仓路181弄新天地北里15号\r\n\""},{"poiid":"B209475CD564A7F8439E","title":"上海滩中信泰富店","lon":"121.45602","lat":"31.22851","category":"119","category_name":"商场","address":"\"南京西路1168号中信泰富广场，店铺号221.\r\n\""},{"poiid":"B2094757D06EAAFA4599","title":"华山医院(总院)","lon":"121.4431931134992","lat":"31.21677113543664","category":"162","category_name":"医院","address":"静安区乌鲁木齐中路12号(华山路乌鲁木齐中路)"},{"poiid":"B2094654D564A4FF419E","title":"世纪商贸广场","lon":"121.44701","lat":"31.21528","category":"46","category_name":"楼宇","address":"上海市徐汇区长乐路989号（近常熟路）"},{"poiid":"B2094757D06FA3F44892","title":"上海宾馆","lon":"121.44421","lat":"31.21782","category":"214","category_name":"四星级宾馆","address":"上海静安区乌鲁木齐北路505号(近华山路)  "},{"poiid":"B2094757D06FA6FC429B","title":"La Strada","lon":"121.44373968","lat":"31.2139371011","category":"94","category_name":"西餐厅","address":"徐汇区安福路195号(近乌鲁木齐中路)"},{"poiid":"B2094655D265A1FC4292","title":"COSTA COFFEE(安福路店)","lon":"121.44395","lat":"31.21448","category":"65","category_name":"咖啡厅","address":"徐汇区安福路168号(近乌鲁木齐中路)"},{"poiid":"B2094757D06FA2FC419B","title":"Amokka Café","lon":"121.44438","lat":"31.21392","category":"94","category_name":"西餐厅","address":"徐汇区安福路201号(近乌鲁木齐中路)"},{"poiid":"B2094757D06EAAF8489A","title":"星巴克(世纪商贸店)","lon":"121.446549","lat":"31.215735","category":"260","category_name":"其他","address":"徐汇区长乐路989号世纪商贸广场1楼(近常熟路,安福路)"},{"poiid":"B2094757D16CA1FA439A","title":"Hilton Hotel Shanghai","lon":"121.447136586","lat":"31.2161231551","category":"500","category_name":"未知分类","address":"上海华山路"},{"poiid":"B2094757D068ABFE469A","title":"西班牙总领事馆文化处","lon":"121.443642","lat":"31.2140977094","category":"46","category_name":"楼宇","address":"上海徐汇区安福路208号"},{"poiid":"B2094757D069AAF5459F","title":"MiThai","lon":"121.44390816","lat":"31.21427788","category":"110","category_name":"其他亚洲菜","address":"徐汇区安福路195号2楼(近乌鲁木齐北路)"},{"poiid":"B2094757D06FA0F8489B","title":"Enoterra红酒吧(安福路店)","lon":"121.44748","lat":"31.2147","category":"260","category_name":"其他","address":"徐汇区安福路55号(近常熟路)"},{"poiid":"B2094757D06FA5FC4699","title":"越域秘制牛肉面(长乐路店)","lon":"121.443508","lat":"31.215165","category":"68","category_name":"快餐厅","address":"徐汇区长乐路1127号(近乌鲁木齐中路)"},{"poiid":"B2094757DB69A4FB499E","title":"荣日本料理 华山店","lon":"121.444941","lat":"31.217337","category":"95","category_name":"日本料理","address":"静安区华山路427号2楼(近乌鲁木齐中路)"},{"poiid":"B2094654D564A4FB449C","title":"上海歌剧院","lon":"121.44642206994058","lat":"31.216509748927887","category":"180","category_name":"剧场","address":"静安区常熟路100弄10号(近长乐路)"},{"poiid":"B2094750DB69A2FD489C","title":"上海话剧中心","lon":"121.443702","lat":"31.214429","category":"500","category_name":"未知分类","address":"安福路288号"},{"poiid":"B2094757D06FA3FA479D","title":"路飞堂（华山店）","lon":"121.44359","lat":"31.219215","category":"113","category_name":"冷饮店","address":"静安区乌鲁木齐北路429号(近延安西路)"},{"poiid":"B2094757D068A0FC449C","title":"JustGrapes(安福路店)","lon":"121.44505","lat":"31.21389","category":"94","category_name":"西餐厅","address":"徐汇区安福路162号(近乌鲁木齐中路)"},{"poiid":"B2094654DB65A1F84193","title":"Jamaica Blue(乌鲁木齐中路)","lon":"121.44477","lat":"31.21471","category":"260","category_name":"其他","address":"徐汇区乌鲁木齐中路82号(近长乐路)"},{"poiid":"B2094757D06FA1FB409E","title":"蜀地辣子鱼(安福店)","lon":"121.44467","lat":"31.21375","category":"71","category_name":"四川菜","address":"徐汇区安福路185-187号(近乌鲁木齐中路)"},{"poiid":"B2094654DB69A0FA459E","title":"红宝石(华山店)","lon":"121.4458","lat":"31.21781","category":"67","category_name":"甜品店","address":"静安区华山路375号(静安宾馆对面)"},{"poiid":"B2094757D06FA0FD469B","title":"湖南乡村风味(乌鲁木齐中路店)","lon":"121.44546","lat":"31.21341","category":"77","category_name":"湖南菜","address":"徐汇区乌鲁木齐中路168号(近安福路)"},{"poiid":"B2094757D16CA7F84793","title":"SetteBello","lon":"121.44418258","lat":"31.214072115","category":"94","category_name":"西餐厅","address":"徐汇区安福路193号(近乌鲁木齐路)"},{"poiid":"B2094757D16DA3FD469B","title":"荣居酒屋","lon":"121.44440478","lat":"31.218040692","category":"247","category_name":"餐饮美食","address":"上海华山路427号二楼"},{"poiid":"B2094757D068A1F84199","title":"渔人粤菜馆","lon":"121.447517","lat":"31.216825","category":"72","category_name":"广东菜","address":"静安区常熟路98号3楼(近长乐路)"},{"poiid":"B2094750D269A3FF4893","title":"Italian kitchen26","lon":"121.44738","lat":"31.215356","category":"94","category_name":"西餐厅","address":"徐汇区安福路23号(近常熟路)"},{"poiid":"B2094654D564A4F5419E","title":"原创私房菜","lon":"121.44352","lat":"31.21718","category":"76","category_name":"上海菜","address":"静安区华山路480号(近乌鲁木齐中路)"},{"poiid":"B2094757D168A0F44999","title":"华山医院特需门诊部","lon":"121.44334328","lat":"31.216674446","category":"162","category_name":"医院","address":"上海乌鲁木齐中路12号7F"},{"poiid":"B2094757D06FA3F54198","title":"The Living Room","lon":"121.443536152","lat":"31.2171960868","category":"65","category_name":"咖啡厅","address":"静安区华山路480号(近乌鲁木齐中路)"},{"poiid":"B2094757D16DA6F8429A","title":"华山医院6号楼","lon":"121.443753586","lat":"31.2167181668","category":"162","category_name":"医院","address":"上海市静安区延安西路"},{"poiid":"B2094757D068A4FD459C","title":"米盖尔·德·塞万提斯图书馆","lon":"121.443635131","lat":"31.214141725","category":"181","category_name":"图书馆","address":"徐汇区安福路208号(近乌鲁木齐中路)"},{"poiid":"B2094757D064ABFE489F","title":"1919Bistro","lon":"121.443473186","lat":"31.2168149686","category":"500","category_name":"未知分类","address":"上海乌鲁木齐中路1号"},{"poiid":"B2094757D06FAAFF439D","title":"Ogilvy &amp; Mather.奥美广告","lon":"121.44699","lat":"31.215356","category":"46","category_name":"楼宇","address":"上海徐汇区长乐路989号世纪商贸广场26楼"},{"poiid":"B2094654DB65A4FB449A","title":"复旦大学附属华山医院(北门)","lon":"121.44306","lat":"31.2169","category":"265","category_name":"知名企业","address":"华山路495"},{"poiid":"B2094757D06AABFD4398","title":"华山医院皮肤科普通门诊","lon":"121.443563474","lat":"31.2154032806","category":"162","category_name":"医院","address":"上海静安区乌鲁木齐中路12号3楼"},{"poiid":"B2094751D365A6FE429A","title":"2nd floor","lon":"121.447687","lat":"31.215626","category":"94","category_name":"西餐厅","address":"徐汇区长乐路810号2楼(近常熟路)"},{"poiid":"B2094654DB69A0FB419C","title":"静安宾馆中餐厅","lon":"121.44568894175","lat":"31.218200256688","category":"247","category_name":"餐饮美食","address":"静安区华山路370号静安宾馆内(近乌鲁木齐北路)查看地图"},{"poiid":"B2094757D06AA6F94198","title":"梦曼特西餐厅(长乐店)","lon":"121.44473","lat":"31.21504","category":"94","category_name":"西餐厅","address":"徐汇区乌鲁木齐路66-69号(长乐路口)"},{"poiid":"B2094654D564ABFC439D","title":"合记茶餐厅","lon":"121.44436668466","lat":"31.21697867495","category":"72","category_name":"广东菜","address":"静安区华山路445号(近乌鲁木齐中路)"},{"poiid":"B2094757D06FA3F44098","title":"W K Shanghai","lon":"121.444271","lat":"31.21532","category":"46","category_name":"楼宇","address":"上海长乐路1035号"},{"poiid":"B2094757D069A6FA439B","title":"汇贤居","lon":"121.44571","lat":"31.214794","category":"47","category_name":"住宅区","address":"徐汇区乌鲁木齐路长乐路"},{"poiid":"B2094757D06BAAF44498","title":"Urban Thai","lon":"121.4459","lat":"31.21568","category":"99","category_name":"泰国／越南菜品餐厅","address":"徐汇区长乐路938号(近乌鲁木齐中路)"},{"poiid":"B2094757D069A4FA429D","title":"华山医院住院部","lon":"121.443770586","lat":"31.2153391398","category":"162","category_name":"医院","address":"上海市静安区乌鲁木齐路"},{"poiid":"B2094757D069A7FD4898","title":"组合发型(华山路店)","lon":"121.44613","lat":"31.21746","category":"148","category_name":"美容美发店","address":"静安区华山路383号(近乌鲁木齐中路)"},{"poiid":"B2094757DB68A5FA4198","title":"申城五月天","lon":"121.44546747208","lat":"31.2181232847","category":"72","category_name":"广东菜","address":"静安区华山路370号静安宾馆新楼2楼(近乌鲁木齐路)"},{"poiid":"B2094757D068AAFE489F","title":"复兴西路","lon":"121.443012","lat":"31.208405","category":"46","category_name":"楼宇","address":"上海永福路"},{"poiid":"B2094654D564A4FA499C","title":"复旦大学附属华山医院","lon":"121.44319306307318","lat":"31.21677253879001","category":"162","category_name":"医院","address":"静安区乌鲁木齐中路12号"},{"poiid":"B2094750D464A7F5429D","title":"万岛日本料理铁板烧","lon":"121.444526","lat":"31.216455","category":"95","category_name":"日本料理","address":"静安区乌鲁木齐北路480号万泰国际5楼(近华山路)"},{"poiid":"B2094753D76FAAFA449C","title":"上海滩国泰旗舰店","lon":"121.466011","lat":"31.216125","category":"249","category_name":"购物服务","address":"淮海中路868号"},{"poiid":"B209475CD564A7F84292","title":"上海滩新天地店","lon":"121.47463","lat":"31.22164","category":"119","category_name":"商场","address":"\"太仓路181弄新天地北里15号\r\n\""},{"poiid":"B209475CD564A7F8439E","title":"上海滩中信泰富店","lon":"121.45602","lat":"31.22851","category":"119","category_name":"商场","address":"\"南京西路1168号中信泰富广场，店铺号221.\r\n\""},{"poiid":"B2094757D06EAAFA4599","title":"华山医院(总院)","lon":"121.4431931134992","lat":"31.21677113543664","category":"162","category_name":"医院","address":"静安区乌鲁木齐中路12号(华山路乌鲁木齐中路)"},{"poiid":"B2094654D564A4FF419E","title":"世纪商贸广场","lon":"121.44701","lat":"31.21528","category":"46","category_name":"楼宇","address":"上海市徐汇区长乐路989号（近常熟路）"},{"poiid":"B2094757D06FA3F44892","title":"上海宾馆","lon":"121.44421","lat":"31.21782","category":"214","category_name":"四星级宾馆","address":"上海静安区乌鲁木齐北路505号(近华山路)  "},{"poiid":"B2094757D06FA6FC429B","title":"La Strada","lon":"121.44373968","lat":"31.2139371011","category":"94","category_name":"西餐厅","address":"徐汇区安福路195号(近乌鲁木齐中路)"},{"poiid":"B2094655D265A1FC4292","title":"COSTA COFFEE(安福路店)","lon":"121.44395","lat":"31.21448","category":"65","category_name":"咖啡厅","address":"徐汇区安福路168号(近乌鲁木齐中路)"},{"poiid":"B2094757D06FA2FC419B","title":"Amokka Café","lon":"121.44438","lat":"31.21392","category":"94","category_name":"西餐厅","address":"徐汇区安福路201号(近乌鲁木齐中路)"},{"poiid":"B2094757D06EAAF8489A","title":"星巴克(世纪商贸店)","lon":"121.446549","lat":"31.215735","category":"260","category_name":"其他","address":"徐汇区长乐路989号世纪商贸广场1楼(近常熟路,安福路)"},{"poiid":"B2094757D16CA1FA439A","title":"Hilton Hotel Shanghai","lon":"121.447136586","lat":"31.2161231551","category":"500","category_name":"未知分类","address":"上海华山路"},{"poiid":"B2094757D068ABFE469A","title":"西班牙总领事馆文化处","lon":"121.443642","lat":"31.2140977094","category":"46","category_name":"楼宇","address":"上海徐汇区安福路208号"},{"poiid":"B2094757D069AAF5459F","title":"MiThai","lon":"121.44390816","lat":"31.21427788","category":"110","category_name":"其他亚洲菜","address":"徐汇区安福路195号2楼(近乌鲁木齐北路)"},{"poiid":"B2094757D06FA0F8489B","title":"Enoterra红酒吧(安福路店)","lon":"121.44748","lat":"31.2147","category":"260","category_name":"其他","address":"徐汇区安福路55号(近常熟路)"},{"poiid":"B2094757D06FA5FC4699","title":"越域秘制牛肉面(长乐路店)","lon":"121.443508","lat":"31.215165","category":"68","category_name":"快餐厅","address":"徐汇区长乐路1127号(近乌鲁木齐中路)"},{"poiid":"B2094757DB69A4FB499E","title":"荣日本料理 华山店","lon":"121.444941","lat":"31.217337","category":"95","category_name":"日本料理","address":"静安区华山路427号2楼(近乌鲁木齐中路)"},{"poiid":"B2094654D564A4FB449C","title":"上海歌剧院","lon":"121.44642206994058","lat":"31.216509748927887","category":"180","category_name":"剧场","address":"静安区常熟路100弄10号(近长乐路)"},{"poiid":"B2094750DB69A2FD489C","title":"上海话剧中心","lon":"121.443702","lat":"31.214429","category":"500","category_name":"未知分类","address":"安福路288号"},{"poiid":"B2094757D06FA3FA479D","title":"路飞堂（华山店）","lon":"121.44359","lat":"31.219215","category":"113","category_name":"冷饮店","address":"静安区乌鲁木齐北路429号(近延安西路)"},{"poiid":"B2094757D068A0FC449C","title":"JustGrapes(安福路店)","lon":"121.44505","lat":"31.21389","category":"94","category_name":"西餐厅","address":"徐汇区安福路162号(近乌鲁木齐中路)"},{"poiid":"B2094654DB65A1F84193","title":"Jamaica Blue(乌鲁木齐中路)","lon":"121.44477","lat":"31.21471","category":"260","category_name":"其他","address":"徐汇区乌鲁木齐中路82号(近长乐路)"},{"poiid":"B2094757D06FA1FB409E","title":"蜀地辣子鱼(安福店)","lon":"121.44467","lat":"31.21375","category":"71","category_name":"四川菜","address":"徐汇区安福路185-187号(近乌鲁木齐中路)"},{"poiid":"B2094654DB69A0FA459E","title":"红宝石(华山店)","lon":"121.4458","lat":"31.21781","category":"67","category_name":"甜品店","address":"静安区华山路375号(静安宾馆对面)"},{"poiid":"B2094757D06FA0FD469B","title":"湖南乡村风味(乌鲁木齐中路店)","lon":"121.44546","lat":"31.21341","category":"77","category_name":"湖南菜","address":"徐汇区乌鲁木齐中路168号(近安福路)"},{"poiid":"B2094757D16CA7F84793","title":"SetteBello","lon":"121.44418258","lat":"31.214072115","category":"94","category_name":"西餐厅","address":"徐汇区安福路193号(近乌鲁木齐路)"},{"poiid":"B2094757D16DA3FD469B","title":"荣居酒屋","lon":"121.44440478","lat":"31.218040692","category":"247","category_name":"餐饮美食","address":"上海华山路427号二楼"},{"poiid":"B2094757D068A1F84199","title":"渔人粤菜馆","lon":"121.447517","lat":"31.216825","category":"72","category_name":"广东菜","address":"静安区常熟路98号3楼(近长乐路)"},{"poiid":"B2094750D269A3FF4893","title":"Italian kitchen26","lon":"121.44738","lat":"31.215356","category":"94","category_name":"西餐厅","address":"徐汇区安福路23号(近常熟路)"},{"poiid":"B2094654D564A4F5419E","title":"原创私房菜","lon":"121.44352","lat":"31.21718","category":"76","category_name":"上海菜","address":"静安区华山路480号(近乌鲁木齐中路)"},{"poiid":"B2094757D168A0F44999","title":"华山医院特需门诊部","lon":"121.44334328","lat":"31.216674446","category":"162","category_name":"医院","address":"上海乌鲁木齐中路12号7F"},{"poiid":"B2094757D06FA3F54198","title":"The Living Room","lon":"121.443536152","lat":"31.2171960868","category":"65","category_name":"咖啡厅","address":"静安区华山路480号(近乌鲁木齐中路)"},{"poiid":"B2094757D16DA6F8429A","title":"华山医院6号楼","lon":"121.443753586","lat":"31.2167181668","category":"162","category_name":"医院","address":"上海市静安区延安西路"},{"poiid":"B2094757D068A4FD459C","title":"米盖尔·德·塞万提斯图书馆","lon":"121.443635131","lat":"31.214141725","category":"181","category_name":"图书馆","address":"徐汇区安福路208号(近乌鲁木齐中路)"},{"poiid":"B2094757D064ABFE489F","title":"1919Bistro","lon":"121.443473186","lat":"31.2168149686","category":"500","category_name":"未知分类","address":"上海乌鲁木齐中路1号"},{"poiid":"B2094757D06FAAFF439D","title":"Ogilvy &amp; Mather.奥美广告","lon":"121.44699","lat":"31.215356","category":"46","category_name":"楼宇","address":"上海徐汇区长乐路989号世纪商贸广场26楼"},{"poiid":"B2094654DB65A4FB449A","title":"复旦大学附属华山医院(北门)","lon":"121.44306","lat":"31.2169","category":"265","category_name":"知名企业","address":"华山路495"},{"poiid":"B2094757D06AABFD4398","title":"华山医院皮肤科普通门诊","lon":"121.443563474","lat":"31.2154032806","category":"162","category_name":"医院","address":"上海静安区乌鲁木齐中路12号3楼"},{"poiid":"B2094751D365A6FE429A","title":"2nd floor","lon":"121.447687","lat":"31.215626","category":"94","category_name":"西餐厅","address":"徐汇区长乐路810号2楼(近常熟路)"},{"poiid":"B2094654DB69A0FB419C","title":"静安宾馆中餐厅","lon":"121.44568894175","lat":"31.218200256688","category":"247","category_name":"餐饮美食","address":"静安区华山路370号静安宾馆内(近乌鲁木齐北路)查看地图"},{"poiid":"B2094757D06AA6F94198","title":"梦曼特西餐厅(长乐店)","lon":"121.44473","lat":"31.21504","category":"94","category_name":"西餐厅","address":"徐汇区乌鲁木齐路66-69号(长乐路口)"},{"poiid":"B2094654D564ABFC439D","title":"合记茶餐厅","lon":"121.44436668466","lat":"31.21697867495","category":"72","category_name":"广东菜","address":"静安区华山路445号(近乌鲁木齐中路)"},{"poiid":"B2094757D06FA3F44098","title":"W K Shanghai","lon":"121.444271","lat":"31.21532","category":"46","category_name":"楼宇","address":"上海长乐路1035号"},{"poiid":"B2094757D069A6FA439B","title":"汇贤居","lon":"121.44571","lat":"31.214794","category":"47","category_name":"住宅区","address":"徐汇区乌鲁木齐路长乐路"},{"poiid":"B2094757D06BAAF44498","title":"Urban Thai","lon":"121.4459","lat":"31.21568","category":"99","category_name":"泰国／越南菜品餐厅","address":"徐汇区长乐路938号(近乌鲁木齐中路)"},{"poiid":"B2094757D069A4FA429D","title":"华山医院住院部","lon":"121.443770586","lat":"31.2153391398","category":"162","category_name":"医院","address":"上海市静安区乌鲁木齐路"},{"poiid":"B2094757D069A7FD4898","title":"组合发型(华山路店)","lon":"121.44613","lat":"31.21746","category":"148","category_name":"美容美发店","address":"静安区华山路383号(近乌鲁木齐中路)"},{"poiid":"B2094757DB68A5FA4198","title":"申城五月天","lon":"121.44546747208","lat":"31.2181232847","category":"72","category_name":"广东菜","address":"静安区华山路370号静安宾馆新楼2楼(近乌鲁木齐路)"}]