[{"poiid":"B2094757D06EAAFA419E","title":"Mo-Mo牧场 Mo-Mo-Paradise","lon":"121.4577","lat":"31.22077","category":"268","category_name":"自助","address":"卢湾区陕西南路35号红房子2楼(近长乐路)"},{"poiid":"B2094757DA64A5FB4893","title":"打望重庆火锅","lon":"121.45697","lat":"31.22139","category":"86","category_name":"火锅店","address":"卢湾区陕西南路90号3楼(近巨鹿路)"},{"poiid":"B2094757D06FA1FA419B","title":"福记港式茶粥面","lon":"121.45690546","lat":"31.222352362","category":"72","category_name":"广东菜","address":"卢湾区陕西南路11号(近巨鹿路)"},{"poiid":"B2094753D76FAAFA449C","title":"上海滩国泰旗舰店","lon":"121.466011","lat":"31.216125","category":"249","category_name":"购物服务","address":"淮海中路868号"},{"poiid":"B209475CD564A7F84292","title":"上海滩新天地店","lon":"121.47463","lat":"31.22164","category":"119","category_name":"商场","address":"\"太仓路181弄新天地北里15号\r\n\""},{"poiid":"B209475CD564A7F8439E","title":"上海滩中信泰富店","lon":"121.45602","lat":"31.22851","category":"119","category_name":"商场","address":"\"南京西路1168号中信泰富广场，店铺号221.\r\n\""},{"poiid":"B2094654D564ABF5429B","title":"上海市第一妇婴保健院门诊部","lon":"121.45657","lat":"31.22004","category":"162","category_name":"医院","address":"上海徐汇区长乐路536号(近襄阳北路)"},{"poiid":"B2094655D26EAAFB499B","title":"CITIZEN CAFE & BAR","lon":"121.45869704223","lat":"31.220626397075","category":"247","category_name":"餐饮美食","address":"卢湾区进贤路222号(近陕西南路)"},{"poiid":"B2094654DB64A6F9459E","title":"星巴克(红房子店)","lon":"121.457575","lat":"31.220503","category":"65","category_name":"咖啡厅","address":"卢湾区陕西南路37号1-3楼(近长乐路)"},{"poiid":"B2094757D465A4F9439F","title":"PIER39号码头","lon":"121.458225054","lat":"31.220526793","category":"247","category_name":"餐饮美食","address":"进贤路172号近陕西南路"},{"poiid":"B2094654D564AAFF4792","title":"海金滋酒家","lon":"121.4573759075","lat":"31.221076151613","category":"257","category_name":"中餐厅","address":"卢湾区进贤路240号(近陕西南路)"},{"poiid":"B2094757D06FA4FC4292","title":"HARA海纳创作怀石料理","lon":"121.45766785","lat":"31.22077119","category":"95","category_name":"日本料理","address":"卢湾区陕西南路35号雅克红房子5楼(近进贤路)"},{"poiid":"B2094757D06FA2FB479C","title":"一哥肥牛火锅海鲜酒家(陕西南路店)","lon":"121.45741","lat":"31.22059","category":"86","category_name":"火锅店","address":"上海卢湾区陕西南路122号2楼(近进贤路)  "},{"poiid":"B2094655D26FA3FD419A","title":"億方砂锅粥(陕西南路店)","lon":"121.45704","lat":"31.22121","category":"72","category_name":"广东菜","address":"卢湾区陕西南路90号(近巨鹿路)"},{"poiid":"B2094757D06FA0FB409D","title":"Cafe La Mer(玛赫咖啡)","lon":"121.45616054","lat":"31.221554178","category":"65","category_name":"咖啡厅","address":"上海静安区巨鹿路677号(近陕西南路)"},{"poiid":"B2094757DB68A7FE489D","title":"上海市第一妇婴保健院","lon":"121.45662","lat":"31.22003","category":"68","category_name":"快餐厅","address":"徐汇区长乐路536号(近襄阳北路)"},{"poiid":"B2094757D06FA6F94492","title":"Osteria","lon":"121.45836","lat":"31.22104","category":"94","category_name":"西餐厅","address":"卢湾区进贤路226号(近陕西南路)"},{"poiid":"B2094757D16EA3FC459B","title":"Bellissimo","lon":"121.458933538","lat":"31.2205624941","category":"94","category_name":"西餐厅","address":"卢湾区长乐路434弄7号1-3楼"},{"poiid":"B2094757D06FABF8459F","title":"Maison Pourcel","lon":"121.458155","lat":"31.220484","category":"94","category_name":"西餐厅","address":"卢湾区陕西南路35号6,8楼(近长乐路)"},{"poiid":"B2094750D66CABFE4592","title":"兰心大剧院","lon":"121.45774","lat":"31.219259","category":"248","category_name":"生活娱乐","address":"茂名南路57号"},{"poiid":"B2094757D06FAAFA459A","title":"城市酒店","lon":"121.45726927","lat":"31.222721847","category":"217","category_name":"旅馆招待所","address":"卢湾区陕西南路5-7号(近巨鹿路)"},{"poiid":"B2094752D06CA0FE4793","title":"海面馆","lon":"121.4565","lat":"31.219706","category":"247","category_name":"餐饮美食","address":"长乐路333号"},{"poiid":"B2094757D06FA5F84393","title":"东瀛国际造型(淮海路店)","lon":"121.45769292","lat":"31.222248609","category":"148","category_name":"美容美发店","address":"卢湾区巨鹿路423号(近地铁1号线陕西南路站)"},{"poiid":"B2094757D068A7FB459A","title":"Maya Mexican Restaurant","lon":"121.45522308","lat":"31.221933364","category":"500","category_name":"未知分类","address":"上海巨鹿路568号 四方新城俱樂部2樓"},{"poiid":"B2094757D06AA3FF4398","title":"高峰美式牛排馆","lon":"121.457064694","lat":"31.2226914554","category":"94","category_name":"西餐厅","address":"卢湾区陕西南路5-7号城市酒店5楼(近巨鹿路)"},{"poiid":"B2094655D26EABFF449F","title":"红房子法国餐厅","lon":"121.45700161625","lat":"31.220376111781","category":"97","category_name":"法式菜品餐厅","address":"陕西南路35号红房子楼房6-8楼近长乐路"},{"poiid":"B2094750DA6AAAFA4893","title":"意大利saicaf索卡妃臻品咖啡","lon":"121.457397","lat":"31.22088","category":"247","category_name":"餐饮美食","address":"上海市陕西南路35号"},{"poiid":"B2094757D66BA3FD4993","title":"Masse","lon":"121.457856","lat":"31.221176","category":"94","category_name":"西餐厅","address":"卢湾区进贤路219号5-6楼(近陕西南路)"},{"poiid":"B2094757D069A5FA489A","title":"Sugar","lon":"121.45750573","lat":"31.220635095","category":"260","category_name":"其他","address":"卢湾区陕西南路35号6楼(近长乐路)"},{"poiid":"B2094757D06EAAFD4892","title":"微薄之盐—12th-day House","lon":"121.4562828","lat":"31.2217012","category":"67","category_name":"甜品店","address":"静安区巨鹿路516弄5号(近陕西南路)"},{"poiid":"B2094655D264A0F5439F","title":"上海市第一妇婴保健院贵宾门诊","lon":"121.45587","lat":"31.21997","category":"162","category_name":"医院","address":"长乐路560"},{"poiid":"B2094757D069A1FC4098","title":"玫瑰公主咖啡吧","lon":"121.456348427","lat":"31.2228919607","category":"260","category_name":"其他","address":"卢湾区陕西南路30号马勒别墅花园内(近延安中路)"},{"poiid":"B2094757D56EA2FB469A","title":"Le Vin","lon":"121.45787000656128","lat":"31.22141716161553","category":"260","category_name":"其他","address":"卢湾区进贤路224号"},{"poiid":"B209475CD76EA1F94298","title":"吃完咸的吃点甜的","lon":"121.456405","lat":"31.221799","category":"247","category_name":"餐饮美食","address":"上海市 长乐路620号"},{"poiid":"B209475DD669A2FA499B","title":"馆子House198","lon":"121.458572","lat":"31.221391","category":"247","category_name":"餐饮美食","address":"上海市 卢湾区进贤路198号"},{"poiid":"B2094654DB6AA3FE4298","title":"衡山马勒别墅中餐厅","lon":"121.4563","lat":"31.22289","category":"76","category_name":"上海菜","address":"上海市静安区陕西南路30号马勒别墅饭店1号楼1楼和2楼(近延安中路)"},{"poiid":"B2094655D26FABFF429A","title":"Garden Books","lon":"121.4574","lat":"31.21998","category":"65","category_name":"咖啡厅","address":"长乐路325"},{"poiid":"B2094757D064A6FE479B","title":"味里日本料理","lon":"121.45764","lat":"31.22078","category":"95","category_name":"日本料理","address":"卢湾区陕西南路5-7号城市酒店6楼(近巨鹿路)"},{"poiid":"B2094757D068A1FF4293","title":"鸡大牌 陕西南路店","lon":"121.457501","lat":"31.220225","category":"68","category_name":"快餐厅","address":"卢湾区陕西南路162号"},{"poiid":"B2094757DA6FA2FC459A","title":"Lasedia(陕西南路店)","lon":"121.457498500001","lat":"31.2206229","category":"94","category_name":"西餐厅","address":"卢湾区陕西南路148号(近长乐路)"},{"poiid":"B2094750D76DABFD499A","title":"DEREFTER比利时餐厅啤酒吧","lon":"121.459","lat":"31.2214","category":"269","category_name":"烧烤","address":"进贤路181号(近茂名南路)"},{"poiid":"B2094757D068ABFC4192","title":"Wine &amp; Tapas","lon":"121.456431081","lat":"31.2197908079","category":"94","category_name":"西餐厅","address":"上海徐汇区长乐路333号(近陕西南路)"},{"poiid":"B2094757D06FABF5419C","title":"韬奋西文书局","lon":"121.45547361","lat":"31.219961281","category":"125","category_name":"书店","address":"上海卢湾区长乐路325号(近陕西南路)"},{"poiid":"B2094752D46AA6FD419B","title":"MOMO牧场","lon":"121.457352","lat":"31.220779","category":"247","category_name":"餐饮美食","address":null},{"poiid":"B2094757D064A0FA449C","title":"上海市作家协会","lon":"121.45642852","lat":"31.221380233","category":"500","category_name":"未知分类","address":"上海市静安区巨鹿路675号"},{"poiid":"B2094757D068A6F4409D","title":"丰裕生煎(陕西南路店)","lon":"121.45699214","lat":"31.221262239","category":"257","category_name":"中餐厅","address":"卢湾区陕西南路281号(近绍兴路)"},{"poiid":"B2094753D36DA1FA4398","title":"平纳谷碳火牛排馆","lon":"121.457012","lat":"31.222848","category":"94","category_name":"西餐厅","address":"陕西南路5-7号城市酒店5楼"},{"poiid":"B2094752D46CA3F54893","title":"吉米记车仔面","lon":"121.457565","lat":"31.220595","category":"247","category_name":"餐饮美食","address":null},{"poiid":"B2094757D16FA4FD4892","title":"Maya 玛雅","lon":"121.45645483","lat":"31.221630316","category":"500","category_name":"未知分类","address":"上海巨鹿路568弄四方新城俱乐部2楼(近襄阳北路)/62896889"},{"poiid":"B2094750D76EA1FA489A","title":"襄阳壹号","lon":"121.455","lat":"31.2207","category":"76","category_name":"上海菜","address":"静安区襄阳北路1号(近巨鹿路)"},{"poiid":"B2094757D06EAAFA419E","title":"Mo-Mo牧场 Mo-Mo-Paradise","lon":"121.4577","lat":"31.22077","category":"268","category_name":"自助","address":"卢湾区陕西南路35号红房子2楼(近长乐路)"},{"poiid":"B2094757DA64A5FB4893","title":"打望重庆火锅","lon":"121.45697","lat":"31.22139","category":"86","category_name":"火锅店","address":"卢湾区陕西南路90号3楼(近巨鹿路)"},{"poiid":"B2094757D06FA1FA419B","title":"福记港式茶粥面","lon":"121.45690546","lat":"31.222352362","category":"72","category_name":"广东菜","address":"卢湾区陕西南路11号(近巨鹿路)"},{"poiid":"B2094753D76FAAFA449C","title":"上海滩国泰旗舰店","lon":"121.466011","lat":"31.216125","category":"249","category_name":"购物服务","address":"淮海中路868号"},{"poiid":"B209475CD564A7F84292","title":"上海滩新天地店","lon":"121.47463","lat":"31.22164","category":"119","category_name":"商场","address":"\"太仓路181弄新天地北里15号\r\n\""},{"poiid":"B209475CD564A7F8439E","title":"上海滩中信泰富店","lon":"121.45602","lat":"31.22851","category":"119","category_name":"商场","address":"\"南京西路1168号中信泰富广场，店铺号221.\r\n\""},{"poiid":"B2094654D564ABF5429B","title":"上海市第一妇婴保健院门诊部","lon":"121.45657","lat":"31.22004","category":"162","category_name":"医院","address":"上海徐汇区长乐路536号(近襄阳北路)"},{"poiid":"B2094655D26EAAFB499B","title":"CITIZEN CAFE & BAR","lon":"121.45869704223","lat":"31.220626397075","category":"247","category_name":"餐饮美食","address":"卢湾区进贤路222号(近陕西南路)"},{"poiid":"B2094654DB64A6F9459E","title":"星巴克(红房子店)","lon":"121.457575","lat":"31.220503","category":"65","category_name":"咖啡厅","address":"卢湾区陕西南路37号1-3楼(近长乐路)"},{"poiid":"B2094757D465A4F9439F","title":"PIER39号码头","lon":"121.458225054","lat":"31.220526793","category":"247","category_name":"餐饮美食","address":"进贤路172号近陕西南路"},{"poiid":"B2094654D564AAFF4792","title":"海金滋酒家","lon":"121.4573759075","lat":"31.221076151613","category":"257","category_name":"中餐厅","address":"卢湾区进贤路240号(近陕西南路)"},{"poiid":"B2094757D06FA4FC4292","title":"HARA海纳创作怀石料理","lon":"121.45766785","lat":"31.22077119","category":"95","category_name":"日本料理","address":"卢湾区陕西南路35号雅克红房子5楼(近进贤路)"},{"poiid":"B2094757D06FA2FB479C","title":"一哥肥牛火锅海鲜酒家(陕西南路店)","lon":"121.45741","lat":"31.22059","category":"86","category_name":"火锅店","address":"上海卢湾区陕西南路122号2楼(近进贤路)  "},{"poiid":"B2094655D26FA3FD419A","title":"億方砂锅粥(陕西南路店)","lon":"121.45704","lat":"31.22121","category":"72","category_name":"广东菜","address":"卢湾区陕西南路90号(近巨鹿路)"},{"poiid":"B2094757D06FA0FB409D","title":"Cafe La Mer(玛赫咖啡)","lon":"121.45616054","lat":"31.221554178","category":"65","category_name":"咖啡厅","address":"上海静安区巨鹿路677号(近陕西南路)"},{"poiid":"B2094757DB68A7FE489D","title":"上海市第一妇婴保健院","lon":"121.45662","lat":"31.22003","category":"68","category_name":"快餐厅","address":"徐汇区长乐路536号(近襄阳北路)"},{"poiid":"B2094757D06FA6F94492","title":"Osteria","lon":"121.45836","lat":"31.22104","category":"94","category_name":"西餐厅","address":"卢湾区进贤路226号(近陕西南路)"},{"poiid":"B2094757D16EA3FC459B","title":"Bellissimo","lon":"121.458933538","lat":"31.2205624941","category":"94","category_name":"西餐厅","address":"卢湾区长乐路434弄7号1-3楼"},{"poiid":"B2094757D06FABF8459F","title":"Maison Pourcel","lon":"121.458155","lat":"31.220484","category":"94","category_name":"西餐厅","address":"卢湾区陕西南路35号6,8楼(近长乐路)"},{"poiid":"B2094750D66CABFE4592","title":"兰心大剧院","lon":"121.45774","lat":"31.219259","category":"248","category_name":"生活娱乐","address":"茂名南路57号"},{"poiid":"B2094757D06FAAFA459A","title":"城市酒店","lon":"121.45726927","lat":"31.222721847","category":"217","category_name":"旅馆招待所","address":"卢湾区陕西南路5-7号(近巨鹿路)"},{"poiid":"B2094752D06CA0FE4793","title":"海面馆","lon":"121.4565","lat":"31.219706","category":"247","category_name":"餐饮美食","address":"长乐路333号"},{"poiid":"B2094757D06FA5F84393","title":"东瀛国际造型(淮海路店)","lon":"121.45769292","lat":"31.222248609","category":"148","category_name":"美容美发店","address":"卢湾区巨鹿路423号(近地铁1号线陕西南路站)"},{"poiid":"B2094757D068A7FB459A","title":"Maya Mexican Restaurant","lon":"121.45522308","lat":"31.221933364","category":"500","category_name":"未知分类","address":"上海巨鹿路568号 四方新城俱樂部2樓"},{"poiid":"B2094757D06AA3FF4398","title":"高峰美式牛排馆","lon":"121.457064694","lat":"31.2226914554","category":"94","category_name":"西餐厅","address":"卢湾区陕西南路5-7号城市酒店5楼(近巨鹿路)"},{"poiid":"B2094655D26EABFF449F","title":"红房子法国餐厅","lon":"121.45700161625","lat":"31.220376111781","category":"97","category_name":"法式菜品餐厅","address":"陕西南路35号红房子楼房6-8楼近长乐路"},{"poiid":"B2094750DA6AAAFA4893","title":"意大利saicaf索卡妃臻品咖啡","lon":"121.457397","lat":"31.22088","category":"247","category_name":"餐饮美食","address":"上海市陕西南路35号"},{"poiid":"B2094757D66BA3FD4993","title":"Masse","lon":"121.457856","lat":"31.221176","category":"94","category_name":"西餐厅","address":"卢湾区进贤路219号5-6楼(近陕西南路)"},{"poiid":"B2094757D069A5FA489A","title":"Sugar","lon":"121.45750573","lat":"31.220635095","category":"260","category_name":"其他","address":"卢湾区陕西南路35号6楼(近长乐路)"},{"poiid":"B2094757D06EAAFD4892","title":"微薄之盐—12th-day House","lon":"121.4562828","lat":"31.2217012","category":"67","category_name":"甜品店","address":"静安区巨鹿路516弄5号(近陕西南路)"},{"poiid":"B2094655D264A0F5439F","title":"上海市第一妇婴保健院贵宾门诊","lon":"121.45587","lat":"31.21997","category":"162","category_name":"医院","address":"长乐路560"},{"poiid":"B2094757D069A1FC4098","title":"玫瑰公主咖啡吧","lon":"121.456348427","lat":"31.2228919607","category":"260","category_name":"其他","address":"卢湾区陕西南路30号马勒别墅花园内(近延安中路)"},{"poiid":"B2094757D56EA2FB469A","title":"Le Vin","lon":"121.45787000656128","lat":"31.22141716161553","category":"260","category_name":"其他","address":"卢湾区进贤路224号"},{"poiid":"B209475CD76EA1F94298","title":"吃完咸的吃点甜的","lon":"121.456405","lat":"31.221799","category":"247","category_name":"餐饮美食","address":"上海市 长乐路620号"},{"poiid":"B209475DD669A2FA499B","title":"馆子House198","lon":"121.458572","lat":"31.221391","category":"247","category_name":"餐饮美食","address":"上海市 卢湾区进贤路198号"},{"poiid":"B2094654DB6AA3FE4298","title":"衡山马勒别墅中餐厅","lon":"121.4563","lat":"31.22289","category":"76","category_name":"上海菜","address":"上海市静安区陕西南路30号马勒别墅饭店1号楼1楼和2楼(近延安中路)"},{"poiid":"B2094655D26FABFF429A","title":"Garden Books","lon":"121.4574","lat":"31.21998","category":"65","category_name":"咖啡厅","address":"长乐路325"},{"poiid":"B2094757D064A6FE479B","title":"味里日本料理","lon":"121.45764","lat":"31.22078","category":"95","category_name":"日本料理","address":"卢湾区陕西南路5-7号城市酒店6楼(近巨鹿路)"},{"poiid":"B2094757D068A1FF4293","title":"鸡大牌 陕西南路店","lon":"121.457501","lat":"31.220225","category":"68","category_name":"快餐厅","address":"卢湾区陕西南路162号"},{"poiid":"B2094757DA6FA2FC459A","title":"Lasedia(陕西南路店)","lon":"121.457498500001","lat":"31.2206229","category":"94","category_name":"西餐厅","address":"卢湾区陕西南路148号(近长乐路)"},{"poiid":"B2094750D76DABFD499A","title":"DEREFTER比利时餐厅啤酒吧","lon":"121.459","lat":"31.2214","category":"269","category_name":"烧烤","address":"进贤路181号(近茂名南路)"},{"poiid":"B2094757D068ABFC4192","title":"Wine &amp; Tapas","lon":"121.456431081","lat":"31.2197908079","category":"94","category_name":"西餐厅","address":"上海徐汇区长乐路333号(近陕西南路)"},{"poiid":"B2094757D06FABF5419C","title":"韬奋西文书局","lon":"121.45547361","lat":"31.219961281","category":"125","category_name":"书店","address":"上海卢湾区长乐路325号(近陕西南路)"},{"poiid":"B2094752D46AA6FD419B","title":"MOMO牧场","lon":"121.457352","lat":"31.220779","category":"247","category_name":"餐饮美食","address":null},{"poiid":"B2094757D064A0FA449C","title":"上海市作家协会","lon":"121.45642852","lat":"31.221380233","category":"500","category_name":"未知分类","address":"上海市静安区巨鹿路675号"},{"poiid":"B2094757D068A6F4409D","title":"丰裕生煎(陕西南路店)","lon":"121.45699214","lat":"31.221262239","category":"257","category_name":"中餐厅","address":"卢湾区陕西南路281号(近绍兴路)"},{"poiid":"B2094753D36DA1FA4398","title":"平纳谷碳火牛排馆","lon":"121.457012","lat":"31.222848","category":"94","category_name":"西餐厅","address":"陕西南路5-7号城市酒店5楼"},{"poiid":"B2094752D46CA3F54893","title":"吉米记车仔面","lon":"121.457565","lat":"31.220595","category":"247","category_name":"餐饮美食","address":null},{"poiid":"B2094757D16FA4FD4892","title":"Maya 玛雅","lon":"121.45645483","lat":"31.221630316","category":"500","category_name":"未知分类","address":"上海巨鹿路568弄四方新城俱乐部2楼(近襄阳北路)/62896889"},{"poiid":"B2094750D76EA1FA489A","title":"襄阳壹号","lon":"121.455","lat":"31.2207","category":"76","category_name":"上海菜","address":"静安区襄阳北路1号(近巨鹿路)"},{"poiid":"B2094757D06EAAFA419E","title":"Mo-Mo牧场 Mo-Mo-Paradise","lon":"121.4577","lat":"31.22077","category":"268","category_name":"自助","address":"卢湾区陕西南路35号红房子2楼(近长乐路)"},{"poiid":"B2094757DA64A5FB4893","title":"打望重庆火锅","lon":"121.45697","lat":"31.22139","category":"86","category_name":"火锅店","address":"卢湾区陕西南路90号3楼(近巨鹿路)"},{"poiid":"B2094757D06FA1FA419B","title":"福记港式茶粥面","lon":"121.45690546","lat":"31.222352362","category":"72","category_name":"广东菜","address":"卢湾区陕西南路11号(近巨鹿路)"},{"poiid":"B2094753D76FAAFA449C","title":"上海滩国泰旗舰店","lon":"121.466011","lat":"31.216125","category":"249","category_name":"购物服务","address":"淮海中路868号"},{"poiid":"B209475CD564A7F84292","title":"上海滩新天地店","lon":"121.47463","lat":"31.22164","category":"119","category_name":"商场","address":"\"太仓路181弄新天地北里15号\r\n\""},{"poiid":"B209475CD564A7F8439E","title":"上海滩中信泰富店","lon":"121.45602","lat":"31.22851","category":"119","category_name":"商场","address":"\"南京西路1168号中信泰富广场，店铺号221.\r\n\""},{"poiid":"B2094654D564ABF5429B","title":"上海市第一妇婴保健院门诊部","lon":"121.45657","lat":"31.22004","category":"162","category_name":"医院","address":"上海徐汇区长乐路536号(近襄阳北路)"},{"poiid":"B2094655D26EAAFB499B","title":"CITIZEN CAFE & BAR","lon":"121.45869704223","lat":"31.220626397075","category":"247","category_name":"餐饮美食","address":"卢湾区进贤路222号(近陕西南路)"},{"poiid":"B2094654DB64A6F9459E","title":"星巴克(红房子店)","lon":"121.457575","lat":"31.220503","category":"65","category_name":"咖啡厅","address":"卢湾区陕西南路37号1-3楼(近长乐路)"},{"poiid":"B2094757D465A4F9439F","title":"PIER39号码头","lon":"121.458225054","lat":"31.220526793","category":"247","category_name":"餐饮美食","address":"进贤路172号近陕西南路"},{"poiid":"B2094654D564AAFF4792","title":"海金滋酒家","lon":"121.4573759075","lat":"31.221076151613","category":"257","category_name":"中餐厅","address":"卢湾区进贤路240号(近陕西南路)"},{"poiid":"B2094757D06FA4FC4292","title":"HARA海纳创作怀石料理","lon":"121.45766785","lat":"31.22077119","category":"95","category_name":"日本料理","address":"卢湾区陕西南路35号雅克红房子5楼(近进贤路)"},{"poiid":"B2094757D06FA2FB479C","title":"一哥肥牛火锅海鲜酒家(陕西南路店)","lon":"121.45741","lat":"31.22059","category":"86","category_name":"火锅店","address":"上海卢湾区陕西南路122号2楼(近进贤路)  "},{"poiid":"B2094655D26FA3FD419A","title":"億方砂锅粥(陕西南路店)","lon":"121.45704","lat":"31.22121","category":"72","category_name":"广东菜","address":"卢湾区陕西南路90号(近巨鹿路)"},{"poiid":"B2094757D06FA0FB409D","title":"Cafe La Mer(玛赫咖啡)","lon":"121.45616054","lat":"31.221554178","category":"65","category_name":"咖啡厅","address":"上海静安区巨鹿路677号(近陕西南路)"},{"poiid":"B2094757DB68A7FE489D","title":"上海市第一妇婴保健院","lon":"121.45662","lat":"31.22003","category":"68","category_name":"快餐厅","address":"徐汇区长乐路536号(近襄阳北路)"},{"poiid":"B2094757D06FA6F94492","title":"Osteria","lon":"121.45836","lat":"31.22104","category":"94","category_name":"西餐厅","address":"卢湾区进贤路226号(近陕西南路)"},{"poiid":"B2094757D16EA3FC459B","title":"Bellissimo","lon":"121.458933538","lat":"31.2205624941","category":"94","category_name":"西餐厅","address":"卢湾区长乐路434弄7号1-3楼"},{"poiid":"B2094757D06FABF8459F","title":"Maison Pourcel","lon":"121.458155","lat":"31.220484","category":"94","category_name":"西餐厅","address":"卢湾区陕西南路35号6,8楼(近长乐路)"},{"poiid":"B2094750D66CABFE4592","title":"兰心大剧院","lon":"121.45774","lat":"31.219259","category":"248","category_name":"生活娱乐","address":"茂名南路57号"},{"poiid":"B2094757D06FAAFA459A","title":"城市酒店","lon":"121.45726927","lat":"31.222721847","category":"217","category_name":"旅馆招待所","address":"卢湾区陕西南路5-7号(近巨鹿路)"},{"poiid":"B2094752D06CA0FE4793","title":"海面馆","lon":"121.4565","lat":"31.219706","category":"247","category_name":"餐饮美食","address":"长乐路333号"},{"poiid":"B2094757D06FA5F84393","title":"东瀛国际造型(淮海路店)","lon":"121.45769292","lat":"31.222248609","category":"148","category_name":"美容美发店","address":"卢湾区巨鹿路423号(近地铁1号线陕西南路站)"},{"poiid":"B2094757D068A7FB459A","title":"Maya Mexican Restaurant","lon":"121.45522308","lat":"31.221933364","category":"500","category_name":"未知分类","address":"上海巨鹿路568号 四方新城俱樂部2樓"},{"poiid":"B2094757D06AA3FF4398","title":"高峰美式牛排馆","lon":"121.457064694","lat":"31.2226914554","category":"94","category_name":"西餐厅","address":"卢湾区陕西南路5-7号城市酒店5楼(近巨鹿路)"},{"poiid":"B2094655D26EABFF449F","title":"红房子法国餐厅","lon":"121.45700161625","lat":"31.220376111781","category":"97","category_name":"法式菜品餐厅","address":"陕西南路35号红房子楼房6-8楼近长乐路"},{"poiid":"B2094750DA6AAAFA4893","title":"意大利saicaf索卡妃臻品咖啡","lon":"121.457397","lat":"31.22088","category":"247","category_name":"餐饮美食","address":"上海市陕西南路35号"},{"poiid":"B2094757D66BA3FD4993","title":"Masse","lon":"121.457856","lat":"31.221176","category":"94","category_name":"西餐厅","address":"卢湾区进贤路219号5-6楼(近陕西南路)"},{"poiid":"B2094757D069A5FA489A","title":"Sugar","lon":"121.45750573","lat":"31.220635095","category":"260","category_name":"其他","address":"卢湾区陕西南路35号6楼(近长乐路)"},{"poiid":"B2094757D06EAAFD4892","title":"微薄之盐—12th-day House","lon":"121.4562828","lat":"31.2217012","category":"67","category_name":"甜品店","address":"静安区巨鹿路516弄5号(近陕西南路)"},{"poiid":"B2094655D264A0F5439F","title":"上海市第一妇婴保健院贵宾门诊","lon":"121.45587","lat":"31.21997","category":"162","category_name":"医院","address":"长乐路560"},{"poiid":"B2094757D069A1FC4098","title":"玫瑰公主咖啡吧","lon":"121.456348427","lat":"31.2228919607","category":"260","category_name":"其他","address":"卢湾区陕西南路30号马勒别墅花园内(近延安中路)"},{"poiid":"B2094757D56EA2FB469A","title":"Le Vin","lon":"121.45787000656128","lat":"31.22141716161553","category":"260","category_name":"其他","address":"卢湾区进贤路224号"},{"poiid":"B209475CD76EA1F94298","title":"吃完咸的吃点甜的","lon":"121.456405","lat":"31.221799","category":"247","category_name":"餐饮美食","address":"上海市 长乐路620号"},{"poiid":"B209475DD669A2FA499B","title":"馆子House198","lon":"121.458572","lat":"31.221391","category":"247","category_name":"餐饮美食","address":"上海市 卢湾区进贤路198号"},{"poiid":"B2094654DB6AA3FE4298","title":"衡山马勒别墅中餐厅","lon":"121.4563","lat":"31.22289","category":"76","category_name":"上海菜","address":"上海市静安区陕西南路30号马勒别墅饭店1号楼1楼和2楼(近延安中路)"},{"poiid":"B2094655D26FABFF429A","title":"Garden Books","lon":"121.4574","lat":"31.21998","category":"65","category_name":"咖啡厅","address":"长乐路325"},{"poiid":"B2094757D064A6FE479B","title":"味里日本料理","lon":"121.45764","lat":"31.22078","category":"95","category_name":"日本料理","address":"卢湾区陕西南路5-7号城市酒店6楼(近巨鹿路)"},{"poiid":"B2094757D068A1FF4293","title":"鸡大牌 陕西南路店","lon":"121.457501","lat":"31.220225","category":"68","category_name":"快餐厅","address":"卢湾区陕西南路162号"},{"poiid":"B2094757DA6FA2FC459A","title":"Lasedia(陕西南路店)","lon":"121.457498500001","lat":"31.2206229","category":"94","category_name":"西餐厅","address":"卢湾区陕西南路148号(近长乐路)"},{"poiid":"B2094750D76DABFD499A","title":"DEREFTER比利时餐厅啤酒吧","lon":"121.459","lat":"31.2214","category":"269","category_name":"烧烤","address":"进贤路181号(近茂名南路)"},{"poiid":"B2094757D068ABFC4192","title":"Wine &amp; Tapas","lon":"121.456431081","lat":"31.2197908079","category":"94","category_name":"西餐厅","address":"上海徐汇区长乐路333号(近陕西南路)"},{"poiid":"B2094757D06FABF5419C","title":"韬奋西文书局","lon":"121.45547361","lat":"31.219961281","category":"125","category_name":"书店","address":"上海卢湾区长乐路325号(近陕西南路)"},{"poiid":"B2094752D46AA6FD419B","title":"MOMO牧场","lon":"121.457352","lat":"31.220779","category":"247","category_name":"餐饮美食","address":null},{"poiid":"B2094757D064A0FA449C","title":"上海市作家协会","lon":"121.45642852","lat":"31.221380233","category":"500","category_name":"未知分类","address":"上海市静安区巨鹿路675号"},{"poiid":"B2094757D068A6F4409D","title":"丰裕生煎(陕西南路店)","lon":"121.45699214","lat":"31.221262239","category":"257","category_name":"中餐厅","address":"卢湾区陕西南路281号(近绍兴路)"},{"poiid":"B2094753D36DA1FA4398","title":"平纳谷碳火牛排馆","lon":"121.457012","lat":"31.222848","category":"94","category_name":"西餐厅","address":"陕西南路5-7号城市酒店5楼"},{"poiid":"B2094752D46CA3F54893","title":"吉米记车仔面","lon":"121.457565","lat":"31.220595","category":"247","category_name":"餐饮美食","address":null},{"poiid":"B2094757D16FA4FD4892","title":"Maya 玛雅","lon":"121.45645483","lat":"31.221630316","category":"500","category_name":"未知分类","address":"上海巨鹿路568弄四方新城俱乐部2楼(近襄阳北路)/62896889"},{"poiid":"B2094750D76EA1FA489A","title":"襄阳壹号","lon":"121.455","lat":"31.2207","category":"76","category_name":"上海菜","address":"静安区襄阳北路1号(近巨鹿路)"},{"poiid":"B2094757D06EAAFA419E","title":"Mo-Mo牧场 Mo-Mo-Paradise","lon":"121.4577","lat":"31.22077","category":"268","category_name":"自助","address":"卢湾区陕西南路35号红房子2楼(近长乐路)"},{"poiid":"B2094757DA64A5FB4893","title":"打望重庆火锅","lon":"121.45697","lat":"31.22139","category":"86","category_name":"火锅店","address":"卢湾区陕西南路90号3楼(近巨鹿路)"},{"poiid":"B2094757D06FA1FA419B","title":"福记港式茶粥面","lon":"121.45690546","lat":"31.222352362","category":"72","category_name":"广东菜","address":"卢湾区陕西南路11号(近巨鹿路)"},{"poiid":"B2094753D76FAAFA449C","title":"上海滩国泰旗舰店","lon":"121.466011","lat":"31.216125","category":"249","category_name":"购物服务","address":"淮海中路868号"},{"poiid":"B209475CD564A7F84292","title":"上海滩新天地店","lon":"121.47463","lat":"31.22164","category":"119","category_name":"商场","address":"\"太仓路181弄新天地北里15号\r\n\""},{"poiid":"B209475CD564A7F8439E","title":"上海滩中信泰富店","lon":"121.45602","lat":"31.22851","category":"119","category_name":"商场","address":"\"南京西路1168号中信泰富广场，店铺号221.\r\n\""},{"poiid":"B2094654D564ABF5429B","title":"上海市第一妇婴保健院门诊部","lon":"121.45657","lat":"31.22004","category":"162","category_name":"医院","address":"上海徐汇区长乐路536号(近襄阳北路)"},{"poiid":"B2094655D26EAAFB499B","title":"CITIZEN CAFE & BAR","lon":"121.45869704223","lat":"31.220626397075","category":"247","category_name":"餐饮美食","address":"卢湾区进贤路222号(近陕西南路)"},{"poiid":"B2094654DB64A6F9459E","title":"星巴克(红房子店)","lon":"121.457575","lat":"31.220503","category":"65","category_name":"咖啡厅","address":"卢湾区陕西南路37号1-3楼(近长乐路)"},{"poiid":"B2094757D465A4F9439F","title":"PIER39号码头","lon":"121.458225054","lat":"31.220526793","category":"247","category_name":"餐饮美食","address":"进贤路172号近陕西南路"},{"poiid":"B2094654D564AAFF4792","title":"海金滋酒家","lon":"121.4573759075","lat":"31.221076151613","category":"257","category_name":"中餐厅","address":"卢湾区进贤路240号(近陕西南路)"},{"poiid":"B2094757D06FA4FC4292","title":"HARA海纳创作怀石料理","lon":"121.45766785","lat":"31.22077119","category":"95","category_name":"日本料理","address":"卢湾区陕西南路35号雅克红房子5楼(近进贤路)"},{"poiid":"B2094757D06FA2FB479C","title":"一哥肥牛火锅海鲜酒家(陕西南路店)","lon":"121.45741","lat":"31.22059","category":"86","category_name":"火锅店","address":"上海卢湾区陕西南路122号2楼(近进贤路)  "},{"poiid":"B2094655D26FA3FD419A","title":"億方砂锅粥(陕西南路店)","lon":"121.45704","lat":"31.22121","category":"72","category_name":"广东菜","address":"卢湾区陕西南路90号(近巨鹿路)"},{"poiid":"B2094757D06FA0FB409D","title":"Cafe La Mer(玛赫咖啡)","lon":"121.45616054","lat":"31.221554178","category":"65","category_name":"咖啡厅","address":"上海静安区巨鹿路677号(近陕西南路)"},{"poiid":"B2094757DB68A7FE489D","title":"上海市第一妇婴保健院","lon":"121.45662","lat":"31.22003","category":"68","category_name":"快餐厅","address":"徐汇区长乐路536号(近襄阳北路)"},{"poiid":"B2094757D06FA6F94492","title":"Osteria","lon":"121.45836","lat":"31.22104","category":"94","category_name":"西餐厅","address":"卢湾区进贤路226号(近陕西南路)"},{"poiid":"B2094757D16EA3FC459B","title":"Bellissimo","lon":"121.458933538","lat":"31.2205624941","category":"94","category_name":"西餐厅","address":"卢湾区长乐路434弄7号1-3楼"},{"poiid":"B2094757D06FABF8459F","title":"Maison Pourcel","lon":"121.458155","lat":"31.220484","category":"94","category_name":"西餐厅","address":"卢湾区陕西南路35号6,8楼(近长乐路)"},{"poiid":"B2094750D66CABFE4592","title":"兰心大剧院","lon":"121.45774","lat":"31.219259","category":"248","category_name":"生活娱乐","address":"茂名南路57号"},{"poiid":"B2094757D06FAAFA459A","title":"城市酒店","lon":"121.45726927","lat":"31.222721847","category":"217","category_name":"旅馆招待所","address":"卢湾区陕西南路5-7号(近巨鹿路)"},{"poiid":"B2094752D06CA0FE4793","title":"海面馆","lon":"121.4565","lat":"31.219706","category":"247","category_name":"餐饮美食","address":"长乐路333号"},{"poiid":"B2094757D06FA5F84393","title":"东瀛国际造型(淮海路店)","lon":"121.45769292","lat":"31.222248609","category":"148","category_name":"美容美发店","address":"卢湾区巨鹿路423号(近地铁1号线陕西南路站)"},{"poiid":"B2094757D068A7FB459A","title":"Maya Mexican Restaurant","lon":"121.45522308","lat":"31.221933364","category":"500","category_name":"未知分类","address":"上海巨鹿路568号 四方新城俱樂部2樓"},{"poiid":"B2094757D06AA3FF4398","title":"高峰美式牛排馆","lon":"121.457064694","lat":"31.2226914554","category":"94","category_name":"西餐厅","address":"卢湾区陕西南路5-7号城市酒店5楼(近巨鹿路)"},{"poiid":"B2094655D26EABFF449F","title":"红房子法国餐厅","lon":"121.45700161625","lat":"31.220376111781","category":"97","category_name":"法式菜品餐厅","address":"陕西南路35号红房子楼房6-8楼近长乐路"},{"poiid":"B2094750DA6AAAFA4893","title":"意大利saicaf索卡妃臻品咖啡","lon":"121.457397","lat":"31.22088","category":"247","category_name":"餐饮美食","address":"上海市陕西南路35号"},{"poiid":"B2094757D66BA3FD4993","title":"Masse","lon":"121.457856","lat":"31.221176","category":"94","category_name":"西餐厅","address":"卢湾区进贤路219号5-6楼(近陕西南路)"},{"poiid":"B2094757D069A5FA489A","title":"Sugar","lon":"121.45750573","lat":"31.220635095","category":"260","category_name":"其他","address":"卢湾区陕西南路35号6楼(近长乐路)"},{"poiid":"B2094757D06EAAFD4892","title":"微薄之盐—12th-day House","lon":"121.4562828","lat":"31.2217012","category":"67","category_name":"甜品店","address":"静安区巨鹿路516弄5号(近陕西南路)"},{"poiid":"B2094655D264A0F5439F","title":"上海市第一妇婴保健院贵宾门诊","lon":"121.45587","lat":"31.21997","category":"162","category_name":"医院","address":"长乐路560"},{"poiid":"B2094757D069A1FC4098","title":"玫瑰公主咖啡吧","lon":"121.456348427","lat":"31.2228919607","category":"260","category_name":"其他","address":"卢湾区陕西南路30号马勒别墅花园内(近延安中路)"},{"poiid":"B2094757D56EA2FB469A","title":"Le Vin","lon":"121.45787000656128","lat":"31.22141716161553","category":"260","category_name":"其他","address":"卢湾区进贤路224号"},{"poiid":"B209475CD76EA1F94298","title":"吃完咸的吃点甜的","lon":"121.456405","lat":"31.221799","category":"247","category_name":"餐饮美食","address":"上海市 长乐路620号"},{"poiid":"B209475DD669A2FA499B","title":"馆子House198","lon":"121.458572","lat":"31.221391","category":"247","category_name":"餐饮美食","address":"上海市 卢湾区进贤路198号"},{"poiid":"B2094654DB6AA3FE4298","title":"衡山马勒别墅中餐厅","lon":"121.4563","lat":"31.22289","category":"76","category_name":"上海菜","address":"上海市静安区陕西南路30号马勒别墅饭店1号楼1楼和2楼(近延安中路)"},{"poiid":"B2094655D26FABFF429A","title":"Garden Books","lon":"121.4574","lat":"31.21998","category":"65","category_name":"咖啡厅","address":"长乐路325"},{"poiid":"B2094757D064A6FE479B","title":"味里日本料理","lon":"121.45764","lat":"31.22078","category":"95","category_name":"日本料理","address":"卢湾区陕西南路5-7号城市酒店6楼(近巨鹿路)"},{"poiid":"B2094757D068A1FF4293","title":"鸡大牌 陕西南路店","lon":"121.457501","lat":"31.220225","category":"68","category_name":"快餐厅","address":"卢湾区陕西南路162号"},{"poiid":"B2094757DA6FA2FC459A","title":"Lasedia(陕西南路店)","lon":"121.457498500001","lat":"31.2206229","category":"94","category_name":"西餐厅","address":"卢湾区陕西南路148号(近长乐路)"},{"poiid":"B2094750D76DABFD499A","title":"DEREFTER比利时餐厅啤酒吧","lon":"121.459","lat":"31.2214","category":"269","category_name":"烧烤","address":"进贤路181号(近茂名南路)"},{"poiid":"B2094757D068ABFC4192","title":"Wine &amp; Tapas","lon":"121.456431081","lat":"31.2197908079","category":"94","category_name":"西餐厅","address":"上海徐汇区长乐路333号(近陕西南路)"},{"poiid":"B2094757D06FABF5419C","title":"韬奋西文书局","lon":"121.45547361","lat":"31.219961281","category":"125","category_name":"书店","address":"上海卢湾区长乐路325号(近陕西南路)"},{"poiid":"B2094752D46AA6FD419B","title":"MOMO牧场","lon":"121.457352","lat":"31.220779","category":"247","category_name":"餐饮美食","address":null},{"poiid":"B2094757D064A0FA449C","title":"上海市作家协会","lon":"121.45642852","lat":"31.221380233","category":"500","category_name":"未知分类","address":"上海市静安区巨鹿路675号"},{"poiid":"B2094757D068A6F4409D","title":"丰裕生煎(陕西南路店)","lon":"121.45699214","lat":"31.221262239","category":"257","category_name":"中餐厅","address":"卢湾区陕西南路281号(近绍兴路)"},{"poiid":"B2094753D36DA1FA4398","title":"平纳谷碳火牛排馆","lon":"121.457012","lat":"31.222848","category":"94","category_name":"西餐厅","address":"陕西南路5-7号城市酒店5楼"},{"poiid":"B2094752D46CA3F54893","title":"吉米记车仔面","lon":"121.457565","lat":"31.220595","category":"247","category_name":"餐饮美食","address":null},{"poiid":"B2094757D16FA4FD4892","title":"Maya 玛雅","lon":"121.45645483","lat":"31.221630316","category":"500","category_name":"未知分类","address":"上海巨鹿路568弄四方新城俱乐部2楼(近襄阳北路)/62896889"},{"poiid":"B2094750D76EA1FA489A","title":"襄阳壹号","lon":"121.455","lat":"31.2207","category":"76","category_name":"上海菜","address":"静安区襄阳北路1号(近巨鹿路)"},{"poiid":"B2094757D06EAAFA419E","title":"Mo-Mo牧场 Mo-Mo-Paradise","lon":"121.4577","lat":"31.22077","category":"268","category_name":"自助","address":"卢湾区陕西南路35号红房子2楼(近长乐路)"},{"poiid":"B2094757DA64A5FB4893","title":"打望重庆火锅","lon":"121.45697","lat":"31.22139","category":"86","category_name":"火锅店","address":"卢湾区陕西南路90号3楼(近巨鹿路)"},{"poiid":"B2094757D06FA1FA419B","title":"福记港式茶粥面","lon":"121.45690546","lat":"31.222352362","category":"72","category_name":"广东菜","address":"卢湾区陕西南路11号(近巨鹿路)"},{"poiid":"B2094753D76FAAFA449C","title":"上海滩国泰旗舰店","lon":"121.466011","lat":"31.216125","category":"249","category_name":"购物服务","address":"淮海中路868号"},{"poiid":"B209475CD564A7F84292","title":"上海滩新天地店","lon":"121.47463","lat":"31.22164","category":"119","category_name":"商场","address":"\"太仓路181弄新天地北里15号\r\n\""},{"poiid":"B209475CD564A7F8439E","title":"上海滩中信泰富店","lon":"121.45602","lat":"31.22851","category":"119","category_name":"商场","address":"\"南京西路1168号中信泰富广场，店铺号221.\r\n\""},{"poiid":"B2094654D564ABF5429B","title":"上海市第一妇婴保健院门诊部","lon":"121.45657","lat":"31.22004","category":"162","category_name":"医院","address":"上海徐汇区长乐路536号(近襄阳北路)"},{"poiid":"B2094655D26EAAFB499B","title":"CITIZEN CAFE & BAR","lon":"121.45869704223","lat":"31.220626397075","category":"247","category_name":"餐饮美食","address":"卢湾区进贤路222号(近陕西南路)"},{"poiid":"B2094654DB64A6F9459E","title":"星巴克(红房子店)","lon":"121.457575","lat":"31.220503","category":"65","category_name":"咖啡厅","address":"卢湾区陕西南路37号1-3楼(近长乐路)"},{"poiid":"B2094757D465A4F9439F","title":"PIER39号码头","lon":"121.458225054","lat":"31.220526793","category":"247","category_name":"餐饮美食","address":"进贤路172号近陕西南路"},{"poiid":"B2094654D564AAFF4792","title":"海金滋酒家","lon":"121.4573759075","lat":"31.221076151613","category":"257","category_name":"中餐厅","address":"卢湾区进贤路240号(近陕西南路)"},{"poiid":"B2094757D06FA4FC4292","title":"HARA海纳创作怀石料理","lon":"121.45766785","lat":"31.22077119","category":"95","category_name":"日本料理","address":"卢湾区陕西南路35号雅克红房子5楼(近进贤路)"},{"poiid":"B2094757D06FA2FB479C","title":"一哥肥牛火锅海鲜酒家(陕西南路店)","lon":"121.45741","lat":"31.22059","category":"86","category_name":"火锅店","address":"上海卢湾区陕西南路122号2楼(近进贤路)  "},{"poiid":"B2094655D26FA3FD419A","title":"億方砂锅粥(陕西南路店)","lon":"121.45704","lat":"31.22121","category":"72","category_name":"广东菜","address":"卢湾区陕西南路90号(近巨鹿路)"},{"poiid":"B2094757D06FA0FB409D","title":"Cafe La Mer(玛赫咖啡)","lon":"121.45616054","lat":"31.221554178","category":"65","category_name":"咖啡厅","address":"上海静安区巨鹿路677号(近陕西南路)"},{"poiid":"B2094757DB68A7FE489D","title":"上海市第一妇婴保健院","lon":"121.45662","lat":"31.22003","category":"68","category_name":"快餐厅","address":"徐汇区长乐路536号(近襄阳北路)"},{"poiid":"B2094757D06FA6F94492","title":"Osteria","lon":"121.45836","lat":"31.22104","category":"94","category_name":"西餐厅","address":"卢湾区进贤路226号(近陕西南路)"},{"poiid":"B2094757D16EA3FC459B","title":"Bellissimo","lon":"121.458933538","lat":"31.2205624941","category":"94","category_name":"西餐厅","address":"卢湾区长乐路434弄7号1-3楼"},{"poiid":"B2094757D06FABF8459F","title":"Maison Pourcel","lon":"121.458155","lat":"31.220484","category":"94","category_name":"西餐厅","address":"卢湾区陕西南路35号6,8楼(近长乐路)"},{"poiid":"B2094750D66CABFE4592","title":"兰心大剧院","lon":"121.45774","lat":"31.219259","category":"248","category_name":"生活娱乐","address":"茂名南路57号"},{"poiid":"B2094757D06FAAFA459A","title":"城市酒店","lon":"121.45726927","lat":"31.222721847","category":"217","category_name":"旅馆招待所","address":"卢湾区陕西南路5-7号(近巨鹿路)"},{"poiid":"B2094752D06CA0FE4793","title":"海面馆","lon":"121.4565","lat":"31.219706","category":"247","category_name":"餐饮美食","address":"长乐路333号"},{"poiid":"B2094757D06FA5F84393","title":"东瀛国际造型(淮海路店)","lon":"121.45769292","lat":"31.222248609","category":"148","category_name":"美容美发店","address":"卢湾区巨鹿路423号(近地铁1号线陕西南路站)"},{"poiid":"B2094757D068A7FB459A","title":"Maya Mexican Restaurant","lon":"121.45522308","lat":"31.221933364","category":"500","category_name":"未知分类","address":"上海巨鹿路568号 四方新城俱樂部2樓"},{"poiid":"B2094757D06AA3FF4398","title":"高峰美式牛排馆","lon":"121.457064694","lat":"31.2226914554","category":"94","category_name":"西餐厅","address":"卢湾区陕西南路5-7号城市酒店5楼(近巨鹿路)"},{"poiid":"B2094655D26EABFF449F","title":"红房子法国餐厅","lon":"121.45700161625","lat":"31.220376111781","category":"97","category_name":"法式菜品餐厅","address":"陕西南路35号红房子楼房6-8楼近长乐路"},{"poiid":"B2094750DA6AAAFA4893","title":"意大利saicaf索卡妃臻品咖啡","lon":"121.457397","lat":"31.22088","category":"247","category_name":"餐饮美食","address":"上海市陕西南路35号"},{"poiid":"B2094757D66BA3FD4993","title":"Masse","lon":"121.457856","lat":"31.221176","category":"94","category_name":"西餐厅","address":"卢湾区进贤路219号5-6楼(近陕西南路)"},{"poiid":"B2094757D069A5FA489A","title":"Sugar","lon":"121.45750573","lat":"31.220635095","category":"260","category_name":"其他","address":"卢湾区陕西南路35号6楼(近长乐路)"},{"poiid":"B2094757D06EAAFD4892","title":"微薄之盐—12th-day House","lon":"121.4562828","lat":"31.2217012","category":"67","category_name":"甜品店","address":"静安区巨鹿路516弄5号(近陕西南路)"},{"poiid":"B2094655D264A0F5439F","title":"上海市第一妇婴保健院贵宾门诊","lon":"121.45587","lat":"31.21997","category":"162","category_name":"医院","address":"长乐路560"},{"poiid":"B2094757D069A1FC4098","title":"玫瑰公主咖啡吧","lon":"121.456348427","lat":"31.2228919607","category":"260","category_name":"其他","address":"卢湾区陕西南路30号马勒别墅花园内(近延安中路)"},{"poiid":"B2094757D56EA2FB469A","title":"Le Vin","lon":"121.45787000656128","lat":"31.22141716161553","category":"260","category_name":"其他","address":"卢湾区进贤路224号"},{"poiid":"B209475CD76EA1F94298","title":"吃完咸的吃点甜的","lon":"121.456405","lat":"31.221799","category":"247","category_name":"餐饮美食","address":"上海市 长乐路620号"},{"poiid":"B209475DD669A2FA499B","title":"馆子House198","lon":"121.458572","lat":"31.221391","category":"247","category_name":"餐饮美食","address":"上海市 卢湾区进贤路198号"},{"poiid":"B2094654DB6AA3FE4298","title":"衡山马勒别墅中餐厅","lon":"121.4563","lat":"31.22289","category":"76","category_name":"上海菜","address":"上海市静安区陕西南路30号马勒别墅饭店1号楼1楼和2楼(近延安中路)"},{"poiid":"B2094655D26FABFF429A","title":"Garden Books","lon":"121.4574","lat":"31.21998","category":"65","category_name":"咖啡厅","address":"长乐路325"},{"poiid":"B2094757D064A6FE479B","title":"味里日本料理","lon":"121.45764","lat":"31.22078","category":"95","category_name":"日本料理","address":"卢湾区陕西南路5-7号城市酒店6楼(近巨鹿路)"},{"poiid":"B2094757D068A1FF4293","title":"鸡大牌 陕西南路店","lon":"121.457501","lat":"31.220225","category":"68","category_name":"快餐厅","address":"卢湾区陕西南路162号"},{"poiid":"B2094757DA6FA2FC459A","title":"Lasedia(陕西南路店)","lon":"121.457498500001","lat":"31.2206229","category":"94","category_name":"西餐厅","address":"卢湾区陕西南路148号(近长乐路)"},{"poiid":"B2094750D76DABFD499A","title":"DEREFTER比利时餐厅啤酒吧","lon":"121.459","lat":"31.2214","category":"269","category_name":"烧烤","address":"进贤路181号(近茂名南路)"},{"poiid":"B2094757D068ABFC4192","title":"Wine &amp; Tapas","lon":"121.456431081","lat":"31.2197908079","category":"94","category_name":"西餐厅","address":"上海徐汇区长乐路333号(近陕西南路)"},{"poiid":"B2094757D06FABF5419C","title":"韬奋西文书局","lon":"121.45547361","lat":"31.219961281","category":"125","category_name":"书店","address":"上海卢湾区长乐路325号(近陕西南路)"},{"poiid":"B2094752D46AA6FD419B","title":"MOMO牧场","lon":"121.457352","lat":"31.220779","category":"247","category_name":"餐饮美食","address":null},{"poiid":"B2094757D064A0FA449C","title":"上海市作家协会","lon":"121.45642852","lat":"31.221380233","category":"500","category_name":"未知分类","address":"上海市静安区巨鹿路675号"},{"poiid":"B2094757D068A6F4409D","title":"丰裕生煎(陕西南路店)","lon":"121.45699214","lat":"31.221262239","category":"257","category_name":"中餐厅","address":"卢湾区陕西南路281号(近绍兴路)"},{"poiid":"B2094753D36DA1FA4398","title":"平纳谷碳火牛排馆","lon":"121.457012","lat":"31.222848","category":"94","category_name":"西餐厅","address":"陕西南路5-7号城市酒店5楼"},{"poiid":"B2094752D46CA3F54893","title":"吉米记车仔面","lon":"121.457565","lat":"31.220595","category":"247","category_name":"餐饮美食","address":null},{"poiid":"B2094757D16FA4FD4892","title":"Maya 玛雅","lon":"121.45645483","lat":"31.221630316","category":"500","category_name":"未知分类","address":"上海巨鹿路568弄四方新城俱乐部2楼(近襄阳北路)/62896889"},{"poiid":"B2094750D76EA1FA489A","title":"襄阳壹号","lon":"121.455","lat":"31.2207","category":"76","category_name":"上海菜","address":"静安区襄阳北路1号(近巨鹿路)"}]