[{"poiid":"B2094757D06FAAFE4893","title":"园林格兰云天大酒店","lon":"121.4535392463","lat":"31.150066281662","category":"217","category_name":"旅馆招待所","address":"徐汇区百色路100号(近上海植物园)"},{"poiid":"B2094757D06FA1FE439D","title":"滨江小区","lon":"121.45765","lat":"31.152988","category":"47","category_name":"住宅区","address":"上海天钥桥南路1199弄"},{"poiid":"B2094757D16DA7F8409A","title":"黄石路","lon":"121.451271","lat":"31.156926","category":"500","category_name":"未知分类","address":"上海黄石路169弄"},{"poiid":"B2094654DA65ABFF469E","title":"龙南三、四村","lon":"121.45609","lat":"31.15479","category":"47","category_name":"住宅区","address":"天钥桥南路4号-98号"},{"poiid":"B2094654DB69A4FD499E","title":"锦江之星(铁路南站店)","lon":"121.44915","lat":"31.15936","category":"216","category_name":"经济型连锁酒店","address":"上海市徐汇区龙吴路488号(靠近石龙路口)"},{"poiid":"B2094757D068A7FC429A","title":"龙南七村","lon":"121.45296","lat":"31.158821","category":"500","category_name":"未知分类","address":"上海龙吴路黄石路龙南七村"},{"poiid":"B2094757D069A5FA419C","title":"龙苑中学","lon":"121.454249","lat":"31.157455","category":"55","category_name":"中学","address":"上海黄石路85号"},{"poiid":"B2094654DA65ABF84192","title":"绿邑新苑","lon":"121.452817","lat":"31.153755","category":"47","category_name":"住宅区","address":"徐汇龙水南路391-399号"},{"poiid":"B2094757D069A0FC449F","title":"马自达4S店","lon":"121.45342254","lat":"31.157957077","category":"500","category_name":"未知分类","address":"上海龙吴路420号"},{"poiid":"B2094757D068A4FD4298","title":"龙吴路龙水南路","lon":"121.447162286","lat":"31.155482737","category":"500","category_name":"未知分类","address":"上海龙吴路龙水南路"},{"poiid":"B2094757D06AA7F9439C","title":"扬州饭店(徐汇店)","lon":"121.45213","lat":"31.15415","category":"74","category_name":"江苏菜","address":"徐汇区喜泰北路10号(黄石路龙水南路间)"},{"poiid":"B2094654DA65ABFF419E","title":"黄石饭店","lon":"121.45031","lat":"31.15706","category":"76","category_name":"上海菜","address":"徐汇区龙吴路555弄黄石宾馆2楼(黄石路龙吴路)"},{"poiid":"B2094757D465ABFB469C","title":"皖K烤鱼","lon":"121.451677","lat":"31.157272","category":"71","category_name":"四川菜","address":"徐汇区黄石路27号(近龙吴路)"},{"poiid":"B2094654DA65A6FA499B","title":"绿邑翠苑","lon":"121.44838","lat":"31.156845","category":"47","category_name":"住宅区","address":"绿邑翠苑位于徐汇龙吴路555号"},{"poiid":"B2094757D169A3FC429F","title":"龙耀路隧道","lon":"121.449241586","lat":"31.1587610343","category":"500","category_name":"未知分类","address":"上海市徐汇区石龙支路"},{"poiid":"B2094757D06FAAF4499B","title":"龙南五村","lon":"121.454401146","lat":"31.1534590508","category":"252","category_name":"楼宇机构","address":"上海龙水南路350号"},{"poiid":"B2094757D06AA7FF409E","title":"俊龙酒楼","lon":"121.45072","lat":"31.15653","category":"76","category_name":"上海菜","address":"徐汇区黄石路8号(龙吴路口)"},{"poiid":"B2094654DA65ABFF4299","title":"伊加伊(黄石路)","lon":"121.45083","lat":"31.15708","category":"68","category_name":"快餐厅","address":"徐汇区黄石路15号(近喜泰北路)"},{"poiid":"B2094654DA65ABFA479F","title":"上海市第42机动车安全检测站(徐汇)","lon":"121.46109","lat":"31.15756","category":"250","category_name":"公园户外","address":"龙水南路95号"},{"poiid":"B2094757D16FABF4409A","title":"上海通远汽车销售服务有限公司","lon":"121.449349323","lat":"31.1596874665","category":"500","category_name":"未知分类","address":"徐汇区龙吴路420号(近石龙路)"},{"poiid":"B2094654DA65ABFF4992","title":"悦兴苑","lon":"121.45436","lat":"31.155781","category":"47","category_name":"住宅区","address":"天钥桥南路1118弄1-9号"},{"poiid":"B2094655D36CA1F8419C","title":"龙吴路黄石路","lon":"121.44999","lat":"31.15579","category":"38","category_name":"公交车站","address":"上海178大站车"},{"poiid":"B2094757D06AA4FE4999","title":"大众徐汇4S","lon":"121.450896","lat":"31.153296","category":"47","category_name":"住宅区","address":"上海龙水南路386号"},{"poiid":"B2094757D16AAAFC459D","title":"黄石路烧烤摊","lon":"121.45042","lat":"31.15671","category":"68","category_name":"快餐厅","address":"徐汇区黄石路口(近龙吴路)"},{"poiid":"B2094655D26FABF44898","title":"龙南六村(西门)","lon":"121.45196","lat":"31.15601","category":"47","category_name":"住宅区","address":"喜泰北路2号-44号"},{"poiid":"B2094757D16CA7F9489F","title":"上海森那美汽车(经营捷豹路虎劳斯莱斯等车型)","lon":"121.459034","lat":"31.15685","category":"500","category_name":"未知分类","address":"上海龙水南路201号2幢"},{"poiid":"B2094655D36CA5F44298","title":"滨江路临江路","lon":"121.45888","lat":"31.15329","category":"38","category_name":"公交车站","address":""},{"poiid":"B2094655D26FABF4489A","title":"龙龙家园(北门)","lon":"121.45264","lat":"31.1569","category":"47","category_name":"住宅区","address":"黄石路80弄1-3"},{"poiid":"B2094757D16DA1FF449B","title":"上海大众交运起元","lon":"121.450696586","lat":"31.1534796312","category":"260","category_name":"其他","address":"徐汇区龙水南路386号"},{"poiid":"B2094654DA65ABFF469B","title":"誉仁家园","lon":"121.45554","lat":"31.156334","category":"47","category_name":"住宅区","address":"天钥桥南路1111弄1-10号"},{"poiid":"B2094654DA65ABFF4999","title":"龙龙家园","lon":"121.45284","lat":"31.156818","category":"47","category_name":"住宅区","address":"黄石路80弄1-3号"},{"poiid":"B2094757D66FA2FE459E","title":"龙龙家苑","lon":"121.45303458","lat":"31.156780995","category":"47","category_name":"住宅区","address":"上海黄石路天钥桥南路"},{"poiid":"B2094654DA65ABFF499F","title":"龙南五村(西北门)","lon":"121.45352","lat":"31.15691","category":"47","category_name":"住宅区","address":""},{"poiid":"B2094757D06AA1F84692","title":"广汽本田亚欧4S店","lon":"121.45074069","lat":"31.152941037","category":"500","category_name":"未知分类","address":"上海徐汇区龙吴路900号"},{"poiid":"B2094654DB64A2FB4499","title":"好德No.425","lon":"121.45161","lat":"31.15621","category":"117","category_name":"便民商店/便利店","address":"喜泰北路194"},{"poiid":"B2094654DA65ABFF459E","title":"上海巴士双钱网球俱乐部","lon":"121.45578","lat":"31.15772","category":"226","category_name":"网球场","address":"徐汇区航校路1号航空运动学校内(近黄石路)"},{"poiid":"B2094757D16BAAFF439D","title":"小喵屋","lon":"121.453067586","lat":"31.1582890251","category":"500","category_name":"未知分类","address":null},{"poiid":"B2094654DA65ABF84798","title":"樟树苑","lon":"121.457","lat":"31.1549","category":"47","category_name":"住宅区","address":"樟树苑位于徐汇龙吴路988号"},{"poiid":"B2094757D06AA5FA439A","title":"FOXCITY","lon":"121.45221","lat":"31.156409","category":"500","category_name":"未知分类","address":"上海体育馆对面"},{"poiid":"B2094757D16BA3FF429F","title":"上海宝狮东风标致4S店","lon":"121.45920733","lat":"31.155595811","category":"500","category_name":"未知分类","address":"上海市龙水南路201号一幢"},{"poiid":"B2094654DA65ABFF4199","title":"快客(黄石饭店北)","lon":"121.45028","lat":"31.15711","category":"117","category_name":"便民商店/便利店","address":""},{"poiid":"B2094757D06AABFC489F","title":"聚龙新苑","lon":"121.45094","lat":"31.156487","category":"252","category_name":"楼宇机构","address":"上海市徐汇区黄石路8号"},{"poiid":"B2094654DB65A3F9449C","title":"克莉丝汀 龙水南路店","lon":"121.451310054","lat":"31.150953793","category":"112","category_name":"糕饼店","address":"徐汇区龙水南路318号乙(近龙吴路)"},{"poiid":"B2094757D16DA0FB439F","title":"素芝齋","lon":"121.44992771","lat":"31.15912817","category":"247","category_name":"餐饮美食","address":"上海喜泰北路"},{"poiid":"B2094757D065A2F9419E","title":"创意媒体产业园","lon":"121.44791412","lat":"31.153657913","category":"500","category_name":"未知分类","address":"上海龙吴路777号"},{"poiid":"B2094654DA65ABFF429B","title":"黄石宾馆","lon":"121.45056","lat":"31.15703","category":"250","category_name":"公园户外","address":"徐汇区黄石路1号(近龙吴路)"},{"poiid":"B2094655D26EA3F44693","title":"商务楼","lon":"121.44958","lat":"31.15592","category":"46","category_name":"楼宇","address":"龙吴路575-577"},{"poiid":"B2094655D26AA4F8449B","title":"北京现代汽车通现特约销售服务店","lon":"121.44911","lat":"31.16009","category":"247","category_name":"餐饮美食","address":"徐汇区龙吴路420号(近石龙路)"},{"poiid":"B2094654DA65ABF9449C","title":"叠加苑","lon":"121.45294","lat":"31.152843","category":"47","category_name":"住宅区","address":"上海市徐汇区龙水南路358弄"},{"poiid":"B2094757D66CA3F94499","title":"锦鹰台球会所","lon":"121.45035658","lat":"31.157152002","category":"171","category_name":"台球厅","address":"徐汇区黄石路538号"},{"poiid":"B2094757D06FAAFE4893","title":"园林格兰云天大酒店","lon":"121.4535392463","lat":"31.150066281662","category":"217","category_name":"旅馆招待所","address":"徐汇区百色路100号(近上海植物园)"},{"poiid":"B2094757D06FA1FE439D","title":"滨江小区","lon":"121.45765","lat":"31.152988","category":"47","category_name":"住宅区","address":"上海天钥桥南路1199弄"},{"poiid":"B2094757D16DA7F8409A","title":"黄石路","lon":"121.451271","lat":"31.156926","category":"500","category_name":"未知分类","address":"上海黄石路169弄"},{"poiid":"B2094654DA65ABFF469E","title":"龙南三、四村","lon":"121.45609","lat":"31.15479","category":"47","category_name":"住宅区","address":"天钥桥南路4号-98号"},{"poiid":"B2094654DB69A4FD499E","title":"锦江之星(铁路南站店)","lon":"121.44915","lat":"31.15936","category":"216","category_name":"经济型连锁酒店","address":"上海市徐汇区龙吴路488号(靠近石龙路口)"},{"poiid":"B2094757D068A7FC429A","title":"龙南七村","lon":"121.45296","lat":"31.158821","category":"500","category_name":"未知分类","address":"上海龙吴路黄石路龙南七村"},{"poiid":"B2094757D069A5FA419C","title":"龙苑中学","lon":"121.454249","lat":"31.157455","category":"55","category_name":"中学","address":"上海黄石路85号"},{"poiid":"B2094654DA65ABF84192","title":"绿邑新苑","lon":"121.452817","lat":"31.153755","category":"47","category_name":"住宅区","address":"徐汇龙水南路391-399号"},{"poiid":"B2094757D069A0FC449F","title":"马自达4S店","lon":"121.45342254","lat":"31.157957077","category":"500","category_name":"未知分类","address":"上海龙吴路420号"},{"poiid":"B2094757D068A4FD4298","title":"龙吴路龙水南路","lon":"121.447162286","lat":"31.155482737","category":"500","category_name":"未知分类","address":"上海龙吴路龙水南路"},{"poiid":"B2094757D06AA7F9439C","title":"扬州饭店(徐汇店)","lon":"121.45213","lat":"31.15415","category":"74","category_name":"江苏菜","address":"徐汇区喜泰北路10号(黄石路龙水南路间)"},{"poiid":"B2094654DA65ABFF419E","title":"黄石饭店","lon":"121.45031","lat":"31.15706","category":"76","category_name":"上海菜","address":"徐汇区龙吴路555弄黄石宾馆2楼(黄石路龙吴路)"},{"poiid":"B2094757D465ABFB469C","title":"皖K烤鱼","lon":"121.451677","lat":"31.157272","category":"71","category_name":"四川菜","address":"徐汇区黄石路27号(近龙吴路)"},{"poiid":"B2094654DA65A6FA499B","title":"绿邑翠苑","lon":"121.44838","lat":"31.156845","category":"47","category_name":"住宅区","address":"绿邑翠苑位于徐汇龙吴路555号"},{"poiid":"B2094757D169A3FC429F","title":"龙耀路隧道","lon":"121.449241586","lat":"31.1587610343","category":"500","category_name":"未知分类","address":"上海市徐汇区石龙支路"},{"poiid":"B2094757D06FAAF4499B","title":"龙南五村","lon":"121.454401146","lat":"31.1534590508","category":"252","category_name":"楼宇机构","address":"上海龙水南路350号"},{"poiid":"B2094757D06AA7FF409E","title":"俊龙酒楼","lon":"121.45072","lat":"31.15653","category":"76","category_name":"上海菜","address":"徐汇区黄石路8号(龙吴路口)"},{"poiid":"B2094654DA65ABFF4299","title":"伊加伊(黄石路)","lon":"121.45083","lat":"31.15708","category":"68","category_name":"快餐厅","address":"徐汇区黄石路15号(近喜泰北路)"},{"poiid":"B2094654DA65ABFA479F","title":"上海市第42机动车安全检测站(徐汇)","lon":"121.46109","lat":"31.15756","category":"250","category_name":"公园户外","address":"龙水南路95号"},{"poiid":"B2094757D16FABF4409A","title":"上海通远汽车销售服务有限公司","lon":"121.449349323","lat":"31.1596874665","category":"500","category_name":"未知分类","address":"徐汇区龙吴路420号(近石龙路)"},{"poiid":"B2094654DA65ABFF4992","title":"悦兴苑","lon":"121.45436","lat":"31.155781","category":"47","category_name":"住宅区","address":"天钥桥南路1118弄1-9号"},{"poiid":"B2094655D36CA1F8419C","title":"龙吴路黄石路","lon":"121.44999","lat":"31.15579","category":"38","category_name":"公交车站","address":"上海178大站车"},{"poiid":"B2094757D06AA4FE4999","title":"大众徐汇4S","lon":"121.450896","lat":"31.153296","category":"47","category_name":"住宅区","address":"上海龙水南路386号"},{"poiid":"B2094757D16AAAFC459D","title":"黄石路烧烤摊","lon":"121.45042","lat":"31.15671","category":"68","category_name":"快餐厅","address":"徐汇区黄石路口(近龙吴路)"},{"poiid":"B2094655D26FABF44898","title":"龙南六村(西门)","lon":"121.45196","lat":"31.15601","category":"47","category_name":"住宅区","address":"喜泰北路2号-44号"},{"poiid":"B2094757D16CA7F9489F","title":"上海森那美汽车(经营捷豹路虎劳斯莱斯等车型)","lon":"121.459034","lat":"31.15685","category":"500","category_name":"未知分类","address":"上海龙水南路201号2幢"},{"poiid":"B2094655D36CA5F44298","title":"滨江路临江路","lon":"121.45888","lat":"31.15329","category":"38","category_name":"公交车站","address":""},{"poiid":"B2094655D26FABF4489A","title":"龙龙家园(北门)","lon":"121.45264","lat":"31.1569","category":"47","category_name":"住宅区","address":"黄石路80弄1-3"},{"poiid":"B2094757D16DA1FF449B","title":"上海大众交运起元","lon":"121.450696586","lat":"31.1534796312","category":"260","category_name":"其他","address":"徐汇区龙水南路386号"},{"poiid":"B2094654DA65ABFF469B","title":"誉仁家园","lon":"121.45554","lat":"31.156334","category":"47","category_name":"住宅区","address":"天钥桥南路1111弄1-10号"},{"poiid":"B2094654DA65ABFF4999","title":"龙龙家园","lon":"121.45284","lat":"31.156818","category":"47","category_name":"住宅区","address":"黄石路80弄1-3号"},{"poiid":"B2094757D66FA2FE459E","title":"龙龙家苑","lon":"121.45303458","lat":"31.156780995","category":"47","category_name":"住宅区","address":"上海黄石路天钥桥南路"},{"poiid":"B2094654DA65ABFF499F","title":"龙南五村(西北门)","lon":"121.45352","lat":"31.15691","category":"47","category_name":"住宅区","address":""},{"poiid":"B2094757D06AA1F84692","title":"广汽本田亚欧4S店","lon":"121.45074069","lat":"31.152941037","category":"500","category_name":"未知分类","address":"上海徐汇区龙吴路900号"},{"poiid":"B2094654DB64A2FB4499","title":"好德No.425","lon":"121.45161","lat":"31.15621","category":"117","category_name":"便民商店/便利店","address":"喜泰北路194"},{"poiid":"B2094654DA65ABFF459E","title":"上海巴士双钱网球俱乐部","lon":"121.45578","lat":"31.15772","category":"226","category_name":"网球场","address":"徐汇区航校路1号航空运动学校内(近黄石路)"},{"poiid":"B2094757D16BAAFF439D","title":"小喵屋","lon":"121.453067586","lat":"31.1582890251","category":"500","category_name":"未知分类","address":null},{"poiid":"B2094654DA65ABF84798","title":"樟树苑","lon":"121.457","lat":"31.1549","category":"47","category_name":"住宅区","address":"樟树苑位于徐汇龙吴路988号"},{"poiid":"B2094757D06AA5FA439A","title":"FOXCITY","lon":"121.45221","lat":"31.156409","category":"500","category_name":"未知分类","address":"上海体育馆对面"},{"poiid":"B2094757D16BA3FF429F","title":"上海宝狮东风标致4S店","lon":"121.45920733","lat":"31.155595811","category":"500","category_name":"未知分类","address":"上海市龙水南路201号一幢"},{"poiid":"B2094654DA65ABFF4199","title":"快客(黄石饭店北)","lon":"121.45028","lat":"31.15711","category":"117","category_name":"便民商店/便利店","address":""},{"poiid":"B2094757D06AABFC489F","title":"聚龙新苑","lon":"121.45094","lat":"31.156487","category":"252","category_name":"楼宇机构","address":"上海市徐汇区黄石路8号"},{"poiid":"B2094654DB65A3F9449C","title":"克莉丝汀 龙水南路店","lon":"121.451310054","lat":"31.150953793","category":"112","category_name":"糕饼店","address":"徐汇区龙水南路318号乙(近龙吴路)"},{"poiid":"B2094757D16DA0FB439F","title":"素芝齋","lon":"121.44992771","lat":"31.15912817","category":"247","category_name":"餐饮美食","address":"上海喜泰北路"},{"poiid":"B2094757D065A2F9419E","title":"创意媒体产业园","lon":"121.44791412","lat":"31.153657913","category":"500","category_name":"未知分类","address":"上海龙吴路777号"},{"poiid":"B2094654DA65ABFF429B","title":"黄石宾馆","lon":"121.45056","lat":"31.15703","category":"250","category_name":"公园户外","address":"徐汇区黄石路1号(近龙吴路)"},{"poiid":"B2094655D26EA3F44693","title":"商务楼","lon":"121.44958","lat":"31.15592","category":"46","category_name":"楼宇","address":"龙吴路575-577"},{"poiid":"B2094655D26AA4F8449B","title":"北京现代汽车通现特约销售服务店","lon":"121.44911","lat":"31.16009","category":"247","category_name":"餐饮美食","address":"徐汇区龙吴路420号(近石龙路)"},{"poiid":"B2094654DA65ABF9449C","title":"叠加苑","lon":"121.45294","lat":"31.152843","category":"47","category_name":"住宅区","address":"上海市徐汇区龙水南路358弄"},{"poiid":"B2094757D66CA3F94499","title":"锦鹰台球会所","lon":"121.45035658","lat":"31.157152002","category":"171","category_name":"台球厅","address":"徐汇区黄石路538号"},{"poiid":"B2094757D06FAAFE4893","title":"园林格兰云天大酒店","lon":"121.4535392463","lat":"31.150066281662","category":"217","category_name":"旅馆招待所","address":"徐汇区百色路100号(近上海植物园)"},{"poiid":"B2094757D06FA1FE439D","title":"滨江小区","lon":"121.45765","lat":"31.152988","category":"47","category_name":"住宅区","address":"上海天钥桥南路1199弄"},{"poiid":"B2094757D16DA7F8409A","title":"黄石路","lon":"121.451271","lat":"31.156926","category":"500","category_name":"未知分类","address":"上海黄石路169弄"},{"poiid":"B2094654DA65ABFF469E","title":"龙南三、四村","lon":"121.45609","lat":"31.15479","category":"47","category_name":"住宅区","address":"天钥桥南路4号-98号"},{"poiid":"B2094654DB69A4FD499E","title":"锦江之星(铁路南站店)","lon":"121.44915","lat":"31.15936","category":"216","category_name":"经济型连锁酒店","address":"上海市徐汇区龙吴路488号(靠近石龙路口)"},{"poiid":"B2094757D068A7FC429A","title":"龙南七村","lon":"121.45296","lat":"31.158821","category":"500","category_name":"未知分类","address":"上海龙吴路黄石路龙南七村"},{"poiid":"B2094757D069A5FA419C","title":"龙苑中学","lon":"121.454249","lat":"31.157455","category":"55","category_name":"中学","address":"上海黄石路85号"},{"poiid":"B2094654DA65ABF84192","title":"绿邑新苑","lon":"121.452817","lat":"31.153755","category":"47","category_name":"住宅区","address":"徐汇龙水南路391-399号"},{"poiid":"B2094757D069A0FC449F","title":"马自达4S店","lon":"121.45342254","lat":"31.157957077","category":"500","category_name":"未知分类","address":"上海龙吴路420号"},{"poiid":"B2094757D068A4FD4298","title":"龙吴路龙水南路","lon":"121.447162286","lat":"31.155482737","category":"500","category_name":"未知分类","address":"上海龙吴路龙水南路"},{"poiid":"B2094757D06AA7F9439C","title":"扬州饭店(徐汇店)","lon":"121.45213","lat":"31.15415","category":"74","category_name":"江苏菜","address":"徐汇区喜泰北路10号(黄石路龙水南路间)"},{"poiid":"B2094654DA65ABFF419E","title":"黄石饭店","lon":"121.45031","lat":"31.15706","category":"76","category_name":"上海菜","address":"徐汇区龙吴路555弄黄石宾馆2楼(黄石路龙吴路)"},{"poiid":"B2094757D465ABFB469C","title":"皖K烤鱼","lon":"121.451677","lat":"31.157272","category":"71","category_name":"四川菜","address":"徐汇区黄石路27号(近龙吴路)"},{"poiid":"B2094654DA65A6FA499B","title":"绿邑翠苑","lon":"121.44838","lat":"31.156845","category":"47","category_name":"住宅区","address":"绿邑翠苑位于徐汇龙吴路555号"},{"poiid":"B2094757D169A3FC429F","title":"龙耀路隧道","lon":"121.449241586","lat":"31.1587610343","category":"500","category_name":"未知分类","address":"上海市徐汇区石龙支路"},{"poiid":"B2094757D06FAAF4499B","title":"龙南五村","lon":"121.454401146","lat":"31.1534590508","category":"252","category_name":"楼宇机构","address":"上海龙水南路350号"},{"poiid":"B2094757D06AA7FF409E","title":"俊龙酒楼","lon":"121.45072","lat":"31.15653","category":"76","category_name":"上海菜","address":"徐汇区黄石路8号(龙吴路口)"},{"poiid":"B2094654DA65ABFF4299","title":"伊加伊(黄石路)","lon":"121.45083","lat":"31.15708","category":"68","category_name":"快餐厅","address":"徐汇区黄石路15号(近喜泰北路)"},{"poiid":"B2094654DA65ABFA479F","title":"上海市第42机动车安全检测站(徐汇)","lon":"121.46109","lat":"31.15756","category":"250","category_name":"公园户外","address":"龙水南路95号"},{"poiid":"B2094757D16FABF4409A","title":"上海通远汽车销售服务有限公司","lon":"121.449349323","lat":"31.1596874665","category":"500","category_name":"未知分类","address":"徐汇区龙吴路420号(近石龙路)"},{"poiid":"B2094654DA65ABFF4992","title":"悦兴苑","lon":"121.45436","lat":"31.155781","category":"47","category_name":"住宅区","address":"天钥桥南路1118弄1-9号"},{"poiid":"B2094655D36CA1F8419C","title":"龙吴路黄石路","lon":"121.44999","lat":"31.15579","category":"38","category_name":"公交车站","address":"上海178大站车"},{"poiid":"B2094757D06AA4FE4999","title":"大众徐汇4S","lon":"121.450896","lat":"31.153296","category":"47","category_name":"住宅区","address":"上海龙水南路386号"},{"poiid":"B2094757D16AAAFC459D","title":"黄石路烧烤摊","lon":"121.45042","lat":"31.15671","category":"68","category_name":"快餐厅","address":"徐汇区黄石路口(近龙吴路)"},{"poiid":"B2094655D26FABF44898","title":"龙南六村(西门)","lon":"121.45196","lat":"31.15601","category":"47","category_name":"住宅区","address":"喜泰北路2号-44号"},{"poiid":"B2094757D16CA7F9489F","title":"上海森那美汽车(经营捷豹路虎劳斯莱斯等车型)","lon":"121.459034","lat":"31.15685","category":"500","category_name":"未知分类","address":"上海龙水南路201号2幢"},{"poiid":"B2094655D36CA5F44298","title":"滨江路临江路","lon":"121.45888","lat":"31.15329","category":"38","category_name":"公交车站","address":""},{"poiid":"B2094655D26FABF4489A","title":"龙龙家园(北门)","lon":"121.45264","lat":"31.1569","category":"47","category_name":"住宅区","address":"黄石路80弄1-3"},{"poiid":"B2094757D16DA1FF449B","title":"上海大众交运起元","lon":"121.450696586","lat":"31.1534796312","category":"260","category_name":"其他","address":"徐汇区龙水南路386号"},{"poiid":"B2094654DA65ABFF469B","title":"誉仁家园","lon":"121.45554","lat":"31.156334","category":"47","category_name":"住宅区","address":"天钥桥南路1111弄1-10号"},{"poiid":"B2094654DA65ABFF4999","title":"龙龙家园","lon":"121.45284","lat":"31.156818","category":"47","category_name":"住宅区","address":"黄石路80弄1-3号"},{"poiid":"B2094757D66FA2FE459E","title":"龙龙家苑","lon":"121.45303458","lat":"31.156780995","category":"47","category_name":"住宅区","address":"上海黄石路天钥桥南路"},{"poiid":"B2094654DA65ABFF499F","title":"龙南五村(西北门)","lon":"121.45352","lat":"31.15691","category":"47","category_name":"住宅区","address":""},{"poiid":"B2094757D06AA1F84692","title":"广汽本田亚欧4S店","lon":"121.45074069","lat":"31.152941037","category":"500","category_name":"未知分类","address":"上海徐汇区龙吴路900号"},{"poiid":"B2094654DB64A2FB4499","title":"好德No.425","lon":"121.45161","lat":"31.15621","category":"117","category_name":"便民商店/便利店","address":"喜泰北路194"},{"poiid":"B2094654DA65ABFF459E","title":"上海巴士双钱网球俱乐部","lon":"121.45578","lat":"31.15772","category":"226","category_name":"网球场","address":"徐汇区航校路1号航空运动学校内(近黄石路)"},{"poiid":"B2094757D16BAAFF439D","title":"小喵屋","lon":"121.453067586","lat":"31.1582890251","category":"500","category_name":"未知分类","address":null},{"poiid":"B2094654DA65ABF84798","title":"樟树苑","lon":"121.457","lat":"31.1549","category":"47","category_name":"住宅区","address":"樟树苑位于徐汇龙吴路988号"},{"poiid":"B2094757D06AA5FA439A","title":"FOXCITY","lon":"121.45221","lat":"31.156409","category":"500","category_name":"未知分类","address":"上海体育馆对面"},{"poiid":"B2094757D16BA3FF429F","title":"上海宝狮东风标致4S店","lon":"121.45920733","lat":"31.155595811","category":"500","category_name":"未知分类","address":"上海市龙水南路201号一幢"},{"poiid":"B2094654DA65ABFF4199","title":"快客(黄石饭店北)","lon":"121.45028","lat":"31.15711","category":"117","category_name":"便民商店/便利店","address":""},{"poiid":"B2094757D06AABFC489F","title":"聚龙新苑","lon":"121.45094","lat":"31.156487","category":"252","category_name":"楼宇机构","address":"上海市徐汇区黄石路8号"},{"poiid":"B2094654DB65A3F9449C","title":"克莉丝汀 龙水南路店","lon":"121.451310054","lat":"31.150953793","category":"112","category_name":"糕饼店","address":"徐汇区龙水南路318号乙(近龙吴路)"},{"poiid":"B2094757D16DA0FB439F","title":"素芝齋","lon":"121.44992771","lat":"31.15912817","category":"247","category_name":"餐饮美食","address":"上海喜泰北路"},{"poiid":"B2094757D065A2F9419E","title":"创意媒体产业园","lon":"121.44791412","lat":"31.153657913","category":"500","category_name":"未知分类","address":"上海龙吴路777号"},{"poiid":"B2094654DA65ABFF429B","title":"黄石宾馆","lon":"121.45056","lat":"31.15703","category":"250","category_name":"公园户外","address":"徐汇区黄石路1号(近龙吴路)"},{"poiid":"B2094655D26EA3F44693","title":"商务楼","lon":"121.44958","lat":"31.15592","category":"46","category_name":"楼宇","address":"龙吴路575-577"},{"poiid":"B2094655D26AA4F8449B","title":"北京现代汽车通现特约销售服务店","lon":"121.44911","lat":"31.16009","category":"247","category_name":"餐饮美食","address":"徐汇区龙吴路420号(近石龙路)"},{"poiid":"B2094654DA65ABF9449C","title":"叠加苑","lon":"121.45294","lat":"31.152843","category":"47","category_name":"住宅区","address":"上海市徐汇区龙水南路358弄"},{"poiid":"B2094757D66CA3F94499","title":"锦鹰台球会所","lon":"121.45035658","lat":"31.157152002","category":"171","category_name":"台球厅","address":"徐汇区黄石路538号"},{"poiid":"B2094757D06FAAFE4893","title":"园林格兰云天大酒店","lon":"121.4535392463","lat":"31.150066281662","category":"217","category_name":"旅馆招待所","address":"徐汇区百色路100号(近上海植物园)"},{"poiid":"B2094757D06FA1FE439D","title":"滨江小区","lon":"121.45765","lat":"31.152988","category":"47","category_name":"住宅区","address":"上海天钥桥南路1199弄"},{"poiid":"B2094757D16DA7F8409A","title":"黄石路","lon":"121.451271","lat":"31.156926","category":"500","category_name":"未知分类","address":"上海黄石路169弄"},{"poiid":"B2094654DA65ABFF469E","title":"龙南三、四村","lon":"121.45609","lat":"31.15479","category":"47","category_name":"住宅区","address":"天钥桥南路4号-98号"},{"poiid":"B2094654DB69A4FD499E","title":"锦江之星(铁路南站店)","lon":"121.44915","lat":"31.15936","category":"216","category_name":"经济型连锁酒店","address":"上海市徐汇区龙吴路488号(靠近石龙路口)"},{"poiid":"B2094757D068A7FC429A","title":"龙南七村","lon":"121.45296","lat":"31.158821","category":"500","category_name":"未知分类","address":"上海龙吴路黄石路龙南七村"},{"poiid":"B2094757D069A5FA419C","title":"龙苑中学","lon":"121.454249","lat":"31.157455","category":"55","category_name":"中学","address":"上海黄石路85号"},{"poiid":"B2094654DA65ABF84192","title":"绿邑新苑","lon":"121.452817","lat":"31.153755","category":"47","category_name":"住宅区","address":"徐汇龙水南路391-399号"},{"poiid":"B2094757D069A0FC449F","title":"马自达4S店","lon":"121.45342254","lat":"31.157957077","category":"500","category_name":"未知分类","address":"上海龙吴路420号"},{"poiid":"B2094757D068A4FD4298","title":"龙吴路龙水南路","lon":"121.447162286","lat":"31.155482737","category":"500","category_name":"未知分类","address":"上海龙吴路龙水南路"},{"poiid":"B2094757D06AA7F9439C","title":"扬州饭店(徐汇店)","lon":"121.45213","lat":"31.15415","category":"74","category_name":"江苏菜","address":"徐汇区喜泰北路10号(黄石路龙水南路间)"},{"poiid":"B2094654DA65ABFF419E","title":"黄石饭店","lon":"121.45031","lat":"31.15706","category":"76","category_name":"上海菜","address":"徐汇区龙吴路555弄黄石宾馆2楼(黄石路龙吴路)"},{"poiid":"B2094757D465ABFB469C","title":"皖K烤鱼","lon":"121.451677","lat":"31.157272","category":"71","category_name":"四川菜","address":"徐汇区黄石路27号(近龙吴路)"},{"poiid":"B2094654DA65A6FA499B","title":"绿邑翠苑","lon":"121.44838","lat":"31.156845","category":"47","category_name":"住宅区","address":"绿邑翠苑位于徐汇龙吴路555号"},{"poiid":"B2094757D169A3FC429F","title":"龙耀路隧道","lon":"121.449241586","lat":"31.1587610343","category":"500","category_name":"未知分类","address":"上海市徐汇区石龙支路"},{"poiid":"B2094757D06FAAF4499B","title":"龙南五村","lon":"121.454401146","lat":"31.1534590508","category":"252","category_name":"楼宇机构","address":"上海龙水南路350号"},{"poiid":"B2094757D06AA7FF409E","title":"俊龙酒楼","lon":"121.45072","lat":"31.15653","category":"76","category_name":"上海菜","address":"徐汇区黄石路8号(龙吴路口)"},{"poiid":"B2094654DA65ABFF4299","title":"伊加伊(黄石路)","lon":"121.45083","lat":"31.15708","category":"68","category_name":"快餐厅","address":"徐汇区黄石路15号(近喜泰北路)"},{"poiid":"B2094654DA65ABFA479F","title":"上海市第42机动车安全检测站(徐汇)","lon":"121.46109","lat":"31.15756","category":"250","category_name":"公园户外","address":"龙水南路95号"},{"poiid":"B2094757D16FABF4409A","title":"上海通远汽车销售服务有限公司","lon":"121.449349323","lat":"31.1596874665","category":"500","category_name":"未知分类","address":"徐汇区龙吴路420号(近石龙路)"},{"poiid":"B2094654DA65ABFF4992","title":"悦兴苑","lon":"121.45436","lat":"31.155781","category":"47","category_name":"住宅区","address":"天钥桥南路1118弄1-9号"},{"poiid":"B2094655D36CA1F8419C","title":"龙吴路黄石路","lon":"121.44999","lat":"31.15579","category":"38","category_name":"公交车站","address":"上海178大站车"},{"poiid":"B2094757D06AA4FE4999","title":"大众徐汇4S","lon":"121.450896","lat":"31.153296","category":"47","category_name":"住宅区","address":"上海龙水南路386号"},{"poiid":"B2094757D16AAAFC459D","title":"黄石路烧烤摊","lon":"121.45042","lat":"31.15671","category":"68","category_name":"快餐厅","address":"徐汇区黄石路口(近龙吴路)"},{"poiid":"B2094655D26FABF44898","title":"龙南六村(西门)","lon":"121.45196","lat":"31.15601","category":"47","category_name":"住宅区","address":"喜泰北路2号-44号"},{"poiid":"B2094757D16CA7F9489F","title":"上海森那美汽车(经营捷豹路虎劳斯莱斯等车型)","lon":"121.459034","lat":"31.15685","category":"500","category_name":"未知分类","address":"上海龙水南路201号2幢"},{"poiid":"B2094655D36CA5F44298","title":"滨江路临江路","lon":"121.45888","lat":"31.15329","category":"38","category_name":"公交车站","address":""},{"poiid":"B2094655D26FABF4489A","title":"龙龙家园(北门)","lon":"121.45264","lat":"31.1569","category":"47","category_name":"住宅区","address":"黄石路80弄1-3"},{"poiid":"B2094757D16DA1FF449B","title":"上海大众交运起元","lon":"121.450696586","lat":"31.1534796312","category":"260","category_name":"其他","address":"徐汇区龙水南路386号"},{"poiid":"B2094654DA65ABFF469B","title":"誉仁家园","lon":"121.45554","lat":"31.156334","category":"47","category_name":"住宅区","address":"天钥桥南路1111弄1-10号"},{"poiid":"B2094654DA65ABFF4999","title":"龙龙家园","lon":"121.45284","lat":"31.156818","category":"47","category_name":"住宅区","address":"黄石路80弄1-3号"},{"poiid":"B2094757D66FA2FE459E","title":"龙龙家苑","lon":"121.45303458","lat":"31.156780995","category":"47","category_name":"住宅区","address":"上海黄石路天钥桥南路"},{"poiid":"B2094654DA65ABFF499F","title":"龙南五村(西北门)","lon":"121.45352","lat":"31.15691","category":"47","category_name":"住宅区","address":""},{"poiid":"B2094757D06AA1F84692","title":"广汽本田亚欧4S店","lon":"121.45074069","lat":"31.152941037","category":"500","category_name":"未知分类","address":"上海徐汇区龙吴路900号"},{"poiid":"B2094654DB64A2FB4499","title":"好德No.425","lon":"121.45161","lat":"31.15621","category":"117","category_name":"便民商店/便利店","address":"喜泰北路194"},{"poiid":"B2094654DA65ABFF459E","title":"上海巴士双钱网球俱乐部","lon":"121.45578","lat":"31.15772","category":"226","category_name":"网球场","address":"徐汇区航校路1号航空运动学校内(近黄石路)"},{"poiid":"B2094757D16BAAFF439D","title":"小喵屋","lon":"121.453067586","lat":"31.1582890251","category":"500","category_name":"未知分类","address":null},{"poiid":"B2094654DA65ABF84798","title":"樟树苑","lon":"121.457","lat":"31.1549","category":"47","category_name":"住宅区","address":"樟树苑位于徐汇龙吴路988号"},{"poiid":"B2094757D06AA5FA439A","title":"FOXCITY","lon":"121.45221","lat":"31.156409","category":"500","category_name":"未知分类","address":"上海体育馆对面"},{"poiid":"B2094757D16BA3FF429F","title":"上海宝狮东风标致4S店","lon":"121.45920733","lat":"31.155595811","category":"500","category_name":"未知分类","address":"上海市龙水南路201号一幢"},{"poiid":"B2094654DA65ABFF4199","title":"快客(黄石饭店北)","lon":"121.45028","lat":"31.15711","category":"117","category_name":"便民商店/便利店","address":""},{"poiid":"B2094757D06AABFC489F","title":"聚龙新苑","lon":"121.45094","lat":"31.156487","category":"252","category_name":"楼宇机构","address":"上海市徐汇区黄石路8号"},{"poiid":"B2094654DB65A3F9449C","title":"克莉丝汀 龙水南路店","lon":"121.451310054","lat":"31.150953793","category":"112","category_name":"糕饼店","address":"徐汇区龙水南路318号乙(近龙吴路)"},{"poiid":"B2094757D16DA0FB439F","title":"素芝齋","lon":"121.44992771","lat":"31.15912817","category":"247","category_name":"餐饮美食","address":"上海喜泰北路"},{"poiid":"B2094757D065A2F9419E","title":"创意媒体产业园","lon":"121.44791412","lat":"31.153657913","category":"500","category_name":"未知分类","address":"上海龙吴路777号"},{"poiid":"B2094654DA65ABFF429B","title":"黄石宾馆","lon":"121.45056","lat":"31.15703","category":"250","category_name":"公园户外","address":"徐汇区黄石路1号(近龙吴路)"},{"poiid":"B2094655D26EA3F44693","title":"商务楼","lon":"121.44958","lat":"31.15592","category":"46","category_name":"楼宇","address":"龙吴路575-577"},{"poiid":"B2094655D26AA4F8449B","title":"北京现代汽车通现特约销售服务店","lon":"121.44911","lat":"31.16009","category":"247","category_name":"餐饮美食","address":"徐汇区龙吴路420号(近石龙路)"},{"poiid":"B2094654DA65ABF9449C","title":"叠加苑","lon":"121.45294","lat":"31.152843","category":"47","category_name":"住宅区","address":"上海市徐汇区龙水南路358弄"},{"poiid":"B2094757D66CA3F94499","title":"锦鹰台球会所","lon":"121.45035658","lat":"31.157152002","category":"171","category_name":"台球厅","address":"徐汇区黄石路538号"}]