[{"poiid":"B2094757D06FA0FF499F","title":"夜市豆浆油条店","lon":"121.5123","lat":"31.25417","category":"111","category_name":"休闲餐饮场所","address":"虹口区霍山路203号(近临潼路)"},{"poiid":"B2094757D06EAAF4429E","title":"大连路地铁站","lon":"121.51286533","lat":"31.258173971","category":"36","category_name":"地铁站","address":"上海轨道交通 四号线 轨交大连路站 轻轨 4"},{"poiid":"B2094757D06FA3FB419B","title":"上海市中西医结合医院","lon":"121.51152635","lat":"31.256962928","category":"162","category_name":"医院","address":"虹口区保定路230号(近长阳路)"},{"poiid":"B209475CD564A7F84392","title":"上海滩浦东香格里拉店","lon":"121.50058","lat":"31.23634","category":"119","category_name":"商场","address":"浦东富成路33号香格里拉酒店内大堂层"},{"poiid":"B2094757D06BA4F5439B","title":"上海最牛的大饼油条夜排档","lon":"121.512013078","lat":"31.2548289864","category":"500","category_name":"未知分类","address":"上海霍山路203号"},{"poiid":"B2094757D06FA4FE409D","title":"西门子上海中心","lon":"121.51378631","lat":"31.258300781","category":"46","category_name":"楼宇","address":"上海杨浦区荆州路331号"},{"poiid":"B2094757D06FA5F4409B","title":"大连路长阳路","lon":"121.5128524","lat":"31.257872328","category":"500","category_name":"未知分类","address":"上海大连路长阳路"},{"poiid":"B2094757D06FA2FD409E","title":"上海市市东中学","lon":"121.51550766","lat":"31.257074778","category":"55","category_name":"中学","address":"杨浦区荆州路42号(长阳路荆州路)"},{"poiid":"B2094757D06FA3FF4692","title":"提篮桥监狱","lon":"121.51515197","lat":"31.253217697","category":"608","category_name":"法院","address":"上海市虹口区长阳路147号"},{"poiid":"B2094655D26BA4FE409A","title":"糕潮 GoodChoice","lon":"121.512975054","lat":"31.258044793","category":"112","category_name":"糕饼店","address":"虹口区大连路535号(近长阳路)"},{"poiid":"B2094757D068A0FD419D","title":"新外滩花苑","lon":"121.5115161745","lat":"31.255844940762","category":"252","category_name":"楼宇机构","address":"上海市虹口区东大名路888弄"},{"poiid":"B2094654DB69A5FF429A","title":"莫泰168连锁旅店(霍山路店)","lon":"121.51356","lat":"31.2559","category":"216","category_name":"经济型连锁酒店","address":"上海虹口区霍山路300号（近大连路）"},{"poiid":"B2094750D565A6FF449F","title":"地铁四号线大连路站","lon":"121.51284775555519","lat":"31.25820727133424","category":"36","category_name":"地铁站","address":"上海轨道交通 四号线 轨交大连路站 4"},{"poiid":"B2094655D36DA6FD419A","title":"大连路","lon":"121.51284","lat":"31.2582","category":"38","category_name":"公交车站","address":""},{"poiid":"B2094655D269ABFC449F","title":"市东中学羽毛球馆","lon":"121.51613","lat":"31.25695","category":"247","category_name":"餐饮美食","address":"杨浦区荆州路101号市东中学体育馆5楼(近霍山路)"},{"poiid":"B2094655D26CA5F84598","title":"德国大陆集团亚洲总部(新址)","lon":"121.5125","lat":"31.25933","category":"263","category_name":"公司","address":""},{"poiid":"B2094757D66FA2F9469F","title":"西门子总部","lon":"121.516492803","lat":"31.2571552451","category":"500","category_name":"未知分类","address":"上海大连路500号"},{"poiid":"B2094655D265A6FA489A","title":"国歌广场","lon":"121.51455","lat":"31.25792","category":"202","category_name":"公园广场","address":""},{"poiid":"B2094654D56FA2FE4992","title":"上汽霍山大楼","lon":"121.51394","lat":"31.25616","category":"46","category_name":"楼宇","address":"霍山路340"},{"poiid":"B2094757D06FAAFE4492","title":"建爱大厦","lon":"121.515","lat":"31.259","category":"252","category_name":"楼宇机构","address":"铁西区铁西兴华街与南十中路交处(兴华南街48号)"},{"poiid":"B2094757D16DABFE4293","title":"临潼路早饭摊","lon":"121.511980736","lat":"31.254653917","category":"247","category_name":"餐饮美食","address":"上海虹口区霍山路临潼路"},{"poiid":"B2094757D169AAFC4292","title":"国歌展示馆","lon":"121.513610018","lat":"31.2580072779","category":"500","category_name":"未知分类","address":"上海杨浦区荆州路151号"},{"poiid":"B2094655D26CA5F8459B","title":"霍山路376弄小区(西门)","lon":"121.51473","lat":"31.25658","category":"47","category_name":"住宅区","address":"霍山路376弄"},{"poiid":"B2094654D56FA2FD4999","title":"云舫小区","lon":"121.51371","lat":"31.255001","category":"47","category_name":"住宅区","address":"保定路20弄10-40号"},{"poiid":"B2094654D56FA2FE4893","title":"提篮桥街道社区卫生服务中心","lon":"121.5137","lat":"31.25635","category":"162","category_name":"医院","address":"霍山路327"},{"poiid":"B2094654D56FA2FE489B","title":"盱眙朱大龙虾王(霍山路)","lon":"121.51329","lat":"31.25611","category":"77","category_name":"湖南菜","address":"虹口区霍山路309号奥森大酒店1楼(近大连路)"},{"poiid":"B2094655D26DABFE4792","title":"霍山路376弄小区","lon":"121.51494","lat":"31.25653","category":"47","category_name":"住宅区","address":"霍山路376弄"},{"poiid":"B2094757D06BA2FD439F","title":"丽鸿舫食尚海派餐厅","lon":"121.51133","lat":"31.25651","category":"75","category_name":"浙江菜","address":"虹口区长阳路255号(近保定路)"},{"poiid":"B2094655D36CA0FB499D","title":"惠民路","lon":"121.51419","lat":"31.2546","category":"38","category_name":"公交车站","address":""},{"poiid":"B2094655D26CA7F54099","title":"长江大楼","lon":"121.515","lat":"31.2577","category":"46","category_name":"楼宇","address":"东大名路1096号"},{"poiid":"B2094654D56FA2FE499D","title":"上汽北外滩汽贸园区","lon":"121.51394","lat":"31.25616","category":"45","category_name":"产业园区","address":"霍山路340"},{"poiid":"B2094655D36CA5F8469C","title":"长阳路大连路","lon":"121.51408","lat":"31.2589","category":"38","category_name":"公交车站","address":""},{"poiid":"B2094655D26BA7F94892","title":"重庆鸡公煲 霍山路店","lon":"121.511950054","lat":"31.255014793","category":"71","category_name":"四川菜","address":"虹口区霍山路203号(近临潼路)"},{"poiid":"B2094753DA65A4FC459D","title":"提篮桥监狱","lon":"121.514762","lat":"31.257255","category":"608","category_name":"法院","address":"上海市 上海市虹口区提篮桥监狱"},{"poiid":"B2094655D26CA6F5419E","title":"大连路260弄小区","lon":"121.51529","lat":"31.25592","category":"47","category_name":"住宅区","address":"大连路260弄15-23号"},{"poiid":"B2094655D26EA3F94798","title":"大连路260弄小区(西门)","lon":"121.51519","lat":"31.2559","category":"47","category_name":"住宅区","address":"大连路260弄15-23号"},{"poiid":"B2094757D068A3FB439B","title":"大连路绿地","lon":"121.51351","lat":"31.25848","category":"196","category_name":"公园","address":"杨浦区大连路(近长阳路)"},{"poiid":"B2094757D66BA7FE459F","title":"南汇桃源鸡面馆","lon":"121.51215","lat":"31.25643","category":"68","category_name":"快餐厅","address":"虹口区保定路132号(近长阳路)"},{"poiid":"B2094757D06FABFE4593","title":"全家便利(长阳店)","lon":"121.51146","lat":"31.2562","category":"117","category_name":"便民商店/便利店","address":"上海虹口区长阳路245号(近保定路)"},{"poiid":"B2094757D16DA4FF4692","title":"牛奶棚 保定路店","lon":"121.511739054","lat":"31.256626793","category":"67","category_name":"甜品店","address":"虹口区保定路150号(长阳路口)"},{"poiid":"B2094654DB6BA2FE439A","title":"金恩里(东门)","lon":"121.51343","lat":"31.25616","category":"47","category_name":"住宅区","address":"霍山路315弄2-16号"},{"poiid":"B2094757D165AAF8479D","title":"ˋ♥.уo尛囡丶窩窩","lon":"121.514754003","lat":"31.255285006","category":"47","category_name":"住宅区","address":"上海大連路榆林路"},{"poiid":"B2094757D165A4FE469F","title":"马路当中","lon":"121.514411","lat":"31.255953","category":"500","category_name":"未知分类","address":"上海大连路"},{"poiid":"B2094654D56FA2FB459C","title":"乐声琴行","lon":"121.51441","lat":"31.25595","category":"255","category_name":"专卖店","address":"大连路277号"},{"poiid":"B2094753D66AA7F94999","title":"海老寿司","lon":"121.516647","lat":"31.258975","category":"247","category_name":"餐饮美食","address":"上海市 上海市昆明路555号宝地广场"},{"poiid":"B2094654D56FA2FE489D","title":"金恩里","lon":"121.51322","lat":"31.256165","category":"47","category_name":"住宅区","address":"霍山路315弄2-16号"},{"poiid":"B2094654D56FA2FC4098","title":"快客No.1305","lon":"121.51496","lat":"31.25505","category":"117","category_name":"便民商店/便利店","address":"惠民路309号"},{"poiid":"B2094655D26EA2FF469B","title":"惠民路355弄小区","lon":"121.51581","lat":"31.25572","category":"47","category_name":"住宅区","address":"惠民路355弄"},{"poiid":"B2094757D064A3F54699","title":"长阳路大连路站(公交22,33,137,842,868,934,申川)","lon":"121.512643367","lat":"31.2573939094","category":"38","category_name":"公交车站","address":"上海市杨浦区长阳路大连路"},{"poiid":"B2094655D26CA6FE469B","title":"霍山路288号小区","lon":"121.51324","lat":"31.25545","category":"47","category_name":"住宅区","address":"霍山路288"},{"poiid":"B2094757D06FA0FF499F","title":"夜市豆浆油条店","lon":"121.5123","lat":"31.25417","category":"111","category_name":"休闲餐饮场所","address":"虹口区霍山路203号(近临潼路)"},{"poiid":"B2094757D06EAAF4429E","title":"大连路地铁站","lon":"121.51286533","lat":"31.258173971","category":"36","category_name":"地铁站","address":"上海轨道交通 四号线 轨交大连路站 轻轨 4"},{"poiid":"B2094757D06FA3FB419B","title":"上海市中西医结合医院","lon":"121.51152635","lat":"31.256962928","category":"162","category_name":"医院","address":"虹口区保定路230号(近长阳路)"},{"poiid":"B209475CD564A7F84392","title":"上海滩浦东香格里拉店","lon":"121.50058","lat":"31.23634","category":"119","category_name":"商场","address":"浦东富成路33号香格里拉酒店内大堂层"},{"poiid":"B2094757D06BA4F5439B","title":"上海最牛的大饼油条夜排档","lon":"121.512013078","lat":"31.2548289864","category":"500","category_name":"未知分类","address":"上海霍山路203号"},{"poiid":"B2094757D06FA4FE409D","title":"西门子上海中心","lon":"121.51378631","lat":"31.258300781","category":"46","category_name":"楼宇","address":"上海杨浦区荆州路331号"},{"poiid":"B2094757D06FA5F4409B","title":"大连路长阳路","lon":"121.5128524","lat":"31.257872328","category":"500","category_name":"未知分类","address":"上海大连路长阳路"},{"poiid":"B2094757D06FA2FD409E","title":"上海市市东中学","lon":"121.51550766","lat":"31.257074778","category":"55","category_name":"中学","address":"杨浦区荆州路42号(长阳路荆州路)"},{"poiid":"B2094757D06FA3FF4692","title":"提篮桥监狱","lon":"121.51515197","lat":"31.253217697","category":"608","category_name":"法院","address":"上海市虹口区长阳路147号"},{"poiid":"B2094655D26BA4FE409A","title":"糕潮 GoodChoice","lon":"121.512975054","lat":"31.258044793","category":"112","category_name":"糕饼店","address":"虹口区大连路535号(近长阳路)"},{"poiid":"B2094757D068A0FD419D","title":"新外滩花苑","lon":"121.5115161745","lat":"31.255844940762","category":"252","category_name":"楼宇机构","address":"上海市虹口区东大名路888弄"},{"poiid":"B2094654DB69A5FF429A","title":"莫泰168连锁旅店(霍山路店)","lon":"121.51356","lat":"31.2559","category":"216","category_name":"经济型连锁酒店","address":"上海虹口区霍山路300号（近大连路）"},{"poiid":"B2094750D565A6FF449F","title":"地铁四号线大连路站","lon":"121.51284775555519","lat":"31.25820727133424","category":"36","category_name":"地铁站","address":"上海轨道交通 四号线 轨交大连路站 4"},{"poiid":"B2094655D36DA6FD419A","title":"大连路","lon":"121.51284","lat":"31.2582","category":"38","category_name":"公交车站","address":""},{"poiid":"B2094655D269ABFC449F","title":"市东中学羽毛球馆","lon":"121.51613","lat":"31.25695","category":"247","category_name":"餐饮美食","address":"杨浦区荆州路101号市东中学体育馆5楼(近霍山路)"},{"poiid":"B2094655D26CA5F84598","title":"德国大陆集团亚洲总部(新址)","lon":"121.5125","lat":"31.25933","category":"263","category_name":"公司","address":""},{"poiid":"B2094757D66FA2F9469F","title":"西门子总部","lon":"121.516492803","lat":"31.2571552451","category":"500","category_name":"未知分类","address":"上海大连路500号"},{"poiid":"B2094655D265A6FA489A","title":"国歌广场","lon":"121.51455","lat":"31.25792","category":"202","category_name":"公园广场","address":""},{"poiid":"B2094654D56FA2FE4992","title":"上汽霍山大楼","lon":"121.51394","lat":"31.25616","category":"46","category_name":"楼宇","address":"霍山路340"},{"poiid":"B2094757D06FAAFE4492","title":"建爱大厦","lon":"121.515","lat":"31.259","category":"252","category_name":"楼宇机构","address":"铁西区铁西兴华街与南十中路交处(兴华南街48号)"},{"poiid":"B2094757D16DABFE4293","title":"临潼路早饭摊","lon":"121.511980736","lat":"31.254653917","category":"247","category_name":"餐饮美食","address":"上海虹口区霍山路临潼路"},{"poiid":"B2094757D169AAFC4292","title":"国歌展示馆","lon":"121.513610018","lat":"31.2580072779","category":"500","category_name":"未知分类","address":"上海杨浦区荆州路151号"},{"poiid":"B2094655D26CA5F8459B","title":"霍山路376弄小区(西门)","lon":"121.51473","lat":"31.25658","category":"47","category_name":"住宅区","address":"霍山路376弄"},{"poiid":"B2094654D56FA2FD4999","title":"云舫小区","lon":"121.51371","lat":"31.255001","category":"47","category_name":"住宅区","address":"保定路20弄10-40号"},{"poiid":"B2094654D56FA2FE4893","title":"提篮桥街道社区卫生服务中心","lon":"121.5137","lat":"31.25635","category":"162","category_name":"医院","address":"霍山路327"},{"poiid":"B2094654D56FA2FE489B","title":"盱眙朱大龙虾王(霍山路)","lon":"121.51329","lat":"31.25611","category":"77","category_name":"湖南菜","address":"虹口区霍山路309号奥森大酒店1楼(近大连路)"},{"poiid":"B2094655D26DABFE4792","title":"霍山路376弄小区","lon":"121.51494","lat":"31.25653","category":"47","category_name":"住宅区","address":"霍山路376弄"},{"poiid":"B2094757D06BA2FD439F","title":"丽鸿舫食尚海派餐厅","lon":"121.51133","lat":"31.25651","category":"75","category_name":"浙江菜","address":"虹口区长阳路255号(近保定路)"},{"poiid":"B2094655D36CA0FB499D","title":"惠民路","lon":"121.51419","lat":"31.2546","category":"38","category_name":"公交车站","address":""},{"poiid":"B2094655D26CA7F54099","title":"长江大楼","lon":"121.515","lat":"31.2577","category":"46","category_name":"楼宇","address":"东大名路1096号"},{"poiid":"B2094654D56FA2FE499D","title":"上汽北外滩汽贸园区","lon":"121.51394","lat":"31.25616","category":"45","category_name":"产业园区","address":"霍山路340"},{"poiid":"B2094655D36CA5F8469C","title":"长阳路大连路","lon":"121.51408","lat":"31.2589","category":"38","category_name":"公交车站","address":""},{"poiid":"B2094655D26BA7F94892","title":"重庆鸡公煲 霍山路店","lon":"121.511950054","lat":"31.255014793","category":"71","category_name":"四川菜","address":"虹口区霍山路203号(近临潼路)"},{"poiid":"B2094753DA65A4FC459D","title":"提篮桥监狱","lon":"121.514762","lat":"31.257255","category":"608","category_name":"法院","address":"上海市 上海市虹口区提篮桥监狱"},{"poiid":"B2094655D26CA6F5419E","title":"大连路260弄小区","lon":"121.51529","lat":"31.25592","category":"47","category_name":"住宅区","address":"大连路260弄15-23号"},{"poiid":"B2094655D26EA3F94798","title":"大连路260弄小区(西门)","lon":"121.51519","lat":"31.2559","category":"47","category_name":"住宅区","address":"大连路260弄15-23号"},{"poiid":"B2094757D068A3FB439B","title":"大连路绿地","lon":"121.51351","lat":"31.25848","category":"196","category_name":"公园","address":"杨浦区大连路(近长阳路)"},{"poiid":"B2094757D66BA7FE459F","title":"南汇桃源鸡面馆","lon":"121.51215","lat":"31.25643","category":"68","category_name":"快餐厅","address":"虹口区保定路132号(近长阳路)"},{"poiid":"B2094757D06FABFE4593","title":"全家便利(长阳店)","lon":"121.51146","lat":"31.2562","category":"117","category_name":"便民商店/便利店","address":"上海虹口区长阳路245号(近保定路)"},{"poiid":"B2094757D16DA4FF4692","title":"牛奶棚 保定路店","lon":"121.511739054","lat":"31.256626793","category":"67","category_name":"甜品店","address":"虹口区保定路150号(长阳路口)"},{"poiid":"B2094654DB6BA2FE439A","title":"金恩里(东门)","lon":"121.51343","lat":"31.25616","category":"47","category_name":"住宅区","address":"霍山路315弄2-16号"},{"poiid":"B2094757D165AAF8479D","title":"ˋ♥.уo尛囡丶窩窩","lon":"121.514754003","lat":"31.255285006","category":"47","category_name":"住宅区","address":"上海大連路榆林路"},{"poiid":"B2094757D165A4FE469F","title":"马路当中","lon":"121.514411","lat":"31.255953","category":"500","category_name":"未知分类","address":"上海大连路"},{"poiid":"B2094654D56FA2FB459C","title":"乐声琴行","lon":"121.51441","lat":"31.25595","category":"255","category_name":"专卖店","address":"大连路277号"},{"poiid":"B2094753D66AA7F94999","title":"海老寿司","lon":"121.516647","lat":"31.258975","category":"247","category_name":"餐饮美食","address":"上海市 上海市昆明路555号宝地广场"},{"poiid":"B2094654D56FA2FE489D","title":"金恩里","lon":"121.51322","lat":"31.256165","category":"47","category_name":"住宅区","address":"霍山路315弄2-16号"},{"poiid":"B2094654D56FA2FC4098","title":"快客No.1305","lon":"121.51496","lat":"31.25505","category":"117","category_name":"便民商店/便利店","address":"惠民路309号"},{"poiid":"B2094655D26EA2FF469B","title":"惠民路355弄小区","lon":"121.51581","lat":"31.25572","category":"47","category_name":"住宅区","address":"惠民路355弄"},{"poiid":"B2094757D064A3F54699","title":"长阳路大连路站(公交22,33,137,842,868,934,申川)","lon":"121.512643367","lat":"31.2573939094","category":"38","category_name":"公交车站","address":"上海市杨浦区长阳路大连路"},{"poiid":"B2094655D26CA6FE469B","title":"霍山路288号小区","lon":"121.51324","lat":"31.25545","category":"47","category_name":"住宅区","address":"霍山路288"},{"poiid":"B2094757D06FA0FF499F","title":"夜市豆浆油条店","lon":"121.5123","lat":"31.25417","category":"111","category_name":"休闲餐饮场所","address":"虹口区霍山路203号(近临潼路)"},{"poiid":"B2094757D06EAAF4429E","title":"大连路地铁站","lon":"121.51286533","lat":"31.258173971","category":"36","category_name":"地铁站","address":"上海轨道交通 四号线 轨交大连路站 轻轨 4"},{"poiid":"B2094757D06FA3FB419B","title":"上海市中西医结合医院","lon":"121.51152635","lat":"31.256962928","category":"162","category_name":"医院","address":"虹口区保定路230号(近长阳路)"},{"poiid":"B209475CD564A7F84392","title":"上海滩浦东香格里拉店","lon":"121.50058","lat":"31.23634","category":"119","category_name":"商场","address":"浦东富成路33号香格里拉酒店内大堂层"},{"poiid":"B2094757D06BA4F5439B","title":"上海最牛的大饼油条夜排档","lon":"121.512013078","lat":"31.2548289864","category":"500","category_name":"未知分类","address":"上海霍山路203号"},{"poiid":"B2094757D06FA4FE409D","title":"西门子上海中心","lon":"121.51378631","lat":"31.258300781","category":"46","category_name":"楼宇","address":"上海杨浦区荆州路331号"},{"poiid":"B2094757D06FA5F4409B","title":"大连路长阳路","lon":"121.5128524","lat":"31.257872328","category":"500","category_name":"未知分类","address":"上海大连路长阳路"},{"poiid":"B2094757D06FA2FD409E","title":"上海市市东中学","lon":"121.51550766","lat":"31.257074778","category":"55","category_name":"中学","address":"杨浦区荆州路42号(长阳路荆州路)"},{"poiid":"B2094757D06FA3FF4692","title":"提篮桥监狱","lon":"121.51515197","lat":"31.253217697","category":"608","category_name":"法院","address":"上海市虹口区长阳路147号"},{"poiid":"B2094655D26BA4FE409A","title":"糕潮 GoodChoice","lon":"121.512975054","lat":"31.258044793","category":"112","category_name":"糕饼店","address":"虹口区大连路535号(近长阳路)"},{"poiid":"B2094757D068A0FD419D","title":"新外滩花苑","lon":"121.5115161745","lat":"31.255844940762","category":"252","category_name":"楼宇机构","address":"上海市虹口区东大名路888弄"},{"poiid":"B2094654DB69A5FF429A","title":"莫泰168连锁旅店(霍山路店)","lon":"121.51356","lat":"31.2559","category":"216","category_name":"经济型连锁酒店","address":"上海虹口区霍山路300号（近大连路）"},{"poiid":"B2094750D565A6FF449F","title":"地铁四号线大连路站","lon":"121.51284775555519","lat":"31.25820727133424","category":"36","category_name":"地铁站","address":"上海轨道交通 四号线 轨交大连路站 4"},{"poiid":"B2094655D36DA6FD419A","title":"大连路","lon":"121.51284","lat":"31.2582","category":"38","category_name":"公交车站","address":""},{"poiid":"B2094655D269ABFC449F","title":"市东中学羽毛球馆","lon":"121.51613","lat":"31.25695","category":"247","category_name":"餐饮美食","address":"杨浦区荆州路101号市东中学体育馆5楼(近霍山路)"},{"poiid":"B2094655D26CA5F84598","title":"德国大陆集团亚洲总部(新址)","lon":"121.5125","lat":"31.25933","category":"263","category_name":"公司","address":""},{"poiid":"B2094757D66FA2F9469F","title":"西门子总部","lon":"121.516492803","lat":"31.2571552451","category":"500","category_name":"未知分类","address":"上海大连路500号"},{"poiid":"B2094655D265A6FA489A","title":"国歌广场","lon":"121.51455","lat":"31.25792","category":"202","category_name":"公园广场","address":""},{"poiid":"B2094654D56FA2FE4992","title":"上汽霍山大楼","lon":"121.51394","lat":"31.25616","category":"46","category_name":"楼宇","address":"霍山路340"},{"poiid":"B2094757D06FAAFE4492","title":"建爱大厦","lon":"121.515","lat":"31.259","category":"252","category_name":"楼宇机构","address":"铁西区铁西兴华街与南十中路交处(兴华南街48号)"},{"poiid":"B2094757D16DABFE4293","title":"临潼路早饭摊","lon":"121.511980736","lat":"31.254653917","category":"247","category_name":"餐饮美食","address":"上海虹口区霍山路临潼路"},{"poiid":"B2094757D169AAFC4292","title":"国歌展示馆","lon":"121.513610018","lat":"31.2580072779","category":"500","category_name":"未知分类","address":"上海杨浦区荆州路151号"},{"poiid":"B2094655D26CA5F8459B","title":"霍山路376弄小区(西门)","lon":"121.51473","lat":"31.25658","category":"47","category_name":"住宅区","address":"霍山路376弄"},{"poiid":"B2094654D56FA2FD4999","title":"云舫小区","lon":"121.51371","lat":"31.255001","category":"47","category_name":"住宅区","address":"保定路20弄10-40号"},{"poiid":"B2094654D56FA2FE4893","title":"提篮桥街道社区卫生服务中心","lon":"121.5137","lat":"31.25635","category":"162","category_name":"医院","address":"霍山路327"},{"poiid":"B2094654D56FA2FE489B","title":"盱眙朱大龙虾王(霍山路)","lon":"121.51329","lat":"31.25611","category":"77","category_name":"湖南菜","address":"虹口区霍山路309号奥森大酒店1楼(近大连路)"},{"poiid":"B2094655D26DABFE4792","title":"霍山路376弄小区","lon":"121.51494","lat":"31.25653","category":"47","category_name":"住宅区","address":"霍山路376弄"},{"poiid":"B2094757D06BA2FD439F","title":"丽鸿舫食尚海派餐厅","lon":"121.51133","lat":"31.25651","category":"75","category_name":"浙江菜","address":"虹口区长阳路255号(近保定路)"},{"poiid":"B2094655D36CA0FB499D","title":"惠民路","lon":"121.51419","lat":"31.2546","category":"38","category_name":"公交车站","address":""},{"poiid":"B2094655D26CA7F54099","title":"长江大楼","lon":"121.515","lat":"31.2577","category":"46","category_name":"楼宇","address":"东大名路1096号"},{"poiid":"B2094654D56FA2FE499D","title":"上汽北外滩汽贸园区","lon":"121.51394","lat":"31.25616","category":"45","category_name":"产业园区","address":"霍山路340"},{"poiid":"B2094655D36CA5F8469C","title":"长阳路大连路","lon":"121.51408","lat":"31.2589","category":"38","category_name":"公交车站","address":""},{"poiid":"B2094655D26BA7F94892","title":"重庆鸡公煲 霍山路店","lon":"121.511950054","lat":"31.255014793","category":"71","category_name":"四川菜","address":"虹口区霍山路203号(近临潼路)"},{"poiid":"B2094753DA65A4FC459D","title":"提篮桥监狱","lon":"121.514762","lat":"31.257255","category":"608","category_name":"法院","address":"上海市 上海市虹口区提篮桥监狱"},{"poiid":"B2094655D26CA6F5419E","title":"大连路260弄小区","lon":"121.51529","lat":"31.25592","category":"47","category_name":"住宅区","address":"大连路260弄15-23号"},{"poiid":"B2094655D26EA3F94798","title":"大连路260弄小区(西门)","lon":"121.51519","lat":"31.2559","category":"47","category_name":"住宅区","address":"大连路260弄15-23号"},{"poiid":"B2094757D068A3FB439B","title":"大连路绿地","lon":"121.51351","lat":"31.25848","category":"196","category_name":"公园","address":"杨浦区大连路(近长阳路)"},{"poiid":"B2094757D66BA7FE459F","title":"南汇桃源鸡面馆","lon":"121.51215","lat":"31.25643","category":"68","category_name":"快餐厅","address":"虹口区保定路132号(近长阳路)"},{"poiid":"B2094757D06FABFE4593","title":"全家便利(长阳店)","lon":"121.51146","lat":"31.2562","category":"117","category_name":"便民商店/便利店","address":"上海虹口区长阳路245号(近保定路)"},{"poiid":"B2094757D16DA4FF4692","title":"牛奶棚 保定路店","lon":"121.511739054","lat":"31.256626793","category":"67","category_name":"甜品店","address":"虹口区保定路150号(长阳路口)"},{"poiid":"B2094654DB6BA2FE439A","title":"金恩里(东门)","lon":"121.51343","lat":"31.25616","category":"47","category_name":"住宅区","address":"霍山路315弄2-16号"},{"poiid":"B2094757D165AAF8479D","title":"ˋ♥.уo尛囡丶窩窩","lon":"121.514754003","lat":"31.255285006","category":"47","category_name":"住宅区","address":"上海大連路榆林路"},{"poiid":"B2094757D165A4FE469F","title":"马路当中","lon":"121.514411","lat":"31.255953","category":"500","category_name":"未知分类","address":"上海大连路"},{"poiid":"B2094654D56FA2FB459C","title":"乐声琴行","lon":"121.51441","lat":"31.25595","category":"255","category_name":"专卖店","address":"大连路277号"},{"poiid":"B2094753D66AA7F94999","title":"海老寿司","lon":"121.516647","lat":"31.258975","category":"247","category_name":"餐饮美食","address":"上海市 上海市昆明路555号宝地广场"},{"poiid":"B2094654D56FA2FE489D","title":"金恩里","lon":"121.51322","lat":"31.256165","category":"47","category_name":"住宅区","address":"霍山路315弄2-16号"},{"poiid":"B2094654D56FA2FC4098","title":"快客No.1305","lon":"121.51496","lat":"31.25505","category":"117","category_name":"便民商店/便利店","address":"惠民路309号"},{"poiid":"B2094655D26EA2FF469B","title":"惠民路355弄小区","lon":"121.51581","lat":"31.25572","category":"47","category_name":"住宅区","address":"惠民路355弄"},{"poiid":"B2094757D064A3F54699","title":"长阳路大连路站(公交22,33,137,842,868,934,申川)","lon":"121.512643367","lat":"31.2573939094","category":"38","category_name":"公交车站","address":"上海市杨浦区长阳路大连路"},{"poiid":"B2094655D26CA6FE469B","title":"霍山路288号小区","lon":"121.51324","lat":"31.25545","category":"47","category_name":"住宅区","address":"霍山路288"},{"poiid":"B2094757D06FA0FF499F","title":"夜市豆浆油条店","lon":"121.5123","lat":"31.25417","category":"111","category_name":"休闲餐饮场所","address":"虹口区霍山路203号(近临潼路)"},{"poiid":"B2094757D06EAAF4429E","title":"大连路地铁站","lon":"121.51286533","lat":"31.258173971","category":"36","category_name":"地铁站","address":"上海轨道交通 四号线 轨交大连路站 轻轨 4"},{"poiid":"B2094757D06FA3FB419B","title":"上海市中西医结合医院","lon":"121.51152635","lat":"31.256962928","category":"162","category_name":"医院","address":"虹口区保定路230号(近长阳路)"},{"poiid":"B209475CD564A7F84392","title":"上海滩浦东香格里拉店","lon":"121.50058","lat":"31.23634","category":"119","category_name":"商场","address":"浦东富成路33号香格里拉酒店内大堂层"},{"poiid":"B2094757D06BA4F5439B","title":"上海最牛的大饼油条夜排档","lon":"121.512013078","lat":"31.2548289864","category":"500","category_name":"未知分类","address":"上海霍山路203号"},{"poiid":"B2094757D06FA4FE409D","title":"西门子上海中心","lon":"121.51378631","lat":"31.258300781","category":"46","category_name":"楼宇","address":"上海杨浦区荆州路331号"},{"poiid":"B2094757D06FA5F4409B","title":"大连路长阳路","lon":"121.5128524","lat":"31.257872328","category":"500","category_name":"未知分类","address":"上海大连路长阳路"},{"poiid":"B2094757D06FA2FD409E","title":"上海市市东中学","lon":"121.51550766","lat":"31.257074778","category":"55","category_name":"中学","address":"杨浦区荆州路42号(长阳路荆州路)"},{"poiid":"B2094757D06FA3FF4692","title":"提篮桥监狱","lon":"121.51515197","lat":"31.253217697","category":"608","category_name":"法院","address":"上海市虹口区长阳路147号"},{"poiid":"B2094655D26BA4FE409A","title":"糕潮 GoodChoice","lon":"121.512975054","lat":"31.258044793","category":"112","category_name":"糕饼店","address":"虹口区大连路535号(近长阳路)"},{"poiid":"B2094757D068A0FD419D","title":"新外滩花苑","lon":"121.5115161745","lat":"31.255844940762","category":"252","category_name":"楼宇机构","address":"上海市虹口区东大名路888弄"},{"poiid":"B2094654DB69A5FF429A","title":"莫泰168连锁旅店(霍山路店)","lon":"121.51356","lat":"31.2559","category":"216","category_name":"经济型连锁酒店","address":"上海虹口区霍山路300号（近大连路）"},{"poiid":"B2094750D565A6FF449F","title":"地铁四号线大连路站","lon":"121.51284775555519","lat":"31.25820727133424","category":"36","category_name":"地铁站","address":"上海轨道交通 四号线 轨交大连路站 4"},{"poiid":"B2094655D36DA6FD419A","title":"大连路","lon":"121.51284","lat":"31.2582","category":"38","category_name":"公交车站","address":""},{"poiid":"B2094655D269ABFC449F","title":"市东中学羽毛球馆","lon":"121.51613","lat":"31.25695","category":"247","category_name":"餐饮美食","address":"杨浦区荆州路101号市东中学体育馆5楼(近霍山路)"},{"poiid":"B2094655D26CA5F84598","title":"德国大陆集团亚洲总部(新址)","lon":"121.5125","lat":"31.25933","category":"263","category_name":"公司","address":""},{"poiid":"B2094757D66FA2F9469F","title":"西门子总部","lon":"121.516492803","lat":"31.2571552451","category":"500","category_name":"未知分类","address":"上海大连路500号"},{"poiid":"B2094655D265A6FA489A","title":"国歌广场","lon":"121.51455","lat":"31.25792","category":"202","category_name":"公园广场","address":""},{"poiid":"B2094654D56FA2FE4992","title":"上汽霍山大楼","lon":"121.51394","lat":"31.25616","category":"46","category_name":"楼宇","address":"霍山路340"},{"poiid":"B2094757D06FAAFE4492","title":"建爱大厦","lon":"121.515","lat":"31.259","category":"252","category_name":"楼宇机构","address":"铁西区铁西兴华街与南十中路交处(兴华南街48号)"},{"poiid":"B2094757D16DABFE4293","title":"临潼路早饭摊","lon":"121.511980736","lat":"31.254653917","category":"247","category_name":"餐饮美食","address":"上海虹口区霍山路临潼路"},{"poiid":"B2094757D169AAFC4292","title":"国歌展示馆","lon":"121.513610018","lat":"31.2580072779","category":"500","category_name":"未知分类","address":"上海杨浦区荆州路151号"},{"poiid":"B2094655D26CA5F8459B","title":"霍山路376弄小区(西门)","lon":"121.51473","lat":"31.25658","category":"47","category_name":"住宅区","address":"霍山路376弄"},{"poiid":"B2094654D56FA2FD4999","title":"云舫小区","lon":"121.51371","lat":"31.255001","category":"47","category_name":"住宅区","address":"保定路20弄10-40号"},{"poiid":"B2094654D56FA2FE4893","title":"提篮桥街道社区卫生服务中心","lon":"121.5137","lat":"31.25635","category":"162","category_name":"医院","address":"霍山路327"},{"poiid":"B2094654D56FA2FE489B","title":"盱眙朱大龙虾王(霍山路)","lon":"121.51329","lat":"31.25611","category":"77","category_name":"湖南菜","address":"虹口区霍山路309号奥森大酒店1楼(近大连路)"},{"poiid":"B2094655D26DABFE4792","title":"霍山路376弄小区","lon":"121.51494","lat":"31.25653","category":"47","category_name":"住宅区","address":"霍山路376弄"},{"poiid":"B2094757D06BA2FD439F","title":"丽鸿舫食尚海派餐厅","lon":"121.51133","lat":"31.25651","category":"75","category_name":"浙江菜","address":"虹口区长阳路255号(近保定路)"},{"poiid":"B2094655D36CA0FB499D","title":"惠民路","lon":"121.51419","lat":"31.2546","category":"38","category_name":"公交车站","address":""},{"poiid":"B2094655D26CA7F54099","title":"长江大楼","lon":"121.515","lat":"31.2577","category":"46","category_name":"楼宇","address":"东大名路1096号"},{"poiid":"B2094654D56FA2FE499D","title":"上汽北外滩汽贸园区","lon":"121.51394","lat":"31.25616","category":"45","category_name":"产业园区","address":"霍山路340"},{"poiid":"B2094655D36CA5F8469C","title":"长阳路大连路","lon":"121.51408","lat":"31.2589","category":"38","category_name":"公交车站","address":""},{"poiid":"B2094655D26BA7F94892","title":"重庆鸡公煲 霍山路店","lon":"121.511950054","lat":"31.255014793","category":"71","category_name":"四川菜","address":"虹口区霍山路203号(近临潼路)"},{"poiid":"B2094753DA65A4FC459D","title":"提篮桥监狱","lon":"121.514762","lat":"31.257255","category":"608","category_name":"法院","address":"上海市 上海市虹口区提篮桥监狱"},{"poiid":"B2094655D26CA6F5419E","title":"大连路260弄小区","lon":"121.51529","lat":"31.25592","category":"47","category_name":"住宅区","address":"大连路260弄15-23号"},{"poiid":"B2094655D26EA3F94798","title":"大连路260弄小区(西门)","lon":"121.51519","lat":"31.2559","category":"47","category_name":"住宅区","address":"大连路260弄15-23号"},{"poiid":"B2094757D068A3FB439B","title":"大连路绿地","lon":"121.51351","lat":"31.25848","category":"196","category_name":"公园","address":"杨浦区大连路(近长阳路)"},{"poiid":"B2094757D66BA7FE459F","title":"南汇桃源鸡面馆","lon":"121.51215","lat":"31.25643","category":"68","category_name":"快餐厅","address":"虹口区保定路132号(近长阳路)"},{"poiid":"B2094757D06FABFE4593","title":"全家便利(长阳店)","lon":"121.51146","lat":"31.2562","category":"117","category_name":"便民商店/便利店","address":"上海虹口区长阳路245号(近保定路)"},{"poiid":"B2094757D16DA4FF4692","title":"牛奶棚 保定路店","lon":"121.511739054","lat":"31.256626793","category":"67","category_name":"甜品店","address":"虹口区保定路150号(长阳路口)"},{"poiid":"B2094654DB6BA2FE439A","title":"金恩里(东门)","lon":"121.51343","lat":"31.25616","category":"47","category_name":"住宅区","address":"霍山路315弄2-16号"},{"poiid":"B2094757D165AAF8479D","title":"ˋ♥.уo尛囡丶窩窩","lon":"121.514754003","lat":"31.255285006","category":"47","category_name":"住宅区","address":"上海大連路榆林路"},{"poiid":"B2094757D165A4FE469F","title":"马路当中","lon":"121.514411","lat":"31.255953","category":"500","category_name":"未知分类","address":"上海大连路"},{"poiid":"B2094654D56FA2FB459C","title":"乐声琴行","lon":"121.51441","lat":"31.25595","category":"255","category_name":"专卖店","address":"大连路277号"},{"poiid":"B2094753D66AA7F94999","title":"海老寿司","lon":"121.516647","lat":"31.258975","category":"247","category_name":"餐饮美食","address":"上海市 上海市昆明路555号宝地广场"},{"poiid":"B2094654D56FA2FE489D","title":"金恩里","lon":"121.51322","lat":"31.256165","category":"47","category_name":"住宅区","address":"霍山路315弄2-16号"},{"poiid":"B2094654D56FA2FC4098","title":"快客No.1305","lon":"121.51496","lat":"31.25505","category":"117","category_name":"便民商店/便利店","address":"惠民路309号"},{"poiid":"B2094655D26EA2FF469B","title":"惠民路355弄小区","lon":"121.51581","lat":"31.25572","category":"47","category_name":"住宅区","address":"惠民路355弄"},{"poiid":"B2094757D064A3F54699","title":"长阳路大连路站(公交22,33,137,842,868,934,申川)","lon":"121.512643367","lat":"31.2573939094","category":"38","category_name":"公交车站","address":"上海市杨浦区长阳路大连路"},{"poiid":"B2094655D26CA6FE469B","title":"霍山路288号小区","lon":"121.51324","lat":"31.25545","category":"47","category_name":"住宅区","address":"霍山路288"}]