[{"poiid":"B2094757D068AAFE489F","title":"复兴西路","lon":"121.443012","lat":"31.208405","category":"46","category_name":"楼宇","address":"上海永福路"},{"poiid":"B2094655D36DA6FE449F","title":"上海图书馆","lon":"121.44394","lat":"31.20779","category":"181","category_name":"图书馆","address":"徐汇区淮海中路1555号(近高安路)"},{"poiid":"B2094757D06FA2FE429C","title":"The Apartment","lon":"121.44423272","lat":"31.2114678","category":"94","category_name":"西餐厅","address":"徐汇区永福路47号3楼(近复兴西路)"},{"poiid":"B2094753D76FAAFA449C","title":"上海滩国泰旗舰店","lon":"121.466011","lat":"31.216125","category":"249","category_name":"购物服务","address":"淮海中路868号"},{"poiid":"B209475CD564A7F8439E","title":"上海滩中信泰富店","lon":"121.45602","lat":"31.22851","category":"119","category_name":"商场","address":"\"南京西路1168号中信泰富广场，店铺号221.\r\n\""},{"poiid":"B2094757D06EAAF54992","title":"JZ club(爵士俱乐部)","lon":"121.44488035","lat":"31.210675495","category":"172","category_name":"酒吧","address":"徐汇区复兴西路46号(近乌鲁木齐中路)"},{"poiid":"B2094757D06FA1F5479B","title":"El Cóctel","lon":"121.44435072","lat":"31.211305167","category":"260","category_name":"其他","address":"徐汇区永福路47号2楼(近复兴西路)"},{"poiid":"B2094757D06EAAFB429A","title":"1984bookstore","lon":"121.442412","lat":"31.208109","category":"260","category_name":"其他","address":"徐汇区湖南路11号(永福路口)"},{"poiid":"B2094757D06FA1FA409A","title":"一品居热气羊肉馆(乌鲁木齐中路店)","lon":"121.44662","lat":"31.21043","category":"86","category_name":"火锅店","address":"徐汇区乌鲁木齐中路352号(近复兴西路)"},{"poiid":"B2094752D768A2FB409E","title":"鼎王无老锅（上海无老衡山店）","lon":"121.446411","lat":"31.211093","category":"247","category_name":"餐饮美食","address":"上海徐汇区衡山路2号甲(近桃江路)"},{"poiid":"B2094757D06FA5FD4293","title":"Mr. Willis","lon":"121.44397","lat":"31.21359","category":"94","category_name":"西餐厅","address":"徐汇区安福路195号3楼(近乌鲁木齐中路)"},{"poiid":"B2094654DB69A7FD4193","title":"雍福会","lon":"121.44264","lat":"31.20911","category":"76","category_name":"上海菜","address":"徐汇区永福路200号原英国领事馆(近湖南路)"},{"poiid":"B2094757DA69A3FB4199","title":"上海交响乐团","lon":"121.44194","lat":"31.2083","category":"646","category_name":"文化体育类公司","address":"徐汇区湖南路105号(近武康路)"},{"poiid":"B2094757D16CA3F44492","title":"Salute","lon":"121.444026586","lat":"31.2107440499","category":"94","category_name":"西餐厅","address":"静安区南京西路1038号梅龙镇伊势丹3楼(近江宁路)"},{"poiid":"B2094757D468AAFA439F","title":"Restaurant Cuivre","lon":"121.445625","lat":"31.209066","category":"94","category_name":"西餐厅","address":"徐汇区淮海中路1502号(近乌鲁木齐路)"},{"poiid":"B2094757D06FABFD459E","title":"高丽烧烤","lon":"121.4461","lat":"31.21237","category":"96","category_name":"韩国料理","address":"徐汇区五原路181弄1号(近乌鲁木齐中路)"},{"poiid":"B2094654DA6DA6FC4898","title":"上海图书馆(东门)","lon":"121.44525","lat":"31.20854","category":"181","category_name":"图书馆","address":"淮海中路1555号"},{"poiid":"B2094757D169ABF5459E","title":"Bocado","lon":"121.44390058","lat":"31.211565066","category":"94","category_name":"西餐厅","address":"徐汇区永福路47号203(近复兴路)"},{"poiid":"B2094757D06FA3FF449D","title":"上海图书馆地铁站","lon":"121.44394","lat":"31.207792","category":"36","category_name":"地铁站","address":"上海轨道交通 十号线 轨交上海图书馆站 10"},{"poiid":"B2094757D06FA2F4459E","title":"博多新记(乌鲁木齐店)","lon":"121.44655","lat":"31.21135","category":"72","category_name":"广东菜","address":"徐汇区乌鲁木齐中路300号(近五原路)"},{"poiid":"B2094757D66EA0FA489E","title":"NeNe Italian restaurant","lon":"121.443460786","lat":"31.2108263515","category":"94","category_name":"西餐厅","address":"徐汇区永福路47号106室(近复兴路)"},{"poiid":"B2094757D068A2F54493","title":"博爱医院","lon":"121.44417408","lat":"31.208371816","category":"162","category_name":"医院","address":"卢湾区淮海中路1590号(近高安路)"},{"poiid":"B2094752D669A6F8449B","title":"鼎王无老养生锅","lon":"121.444528","lat":"31.209638","category":"500","category_name":"未知分类","address":"衡山路2号甲香樟花园"},{"poiid":"B2094757D06AA4F84298","title":"Hunan House","lon":"121.445337989","lat":"31.209769788","category":"77","category_name":"湖南菜","address":"徐汇区复兴西路49弄2号(近乌鲁木齐路)"},{"poiid":"B2094757D468AAFD4099","title":"鲁马滋 Rumors Coffee","lon":"121.442311","lat":"31.208188","category":"65","category_name":"咖啡厅","address":"徐汇区湖南路9号甲(近上海图书馆)"},{"poiid":"B2094757D069A4F8409B","title":"Rhumerie Bounty(永福路店)","lon":"121.44434","lat":"31.21114","category":"260","category_name":"其他","address":"徐汇区永福路47号1楼(近五原路)"},{"poiid":"B2094757D068A4F5429E","title":"La casbah coffee","lon":"121.44471633","lat":"31.208303673","category":"65","category_name":"咖啡厅","address":"上海市淮海中路1554号"},{"poiid":"B2094757D06AA4F9449A","title":"乌鲁木齐中路五原路","lon":"121.445794","lat":"31.212692","category":"500","category_name":"未知分类","address":"上海乌鲁木齐中路五原路"},{"poiid":"B2094757D06BA6F8419F","title":"河边港式粤菜","lon":"121.443920586","lat":"31.2106350478","category":"72","category_name":"广东菜","address":"徐汇区淮海中路1293号"},{"poiid":"B2094757D16BA4F5499D","title":"新味牛肉面","lon":"121.443720087","lat":"31.2100886758","category":"68","category_name":"快餐厅","address":"徐汇区永福路127号(近复兴西路口)"},{"poiid":"B2094751D36EA4F5409B","title":"Organic Kitchen","lon":"121.44503","lat":"31.21022","category":"94","category_name":"西餐厅","address":"徐汇区复兴西路57号(近永福路)"},{"poiid":"B2094757D06AA5FA489A","title":"五原路","lon":"121.44202758","lat":"31.211923073","category":"500","category_name":"未知分类","address":"上海徐汇区五原路"},{"poiid":"B2094757D56CA2FF419B","title":"Misael酒吧","lon":"121.440953","lat":"31.210136","category":"260","category_name":"其他","address":"徐汇区武康路103号(近复兴西路)"},{"poiid":"B2094750D36FA3F94992","title":"ARCADE","lon":"121.44450906607062","lat":"31.21043640843178","category":"260","category_name":"其他","address":"徐汇区复兴西路57号2楼(近永福路)"},{"poiid":"B2094757D069A4FF499B","title":"德国驻上海总领事馆","lon":"121.44299316","lat":"31.209003448","category":"46","category_name":"楼宇","address":"上海市徐汇区永福路181号"},{"poiid":"B2094752D764AAFF449A","title":"SPICE BAZAAR／香料集市","lon":"121.44263","lat":"31.210202","category":"247","category_name":"餐饮美食","address":"东平路29号"},{"poiid":"B2094750D76CA4FE4493","title":"Bikini","lon":"121.444","lat":"31.2115","category":"94","category_name":"西餐厅","address":"徐汇区永福路47号(近复兴路)"},{"poiid":"B209475CDA6EA7FE4193","title":"Hooters（淮海店）","lon":"121.445639","lat":"31.208961","category":"247","category_name":"餐饮美食","address":"上海市淮海中路1498号1号楼一层"},{"poiid":"B2094757D16FAAFE409B","title":"益佳粥店","lon":"121.443911586","lat":"31.2106520481","category":"247","category_name":"餐饮美食","address":"上海复兴路襄阳路"},{"poiid":"B2094757D06FA7FA4798","title":"城市山民.谷(Urban Tribe·the Valley)","lon":"121.442986","lat":"31.210565","category":"260","category_name":"其他","address":"徐汇区复兴西路133号(近永福路)"},{"poiid":"B2094654DB65A2FE499E","title":"micasa cincept","lon":"121.44358","lat":"31.20976","category":"183","category_name":"展览馆","address":""},{"poiid":"B2094757D069AAFD429B","title":"上海电影（集团）有限公司","lon":"121.44379425","lat":"31.2114124298","category":"248","category_name":"生活娱乐","address":"上海永福路52号"},{"poiid":"B2094757D66EA4F94092","title":"乌鲁木齐中路四川麻辣烫","lon":"121.444106586","lat":"31.2106480481","category":"247","category_name":"餐饮美食","address":"上海乌鲁木齐中路265号"},{"poiid":"B2094752D564AAFF4399","title":"季风书店（图书馆）","lon":"121.444154","lat":"31.207542","category":"248","category_name":"生活娱乐","address":"十号线图书馆站"},{"poiid":"B2094655D268A6FC449A","title":"Bi N74 Wine Room","lon":"121.44328","lat":"31.21078","category":"65","category_name":"咖啡厅","address":"复兴西路72-74"},{"poiid":"B2094654D564A4F94498","title":"徐汇爱德好贝幼稚园","lon":"121.44381","lat":"31.2108","category":"57","category_name":"幼儿园","address":"复兴西路70"},{"poiid":"B2094750D269A3FC4199","title":"帕特蒙 The Apartment","lon":"121.44435167313","lat":"31.211002980336","category":"247","category_name":"餐饮美食","address":"永福路47号302室近复兴西路"},{"poiid":"B2094757D16FAAF5449D","title":"永福路47号","lon":"121.44387758","lat":"31.211524065","category":"500","category_name":"未知分类","address":"上海市徐汇区永福路47号"},{"poiid":"B2094654D564A4F94392","title":"永福商务楼","lon":"121.44411","lat":"31.21128","category":"46","category_name":"楼宇","address":"永福路47"},{"poiid":"B2094654D564A4F8419F","title":"上海世纪出版股份有限公司教育出版社读者服务部","lon":"121.444","lat":"31.21029","category":"125","category_name":"书店","address":"永福路123-125"},{"poiid":"B2094757D068AAFE489F","title":"复兴西路","lon":"121.443012","lat":"31.208405","category":"46","category_name":"楼宇","address":"上海永福路"},{"poiid":"B2094655D36DA6FE449F","title":"上海图书馆","lon":"121.44394","lat":"31.20779","category":"181","category_name":"图书馆","address":"徐汇区淮海中路1555号(近高安路)"},{"poiid":"B2094757D06FA2FE429C","title":"The Apartment","lon":"121.44423272","lat":"31.2114678","category":"94","category_name":"西餐厅","address":"徐汇区永福路47号3楼(近复兴西路)"},{"poiid":"B2094753D76FAAFA449C","title":"上海滩国泰旗舰店","lon":"121.466011","lat":"31.216125","category":"249","category_name":"购物服务","address":"淮海中路868号"},{"poiid":"B209475CD564A7F8439E","title":"上海滩中信泰富店","lon":"121.45602","lat":"31.22851","category":"119","category_name":"商场","address":"\"南京西路1168号中信泰富广场，店铺号221.\r\n\""},{"poiid":"B2094757D06EAAF54992","title":"JZ club(爵士俱乐部)","lon":"121.44488035","lat":"31.210675495","category":"172","category_name":"酒吧","address":"徐汇区复兴西路46号(近乌鲁木齐中路)"},{"poiid":"B2094757D06FA1F5479B","title":"El Cóctel","lon":"121.44435072","lat":"31.211305167","category":"260","category_name":"其他","address":"徐汇区永福路47号2楼(近复兴西路)"},{"poiid":"B2094757D06EAAFB429A","title":"1984bookstore","lon":"121.442412","lat":"31.208109","category":"260","category_name":"其他","address":"徐汇区湖南路11号(永福路口)"},{"poiid":"B2094757D06FA1FA409A","title":"一品居热气羊肉馆(乌鲁木齐中路店)","lon":"121.44662","lat":"31.21043","category":"86","category_name":"火锅店","address":"徐汇区乌鲁木齐中路352号(近复兴西路)"},{"poiid":"B2094752D768A2FB409E","title":"鼎王无老锅（上海无老衡山店）","lon":"121.446411","lat":"31.211093","category":"247","category_name":"餐饮美食","address":"上海徐汇区衡山路2号甲(近桃江路)"},{"poiid":"B2094757D06FA5FD4293","title":"Mr. Willis","lon":"121.44397","lat":"31.21359","category":"94","category_name":"西餐厅","address":"徐汇区安福路195号3楼(近乌鲁木齐中路)"},{"poiid":"B2094654DB69A7FD4193","title":"雍福会","lon":"121.44264","lat":"31.20911","category":"76","category_name":"上海菜","address":"徐汇区永福路200号原英国领事馆(近湖南路)"},{"poiid":"B2094757DA69A3FB4199","title":"上海交响乐团","lon":"121.44194","lat":"31.2083","category":"646","category_name":"文化体育类公司","address":"徐汇区湖南路105号(近武康路)"},{"poiid":"B2094757D16CA3F44492","title":"Salute","lon":"121.444026586","lat":"31.2107440499","category":"94","category_name":"西餐厅","address":"静安区南京西路1038号梅龙镇伊势丹3楼(近江宁路)"},{"poiid":"B2094757D468AAFA439F","title":"Restaurant Cuivre","lon":"121.445625","lat":"31.209066","category":"94","category_name":"西餐厅","address":"徐汇区淮海中路1502号(近乌鲁木齐路)"},{"poiid":"B2094757D06FABFD459E","title":"高丽烧烤","lon":"121.4461","lat":"31.21237","category":"96","category_name":"韩国料理","address":"徐汇区五原路181弄1号(近乌鲁木齐中路)"},{"poiid":"B2094654DA6DA6FC4898","title":"上海图书馆(东门)","lon":"121.44525","lat":"31.20854","category":"181","category_name":"图书馆","address":"淮海中路1555号"},{"poiid":"B2094757D169ABF5459E","title":"Bocado","lon":"121.44390058","lat":"31.211565066","category":"94","category_name":"西餐厅","address":"徐汇区永福路47号203(近复兴路)"},{"poiid":"B2094757D06FA3FF449D","title":"上海图书馆地铁站","lon":"121.44394","lat":"31.207792","category":"36","category_name":"地铁站","address":"上海轨道交通 十号线 轨交上海图书馆站 10"},{"poiid":"B2094757D06FA2F4459E","title":"博多新记(乌鲁木齐店)","lon":"121.44655","lat":"31.21135","category":"72","category_name":"广东菜","address":"徐汇区乌鲁木齐中路300号(近五原路)"},{"poiid":"B2094757D66EA0FA489E","title":"NeNe Italian restaurant","lon":"121.443460786","lat":"31.2108263515","category":"94","category_name":"西餐厅","address":"徐汇区永福路47号106室(近复兴路)"},{"poiid":"B2094757D068A2F54493","title":"博爱医院","lon":"121.44417408","lat":"31.208371816","category":"162","category_name":"医院","address":"卢湾区淮海中路1590号(近高安路)"},{"poiid":"B2094752D669A6F8449B","title":"鼎王无老养生锅","lon":"121.444528","lat":"31.209638","category":"500","category_name":"未知分类","address":"衡山路2号甲香樟花园"},{"poiid":"B2094757D06AA4F84298","title":"Hunan House","lon":"121.445337989","lat":"31.209769788","category":"77","category_name":"湖南菜","address":"徐汇区复兴西路49弄2号(近乌鲁木齐路)"},{"poiid":"B2094757D468AAFD4099","title":"鲁马滋 Rumors Coffee","lon":"121.442311","lat":"31.208188","category":"65","category_name":"咖啡厅","address":"徐汇区湖南路9号甲(近上海图书馆)"},{"poiid":"B2094757D069A4F8409B","title":"Rhumerie Bounty(永福路店)","lon":"121.44434","lat":"31.21114","category":"260","category_name":"其他","address":"徐汇区永福路47号1楼(近五原路)"},{"poiid":"B2094757D068A4F5429E","title":"La casbah coffee","lon":"121.44471633","lat":"31.208303673","category":"65","category_name":"咖啡厅","address":"上海市淮海中路1554号"},{"poiid":"B2094757D06AA4F9449A","title":"乌鲁木齐中路五原路","lon":"121.445794","lat":"31.212692","category":"500","category_name":"未知分类","address":"上海乌鲁木齐中路五原路"},{"poiid":"B2094757D06BA6F8419F","title":"河边港式粤菜","lon":"121.443920586","lat":"31.2106350478","category":"72","category_name":"广东菜","address":"徐汇区淮海中路1293号"},{"poiid":"B2094757D16BA4F5499D","title":"新味牛肉面","lon":"121.443720087","lat":"31.2100886758","category":"68","category_name":"快餐厅","address":"徐汇区永福路127号(近复兴西路口)"},{"poiid":"B2094751D36EA4F5409B","title":"Organic Kitchen","lon":"121.44503","lat":"31.21022","category":"94","category_name":"西餐厅","address":"徐汇区复兴西路57号(近永福路)"},{"poiid":"B2094757D06AA5FA489A","title":"五原路","lon":"121.44202758","lat":"31.211923073","category":"500","category_name":"未知分类","address":"上海徐汇区五原路"},{"poiid":"B2094757D56CA2FF419B","title":"Misael酒吧","lon":"121.440953","lat":"31.210136","category":"260","category_name":"其他","address":"徐汇区武康路103号(近复兴西路)"},{"poiid":"B2094750D36FA3F94992","title":"ARCADE","lon":"121.44450906607062","lat":"31.21043640843178","category":"260","category_name":"其他","address":"徐汇区复兴西路57号2楼(近永福路)"},{"poiid":"B2094757D069A4FF499B","title":"德国驻上海总领事馆","lon":"121.44299316","lat":"31.209003448","category":"46","category_name":"楼宇","address":"上海市徐汇区永福路181号"},{"poiid":"B2094752D764AAFF449A","title":"SPICE BAZAAR／香料集市","lon":"121.44263","lat":"31.210202","category":"247","category_name":"餐饮美食","address":"东平路29号"},{"poiid":"B2094750D76CA4FE4493","title":"Bikini","lon":"121.444","lat":"31.2115","category":"94","category_name":"西餐厅","address":"徐汇区永福路47号(近复兴路)"},{"poiid":"B209475CDA6EA7FE4193","title":"Hooters（淮海店）","lon":"121.445639","lat":"31.208961","category":"247","category_name":"餐饮美食","address":"上海市淮海中路1498号1号楼一层"},{"poiid":"B2094757D16FAAFE409B","title":"益佳粥店","lon":"121.443911586","lat":"31.2106520481","category":"247","category_name":"餐饮美食","address":"上海复兴路襄阳路"},{"poiid":"B2094757D06FA7FA4798","title":"城市山民.谷(Urban Tribe·the Valley)","lon":"121.442986","lat":"31.210565","category":"260","category_name":"其他","address":"徐汇区复兴西路133号(近永福路)"},{"poiid":"B2094654DB65A2FE499E","title":"micasa cincept","lon":"121.44358","lat":"31.20976","category":"183","category_name":"展览馆","address":""},{"poiid":"B2094757D069AAFD429B","title":"上海电影（集团）有限公司","lon":"121.44379425","lat":"31.2114124298","category":"248","category_name":"生活娱乐","address":"上海永福路52号"},{"poiid":"B2094757D66EA4F94092","title":"乌鲁木齐中路四川麻辣烫","lon":"121.444106586","lat":"31.2106480481","category":"247","category_name":"餐饮美食","address":"上海乌鲁木齐中路265号"},{"poiid":"B2094752D564AAFF4399","title":"季风书店（图书馆）","lon":"121.444154","lat":"31.207542","category":"248","category_name":"生活娱乐","address":"十号线图书馆站"},{"poiid":"B2094655D268A6FC449A","title":"Bi N74 Wine Room","lon":"121.44328","lat":"31.21078","category":"65","category_name":"咖啡厅","address":"复兴西路72-74"},{"poiid":"B2094654D564A4F94498","title":"徐汇爱德好贝幼稚园","lon":"121.44381","lat":"31.2108","category":"57","category_name":"幼儿园","address":"复兴西路70"},{"poiid":"B2094750D269A3FC4199","title":"帕特蒙 The Apartment","lon":"121.44435167313","lat":"31.211002980336","category":"247","category_name":"餐饮美食","address":"永福路47号302室近复兴西路"},{"poiid":"B2094757D16FAAF5449D","title":"永福路47号","lon":"121.44387758","lat":"31.211524065","category":"500","category_name":"未知分类","address":"上海市徐汇区永福路47号"},{"poiid":"B2094654D564A4F94392","title":"永福商务楼","lon":"121.44411","lat":"31.21128","category":"46","category_name":"楼宇","address":"永福路47"},{"poiid":"B2094654D564A4F8419F","title":"上海世纪出版股份有限公司教育出版社读者服务部","lon":"121.444","lat":"31.21029","category":"125","category_name":"书店","address":"永福路123-125"},{"poiid":"B2094757D068AAFE489F","title":"复兴西路","lon":"121.443012","lat":"31.208405","category":"46","category_name":"楼宇","address":"上海永福路"},{"poiid":"B2094655D36DA6FE449F","title":"上海图书馆","lon":"121.44394","lat":"31.20779","category":"181","category_name":"图书馆","address":"徐汇区淮海中路1555号(近高安路)"},{"poiid":"B2094757D06FA2FE429C","title":"The Apartment","lon":"121.44423272","lat":"31.2114678","category":"94","category_name":"西餐厅","address":"徐汇区永福路47号3楼(近复兴西路)"},{"poiid":"B2094753D76FAAFA449C","title":"上海滩国泰旗舰店","lon":"121.466011","lat":"31.216125","category":"249","category_name":"购物服务","address":"淮海中路868号"},{"poiid":"B209475CD564A7F8439E","title":"上海滩中信泰富店","lon":"121.45602","lat":"31.22851","category":"119","category_name":"商场","address":"\"南京西路1168号中信泰富广场，店铺号221.\r\n\""},{"poiid":"B2094757D06EAAF54992","title":"JZ club(爵士俱乐部)","lon":"121.44488035","lat":"31.210675495","category":"172","category_name":"酒吧","address":"徐汇区复兴西路46号(近乌鲁木齐中路)"},{"poiid":"B2094757D06FA1F5479B","title":"El Cóctel","lon":"121.44435072","lat":"31.211305167","category":"260","category_name":"其他","address":"徐汇区永福路47号2楼(近复兴西路)"},{"poiid":"B2094757D06EAAFB429A","title":"1984bookstore","lon":"121.442412","lat":"31.208109","category":"260","category_name":"其他","address":"徐汇区湖南路11号(永福路口)"},{"poiid":"B2094757D06FA1FA409A","title":"一品居热气羊肉馆(乌鲁木齐中路店)","lon":"121.44662","lat":"31.21043","category":"86","category_name":"火锅店","address":"徐汇区乌鲁木齐中路352号(近复兴西路)"},{"poiid":"B2094752D768A2FB409E","title":"鼎王无老锅（上海无老衡山店）","lon":"121.446411","lat":"31.211093","category":"247","category_name":"餐饮美食","address":"上海徐汇区衡山路2号甲(近桃江路)"},{"poiid":"B2094757D06FA5FD4293","title":"Mr. Willis","lon":"121.44397","lat":"31.21359","category":"94","category_name":"西餐厅","address":"徐汇区安福路195号3楼(近乌鲁木齐中路)"},{"poiid":"B2094654DB69A7FD4193","title":"雍福会","lon":"121.44264","lat":"31.20911","category":"76","category_name":"上海菜","address":"徐汇区永福路200号原英国领事馆(近湖南路)"},{"poiid":"B2094757DA69A3FB4199","title":"上海交响乐团","lon":"121.44194","lat":"31.2083","category":"646","category_name":"文化体育类公司","address":"徐汇区湖南路105号(近武康路)"},{"poiid":"B2094757D16CA3F44492","title":"Salute","lon":"121.444026586","lat":"31.2107440499","category":"94","category_name":"西餐厅","address":"静安区南京西路1038号梅龙镇伊势丹3楼(近江宁路)"},{"poiid":"B2094757D468AAFA439F","title":"Restaurant Cuivre","lon":"121.445625","lat":"31.209066","category":"94","category_name":"西餐厅","address":"徐汇区淮海中路1502号(近乌鲁木齐路)"},{"poiid":"B2094757D06FABFD459E","title":"高丽烧烤","lon":"121.4461","lat":"31.21237","category":"96","category_name":"韩国料理","address":"徐汇区五原路181弄1号(近乌鲁木齐中路)"},{"poiid":"B2094654DA6DA6FC4898","title":"上海图书馆(东门)","lon":"121.44525","lat":"31.20854","category":"181","category_name":"图书馆","address":"淮海中路1555号"},{"poiid":"B2094757D169ABF5459E","title":"Bocado","lon":"121.44390058","lat":"31.211565066","category":"94","category_name":"西餐厅","address":"徐汇区永福路47号203(近复兴路)"},{"poiid":"B2094757D06FA3FF449D","title":"上海图书馆地铁站","lon":"121.44394","lat":"31.207792","category":"36","category_name":"地铁站","address":"上海轨道交通 十号线 轨交上海图书馆站 10"},{"poiid":"B2094757D06FA2F4459E","title":"博多新记(乌鲁木齐店)","lon":"121.44655","lat":"31.21135","category":"72","category_name":"广东菜","address":"徐汇区乌鲁木齐中路300号(近五原路)"},{"poiid":"B2094757D66EA0FA489E","title":"NeNe Italian restaurant","lon":"121.443460786","lat":"31.2108263515","category":"94","category_name":"西餐厅","address":"徐汇区永福路47号106室(近复兴路)"},{"poiid":"B2094757D068A2F54493","title":"博爱医院","lon":"121.44417408","lat":"31.208371816","category":"162","category_name":"医院","address":"卢湾区淮海中路1590号(近高安路)"},{"poiid":"B2094752D669A6F8449B","title":"鼎王无老养生锅","lon":"121.444528","lat":"31.209638","category":"500","category_name":"未知分类","address":"衡山路2号甲香樟花园"},{"poiid":"B2094757D06AA4F84298","title":"Hunan House","lon":"121.445337989","lat":"31.209769788","category":"77","category_name":"湖南菜","address":"徐汇区复兴西路49弄2号(近乌鲁木齐路)"},{"poiid":"B2094757D468AAFD4099","title":"鲁马滋 Rumors Coffee","lon":"121.442311","lat":"31.208188","category":"65","category_name":"咖啡厅","address":"徐汇区湖南路9号甲(近上海图书馆)"},{"poiid":"B2094757D069A4F8409B","title":"Rhumerie Bounty(永福路店)","lon":"121.44434","lat":"31.21114","category":"260","category_name":"其他","address":"徐汇区永福路47号1楼(近五原路)"},{"poiid":"B2094757D068A4F5429E","title":"La casbah coffee","lon":"121.44471633","lat":"31.208303673","category":"65","category_name":"咖啡厅","address":"上海市淮海中路1554号"},{"poiid":"B2094757D06AA4F9449A","title":"乌鲁木齐中路五原路","lon":"121.445794","lat":"31.212692","category":"500","category_name":"未知分类","address":"上海乌鲁木齐中路五原路"},{"poiid":"B2094757D06BA6F8419F","title":"河边港式粤菜","lon":"121.443920586","lat":"31.2106350478","category":"72","category_name":"广东菜","address":"徐汇区淮海中路1293号"},{"poiid":"B2094757D16BA4F5499D","title":"新味牛肉面","lon":"121.443720087","lat":"31.2100886758","category":"68","category_name":"快餐厅","address":"徐汇区永福路127号(近复兴西路口)"},{"poiid":"B2094751D36EA4F5409B","title":"Organic Kitchen","lon":"121.44503","lat":"31.21022","category":"94","category_name":"西餐厅","address":"徐汇区复兴西路57号(近永福路)"},{"poiid":"B2094757D06AA5FA489A","title":"五原路","lon":"121.44202758","lat":"31.211923073","category":"500","category_name":"未知分类","address":"上海徐汇区五原路"},{"poiid":"B2094757D56CA2FF419B","title":"Misael酒吧","lon":"121.440953","lat":"31.210136","category":"260","category_name":"其他","address":"徐汇区武康路103号(近复兴西路)"},{"poiid":"B2094750D36FA3F94992","title":"ARCADE","lon":"121.44450906607062","lat":"31.21043640843178","category":"260","category_name":"其他","address":"徐汇区复兴西路57号2楼(近永福路)"},{"poiid":"B2094757D069A4FF499B","title":"德国驻上海总领事馆","lon":"121.44299316","lat":"31.209003448","category":"46","category_name":"楼宇","address":"上海市徐汇区永福路181号"},{"poiid":"B2094752D764AAFF449A","title":"SPICE BAZAAR／香料集市","lon":"121.44263","lat":"31.210202","category":"247","category_name":"餐饮美食","address":"东平路29号"},{"poiid":"B2094750D76CA4FE4493","title":"Bikini","lon":"121.444","lat":"31.2115","category":"94","category_name":"西餐厅","address":"徐汇区永福路47号(近复兴路)"},{"poiid":"B209475CDA6EA7FE4193","title":"Hooters（淮海店）","lon":"121.445639","lat":"31.208961","category":"247","category_name":"餐饮美食","address":"上海市淮海中路1498号1号楼一层"},{"poiid":"B2094757D16FAAFE409B","title":"益佳粥店","lon":"121.443911586","lat":"31.2106520481","category":"247","category_name":"餐饮美食","address":"上海复兴路襄阳路"},{"poiid":"B2094757D06FA7FA4798","title":"城市山民.谷(Urban Tribe·the Valley)","lon":"121.442986","lat":"31.210565","category":"260","category_name":"其他","address":"徐汇区复兴西路133号(近永福路)"},{"poiid":"B2094654DB65A2FE499E","title":"micasa cincept","lon":"121.44358","lat":"31.20976","category":"183","category_name":"展览馆","address":""},{"poiid":"B2094757D069AAFD429B","title":"上海电影（集团）有限公司","lon":"121.44379425","lat":"31.2114124298","category":"248","category_name":"生活娱乐","address":"上海永福路52号"},{"poiid":"B2094757D66EA4F94092","title":"乌鲁木齐中路四川麻辣烫","lon":"121.444106586","lat":"31.2106480481","category":"247","category_name":"餐饮美食","address":"上海乌鲁木齐中路265号"},{"poiid":"B2094752D564AAFF4399","title":"季风书店（图书馆）","lon":"121.444154","lat":"31.207542","category":"248","category_name":"生活娱乐","address":"十号线图书馆站"},{"poiid":"B2094655D268A6FC449A","title":"Bi N74 Wine Room","lon":"121.44328","lat":"31.21078","category":"65","category_name":"咖啡厅","address":"复兴西路72-74"},{"poiid":"B2094654D564A4F94498","title":"徐汇爱德好贝幼稚园","lon":"121.44381","lat":"31.2108","category":"57","category_name":"幼儿园","address":"复兴西路70"},{"poiid":"B2094750D269A3FC4199","title":"帕特蒙 The Apartment","lon":"121.44435167313","lat":"31.211002980336","category":"247","category_name":"餐饮美食","address":"永福路47号302室近复兴西路"},{"poiid":"B2094757D16FAAF5449D","title":"永福路47号","lon":"121.44387758","lat":"31.211524065","category":"500","category_name":"未知分类","address":"上海市徐汇区永福路47号"},{"poiid":"B2094654D564A4F94392","title":"永福商务楼","lon":"121.44411","lat":"31.21128","category":"46","category_name":"楼宇","address":"永福路47"},{"poiid":"B2094654D564A4F8419F","title":"上海世纪出版股份有限公司教育出版社读者服务部","lon":"121.444","lat":"31.21029","category":"125","category_name":"书店","address":"永福路123-125"},{"poiid":"B2094757D068AAFE489F","title":"复兴西路","lon":"121.443012","lat":"31.208405","category":"46","category_name":"楼宇","address":"上海永福路"},{"poiid":"B2094655D36DA6FE449F","title":"上海图书馆","lon":"121.44394","lat":"31.20779","category":"181","category_name":"图书馆","address":"徐汇区淮海中路1555号(近高安路)"},{"poiid":"B2094757D06FA2FE429C","title":"The Apartment","lon":"121.44423272","lat":"31.2114678","category":"94","category_name":"西餐厅","address":"徐汇区永福路47号3楼(近复兴西路)"},{"poiid":"B2094753D76FAAFA449C","title":"上海滩国泰旗舰店","lon":"121.466011","lat":"31.216125","category":"249","category_name":"购物服务","address":"淮海中路868号"},{"poiid":"B209475CD564A7F8439E","title":"上海滩中信泰富店","lon":"121.45602","lat":"31.22851","category":"119","category_name":"商场","address":"\"南京西路1168号中信泰富广场，店铺号221.\r\n\""},{"poiid":"B2094757D06EAAF54992","title":"JZ club(爵士俱乐部)","lon":"121.44488035","lat":"31.210675495","category":"172","category_name":"酒吧","address":"徐汇区复兴西路46号(近乌鲁木齐中路)"},{"poiid":"B2094757D06FA1F5479B","title":"El Cóctel","lon":"121.44435072","lat":"31.211305167","category":"260","category_name":"其他","address":"徐汇区永福路47号2楼(近复兴西路)"},{"poiid":"B2094757D06EAAFB429A","title":"1984bookstore","lon":"121.442412","lat":"31.208109","category":"260","category_name":"其他","address":"徐汇区湖南路11号(永福路口)"},{"poiid":"B2094757D06FA1FA409A","title":"一品居热气羊肉馆(乌鲁木齐中路店)","lon":"121.44662","lat":"31.21043","category":"86","category_name":"火锅店","address":"徐汇区乌鲁木齐中路352号(近复兴西路)"},{"poiid":"B2094752D768A2FB409E","title":"鼎王无老锅（上海无老衡山店）","lon":"121.446411","lat":"31.211093","category":"247","category_name":"餐饮美食","address":"上海徐汇区衡山路2号甲(近桃江路)"},{"poiid":"B2094757D06FA5FD4293","title":"Mr. Willis","lon":"121.44397","lat":"31.21359","category":"94","category_name":"西餐厅","address":"徐汇区安福路195号3楼(近乌鲁木齐中路)"},{"poiid":"B2094654DB69A7FD4193","title":"雍福会","lon":"121.44264","lat":"31.20911","category":"76","category_name":"上海菜","address":"徐汇区永福路200号原英国领事馆(近湖南路)"},{"poiid":"B2094757DA69A3FB4199","title":"上海交响乐团","lon":"121.44194","lat":"31.2083","category":"646","category_name":"文化体育类公司","address":"徐汇区湖南路105号(近武康路)"},{"poiid":"B2094757D16CA3F44492","title":"Salute","lon":"121.444026586","lat":"31.2107440499","category":"94","category_name":"西餐厅","address":"静安区南京西路1038号梅龙镇伊势丹3楼(近江宁路)"},{"poiid":"B2094757D468AAFA439F","title":"Restaurant Cuivre","lon":"121.445625","lat":"31.209066","category":"94","category_name":"西餐厅","address":"徐汇区淮海中路1502号(近乌鲁木齐路)"},{"poiid":"B2094757D06FABFD459E","title":"高丽烧烤","lon":"121.4461","lat":"31.21237","category":"96","category_name":"韩国料理","address":"徐汇区五原路181弄1号(近乌鲁木齐中路)"},{"poiid":"B2094654DA6DA6FC4898","title":"上海图书馆(东门)","lon":"121.44525","lat":"31.20854","category":"181","category_name":"图书馆","address":"淮海中路1555号"},{"poiid":"B2094757D169ABF5459E","title":"Bocado","lon":"121.44390058","lat":"31.211565066","category":"94","category_name":"西餐厅","address":"徐汇区永福路47号203(近复兴路)"},{"poiid":"B2094757D06FA3FF449D","title":"上海图书馆地铁站","lon":"121.44394","lat":"31.207792","category":"36","category_name":"地铁站","address":"上海轨道交通 十号线 轨交上海图书馆站 10"},{"poiid":"B2094757D06FA2F4459E","title":"博多新记(乌鲁木齐店)","lon":"121.44655","lat":"31.21135","category":"72","category_name":"广东菜","address":"徐汇区乌鲁木齐中路300号(近五原路)"},{"poiid":"B2094757D66EA0FA489E","title":"NeNe Italian restaurant","lon":"121.443460786","lat":"31.2108263515","category":"94","category_name":"西餐厅","address":"徐汇区永福路47号106室(近复兴路)"},{"poiid":"B2094757D068A2F54493","title":"博爱医院","lon":"121.44417408","lat":"31.208371816","category":"162","category_name":"医院","address":"卢湾区淮海中路1590号(近高安路)"},{"poiid":"B2094752D669A6F8449B","title":"鼎王无老养生锅","lon":"121.444528","lat":"31.209638","category":"500","category_name":"未知分类","address":"衡山路2号甲香樟花园"},{"poiid":"B2094757D06AA4F84298","title":"Hunan House","lon":"121.445337989","lat":"31.209769788","category":"77","category_name":"湖南菜","address":"徐汇区复兴西路49弄2号(近乌鲁木齐路)"},{"poiid":"B2094757D468AAFD4099","title":"鲁马滋 Rumors Coffee","lon":"121.442311","lat":"31.208188","category":"65","category_name":"咖啡厅","address":"徐汇区湖南路9号甲(近上海图书馆)"},{"poiid":"B2094757D069A4F8409B","title":"Rhumerie Bounty(永福路店)","lon":"121.44434","lat":"31.21114","category":"260","category_name":"其他","address":"徐汇区永福路47号1楼(近五原路)"},{"poiid":"B2094757D068A4F5429E","title":"La casbah coffee","lon":"121.44471633","lat":"31.208303673","category":"65","category_name":"咖啡厅","address":"上海市淮海中路1554号"},{"poiid":"B2094757D06AA4F9449A","title":"乌鲁木齐中路五原路","lon":"121.445794","lat":"31.212692","category":"500","category_name":"未知分类","address":"上海乌鲁木齐中路五原路"},{"poiid":"B2094757D06BA6F8419F","title":"河边港式粤菜","lon":"121.443920586","lat":"31.2106350478","category":"72","category_name":"广东菜","address":"徐汇区淮海中路1293号"},{"poiid":"B2094757D16BA4F5499D","title":"新味牛肉面","lon":"121.443720087","lat":"31.2100886758","category":"68","category_name":"快餐厅","address":"徐汇区永福路127号(近复兴西路口)"},{"poiid":"B2094751D36EA4F5409B","title":"Organic Kitchen","lon":"121.44503","lat":"31.21022","category":"94","category_name":"西餐厅","address":"徐汇区复兴西路57号(近永福路)"},{"poiid":"B2094757D06AA5FA489A","title":"五原路","lon":"121.44202758","lat":"31.211923073","category":"500","category_name":"未知分类","address":"上海徐汇区五原路"},{"poiid":"B2094757D56CA2FF419B","title":"Misael酒吧","lon":"121.440953","lat":"31.210136","category":"260","category_name":"其他","address":"徐汇区武康路103号(近复兴西路)"},{"poiid":"B2094750D36FA3F94992","title":"ARCADE","lon":"121.44450906607062","lat":"31.21043640843178","category":"260","category_name":"其他","address":"徐汇区复兴西路57号2楼(近永福路)"},{"poiid":"B2094757D069A4FF499B","title":"德国驻上海总领事馆","lon":"121.44299316","lat":"31.209003448","category":"46","category_name":"楼宇","address":"上海市徐汇区永福路181号"},{"poiid":"B2094752D764AAFF449A","title":"SPICE BAZAAR／香料集市","lon":"121.44263","lat":"31.210202","category":"247","category_name":"餐饮美食","address":"东平路29号"},{"poiid":"B2094750D76CA4FE4493","title":"Bikini","lon":"121.444","lat":"31.2115","category":"94","category_name":"西餐厅","address":"徐汇区永福路47号(近复兴路)"},{"poiid":"B209475CDA6EA7FE4193","title":"Hooters（淮海店）","lon":"121.445639","lat":"31.208961","category":"247","category_name":"餐饮美食","address":"上海市淮海中路1498号1号楼一层"},{"poiid":"B2094757D16FAAFE409B","title":"益佳粥店","lon":"121.443911586","lat":"31.2106520481","category":"247","category_name":"餐饮美食","address":"上海复兴路襄阳路"},{"poiid":"B2094757D06FA7FA4798","title":"城市山民.谷(Urban Tribe·the Valley)","lon":"121.442986","lat":"31.210565","category":"260","category_name":"其他","address":"徐汇区复兴西路133号(近永福路)"},{"poiid":"B2094654DB65A2FE499E","title":"micasa cincept","lon":"121.44358","lat":"31.20976","category":"183","category_name":"展览馆","address":""},{"poiid":"B2094757D069AAFD429B","title":"上海电影（集团）有限公司","lon":"121.44379425","lat":"31.2114124298","category":"248","category_name":"生活娱乐","address":"上海永福路52号"},{"poiid":"B2094757D66EA4F94092","title":"乌鲁木齐中路四川麻辣烫","lon":"121.444106586","lat":"31.2106480481","category":"247","category_name":"餐饮美食","address":"上海乌鲁木齐中路265号"},{"poiid":"B2094752D564AAFF4399","title":"季风书店（图书馆）","lon":"121.444154","lat":"31.207542","category":"248","category_name":"生活娱乐","address":"十号线图书馆站"},{"poiid":"B2094655D268A6FC449A","title":"Bi N74 Wine Room","lon":"121.44328","lat":"31.21078","category":"65","category_name":"咖啡厅","address":"复兴西路72-74"},{"poiid":"B2094654D564A4F94498","title":"徐汇爱德好贝幼稚园","lon":"121.44381","lat":"31.2108","category":"57","category_name":"幼儿园","address":"复兴西路70"},{"poiid":"B2094750D269A3FC4199","title":"帕特蒙 The Apartment","lon":"121.44435167313","lat":"31.211002980336","category":"247","category_name":"餐饮美食","address":"永福路47号302室近复兴西路"},{"poiid":"B2094757D16FAAF5449D","title":"永福路47号","lon":"121.44387758","lat":"31.211524065","category":"500","category_name":"未知分类","address":"上海市徐汇区永福路47号"},{"poiid":"B2094654D564A4F94392","title":"永福商务楼","lon":"121.44411","lat":"31.21128","category":"46","category_name":"楼宇","address":"永福路47"},{"poiid":"B2094654D564A4F8419F","title":"上海世纪出版股份有限公司教育出版社读者服务部","lon":"121.444","lat":"31.21029","category":"125","category_name":"书店","address":"永福路123-125"}]