[{"poiid":"B2094757D06FA3F4489C","title":"和记小菜(长宁店)","lon":"121.40547","lat":"31.2172","category":"76","category_name":"上海菜","address":"长宁区娄山关路999弄79号春天花园会所(近长宁路)"},{"poiid":"B2094757D06FA3F44893","title":"天山中医医院","lon":"121.40489641","lat":"31.2147423822","category":"162","category_name":"医院","address":"长宁区娄山关路868号(近云雾山路)"},{"poiid":"B2094757D06FA3F8429B","title":"好乐迪量贩式KTV(天山店)","lon":"121.403163586","lat":"31.2139461125","category":"170","category_name":"KTV","address":"上海市长宁区长宁路889号百盛购物中心5楼"},{"poiid":"B2094655D36CA5F9419B","title":"长宁路娄山关路","lon":"121.40622","lat":"31.21751","category":"38","category_name":"公交车站","address":""},{"poiid":"B2094757D06FABF5439D","title":"春天花园","lon":"121.4038","lat":"31.217037","category":"47","category_name":"住宅区","address":"长宁区娄山关路999弄(近长宁路)"},{"poiid":"B2094757D06FA5FB4593","title":"长宁区公共卫生中心","lon":"121.406557","lat":"31.215167","category":"162","category_name":"医院","address":"上海云雾山路39号"},{"poiid":"B2094654D56BA4F4469F","title":"上海花城","lon":"121.40445","lat":"31.21896","category":"47","category_name":"住宅区","address":"普陀区澳门路519号华生大厦2号楼2202室(近普陀路)查看地图"},{"poiid":"B2094757D06FA6F84998","title":"威尔士健身会所(长宁店)","lon":"121.40599","lat":"31.21729","category":"221","category_name":"健身中心","address":"长宁区娄山关路999号春天花园(近长宁路)"},{"poiid":"B2094757D66BA2F94592","title":"角落里ころり Corori","lon":"121.405356054","lat":"31.215454793","category":"95","category_name":"日本料理","address":"娄山关路884号近云雾山路"},{"poiid":"B2094654DB69AAFF479F","title":"天山中医院","lon":"121.40525","lat":"31.21475","category":"162","category_name":"医院","address":"上海市长宁区娄山关路868号"},{"poiid":"B2094757D06FAAF44298","title":"艺林盲人按摩院(长宁店)","lon":"121.40361","lat":"31.21796","category":"149","category_name":"洗浴推拿场所","address":"长宁区长宁路1842号"},{"poiid":"B2094655D36CA5F94092","title":"长宁路遵义路","lon":"121.40806","lat":"31.21718","category":"38","category_name":"公交车站","address":"上海长宁路遵义路"},{"poiid":"B2094757D068A3FC429A","title":"同达创业大厦","lon":"121.403","lat":"31.2189","category":"46","category_name":"楼宇","address":"朝阳华威桥东北角"},{"poiid":"B2094757D06FA1FC459F","title":"南华火锅(天山店)","lon":"121.40546","lat":"31.21478","category":"86","category_name":"火锅店","address":"长宁区娄山关路858号(玉屏南路口)"},{"poiid":"B2094757D069A6F4469D","title":"全家便利(虹桥机场店)","lon":"121.405636","lat":"31.218717","category":"117","category_name":"便民商店/便利店","address":"上海长宁区虹桥机场2号航站楼内"},{"poiid":"B2094757D068A2FB499E","title":"虹桥新城","lon":"121.40627","lat":"31.216637","category":"47","category_name":"住宅区","address":"上海市徐汇区漕溪北路555号(南丹东路口)"},{"poiid":"B2094757D165AAF84493","title":"宁悦人家","lon":"121.404210586","lat":"31.2179331905","category":"76","category_name":"上海菜","address":"长宁区长宁路1796号(近娄山关路)"},{"poiid":"B2094757DB69A5FF489F","title":"东方明珠塔","lon":"121.404627","lat":"31.216969","category":"500","category_name":"未知分类","address":null},{"poiid":"B2094654D56BA0FE489F","title":"小花园经典上海菜","lon":"121.40526737137","lat":"31.21600775918","category":"76","category_name":"上海菜","address":"长宁区云雾山路81号(娄山关路)"},{"poiid":"B2094751D36AA4F54392","title":"长湘情蒸菜馆","lon":"121.40518","lat":"31.21577","category":"77","category_name":"湖南菜","address":"长宁区云雾山路108号(近娄山关路)"},{"poiid":"B2094757D069A0F5479E","title":"春草堂足疗(长宁店)","lon":"121.40519","lat":"31.218","category":"149","category_name":"洗浴推拿场所","address":"上海长宁区长宁路1798号(近娄山关路)  "},{"poiid":"B2094757D068A4F94798","title":"牛尚牛炭烤","lon":"121.40501158","lat":"31.215629145","category":"269","category_name":"烧烤","address":"长宁区云雾山路102号(近娄山关路)"},{"poiid":"B2094654D56BA0FF4198","title":"金匠发型工作室(娄山关路)","lon":"121.4053","lat":"31.21677","category":"148","category_name":"美容美发店","address":"长宁区娄山关路1016号(近长宁路)"},{"poiid":"B2094655D26AABFA419A","title":"锦江之星上海长宁店","lon":"121.40729","lat":"31.21788","category":"250","category_name":"公园户外","address":"上海长宁区长宁路1600弄5号(近遵义路)  "},{"poiid":"B2094750DB69A5FE449E","title":"新招鲜","lon":"121.404815","lat":"31.214859","category":"247","category_name":"餐饮美食","address":"长宁区娄山关路858号2楼(近玉屏南路)"},{"poiid":"B2094655D26FA3FE4998","title":"永琪美容美发(娄山关店)","lon":"121.40519","lat":"31.21557","category":"148","category_name":"美容美发店","address":"长宁区云雾山路118号-120号"},{"poiid":"B2094757D069A3FD449E","title":"金玉门大酒店","lon":"121.40559","lat":"31.21515","category":"76","category_name":"上海菜","address":"长宁区云雾山路79号(近娄山关路)"},{"poiid":"B2094757D068A4F9409B","title":"四海游龙(玉屏店)","lon":"121.40478","lat":"31.21408","category":"68","category_name":"快餐厅","address":"长宁区娄山关路921号(近玉屏南路)"},{"poiid":"B2094750D76DA1FF489B","title":"串丁","lon":"121.405","lat":"31.2151","category":"269","category_name":"烧烤","address":"长宁区娄山关路888号101室(近云雾山路)"},{"poiid":"B2094654D56BA4F4459B","title":"周家桥街道社区卫生服务中心","lon":"121.40583","lat":"31.21796","category":"162","category_name":"医院","address":"长宁区长宁路1700号(近万航渡路)"},{"poiid":"B2094655D26AA7F8449F","title":"上航旅游娄山关路店","lon":"121.40525","lat":"31.2166","category":"247","category_name":"餐饮美食","address":"长宁区娄山关路1020号(近长宁路)"},{"poiid":"B2094655D26AA5F54099","title":"临空网吧游艺城","lon":"121.40525","lat":"31.2166","category":"247","category_name":"餐饮美食","address":"长宁区娄山关路1022号(近长宁路)"},{"poiid":"B2094757DB69A7F44799","title":"和米堂","lon":"121.403828","lat":"31.218376","category":"95","category_name":"日本料理","address":"长宁区长宁路820号上海小马路美食街轻食区-10商铺"},{"poiid":"B2094757D068A0F4469D","title":"玉屏南路娄山关路","lon":"121.40424508","lat":"31.212879846","category":"500","category_name":"未知分类","address":"上海玉屏"},{"poiid":"B2094757D16CA1FB499A","title":"来必堡 娄山关路店 Reboo Short order","lon":"121.405337","lat":"31.215238","category":"68","category_name":"快餐厅","address":"长宁区娄山关路888号(近云雾山路)"},{"poiid":"B2094750D664A5F4459D","title":"彩椿","lon":"121.406","lat":"31.2154","category":"95","category_name":"日本料理","address":"长宁区娄山关路888号虹桥假日广场103室"},{"poiid":"B2094757D66BA2F4499D","title":"信创作料亭 Xin Shanghai Restaurant","lon":"121.40671485505","lat":"31.21641690793","category":"95","category_name":"日本料理","address":"长宁区云雾山路77号(近娄山关路)"},{"poiid":"B2094752DB6AAAF94893","title":"家顺寿司","lon":"121.404848","lat":"31.215462","category":"247","category_name":"餐饮美食","address":"上海市 中山公园龙之梦"},{"poiid":"B2094654D56BA0FF409A","title":"美宁口腔门诊","lon":"121.4052","lat":"31.21595","category":"162","category_name":"医院","address":"长宁区娄山关路976号(近长宁路)"},{"poiid":"B2094655D26EA3F4499A","title":"上海电子信息职业技术学院(长宁校区)","lon":"121.40313","lat":"31.2149","category":"54","category_name":"职业技术学校","address":"上海市长宁区娄山关路玉屏南路"},{"poiid":"B2094757D469A1FD439E","title":"重庆鸡公煲 娄山关路店","lon":"121.405142","lat":"31.215135","category":"86","category_name":"火锅店","address":"长宁区娄山关路826号(近天山路)"},{"poiid":"B2094757D66DA6FE4393","title":"龙华医院附属天山中医院","lon":"121.40531758","lat":"31.214448122","category":"162","category_name":"医院","address":"上海市长宁区锦屏路"},{"poiid":"B2094654D56BA0FF4298","title":"REPLAY流行时尚形象设计中心","lon":"121.40531","lat":"31.21684","category":"148","category_name":"美容美发店","address":""},{"poiid":"B2094654D56BA0FF4098","title":"聚鑫阁保健","lon":"121.40522","lat":"31.21636","category":"141","category_name":"服装鞋帽皮具店","address":"娄山关路1004号2层"},{"poiid":"B2094757D469A2F9429B","title":"新城市桂林米粉","lon":"121.40454","lat":"31.21127","category":"68","category_name":"快餐厅","address":"长宁区娄山关路758号(汇金百货旁)"},{"poiid":"B2094757D468AAFC429F","title":"牛尚牛","lon":"121.405705","lat":"31.215754","category":"269","category_name":"烧烤","address":"云雾山路102号近娄山关路"},{"poiid":"B2094757DA65A5F5419F","title":"布丁酒店连锁（上海中山公园店）","lon":"121.405743957","lat":"31.217962717","category":"216","category_name":"经济型连锁酒店","address":"长宁区万航渡路2579号"},{"poiid":"B2094655D26DA2F84092","title":"万紫千红商务会所","lon":"121.40549","lat":"31.21527","category":"170","category_name":"KTV","address":"云雾山路79"},{"poiid":"B2094757D06AA0F54893","title":"上海市长宁区社会保险事业管理中心","lon":"121.40507078","lat":"31.216881229","category":"500","category_name":"未知分类","address":"上海天山路38号"},{"poiid":"B2094757D465A1FF419A","title":"锦江大厨 长宁店","lon":"121.40662419905","lat":"31.217692670021","category":"76","category_name":"上海菜","address":"长宁区长宁路1600弄5号(近娄山关路)"},{"poiid":"B2094757D06FA3F4489C","title":"和记小菜(长宁店)","lon":"121.40547","lat":"31.2172","category":"76","category_name":"上海菜","address":"长宁区娄山关路999弄79号春天花园会所(近长宁路)"},{"poiid":"B2094757D06FA3F44893","title":"天山中医医院","lon":"121.40489641","lat":"31.2147423822","category":"162","category_name":"医院","address":"长宁区娄山关路868号(近云雾山路)"},{"poiid":"B2094757D06FA3F8429B","title":"好乐迪量贩式KTV(天山店)","lon":"121.403163586","lat":"31.2139461125","category":"170","category_name":"KTV","address":"上海市长宁区长宁路889号百盛购物中心5楼"},{"poiid":"B2094655D36CA5F9419B","title":"长宁路娄山关路","lon":"121.40622","lat":"31.21751","category":"38","category_name":"公交车站","address":""},{"poiid":"B2094757D06FABF5439D","title":"春天花园","lon":"121.4038","lat":"31.217037","category":"47","category_name":"住宅区","address":"长宁区娄山关路999弄(近长宁路)"},{"poiid":"B2094757D06FA5FB4593","title":"长宁区公共卫生中心","lon":"121.406557","lat":"31.215167","category":"162","category_name":"医院","address":"上海云雾山路39号"},{"poiid":"B2094654D56BA4F4469F","title":"上海花城","lon":"121.40445","lat":"31.21896","category":"47","category_name":"住宅区","address":"普陀区澳门路519号华生大厦2号楼2202室(近普陀路)查看地图"},{"poiid":"B2094757D06FA6F84998","title":"威尔士健身会所(长宁店)","lon":"121.40599","lat":"31.21729","category":"221","category_name":"健身中心","address":"长宁区娄山关路999号春天花园(近长宁路)"},{"poiid":"B2094757D66BA2F94592","title":"角落里ころり Corori","lon":"121.405356054","lat":"31.215454793","category":"95","category_name":"日本料理","address":"娄山关路884号近云雾山路"},{"poiid":"B2094654DB69AAFF479F","title":"天山中医院","lon":"121.40525","lat":"31.21475","category":"162","category_name":"医院","address":"上海市长宁区娄山关路868号"},{"poiid":"B2094757D06FAAF44298","title":"艺林盲人按摩院(长宁店)","lon":"121.40361","lat":"31.21796","category":"149","category_name":"洗浴推拿场所","address":"长宁区长宁路1842号"},{"poiid":"B2094655D36CA5F94092","title":"长宁路遵义路","lon":"121.40806","lat":"31.21718","category":"38","category_name":"公交车站","address":"上海长宁路遵义路"},{"poiid":"B2094757D068A3FC429A","title":"同达创业大厦","lon":"121.403","lat":"31.2189","category":"46","category_name":"楼宇","address":"朝阳华威桥东北角"},{"poiid":"B2094757D06FA1FC459F","title":"南华火锅(天山店)","lon":"121.40546","lat":"31.21478","category":"86","category_name":"火锅店","address":"长宁区娄山关路858号(玉屏南路口)"},{"poiid":"B2094757D069A6F4469D","title":"全家便利(虹桥机场店)","lon":"121.405636","lat":"31.218717","category":"117","category_name":"便民商店/便利店","address":"上海长宁区虹桥机场2号航站楼内"},{"poiid":"B2094757D068A2FB499E","title":"虹桥新城","lon":"121.40627","lat":"31.216637","category":"47","category_name":"住宅区","address":"上海市徐汇区漕溪北路555号(南丹东路口)"},{"poiid":"B2094757D165AAF84493","title":"宁悦人家","lon":"121.404210586","lat":"31.2179331905","category":"76","category_name":"上海菜","address":"长宁区长宁路1796号(近娄山关路)"},{"poiid":"B2094757DB69A5FF489F","title":"东方明珠塔","lon":"121.404627","lat":"31.216969","category":"500","category_name":"未知分类","address":null},{"poiid":"B2094654D56BA0FE489F","title":"小花园经典上海菜","lon":"121.40526737137","lat":"31.21600775918","category":"76","category_name":"上海菜","address":"长宁区云雾山路81号(娄山关路)"},{"poiid":"B2094751D36AA4F54392","title":"长湘情蒸菜馆","lon":"121.40518","lat":"31.21577","category":"77","category_name":"湖南菜","address":"长宁区云雾山路108号(近娄山关路)"},{"poiid":"B2094757D069A0F5479E","title":"春草堂足疗(长宁店)","lon":"121.40519","lat":"31.218","category":"149","category_name":"洗浴推拿场所","address":"上海长宁区长宁路1798号(近娄山关路)  "},{"poiid":"B2094757D068A4F94798","title":"牛尚牛炭烤","lon":"121.40501158","lat":"31.215629145","category":"269","category_name":"烧烤","address":"长宁区云雾山路102号(近娄山关路)"},{"poiid":"B2094654D56BA0FF4198","title":"金匠发型工作室(娄山关路)","lon":"121.4053","lat":"31.21677","category":"148","category_name":"美容美发店","address":"长宁区娄山关路1016号(近长宁路)"},{"poiid":"B2094655D26AABFA419A","title":"锦江之星上海长宁店","lon":"121.40729","lat":"31.21788","category":"250","category_name":"公园户外","address":"上海长宁区长宁路1600弄5号(近遵义路)  "},{"poiid":"B2094750DB69A5FE449E","title":"新招鲜","lon":"121.404815","lat":"31.214859","category":"247","category_name":"餐饮美食","address":"长宁区娄山关路858号2楼(近玉屏南路)"},{"poiid":"B2094655D26FA3FE4998","title":"永琪美容美发(娄山关店)","lon":"121.40519","lat":"31.21557","category":"148","category_name":"美容美发店","address":"长宁区云雾山路118号-120号"},{"poiid":"B2094757D069A3FD449E","title":"金玉门大酒店","lon":"121.40559","lat":"31.21515","category":"76","category_name":"上海菜","address":"长宁区云雾山路79号(近娄山关路)"},{"poiid":"B2094757D068A4F9409B","title":"四海游龙(玉屏店)","lon":"121.40478","lat":"31.21408","category":"68","category_name":"快餐厅","address":"长宁区娄山关路921号(近玉屏南路)"},{"poiid":"B2094750D76DA1FF489B","title":"串丁","lon":"121.405","lat":"31.2151","category":"269","category_name":"烧烤","address":"长宁区娄山关路888号101室(近云雾山路)"},{"poiid":"B2094654D56BA4F4459B","title":"周家桥街道社区卫生服务中心","lon":"121.40583","lat":"31.21796","category":"162","category_name":"医院","address":"长宁区长宁路1700号(近万航渡路)"},{"poiid":"B2094655D26AA7F8449F","title":"上航旅游娄山关路店","lon":"121.40525","lat":"31.2166","category":"247","category_name":"餐饮美食","address":"长宁区娄山关路1020号(近长宁路)"},{"poiid":"B2094655D26AA5F54099","title":"临空网吧游艺城","lon":"121.40525","lat":"31.2166","category":"247","category_name":"餐饮美食","address":"长宁区娄山关路1022号(近长宁路)"},{"poiid":"B2094757DB69A7F44799","title":"和米堂","lon":"121.403828","lat":"31.218376","category":"95","category_name":"日本料理","address":"长宁区长宁路820号上海小马路美食街轻食区-10商铺"},{"poiid":"B2094757D068A0F4469D","title":"玉屏南路娄山关路","lon":"121.40424508","lat":"31.212879846","category":"500","category_name":"未知分类","address":"上海玉屏"},{"poiid":"B2094757D16CA1FB499A","title":"来必堡 娄山关路店 Reboo Short order","lon":"121.405337","lat":"31.215238","category":"68","category_name":"快餐厅","address":"长宁区娄山关路888号(近云雾山路)"},{"poiid":"B2094750D664A5F4459D","title":"彩椿","lon":"121.406","lat":"31.2154","category":"95","category_name":"日本料理","address":"长宁区娄山关路888号虹桥假日广场103室"},{"poiid":"B2094757D66BA2F4499D","title":"信创作料亭 Xin Shanghai Restaurant","lon":"121.40671485505","lat":"31.21641690793","category":"95","category_name":"日本料理","address":"长宁区云雾山路77号(近娄山关路)"},{"poiid":"B2094752DB6AAAF94893","title":"家顺寿司","lon":"121.404848","lat":"31.215462","category":"247","category_name":"餐饮美食","address":"上海市 中山公园龙之梦"},{"poiid":"B2094654D56BA0FF409A","title":"美宁口腔门诊","lon":"121.4052","lat":"31.21595","category":"162","category_name":"医院","address":"长宁区娄山关路976号(近长宁路)"},{"poiid":"B2094655D26EA3F4499A","title":"上海电子信息职业技术学院(长宁校区)","lon":"121.40313","lat":"31.2149","category":"54","category_name":"职业技术学校","address":"上海市长宁区娄山关路玉屏南路"},{"poiid":"B2094757D469A1FD439E","title":"重庆鸡公煲 娄山关路店","lon":"121.405142","lat":"31.215135","category":"86","category_name":"火锅店","address":"长宁区娄山关路826号(近天山路)"},{"poiid":"B2094757D66DA6FE4393","title":"龙华医院附属天山中医院","lon":"121.40531758","lat":"31.214448122","category":"162","category_name":"医院","address":"上海市长宁区锦屏路"},{"poiid":"B2094654D56BA0FF4298","title":"REPLAY流行时尚形象设计中心","lon":"121.40531","lat":"31.21684","category":"148","category_name":"美容美发店","address":""},{"poiid":"B2094654D56BA0FF4098","title":"聚鑫阁保健","lon":"121.40522","lat":"31.21636","category":"141","category_name":"服装鞋帽皮具店","address":"娄山关路1004号2层"},{"poiid":"B2094757D469A2F9429B","title":"新城市桂林米粉","lon":"121.40454","lat":"31.21127","category":"68","category_name":"快餐厅","address":"长宁区娄山关路758号(汇金百货旁)"},{"poiid":"B2094757D468AAFC429F","title":"牛尚牛","lon":"121.405705","lat":"31.215754","category":"269","category_name":"烧烤","address":"云雾山路102号近娄山关路"},{"poiid":"B2094757DA65A5F5419F","title":"布丁酒店连锁（上海中山公园店）","lon":"121.405743957","lat":"31.217962717","category":"216","category_name":"经济型连锁酒店","address":"长宁区万航渡路2579号"},{"poiid":"B2094655D26DA2F84092","title":"万紫千红商务会所","lon":"121.40549","lat":"31.21527","category":"170","category_name":"KTV","address":"云雾山路79"},{"poiid":"B2094757D06AA0F54893","title":"上海市长宁区社会保险事业管理中心","lon":"121.40507078","lat":"31.216881229","category":"500","category_name":"未知分类","address":"上海天山路38号"},{"poiid":"B2094757D465A1FF419A","title":"锦江大厨 长宁店","lon":"121.40662419905","lat":"31.217692670021","category":"76","category_name":"上海菜","address":"长宁区长宁路1600弄5号(近娄山关路)"},{"poiid":"B2094757D06FA3F4489C","title":"和记小菜(长宁店)","lon":"121.40547","lat":"31.2172","category":"76","category_name":"上海菜","address":"长宁区娄山关路999弄79号春天花园会所(近长宁路)"},{"poiid":"B2094757D06FA3F44893","title":"天山中医医院","lon":"121.40489641","lat":"31.2147423822","category":"162","category_name":"医院","address":"长宁区娄山关路868号(近云雾山路)"},{"poiid":"B2094757D06FA3F8429B","title":"好乐迪量贩式KTV(天山店)","lon":"121.403163586","lat":"31.2139461125","category":"170","category_name":"KTV","address":"上海市长宁区长宁路889号百盛购物中心5楼"},{"poiid":"B2094655D36CA5F9419B","title":"长宁路娄山关路","lon":"121.40622","lat":"31.21751","category":"38","category_name":"公交车站","address":""},{"poiid":"B2094757D06FABF5439D","title":"春天花园","lon":"121.4038","lat":"31.217037","category":"47","category_name":"住宅区","address":"长宁区娄山关路999弄(近长宁路)"},{"poiid":"B2094757D06FA5FB4593","title":"长宁区公共卫生中心","lon":"121.406557","lat":"31.215167","category":"162","category_name":"医院","address":"上海云雾山路39号"},{"poiid":"B2094654D56BA4F4469F","title":"上海花城","lon":"121.40445","lat":"31.21896","category":"47","category_name":"住宅区","address":"普陀区澳门路519号华生大厦2号楼2202室(近普陀路)查看地图"},{"poiid":"B2094757D06FA6F84998","title":"威尔士健身会所(长宁店)","lon":"121.40599","lat":"31.21729","category":"221","category_name":"健身中心","address":"长宁区娄山关路999号春天花园(近长宁路)"},{"poiid":"B2094757D66BA2F94592","title":"角落里ころり Corori","lon":"121.405356054","lat":"31.215454793","category":"95","category_name":"日本料理","address":"娄山关路884号近云雾山路"},{"poiid":"B2094654DB69AAFF479F","title":"天山中医院","lon":"121.40525","lat":"31.21475","category":"162","category_name":"医院","address":"上海市长宁区娄山关路868号"},{"poiid":"B2094757D06FAAF44298","title":"艺林盲人按摩院(长宁店)","lon":"121.40361","lat":"31.21796","category":"149","category_name":"洗浴推拿场所","address":"长宁区长宁路1842号"},{"poiid":"B2094655D36CA5F94092","title":"长宁路遵义路","lon":"121.40806","lat":"31.21718","category":"38","category_name":"公交车站","address":"上海长宁路遵义路"},{"poiid":"B2094757D068A3FC429A","title":"同达创业大厦","lon":"121.403","lat":"31.2189","category":"46","category_name":"楼宇","address":"朝阳华威桥东北角"},{"poiid":"B2094757D06FA1FC459F","title":"南华火锅(天山店)","lon":"121.40546","lat":"31.21478","category":"86","category_name":"火锅店","address":"长宁区娄山关路858号(玉屏南路口)"},{"poiid":"B2094757D069A6F4469D","title":"全家便利(虹桥机场店)","lon":"121.405636","lat":"31.218717","category":"117","category_name":"便民商店/便利店","address":"上海长宁区虹桥机场2号航站楼内"},{"poiid":"B2094757D068A2FB499E","title":"虹桥新城","lon":"121.40627","lat":"31.216637","category":"47","category_name":"住宅区","address":"上海市徐汇区漕溪北路555号(南丹东路口)"},{"poiid":"B2094757D165AAF84493","title":"宁悦人家","lon":"121.404210586","lat":"31.2179331905","category":"76","category_name":"上海菜","address":"长宁区长宁路1796号(近娄山关路)"},{"poiid":"B2094757DB69A5FF489F","title":"东方明珠塔","lon":"121.404627","lat":"31.216969","category":"500","category_name":"未知分类","address":null},{"poiid":"B2094654D56BA0FE489F","title":"小花园经典上海菜","lon":"121.40526737137","lat":"31.21600775918","category":"76","category_name":"上海菜","address":"长宁区云雾山路81号(娄山关路)"},{"poiid":"B2094751D36AA4F54392","title":"长湘情蒸菜馆","lon":"121.40518","lat":"31.21577","category":"77","category_name":"湖南菜","address":"长宁区云雾山路108号(近娄山关路)"},{"poiid":"B2094757D069A0F5479E","title":"春草堂足疗(长宁店)","lon":"121.40519","lat":"31.218","category":"149","category_name":"洗浴推拿场所","address":"上海长宁区长宁路1798号(近娄山关路)  "},{"poiid":"B2094757D068A4F94798","title":"牛尚牛炭烤","lon":"121.40501158","lat":"31.215629145","category":"269","category_name":"烧烤","address":"长宁区云雾山路102号(近娄山关路)"},{"poiid":"B2094654D56BA0FF4198","title":"金匠发型工作室(娄山关路)","lon":"121.4053","lat":"31.21677","category":"148","category_name":"美容美发店","address":"长宁区娄山关路1016号(近长宁路)"},{"poiid":"B2094655D26AABFA419A","title":"锦江之星上海长宁店","lon":"121.40729","lat":"31.21788","category":"250","category_name":"公园户外","address":"上海长宁区长宁路1600弄5号(近遵义路)  "},{"poiid":"B2094750DB69A5FE449E","title":"新招鲜","lon":"121.404815","lat":"31.214859","category":"247","category_name":"餐饮美食","address":"长宁区娄山关路858号2楼(近玉屏南路)"},{"poiid":"B2094655D26FA3FE4998","title":"永琪美容美发(娄山关店)","lon":"121.40519","lat":"31.21557","category":"148","category_name":"美容美发店","address":"长宁区云雾山路118号-120号"},{"poiid":"B2094757D069A3FD449E","title":"金玉门大酒店","lon":"121.40559","lat":"31.21515","category":"76","category_name":"上海菜","address":"长宁区云雾山路79号(近娄山关路)"},{"poiid":"B2094757D068A4F9409B","title":"四海游龙(玉屏店)","lon":"121.40478","lat":"31.21408","category":"68","category_name":"快餐厅","address":"长宁区娄山关路921号(近玉屏南路)"},{"poiid":"B2094750D76DA1FF489B","title":"串丁","lon":"121.405","lat":"31.2151","category":"269","category_name":"烧烤","address":"长宁区娄山关路888号101室(近云雾山路)"},{"poiid":"B2094654D56BA4F4459B","title":"周家桥街道社区卫生服务中心","lon":"121.40583","lat":"31.21796","category":"162","category_name":"医院","address":"长宁区长宁路1700号(近万航渡路)"},{"poiid":"B2094655D26AA7F8449F","title":"上航旅游娄山关路店","lon":"121.40525","lat":"31.2166","category":"247","category_name":"餐饮美食","address":"长宁区娄山关路1020号(近长宁路)"},{"poiid":"B2094655D26AA5F54099","title":"临空网吧游艺城","lon":"121.40525","lat":"31.2166","category":"247","category_name":"餐饮美食","address":"长宁区娄山关路1022号(近长宁路)"},{"poiid":"B2094757DB69A7F44799","title":"和米堂","lon":"121.403828","lat":"31.218376","category":"95","category_name":"日本料理","address":"长宁区长宁路820号上海小马路美食街轻食区-10商铺"},{"poiid":"B2094757D068A0F4469D","title":"玉屏南路娄山关路","lon":"121.40424508","lat":"31.212879846","category":"500","category_name":"未知分类","address":"上海玉屏"},{"poiid":"B2094757D16CA1FB499A","title":"来必堡 娄山关路店 Reboo Short order","lon":"121.405337","lat":"31.215238","category":"68","category_name":"快餐厅","address":"长宁区娄山关路888号(近云雾山路)"},{"poiid":"B2094750D664A5F4459D","title":"彩椿","lon":"121.406","lat":"31.2154","category":"95","category_name":"日本料理","address":"长宁区娄山关路888号虹桥假日广场103室"},{"poiid":"B2094757D66BA2F4499D","title":"信创作料亭 Xin Shanghai Restaurant","lon":"121.40671485505","lat":"31.21641690793","category":"95","category_name":"日本料理","address":"长宁区云雾山路77号(近娄山关路)"},{"poiid":"B2094752DB6AAAF94893","title":"家顺寿司","lon":"121.404848","lat":"31.215462","category":"247","category_name":"餐饮美食","address":"上海市 中山公园龙之梦"},{"poiid":"B2094654D56BA0FF409A","title":"美宁口腔门诊","lon":"121.4052","lat":"31.21595","category":"162","category_name":"医院","address":"长宁区娄山关路976号(近长宁路)"},{"poiid":"B2094655D26EA3F4499A","title":"上海电子信息职业技术学院(长宁校区)","lon":"121.40313","lat":"31.2149","category":"54","category_name":"职业技术学校","address":"上海市长宁区娄山关路玉屏南路"},{"poiid":"B2094757D469A1FD439E","title":"重庆鸡公煲 娄山关路店","lon":"121.405142","lat":"31.215135","category":"86","category_name":"火锅店","address":"长宁区娄山关路826号(近天山路)"},{"poiid":"B2094757D66DA6FE4393","title":"龙华医院附属天山中医院","lon":"121.40531758","lat":"31.214448122","category":"162","category_name":"医院","address":"上海市长宁区锦屏路"},{"poiid":"B2094654D56BA0FF4298","title":"REPLAY流行时尚形象设计中心","lon":"121.40531","lat":"31.21684","category":"148","category_name":"美容美发店","address":""},{"poiid":"B2094654D56BA0FF4098","title":"聚鑫阁保健","lon":"121.40522","lat":"31.21636","category":"141","category_name":"服装鞋帽皮具店","address":"娄山关路1004号2层"},{"poiid":"B2094757D469A2F9429B","title":"新城市桂林米粉","lon":"121.40454","lat":"31.21127","category":"68","category_name":"快餐厅","address":"长宁区娄山关路758号(汇金百货旁)"},{"poiid":"B2094757D468AAFC429F","title":"牛尚牛","lon":"121.405705","lat":"31.215754","category":"269","category_name":"烧烤","address":"云雾山路102号近娄山关路"},{"poiid":"B2094757DA65A5F5419F","title":"布丁酒店连锁（上海中山公园店）","lon":"121.405743957","lat":"31.217962717","category":"216","category_name":"经济型连锁酒店","address":"长宁区万航渡路2579号"},{"poiid":"B2094655D26DA2F84092","title":"万紫千红商务会所","lon":"121.40549","lat":"31.21527","category":"170","category_name":"KTV","address":"云雾山路79"},{"poiid":"B2094757D06AA0F54893","title":"上海市长宁区社会保险事业管理中心","lon":"121.40507078","lat":"31.216881229","category":"500","category_name":"未知分类","address":"上海天山路38号"},{"poiid":"B2094757D465A1FF419A","title":"锦江大厨 长宁店","lon":"121.40662419905","lat":"31.217692670021","category":"76","category_name":"上海菜","address":"长宁区长宁路1600弄5号(近娄山关路)"},{"poiid":"B2094757D06FA3F4489C","title":"和记小菜(长宁店)","lon":"121.40547","lat":"31.2172","category":"76","category_name":"上海菜","address":"长宁区娄山关路999弄79号春天花园会所(近长宁路)"},{"poiid":"B2094757D06FA3F44893","title":"天山中医医院","lon":"121.40489641","lat":"31.2147423822","category":"162","category_name":"医院","address":"长宁区娄山关路868号(近云雾山路)"},{"poiid":"B2094757D06FA3F8429B","title":"好乐迪量贩式KTV(天山店)","lon":"121.403163586","lat":"31.2139461125","category":"170","category_name":"KTV","address":"上海市长宁区长宁路889号百盛购物中心5楼"},{"poiid":"B2094655D36CA5F9419B","title":"长宁路娄山关路","lon":"121.40622","lat":"31.21751","category":"38","category_name":"公交车站","address":""},{"poiid":"B2094757D06FABF5439D","title":"春天花园","lon":"121.4038","lat":"31.217037","category":"47","category_name":"住宅区","address":"长宁区娄山关路999弄(近长宁路)"},{"poiid":"B2094757D06FA5FB4593","title":"长宁区公共卫生中心","lon":"121.406557","lat":"31.215167","category":"162","category_name":"医院","address":"上海云雾山路39号"},{"poiid":"B2094654D56BA4F4469F","title":"上海花城","lon":"121.40445","lat":"31.21896","category":"47","category_name":"住宅区","address":"普陀区澳门路519号华生大厦2号楼2202室(近普陀路)查看地图"},{"poiid":"B2094757D06FA6F84998","title":"威尔士健身会所(长宁店)","lon":"121.40599","lat":"31.21729","category":"221","category_name":"健身中心","address":"长宁区娄山关路999号春天花园(近长宁路)"},{"poiid":"B2094757D66BA2F94592","title":"角落里ころり Corori","lon":"121.405356054","lat":"31.215454793","category":"95","category_name":"日本料理","address":"娄山关路884号近云雾山路"},{"poiid":"B2094654DB69AAFF479F","title":"天山中医院","lon":"121.40525","lat":"31.21475","category":"162","category_name":"医院","address":"上海市长宁区娄山关路868号"},{"poiid":"B2094757D06FAAF44298","title":"艺林盲人按摩院(长宁店)","lon":"121.40361","lat":"31.21796","category":"149","category_name":"洗浴推拿场所","address":"长宁区长宁路1842号"},{"poiid":"B2094655D36CA5F94092","title":"长宁路遵义路","lon":"121.40806","lat":"31.21718","category":"38","category_name":"公交车站","address":"上海长宁路遵义路"},{"poiid":"B2094757D068A3FC429A","title":"同达创业大厦","lon":"121.403","lat":"31.2189","category":"46","category_name":"楼宇","address":"朝阳华威桥东北角"},{"poiid":"B2094757D06FA1FC459F","title":"南华火锅(天山店)","lon":"121.40546","lat":"31.21478","category":"86","category_name":"火锅店","address":"长宁区娄山关路858号(玉屏南路口)"},{"poiid":"B2094757D069A6F4469D","title":"全家便利(虹桥机场店)","lon":"121.405636","lat":"31.218717","category":"117","category_name":"便民商店/便利店","address":"上海长宁区虹桥机场2号航站楼内"},{"poiid":"B2094757D068A2FB499E","title":"虹桥新城","lon":"121.40627","lat":"31.216637","category":"47","category_name":"住宅区","address":"上海市徐汇区漕溪北路555号(南丹东路口)"},{"poiid":"B2094757D165AAF84493","title":"宁悦人家","lon":"121.404210586","lat":"31.2179331905","category":"76","category_name":"上海菜","address":"长宁区长宁路1796号(近娄山关路)"},{"poiid":"B2094757DB69A5FF489F","title":"东方明珠塔","lon":"121.404627","lat":"31.216969","category":"500","category_name":"未知分类","address":null},{"poiid":"B2094654D56BA0FE489F","title":"小花园经典上海菜","lon":"121.40526737137","lat":"31.21600775918","category":"76","category_name":"上海菜","address":"长宁区云雾山路81号(娄山关路)"},{"poiid":"B2094751D36AA4F54392","title":"长湘情蒸菜馆","lon":"121.40518","lat":"31.21577","category":"77","category_name":"湖南菜","address":"长宁区云雾山路108号(近娄山关路)"},{"poiid":"B2094757D069A0F5479E","title":"春草堂足疗(长宁店)","lon":"121.40519","lat":"31.218","category":"149","category_name":"洗浴推拿场所","address":"上海长宁区长宁路1798号(近娄山关路)  "},{"poiid":"B2094757D068A4F94798","title":"牛尚牛炭烤","lon":"121.40501158","lat":"31.215629145","category":"269","category_name":"烧烤","address":"长宁区云雾山路102号(近娄山关路)"},{"poiid":"B2094654D56BA0FF4198","title":"金匠发型工作室(娄山关路)","lon":"121.4053","lat":"31.21677","category":"148","category_name":"美容美发店","address":"长宁区娄山关路1016号(近长宁路)"},{"poiid":"B2094655D26AABFA419A","title":"锦江之星上海长宁店","lon":"121.40729","lat":"31.21788","category":"250","category_name":"公园户外","address":"上海长宁区长宁路1600弄5号(近遵义路)  "},{"poiid":"B2094750DB69A5FE449E","title":"新招鲜","lon":"121.404815","lat":"31.214859","category":"247","category_name":"餐饮美食","address":"长宁区娄山关路858号2楼(近玉屏南路)"},{"poiid":"B2094655D26FA3FE4998","title":"永琪美容美发(娄山关店)","lon":"121.40519","lat":"31.21557","category":"148","category_name":"美容美发店","address":"长宁区云雾山路118号-120号"},{"poiid":"B2094757D069A3FD449E","title":"金玉门大酒店","lon":"121.40559","lat":"31.21515","category":"76","category_name":"上海菜","address":"长宁区云雾山路79号(近娄山关路)"},{"poiid":"B2094757D068A4F9409B","title":"四海游龙(玉屏店)","lon":"121.40478","lat":"31.21408","category":"68","category_name":"快餐厅","address":"长宁区娄山关路921号(近玉屏南路)"},{"poiid":"B2094750D76DA1FF489B","title":"串丁","lon":"121.405","lat":"31.2151","category":"269","category_name":"烧烤","address":"长宁区娄山关路888号101室(近云雾山路)"},{"poiid":"B2094654D56BA4F4459B","title":"周家桥街道社区卫生服务中心","lon":"121.40583","lat":"31.21796","category":"162","category_name":"医院","address":"长宁区长宁路1700号(近万航渡路)"},{"poiid":"B2094655D26AA7F8449F","title":"上航旅游娄山关路店","lon":"121.40525","lat":"31.2166","category":"247","category_name":"餐饮美食","address":"长宁区娄山关路1020号(近长宁路)"},{"poiid":"B2094655D26AA5F54099","title":"临空网吧游艺城","lon":"121.40525","lat":"31.2166","category":"247","category_name":"餐饮美食","address":"长宁区娄山关路1022号(近长宁路)"},{"poiid":"B2094757DB69A7F44799","title":"和米堂","lon":"121.403828","lat":"31.218376","category":"95","category_name":"日本料理","address":"长宁区长宁路820号上海小马路美食街轻食区-10商铺"},{"poiid":"B2094757D068A0F4469D","title":"玉屏南路娄山关路","lon":"121.40424508","lat":"31.212879846","category":"500","category_name":"未知分类","address":"上海玉屏"},{"poiid":"B2094757D16CA1FB499A","title":"来必堡 娄山关路店 Reboo Short order","lon":"121.405337","lat":"31.215238","category":"68","category_name":"快餐厅","address":"长宁区娄山关路888号(近云雾山路)"},{"poiid":"B2094750D664A5F4459D","title":"彩椿","lon":"121.406","lat":"31.2154","category":"95","category_name":"日本料理","address":"长宁区娄山关路888号虹桥假日广场103室"},{"poiid":"B2094757D66BA2F4499D","title":"信创作料亭 Xin Shanghai Restaurant","lon":"121.40671485505","lat":"31.21641690793","category":"95","category_name":"日本料理","address":"长宁区云雾山路77号(近娄山关路)"},{"poiid":"B2094752DB6AAAF94893","title":"家顺寿司","lon":"121.404848","lat":"31.215462","category":"247","category_name":"餐饮美食","address":"上海市 中山公园龙之梦"},{"poiid":"B2094654D56BA0FF409A","title":"美宁口腔门诊","lon":"121.4052","lat":"31.21595","category":"162","category_name":"医院","address":"长宁区娄山关路976号(近长宁路)"},{"poiid":"B2094655D26EA3F4499A","title":"上海电子信息职业技术学院(长宁校区)","lon":"121.40313","lat":"31.2149","category":"54","category_name":"职业技术学校","address":"上海市长宁区娄山关路玉屏南路"},{"poiid":"B2094757D469A1FD439E","title":"重庆鸡公煲 娄山关路店","lon":"121.405142","lat":"31.215135","category":"86","category_name":"火锅店","address":"长宁区娄山关路826号(近天山路)"},{"poiid":"B2094757D66DA6FE4393","title":"龙华医院附属天山中医院","lon":"121.40531758","lat":"31.214448122","category":"162","category_name":"医院","address":"上海市长宁区锦屏路"},{"poiid":"B2094654D56BA0FF4298","title":"REPLAY流行时尚形象设计中心","lon":"121.40531","lat":"31.21684","category":"148","category_name":"美容美发店","address":""},{"poiid":"B2094654D56BA0FF4098","title":"聚鑫阁保健","lon":"121.40522","lat":"31.21636","category":"141","category_name":"服装鞋帽皮具店","address":"娄山关路1004号2层"},{"poiid":"B2094757D469A2F9429B","title":"新城市桂林米粉","lon":"121.40454","lat":"31.21127","category":"68","category_name":"快餐厅","address":"长宁区娄山关路758号(汇金百货旁)"},{"poiid":"B2094757D468AAFC429F","title":"牛尚牛","lon":"121.405705","lat":"31.215754","category":"269","category_name":"烧烤","address":"云雾山路102号近娄山关路"},{"poiid":"B2094757DA65A5F5419F","title":"布丁酒店连锁（上海中山公园店）","lon":"121.405743957","lat":"31.217962717","category":"216","category_name":"经济型连锁酒店","address":"长宁区万航渡路2579号"},{"poiid":"B2094655D26DA2F84092","title":"万紫千红商务会所","lon":"121.40549","lat":"31.21527","category":"170","category_name":"KTV","address":"云雾山路79"},{"poiid":"B2094757D06AA0F54893","title":"上海市长宁区社会保险事业管理中心","lon":"121.40507078","lat":"31.216881229","category":"500","category_name":"未知分类","address":"上海天山路38号"},{"poiid":"B2094757D465A1FF419A","title":"锦江大厨 长宁店","lon":"121.40662419905","lat":"31.217692670021","category":"76","category_name":"上海菜","address":"长宁区长宁路1600弄5号(近娄山关路)"}]