[{"poiid":"B2094757D06FA3F44799","title":"华夏东路地铁站","lon":"121.67645614","lat":"31.196494693","category":"36","category_name":"地铁站","address":"上海轨道交通 二号线 轨交华夏东路站 2"},{"poiid":"B2094757D06AA5FA489D","title":"永安公墓","lon":"121.666467005","lat":"31.195946669","category":"620","category_name":"丧葬","address":"浦东新区川沙镇唐陆公路(近华夏东路)"},{"poiid":"B2094654DA6AAAFD4699","title":"上海民远职业技术学院","lon":"121.66107","lat":"31.19932","category":"671","category_name":"高校中心点","address":"浦东新区唐陆公路3892号(近华夏东路)"},{"poiid":"B2094757D165ABFF4493","title":"浦东国际机场T1航线楼215#登机口","lon":"121.6746256","lat":"31.177408596","category":"21","category_name":"飞机场","address":"上海浦东国际机场"},{"poiid":"B2094654DA6AAAFD489D","title":"绿波城","lon":"121.66481","lat":"31.209545","category":"47","category_name":"住宅区","address":"创新中路258号"},{"poiid":"B2094654DA6AABF4419B","title":"万馨佳园","lon":"121.67354","lat":"31.192419","category":"47","category_name":"住宅区","address":"新德西路207弄"},{"poiid":"B2094757D068A7FA469F","title":"金唐公寓","lon":"121.65786","lat":"31.202555","category":"500","category_name":"未知分类","address":"创新西路75弄1-136号"},{"poiid":"B2094757D065A5F8409E","title":"华夏公园","lon":"121.65080441079522","lat":"31.192232339010502","category":"196","category_name":"公园","address":"上海华夏东路185号"},{"poiid":"B2094757D06FA5FF4692","title":"金利公寓","lon":"121.66344","lat":"31.2026","category":"47","category_name":"住宅区","address":"上海南曹路901弄"},{"poiid":"B2094757D069A3F9479C","title":"唐镇天主教堂","lon":"121.65758514","lat":"31.201940536","category":"245","category_name":"教堂","address":"上海唐陆路"},{"poiid":"B2094655D36CA6F5449F","title":"德川路新德西路","lon":"121.67037","lat":"31.19054","category":"38","category_name":"公交车站","address":""},{"poiid":"B2094654DA6AABFB4993","title":"环东别墅","lon":"121.669","lat":"31.1925","category":"47","category_name":"住宅区","address":"三灶路1630号"},{"poiid":"B2094757D16FABFA439B","title":"顺馨佳园","lon":"121.67588","lat":"31.193375","category":"46","category_name":"楼宇","address":"浦东新区新德西路99弄"},{"poiid":"B2094757D169A3FC479B","title":"园西小学","lon":"121.672974109","lat":"31.1927022909","category":"56","category_name":"小学","address":"浦东新区新德西路236号"},{"poiid":"B2094757D064A7F44692","title":"东方城市绿洲","lon":"121.68076","lat":"31.186369","category":"47","category_name":"住宅区","address":"浦东新区城丰路577号(近华夏三路)"},{"poiid":"B2094655D36CA7FC4092","title":"华夏东路唐陆路","lon":"121.66202","lat":"31.19424","category":"38","category_name":"公交车站","address":""},{"poiid":"B2094757DB6CA0F5459D","title":"舒馨北苑","lon":"121.6678","lat":"31.191277","category":"47","category_name":"住宅区","address":"浦东新区新德西路508弄"},{"poiid":"B2094655D36CA6F9489C","title":"对面街","lon":"121.66672","lat":"31.19537","category":"38","category_name":"公交车站","address":""},{"poiid":"B2094655D36CA7FC429F","title":"华夏东路","lon":"121.67","lat":"31.19609","category":"38","category_name":"公交车站","address":""},{"poiid":"B2094757D069A0FA4498","title":"华夏东路华东路","lon":"121.680707333","lat":"31.1978406773","category":"500","category_name":"未知分类","address":"上海华夏东路华东路"},{"poiid":"B2094757D065A2F4419D","title":"乐乡公墓","lon":"121.666836085","lat":"31.1802569844","category":"620","category_name":"丧葬","address":"浦东新区栏学路8号(近科农路)"},{"poiid":"B2094655D36CA7FC429A","title":"华夏东路德川路","lon":"121.66601","lat":"31.19523","category":"38","category_name":"公交车站","address":""},{"poiid":"B2094757D16EA3FE4898","title":"沙田公寓","lon":"121.67172","lat":"31.1945","category":"47","category_name":"住宅区","address":"上海市浦东新区华夏东路1152弄"},{"poiid":"B2094757D06BA3FD409E","title":"瀚盛家园","lon":"121.65532","lat":"31.200581","category":"47","category_name":"住宅区","address":"上海浦东新区创新西路199弄"},{"poiid":"B2094757D164A6FD409F","title":"学校","lon":"121.659774","lat":"31.197994","category":"500","category_name":"未知分类","address":"上海民远学院"},{"poiid":"B2094654DA6BA3FE459D","title":"中国电信(华夏东路)","lon":"121.66672","lat":"31.19555","category":"151","category_name":"电讯营业厅","address":""},{"poiid":"B2094757D065A4F9429B","title":"上海民远学院","lon":"121.662209","lat":"31.194214","category":"253","category_name":"校园生活","address":"上海华夏东路唐陆路"},{"poiid":"B2094655D36CA7FC419D","title":"华夏东路华夏三路","lon":"121.67512","lat":"31.19707","category":"38","category_name":"公交车站","address":""},{"poiid":"B2094654DB69A7F9419A","title":"银龙小区","lon":"121.66895","lat":"31.19564","category":"47","category_name":"住宅区","address":"银龙小区位于浦东华夏东路1036弄"},{"poiid":"B2094750D565A0FC429D","title":"新德佳苑","lon":"121.66776","lat":"31.190361","category":"627","category_name":"一般地点标志","address":"新德西路511弄"},{"poiid":"B2094757D064ABFA4999","title":"华夏三路","lon":"121.670334","lat":"31.190744","category":"500","category_name":"未知分类","address":"上海川沙华夏三路"},{"poiid":"B2094757D169A0F9439B","title":"瀚龙苑","lon":"121.6634969","lat":"31.194606549","category":"252","category_name":"楼宇机构","address":"上海華夏東路860號"},{"poiid":"B2094751D56FA4FE469E","title":"浦东机场","lon":"121.6714","lat":"31.19806","category":"500","category_name":"未知分类","address":null},{"poiid":"B209475CD46FABFF479C","title":"上海浦东国际机场","lon":"121.668991","lat":"31.195882","category":"500","category_name":"未知分类","address":"上海市 上海浦东国际机场"},{"poiid":"B2094654DA6BA3FE449B","title":"精剪坊","lon":"121.66964","lat":"31.19613","category":"148","category_name":"美容美发店","address":""},{"poiid":"B2094654DB64A3FB4798","title":"中国移动通信","lon":"121.66898","lat":"31.19601","category":"138","category_name":"家电电子卖场","address":"华飞金桂苑西"},{"poiid":"B2094655D36DA0FC439E","title":"新德西路德华路","lon":"121.67486","lat":"31.19319","category":"38","category_name":"公交车站","address":""},{"poiid":"B2094655D36CA2FB449E","title":"三灶浜路","lon":"121.66379","lat":"31.1865","category":"38","category_name":"公交车站","address":""},{"poiid":"B2094751D56FA4FE4793","title":"浦东机场T1","lon":"121.6714","lat":"31.19806","category":"500","category_name":"未知分类","address":null},{"poiid":"B2094757D465A5FA489B","title":"百世德咖啡 华夏二路店","lon":"121.68547","lat":"31.18926","category":"260","category_name":"其他","address":"浦东新区华夏二路488号(城丰路口)"},{"poiid":"B2094750D165A3F44998","title":"华夏金桂苑","lon":"121.674438","lat":"31.197114","category":"47","category_name":"住宅区","address":"华夏金桂苑位于浦东上海浦东华夏东路1349弄"},{"poiid":"B2094655D26BA2FE439B","title":"万馨家园","lon":"121.67467","lat":"31.19308","category":"47","category_name":"住宅区","address":""},{"poiid":"B2094654DA6AA5F54992","title":"天堂商场","lon":"121.66354","lat":"31.19948","category":"119","category_name":"商场","address":"唐陆路3269号"},{"poiid":"B2094757D66DA6FE499B","title":"靈異地帶","lon":"121.67184278","lat":"31.196367038","category":"500","category_name":"未知分类","address":null},{"poiid":"B2094654DA6AA4FC4899","title":"王港工业区","lon":"121.66764","lat":"31.18537","category":"45","category_name":"产业园区","address":""},{"poiid":"B2094655D26BA2FA499C","title":"孙浦路华夏东路","lon":"121.65624","lat":"31.19223","category":"38","category_name":"公交车站","address":""},{"poiid":"B2094757D16DA6FA449D","title":"黑暗料理界","lon":"121.65785208","lat":"31.200647432","category":"247","category_name":"餐饮美食","address":"上海市浦东新区创新西路"},{"poiid":"B2094757D16FA0FA419B","title":"御景豪园","lon":"121.68444","lat":"31.191935","category":"47","category_name":"住宅区","address":"上海市浦东新区华夏二路350弄"},{"poiid":"B2094655D36CA7FC4193","title":"华夏东路环东路","lon":"121.65718","lat":"31.19302","category":"38","category_name":"公交车站","address":""},{"poiid":"B2094757D16EA7FD469E","title":"新川中学羽毛球馆","lon":"121.67920808","lat":"31.191496231","category":"500","category_name":"未知分类","address":"上海市浦东新区新德西路169号"},{"poiid":"B2094757D06FA3F44799","title":"华夏东路地铁站","lon":"121.67645614","lat":"31.196494693","category":"36","category_name":"地铁站","address":"上海轨道交通 二号线 轨交华夏东路站 2"},{"poiid":"B2094757D06AA5FA489D","title":"永安公墓","lon":"121.666467005","lat":"31.195946669","category":"620","category_name":"丧葬","address":"浦东新区川沙镇唐陆公路(近华夏东路)"},{"poiid":"B2094654DA6AAAFD4699","title":"上海民远职业技术学院","lon":"121.66107","lat":"31.19932","category":"671","category_name":"高校中心点","address":"浦东新区唐陆公路3892号(近华夏东路)"},{"poiid":"B2094757D165ABFF4493","title":"浦东国际机场T1航线楼215#登机口","lon":"121.6746256","lat":"31.177408596","category":"21","category_name":"飞机场","address":"上海浦东国际机场"},{"poiid":"B2094654DA6AAAFD489D","title":"绿波城","lon":"121.66481","lat":"31.209545","category":"47","category_name":"住宅区","address":"创新中路258号"},{"poiid":"B2094654DA6AABF4419B","title":"万馨佳园","lon":"121.67354","lat":"31.192419","category":"47","category_name":"住宅区","address":"新德西路207弄"},{"poiid":"B2094757D068A7FA469F","title":"金唐公寓","lon":"121.65786","lat":"31.202555","category":"500","category_name":"未知分类","address":"创新西路75弄1-136号"},{"poiid":"B2094757D065A5F8409E","title":"华夏公园","lon":"121.65080441079522","lat":"31.192232339010502","category":"196","category_name":"公园","address":"上海华夏东路185号"},{"poiid":"B2094757D06FA5FF4692","title":"金利公寓","lon":"121.66344","lat":"31.2026","category":"47","category_name":"住宅区","address":"上海南曹路901弄"},{"poiid":"B2094757D069A3F9479C","title":"唐镇天主教堂","lon":"121.65758514","lat":"31.201940536","category":"245","category_name":"教堂","address":"上海唐陆路"},{"poiid":"B2094655D36CA6F5449F","title":"德川路新德西路","lon":"121.67037","lat":"31.19054","category":"38","category_name":"公交车站","address":""},{"poiid":"B2094654DA6AABFB4993","title":"环东别墅","lon":"121.669","lat":"31.1925","category":"47","category_name":"住宅区","address":"三灶路1630号"},{"poiid":"B2094757D16FABFA439B","title":"顺馨佳园","lon":"121.67588","lat":"31.193375","category":"46","category_name":"楼宇","address":"浦东新区新德西路99弄"},{"poiid":"B2094757D169A3FC479B","title":"园西小学","lon":"121.672974109","lat":"31.1927022909","category":"56","category_name":"小学","address":"浦东新区新德西路236号"},{"poiid":"B2094757D064A7F44692","title":"东方城市绿洲","lon":"121.68076","lat":"31.186369","category":"47","category_name":"住宅区","address":"浦东新区城丰路577号(近华夏三路)"},{"poiid":"B2094655D36CA7FC4092","title":"华夏东路唐陆路","lon":"121.66202","lat":"31.19424","category":"38","category_name":"公交车站","address":""},{"poiid":"B2094757DB6CA0F5459D","title":"舒馨北苑","lon":"121.6678","lat":"31.191277","category":"47","category_name":"住宅区","address":"浦东新区新德西路508弄"},{"poiid":"B2094655D36CA6F9489C","title":"对面街","lon":"121.66672","lat":"31.19537","category":"38","category_name":"公交车站","address":""},{"poiid":"B2094655D36CA7FC429F","title":"华夏东路","lon":"121.67","lat":"31.19609","category":"38","category_name":"公交车站","address":""},{"poiid":"B2094757D069A0FA4498","title":"华夏东路华东路","lon":"121.680707333","lat":"31.1978406773","category":"500","category_name":"未知分类","address":"上海华夏东路华东路"},{"poiid":"B2094757D065A2F4419D","title":"乐乡公墓","lon":"121.666836085","lat":"31.1802569844","category":"620","category_name":"丧葬","address":"浦东新区栏学路8号(近科农路)"},{"poiid":"B2094655D36CA7FC429A","title":"华夏东路德川路","lon":"121.66601","lat":"31.19523","category":"38","category_name":"公交车站","address":""},{"poiid":"B2094757D16EA3FE4898","title":"沙田公寓","lon":"121.67172","lat":"31.1945","category":"47","category_name":"住宅区","address":"上海市浦东新区华夏东路1152弄"},{"poiid":"B2094757D06BA3FD409E","title":"瀚盛家园","lon":"121.65532","lat":"31.200581","category":"47","category_name":"住宅区","address":"上海浦东新区创新西路199弄"},{"poiid":"B2094757D164A6FD409F","title":"学校","lon":"121.659774","lat":"31.197994","category":"500","category_name":"未知分类","address":"上海民远学院"},{"poiid":"B2094654DA6BA3FE459D","title":"中国电信(华夏东路)","lon":"121.66672","lat":"31.19555","category":"151","category_name":"电讯营业厅","address":""},{"poiid":"B2094757D065A4F9429B","title":"上海民远学院","lon":"121.662209","lat":"31.194214","category":"253","category_name":"校园生活","address":"上海华夏东路唐陆路"},{"poiid":"B2094655D36CA7FC419D","title":"华夏东路华夏三路","lon":"121.67512","lat":"31.19707","category":"38","category_name":"公交车站","address":""},{"poiid":"B2094654DB69A7F9419A","title":"银龙小区","lon":"121.66895","lat":"31.19564","category":"47","category_name":"住宅区","address":"银龙小区位于浦东华夏东路1036弄"},{"poiid":"B2094750D565A0FC429D","title":"新德佳苑","lon":"121.66776","lat":"31.190361","category":"627","category_name":"一般地点标志","address":"新德西路511弄"},{"poiid":"B2094757D064ABFA4999","title":"华夏三路","lon":"121.670334","lat":"31.190744","category":"500","category_name":"未知分类","address":"上海川沙华夏三路"},{"poiid":"B2094757D169A0F9439B","title":"瀚龙苑","lon":"121.6634969","lat":"31.194606549","category":"252","category_name":"楼宇机构","address":"上海華夏東路860號"},{"poiid":"B2094751D56FA4FE469E","title":"浦东机场","lon":"121.6714","lat":"31.19806","category":"500","category_name":"未知分类","address":null},{"poiid":"B209475CD46FABFF479C","title":"上海浦东国际机场","lon":"121.668991","lat":"31.195882","category":"500","category_name":"未知分类","address":"上海市 上海浦东国际机场"},{"poiid":"B2094654DA6BA3FE449B","title":"精剪坊","lon":"121.66964","lat":"31.19613","category":"148","category_name":"美容美发店","address":""},{"poiid":"B2094654DB64A3FB4798","title":"中国移动通信","lon":"121.66898","lat":"31.19601","category":"138","category_name":"家电电子卖场","address":"华飞金桂苑西"},{"poiid":"B2094655D36DA0FC439E","title":"新德西路德华路","lon":"121.67486","lat":"31.19319","category":"38","category_name":"公交车站","address":""},{"poiid":"B2094655D36CA2FB449E","title":"三灶浜路","lon":"121.66379","lat":"31.1865","category":"38","category_name":"公交车站","address":""},{"poiid":"B2094751D56FA4FE4793","title":"浦东机场T1","lon":"121.6714","lat":"31.19806","category":"500","category_name":"未知分类","address":null},{"poiid":"B2094757D465A5FA489B","title":"百世德咖啡 华夏二路店","lon":"121.68547","lat":"31.18926","category":"260","category_name":"其他","address":"浦东新区华夏二路488号(城丰路口)"},{"poiid":"B2094750D165A3F44998","title":"华夏金桂苑","lon":"121.674438","lat":"31.197114","category":"47","category_name":"住宅区","address":"华夏金桂苑位于浦东上海浦东华夏东路1349弄"},{"poiid":"B2094655D26BA2FE439B","title":"万馨家园","lon":"121.67467","lat":"31.19308","category":"47","category_name":"住宅区","address":""},{"poiid":"B2094654DA6AA5F54992","title":"天堂商场","lon":"121.66354","lat":"31.19948","category":"119","category_name":"商场","address":"唐陆路3269号"},{"poiid":"B2094757D66DA6FE499B","title":"靈異地帶","lon":"121.67184278","lat":"31.196367038","category":"500","category_name":"未知分类","address":null},{"poiid":"B2094654DA6AA4FC4899","title":"王港工业区","lon":"121.66764","lat":"31.18537","category":"45","category_name":"产业园区","address":""},{"poiid":"B2094655D26BA2FA499C","title":"孙浦路华夏东路","lon":"121.65624","lat":"31.19223","category":"38","category_name":"公交车站","address":""},{"poiid":"B2094757D16DA6FA449D","title":"黑暗料理界","lon":"121.65785208","lat":"31.200647432","category":"247","category_name":"餐饮美食","address":"上海市浦东新区创新西路"},{"poiid":"B2094757D16FA0FA419B","title":"御景豪园","lon":"121.68444","lat":"31.191935","category":"47","category_name":"住宅区","address":"上海市浦东新区华夏二路350弄"},{"poiid":"B2094655D36CA7FC4193","title":"华夏东路环东路","lon":"121.65718","lat":"31.19302","category":"38","category_name":"公交车站","address":""},{"poiid":"B2094757D16EA7FD469E","title":"新川中学羽毛球馆","lon":"121.67920808","lat":"31.191496231","category":"500","category_name":"未知分类","address":"上海市浦东新区新德西路169号"},{"poiid":"B2094757D06FA3F44799","title":"华夏东路地铁站","lon":"121.67645614","lat":"31.196494693","category":"36","category_name":"地铁站","address":"上海轨道交通 二号线 轨交华夏东路站 2"},{"poiid":"B2094757D06AA5FA489D","title":"永安公墓","lon":"121.666467005","lat":"31.195946669","category":"620","category_name":"丧葬","address":"浦东新区川沙镇唐陆公路(近华夏东路)"},{"poiid":"B2094654DA6AAAFD4699","title":"上海民远职业技术学院","lon":"121.66107","lat":"31.19932","category":"671","category_name":"高校中心点","address":"浦东新区唐陆公路3892号(近华夏东路)"},{"poiid":"B2094757D165ABFF4493","title":"浦东国际机场T1航线楼215#登机口","lon":"121.6746256","lat":"31.177408596","category":"21","category_name":"飞机场","address":"上海浦东国际机场"},{"poiid":"B2094654DA6AAAFD489D","title":"绿波城","lon":"121.66481","lat":"31.209545","category":"47","category_name":"住宅区","address":"创新中路258号"},{"poiid":"B2094654DA6AABF4419B","title":"万馨佳园","lon":"121.67354","lat":"31.192419","category":"47","category_name":"住宅区","address":"新德西路207弄"},{"poiid":"B2094757D068A7FA469F","title":"金唐公寓","lon":"121.65786","lat":"31.202555","category":"500","category_name":"未知分类","address":"创新西路75弄1-136号"},{"poiid":"B2094757D065A5F8409E","title":"华夏公园","lon":"121.65080441079522","lat":"31.192232339010502","category":"196","category_name":"公园","address":"上海华夏东路185号"},{"poiid":"B2094757D06FA5FF4692","title":"金利公寓","lon":"121.66344","lat":"31.2026","category":"47","category_name":"住宅区","address":"上海南曹路901弄"},{"poiid":"B2094757D069A3F9479C","title":"唐镇天主教堂","lon":"121.65758514","lat":"31.201940536","category":"245","category_name":"教堂","address":"上海唐陆路"},{"poiid":"B2094655D36CA6F5449F","title":"德川路新德西路","lon":"121.67037","lat":"31.19054","category":"38","category_name":"公交车站","address":""},{"poiid":"B2094654DA6AABFB4993","title":"环东别墅","lon":"121.669","lat":"31.1925","category":"47","category_name":"住宅区","address":"三灶路1630号"},{"poiid":"B2094757D16FABFA439B","title":"顺馨佳园","lon":"121.67588","lat":"31.193375","category":"46","category_name":"楼宇","address":"浦东新区新德西路99弄"},{"poiid":"B2094757D169A3FC479B","title":"园西小学","lon":"121.672974109","lat":"31.1927022909","category":"56","category_name":"小学","address":"浦东新区新德西路236号"},{"poiid":"B2094757D064A7F44692","title":"东方城市绿洲","lon":"121.68076","lat":"31.186369","category":"47","category_name":"住宅区","address":"浦东新区城丰路577号(近华夏三路)"},{"poiid":"B2094655D36CA7FC4092","title":"华夏东路唐陆路","lon":"121.66202","lat":"31.19424","category":"38","category_name":"公交车站","address":""},{"poiid":"B2094757DB6CA0F5459D","title":"舒馨北苑","lon":"121.6678","lat":"31.191277","category":"47","category_name":"住宅区","address":"浦东新区新德西路508弄"},{"poiid":"B2094655D36CA6F9489C","title":"对面街","lon":"121.66672","lat":"31.19537","category":"38","category_name":"公交车站","address":""},{"poiid":"B2094655D36CA7FC429F","title":"华夏东路","lon":"121.67","lat":"31.19609","category":"38","category_name":"公交车站","address":""},{"poiid":"B2094757D069A0FA4498","title":"华夏东路华东路","lon":"121.680707333","lat":"31.1978406773","category":"500","category_name":"未知分类","address":"上海华夏东路华东路"},{"poiid":"B2094757D065A2F4419D","title":"乐乡公墓","lon":"121.666836085","lat":"31.1802569844","category":"620","category_name":"丧葬","address":"浦东新区栏学路8号(近科农路)"},{"poiid":"B2094655D36CA7FC429A","title":"华夏东路德川路","lon":"121.66601","lat":"31.19523","category":"38","category_name":"公交车站","address":""},{"poiid":"B2094757D16EA3FE4898","title":"沙田公寓","lon":"121.67172","lat":"31.1945","category":"47","category_name":"住宅区","address":"上海市浦东新区华夏东路1152弄"},{"poiid":"B2094757D06BA3FD409E","title":"瀚盛家园","lon":"121.65532","lat":"31.200581","category":"47","category_name":"住宅区","address":"上海浦东新区创新西路199弄"},{"poiid":"B2094757D164A6FD409F","title":"学校","lon":"121.659774","lat":"31.197994","category":"500","category_name":"未知分类","address":"上海民远学院"},{"poiid":"B2094654DA6BA3FE459D","title":"中国电信(华夏东路)","lon":"121.66672","lat":"31.19555","category":"151","category_name":"电讯营业厅","address":""},{"poiid":"B2094757D065A4F9429B","title":"上海民远学院","lon":"121.662209","lat":"31.194214","category":"253","category_name":"校园生活","address":"上海华夏东路唐陆路"},{"poiid":"B2094655D36CA7FC419D","title":"华夏东路华夏三路","lon":"121.67512","lat":"31.19707","category":"38","category_name":"公交车站","address":""},{"poiid":"B2094654DB69A7F9419A","title":"银龙小区","lon":"121.66895","lat":"31.19564","category":"47","category_name":"住宅区","address":"银龙小区位于浦东华夏东路1036弄"},{"poiid":"B2094750D565A0FC429D","title":"新德佳苑","lon":"121.66776","lat":"31.190361","category":"627","category_name":"一般地点标志","address":"新德西路511弄"},{"poiid":"B2094757D064ABFA4999","title":"华夏三路","lon":"121.670334","lat":"31.190744","category":"500","category_name":"未知分类","address":"上海川沙华夏三路"},{"poiid":"B2094757D169A0F9439B","title":"瀚龙苑","lon":"121.6634969","lat":"31.194606549","category":"252","category_name":"楼宇机构","address":"上海華夏東路860號"},{"poiid":"B2094751D56FA4FE469E","title":"浦东机场","lon":"121.6714","lat":"31.19806","category":"500","category_name":"未知分类","address":null},{"poiid":"B209475CD46FABFF479C","title":"上海浦东国际机场","lon":"121.668991","lat":"31.195882","category":"500","category_name":"未知分类","address":"上海市 上海浦东国际机场"},{"poiid":"B2094654DA6BA3FE449B","title":"精剪坊","lon":"121.66964","lat":"31.19613","category":"148","category_name":"美容美发店","address":""},{"poiid":"B2094654DB64A3FB4798","title":"中国移动通信","lon":"121.66898","lat":"31.19601","category":"138","category_name":"家电电子卖场","address":"华飞金桂苑西"},{"poiid":"B2094655D36DA0FC439E","title":"新德西路德华路","lon":"121.67486","lat":"31.19319","category":"38","category_name":"公交车站","address":""},{"poiid":"B2094655D36CA2FB449E","title":"三灶浜路","lon":"121.66379","lat":"31.1865","category":"38","category_name":"公交车站","address":""},{"poiid":"B2094751D56FA4FE4793","title":"浦东机场T1","lon":"121.6714","lat":"31.19806","category":"500","category_name":"未知分类","address":null},{"poiid":"B2094757D465A5FA489B","title":"百世德咖啡 华夏二路店","lon":"121.68547","lat":"31.18926","category":"260","category_name":"其他","address":"浦东新区华夏二路488号(城丰路口)"},{"poiid":"B2094750D165A3F44998","title":"华夏金桂苑","lon":"121.674438","lat":"31.197114","category":"47","category_name":"住宅区","address":"华夏金桂苑位于浦东上海浦东华夏东路1349弄"},{"poiid":"B2094655D26BA2FE439B","title":"万馨家园","lon":"121.67467","lat":"31.19308","category":"47","category_name":"住宅区","address":""},{"poiid":"B2094654DA6AA5F54992","title":"天堂商场","lon":"121.66354","lat":"31.19948","category":"119","category_name":"商场","address":"唐陆路3269号"},{"poiid":"B2094757D66DA6FE499B","title":"靈異地帶","lon":"121.67184278","lat":"31.196367038","category":"500","category_name":"未知分类","address":null},{"poiid":"B2094654DA6AA4FC4899","title":"王港工业区","lon":"121.66764","lat":"31.18537","category":"45","category_name":"产业园区","address":""},{"poiid":"B2094655D26BA2FA499C","title":"孙浦路华夏东路","lon":"121.65624","lat":"31.19223","category":"38","category_name":"公交车站","address":""},{"poiid":"B2094757D16DA6FA449D","title":"黑暗料理界","lon":"121.65785208","lat":"31.200647432","category":"247","category_name":"餐饮美食","address":"上海市浦东新区创新西路"},{"poiid":"B2094757D16FA0FA419B","title":"御景豪园","lon":"121.68444","lat":"31.191935","category":"47","category_name":"住宅区","address":"上海市浦东新区华夏二路350弄"},{"poiid":"B2094655D36CA7FC4193","title":"华夏东路环东路","lon":"121.65718","lat":"31.19302","category":"38","category_name":"公交车站","address":""},{"poiid":"B2094757D16EA7FD469E","title":"新川中学羽毛球馆","lon":"121.67920808","lat":"31.191496231","category":"500","category_name":"未知分类","address":"上海市浦东新区新德西路169号"},{"poiid":"B2094757D06FA3F44799","title":"华夏东路地铁站","lon":"121.67645614","lat":"31.196494693","category":"36","category_name":"地铁站","address":"上海轨道交通 二号线 轨交华夏东路站 2"},{"poiid":"B2094757D06AA5FA489D","title":"永安公墓","lon":"121.666467005","lat":"31.195946669","category":"620","category_name":"丧葬","address":"浦东新区川沙镇唐陆公路(近华夏东路)"},{"poiid":"B2094654DA6AAAFD4699","title":"上海民远职业技术学院","lon":"121.66107","lat":"31.19932","category":"671","category_name":"高校中心点","address":"浦东新区唐陆公路3892号(近华夏东路)"},{"poiid":"B2094757D165ABFF4493","title":"浦东国际机场T1航线楼215#登机口","lon":"121.6746256","lat":"31.177408596","category":"21","category_name":"飞机场","address":"上海浦东国际机场"},{"poiid":"B2094654DA6AAAFD489D","title":"绿波城","lon":"121.66481","lat":"31.209545","category":"47","category_name":"住宅区","address":"创新中路258号"},{"poiid":"B2094654DA6AABF4419B","title":"万馨佳园","lon":"121.67354","lat":"31.192419","category":"47","category_name":"住宅区","address":"新德西路207弄"},{"poiid":"B2094757D068A7FA469F","title":"金唐公寓","lon":"121.65786","lat":"31.202555","category":"500","category_name":"未知分类","address":"创新西路75弄1-136号"},{"poiid":"B2094757D065A5F8409E","title":"华夏公园","lon":"121.65080441079522","lat":"31.192232339010502","category":"196","category_name":"公园","address":"上海华夏东路185号"},{"poiid":"B2094757D06FA5FF4692","title":"金利公寓","lon":"121.66344","lat":"31.2026","category":"47","category_name":"住宅区","address":"上海南曹路901弄"},{"poiid":"B2094757D069A3F9479C","title":"唐镇天主教堂","lon":"121.65758514","lat":"31.201940536","category":"245","category_name":"教堂","address":"上海唐陆路"},{"poiid":"B2094655D36CA6F5449F","title":"德川路新德西路","lon":"121.67037","lat":"31.19054","category":"38","category_name":"公交车站","address":""},{"poiid":"B2094654DA6AABFB4993","title":"环东别墅","lon":"121.669","lat":"31.1925","category":"47","category_name":"住宅区","address":"三灶路1630号"},{"poiid":"B2094757D16FABFA439B","title":"顺馨佳园","lon":"121.67588","lat":"31.193375","category":"46","category_name":"楼宇","address":"浦东新区新德西路99弄"},{"poiid":"B2094757D169A3FC479B","title":"园西小学","lon":"121.672974109","lat":"31.1927022909","category":"56","category_name":"小学","address":"浦东新区新德西路236号"},{"poiid":"B2094757D064A7F44692","title":"东方城市绿洲","lon":"121.68076","lat":"31.186369","category":"47","category_name":"住宅区","address":"浦东新区城丰路577号(近华夏三路)"},{"poiid":"B2094655D36CA7FC4092","title":"华夏东路唐陆路","lon":"121.66202","lat":"31.19424","category":"38","category_name":"公交车站","address":""},{"poiid":"B2094757DB6CA0F5459D","title":"舒馨北苑","lon":"121.6678","lat":"31.191277","category":"47","category_name":"住宅区","address":"浦东新区新德西路508弄"},{"poiid":"B2094655D36CA6F9489C","title":"对面街","lon":"121.66672","lat":"31.19537","category":"38","category_name":"公交车站","address":""},{"poiid":"B2094655D36CA7FC429F","title":"华夏东路","lon":"121.67","lat":"31.19609","category":"38","category_name":"公交车站","address":""},{"poiid":"B2094757D069A0FA4498","title":"华夏东路华东路","lon":"121.680707333","lat":"31.1978406773","category":"500","category_name":"未知分类","address":"上海华夏东路华东路"},{"poiid":"B2094757D065A2F4419D","title":"乐乡公墓","lon":"121.666836085","lat":"31.1802569844","category":"620","category_name":"丧葬","address":"浦东新区栏学路8号(近科农路)"},{"poiid":"B2094655D36CA7FC429A","title":"华夏东路德川路","lon":"121.66601","lat":"31.19523","category":"38","category_name":"公交车站","address":""},{"poiid":"B2094757D16EA3FE4898","title":"沙田公寓","lon":"121.67172","lat":"31.1945","category":"47","category_name":"住宅区","address":"上海市浦东新区华夏东路1152弄"},{"poiid":"B2094757D06BA3FD409E","title":"瀚盛家园","lon":"121.65532","lat":"31.200581","category":"47","category_name":"住宅区","address":"上海浦东新区创新西路199弄"},{"poiid":"B2094757D164A6FD409F","title":"学校","lon":"121.659774","lat":"31.197994","category":"500","category_name":"未知分类","address":"上海民远学院"},{"poiid":"B2094654DA6BA3FE459D","title":"中国电信(华夏东路)","lon":"121.66672","lat":"31.19555","category":"151","category_name":"电讯营业厅","address":""},{"poiid":"B2094757D065A4F9429B","title":"上海民远学院","lon":"121.662209","lat":"31.194214","category":"253","category_name":"校园生活","address":"上海华夏东路唐陆路"},{"poiid":"B2094655D36CA7FC419D","title":"华夏东路华夏三路","lon":"121.67512","lat":"31.19707","category":"38","category_name":"公交车站","address":""},{"poiid":"B2094654DB69A7F9419A","title":"银龙小区","lon":"121.66895","lat":"31.19564","category":"47","category_name":"住宅区","address":"银龙小区位于浦东华夏东路1036弄"},{"poiid":"B2094750D565A0FC429D","title":"新德佳苑","lon":"121.66776","lat":"31.190361","category":"627","category_name":"一般地点标志","address":"新德西路511弄"},{"poiid":"B2094757D064ABFA4999","title":"华夏三路","lon":"121.670334","lat":"31.190744","category":"500","category_name":"未知分类","address":"上海川沙华夏三路"},{"poiid":"B2094757D169A0F9439B","title":"瀚龙苑","lon":"121.6634969","lat":"31.194606549","category":"252","category_name":"楼宇机构","address":"上海華夏東路860號"},{"poiid":"B2094751D56FA4FE469E","title":"浦东机场","lon":"121.6714","lat":"31.19806","category":"500","category_name":"未知分类","address":null},{"poiid":"B209475CD46FABFF479C","title":"上海浦东国际机场","lon":"121.668991","lat":"31.195882","category":"500","category_name":"未知分类","address":"上海市 上海浦东国际机场"},{"poiid":"B2094654DA6BA3FE449B","title":"精剪坊","lon":"121.66964","lat":"31.19613","category":"148","category_name":"美容美发店","address":""},{"poiid":"B2094654DB64A3FB4798","title":"中国移动通信","lon":"121.66898","lat":"31.19601","category":"138","category_name":"家电电子卖场","address":"华飞金桂苑西"},{"poiid":"B2094655D36DA0FC439E","title":"新德西路德华路","lon":"121.67486","lat":"31.19319","category":"38","category_name":"公交车站","address":""},{"poiid":"B2094655D36CA2FB449E","title":"三灶浜路","lon":"121.66379","lat":"31.1865","category":"38","category_name":"公交车站","address":""},{"poiid":"B2094751D56FA4FE4793","title":"浦东机场T1","lon":"121.6714","lat":"31.19806","category":"500","category_name":"未知分类","address":null},{"poiid":"B2094757D465A5FA489B","title":"百世德咖啡 华夏二路店","lon":"121.68547","lat":"31.18926","category":"260","category_name":"其他","address":"浦东新区华夏二路488号(城丰路口)"},{"poiid":"B2094750D165A3F44998","title":"华夏金桂苑","lon":"121.674438","lat":"31.197114","category":"47","category_name":"住宅区","address":"华夏金桂苑位于浦东上海浦东华夏东路1349弄"},{"poiid":"B2094655D26BA2FE439B","title":"万馨家园","lon":"121.67467","lat":"31.19308","category":"47","category_name":"住宅区","address":""},{"poiid":"B2094654DA6AA5F54992","title":"天堂商场","lon":"121.66354","lat":"31.19948","category":"119","category_name":"商场","address":"唐陆路3269号"},{"poiid":"B2094757D66DA6FE499B","title":"靈異地帶","lon":"121.67184278","lat":"31.196367038","category":"500","category_name":"未知分类","address":null},{"poiid":"B2094654DA6AA4FC4899","title":"王港工业区","lon":"121.66764","lat":"31.18537","category":"45","category_name":"产业园区","address":""},{"poiid":"B2094655D26BA2FA499C","title":"孙浦路华夏东路","lon":"121.65624","lat":"31.19223","category":"38","category_name":"公交车站","address":""},{"poiid":"B2094757D16DA6FA449D","title":"黑暗料理界","lon":"121.65785208","lat":"31.200647432","category":"247","category_name":"餐饮美食","address":"上海市浦东新区创新西路"},{"poiid":"B2094757D16FA0FA419B","title":"御景豪园","lon":"121.68444","lat":"31.191935","category":"47","category_name":"住宅区","address":"上海市浦东新区华夏二路350弄"},{"poiid":"B2094655D36CA7FC4193","title":"华夏东路环东路","lon":"121.65718","lat":"31.19302","category":"38","category_name":"公交车站","address":""},{"poiid":"B2094757D16EA7FD469E","title":"新川中学羽毛球馆","lon":"121.67920808","lat":"31.191496231","category":"500","category_name":"未知分类","address":"上海市浦东新区新德西路169号"}]