[{"poiid":"B2094654D56DAAF94092","title":"上海市第一人民医院","lon":"121.48928","lat":"31.25335","category":"162","category_name":"医院","address":"上海ShanghaiHongkouSichuan North Rd"},{"poiid":"B2094654D56EA1FD4198","title":"海底捞火锅(森林湾大厦西南)","lon":"121.4878","lat":"31.25103","category":"86","category_name":"火锅店","address":""},{"poiid":"B2094757D06FA1FF429C","title":"海宁路吴淞路","lon":"121.48706817","lat":"31.251310348","category":"46","category_name":"楼宇","address":"上海海宁路吴淞路"},{"poiid":"B209475CD564A7F84392","title":"上海滩浦东香格里拉店","lon":"121.50058","lat":"31.23634","category":"119","category_name":"商场","address":"浦东富成路33号香格里拉酒店内大堂层"},{"poiid":"B2094750D66DA2FB4192","title":"Central Perk 老友记主题咖啡馆","lon":"121.488609","lat":"31.253501","category":"260","category_name":"其他","address":"虹口区哈尔滨路160号1913老洋行A105号(近1933创意园)"},{"poiid":"B2094655D265A1FF4592","title":"小南国(海宁路店)","lon":"121.48832","lat":"31.25122","category":"257","category_name":"中餐厅","address":"虹口区海宁路263号森林湾大厦3楼(近乍浦路)"},{"poiid":"B2094654D56DAAF94093","title":"上海交通大学附属第一人民医院","lon":"121.48927","lat":"31.25335","category":"162","category_name":"医院","address":"海宁路100号"},{"poiid":"B2094757D06FA3FD439D","title":"玛格萝妮比萨屋(昆山店)","lon":"121.48835125","lat":"31.249665167","category":"94","category_name":"西餐厅","address":"虹口区昆山路122号(近乍浦路)"},{"poiid":"B2094757D76EA3FB4198","title":"好好栗子店 海宁总店","lon":"121.488088054","lat":"31.251880793","category":"648","category_name":"零食","address":"虹口区北海宁路63路终点站旁(吴淞路口)"},{"poiid":"B2094757D06FA3F54793","title":"侬好蛙干锅传奇(乍浦路店)","lon":"121.48702","lat":"31.25089","category":"71","category_name":"四川菜","address":"虹口区乍浦路408号(近海宁路)"},{"poiid":"B2094751D36EA0FB4499","title":"鼓浪屿的风Amoy Restaurant","lon":"121.48813","lat":"31.24963","category":"247","category_name":"餐饮美食","address":"虹口区昆山路128号(近吴淞路)"},{"poiid":"B2094654DA6FA7F4499A","title":"宇航大厦","lon":"121.491","lat":"31.2526","category":"46","category_name":"楼宇","address":"上海市普陀区交通路1565号"},{"poiid":"B2094757D069A2F4419C","title":"中国太平洋保险公司上海分公司","lon":"121.489896003","lat":"31.2502330005","category":"263","category_name":"公司","address":"上海吴淞路400号"},{"poiid":"B2094757D069A3FD4398","title":"樂Lofree(乍浦店)","lon":"121.490083103","lat":"31.2512250212","category":"68","category_name":"快餐厅","address":"虹口区昆山路179号(近乍浦路)"},{"poiid":"B2094757D16AA2FB449B","title":"上海市第一人民医院12F","lon":"121.4913274","lat":"31.25310036","category":"162","category_name":"医院","address":"上海海宁路100号"},{"poiid":"B2094757D06FA7FD4092","title":"萨莉亚(海宁路店)","lon":"121.48402","lat":"31.25185","category":"94","category_name":"西餐厅","address":"虹口区海宁路307号爱思大厦2楼(近乍浦路)"},{"poiid":"B2094757D069A0FE4998","title":"上海市第一人民医院门诊检验科","lon":"121.4885612","lat":"31.253051659","category":"162","category_name":"医院","address":"上海武进路85号5号楼1楼"},{"poiid":"B2094655D36CA7FB429B","title":"海宁路","lon":"121.48917","lat":"31.25","category":"38","category_name":"公交车站","address":""},{"poiid":"B2094654D56EA3F4429F","title":"鱼林岛金龙火锅","lon":"121.4874637049","lat":"31.253117704965","category":"86","category_name":"火锅店","address":"虹口区武进路183号(近吴淞路)"},{"poiid":"B2094757D06FA6F5479B","title":"兴旺国际服饰城","lon":"121.489","lat":"31.2514","category":"249","category_name":"购物服务","address":"虹口区七浦路133号(近河南北路)"},{"poiid":"B2094757D068ABFF409D","title":"锡缘无锡小笼馆 北海宁路店","lon":"121.487075054","lat":"31.251334793","category":"68","category_name":"快餐厅","address":"虹口区北海宁路64号(近乍浦路)"},{"poiid":"B2094757D069ABF9499E","title":"永祥烧腊餐厅(兄弟楼)","lon":"121.487063","lat":"31.251815","category":"72","category_name":"广东菜","address":"虹口区北海宁路76号(近吴淞路)"},{"poiid":"B2094654D56DAAF9409F","title":"上海交通大学附属第一人民医院国际医疗保健中心","lon":"121.49018","lat":"31.25374","category":"162","category_name":"医院","address":"九龙路585"},{"poiid":"B209475CD06AA2FC449B","title":"海底捞火锅店 海宁路店","lon":"121.48781","lat":"31.25117","category":"86","category_name":"火锅店","address":"海宁路263号2楼(吴淞路乍浦路间)"},{"poiid":"B2094655D26BA2FC469D","title":"吴淞路海宁路","lon":"121.48789","lat":"31.25144","category":"38","category_name":"公交车站","address":"上海吴淞路529号"},{"poiid":"B2094654D56EA1FC419E","title":"上海财经大学继续教育学院","lon":"121.48764","lat":"31.25005","category":"53","category_name":"成人教育","address":"昆山路146"},{"poiid":"B2094757D168AAFB4693","title":"上海市第一人民医院国际部","lon":"121.488517903","lat":"31.2513569239","category":"162","category_name":"医院","address":"上海武进路"},{"poiid":"B2094750DA6FA7F54293","title":"friends主题咖啡店","lon":"121.487365","lat":"31.252862","category":"247","category_name":"餐饮美食","address":"虹口区哈尔滨路160号1913老洋行A105号(近1933创意园"},{"poiid":"B2094757D064ABFC4793","title":"外滩3号4楼法国餐厅","lon":"121.488834887","lat":"31.2511940089","category":"94","category_name":"西餐厅","address":"上海外滩"},{"poiid":"B2094655D26FAAF8439B","title":"太保大厦","lon":"121.48954","lat":"31.25057","category":"46","category_name":"楼宇","address":"吴淞路400号"},{"poiid":"B2094750D76DABFF4599","title":"新炳记蚝庄","lon":"121.487","lat":"31.2519","category":"72","category_name":"广东菜","address":"虹口区乍浦路430号(近北海宁路)"},{"poiid":"B2094757D06AAAFC439A","title":"徐记生煎王","lon":"121.486616054","lat":"31.250439793","category":"68","category_name":"快餐厅","address":"虹口区乍浦路402号(近海宁路)"},{"poiid":"B2094757D06FA2FC479A","title":"7-ELEVEN(森林湾店)","lon":"121.488246646","lat":"31.2513149783","category":"117","category_name":"便民商店/便利店","address":"虹口区海宁路269号森林湾大厦B座1楼(近吴淞路)"},{"poiid":"B2094753D768A1FD4498","title":"点点心","lon":"121.48703","lat":"31.250722","category":"247","category_name":"餐饮美食","address":"上海市 海宁路307号"},{"poiid":"B2094654D56DABFE4599","title":"上海市电力公司市区供电公司","lon":"121.49131","lat":"31.25106","category":"263","category_name":"公司","address":"上海九龙路399号"},{"poiid":"B2094757D16EAAF5489C","title":"上海市第一人民医院体检中心","lon":"121.4906911","lat":"31.253777074","category":"162","category_name":"医院","address":"虹口区海宁路100号第一人民医院内(峨眉路海宁路)"},{"poiid":"B2094757D468A4FB4393","title":"弄堂口面馆 Alley Kitchen","lon":"121.49059","lat":"31.25102","category":"68","category_name":"快餐厅","address":"虹口区峨眉路315号(近余杭路)"},{"poiid":"B2094654DB69A5F9479A","title":"真锅咖啡(海宁路店)","lon":"121.48943","lat":"31.25305","category":"65","category_name":"咖啡厅","address":"虹口区海宁路106号(近吴淞路)"},{"poiid":"B2094654D56EA3F4469C","title":"小辣椒酒家","lon":"121.48699","lat":"31.25176","category":"71","category_name":"四川菜","address":"虹口区北海宁路78号(近海宁路)"},{"poiid":"B2094757D06AA0F44498","title":"吉祥馄饨(海宁店)","lon":"121.487462","lat":"31.251931","category":"68","category_name":"快餐厅","address":"闸北区海宁路244号(近乍浦路)"},{"poiid":"B2094654D56EA3F44693","title":"大南面饭馆","lon":"121.48718099662","lat":"31.251111218921","category":"68","category_name":"快餐厅","address":"虹口区北海宁路64号102室(近乍浦路)"},{"poiid":"B2094654D56DABFF499D","title":"久耕小区","lon":"121.49068","lat":"31.251862","category":"47","category_name":"住宅区","address":"峨眉路366弄"},{"poiid":"B2094654D56EA3F44293","title":"五芳面馆 武进路","lon":"121.48663621002","lat":"31.252493840359","category":"68","category_name":"快餐厅","address":"虹口区武进路169号(近吴淞路)"},{"poiid":"B2094757D665A2F4469B","title":"7080港式茶餐厅","lon":"121.486919","lat":"31.251478","category":"72","category_name":"广东菜","address":"虹口区乍浦路412号(近海宁路)"},{"poiid":"B2094750DB65A3FC469B","title":"蜀面","lon":"121.48703","lat":"31.25065","category":"68","category_name":"快餐厅","address":"虹口区海宁路307号爱思大厦1楼(近乍浦路)"},{"poiid":"B2094757D16CA5FC429F","title":"948终点站","lon":"121.487483","lat":"31.251974","category":"38","category_name":"公交车站","address":"上海北海宁路吴淞路"},{"poiid":"B2094757D665AAF9489A","title":"太平洋保险大厦餐厅","lon":"121.489324054","lat":"31.250388793","category":"76","category_name":"上海菜","address":"虹口区吴淞路400号5楼(近海宁路)"},{"poiid":"B2094757D76EABF5479A","title":"正宗山东炒米糖","lon":"121.487881","lat":"31.252083","category":"68","category_name":"快餐厅","address":"虹口区北海宁路29号(近好好栗子)"},{"poiid":"B2094757D16CA6F44298","title":"吴淞路海宁路车站17.854.25.13.等","lon":"121.4877459","lat":"31.253154361","category":"38","category_name":"公交车站","address":"上海吴淞路海宁路"},{"poiid":"B2094757D16EA5FA4998","title":"小洋葱餐厅","lon":"121.487007054","lat":"31.253508793","category":"68","category_name":"快餐厅","address":"虹口区吴淞路598号(近哈尔滨路)"},{"poiid":"B2094654D56DAAF94092","title":"上海市第一人民医院","lon":"121.48928","lat":"31.25335","category":"162","category_name":"医院","address":"上海ShanghaiHongkouSichuan North Rd"},{"poiid":"B2094654D56EA1FD4198","title":"海底捞火锅(森林湾大厦西南)","lon":"121.4878","lat":"31.25103","category":"86","category_name":"火锅店","address":""},{"poiid":"B2094757D06FA1FF429C","title":"海宁路吴淞路","lon":"121.48706817","lat":"31.251310348","category":"46","category_name":"楼宇","address":"上海海宁路吴淞路"},{"poiid":"B209475CD564A7F84392","title":"上海滩浦东香格里拉店","lon":"121.50058","lat":"31.23634","category":"119","category_name":"商场","address":"浦东富成路33号香格里拉酒店内大堂层"},{"poiid":"B2094750D66DA2FB4192","title":"Central Perk 老友记主题咖啡馆","lon":"121.488609","lat":"31.253501","category":"260","category_name":"其他","address":"虹口区哈尔滨路160号1913老洋行A105号(近1933创意园)"},{"poiid":"B2094655D265A1FF4592","title":"小南国(海宁路店)","lon":"121.48832","lat":"31.25122","category":"257","category_name":"中餐厅","address":"虹口区海宁路263号森林湾大厦3楼(近乍浦路)"},{"poiid":"B2094654D56DAAF94093","title":"上海交通大学附属第一人民医院","lon":"121.48927","lat":"31.25335","category":"162","category_name":"医院","address":"海宁路100号"},{"poiid":"B2094757D06FA3FD439D","title":"玛格萝妮比萨屋(昆山店)","lon":"121.48835125","lat":"31.249665167","category":"94","category_name":"西餐厅","address":"虹口区昆山路122号(近乍浦路)"},{"poiid":"B2094757D76EA3FB4198","title":"好好栗子店 海宁总店","lon":"121.488088054","lat":"31.251880793","category":"648","category_name":"零食","address":"虹口区北海宁路63路终点站旁(吴淞路口)"},{"poiid":"B2094757D06FA3F54793","title":"侬好蛙干锅传奇(乍浦路店)","lon":"121.48702","lat":"31.25089","category":"71","category_name":"四川菜","address":"虹口区乍浦路408号(近海宁路)"},{"poiid":"B2094751D36EA0FB4499","title":"鼓浪屿的风Amoy Restaurant","lon":"121.48813","lat":"31.24963","category":"247","category_name":"餐饮美食","address":"虹口区昆山路128号(近吴淞路)"},{"poiid":"B2094654DA6FA7F4499A","title":"宇航大厦","lon":"121.491","lat":"31.2526","category":"46","category_name":"楼宇","address":"上海市普陀区交通路1565号"},{"poiid":"B2094757D069A2F4419C","title":"中国太平洋保险公司上海分公司","lon":"121.489896003","lat":"31.2502330005","category":"263","category_name":"公司","address":"上海吴淞路400号"},{"poiid":"B2094757D069A3FD4398","title":"樂Lofree(乍浦店)","lon":"121.490083103","lat":"31.2512250212","category":"68","category_name":"快餐厅","address":"虹口区昆山路179号(近乍浦路)"},{"poiid":"B2094757D16AA2FB449B","title":"上海市第一人民医院12F","lon":"121.4913274","lat":"31.25310036","category":"162","category_name":"医院","address":"上海海宁路100号"},{"poiid":"B2094757D06FA7FD4092","title":"萨莉亚(海宁路店)","lon":"121.48402","lat":"31.25185","category":"94","category_name":"西餐厅","address":"虹口区海宁路307号爱思大厦2楼(近乍浦路)"},{"poiid":"B2094757D069A0FE4998","title":"上海市第一人民医院门诊检验科","lon":"121.4885612","lat":"31.253051659","category":"162","category_name":"医院","address":"上海武进路85号5号楼1楼"},{"poiid":"B2094655D36CA7FB429B","title":"海宁路","lon":"121.48917","lat":"31.25","category":"38","category_name":"公交车站","address":""},{"poiid":"B2094654D56EA3F4429F","title":"鱼林岛金龙火锅","lon":"121.4874637049","lat":"31.253117704965","category":"86","category_name":"火锅店","address":"虹口区武进路183号(近吴淞路)"},{"poiid":"B2094757D06FA6F5479B","title":"兴旺国际服饰城","lon":"121.489","lat":"31.2514","category":"249","category_name":"购物服务","address":"虹口区七浦路133号(近河南北路)"},{"poiid":"B2094757D068ABFF409D","title":"锡缘无锡小笼馆 北海宁路店","lon":"121.487075054","lat":"31.251334793","category":"68","category_name":"快餐厅","address":"虹口区北海宁路64号(近乍浦路)"},{"poiid":"B2094757D069ABF9499E","title":"永祥烧腊餐厅(兄弟楼)","lon":"121.487063","lat":"31.251815","category":"72","category_name":"广东菜","address":"虹口区北海宁路76号(近吴淞路)"},{"poiid":"B2094654D56DAAF9409F","title":"上海交通大学附属第一人民医院国际医疗保健中心","lon":"121.49018","lat":"31.25374","category":"162","category_name":"医院","address":"九龙路585"},{"poiid":"B209475CD06AA2FC449B","title":"海底捞火锅店 海宁路店","lon":"121.48781","lat":"31.25117","category":"86","category_name":"火锅店","address":"海宁路263号2楼(吴淞路乍浦路间)"},{"poiid":"B2094655D26BA2FC469D","title":"吴淞路海宁路","lon":"121.48789","lat":"31.25144","category":"38","category_name":"公交车站","address":"上海吴淞路529号"},{"poiid":"B2094654D56EA1FC419E","title":"上海财经大学继续教育学院","lon":"121.48764","lat":"31.25005","category":"53","category_name":"成人教育","address":"昆山路146"},{"poiid":"B2094757D168AAFB4693","title":"上海市第一人民医院国际部","lon":"121.488517903","lat":"31.2513569239","category":"162","category_name":"医院","address":"上海武进路"},{"poiid":"B2094750DA6FA7F54293","title":"friends主题咖啡店","lon":"121.487365","lat":"31.252862","category":"247","category_name":"餐饮美食","address":"虹口区哈尔滨路160号1913老洋行A105号(近1933创意园"},{"poiid":"B2094757D064ABFC4793","title":"外滩3号4楼法国餐厅","lon":"121.488834887","lat":"31.2511940089","category":"94","category_name":"西餐厅","address":"上海外滩"},{"poiid":"B2094655D26FAAF8439B","title":"太保大厦","lon":"121.48954","lat":"31.25057","category":"46","category_name":"楼宇","address":"吴淞路400号"},{"poiid":"B2094750D76DABFF4599","title":"新炳记蚝庄","lon":"121.487","lat":"31.2519","category":"72","category_name":"广东菜","address":"虹口区乍浦路430号(近北海宁路)"},{"poiid":"B2094757D06AAAFC439A","title":"徐记生煎王","lon":"121.486616054","lat":"31.250439793","category":"68","category_name":"快餐厅","address":"虹口区乍浦路402号(近海宁路)"},{"poiid":"B2094757D06FA2FC479A","title":"7-ELEVEN(森林湾店)","lon":"121.488246646","lat":"31.2513149783","category":"117","category_name":"便民商店/便利店","address":"虹口区海宁路269号森林湾大厦B座1楼(近吴淞路)"},{"poiid":"B2094753D768A1FD4498","title":"点点心","lon":"121.48703","lat":"31.250722","category":"247","category_name":"餐饮美食","address":"上海市 海宁路307号"},{"poiid":"B2094654D56DABFE4599","title":"上海市电力公司市区供电公司","lon":"121.49131","lat":"31.25106","category":"263","category_name":"公司","address":"上海九龙路399号"},{"poiid":"B2094757D16EAAF5489C","title":"上海市第一人民医院体检中心","lon":"121.4906911","lat":"31.253777074","category":"162","category_name":"医院","address":"虹口区海宁路100号第一人民医院内(峨眉路海宁路)"},{"poiid":"B2094757D468A4FB4393","title":"弄堂口面馆 Alley Kitchen","lon":"121.49059","lat":"31.25102","category":"68","category_name":"快餐厅","address":"虹口区峨眉路315号(近余杭路)"},{"poiid":"B2094654DB69A5F9479A","title":"真锅咖啡(海宁路店)","lon":"121.48943","lat":"31.25305","category":"65","category_name":"咖啡厅","address":"虹口区海宁路106号(近吴淞路)"},{"poiid":"B2094654D56EA3F4469C","title":"小辣椒酒家","lon":"121.48699","lat":"31.25176","category":"71","category_name":"四川菜","address":"虹口区北海宁路78号(近海宁路)"},{"poiid":"B2094757D06AA0F44498","title":"吉祥馄饨(海宁店)","lon":"121.487462","lat":"31.251931","category":"68","category_name":"快餐厅","address":"闸北区海宁路244号(近乍浦路)"},{"poiid":"B2094654D56EA3F44693","title":"大南面饭馆","lon":"121.48718099662","lat":"31.251111218921","category":"68","category_name":"快餐厅","address":"虹口区北海宁路64号102室(近乍浦路)"},{"poiid":"B2094654D56DABFF499D","title":"久耕小区","lon":"121.49068","lat":"31.251862","category":"47","category_name":"住宅区","address":"峨眉路366弄"},{"poiid":"B2094654D56EA3F44293","title":"五芳面馆 武进路","lon":"121.48663621002","lat":"31.252493840359","category":"68","category_name":"快餐厅","address":"虹口区武进路169号(近吴淞路)"},{"poiid":"B2094757D665A2F4469B","title":"7080港式茶餐厅","lon":"121.486919","lat":"31.251478","category":"72","category_name":"广东菜","address":"虹口区乍浦路412号(近海宁路)"},{"poiid":"B2094750DB65A3FC469B","title":"蜀面","lon":"121.48703","lat":"31.25065","category":"68","category_name":"快餐厅","address":"虹口区海宁路307号爱思大厦1楼(近乍浦路)"},{"poiid":"B2094757D16CA5FC429F","title":"948终点站","lon":"121.487483","lat":"31.251974","category":"38","category_name":"公交车站","address":"上海北海宁路吴淞路"},{"poiid":"B2094757D665AAF9489A","title":"太平洋保险大厦餐厅","lon":"121.489324054","lat":"31.250388793","category":"76","category_name":"上海菜","address":"虹口区吴淞路400号5楼(近海宁路)"},{"poiid":"B2094757D76EABF5479A","title":"正宗山东炒米糖","lon":"121.487881","lat":"31.252083","category":"68","category_name":"快餐厅","address":"虹口区北海宁路29号(近好好栗子)"},{"poiid":"B2094757D16CA6F44298","title":"吴淞路海宁路车站17.854.25.13.等","lon":"121.4877459","lat":"31.253154361","category":"38","category_name":"公交车站","address":"上海吴淞路海宁路"},{"poiid":"B2094757D16EA5FA4998","title":"小洋葱餐厅","lon":"121.487007054","lat":"31.253508793","category":"68","category_name":"快餐厅","address":"虹口区吴淞路598号(近哈尔滨路)"},{"poiid":"B2094654D56DAAF94092","title":"上海市第一人民医院","lon":"121.48928","lat":"31.25335","category":"162","category_name":"医院","address":"上海ShanghaiHongkouSichuan North Rd"},{"poiid":"B2094654D56EA1FD4198","title":"海底捞火锅(森林湾大厦西南)","lon":"121.4878","lat":"31.25103","category":"86","category_name":"火锅店","address":""},{"poiid":"B2094757D06FA1FF429C","title":"海宁路吴淞路","lon":"121.48706817","lat":"31.251310348","category":"46","category_name":"楼宇","address":"上海海宁路吴淞路"},{"poiid":"B209475CD564A7F84392","title":"上海滩浦东香格里拉店","lon":"121.50058","lat":"31.23634","category":"119","category_name":"商场","address":"浦东富成路33号香格里拉酒店内大堂层"},{"poiid":"B2094750D66DA2FB4192","title":"Central Perk 老友记主题咖啡馆","lon":"121.488609","lat":"31.253501","category":"260","category_name":"其他","address":"虹口区哈尔滨路160号1913老洋行A105号(近1933创意园)"},{"poiid":"B2094655D265A1FF4592","title":"小南国(海宁路店)","lon":"121.48832","lat":"31.25122","category":"257","category_name":"中餐厅","address":"虹口区海宁路263号森林湾大厦3楼(近乍浦路)"},{"poiid":"B2094654D56DAAF94093","title":"上海交通大学附属第一人民医院","lon":"121.48927","lat":"31.25335","category":"162","category_name":"医院","address":"海宁路100号"},{"poiid":"B2094757D06FA3FD439D","title":"玛格萝妮比萨屋(昆山店)","lon":"121.48835125","lat":"31.249665167","category":"94","category_name":"西餐厅","address":"虹口区昆山路122号(近乍浦路)"},{"poiid":"B2094757D76EA3FB4198","title":"好好栗子店 海宁总店","lon":"121.488088054","lat":"31.251880793","category":"648","category_name":"零食","address":"虹口区北海宁路63路终点站旁(吴淞路口)"},{"poiid":"B2094757D06FA3F54793","title":"侬好蛙干锅传奇(乍浦路店)","lon":"121.48702","lat":"31.25089","category":"71","category_name":"四川菜","address":"虹口区乍浦路408号(近海宁路)"},{"poiid":"B2094751D36EA0FB4499","title":"鼓浪屿的风Amoy Restaurant","lon":"121.48813","lat":"31.24963","category":"247","category_name":"餐饮美食","address":"虹口区昆山路128号(近吴淞路)"},{"poiid":"B2094654DA6FA7F4499A","title":"宇航大厦","lon":"121.491","lat":"31.2526","category":"46","category_name":"楼宇","address":"上海市普陀区交通路1565号"},{"poiid":"B2094757D069A2F4419C","title":"中国太平洋保险公司上海分公司","lon":"121.489896003","lat":"31.2502330005","category":"263","category_name":"公司","address":"上海吴淞路400号"},{"poiid":"B2094757D069A3FD4398","title":"樂Lofree(乍浦店)","lon":"121.490083103","lat":"31.2512250212","category":"68","category_name":"快餐厅","address":"虹口区昆山路179号(近乍浦路)"},{"poiid":"B2094757D16AA2FB449B","title":"上海市第一人民医院12F","lon":"121.4913274","lat":"31.25310036","category":"162","category_name":"医院","address":"上海海宁路100号"},{"poiid":"B2094757D06FA7FD4092","title":"萨莉亚(海宁路店)","lon":"121.48402","lat":"31.25185","category":"94","category_name":"西餐厅","address":"虹口区海宁路307号爱思大厦2楼(近乍浦路)"},{"poiid":"B2094757D069A0FE4998","title":"上海市第一人民医院门诊检验科","lon":"121.4885612","lat":"31.253051659","category":"162","category_name":"医院","address":"上海武进路85号5号楼1楼"},{"poiid":"B2094655D36CA7FB429B","title":"海宁路","lon":"121.48917","lat":"31.25","category":"38","category_name":"公交车站","address":""},{"poiid":"B2094654D56EA3F4429F","title":"鱼林岛金龙火锅","lon":"121.4874637049","lat":"31.253117704965","category":"86","category_name":"火锅店","address":"虹口区武进路183号(近吴淞路)"},{"poiid":"B2094757D06FA6F5479B","title":"兴旺国际服饰城","lon":"121.489","lat":"31.2514","category":"249","category_name":"购物服务","address":"虹口区七浦路133号(近河南北路)"},{"poiid":"B2094757D068ABFF409D","title":"锡缘无锡小笼馆 北海宁路店","lon":"121.487075054","lat":"31.251334793","category":"68","category_name":"快餐厅","address":"虹口区北海宁路64号(近乍浦路)"},{"poiid":"B2094757D069ABF9499E","title":"永祥烧腊餐厅(兄弟楼)","lon":"121.487063","lat":"31.251815","category":"72","category_name":"广东菜","address":"虹口区北海宁路76号(近吴淞路)"},{"poiid":"B2094654D56DAAF9409F","title":"上海交通大学附属第一人民医院国际医疗保健中心","lon":"121.49018","lat":"31.25374","category":"162","category_name":"医院","address":"九龙路585"},{"poiid":"B209475CD06AA2FC449B","title":"海底捞火锅店 海宁路店","lon":"121.48781","lat":"31.25117","category":"86","category_name":"火锅店","address":"海宁路263号2楼(吴淞路乍浦路间)"},{"poiid":"B2094655D26BA2FC469D","title":"吴淞路海宁路","lon":"121.48789","lat":"31.25144","category":"38","category_name":"公交车站","address":"上海吴淞路529号"},{"poiid":"B2094654D56EA1FC419E","title":"上海财经大学继续教育学院","lon":"121.48764","lat":"31.25005","category":"53","category_name":"成人教育","address":"昆山路146"},{"poiid":"B2094757D168AAFB4693","title":"上海市第一人民医院国际部","lon":"121.488517903","lat":"31.2513569239","category":"162","category_name":"医院","address":"上海武进路"},{"poiid":"B2094750DA6FA7F54293","title":"friends主题咖啡店","lon":"121.487365","lat":"31.252862","category":"247","category_name":"餐饮美食","address":"虹口区哈尔滨路160号1913老洋行A105号(近1933创意园"},{"poiid":"B2094757D064ABFC4793","title":"外滩3号4楼法国餐厅","lon":"121.488834887","lat":"31.2511940089","category":"94","category_name":"西餐厅","address":"上海外滩"},{"poiid":"B2094655D26FAAF8439B","title":"太保大厦","lon":"121.48954","lat":"31.25057","category":"46","category_name":"楼宇","address":"吴淞路400号"},{"poiid":"B2094750D76DABFF4599","title":"新炳记蚝庄","lon":"121.487","lat":"31.2519","category":"72","category_name":"广东菜","address":"虹口区乍浦路430号(近北海宁路)"},{"poiid":"B2094757D06AAAFC439A","title":"徐记生煎王","lon":"121.486616054","lat":"31.250439793","category":"68","category_name":"快餐厅","address":"虹口区乍浦路402号(近海宁路)"},{"poiid":"B2094757D06FA2FC479A","title":"7-ELEVEN(森林湾店)","lon":"121.488246646","lat":"31.2513149783","category":"117","category_name":"便民商店/便利店","address":"虹口区海宁路269号森林湾大厦B座1楼(近吴淞路)"},{"poiid":"B2094753D768A1FD4498","title":"点点心","lon":"121.48703","lat":"31.250722","category":"247","category_name":"餐饮美食","address":"上海市 海宁路307号"},{"poiid":"B2094654D56DABFE4599","title":"上海市电力公司市区供电公司","lon":"121.49131","lat":"31.25106","category":"263","category_name":"公司","address":"上海九龙路399号"},{"poiid":"B2094757D16EAAF5489C","title":"上海市第一人民医院体检中心","lon":"121.4906911","lat":"31.253777074","category":"162","category_name":"医院","address":"虹口区海宁路100号第一人民医院内(峨眉路海宁路)"},{"poiid":"B2094757D468A4FB4393","title":"弄堂口面馆 Alley Kitchen","lon":"121.49059","lat":"31.25102","category":"68","category_name":"快餐厅","address":"虹口区峨眉路315号(近余杭路)"},{"poiid":"B2094654DB69A5F9479A","title":"真锅咖啡(海宁路店)","lon":"121.48943","lat":"31.25305","category":"65","category_name":"咖啡厅","address":"虹口区海宁路106号(近吴淞路)"},{"poiid":"B2094654D56EA3F4469C","title":"小辣椒酒家","lon":"121.48699","lat":"31.25176","category":"71","category_name":"四川菜","address":"虹口区北海宁路78号(近海宁路)"},{"poiid":"B2094757D06AA0F44498","title":"吉祥馄饨(海宁店)","lon":"121.487462","lat":"31.251931","category":"68","category_name":"快餐厅","address":"闸北区海宁路244号(近乍浦路)"},{"poiid":"B2094654D56EA3F44693","title":"大南面饭馆","lon":"121.48718099662","lat":"31.251111218921","category":"68","category_name":"快餐厅","address":"虹口区北海宁路64号102室(近乍浦路)"},{"poiid":"B2094654D56DABFF499D","title":"久耕小区","lon":"121.49068","lat":"31.251862","category":"47","category_name":"住宅区","address":"峨眉路366弄"},{"poiid":"B2094654D56EA3F44293","title":"五芳面馆 武进路","lon":"121.48663621002","lat":"31.252493840359","category":"68","category_name":"快餐厅","address":"虹口区武进路169号(近吴淞路)"},{"poiid":"B2094757D665A2F4469B","title":"7080港式茶餐厅","lon":"121.486919","lat":"31.251478","category":"72","category_name":"广东菜","address":"虹口区乍浦路412号(近海宁路)"},{"poiid":"B2094750DB65A3FC469B","title":"蜀面","lon":"121.48703","lat":"31.25065","category":"68","category_name":"快餐厅","address":"虹口区海宁路307号爱思大厦1楼(近乍浦路)"},{"poiid":"B2094757D16CA5FC429F","title":"948终点站","lon":"121.487483","lat":"31.251974","category":"38","category_name":"公交车站","address":"上海北海宁路吴淞路"},{"poiid":"B2094757D665AAF9489A","title":"太平洋保险大厦餐厅","lon":"121.489324054","lat":"31.250388793","category":"76","category_name":"上海菜","address":"虹口区吴淞路400号5楼(近海宁路)"},{"poiid":"B2094757D76EABF5479A","title":"正宗山东炒米糖","lon":"121.487881","lat":"31.252083","category":"68","category_name":"快餐厅","address":"虹口区北海宁路29号(近好好栗子)"},{"poiid":"B2094757D16CA6F44298","title":"吴淞路海宁路车站17.854.25.13.等","lon":"121.4877459","lat":"31.253154361","category":"38","category_name":"公交车站","address":"上海吴淞路海宁路"},{"poiid":"B2094757D16EA5FA4998","title":"小洋葱餐厅","lon":"121.487007054","lat":"31.253508793","category":"68","category_name":"快餐厅","address":"虹口区吴淞路598号(近哈尔滨路)"},{"poiid":"B2094654D56DAAF94092","title":"上海市第一人民医院","lon":"121.48928","lat":"31.25335","category":"162","category_name":"医院","address":"上海ShanghaiHongkouSichuan North Rd"},{"poiid":"B2094654D56EA1FD4198","title":"海底捞火锅(森林湾大厦西南)","lon":"121.4878","lat":"31.25103","category":"86","category_name":"火锅店","address":""},{"poiid":"B2094757D06FA1FF429C","title":"海宁路吴淞路","lon":"121.48706817","lat":"31.251310348","category":"46","category_name":"楼宇","address":"上海海宁路吴淞路"},{"poiid":"B209475CD564A7F84392","title":"上海滩浦东香格里拉店","lon":"121.50058","lat":"31.23634","category":"119","category_name":"商场","address":"浦东富成路33号香格里拉酒店内大堂层"},{"poiid":"B2094750D66DA2FB4192","title":"Central Perk 老友记主题咖啡馆","lon":"121.488609","lat":"31.253501","category":"260","category_name":"其他","address":"虹口区哈尔滨路160号1913老洋行A105号(近1933创意园)"},{"poiid":"B2094655D265A1FF4592","title":"小南国(海宁路店)","lon":"121.48832","lat":"31.25122","category":"257","category_name":"中餐厅","address":"虹口区海宁路263号森林湾大厦3楼(近乍浦路)"},{"poiid":"B2094654D56DAAF94093","title":"上海交通大学附属第一人民医院","lon":"121.48927","lat":"31.25335","category":"162","category_name":"医院","address":"海宁路100号"},{"poiid":"B2094757D06FA3FD439D","title":"玛格萝妮比萨屋(昆山店)","lon":"121.48835125","lat":"31.249665167","category":"94","category_name":"西餐厅","address":"虹口区昆山路122号(近乍浦路)"},{"poiid":"B2094757D76EA3FB4198","title":"好好栗子店 海宁总店","lon":"121.488088054","lat":"31.251880793","category":"648","category_name":"零食","address":"虹口区北海宁路63路终点站旁(吴淞路口)"},{"poiid":"B2094757D06FA3F54793","title":"侬好蛙干锅传奇(乍浦路店)","lon":"121.48702","lat":"31.25089","category":"71","category_name":"四川菜","address":"虹口区乍浦路408号(近海宁路)"},{"poiid":"B2094751D36EA0FB4499","title":"鼓浪屿的风Amoy Restaurant","lon":"121.48813","lat":"31.24963","category":"247","category_name":"餐饮美食","address":"虹口区昆山路128号(近吴淞路)"},{"poiid":"B2094654DA6FA7F4499A","title":"宇航大厦","lon":"121.491","lat":"31.2526","category":"46","category_name":"楼宇","address":"上海市普陀区交通路1565号"},{"poiid":"B2094757D069A2F4419C","title":"中国太平洋保险公司上海分公司","lon":"121.489896003","lat":"31.2502330005","category":"263","category_name":"公司","address":"上海吴淞路400号"},{"poiid":"B2094757D069A3FD4398","title":"樂Lofree(乍浦店)","lon":"121.490083103","lat":"31.2512250212","category":"68","category_name":"快餐厅","address":"虹口区昆山路179号(近乍浦路)"},{"poiid":"B2094757D16AA2FB449B","title":"上海市第一人民医院12F","lon":"121.4913274","lat":"31.25310036","category":"162","category_name":"医院","address":"上海海宁路100号"},{"poiid":"B2094757D06FA7FD4092","title":"萨莉亚(海宁路店)","lon":"121.48402","lat":"31.25185","category":"94","category_name":"西餐厅","address":"虹口区海宁路307号爱思大厦2楼(近乍浦路)"},{"poiid":"B2094757D069A0FE4998","title":"上海市第一人民医院门诊检验科","lon":"121.4885612","lat":"31.253051659","category":"162","category_name":"医院","address":"上海武进路85号5号楼1楼"},{"poiid":"B2094655D36CA7FB429B","title":"海宁路","lon":"121.48917","lat":"31.25","category":"38","category_name":"公交车站","address":""},{"poiid":"B2094654D56EA3F4429F","title":"鱼林岛金龙火锅","lon":"121.4874637049","lat":"31.253117704965","category":"86","category_name":"火锅店","address":"虹口区武进路183号(近吴淞路)"},{"poiid":"B2094757D06FA6F5479B","title":"兴旺国际服饰城","lon":"121.489","lat":"31.2514","category":"249","category_name":"购物服务","address":"虹口区七浦路133号(近河南北路)"},{"poiid":"B2094757D068ABFF409D","title":"锡缘无锡小笼馆 北海宁路店","lon":"121.487075054","lat":"31.251334793","category":"68","category_name":"快餐厅","address":"虹口区北海宁路64号(近乍浦路)"},{"poiid":"B2094757D069ABF9499E","title":"永祥烧腊餐厅(兄弟楼)","lon":"121.487063","lat":"31.251815","category":"72","category_name":"广东菜","address":"虹口区北海宁路76号(近吴淞路)"},{"poiid":"B2094654D56DAAF9409F","title":"上海交通大学附属第一人民医院国际医疗保健中心","lon":"121.49018","lat":"31.25374","category":"162","category_name":"医院","address":"九龙路585"},{"poiid":"B209475CD06AA2FC449B","title":"海底捞火锅店 海宁路店","lon":"121.48781","lat":"31.25117","category":"86","category_name":"火锅店","address":"海宁路263号2楼(吴淞路乍浦路间)"},{"poiid":"B2094655D26BA2FC469D","title":"吴淞路海宁路","lon":"121.48789","lat":"31.25144","category":"38","category_name":"公交车站","address":"上海吴淞路529号"},{"poiid":"B2094654D56EA1FC419E","title":"上海财经大学继续教育学院","lon":"121.48764","lat":"31.25005","category":"53","category_name":"成人教育","address":"昆山路146"},{"poiid":"B2094757D168AAFB4693","title":"上海市第一人民医院国际部","lon":"121.488517903","lat":"31.2513569239","category":"162","category_name":"医院","address":"上海武进路"},{"poiid":"B2094750DA6FA7F54293","title":"friends主题咖啡店","lon":"121.487365","lat":"31.252862","category":"247","category_name":"餐饮美食","address":"虹口区哈尔滨路160号1913老洋行A105号(近1933创意园"},{"poiid":"B2094757D064ABFC4793","title":"外滩3号4楼法国餐厅","lon":"121.488834887","lat":"31.2511940089","category":"94","category_name":"西餐厅","address":"上海外滩"},{"poiid":"B2094655D26FAAF8439B","title":"太保大厦","lon":"121.48954","lat":"31.25057","category":"46","category_name":"楼宇","address":"吴淞路400号"},{"poiid":"B2094750D76DABFF4599","title":"新炳记蚝庄","lon":"121.487","lat":"31.2519","category":"72","category_name":"广东菜","address":"虹口区乍浦路430号(近北海宁路)"},{"poiid":"B2094757D06AAAFC439A","title":"徐记生煎王","lon":"121.486616054","lat":"31.250439793","category":"68","category_name":"快餐厅","address":"虹口区乍浦路402号(近海宁路)"},{"poiid":"B2094757D06FA2FC479A","title":"7-ELEVEN(森林湾店)","lon":"121.488246646","lat":"31.2513149783","category":"117","category_name":"便民商店/便利店","address":"虹口区海宁路269号森林湾大厦B座1楼(近吴淞路)"},{"poiid":"B2094753D768A1FD4498","title":"点点心","lon":"121.48703","lat":"31.250722","category":"247","category_name":"餐饮美食","address":"上海市 海宁路307号"},{"poiid":"B2094654D56DABFE4599","title":"上海市电力公司市区供电公司","lon":"121.49131","lat":"31.25106","category":"263","category_name":"公司","address":"上海九龙路399号"},{"poiid":"B2094757D16EAAF5489C","title":"上海市第一人民医院体检中心","lon":"121.4906911","lat":"31.253777074","category":"162","category_name":"医院","address":"虹口区海宁路100号第一人民医院内(峨眉路海宁路)"},{"poiid":"B2094757D468A4FB4393","title":"弄堂口面馆 Alley Kitchen","lon":"121.49059","lat":"31.25102","category":"68","category_name":"快餐厅","address":"虹口区峨眉路315号(近余杭路)"},{"poiid":"B2094654DB69A5F9479A","title":"真锅咖啡(海宁路店)","lon":"121.48943","lat":"31.25305","category":"65","category_name":"咖啡厅","address":"虹口区海宁路106号(近吴淞路)"},{"poiid":"B2094654D56EA3F4469C","title":"小辣椒酒家","lon":"121.48699","lat":"31.25176","category":"71","category_name":"四川菜","address":"虹口区北海宁路78号(近海宁路)"},{"poiid":"B2094757D06AA0F44498","title":"吉祥馄饨(海宁店)","lon":"121.487462","lat":"31.251931","category":"68","category_name":"快餐厅","address":"闸北区海宁路244号(近乍浦路)"},{"poiid":"B2094654D56EA3F44693","title":"大南面饭馆","lon":"121.48718099662","lat":"31.251111218921","category":"68","category_name":"快餐厅","address":"虹口区北海宁路64号102室(近乍浦路)"},{"poiid":"B2094654D56DABFF499D","title":"久耕小区","lon":"121.49068","lat":"31.251862","category":"47","category_name":"住宅区","address":"峨眉路366弄"},{"poiid":"B2094654D56EA3F44293","title":"五芳面馆 武进路","lon":"121.48663621002","lat":"31.252493840359","category":"68","category_name":"快餐厅","address":"虹口区武进路169号(近吴淞路)"},{"poiid":"B2094757D665A2F4469B","title":"7080港式茶餐厅","lon":"121.486919","lat":"31.251478","category":"72","category_name":"广东菜","address":"虹口区乍浦路412号(近海宁路)"},{"poiid":"B2094750DB65A3FC469B","title":"蜀面","lon":"121.48703","lat":"31.25065","category":"68","category_name":"快餐厅","address":"虹口区海宁路307号爱思大厦1楼(近乍浦路)"},{"poiid":"B2094757D16CA5FC429F","title":"948终点站","lon":"121.487483","lat":"31.251974","category":"38","category_name":"公交车站","address":"上海北海宁路吴淞路"},{"poiid":"B2094757D665AAF9489A","title":"太平洋保险大厦餐厅","lon":"121.489324054","lat":"31.250388793","category":"76","category_name":"上海菜","address":"虹口区吴淞路400号5楼(近海宁路)"},{"poiid":"B2094757D76EABF5479A","title":"正宗山东炒米糖","lon":"121.487881","lat":"31.252083","category":"68","category_name":"快餐厅","address":"虹口区北海宁路29号(近好好栗子)"},{"poiid":"B2094757D16CA6F44298","title":"吴淞路海宁路车站17.854.25.13.等","lon":"121.4877459","lat":"31.253154361","category":"38","category_name":"公交车站","address":"上海吴淞路海宁路"},{"poiid":"B2094757D16EA5FA4998","title":"小洋葱餐厅","lon":"121.487007054","lat":"31.253508793","category":"68","category_name":"快餐厅","address":"虹口区吴淞路598号(近哈尔滨路)"}]