[{"poiid":"B2094654D564A7FB459E","title":"小黑蚝情 定西路店","lon":"121.42397551698","lat":"31.207899958864","category":"269","category_name":"烧烤","address":"长宁区定西路794号(近延安西路)"},{"poiid":"B2094654DB64AAFC4699","title":"潮汕砂锅粥定西店","lon":"121.42398","lat":"31.20874","category":"72","category_name":"广东菜","address":"长宁区定西路784号(近延安西路)"},{"poiid":"B2094757D06FAAFF4198","title":"鲜芋仙(定西店)","lon":"121.423583586","lat":"31.207216981","category":"67","category_name":"甜品店","address":"长宁区定西路713号-5(近法华镇路)"},{"poiid":"B2094757D06FA0FB4498","title":"上海交通大学安泰经济与管理学院","lon":"121.4250955","lat":"31.205555045","category":"260","category_name":"其他","address":"长宁区法华镇路535号上海交通大学内(近定西路)"},{"poiid":"B2094757D06FA0F4429B","title":"尚映仓","lon":"121.423841779","lat":"31.2077904638","category":"94","category_name":"西餐厅","address":"长宁区定西路739号甲(近延安西路)"},{"poiid":"B2094654D564A7FB469D","title":"潮汕砂锅粥馆 长宁总店","lon":"121.42324823256","lat":"31.2091744206","category":"72","category_name":"广东菜","address":"长宁区定西路805号(近延安西路)"},{"poiid":"B2094757D06EAAFC489A","title":"Kaiba(定西路店)","lon":"121.423710143","lat":"31.2080453965","category":"172","category_name":"酒吧","address":"长宁区定西路739号(近延安西路)"},{"poiid":"B2094654DB6AA7F4469F","title":"SUS2 MUSIC BAR","lon":"121.42369","lat":"31.20681","category":"260","category_name":"其他","address":"上海长宁区定西路685号(近法华镇路)"},{"poiid":"B2094757D06FA3FD489B","title":"CS酒吧","lon":"121.42369079","lat":"31.206811904","category":"172","category_name":"酒吧","address":"长宁区定西路685号B1楼(近法华镇路)"},{"poiid":"B2094757D06FA7FD499D","title":"好友汇土菜馆","lon":"121.42397","lat":"31.20606","category":"76","category_name":"上海菜","address":"长宁区定西路657号2-3楼(近法华镇路)"},{"poiid":"B2094757D069A3F8459A","title":"川堂风","lon":"121.424273186","lat":"31.2069221752","category":"71","category_name":"四川菜","address":"长宁区定西路685号(近法华镇路)"},{"poiid":"B2094750D464A0FA459C","title":"十面埋伏面馆定西路店","lon":"121.424087","lat":"31.208271","category":"247","category_name":"餐饮美食","address":"长宁区定西路795号(近延安西路)"},{"poiid":"B2094752D56BABF94992","title":"虾满堂定西店","lon":"121.42367","lat":"31.20927","category":"247","category_name":"餐饮美食","address":"上海市长宁区定西路796号"},{"poiid":"B2094757D06FA1F5419B","title":"九龙城(定西路店)","lon":"121.42415","lat":"31.20881","category":"72","category_name":"广东菜","address":"长宁区定西路782号(近延安西路)"},{"poiid":"B2094757D068A3F54299","title":"清风人家(定西路店)","lon":"121.42436","lat":"31.20813","category":"260","category_name":"其他","address":"长宁区定西路776号(近延安西路)"},{"poiid":"B2094757D06FA5FD4892","title":"汤司令土灶煨汤馆(定西路店)","lon":"121.423787","lat":"31.208395","category":"260","category_name":"其他","address":"长宁区定西路799号(近延安西路)"},{"poiid":"B2094757DB69A6FF479F","title":"扇贝王","lon":"121.423668","lat":"31.2087","category":"247","category_name":"餐饮美食","address":"定西路825号近延安高架"},{"poiid":"B2094654DB69AAF5449B","title":"上海交大安泰管理学院","lon":"121.42535","lat":"31.20503","category":"52","category_name":"高等院校","address":"上海市长宁区法华镇路535号"},{"poiid":"B2094757D06AA5F4459B","title":"潮州砂锅粥","lon":"121.42339658","lat":"31.208600008","category":"247","category_name":"餐饮美食","address":"上海市长宁区定西路792号"},{"poiid":"B2094654D564A7FB459F","title":"翠豪茶餐厅","lon":"121.42387","lat":"31.20912","category":"72","category_name":"广东菜","address":"长宁区定西路792号-1(近延安西路)"},{"poiid":"B2094757D46FA0F8489E","title":"兰庭砂锅粥","lon":"121.423947","lat":"31.209003","category":"72","category_name":"广东菜","address":"长宁区定西路790号(近延安西路)"},{"poiid":"B2094757D068A3FF4292","title":"新澳港式茶餐厅 延安西路店 PIZZA INN","lon":"121.4233424286","lat":"31.209433459149","category":"72","category_name":"广东菜","address":"长宁区延安西路1426号(定西路口)"},{"poiid":"B2094757D068A3FB429A","title":"柏崴桌球俱乐部","lon":"121.42432","lat":"31.20795","category":"171","category_name":"台球厅","address":"长宁区定西路738号裙楼3楼(近延安西路)"},{"poiid":"B2094750D26CA6FD439B","title":"品潮阁潮汕砂锅粥","lon":"121.42476081848","lat":"31.208066616211","category":"72","category_name":"广东菜","address":"长宁区定西路796号(近延安西路)"},{"poiid":"B2094750D464A1F9489B","title":"翔记生蚝馆","lon":"121.423812","lat":"31.208801","category":"68","category_name":"快餐厅","address":"长宁区定西路786号(近延安西路)"},{"poiid":"B2094757D068AAF54098","title":"其鲜生煎(定西路店)","lon":"121.42413162","lat":"31.207243727","category":"68","category_name":"快餐厅","address":"长宁区定西路738号(近法华镇路)"},{"poiid":"B2094757D069A1FD4193","title":"邓记传菜","lon":"121.42433","lat":"31.20789","category":"71","category_name":"四川菜","address":"长宁区定西路737号(近延安西路)"},{"poiid":"B2094757D169A5F54492","title":"老盛兴苏州汤包馆(定西路店)","lon":"121.42411658","lat":"31.207330983","category":"257","category_name":"中餐厅","address":"长宁区定西路713号(近法华镇路)"},{"poiid":"B2094757D06FA0FE4998","title":"85度C(法华店)","lon":"121.423762123","lat":"31.2064997643","category":"112","category_name":"糕饼店","address":"长宁区定西路657号1幢1楼A座(近法华镇路)"},{"poiid":"B2094757DA6FA2FD4599","title":"向天歌烧鹅老铺(定西路店)","lon":"121.423988342286","lat":"31.2082134365825","category":"72","category_name":"广东菜","address":"长宁区定西路825号(近延安西路)"},{"poiid":"B2094757D068A2F94599","title":"野味打边炉","lon":"121.42418","lat":"31.20883","category":"86","category_name":"火锅店","address":"长宁区定西路791号(近延安西路)"},{"poiid":"B2094757D064A0FB4093","title":"王记正宗潮汕砂锅粥","lon":"121.423796086","lat":"31.2087615112","category":"500","category_name":"未知分类","address":"上海长宁区定西路792号(近延安西路)"},{"poiid":"B2094757D168AAF54592","title":"定西路法华镇路","lon":"121.424320586","lat":"31.207522987","category":"500","category_name":"未知分类","address":"上海市长宁区延安西路"},{"poiid":"B2094655D264A4F84598","title":"红村热气羊肉火锅","lon":"121.42383","lat":"31.20808","category":"86","category_name":"火锅店","address":"长宁区定西路789号(近延安西路)"},{"poiid":"B2094654D564A7F4409C","title":"新华商务大楼","lon":"121.42369","lat":"31.20681","category":"46","category_name":"楼宇","address":"浦东区崂山东路410号"},{"poiid":"B2094757D069A5FA439F","title":"法华镇路","lon":"121.425354","lat":"31.205027","category":"627","category_name":"一般地点标志","address":"上海法华镇路"},{"poiid":"B2094752D56AA5FB4793","title":"X先生密室（长宁店）","lon":"121.423539","lat":"31.209118","category":"248","category_name":"生活娱乐","address":"定西路825号-1"},{"poiid":"B2094757D16FA0FA489A","title":"韩伊拌饭馆(定西路店)","lon":"121.423705586","lat":"31.2090450167","category":"96","category_name":"韩国料理","address":"长宁区定西路825号(近延安西路)"},{"poiid":"B2094757D664A4F44593","title":"尚渔轩斑鱼火锅 长宁店","lon":"121.42368751239","lat":"31.209130212446","category":"86","category_name":"火锅店","address":"长宁区定西路825号5铺(近延安西路高架桥)"},{"poiid":"B2094757D069ABFE4693","title":"南京汤包","lon":"121.424183054","lat":"31.205100793","category":"68","category_name":"快餐厅","address":"长宁区法华镇路504号(近香花桥路)"},{"poiid":"B2094752DB6FA7FA459C","title":"虾满堂手抓龙虾(定西路点)","lon":"121.423723","lat":"31.209168","category":"247","category_name":"餐饮美食","address":"上海市 定西路796号(近延安西路)"},{"poiid":"B2094654D564A7F4439B","title":"新华路派出所","lon":"121.42625","lat":"31.2053","category":"609","category_name":"警察局","address":"法华镇路475"},{"poiid":"B2094757D068A5FF499E","title":"老盛兴汤包馆(定西路店)","lon":"121.4242066","lat":"31.207481896","category":"247","category_name":"餐饮美食","address":"上海长宁区定西路713号"},{"poiid":"B2094757D16FA3FF469F","title":"Sofa Cafe","lon":"121.423584686","lat":"31.204914236","category":"500","category_name":"未知分类","address":"上海41 香花桥路"},{"poiid":"B2094757D068A0FC479F","title":"超級雞車","lon":"121.42395253","lat":"31.209002548","category":"68","category_name":"快餐厅","address":"长宁区定西路825号(近延安西路)"},{"poiid":"B2094757D068A6FF409B","title":"小马烧烤","lon":"121.423520088","lat":"31.2059282223","category":"257","category_name":"中餐厅","address":"上海长宁区定西路(法华镇路口)  "},{"poiid":"B2094655D265A5FF4198","title":"巴贝拉意式休闲餐厅(果留仙定西店)","lon":"121.42385","lat":"31.20739","category":"98","category_name":"意式菜品餐厅","address":"定西路713号1楼713-2"},{"poiid":"B2094757D065ABFC4593","title":"海贝幼儿园","lon":"121.424525","lat":"31.207245","category":"57","category_name":"幼儿园","address":"上海定西路720弄5号"},{"poiid":"B2094757D06FA6FF4898","title":"Rice Bar","lon":"121.42450046","lat":"31.205134464","category":"260","category_name":"其他","address":"长宁区法华镇路532号(近定西路)"},{"poiid":"B2094751D365A6F84499","title":"Noodle Chat 谈面馆","lon":"121.4251342","lat":"31.2060753","category":"247","category_name":"餐饮美食","address":"番禺路390号，近法华镇路"},{"poiid":"B2094654D564A7FB459E","title":"小黑蚝情 定西路店","lon":"121.42397551698","lat":"31.207899958864","category":"269","category_name":"烧烤","address":"长宁区定西路794号(近延安西路)"},{"poiid":"B2094654DB64AAFC4699","title":"潮汕砂锅粥定西店","lon":"121.42398","lat":"31.20874","category":"72","category_name":"广东菜","address":"长宁区定西路784号(近延安西路)"},{"poiid":"B2094757D06FAAFF4198","title":"鲜芋仙(定西店)","lon":"121.423583586","lat":"31.207216981","category":"67","category_name":"甜品店","address":"长宁区定西路713号-5(近法华镇路)"},{"poiid":"B2094757D06FA0FB4498","title":"上海交通大学安泰经济与管理学院","lon":"121.4250955","lat":"31.205555045","category":"260","category_name":"其他","address":"长宁区法华镇路535号上海交通大学内(近定西路)"},{"poiid":"B2094757D06FA0F4429B","title":"尚映仓","lon":"121.423841779","lat":"31.2077904638","category":"94","category_name":"西餐厅","address":"长宁区定西路739号甲(近延安西路)"},{"poiid":"B2094654D564A7FB469D","title":"潮汕砂锅粥馆 长宁总店","lon":"121.42324823256","lat":"31.2091744206","category":"72","category_name":"广东菜","address":"长宁区定西路805号(近延安西路)"},{"poiid":"B2094757D06EAAFC489A","title":"Kaiba(定西路店)","lon":"121.423710143","lat":"31.2080453965","category":"172","category_name":"酒吧","address":"长宁区定西路739号(近延安西路)"},{"poiid":"B2094654DB6AA7F4469F","title":"SUS2 MUSIC BAR","lon":"121.42369","lat":"31.20681","category":"260","category_name":"其他","address":"上海长宁区定西路685号(近法华镇路)"},{"poiid":"B2094757D06FA3FD489B","title":"CS酒吧","lon":"121.42369079","lat":"31.206811904","category":"172","category_name":"酒吧","address":"长宁区定西路685号B1楼(近法华镇路)"},{"poiid":"B2094757D06FA7FD499D","title":"好友汇土菜馆","lon":"121.42397","lat":"31.20606","category":"76","category_name":"上海菜","address":"长宁区定西路657号2-3楼(近法华镇路)"},{"poiid":"B2094757D069A3F8459A","title":"川堂风","lon":"121.424273186","lat":"31.2069221752","category":"71","category_name":"四川菜","address":"长宁区定西路685号(近法华镇路)"},{"poiid":"B2094750D464A0FA459C","title":"十面埋伏面馆定西路店","lon":"121.424087","lat":"31.208271","category":"247","category_name":"餐饮美食","address":"长宁区定西路795号(近延安西路)"},{"poiid":"B2094752D56BABF94992","title":"虾满堂定西店","lon":"121.42367","lat":"31.20927","category":"247","category_name":"餐饮美食","address":"上海市长宁区定西路796号"},{"poiid":"B2094757D06FA1F5419B","title":"九龙城(定西路店)","lon":"121.42415","lat":"31.20881","category":"72","category_name":"广东菜","address":"长宁区定西路782号(近延安西路)"},{"poiid":"B2094757D068A3F54299","title":"清风人家(定西路店)","lon":"121.42436","lat":"31.20813","category":"260","category_name":"其他","address":"长宁区定西路776号(近延安西路)"},{"poiid":"B2094757D06FA5FD4892","title":"汤司令土灶煨汤馆(定西路店)","lon":"121.423787","lat":"31.208395","category":"260","category_name":"其他","address":"长宁区定西路799号(近延安西路)"},{"poiid":"B2094757DB69A6FF479F","title":"扇贝王","lon":"121.423668","lat":"31.2087","category":"247","category_name":"餐饮美食","address":"定西路825号近延安高架"},{"poiid":"B2094654DB69AAF5449B","title":"上海交大安泰管理学院","lon":"121.42535","lat":"31.20503","category":"52","category_name":"高等院校","address":"上海市长宁区法华镇路535号"},{"poiid":"B2094757D06AA5F4459B","title":"潮州砂锅粥","lon":"121.42339658","lat":"31.208600008","category":"247","category_name":"餐饮美食","address":"上海市长宁区定西路792号"},{"poiid":"B2094654D564A7FB459F","title":"翠豪茶餐厅","lon":"121.42387","lat":"31.20912","category":"72","category_name":"广东菜","address":"长宁区定西路792号-1(近延安西路)"},{"poiid":"B2094757D46FA0F8489E","title":"兰庭砂锅粥","lon":"121.423947","lat":"31.209003","category":"72","category_name":"广东菜","address":"长宁区定西路790号(近延安西路)"},{"poiid":"B2094757D068A3FF4292","title":"新澳港式茶餐厅 延安西路店 PIZZA INN","lon":"121.4233424286","lat":"31.209433459149","category":"72","category_name":"广东菜","address":"长宁区延安西路1426号(定西路口)"},{"poiid":"B2094757D068A3FB429A","title":"柏崴桌球俱乐部","lon":"121.42432","lat":"31.20795","category":"171","category_name":"台球厅","address":"长宁区定西路738号裙楼3楼(近延安西路)"},{"poiid":"B2094750D26CA6FD439B","title":"品潮阁潮汕砂锅粥","lon":"121.42476081848","lat":"31.208066616211","category":"72","category_name":"广东菜","address":"长宁区定西路796号(近延安西路)"},{"poiid":"B2094750D464A1F9489B","title":"翔记生蚝馆","lon":"121.423812","lat":"31.208801","category":"68","category_name":"快餐厅","address":"长宁区定西路786号(近延安西路)"},{"poiid":"B2094757D068AAF54098","title":"其鲜生煎(定西路店)","lon":"121.42413162","lat":"31.207243727","category":"68","category_name":"快餐厅","address":"长宁区定西路738号(近法华镇路)"},{"poiid":"B2094757D069A1FD4193","title":"邓记传菜","lon":"121.42433","lat":"31.20789","category":"71","category_name":"四川菜","address":"长宁区定西路737号(近延安西路)"},{"poiid":"B2094757D169A5F54492","title":"老盛兴苏州汤包馆(定西路店)","lon":"121.42411658","lat":"31.207330983","category":"257","category_name":"中餐厅","address":"长宁区定西路713号(近法华镇路)"},{"poiid":"B2094757D06FA0FE4998","title":"85度C(法华店)","lon":"121.423762123","lat":"31.2064997643","category":"112","category_name":"糕饼店","address":"长宁区定西路657号1幢1楼A座(近法华镇路)"},{"poiid":"B2094757DA6FA2FD4599","title":"向天歌烧鹅老铺(定西路店)","lon":"121.423988342286","lat":"31.2082134365825","category":"72","category_name":"广东菜","address":"长宁区定西路825号(近延安西路)"},{"poiid":"B2094757D068A2F94599","title":"野味打边炉","lon":"121.42418","lat":"31.20883","category":"86","category_name":"火锅店","address":"长宁区定西路791号(近延安西路)"},{"poiid":"B2094757D064A0FB4093","title":"王记正宗潮汕砂锅粥","lon":"121.423796086","lat":"31.2087615112","category":"500","category_name":"未知分类","address":"上海长宁区定西路792号(近延安西路)"},{"poiid":"B2094757D168AAF54592","title":"定西路法华镇路","lon":"121.424320586","lat":"31.207522987","category":"500","category_name":"未知分类","address":"上海市长宁区延安西路"},{"poiid":"B2094655D264A4F84598","title":"红村热气羊肉火锅","lon":"121.42383","lat":"31.20808","category":"86","category_name":"火锅店","address":"长宁区定西路789号(近延安西路)"},{"poiid":"B2094654D564A7F4409C","title":"新华商务大楼","lon":"121.42369","lat":"31.20681","category":"46","category_name":"楼宇","address":"浦东区崂山东路410号"},{"poiid":"B2094757D069A5FA439F","title":"法华镇路","lon":"121.425354","lat":"31.205027","category":"627","category_name":"一般地点标志","address":"上海法华镇路"},{"poiid":"B2094752D56AA5FB4793","title":"X先生密室（长宁店）","lon":"121.423539","lat":"31.209118","category":"248","category_name":"生活娱乐","address":"定西路825号-1"},{"poiid":"B2094757D16FA0FA489A","title":"韩伊拌饭馆(定西路店)","lon":"121.423705586","lat":"31.2090450167","category":"96","category_name":"韩国料理","address":"长宁区定西路825号(近延安西路)"},{"poiid":"B2094757D664A4F44593","title":"尚渔轩斑鱼火锅 长宁店","lon":"121.42368751239","lat":"31.209130212446","category":"86","category_name":"火锅店","address":"长宁区定西路825号5铺(近延安西路高架桥)"},{"poiid":"B2094757D069ABFE4693","title":"南京汤包","lon":"121.424183054","lat":"31.205100793","category":"68","category_name":"快餐厅","address":"长宁区法华镇路504号(近香花桥路)"},{"poiid":"B2094752DB6FA7FA459C","title":"虾满堂手抓龙虾(定西路点)","lon":"121.423723","lat":"31.209168","category":"247","category_name":"餐饮美食","address":"上海市 定西路796号(近延安西路)"},{"poiid":"B2094654D564A7F4439B","title":"新华路派出所","lon":"121.42625","lat":"31.2053","category":"609","category_name":"警察局","address":"法华镇路475"},{"poiid":"B2094757D068A5FF499E","title":"老盛兴汤包馆(定西路店)","lon":"121.4242066","lat":"31.207481896","category":"247","category_name":"餐饮美食","address":"上海长宁区定西路713号"},{"poiid":"B2094757D16FA3FF469F","title":"Sofa Cafe","lon":"121.423584686","lat":"31.204914236","category":"500","category_name":"未知分类","address":"上海41 香花桥路"},{"poiid":"B2094757D068A0FC479F","title":"超級雞車","lon":"121.42395253","lat":"31.209002548","category":"68","category_name":"快餐厅","address":"长宁区定西路825号(近延安西路)"},{"poiid":"B2094757D068A6FF409B","title":"小马烧烤","lon":"121.423520088","lat":"31.2059282223","category":"257","category_name":"中餐厅","address":"上海长宁区定西路(法华镇路口)  "},{"poiid":"B2094655D265A5FF4198","title":"巴贝拉意式休闲餐厅(果留仙定西店)","lon":"121.42385","lat":"31.20739","category":"98","category_name":"意式菜品餐厅","address":"定西路713号1楼713-2"},{"poiid":"B2094757D065ABFC4593","title":"海贝幼儿园","lon":"121.424525","lat":"31.207245","category":"57","category_name":"幼儿园","address":"上海定西路720弄5号"},{"poiid":"B2094757D06FA6FF4898","title":"Rice Bar","lon":"121.42450046","lat":"31.205134464","category":"260","category_name":"其他","address":"长宁区法华镇路532号(近定西路)"},{"poiid":"B2094751D365A6F84499","title":"Noodle Chat 谈面馆","lon":"121.4251342","lat":"31.2060753","category":"247","category_name":"餐饮美食","address":"番禺路390号，近法华镇路"},{"poiid":"B2094654D564A7FB459E","title":"小黑蚝情 定西路店","lon":"121.42397551698","lat":"31.207899958864","category":"269","category_name":"烧烤","address":"长宁区定西路794号(近延安西路)"},{"poiid":"B2094654DB64AAFC4699","title":"潮汕砂锅粥定西店","lon":"121.42398","lat":"31.20874","category":"72","category_name":"广东菜","address":"长宁区定西路784号(近延安西路)"},{"poiid":"B2094757D06FAAFF4198","title":"鲜芋仙(定西店)","lon":"121.423583586","lat":"31.207216981","category":"67","category_name":"甜品店","address":"长宁区定西路713号-5(近法华镇路)"},{"poiid":"B2094757D06FA0FB4498","title":"上海交通大学安泰经济与管理学院","lon":"121.4250955","lat":"31.205555045","category":"260","category_name":"其他","address":"长宁区法华镇路535号上海交通大学内(近定西路)"},{"poiid":"B2094757D06FA0F4429B","title":"尚映仓","lon":"121.423841779","lat":"31.2077904638","category":"94","category_name":"西餐厅","address":"长宁区定西路739号甲(近延安西路)"},{"poiid":"B2094654D564A7FB469D","title":"潮汕砂锅粥馆 长宁总店","lon":"121.42324823256","lat":"31.2091744206","category":"72","category_name":"广东菜","address":"长宁区定西路805号(近延安西路)"},{"poiid":"B2094757D06EAAFC489A","title":"Kaiba(定西路店)","lon":"121.423710143","lat":"31.2080453965","category":"172","category_name":"酒吧","address":"长宁区定西路739号(近延安西路)"},{"poiid":"B2094654DB6AA7F4469F","title":"SUS2 MUSIC BAR","lon":"121.42369","lat":"31.20681","category":"260","category_name":"其他","address":"上海长宁区定西路685号(近法华镇路)"},{"poiid":"B2094757D06FA3FD489B","title":"CS酒吧","lon":"121.42369079","lat":"31.206811904","category":"172","category_name":"酒吧","address":"长宁区定西路685号B1楼(近法华镇路)"},{"poiid":"B2094757D06FA7FD499D","title":"好友汇土菜馆","lon":"121.42397","lat":"31.20606","category":"76","category_name":"上海菜","address":"长宁区定西路657号2-3楼(近法华镇路)"},{"poiid":"B2094757D069A3F8459A","title":"川堂风","lon":"121.424273186","lat":"31.2069221752","category":"71","category_name":"四川菜","address":"长宁区定西路685号(近法华镇路)"},{"poiid":"B2094750D464A0FA459C","title":"十面埋伏面馆定西路店","lon":"121.424087","lat":"31.208271","category":"247","category_name":"餐饮美食","address":"长宁区定西路795号(近延安西路)"},{"poiid":"B2094752D56BABF94992","title":"虾满堂定西店","lon":"121.42367","lat":"31.20927","category":"247","category_name":"餐饮美食","address":"上海市长宁区定西路796号"},{"poiid":"B2094757D06FA1F5419B","title":"九龙城(定西路店)","lon":"121.42415","lat":"31.20881","category":"72","category_name":"广东菜","address":"长宁区定西路782号(近延安西路)"},{"poiid":"B2094757D068A3F54299","title":"清风人家(定西路店)","lon":"121.42436","lat":"31.20813","category":"260","category_name":"其他","address":"长宁区定西路776号(近延安西路)"},{"poiid":"B2094757D06FA5FD4892","title":"汤司令土灶煨汤馆(定西路店)","lon":"121.423787","lat":"31.208395","category":"260","category_name":"其他","address":"长宁区定西路799号(近延安西路)"},{"poiid":"B2094757DB69A6FF479F","title":"扇贝王","lon":"121.423668","lat":"31.2087","category":"247","category_name":"餐饮美食","address":"定西路825号近延安高架"},{"poiid":"B2094654DB69AAF5449B","title":"上海交大安泰管理学院","lon":"121.42535","lat":"31.20503","category":"52","category_name":"高等院校","address":"上海市长宁区法华镇路535号"},{"poiid":"B2094757D06AA5F4459B","title":"潮州砂锅粥","lon":"121.42339658","lat":"31.208600008","category":"247","category_name":"餐饮美食","address":"上海市长宁区定西路792号"},{"poiid":"B2094654D564A7FB459F","title":"翠豪茶餐厅","lon":"121.42387","lat":"31.20912","category":"72","category_name":"广东菜","address":"长宁区定西路792号-1(近延安西路)"},{"poiid":"B2094757D46FA0F8489E","title":"兰庭砂锅粥","lon":"121.423947","lat":"31.209003","category":"72","category_name":"广东菜","address":"长宁区定西路790号(近延安西路)"},{"poiid":"B2094757D068A3FF4292","title":"新澳港式茶餐厅 延安西路店 PIZZA INN","lon":"121.4233424286","lat":"31.209433459149","category":"72","category_name":"广东菜","address":"长宁区延安西路1426号(定西路口)"},{"poiid":"B2094757D068A3FB429A","title":"柏崴桌球俱乐部","lon":"121.42432","lat":"31.20795","category":"171","category_name":"台球厅","address":"长宁区定西路738号裙楼3楼(近延安西路)"},{"poiid":"B2094750D26CA6FD439B","title":"品潮阁潮汕砂锅粥","lon":"121.42476081848","lat":"31.208066616211","category":"72","category_name":"广东菜","address":"长宁区定西路796号(近延安西路)"},{"poiid":"B2094750D464A1F9489B","title":"翔记生蚝馆","lon":"121.423812","lat":"31.208801","category":"68","category_name":"快餐厅","address":"长宁区定西路786号(近延安西路)"},{"poiid":"B2094757D068AAF54098","title":"其鲜生煎(定西路店)","lon":"121.42413162","lat":"31.207243727","category":"68","category_name":"快餐厅","address":"长宁区定西路738号(近法华镇路)"},{"poiid":"B2094757D069A1FD4193","title":"邓记传菜","lon":"121.42433","lat":"31.20789","category":"71","category_name":"四川菜","address":"长宁区定西路737号(近延安西路)"},{"poiid":"B2094757D169A5F54492","title":"老盛兴苏州汤包馆(定西路店)","lon":"121.42411658","lat":"31.207330983","category":"257","category_name":"中餐厅","address":"长宁区定西路713号(近法华镇路)"},{"poiid":"B2094757D06FA0FE4998","title":"85度C(法华店)","lon":"121.423762123","lat":"31.2064997643","category":"112","category_name":"糕饼店","address":"长宁区定西路657号1幢1楼A座(近法华镇路)"},{"poiid":"B2094757DA6FA2FD4599","title":"向天歌烧鹅老铺(定西路店)","lon":"121.423988342286","lat":"31.2082134365825","category":"72","category_name":"广东菜","address":"长宁区定西路825号(近延安西路)"},{"poiid":"B2094757D068A2F94599","title":"野味打边炉","lon":"121.42418","lat":"31.20883","category":"86","category_name":"火锅店","address":"长宁区定西路791号(近延安西路)"},{"poiid":"B2094757D064A0FB4093","title":"王记正宗潮汕砂锅粥","lon":"121.423796086","lat":"31.2087615112","category":"500","category_name":"未知分类","address":"上海长宁区定西路792号(近延安西路)"},{"poiid":"B2094757D168AAF54592","title":"定西路法华镇路","lon":"121.424320586","lat":"31.207522987","category":"500","category_name":"未知分类","address":"上海市长宁区延安西路"},{"poiid":"B2094655D264A4F84598","title":"红村热气羊肉火锅","lon":"121.42383","lat":"31.20808","category":"86","category_name":"火锅店","address":"长宁区定西路789号(近延安西路)"},{"poiid":"B2094654D564A7F4409C","title":"新华商务大楼","lon":"121.42369","lat":"31.20681","category":"46","category_name":"楼宇","address":"浦东区崂山东路410号"},{"poiid":"B2094757D069A5FA439F","title":"法华镇路","lon":"121.425354","lat":"31.205027","category":"627","category_name":"一般地点标志","address":"上海法华镇路"},{"poiid":"B2094752D56AA5FB4793","title":"X先生密室（长宁店）","lon":"121.423539","lat":"31.209118","category":"248","category_name":"生活娱乐","address":"定西路825号-1"},{"poiid":"B2094757D16FA0FA489A","title":"韩伊拌饭馆(定西路店)","lon":"121.423705586","lat":"31.2090450167","category":"96","category_name":"韩国料理","address":"长宁区定西路825号(近延安西路)"},{"poiid":"B2094757D664A4F44593","title":"尚渔轩斑鱼火锅 长宁店","lon":"121.42368751239","lat":"31.209130212446","category":"86","category_name":"火锅店","address":"长宁区定西路825号5铺(近延安西路高架桥)"},{"poiid":"B2094757D069ABFE4693","title":"南京汤包","lon":"121.424183054","lat":"31.205100793","category":"68","category_name":"快餐厅","address":"长宁区法华镇路504号(近香花桥路)"},{"poiid":"B2094752DB6FA7FA459C","title":"虾满堂手抓龙虾(定西路点)","lon":"121.423723","lat":"31.209168","category":"247","category_name":"餐饮美食","address":"上海市 定西路796号(近延安西路)"},{"poiid":"B2094654D564A7F4439B","title":"新华路派出所","lon":"121.42625","lat":"31.2053","category":"609","category_name":"警察局","address":"法华镇路475"},{"poiid":"B2094757D068A5FF499E","title":"老盛兴汤包馆(定西路店)","lon":"121.4242066","lat":"31.207481896","category":"247","category_name":"餐饮美食","address":"上海长宁区定西路713号"},{"poiid":"B2094757D16FA3FF469F","title":"Sofa Cafe","lon":"121.423584686","lat":"31.204914236","category":"500","category_name":"未知分类","address":"上海41 香花桥路"},{"poiid":"B2094757D068A0FC479F","title":"超級雞車","lon":"121.42395253","lat":"31.209002548","category":"68","category_name":"快餐厅","address":"长宁区定西路825号(近延安西路)"},{"poiid":"B2094757D068A6FF409B","title":"小马烧烤","lon":"121.423520088","lat":"31.2059282223","category":"257","category_name":"中餐厅","address":"上海长宁区定西路(法华镇路口)  "},{"poiid":"B2094655D265A5FF4198","title":"巴贝拉意式休闲餐厅(果留仙定西店)","lon":"121.42385","lat":"31.20739","category":"98","category_name":"意式菜品餐厅","address":"定西路713号1楼713-2"},{"poiid":"B2094757D065ABFC4593","title":"海贝幼儿园","lon":"121.424525","lat":"31.207245","category":"57","category_name":"幼儿园","address":"上海定西路720弄5号"},{"poiid":"B2094757D06FA6FF4898","title":"Rice Bar","lon":"121.42450046","lat":"31.205134464","category":"260","category_name":"其他","address":"长宁区法华镇路532号(近定西路)"},{"poiid":"B2094751D365A6F84499","title":"Noodle Chat 谈面馆","lon":"121.4251342","lat":"31.2060753","category":"247","category_name":"餐饮美食","address":"番禺路390号，近法华镇路"},{"poiid":"B2094654D564A7FB459E","title":"小黑蚝情 定西路店","lon":"121.42397551698","lat":"31.207899958864","category":"269","category_name":"烧烤","address":"长宁区定西路794号(近延安西路)"},{"poiid":"B2094654DB64AAFC4699","title":"潮汕砂锅粥定西店","lon":"121.42398","lat":"31.20874","category":"72","category_name":"广东菜","address":"长宁区定西路784号(近延安西路)"},{"poiid":"B2094757D06FAAFF4198","title":"鲜芋仙(定西店)","lon":"121.423583586","lat":"31.207216981","category":"67","category_name":"甜品店","address":"长宁区定西路713号-5(近法华镇路)"},{"poiid":"B2094757D06FA0FB4498","title":"上海交通大学安泰经济与管理学院","lon":"121.4250955","lat":"31.205555045","category":"260","category_name":"其他","address":"长宁区法华镇路535号上海交通大学内(近定西路)"},{"poiid":"B2094757D06FA0F4429B","title":"尚映仓","lon":"121.423841779","lat":"31.2077904638","category":"94","category_name":"西餐厅","address":"长宁区定西路739号甲(近延安西路)"},{"poiid":"B2094654D564A7FB469D","title":"潮汕砂锅粥馆 长宁总店","lon":"121.42324823256","lat":"31.2091744206","category":"72","category_name":"广东菜","address":"长宁区定西路805号(近延安西路)"},{"poiid":"B2094757D06EAAFC489A","title":"Kaiba(定西路店)","lon":"121.423710143","lat":"31.2080453965","category":"172","category_name":"酒吧","address":"长宁区定西路739号(近延安西路)"},{"poiid":"B2094654DB6AA7F4469F","title":"SUS2 MUSIC BAR","lon":"121.42369","lat":"31.20681","category":"260","category_name":"其他","address":"上海长宁区定西路685号(近法华镇路)"},{"poiid":"B2094757D06FA3FD489B","title":"CS酒吧","lon":"121.42369079","lat":"31.206811904","category":"172","category_name":"酒吧","address":"长宁区定西路685号B1楼(近法华镇路)"},{"poiid":"B2094757D06FA7FD499D","title":"好友汇土菜馆","lon":"121.42397","lat":"31.20606","category":"76","category_name":"上海菜","address":"长宁区定西路657号2-3楼(近法华镇路)"},{"poiid":"B2094757D069A3F8459A","title":"川堂风","lon":"121.424273186","lat":"31.2069221752","category":"71","category_name":"四川菜","address":"长宁区定西路685号(近法华镇路)"},{"poiid":"B2094750D464A0FA459C","title":"十面埋伏面馆定西路店","lon":"121.424087","lat":"31.208271","category":"247","category_name":"餐饮美食","address":"长宁区定西路795号(近延安西路)"},{"poiid":"B2094752D56BABF94992","title":"虾满堂定西店","lon":"121.42367","lat":"31.20927","category":"247","category_name":"餐饮美食","address":"上海市长宁区定西路796号"},{"poiid":"B2094757D06FA1F5419B","title":"九龙城(定西路店)","lon":"121.42415","lat":"31.20881","category":"72","category_name":"广东菜","address":"长宁区定西路782号(近延安西路)"},{"poiid":"B2094757D068A3F54299","title":"清风人家(定西路店)","lon":"121.42436","lat":"31.20813","category":"260","category_name":"其他","address":"长宁区定西路776号(近延安西路)"},{"poiid":"B2094757D06FA5FD4892","title":"汤司令土灶煨汤馆(定西路店)","lon":"121.423787","lat":"31.208395","category":"260","category_name":"其他","address":"长宁区定西路799号(近延安西路)"},{"poiid":"B2094757DB69A6FF479F","title":"扇贝王","lon":"121.423668","lat":"31.2087","category":"247","category_name":"餐饮美食","address":"定西路825号近延安高架"},{"poiid":"B2094654DB69AAF5449B","title":"上海交大安泰管理学院","lon":"121.42535","lat":"31.20503","category":"52","category_name":"高等院校","address":"上海市长宁区法华镇路535号"},{"poiid":"B2094757D06AA5F4459B","title":"潮州砂锅粥","lon":"121.42339658","lat":"31.208600008","category":"247","category_name":"餐饮美食","address":"上海市长宁区定西路792号"},{"poiid":"B2094654D564A7FB459F","title":"翠豪茶餐厅","lon":"121.42387","lat":"31.20912","category":"72","category_name":"广东菜","address":"长宁区定西路792号-1(近延安西路)"},{"poiid":"B2094757D46FA0F8489E","title":"兰庭砂锅粥","lon":"121.423947","lat":"31.209003","category":"72","category_name":"广东菜","address":"长宁区定西路790号(近延安西路)"},{"poiid":"B2094757D068A3FF4292","title":"新澳港式茶餐厅 延安西路店 PIZZA INN","lon":"121.4233424286","lat":"31.209433459149","category":"72","category_name":"广东菜","address":"长宁区延安西路1426号(定西路口)"},{"poiid":"B2094757D068A3FB429A","title":"柏崴桌球俱乐部","lon":"121.42432","lat":"31.20795","category":"171","category_name":"台球厅","address":"长宁区定西路738号裙楼3楼(近延安西路)"},{"poiid":"B2094750D26CA6FD439B","title":"品潮阁潮汕砂锅粥","lon":"121.42476081848","lat":"31.208066616211","category":"72","category_name":"广东菜","address":"长宁区定西路796号(近延安西路)"},{"poiid":"B2094750D464A1F9489B","title":"翔记生蚝馆","lon":"121.423812","lat":"31.208801","category":"68","category_name":"快餐厅","address":"长宁区定西路786号(近延安西路)"},{"poiid":"B2094757D068AAF54098","title":"其鲜生煎(定西路店)","lon":"121.42413162","lat":"31.207243727","category":"68","category_name":"快餐厅","address":"长宁区定西路738号(近法华镇路)"},{"poiid":"B2094757D069A1FD4193","title":"邓记传菜","lon":"121.42433","lat":"31.20789","category":"71","category_name":"四川菜","address":"长宁区定西路737号(近延安西路)"},{"poiid":"B2094757D169A5F54492","title":"老盛兴苏州汤包馆(定西路店)","lon":"121.42411658","lat":"31.207330983","category":"257","category_name":"中餐厅","address":"长宁区定西路713号(近法华镇路)"},{"poiid":"B2094757D06FA0FE4998","title":"85度C(法华店)","lon":"121.423762123","lat":"31.2064997643","category":"112","category_name":"糕饼店","address":"长宁区定西路657号1幢1楼A座(近法华镇路)"},{"poiid":"B2094757DA6FA2FD4599","title":"向天歌烧鹅老铺(定西路店)","lon":"121.423988342286","lat":"31.2082134365825","category":"72","category_name":"广东菜","address":"长宁区定西路825号(近延安西路)"},{"poiid":"B2094757D068A2F94599","title":"野味打边炉","lon":"121.42418","lat":"31.20883","category":"86","category_name":"火锅店","address":"长宁区定西路791号(近延安西路)"},{"poiid":"B2094757D064A0FB4093","title":"王记正宗潮汕砂锅粥","lon":"121.423796086","lat":"31.2087615112","category":"500","category_name":"未知分类","address":"上海长宁区定西路792号(近延安西路)"},{"poiid":"B2094757D168AAF54592","title":"定西路法华镇路","lon":"121.424320586","lat":"31.207522987","category":"500","category_name":"未知分类","address":"上海市长宁区延安西路"},{"poiid":"B2094655D264A4F84598","title":"红村热气羊肉火锅","lon":"121.42383","lat":"31.20808","category":"86","category_name":"火锅店","address":"长宁区定西路789号(近延安西路)"},{"poiid":"B2094654D564A7F4409C","title":"新华商务大楼","lon":"121.42369","lat":"31.20681","category":"46","category_name":"楼宇","address":"浦东区崂山东路410号"},{"poiid":"B2094757D069A5FA439F","title":"法华镇路","lon":"121.425354","lat":"31.205027","category":"627","category_name":"一般地点标志","address":"上海法华镇路"},{"poiid":"B2094752D56AA5FB4793","title":"X先生密室（长宁店）","lon":"121.423539","lat":"31.209118","category":"248","category_name":"生活娱乐","address":"定西路825号-1"},{"poiid":"B2094757D16FA0FA489A","title":"韩伊拌饭馆(定西路店)","lon":"121.423705586","lat":"31.2090450167","category":"96","category_name":"韩国料理","address":"长宁区定西路825号(近延安西路)"},{"poiid":"B2094757D664A4F44593","title":"尚渔轩斑鱼火锅 长宁店","lon":"121.42368751239","lat":"31.209130212446","category":"86","category_name":"火锅店","address":"长宁区定西路825号5铺(近延安西路高架桥)"},{"poiid":"B2094757D069ABFE4693","title":"南京汤包","lon":"121.424183054","lat":"31.205100793","category":"68","category_name":"快餐厅","address":"长宁区法华镇路504号(近香花桥路)"},{"poiid":"B2094752DB6FA7FA459C","title":"虾满堂手抓龙虾(定西路点)","lon":"121.423723","lat":"31.209168","category":"247","category_name":"餐饮美食","address":"上海市 定西路796号(近延安西路)"},{"poiid":"B2094654D564A7F4439B","title":"新华路派出所","lon":"121.42625","lat":"31.2053","category":"609","category_name":"警察局","address":"法华镇路475"},{"poiid":"B2094757D068A5FF499E","title":"老盛兴汤包馆(定西路店)","lon":"121.4242066","lat":"31.207481896","category":"247","category_name":"餐饮美食","address":"上海长宁区定西路713号"},{"poiid":"B2094757D16FA3FF469F","title":"Sofa Cafe","lon":"121.423584686","lat":"31.204914236","category":"500","category_name":"未知分类","address":"上海41 香花桥路"},{"poiid":"B2094757D068A0FC479F","title":"超級雞車","lon":"121.42395253","lat":"31.209002548","category":"68","category_name":"快餐厅","address":"长宁区定西路825号(近延安西路)"},{"poiid":"B2094757D068A6FF409B","title":"小马烧烤","lon":"121.423520088","lat":"31.2059282223","category":"257","category_name":"中餐厅","address":"上海长宁区定西路(法华镇路口)  "},{"poiid":"B2094655D265A5FF4198","title":"巴贝拉意式休闲餐厅(果留仙定西店)","lon":"121.42385","lat":"31.20739","category":"98","category_name":"意式菜品餐厅","address":"定西路713号1楼713-2"},{"poiid":"B2094757D065ABFC4593","title":"海贝幼儿园","lon":"121.424525","lat":"31.207245","category":"57","category_name":"幼儿园","address":"上海定西路720弄5号"},{"poiid":"B2094757D06FA6FF4898","title":"Rice Bar","lon":"121.42450046","lat":"31.205134464","category":"260","category_name":"其他","address":"长宁区法华镇路532号(近定西路)"},{"poiid":"B2094751D365A6F84499","title":"Noodle Chat 谈面馆","lon":"121.4251342","lat":"31.2060753","category":"247","category_name":"餐饮美食","address":"番禺路390号，近法华镇路"}]