[{"poiid":"B2094757D06FA3F9409C","title":"iC.运动综合馆(中山北路店)","lon":"121.46325","lat":"31.26222","category":"220","category_name":"运动场所","address":"闸北区中山北路585号4楼(近共和新路)"},{"poiid":"B2094655D36DA1FB419F","title":"西藏北路中山北路","lon":"121.46573","lat":"31.26343","category":"38","category_name":"公交车站","address":""},{"poiid":"B2094757D06FA3FE439A","title":"大润发(平型关店)","lon":"121.46653","lat":"31.26588","category":"118","category_name":"超级市场","address":"闸北区平型关路108号B1楼(近俞泾港路)"},{"poiid":"B2094757D06FA1FC4598","title":"3CUE星球堡撞球俱乐部","lon":"121.467482","lat":"31.265703","category":"171","category_name":"台球厅","address":"闸北区平型关路56号56生活休闲广场2栋4楼(陈家宅路口)"},{"poiid":"B2094757D06FA0FC419A","title":"上海市第二中级人民法院","lon":"121.46311027","lat":"31.2627168255","category":"608","category_name":"法院","address":"上海中山北路567号"},{"poiid":"B2094654DB6AAAFE489B","title":"汉庭快捷(西藏北路店)","lon":"121.46552","lat":"31.26422","category":"216","category_name":"经济型连锁酒店","address":"上海闸北区西藏北路1318号(近中山北路)"},{"poiid":"B2094750D564A5FA4699","title":"金赢108创意广场","lon":"121.466904","lat":"31.2674","category":"47","category_name":"住宅区","address":"闸北区平型关路108号(近俞泾港路)"},{"poiid":"B2094757D06FA3F9459A","title":"贝拉婚纱","lon":"121.46698","lat":"31.2665","category":"260","category_name":"其他","address":"闸北区平型关路108弄27号宝山区北欧新镇罗芬路689弄41-44号嘉定区城中路136弄罗宾森步行街53-55号"},{"poiid":"B2094750D664AAFE449C","title":"重庆老火锅(平型关路店)","lon":"121.467","lat":"31.2667","category":"86","category_name":"火锅店","address":"闸北区平型关路108号108广场36号(近中山北路)"},{"poiid":"B2094757D66BA6F4459A","title":"康师傅私房牛肉面 平型关店","lon":"121.46596","lat":"31.26621","category":"68","category_name":"快餐厅","address":"闸北区俞泾港路11号大润发B1楼(近平型关路)"},{"poiid":"B2094750D56EA3F8409A","title":"炫音KTV上海平型关路店","lon":"121.467338","lat":"31.266962","category":"248","category_name":"生活娱乐","address":"平型关路108弄"},{"poiid":"B2094757D068ABFA4192","title":"粤来粤好","lon":"121.46775","lat":"31.26543","category":"72","category_name":"广东菜","address":"闸北区平型关路56号56生活广场1楼(近陈家宅路)"},{"poiid":"B2094757D069A2FA409B","title":"尊爵台球","lon":"121.464096103","lat":"31.2640032881","category":"171","category_name":"台球厅","address":"闸北区共和新路1165号帝芙特茶叶城2号楼4楼(中山北路口)"},{"poiid":"B2094757D765A0F4499F","title":"潮悦燕鲍翅海鲜酒楼","lon":"121.4672464","lat":"31.2667431","category":"72","category_name":"广东菜","address":"闸北区平型关路108号108创意广场(近黄山路)"},{"poiid":"B2094655D26CA0FF4792","title":"协和大厦","lon":"121.464","lat":"31.2657","category":"46","category_name":"楼宇","address":"上海市闸北区中山北路814弄"},{"poiid":"B2094757D06AA0F54392","title":"美吉姆国际儿童教育中心","lon":"121.467477103","lat":"31.265863327","category":"500","category_name":"未知分类","address":"闸北区平型关路108弄108创意广场39号2楼(近俞泾港路)"},{"poiid":"B2094655D26DA6FF489C","title":"上海百富大酒店","lon":"121.4633","lat":"31.26691","category":"76","category_name":"上海菜","address":"闸北区西藏北路1599号"},{"poiid":"B2094757D064A6F94998","title":"闸北区教育局","lon":"121.4633021","lat":"31.265463318","category":"500","category_name":"未知分类","address":"上海市闸北区和田路195号"},{"poiid":"B2094757D068AAF84898","title":"董大师金牌稻香蛙(平型关路店)","lon":"121.4675141","lat":"31.266386337","category":"71","category_name":"四川菜","address":"闸北区平型关路56号56生活广场2楼(近中山北路)"},{"poiid":"B2094757D56CABFA459F","title":"味多美 平型关路店 Wedome","lon":"121.467804","lat":"31.264937","category":"67","category_name":"甜品店","address":"闸北区平型关路32号"},{"poiid":"B2094757D06BA6F44092","title":"闸北牙病防治所","lon":"121.46807","lat":"31.26339","category":"500","category_name":"未知分类","address":"闸北区中山北路283号(近平型关路)"},{"poiid":"B2094654DB64A6FB4692","title":"如家快捷酒店(上海西藏北路店)","lon":"121.46186","lat":"31.26615","category":"216","category_name":"经济型连锁酒店","address":"闸北区柳营路518号(近和田路)"},{"poiid":"B2094655D264A2F9419A","title":"协和G品","lon":"121.465","lat":"31.2654","category":"47","category_name":"住宅区","address":"上海市闸北区中山北路814弄"},{"poiid":"B2094655D26FA1FB4492","title":"和诚公寓(院门)","lon":"121.46521","lat":"31.26544","category":"47","category_name":"住宅区","address":"俞泾港路54"},{"poiid":"B2094757D06BA2F94693","title":"中山北路805弄小区","lon":"121.465","lat":"31.2665","category":"47","category_name":"住宅区","address":"上海中山北路805弄"},{"poiid":"B2094757D56CABFA4399","title":"冰度烤肉","lon":"121.466574","lat":"31.261848","category":"96","category_name":"韩国料理","address":"闸北区西藏北路1228号2楼(近中山北路)"},{"poiid":"B2094654DB6AA4FB4698","title":"云华科技大厦","lon":"121.469","lat":"31.2649","category":"46","category_name":"楼宇","address":"北京西路1028号"},{"poiid":"B2094750D56DA5FC449F","title":"108创意广场银座","lon":"121.466857","lat":"31.267145","category":"252","category_name":"楼宇机构","address":"闸北区平型关路138号"},{"poiid":"B2094757D469A2FB459F","title":"85度C 平型关路店","lon":"121.46626","lat":"31.26615","category":"112","category_name":"糕饼店","address":"闸北区俞泾港路1号大润发超市2号柜(平型关路，近西藏北路)"},{"poiid":"B2094655D36DA0F5419E","title":"俞泾港路西藏北路","lon":"121.46523","lat":"31.26575","category":"38","category_name":"公交车站","address":""},{"poiid":"B2094757D16DA5FB499E","title":"永琪美容美发(俞泾店)","lon":"121.465815769","lat":"31.26520898","category":"148","category_name":"美容美发店","address":"闸北区俞泾港路(近西藏北路)"},{"poiid":"B2094757D065A6FA449B","title":"大宁灵石绿地","lon":"121.4636131","lat":"31.266153333","category":"500","category_name":"未知分类","address":"上海市闸北区和田路"},{"poiid":"B2094654D56CA3F54998","title":"可的(俞泾港路)","lon":"121.46489","lat":"31.26578","category":"117","category_name":"便民商店/便利店","address":"俞泾港路17甲"},{"poiid":"B2094757D469ABFA409F","title":"秦风赣水 大宁店","lon":"121.46726","lat":"31.26668","category":"247","category_name":"餐饮美食","address":"闸北区平型关路108弄108创意广场10号(近俞泾港路)"},{"poiid":"B2094655D26BA4FB4499","title":"65休闲生活广场","lon":"121.46748","lat":"31.26553","category":"46","category_name":"楼宇","address":""},{"poiid":"B2094757D06AA6FD459E","title":"潮悦燕鲍翅","lon":"121.46742832","lat":"31.266691231","category":"247","category_name":"餐饮美食","address":"上海平型关路108弄18号"},{"poiid":"B2094655D26FA7FA499D","title":"乐业公寓(院门)","lon":"121.46511","lat":"31.26593","category":"47","category_name":"住宅区","address":"俞泾港路15弄"},{"poiid":"B2094757D168A6FC439F","title":"和诚公寓","lon":"121.46555","lat":"31.265238","category":"500","category_name":"未知分类","address":"上海市闸北区俞泾港路54号"},{"poiid":"B2094757D66FA3FB4199","title":"正宗重庆麻辣烫","lon":"121.465856","lat":"31.265835","category":"247","category_name":"餐饮美食","address":"上海俞泾港路32号"},{"poiid":"B2094654D56CA3F54598","title":"和兰苑","lon":"121.46746","lat":"31.263905","category":"47","category_name":"住宅区","address":"海淀区羊坊店路18号"},{"poiid":"B2094654D56CA3F4469E","title":"盛和玲珑苑","lon":"121.46401","lat":"31.26461","category":"47","category_name":"住宅区","address":"上海市闸北区和田路118弄"},{"poiid":"B2094757D469A5FE4698","title":"甜福骨头王砂锅","lon":"121.467689","lat":"31.265727","category":"86","category_name":"火锅店","address":"闸北区平型关路56号56生活休闲广场(近黄山路)"},{"poiid":"B2094654D56CA3F5429B","title":"上环公寓","lon":"121.46446","lat":"31.264666","category":"47","category_name":"住宅区","address":"上环公寓位于闸北西藏北路1377弄"},{"poiid":"B2094654D56CA2FC4299","title":"申地苑","lon":"121.46674","lat":"31.265684","category":"47","category_name":"住宅区","address":"上海平型关路68弄"},{"poiid":"B2094655D36DA1FB419B","title":"西藏北路民和路","lon":"121.46421","lat":"31.26619","category":"38","category_name":"公交车站","address":""},{"poiid":"B2094654D56CA3F4439F","title":"和福花苑","lon":"121.46318","lat":"31.265793","category":"47","category_name":"住宅区","address":"和福花苑位于闸北和田路288号"},{"poiid":"B2094757D068A0FD409B","title":"乐业公寓","lon":"121.46507","lat":"31.266535","category":"500","category_name":"未知分类","address":"上海市闸北区俞泾港路15弄"},{"poiid":"B2094757D06AA2F84593","title":"永顺兴苏州汤包馆(平型关路店)","lon":"121.467901","lat":"31.266374","category":"68","category_name":"快餐厅","address":"闸北区平型关路56号56生活休闲广场(近黄山路)"},{"poiid":"B2094757D069A6FC4892","title":"上海地铁第四运营有限公司","lon":"121.468793983","lat":"31.2639601872","category":"46","category_name":"楼宇","address":"上海西藏北路"},{"poiid":"B2094655D26FAAF5419B","title":"和源名邸","lon":"121.4633","lat":"31.265421","category":"47","category_name":"住宅区","address":"上海市闸北区西藏北路1523号"},{"poiid":"B2094757D06FA3F9409C","title":"iC.运动综合馆(中山北路店)","lon":"121.46325","lat":"31.26222","category":"220","category_name":"运动场所","address":"闸北区中山北路585号4楼(近共和新路)"},{"poiid":"B2094655D36DA1FB419F","title":"西藏北路中山北路","lon":"121.46573","lat":"31.26343","category":"38","category_name":"公交车站","address":""},{"poiid":"B2094757D06FA3FE439A","title":"大润发(平型关店)","lon":"121.46653","lat":"31.26588","category":"118","category_name":"超级市场","address":"闸北区平型关路108号B1楼(近俞泾港路)"},{"poiid":"B2094757D06FA1FC4598","title":"3CUE星球堡撞球俱乐部","lon":"121.467482","lat":"31.265703","category":"171","category_name":"台球厅","address":"闸北区平型关路56号56生活休闲广场2栋4楼(陈家宅路口)"},{"poiid":"B2094757D06FA0FC419A","title":"上海市第二中级人民法院","lon":"121.46311027","lat":"31.2627168255","category":"608","category_name":"法院","address":"上海中山北路567号"},{"poiid":"B2094654DB6AAAFE489B","title":"汉庭快捷(西藏北路店)","lon":"121.46552","lat":"31.26422","category":"216","category_name":"经济型连锁酒店","address":"上海闸北区西藏北路1318号(近中山北路)"},{"poiid":"B2094750D564A5FA4699","title":"金赢108创意广场","lon":"121.466904","lat":"31.2674","category":"47","category_name":"住宅区","address":"闸北区平型关路108号(近俞泾港路)"},{"poiid":"B2094757D06FA3F9459A","title":"贝拉婚纱","lon":"121.46698","lat":"31.2665","category":"260","category_name":"其他","address":"闸北区平型关路108弄27号宝山区北欧新镇罗芬路689弄41-44号嘉定区城中路136弄罗宾森步行街53-55号"},{"poiid":"B2094750D664AAFE449C","title":"重庆老火锅(平型关路店)","lon":"121.467","lat":"31.2667","category":"86","category_name":"火锅店","address":"闸北区平型关路108号108广场36号(近中山北路)"},{"poiid":"B2094757D66BA6F4459A","title":"康师傅私房牛肉面 平型关店","lon":"121.46596","lat":"31.26621","category":"68","category_name":"快餐厅","address":"闸北区俞泾港路11号大润发B1楼(近平型关路)"},{"poiid":"B2094750D56EA3F8409A","title":"炫音KTV上海平型关路店","lon":"121.467338","lat":"31.266962","category":"248","category_name":"生活娱乐","address":"平型关路108弄"},{"poiid":"B2094757D068ABFA4192","title":"粤来粤好","lon":"121.46775","lat":"31.26543","category":"72","category_name":"广东菜","address":"闸北区平型关路56号56生活广场1楼(近陈家宅路)"},{"poiid":"B2094757D069A2FA409B","title":"尊爵台球","lon":"121.464096103","lat":"31.2640032881","category":"171","category_name":"台球厅","address":"闸北区共和新路1165号帝芙特茶叶城2号楼4楼(中山北路口)"},{"poiid":"B2094757D765A0F4499F","title":"潮悦燕鲍翅海鲜酒楼","lon":"121.4672464","lat":"31.2667431","category":"72","category_name":"广东菜","address":"闸北区平型关路108号108创意广场(近黄山路)"},{"poiid":"B2094655D26CA0FF4792","title":"协和大厦","lon":"121.464","lat":"31.2657","category":"46","category_name":"楼宇","address":"上海市闸北区中山北路814弄"},{"poiid":"B2094757D06AA0F54392","title":"美吉姆国际儿童教育中心","lon":"121.467477103","lat":"31.265863327","category":"500","category_name":"未知分类","address":"闸北区平型关路108弄108创意广场39号2楼(近俞泾港路)"},{"poiid":"B2094655D26DA6FF489C","title":"上海百富大酒店","lon":"121.4633","lat":"31.26691","category":"76","category_name":"上海菜","address":"闸北区西藏北路1599号"},{"poiid":"B2094757D064A6F94998","title":"闸北区教育局","lon":"121.4633021","lat":"31.265463318","category":"500","category_name":"未知分类","address":"上海市闸北区和田路195号"},{"poiid":"B2094757D068AAF84898","title":"董大师金牌稻香蛙(平型关路店)","lon":"121.4675141","lat":"31.266386337","category":"71","category_name":"四川菜","address":"闸北区平型关路56号56生活广场2楼(近中山北路)"},{"poiid":"B2094757D56CABFA459F","title":"味多美 平型关路店 Wedome","lon":"121.467804","lat":"31.264937","category":"67","category_name":"甜品店","address":"闸北区平型关路32号"},{"poiid":"B2094757D06BA6F44092","title":"闸北牙病防治所","lon":"121.46807","lat":"31.26339","category":"500","category_name":"未知分类","address":"闸北区中山北路283号(近平型关路)"},{"poiid":"B2094654DB64A6FB4692","title":"如家快捷酒店(上海西藏北路店)","lon":"121.46186","lat":"31.26615","category":"216","category_name":"经济型连锁酒店","address":"闸北区柳营路518号(近和田路)"},{"poiid":"B2094655D264A2F9419A","title":"协和G品","lon":"121.465","lat":"31.2654","category":"47","category_name":"住宅区","address":"上海市闸北区中山北路814弄"},{"poiid":"B2094655D26FA1FB4492","title":"和诚公寓(院门)","lon":"121.46521","lat":"31.26544","category":"47","category_name":"住宅区","address":"俞泾港路54"},{"poiid":"B2094757D06BA2F94693","title":"中山北路805弄小区","lon":"121.465","lat":"31.2665","category":"47","category_name":"住宅区","address":"上海中山北路805弄"},{"poiid":"B2094757D56CABFA4399","title":"冰度烤肉","lon":"121.466574","lat":"31.261848","category":"96","category_name":"韩国料理","address":"闸北区西藏北路1228号2楼(近中山北路)"},{"poiid":"B2094654DB6AA4FB4698","title":"云华科技大厦","lon":"121.469","lat":"31.2649","category":"46","category_name":"楼宇","address":"北京西路1028号"},{"poiid":"B2094750D56DA5FC449F","title":"108创意广场银座","lon":"121.466857","lat":"31.267145","category":"252","category_name":"楼宇机构","address":"闸北区平型关路138号"},{"poiid":"B2094757D469A2FB459F","title":"85度C 平型关路店","lon":"121.46626","lat":"31.26615","category":"112","category_name":"糕饼店","address":"闸北区俞泾港路1号大润发超市2号柜(平型关路，近西藏北路)"},{"poiid":"B2094655D36DA0F5419E","title":"俞泾港路西藏北路","lon":"121.46523","lat":"31.26575","category":"38","category_name":"公交车站","address":""},{"poiid":"B2094757D16DA5FB499E","title":"永琪美容美发(俞泾店)","lon":"121.465815769","lat":"31.26520898","category":"148","category_name":"美容美发店","address":"闸北区俞泾港路(近西藏北路)"},{"poiid":"B2094757D065A6FA449B","title":"大宁灵石绿地","lon":"121.4636131","lat":"31.266153333","category":"500","category_name":"未知分类","address":"上海市闸北区和田路"},{"poiid":"B2094654D56CA3F54998","title":"可的(俞泾港路)","lon":"121.46489","lat":"31.26578","category":"117","category_name":"便民商店/便利店","address":"俞泾港路17甲"},{"poiid":"B2094757D469ABFA409F","title":"秦风赣水 大宁店","lon":"121.46726","lat":"31.26668","category":"247","category_name":"餐饮美食","address":"闸北区平型关路108弄108创意广场10号(近俞泾港路)"},{"poiid":"B2094655D26BA4FB4499","title":"65休闲生活广场","lon":"121.46748","lat":"31.26553","category":"46","category_name":"楼宇","address":""},{"poiid":"B2094757D06AA6FD459E","title":"潮悦燕鲍翅","lon":"121.46742832","lat":"31.266691231","category":"247","category_name":"餐饮美食","address":"上海平型关路108弄18号"},{"poiid":"B2094655D26FA7FA499D","title":"乐业公寓(院门)","lon":"121.46511","lat":"31.26593","category":"47","category_name":"住宅区","address":"俞泾港路15弄"},{"poiid":"B2094757D168A6FC439F","title":"和诚公寓","lon":"121.46555","lat":"31.265238","category":"500","category_name":"未知分类","address":"上海市闸北区俞泾港路54号"},{"poiid":"B2094757D66FA3FB4199","title":"正宗重庆麻辣烫","lon":"121.465856","lat":"31.265835","category":"247","category_name":"餐饮美食","address":"上海俞泾港路32号"},{"poiid":"B2094654D56CA3F54598","title":"和兰苑","lon":"121.46746","lat":"31.263905","category":"47","category_name":"住宅区","address":"海淀区羊坊店路18号"},{"poiid":"B2094654D56CA3F4469E","title":"盛和玲珑苑","lon":"121.46401","lat":"31.26461","category":"47","category_name":"住宅区","address":"上海市闸北区和田路118弄"},{"poiid":"B2094757D469A5FE4698","title":"甜福骨头王砂锅","lon":"121.467689","lat":"31.265727","category":"86","category_name":"火锅店","address":"闸北区平型关路56号56生活休闲广场(近黄山路)"},{"poiid":"B2094654D56CA3F5429B","title":"上环公寓","lon":"121.46446","lat":"31.264666","category":"47","category_name":"住宅区","address":"上环公寓位于闸北西藏北路1377弄"},{"poiid":"B2094654D56CA2FC4299","title":"申地苑","lon":"121.46674","lat":"31.265684","category":"47","category_name":"住宅区","address":"上海平型关路68弄"},{"poiid":"B2094655D36DA1FB419B","title":"西藏北路民和路","lon":"121.46421","lat":"31.26619","category":"38","category_name":"公交车站","address":""},{"poiid":"B2094654D56CA3F4439F","title":"和福花苑","lon":"121.46318","lat":"31.265793","category":"47","category_name":"住宅区","address":"和福花苑位于闸北和田路288号"},{"poiid":"B2094757D068A0FD409B","title":"乐业公寓","lon":"121.46507","lat":"31.266535","category":"500","category_name":"未知分类","address":"上海市闸北区俞泾港路15弄"},{"poiid":"B2094757D06AA2F84593","title":"永顺兴苏州汤包馆(平型关路店)","lon":"121.467901","lat":"31.266374","category":"68","category_name":"快餐厅","address":"闸北区平型关路56号56生活休闲广场(近黄山路)"},{"poiid":"B2094757D069A6FC4892","title":"上海地铁第四运营有限公司","lon":"121.468793983","lat":"31.2639601872","category":"46","category_name":"楼宇","address":"上海西藏北路"},{"poiid":"B2094655D26FAAF5419B","title":"和源名邸","lon":"121.4633","lat":"31.265421","category":"47","category_name":"住宅区","address":"上海市闸北区西藏北路1523号"},{"poiid":"B2094757D06FA3F9409C","title":"iC.运动综合馆(中山北路店)","lon":"121.46325","lat":"31.26222","category":"220","category_name":"运动场所","address":"闸北区中山北路585号4楼(近共和新路)"},{"poiid":"B2094655D36DA1FB419F","title":"西藏北路中山北路","lon":"121.46573","lat":"31.26343","category":"38","category_name":"公交车站","address":""},{"poiid":"B2094757D06FA3FE439A","title":"大润发(平型关店)","lon":"121.46653","lat":"31.26588","category":"118","category_name":"超级市场","address":"闸北区平型关路108号B1楼(近俞泾港路)"},{"poiid":"B2094757D06FA1FC4598","title":"3CUE星球堡撞球俱乐部","lon":"121.467482","lat":"31.265703","category":"171","category_name":"台球厅","address":"闸北区平型关路56号56生活休闲广场2栋4楼(陈家宅路口)"},{"poiid":"B2094757D06FA0FC419A","title":"上海市第二中级人民法院","lon":"121.46311027","lat":"31.2627168255","category":"608","category_name":"法院","address":"上海中山北路567号"},{"poiid":"B2094654DB6AAAFE489B","title":"汉庭快捷(西藏北路店)","lon":"121.46552","lat":"31.26422","category":"216","category_name":"经济型连锁酒店","address":"上海闸北区西藏北路1318号(近中山北路)"},{"poiid":"B2094750D564A5FA4699","title":"金赢108创意广场","lon":"121.466904","lat":"31.2674","category":"47","category_name":"住宅区","address":"闸北区平型关路108号(近俞泾港路)"},{"poiid":"B2094757D06FA3F9459A","title":"贝拉婚纱","lon":"121.46698","lat":"31.2665","category":"260","category_name":"其他","address":"闸北区平型关路108弄27号宝山区北欧新镇罗芬路689弄41-44号嘉定区城中路136弄罗宾森步行街53-55号"},{"poiid":"B2094750D664AAFE449C","title":"重庆老火锅(平型关路店)","lon":"121.467","lat":"31.2667","category":"86","category_name":"火锅店","address":"闸北区平型关路108号108广场36号(近中山北路)"},{"poiid":"B2094757D66BA6F4459A","title":"康师傅私房牛肉面 平型关店","lon":"121.46596","lat":"31.26621","category":"68","category_name":"快餐厅","address":"闸北区俞泾港路11号大润发B1楼(近平型关路)"},{"poiid":"B2094750D56EA3F8409A","title":"炫音KTV上海平型关路店","lon":"121.467338","lat":"31.266962","category":"248","category_name":"生活娱乐","address":"平型关路108弄"},{"poiid":"B2094757D068ABFA4192","title":"粤来粤好","lon":"121.46775","lat":"31.26543","category":"72","category_name":"广东菜","address":"闸北区平型关路56号56生活广场1楼(近陈家宅路)"},{"poiid":"B2094757D069A2FA409B","title":"尊爵台球","lon":"121.464096103","lat":"31.2640032881","category":"171","category_name":"台球厅","address":"闸北区共和新路1165号帝芙特茶叶城2号楼4楼(中山北路口)"},{"poiid":"B2094757D765A0F4499F","title":"潮悦燕鲍翅海鲜酒楼","lon":"121.4672464","lat":"31.2667431","category":"72","category_name":"广东菜","address":"闸北区平型关路108号108创意广场(近黄山路)"},{"poiid":"B2094655D26CA0FF4792","title":"协和大厦","lon":"121.464","lat":"31.2657","category":"46","category_name":"楼宇","address":"上海市闸北区中山北路814弄"},{"poiid":"B2094757D06AA0F54392","title":"美吉姆国际儿童教育中心","lon":"121.467477103","lat":"31.265863327","category":"500","category_name":"未知分类","address":"闸北区平型关路108弄108创意广场39号2楼(近俞泾港路)"},{"poiid":"B2094655D26DA6FF489C","title":"上海百富大酒店","lon":"121.4633","lat":"31.26691","category":"76","category_name":"上海菜","address":"闸北区西藏北路1599号"},{"poiid":"B2094757D064A6F94998","title":"闸北区教育局","lon":"121.4633021","lat":"31.265463318","category":"500","category_name":"未知分类","address":"上海市闸北区和田路195号"},{"poiid":"B2094757D068AAF84898","title":"董大师金牌稻香蛙(平型关路店)","lon":"121.4675141","lat":"31.266386337","category":"71","category_name":"四川菜","address":"闸北区平型关路56号56生活广场2楼(近中山北路)"},{"poiid":"B2094757D56CABFA459F","title":"味多美 平型关路店 Wedome","lon":"121.467804","lat":"31.264937","category":"67","category_name":"甜品店","address":"闸北区平型关路32号"},{"poiid":"B2094757D06BA6F44092","title":"闸北牙病防治所","lon":"121.46807","lat":"31.26339","category":"500","category_name":"未知分类","address":"闸北区中山北路283号(近平型关路)"},{"poiid":"B2094654DB64A6FB4692","title":"如家快捷酒店(上海西藏北路店)","lon":"121.46186","lat":"31.26615","category":"216","category_name":"经济型连锁酒店","address":"闸北区柳营路518号(近和田路)"},{"poiid":"B2094655D264A2F9419A","title":"协和G品","lon":"121.465","lat":"31.2654","category":"47","category_name":"住宅区","address":"上海市闸北区中山北路814弄"},{"poiid":"B2094655D26FA1FB4492","title":"和诚公寓(院门)","lon":"121.46521","lat":"31.26544","category":"47","category_name":"住宅区","address":"俞泾港路54"},{"poiid":"B2094757D06BA2F94693","title":"中山北路805弄小区","lon":"121.465","lat":"31.2665","category":"47","category_name":"住宅区","address":"上海中山北路805弄"},{"poiid":"B2094757D56CABFA4399","title":"冰度烤肉","lon":"121.466574","lat":"31.261848","category":"96","category_name":"韩国料理","address":"闸北区西藏北路1228号2楼(近中山北路)"},{"poiid":"B2094654DB6AA4FB4698","title":"云华科技大厦","lon":"121.469","lat":"31.2649","category":"46","category_name":"楼宇","address":"北京西路1028号"},{"poiid":"B2094750D56DA5FC449F","title":"108创意广场银座","lon":"121.466857","lat":"31.267145","category":"252","category_name":"楼宇机构","address":"闸北区平型关路138号"},{"poiid":"B2094757D469A2FB459F","title":"85度C 平型关路店","lon":"121.46626","lat":"31.26615","category":"112","category_name":"糕饼店","address":"闸北区俞泾港路1号大润发超市2号柜(平型关路，近西藏北路)"},{"poiid":"B2094655D36DA0F5419E","title":"俞泾港路西藏北路","lon":"121.46523","lat":"31.26575","category":"38","category_name":"公交车站","address":""},{"poiid":"B2094757D16DA5FB499E","title":"永琪美容美发(俞泾店)","lon":"121.465815769","lat":"31.26520898","category":"148","category_name":"美容美发店","address":"闸北区俞泾港路(近西藏北路)"},{"poiid":"B2094757D065A6FA449B","title":"大宁灵石绿地","lon":"121.4636131","lat":"31.266153333","category":"500","category_name":"未知分类","address":"上海市闸北区和田路"},{"poiid":"B2094654D56CA3F54998","title":"可的(俞泾港路)","lon":"121.46489","lat":"31.26578","category":"117","category_name":"便民商店/便利店","address":"俞泾港路17甲"},{"poiid":"B2094757D469ABFA409F","title":"秦风赣水 大宁店","lon":"121.46726","lat":"31.26668","category":"247","category_name":"餐饮美食","address":"闸北区平型关路108弄108创意广场10号(近俞泾港路)"},{"poiid":"B2094655D26BA4FB4499","title":"65休闲生活广场","lon":"121.46748","lat":"31.26553","category":"46","category_name":"楼宇","address":""},{"poiid":"B2094757D06AA6FD459E","title":"潮悦燕鲍翅","lon":"121.46742832","lat":"31.266691231","category":"247","category_name":"餐饮美食","address":"上海平型关路108弄18号"},{"poiid":"B2094655D26FA7FA499D","title":"乐业公寓(院门)","lon":"121.46511","lat":"31.26593","category":"47","category_name":"住宅区","address":"俞泾港路15弄"},{"poiid":"B2094757D168A6FC439F","title":"和诚公寓","lon":"121.46555","lat":"31.265238","category":"500","category_name":"未知分类","address":"上海市闸北区俞泾港路54号"},{"poiid":"B2094757D66FA3FB4199","title":"正宗重庆麻辣烫","lon":"121.465856","lat":"31.265835","category":"247","category_name":"餐饮美食","address":"上海俞泾港路32号"},{"poiid":"B2094654D56CA3F54598","title":"和兰苑","lon":"121.46746","lat":"31.263905","category":"47","category_name":"住宅区","address":"海淀区羊坊店路18号"},{"poiid":"B2094654D56CA3F4469E","title":"盛和玲珑苑","lon":"121.46401","lat":"31.26461","category":"47","category_name":"住宅区","address":"上海市闸北区和田路118弄"},{"poiid":"B2094757D469A5FE4698","title":"甜福骨头王砂锅","lon":"121.467689","lat":"31.265727","category":"86","category_name":"火锅店","address":"闸北区平型关路56号56生活休闲广场(近黄山路)"},{"poiid":"B2094654D56CA3F5429B","title":"上环公寓","lon":"121.46446","lat":"31.264666","category":"47","category_name":"住宅区","address":"上环公寓位于闸北西藏北路1377弄"},{"poiid":"B2094654D56CA2FC4299","title":"申地苑","lon":"121.46674","lat":"31.265684","category":"47","category_name":"住宅区","address":"上海平型关路68弄"},{"poiid":"B2094655D36DA1FB419B","title":"西藏北路民和路","lon":"121.46421","lat":"31.26619","category":"38","category_name":"公交车站","address":""},{"poiid":"B2094654D56CA3F4439F","title":"和福花苑","lon":"121.46318","lat":"31.265793","category":"47","category_name":"住宅区","address":"和福花苑位于闸北和田路288号"},{"poiid":"B2094757D068A0FD409B","title":"乐业公寓","lon":"121.46507","lat":"31.266535","category":"500","category_name":"未知分类","address":"上海市闸北区俞泾港路15弄"},{"poiid":"B2094757D06AA2F84593","title":"永顺兴苏州汤包馆(平型关路店)","lon":"121.467901","lat":"31.266374","category":"68","category_name":"快餐厅","address":"闸北区平型关路56号56生活休闲广场(近黄山路)"},{"poiid":"B2094757D069A6FC4892","title":"上海地铁第四运营有限公司","lon":"121.468793983","lat":"31.2639601872","category":"46","category_name":"楼宇","address":"上海西藏北路"},{"poiid":"B2094655D26FAAF5419B","title":"和源名邸","lon":"121.4633","lat":"31.265421","category":"47","category_name":"住宅区","address":"上海市闸北区西藏北路1523号"},{"poiid":"B2094757D06FA3F9409C","title":"iC.运动综合馆(中山北路店)","lon":"121.46325","lat":"31.26222","category":"220","category_name":"运动场所","address":"闸北区中山北路585号4楼(近共和新路)"},{"poiid":"B2094655D36DA1FB419F","title":"西藏北路中山北路","lon":"121.46573","lat":"31.26343","category":"38","category_name":"公交车站","address":""},{"poiid":"B2094757D06FA3FE439A","title":"大润发(平型关店)","lon":"121.46653","lat":"31.26588","category":"118","category_name":"超级市场","address":"闸北区平型关路108号B1楼(近俞泾港路)"},{"poiid":"B2094757D06FA1FC4598","title":"3CUE星球堡撞球俱乐部","lon":"121.467482","lat":"31.265703","category":"171","category_name":"台球厅","address":"闸北区平型关路56号56生活休闲广场2栋4楼(陈家宅路口)"},{"poiid":"B2094757D06FA0FC419A","title":"上海市第二中级人民法院","lon":"121.46311027","lat":"31.2627168255","category":"608","category_name":"法院","address":"上海中山北路567号"},{"poiid":"B2094654DB6AAAFE489B","title":"汉庭快捷(西藏北路店)","lon":"121.46552","lat":"31.26422","category":"216","category_name":"经济型连锁酒店","address":"上海闸北区西藏北路1318号(近中山北路)"},{"poiid":"B2094750D564A5FA4699","title":"金赢108创意广场","lon":"121.466904","lat":"31.2674","category":"47","category_name":"住宅区","address":"闸北区平型关路108号(近俞泾港路)"},{"poiid":"B2094757D06FA3F9459A","title":"贝拉婚纱","lon":"121.46698","lat":"31.2665","category":"260","category_name":"其他","address":"闸北区平型关路108弄27号宝山区北欧新镇罗芬路689弄41-44号嘉定区城中路136弄罗宾森步行街53-55号"},{"poiid":"B2094750D664AAFE449C","title":"重庆老火锅(平型关路店)","lon":"121.467","lat":"31.2667","category":"86","category_name":"火锅店","address":"闸北区平型关路108号108广场36号(近中山北路)"},{"poiid":"B2094757D66BA6F4459A","title":"康师傅私房牛肉面 平型关店","lon":"121.46596","lat":"31.26621","category":"68","category_name":"快餐厅","address":"闸北区俞泾港路11号大润发B1楼(近平型关路)"},{"poiid":"B2094750D56EA3F8409A","title":"炫音KTV上海平型关路店","lon":"121.467338","lat":"31.266962","category":"248","category_name":"生活娱乐","address":"平型关路108弄"},{"poiid":"B2094757D068ABFA4192","title":"粤来粤好","lon":"121.46775","lat":"31.26543","category":"72","category_name":"广东菜","address":"闸北区平型关路56号56生活广场1楼(近陈家宅路)"},{"poiid":"B2094757D069A2FA409B","title":"尊爵台球","lon":"121.464096103","lat":"31.2640032881","category":"171","category_name":"台球厅","address":"闸北区共和新路1165号帝芙特茶叶城2号楼4楼(中山北路口)"},{"poiid":"B2094757D765A0F4499F","title":"潮悦燕鲍翅海鲜酒楼","lon":"121.4672464","lat":"31.2667431","category":"72","category_name":"广东菜","address":"闸北区平型关路108号108创意广场(近黄山路)"},{"poiid":"B2094655D26CA0FF4792","title":"协和大厦","lon":"121.464","lat":"31.2657","category":"46","category_name":"楼宇","address":"上海市闸北区中山北路814弄"},{"poiid":"B2094757D06AA0F54392","title":"美吉姆国际儿童教育中心","lon":"121.467477103","lat":"31.265863327","category":"500","category_name":"未知分类","address":"闸北区平型关路108弄108创意广场39号2楼(近俞泾港路)"},{"poiid":"B2094655D26DA6FF489C","title":"上海百富大酒店","lon":"121.4633","lat":"31.26691","category":"76","category_name":"上海菜","address":"闸北区西藏北路1599号"},{"poiid":"B2094757D064A6F94998","title":"闸北区教育局","lon":"121.4633021","lat":"31.265463318","category":"500","category_name":"未知分类","address":"上海市闸北区和田路195号"},{"poiid":"B2094757D068AAF84898","title":"董大师金牌稻香蛙(平型关路店)","lon":"121.4675141","lat":"31.266386337","category":"71","category_name":"四川菜","address":"闸北区平型关路56号56生活广场2楼(近中山北路)"},{"poiid":"B2094757D56CABFA459F","title":"味多美 平型关路店 Wedome","lon":"121.467804","lat":"31.264937","category":"67","category_name":"甜品店","address":"闸北区平型关路32号"},{"poiid":"B2094757D06BA6F44092","title":"闸北牙病防治所","lon":"121.46807","lat":"31.26339","category":"500","category_name":"未知分类","address":"闸北区中山北路283号(近平型关路)"},{"poiid":"B2094654DB64A6FB4692","title":"如家快捷酒店(上海西藏北路店)","lon":"121.46186","lat":"31.26615","category":"216","category_name":"经济型连锁酒店","address":"闸北区柳营路518号(近和田路)"},{"poiid":"B2094655D264A2F9419A","title":"协和G品","lon":"121.465","lat":"31.2654","category":"47","category_name":"住宅区","address":"上海市闸北区中山北路814弄"},{"poiid":"B2094655D26FA1FB4492","title":"和诚公寓(院门)","lon":"121.46521","lat":"31.26544","category":"47","category_name":"住宅区","address":"俞泾港路54"},{"poiid":"B2094757D06BA2F94693","title":"中山北路805弄小区","lon":"121.465","lat":"31.2665","category":"47","category_name":"住宅区","address":"上海中山北路805弄"},{"poiid":"B2094757D56CABFA4399","title":"冰度烤肉","lon":"121.466574","lat":"31.261848","category":"96","category_name":"韩国料理","address":"闸北区西藏北路1228号2楼(近中山北路)"},{"poiid":"B2094654DB6AA4FB4698","title":"云华科技大厦","lon":"121.469","lat":"31.2649","category":"46","category_name":"楼宇","address":"北京西路1028号"},{"poiid":"B2094750D56DA5FC449F","title":"108创意广场银座","lon":"121.466857","lat":"31.267145","category":"252","category_name":"楼宇机构","address":"闸北区平型关路138号"},{"poiid":"B2094757D469A2FB459F","title":"85度C 平型关路店","lon":"121.46626","lat":"31.26615","category":"112","category_name":"糕饼店","address":"闸北区俞泾港路1号大润发超市2号柜(平型关路，近西藏北路)"},{"poiid":"B2094655D36DA0F5419E","title":"俞泾港路西藏北路","lon":"121.46523","lat":"31.26575","category":"38","category_name":"公交车站","address":""},{"poiid":"B2094757D16DA5FB499E","title":"永琪美容美发(俞泾店)","lon":"121.465815769","lat":"31.26520898","category":"148","category_name":"美容美发店","address":"闸北区俞泾港路(近西藏北路)"},{"poiid":"B2094757D065A6FA449B","title":"大宁灵石绿地","lon":"121.4636131","lat":"31.266153333","category":"500","category_name":"未知分类","address":"上海市闸北区和田路"},{"poiid":"B2094654D56CA3F54998","title":"可的(俞泾港路)","lon":"121.46489","lat":"31.26578","category":"117","category_name":"便民商店/便利店","address":"俞泾港路17甲"},{"poiid":"B2094757D469ABFA409F","title":"秦风赣水 大宁店","lon":"121.46726","lat":"31.26668","category":"247","category_name":"餐饮美食","address":"闸北区平型关路108弄108创意广场10号(近俞泾港路)"},{"poiid":"B2094655D26BA4FB4499","title":"65休闲生活广场","lon":"121.46748","lat":"31.26553","category":"46","category_name":"楼宇","address":""},{"poiid":"B2094757D06AA6FD459E","title":"潮悦燕鲍翅","lon":"121.46742832","lat":"31.266691231","category":"247","category_name":"餐饮美食","address":"上海平型关路108弄18号"},{"poiid":"B2094655D26FA7FA499D","title":"乐业公寓(院门)","lon":"121.46511","lat":"31.26593","category":"47","category_name":"住宅区","address":"俞泾港路15弄"},{"poiid":"B2094757D168A6FC439F","title":"和诚公寓","lon":"121.46555","lat":"31.265238","category":"500","category_name":"未知分类","address":"上海市闸北区俞泾港路54号"},{"poiid":"B2094757D66FA3FB4199","title":"正宗重庆麻辣烫","lon":"121.465856","lat":"31.265835","category":"247","category_name":"餐饮美食","address":"上海俞泾港路32号"},{"poiid":"B2094654D56CA3F54598","title":"和兰苑","lon":"121.46746","lat":"31.263905","category":"47","category_name":"住宅区","address":"海淀区羊坊店路18号"},{"poiid":"B2094654D56CA3F4469E","title":"盛和玲珑苑","lon":"121.46401","lat":"31.26461","category":"47","category_name":"住宅区","address":"上海市闸北区和田路118弄"},{"poiid":"B2094757D469A5FE4698","title":"甜福骨头王砂锅","lon":"121.467689","lat":"31.265727","category":"86","category_name":"火锅店","address":"闸北区平型关路56号56生活休闲广场(近黄山路)"},{"poiid":"B2094654D56CA3F5429B","title":"上环公寓","lon":"121.46446","lat":"31.264666","category":"47","category_name":"住宅区","address":"上环公寓位于闸北西藏北路1377弄"},{"poiid":"B2094654D56CA2FC4299","title":"申地苑","lon":"121.46674","lat":"31.265684","category":"47","category_name":"住宅区","address":"上海平型关路68弄"},{"poiid":"B2094655D36DA1FB419B","title":"西藏北路民和路","lon":"121.46421","lat":"31.26619","category":"38","category_name":"公交车站","address":""},{"poiid":"B2094654D56CA3F4439F","title":"和福花苑","lon":"121.46318","lat":"31.265793","category":"47","category_name":"住宅区","address":"和福花苑位于闸北和田路288号"},{"poiid":"B2094757D068A0FD409B","title":"乐业公寓","lon":"121.46507","lat":"31.266535","category":"500","category_name":"未知分类","address":"上海市闸北区俞泾港路15弄"},{"poiid":"B2094757D06AA2F84593","title":"永顺兴苏州汤包馆(平型关路店)","lon":"121.467901","lat":"31.266374","category":"68","category_name":"快餐厅","address":"闸北区平型关路56号56生活休闲广场(近黄山路)"},{"poiid":"B2094757D069A6FC4892","title":"上海地铁第四运营有限公司","lon":"121.468793983","lat":"31.2639601872","category":"46","category_name":"楼宇","address":"上海西藏北路"},{"poiid":"B2094655D26FAAF5419B","title":"和源名邸","lon":"121.4633","lat":"31.265421","category":"47","category_name":"住宅区","address":"上海市闸北区西藏北路1523号"}]