[{"poiid":"B2094757D06FA6FE409B","title":"大润发(荣乐中路店)","lon":"121.21961641","lat":"31.017390405","category":"118","category_name":"超级市场","address":"松江区荣乐中路552-652号"},{"poiid":"B2094757D068A5FF4893","title":"上海农林职业技术学校","lon":"121.222092","lat":"31.009827","category":"54","category_name":"职业技术学校","address":"上海松江区中山二路658号"},{"poiid":"B2094757D064A7F9449A","title":"肯德基 KFC (荣乐店)","lon":"121.219864","lat":"31.016828","category":"68","category_name":"快餐厅","address":"松江区荣乐中路552号(荣乐中路西林北路)"},{"poiid":"B2094757D06AA2F8499D","title":"自由港量贩式KTV(松江店)","lon":"121.22656","lat":"31.01634","category":"170","category_name":"KTV","address":"松江区人民北路361号(近荣乐路)"},{"poiid":"B2094654DB6EA1FE4093","title":"民乐小区(荣乐中路)","lon":"121.22319","lat":"31.01821","category":"47","category_name":"住宅区","address":"上海荣乐路西林北路"},{"poiid":"B2094654DB64A0FD429E","title":"白洋苑","lon":"121.2192","lat":"31.018274","category":"47","category_name":"住宅区","address":"荣乐中路800弄1-270号"},{"poiid":"B2094757D064A2FA4898","title":"彩蝶坊 西林北路店","lon":"121.221155054","lat":"31.010558793","category":"76","category_name":"上海菜","address":"松江区西林北路333号(近中山二路)"},{"poiid":"B2094654DB65A6F5419B","title":"荣乐小区(松江·人民北路)","lon":"121.22355","lat":"31.01528","category":"47","category_name":"住宅区","address":"荣乐一村67-70号"},{"poiid":"B2094757D065A3F84592","title":"上海电视大学松江校区","lon":"121.222620267","lat":"31.0085255273","category":"500","category_name":"未知分类","address":"上海松江区中山二路621号"},{"poiid":"B2094757D66CA2F5489D","title":"人乐小区","lon":"121.22643246","lat":"31.011346089","category":"47","category_name":"住宅区","address":"上海人民北路"},{"poiid":"B2094757D064A1FC439E","title":"蒙自源云南米线(松江店)","lon":"121.21998","lat":"31.01691","category":"68","category_name":"快餐厅","address":"松江区荣乐中路552-652号大润发1楼(荣乐中路西林北路)"},{"poiid":"B2094753D16BA4FC479A","title":"万达广场(松江店)","lon":"121.2203","lat":"31.01534","category":"119","category_name":"商场","address":null},{"poiid":"B2094757D16AA2FD479A","title":"松江区社会保险事业管理中心","lon":"121.226919985","lat":"31.0171022381","category":"500","category_name":"未知分类","address":"上海市松江区荣乐中路248号"},{"poiid":"B2094654DB6EA0FE419D","title":"松乐苑","lon":"121.21642","lat":"31.015387","category":"47","category_name":"住宅区","address":"上海市松江区荣乐中路835弄"},{"poiid":"B2094655D268A2F4419A","title":"秀野苑","lon":"121.224","lat":"31.014","category":"47","category_name":"住宅区","address":"中山西路36弄"},{"poiid":"B2094654DB6DABF9489E","title":"松江区成人教师进修学校","lon":"121.22288","lat":"31.01215","category":"53","category_name":"成人教育","address":"西林北路420"},{"poiid":"B2094757D065A7F9469B","title":"交通银行松江支行","lon":"121.22686298","lat":"31.014317903","category":"46","category_name":"楼宇","address":"松江区松江人民北路227号(北翠路人民北路)"},{"poiid":"B2094757D06AAAFF429E","title":"蔡先生苏州汤包馆","lon":"121.226338","lat":"31.016638","category":"247","category_name":"餐饮美食","address":"上海市松江区人民北路82号"},{"poiid":"B2094655D26BABFC459E","title":"泰晤士小镇商业","lon":"121.2281","lat":"31.01332","category":"252","category_name":"楼宇机构","address":"乐都路339号"},{"poiid":"B2094654DB6DABF9449D","title":"快客NO.6308","lon":"121.22132","lat":"31.01478","category":"117","category_name":"便民商店/便利店","address":"西林北路886"},{"poiid":"B2094757D065A1F5419A","title":"西林小区","lon":"121.22022","lat":"31.012518","category":"47","category_name":"住宅区","address":"上海乐都路411弄"},{"poiid":"B2094655D268A5F4469B","title":"上海电视大学松江分校校区(西门)","lon":"121.22179","lat":"31.01258","category":"52","category_name":"高等院校","address":"西林北路420"},{"poiid":"B2094654DB6EA1FA449A","title":"好德(乐都路)","lon":"121.22112","lat":"31.0136","category":"117","category_name":"便民商店/便利店","address":"乐都路404、406-1识别"},{"poiid":"B2094654DB6DABF9419E","title":"笠泽酒家","lon":"121.224792054","lat":"31.014058793","category":"76","category_name":"上海菜","address":"松江区乐都路360号(云间大厦西侧)"},{"poiid":"B2094655D268A7FA439E","title":"城管大楼","lon":"121.21752","lat":"31.01391","category":"46","category_name":"楼宇","address":"乐都路490号"},{"poiid":"B2094752D46DA7FC4393","title":"松江大学城","lon":"121.22375","lat":"31.015","category":"500","category_name":"未知分类","address":null},{"poiid":"B2094655D36DA1FB4692","title":"西林北路中山二路","lon":"121.22152","lat":"31.01266","category":"38","category_name":"公交车站","address":""},{"poiid":"B2094654DB6EA0FE439A","title":"福建沙县小吃(西林北路)","lon":"121.22079","lat":"31.0151","category":"68","category_name":"快餐厅","address":"西林北路909"},{"poiid":"B2094757D66DA3FD439F","title":"徐公馆","lon":"121.22121146","lat":"31.015823187","category":"247","category_name":"餐饮美食","address":"上海市松江区荣乐中路"},{"poiid":"B2094757D16BA4FB449E","title":"上海海運學校","lon":"121.22242156","lat":"31.015362277","category":"500","category_name":"未知分类","address":"上海市松江區西林北路420號"},{"poiid":"B2094654DB6DABF9479C","title":"上海市农业广播电视学校松江分校","lon":"121.22287","lat":"31.01215","category":"52","category_name":"高等院校","address":"松江区西林北路420"},{"poiid":"B2094654DB6EA1FA459F","title":"上海余天成药业连锁有限公司","lon":"121.22018","lat":"31.01355","category":"162","category_name":"医院","address":"乐都路440-442"},{"poiid":"B2094655D268A0FA4592","title":"妙味鸡煲松江店(松江·人民北路)","lon":"121.22636","lat":"31.01642","category":"257","category_name":"中餐厅","address":"松江区人民北路361号"},{"poiid":"B2094757D064A5FD419F","title":"招商银行(松江支行)","lon":"121.227870313","lat":"31.0121534678","category":"150","category_name":"银行","address":"松江区人民北路92-98号(近乐都路)"},{"poiid":"B2094654DB6DABF8479F","title":"云间大厦","lon":"121.22669","lat":"31.01405","category":"46","category_name":"楼宇","address":"乐都路358"},{"poiid":"B2094654DB6EA1FD4693","title":"民乐学校","lon":"121.22531","lat":"31.01847","category":"54","category_name":"职业技术学校","address":"松江区人民北路439号"},{"poiid":"B2094655D26FAAFB459E","title":"荣乐新村(南边门)","lon":"121.2262","lat":"31.01374","category":"47","category_name":"住宅区","address":""},{"poiid":"B2094654DB6DABF94792","title":"上海松江区新城进修学校","lon":"121.22287","lat":"31.01215","category":"53","category_name":"成人教育","address":"上海松江区西林北路420号"},{"poiid":"B2094654DB6DABF9449F","title":"荣乐小区(西门)","lon":"121.22145","lat":"31.01479","category":"656","category_name":"大门","address":"西林北路890"},{"poiid":"B2094757D16DA7F44999","title":"浦东发展银行松江支行","lon":"121.224952","lat":"31.013707","category":"500","category_name":"未知分类","address":"上海松江乐都路"},{"poiid":"B2094757D06AAAF94298","title":"摸错门牛肚王","lon":"121.22795","lat":"31.01233","category":"86","category_name":"火锅店","address":"松江区人民北路110号"},{"poiid":"B2094757D06AA4F8499E","title":"松乐南苑","lon":"121.21963","lat":"31.01474","category":"47","category_name":"住宅区","address":"上海松江区西林北路889弄"},{"poiid":"B2094654DB6DAAFF409B","title":"永乐家电生活电器卖场松江店","lon":"121.22733","lat":"31.01526","category":"138","category_name":"家电电子卖场","address":"人民北路招商市场底楼"},{"poiid":"B2094654DB6EA0FE4292","title":"绿舟苑","lon":"121.22019","lat":"31.01637","category":"196","category_name":"公园","address":"松江镇"},{"poiid":"B2094750D164A4F4429E","title":"上海松江城区星程美司豪酒店","lon":"121.221563115939","lat":"31.0112520904167","category":"216","category_name":"经济型连锁酒店","address":"松江区西林北路355号(近松江大学城)"},{"poiid":"B2094654DB64A0FD4298","title":"民乐小区(南一号门)","lon":"121.22474","lat":"31.01703","category":"47","category_name":"住宅区","address":""},{"poiid":"B2094757D164A7F54399","title":"酷味乐餐厅 人民北店 COOL","lon":"121.22758","lat":"31.01336","category":"68","category_name":"快餐厅","address":"松江区人民北路88号(近乐都路)"},{"poiid":"B2094654DB6DAAFF4198","title":"九峰小区","lon":"121.22921","lat":"31.015453","category":"47","category_name":"住宅区","address":"人民中路880弄"},{"poiid":"B2094655D36DA7FE4193","title":"招商市场(招呼站)","lon":"121.22708","lat":"31.01508","category":"38","category_name":"公交车站","address":""},{"poiid":"B2094654DB6DABF8479B","title":"惠鑫百货","lon":"121.22695","lat":"31.01381","category":"119","category_name":"商场","address":"乐都路348"},{"poiid":"B2094757D06FA6FE409B","title":"大润发(荣乐中路店)","lon":"121.21961641","lat":"31.017390405","category":"118","category_name":"超级市场","address":"松江区荣乐中路552-652号"},{"poiid":"B2094757D068A5FF4893","title":"上海农林职业技术学校","lon":"121.222092","lat":"31.009827","category":"54","category_name":"职业技术学校","address":"上海松江区中山二路658号"},{"poiid":"B2094757D064A7F9449A","title":"肯德基 KFC (荣乐店)","lon":"121.219864","lat":"31.016828","category":"68","category_name":"快餐厅","address":"松江区荣乐中路552号(荣乐中路西林北路)"},{"poiid":"B2094757D06AA2F8499D","title":"自由港量贩式KTV(松江店)","lon":"121.22656","lat":"31.01634","category":"170","category_name":"KTV","address":"松江区人民北路361号(近荣乐路)"},{"poiid":"B2094654DB6EA1FE4093","title":"民乐小区(荣乐中路)","lon":"121.22319","lat":"31.01821","category":"47","category_name":"住宅区","address":"上海荣乐路西林北路"},{"poiid":"B2094654DB64A0FD429E","title":"白洋苑","lon":"121.2192","lat":"31.018274","category":"47","category_name":"住宅区","address":"荣乐中路800弄1-270号"},{"poiid":"B2094757D064A2FA4898","title":"彩蝶坊 西林北路店","lon":"121.221155054","lat":"31.010558793","category":"76","category_name":"上海菜","address":"松江区西林北路333号(近中山二路)"},{"poiid":"B2094654DB65A6F5419B","title":"荣乐小区(松江·人民北路)","lon":"121.22355","lat":"31.01528","category":"47","category_name":"住宅区","address":"荣乐一村67-70号"},{"poiid":"B2094757D065A3F84592","title":"上海电视大学松江校区","lon":"121.222620267","lat":"31.0085255273","category":"500","category_name":"未知分类","address":"上海松江区中山二路621号"},{"poiid":"B2094757D66CA2F5489D","title":"人乐小区","lon":"121.22643246","lat":"31.011346089","category":"47","category_name":"住宅区","address":"上海人民北路"},{"poiid":"B2094757D064A1FC439E","title":"蒙自源云南米线(松江店)","lon":"121.21998","lat":"31.01691","category":"68","category_name":"快餐厅","address":"松江区荣乐中路552-652号大润发1楼(荣乐中路西林北路)"},{"poiid":"B2094753D16BA4FC479A","title":"万达广场(松江店)","lon":"121.2203","lat":"31.01534","category":"119","category_name":"商场","address":null},{"poiid":"B2094757D16AA2FD479A","title":"松江区社会保险事业管理中心","lon":"121.226919985","lat":"31.0171022381","category":"500","category_name":"未知分类","address":"上海市松江区荣乐中路248号"},{"poiid":"B2094654DB6EA0FE419D","title":"松乐苑","lon":"121.21642","lat":"31.015387","category":"47","category_name":"住宅区","address":"上海市松江区荣乐中路835弄"},{"poiid":"B2094655D268A2F4419A","title":"秀野苑","lon":"121.224","lat":"31.014","category":"47","category_name":"住宅区","address":"中山西路36弄"},{"poiid":"B2094654DB6DABF9489E","title":"松江区成人教师进修学校","lon":"121.22288","lat":"31.01215","category":"53","category_name":"成人教育","address":"西林北路420"},{"poiid":"B2094757D065A7F9469B","title":"交通银行松江支行","lon":"121.22686298","lat":"31.014317903","category":"46","category_name":"楼宇","address":"松江区松江人民北路227号(北翠路人民北路)"},{"poiid":"B2094757D06AAAFF429E","title":"蔡先生苏州汤包馆","lon":"121.226338","lat":"31.016638","category":"247","category_name":"餐饮美食","address":"上海市松江区人民北路82号"},{"poiid":"B2094655D26BABFC459E","title":"泰晤士小镇商业","lon":"121.2281","lat":"31.01332","category":"252","category_name":"楼宇机构","address":"乐都路339号"},{"poiid":"B2094654DB6DABF9449D","title":"快客NO.6308","lon":"121.22132","lat":"31.01478","category":"117","category_name":"便民商店/便利店","address":"西林北路886"},{"poiid":"B2094757D065A1F5419A","title":"西林小区","lon":"121.22022","lat":"31.012518","category":"47","category_name":"住宅区","address":"上海乐都路411弄"},{"poiid":"B2094655D268A5F4469B","title":"上海电视大学松江分校校区(西门)","lon":"121.22179","lat":"31.01258","category":"52","category_name":"高等院校","address":"西林北路420"},{"poiid":"B2094654DB6EA1FA449A","title":"好德(乐都路)","lon":"121.22112","lat":"31.0136","category":"117","category_name":"便民商店/便利店","address":"乐都路404、406-1识别"},{"poiid":"B2094654DB6DABF9419E","title":"笠泽酒家","lon":"121.224792054","lat":"31.014058793","category":"76","category_name":"上海菜","address":"松江区乐都路360号(云间大厦西侧)"},{"poiid":"B2094655D268A7FA439E","title":"城管大楼","lon":"121.21752","lat":"31.01391","category":"46","category_name":"楼宇","address":"乐都路490号"},{"poiid":"B2094752D46DA7FC4393","title":"松江大学城","lon":"121.22375","lat":"31.015","category":"500","category_name":"未知分类","address":null},{"poiid":"B2094655D36DA1FB4692","title":"西林北路中山二路","lon":"121.22152","lat":"31.01266","category":"38","category_name":"公交车站","address":""},{"poiid":"B2094654DB6EA0FE439A","title":"福建沙县小吃(西林北路)","lon":"121.22079","lat":"31.0151","category":"68","category_name":"快餐厅","address":"西林北路909"},{"poiid":"B2094757D66DA3FD439F","title":"徐公馆","lon":"121.22121146","lat":"31.015823187","category":"247","category_name":"餐饮美食","address":"上海市松江区荣乐中路"},{"poiid":"B2094757D16BA4FB449E","title":"上海海運學校","lon":"121.22242156","lat":"31.015362277","category":"500","category_name":"未知分类","address":"上海市松江區西林北路420號"},{"poiid":"B2094654DB6DABF9479C","title":"上海市农业广播电视学校松江分校","lon":"121.22287","lat":"31.01215","category":"52","category_name":"高等院校","address":"松江区西林北路420"},{"poiid":"B2094654DB6EA1FA459F","title":"上海余天成药业连锁有限公司","lon":"121.22018","lat":"31.01355","category":"162","category_name":"医院","address":"乐都路440-442"},{"poiid":"B2094655D268A0FA4592","title":"妙味鸡煲松江店(松江·人民北路)","lon":"121.22636","lat":"31.01642","category":"257","category_name":"中餐厅","address":"松江区人民北路361号"},{"poiid":"B2094757D064A5FD419F","title":"招商银行(松江支行)","lon":"121.227870313","lat":"31.0121534678","category":"150","category_name":"银行","address":"松江区人民北路92-98号(近乐都路)"},{"poiid":"B2094654DB6DABF8479F","title":"云间大厦","lon":"121.22669","lat":"31.01405","category":"46","category_name":"楼宇","address":"乐都路358"},{"poiid":"B2094654DB6EA1FD4693","title":"民乐学校","lon":"121.22531","lat":"31.01847","category":"54","category_name":"职业技术学校","address":"松江区人民北路439号"},{"poiid":"B2094655D26FAAFB459E","title":"荣乐新村(南边门)","lon":"121.2262","lat":"31.01374","category":"47","category_name":"住宅区","address":""},{"poiid":"B2094654DB6DABF94792","title":"上海松江区新城进修学校","lon":"121.22287","lat":"31.01215","category":"53","category_name":"成人教育","address":"上海松江区西林北路420号"},{"poiid":"B2094654DB6DABF9449F","title":"荣乐小区(西门)","lon":"121.22145","lat":"31.01479","category":"656","category_name":"大门","address":"西林北路890"},{"poiid":"B2094757D16DA7F44999","title":"浦东发展银行松江支行","lon":"121.224952","lat":"31.013707","category":"500","category_name":"未知分类","address":"上海松江乐都路"},{"poiid":"B2094757D06AAAF94298","title":"摸错门牛肚王","lon":"121.22795","lat":"31.01233","category":"86","category_name":"火锅店","address":"松江区人民北路110号"},{"poiid":"B2094757D06AA4F8499E","title":"松乐南苑","lon":"121.21963","lat":"31.01474","category":"47","category_name":"住宅区","address":"上海松江区西林北路889弄"},{"poiid":"B2094654DB6DAAFF409B","title":"永乐家电生活电器卖场松江店","lon":"121.22733","lat":"31.01526","category":"138","category_name":"家电电子卖场","address":"人民北路招商市场底楼"},{"poiid":"B2094654DB6EA0FE4292","title":"绿舟苑","lon":"121.22019","lat":"31.01637","category":"196","category_name":"公园","address":"松江镇"},{"poiid":"B2094750D164A4F4429E","title":"上海松江城区星程美司豪酒店","lon":"121.221563115939","lat":"31.0112520904167","category":"216","category_name":"经济型连锁酒店","address":"松江区西林北路355号(近松江大学城)"},{"poiid":"B2094654DB64A0FD4298","title":"民乐小区(南一号门)","lon":"121.22474","lat":"31.01703","category":"47","category_name":"住宅区","address":""},{"poiid":"B2094757D164A7F54399","title":"酷味乐餐厅 人民北店 COOL","lon":"121.22758","lat":"31.01336","category":"68","category_name":"快餐厅","address":"松江区人民北路88号(近乐都路)"},{"poiid":"B2094654DB6DAAFF4198","title":"九峰小区","lon":"121.22921","lat":"31.015453","category":"47","category_name":"住宅区","address":"人民中路880弄"},{"poiid":"B2094655D36DA7FE4193","title":"招商市场(招呼站)","lon":"121.22708","lat":"31.01508","category":"38","category_name":"公交车站","address":""},{"poiid":"B2094654DB6DABF8479B","title":"惠鑫百货","lon":"121.22695","lat":"31.01381","category":"119","category_name":"商场","address":"乐都路348"},{"poiid":"B2094757D06FA6FE409B","title":"大润发(荣乐中路店)","lon":"121.21961641","lat":"31.017390405","category":"118","category_name":"超级市场","address":"松江区荣乐中路552-652号"},{"poiid":"B2094757D068A5FF4893","title":"上海农林职业技术学校","lon":"121.222092","lat":"31.009827","category":"54","category_name":"职业技术学校","address":"上海松江区中山二路658号"},{"poiid":"B2094757D064A7F9449A","title":"肯德基 KFC (荣乐店)","lon":"121.219864","lat":"31.016828","category":"68","category_name":"快餐厅","address":"松江区荣乐中路552号(荣乐中路西林北路)"},{"poiid":"B2094757D06AA2F8499D","title":"自由港量贩式KTV(松江店)","lon":"121.22656","lat":"31.01634","category":"170","category_name":"KTV","address":"松江区人民北路361号(近荣乐路)"},{"poiid":"B2094654DB6EA1FE4093","title":"民乐小区(荣乐中路)","lon":"121.22319","lat":"31.01821","category":"47","category_name":"住宅区","address":"上海荣乐路西林北路"},{"poiid":"B2094654DB64A0FD429E","title":"白洋苑","lon":"121.2192","lat":"31.018274","category":"47","category_name":"住宅区","address":"荣乐中路800弄1-270号"},{"poiid":"B2094757D064A2FA4898","title":"彩蝶坊 西林北路店","lon":"121.221155054","lat":"31.010558793","category":"76","category_name":"上海菜","address":"松江区西林北路333号(近中山二路)"},{"poiid":"B2094654DB65A6F5419B","title":"荣乐小区(松江·人民北路)","lon":"121.22355","lat":"31.01528","category":"47","category_name":"住宅区","address":"荣乐一村67-70号"},{"poiid":"B2094757D065A3F84592","title":"上海电视大学松江校区","lon":"121.222620267","lat":"31.0085255273","category":"500","category_name":"未知分类","address":"上海松江区中山二路621号"},{"poiid":"B2094757D66CA2F5489D","title":"人乐小区","lon":"121.22643246","lat":"31.011346089","category":"47","category_name":"住宅区","address":"上海人民北路"},{"poiid":"B2094757D064A1FC439E","title":"蒙自源云南米线(松江店)","lon":"121.21998","lat":"31.01691","category":"68","category_name":"快餐厅","address":"松江区荣乐中路552-652号大润发1楼(荣乐中路西林北路)"},{"poiid":"B2094753D16BA4FC479A","title":"万达广场(松江店)","lon":"121.2203","lat":"31.01534","category":"119","category_name":"商场","address":null},{"poiid":"B2094757D16AA2FD479A","title":"松江区社会保险事业管理中心","lon":"121.226919985","lat":"31.0171022381","category":"500","category_name":"未知分类","address":"上海市松江区荣乐中路248号"},{"poiid":"B2094654DB6EA0FE419D","title":"松乐苑","lon":"121.21642","lat":"31.015387","category":"47","category_name":"住宅区","address":"上海市松江区荣乐中路835弄"},{"poiid":"B2094655D268A2F4419A","title":"秀野苑","lon":"121.224","lat":"31.014","category":"47","category_name":"住宅区","address":"中山西路36弄"},{"poiid":"B2094654DB6DABF9489E","title":"松江区成人教师进修学校","lon":"121.22288","lat":"31.01215","category":"53","category_name":"成人教育","address":"西林北路420"},{"poiid":"B2094757D065A7F9469B","title":"交通银行松江支行","lon":"121.22686298","lat":"31.014317903","category":"46","category_name":"楼宇","address":"松江区松江人民北路227号(北翠路人民北路)"},{"poiid":"B2094757D06AAAFF429E","title":"蔡先生苏州汤包馆","lon":"121.226338","lat":"31.016638","category":"247","category_name":"餐饮美食","address":"上海市松江区人民北路82号"},{"poiid":"B2094655D26BABFC459E","title":"泰晤士小镇商业","lon":"121.2281","lat":"31.01332","category":"252","category_name":"楼宇机构","address":"乐都路339号"},{"poiid":"B2094654DB6DABF9449D","title":"快客NO.6308","lon":"121.22132","lat":"31.01478","category":"117","category_name":"便民商店/便利店","address":"西林北路886"},{"poiid":"B2094757D065A1F5419A","title":"西林小区","lon":"121.22022","lat":"31.012518","category":"47","category_name":"住宅区","address":"上海乐都路411弄"},{"poiid":"B2094655D268A5F4469B","title":"上海电视大学松江分校校区(西门)","lon":"121.22179","lat":"31.01258","category":"52","category_name":"高等院校","address":"西林北路420"},{"poiid":"B2094654DB6EA1FA449A","title":"好德(乐都路)","lon":"121.22112","lat":"31.0136","category":"117","category_name":"便民商店/便利店","address":"乐都路404、406-1识别"},{"poiid":"B2094654DB6DABF9419E","title":"笠泽酒家","lon":"121.224792054","lat":"31.014058793","category":"76","category_name":"上海菜","address":"松江区乐都路360号(云间大厦西侧)"},{"poiid":"B2094655D268A7FA439E","title":"城管大楼","lon":"121.21752","lat":"31.01391","category":"46","category_name":"楼宇","address":"乐都路490号"},{"poiid":"B2094752D46DA7FC4393","title":"松江大学城","lon":"121.22375","lat":"31.015","category":"500","category_name":"未知分类","address":null},{"poiid":"B2094655D36DA1FB4692","title":"西林北路中山二路","lon":"121.22152","lat":"31.01266","category":"38","category_name":"公交车站","address":""},{"poiid":"B2094654DB6EA0FE439A","title":"福建沙县小吃(西林北路)","lon":"121.22079","lat":"31.0151","category":"68","category_name":"快餐厅","address":"西林北路909"},{"poiid":"B2094757D66DA3FD439F","title":"徐公馆","lon":"121.22121146","lat":"31.015823187","category":"247","category_name":"餐饮美食","address":"上海市松江区荣乐中路"},{"poiid":"B2094757D16BA4FB449E","title":"上海海運學校","lon":"121.22242156","lat":"31.015362277","category":"500","category_name":"未知分类","address":"上海市松江區西林北路420號"},{"poiid":"B2094654DB6DABF9479C","title":"上海市农业广播电视学校松江分校","lon":"121.22287","lat":"31.01215","category":"52","category_name":"高等院校","address":"松江区西林北路420"},{"poiid":"B2094654DB6EA1FA459F","title":"上海余天成药业连锁有限公司","lon":"121.22018","lat":"31.01355","category":"162","category_name":"医院","address":"乐都路440-442"},{"poiid":"B2094655D268A0FA4592","title":"妙味鸡煲松江店(松江·人民北路)","lon":"121.22636","lat":"31.01642","category":"257","category_name":"中餐厅","address":"松江区人民北路361号"},{"poiid":"B2094757D064A5FD419F","title":"招商银行(松江支行)","lon":"121.227870313","lat":"31.0121534678","category":"150","category_name":"银行","address":"松江区人民北路92-98号(近乐都路)"},{"poiid":"B2094654DB6DABF8479F","title":"云间大厦","lon":"121.22669","lat":"31.01405","category":"46","category_name":"楼宇","address":"乐都路358"},{"poiid":"B2094654DB6EA1FD4693","title":"民乐学校","lon":"121.22531","lat":"31.01847","category":"54","category_name":"职业技术学校","address":"松江区人民北路439号"},{"poiid":"B2094655D26FAAFB459E","title":"荣乐新村(南边门)","lon":"121.2262","lat":"31.01374","category":"47","category_name":"住宅区","address":""},{"poiid":"B2094654DB6DABF94792","title":"上海松江区新城进修学校","lon":"121.22287","lat":"31.01215","category":"53","category_name":"成人教育","address":"上海松江区西林北路420号"},{"poiid":"B2094654DB6DABF9449F","title":"荣乐小区(西门)","lon":"121.22145","lat":"31.01479","category":"656","category_name":"大门","address":"西林北路890"},{"poiid":"B2094757D16DA7F44999","title":"浦东发展银行松江支行","lon":"121.224952","lat":"31.013707","category":"500","category_name":"未知分类","address":"上海松江乐都路"},{"poiid":"B2094757D06AAAF94298","title":"摸错门牛肚王","lon":"121.22795","lat":"31.01233","category":"86","category_name":"火锅店","address":"松江区人民北路110号"},{"poiid":"B2094757D06AA4F8499E","title":"松乐南苑","lon":"121.21963","lat":"31.01474","category":"47","category_name":"住宅区","address":"上海松江区西林北路889弄"},{"poiid":"B2094654DB6DAAFF409B","title":"永乐家电生活电器卖场松江店","lon":"121.22733","lat":"31.01526","category":"138","category_name":"家电电子卖场","address":"人民北路招商市场底楼"},{"poiid":"B2094654DB6EA0FE4292","title":"绿舟苑","lon":"121.22019","lat":"31.01637","category":"196","category_name":"公园","address":"松江镇"},{"poiid":"B2094750D164A4F4429E","title":"上海松江城区星程美司豪酒店","lon":"121.221563115939","lat":"31.0112520904167","category":"216","category_name":"经济型连锁酒店","address":"松江区西林北路355号(近松江大学城)"},{"poiid":"B2094654DB64A0FD4298","title":"民乐小区(南一号门)","lon":"121.22474","lat":"31.01703","category":"47","category_name":"住宅区","address":""},{"poiid":"B2094757D164A7F54399","title":"酷味乐餐厅 人民北店 COOL","lon":"121.22758","lat":"31.01336","category":"68","category_name":"快餐厅","address":"松江区人民北路88号(近乐都路)"},{"poiid":"B2094654DB6DAAFF4198","title":"九峰小区","lon":"121.22921","lat":"31.015453","category":"47","category_name":"住宅区","address":"人民中路880弄"},{"poiid":"B2094655D36DA7FE4193","title":"招商市场(招呼站)","lon":"121.22708","lat":"31.01508","category":"38","category_name":"公交车站","address":""},{"poiid":"B2094654DB6DABF8479B","title":"惠鑫百货","lon":"121.22695","lat":"31.01381","category":"119","category_name":"商场","address":"乐都路348"},{"poiid":"B2094757D06FA6FE409B","title":"大润发(荣乐中路店)","lon":"121.21961641","lat":"31.017390405","category":"118","category_name":"超级市场","address":"松江区荣乐中路552-652号"},{"poiid":"B2094757D068A5FF4893","title":"上海农林职业技术学校","lon":"121.222092","lat":"31.009827","category":"54","category_name":"职业技术学校","address":"上海松江区中山二路658号"},{"poiid":"B2094757D064A7F9449A","title":"肯德基 KFC (荣乐店)","lon":"121.219864","lat":"31.016828","category":"68","category_name":"快餐厅","address":"松江区荣乐中路552号(荣乐中路西林北路)"},{"poiid":"B2094757D06AA2F8499D","title":"自由港量贩式KTV(松江店)","lon":"121.22656","lat":"31.01634","category":"170","category_name":"KTV","address":"松江区人民北路361号(近荣乐路)"},{"poiid":"B2094654DB6EA1FE4093","title":"民乐小区(荣乐中路)","lon":"121.22319","lat":"31.01821","category":"47","category_name":"住宅区","address":"上海荣乐路西林北路"},{"poiid":"B2094654DB64A0FD429E","title":"白洋苑","lon":"121.2192","lat":"31.018274","category":"47","category_name":"住宅区","address":"荣乐中路800弄1-270号"},{"poiid":"B2094757D064A2FA4898","title":"彩蝶坊 西林北路店","lon":"121.221155054","lat":"31.010558793","category":"76","category_name":"上海菜","address":"松江区西林北路333号(近中山二路)"},{"poiid":"B2094654DB65A6F5419B","title":"荣乐小区(松江·人民北路)","lon":"121.22355","lat":"31.01528","category":"47","category_name":"住宅区","address":"荣乐一村67-70号"},{"poiid":"B2094757D065A3F84592","title":"上海电视大学松江校区","lon":"121.222620267","lat":"31.0085255273","category":"500","category_name":"未知分类","address":"上海松江区中山二路621号"},{"poiid":"B2094757D66CA2F5489D","title":"人乐小区","lon":"121.22643246","lat":"31.011346089","category":"47","category_name":"住宅区","address":"上海人民北路"},{"poiid":"B2094757D064A1FC439E","title":"蒙自源云南米线(松江店)","lon":"121.21998","lat":"31.01691","category":"68","category_name":"快餐厅","address":"松江区荣乐中路552-652号大润发1楼(荣乐中路西林北路)"},{"poiid":"B2094753D16BA4FC479A","title":"万达广场(松江店)","lon":"121.2203","lat":"31.01534","category":"119","category_name":"商场","address":null},{"poiid":"B2094757D16AA2FD479A","title":"松江区社会保险事业管理中心","lon":"121.226919985","lat":"31.0171022381","category":"500","category_name":"未知分类","address":"上海市松江区荣乐中路248号"},{"poiid":"B2094654DB6EA0FE419D","title":"松乐苑","lon":"121.21642","lat":"31.015387","category":"47","category_name":"住宅区","address":"上海市松江区荣乐中路835弄"},{"poiid":"B2094655D268A2F4419A","title":"秀野苑","lon":"121.224","lat":"31.014","category":"47","category_name":"住宅区","address":"中山西路36弄"},{"poiid":"B2094654DB6DABF9489E","title":"松江区成人教师进修学校","lon":"121.22288","lat":"31.01215","category":"53","category_name":"成人教育","address":"西林北路420"},{"poiid":"B2094757D065A7F9469B","title":"交通银行松江支行","lon":"121.22686298","lat":"31.014317903","category":"46","category_name":"楼宇","address":"松江区松江人民北路227号(北翠路人民北路)"},{"poiid":"B2094757D06AAAFF429E","title":"蔡先生苏州汤包馆","lon":"121.226338","lat":"31.016638","category":"247","category_name":"餐饮美食","address":"上海市松江区人民北路82号"},{"poiid":"B2094655D26BABFC459E","title":"泰晤士小镇商业","lon":"121.2281","lat":"31.01332","category":"252","category_name":"楼宇机构","address":"乐都路339号"},{"poiid":"B2094654DB6DABF9449D","title":"快客NO.6308","lon":"121.22132","lat":"31.01478","category":"117","category_name":"便民商店/便利店","address":"西林北路886"},{"poiid":"B2094757D065A1F5419A","title":"西林小区","lon":"121.22022","lat":"31.012518","category":"47","category_name":"住宅区","address":"上海乐都路411弄"},{"poiid":"B2094655D268A5F4469B","title":"上海电视大学松江分校校区(西门)","lon":"121.22179","lat":"31.01258","category":"52","category_name":"高等院校","address":"西林北路420"},{"poiid":"B2094654DB6EA1FA449A","title":"好德(乐都路)","lon":"121.22112","lat":"31.0136","category":"117","category_name":"便民商店/便利店","address":"乐都路404、406-1识别"},{"poiid":"B2094654DB6DABF9419E","title":"笠泽酒家","lon":"121.224792054","lat":"31.014058793","category":"76","category_name":"上海菜","address":"松江区乐都路360号(云间大厦西侧)"},{"poiid":"B2094655D268A7FA439E","title":"城管大楼","lon":"121.21752","lat":"31.01391","category":"46","category_name":"楼宇","address":"乐都路490号"},{"poiid":"B2094752D46DA7FC4393","title":"松江大学城","lon":"121.22375","lat":"31.015","category":"500","category_name":"未知分类","address":null},{"poiid":"B2094655D36DA1FB4692","title":"西林北路中山二路","lon":"121.22152","lat":"31.01266","category":"38","category_name":"公交车站","address":""},{"poiid":"B2094654DB6EA0FE439A","title":"福建沙县小吃(西林北路)","lon":"121.22079","lat":"31.0151","category":"68","category_name":"快餐厅","address":"西林北路909"},{"poiid":"B2094757D66DA3FD439F","title":"徐公馆","lon":"121.22121146","lat":"31.015823187","category":"247","category_name":"餐饮美食","address":"上海市松江区荣乐中路"},{"poiid":"B2094757D16BA4FB449E","title":"上海海運學校","lon":"121.22242156","lat":"31.015362277","category":"500","category_name":"未知分类","address":"上海市松江區西林北路420號"},{"poiid":"B2094654DB6DABF9479C","title":"上海市农业广播电视学校松江分校","lon":"121.22287","lat":"31.01215","category":"52","category_name":"高等院校","address":"松江区西林北路420"},{"poiid":"B2094654DB6EA1FA459F","title":"上海余天成药业连锁有限公司","lon":"121.22018","lat":"31.01355","category":"162","category_name":"医院","address":"乐都路440-442"},{"poiid":"B2094655D268A0FA4592","title":"妙味鸡煲松江店(松江·人民北路)","lon":"121.22636","lat":"31.01642","category":"257","category_name":"中餐厅","address":"松江区人民北路361号"},{"poiid":"B2094757D064A5FD419F","title":"招商银行(松江支行)","lon":"121.227870313","lat":"31.0121534678","category":"150","category_name":"银行","address":"松江区人民北路92-98号(近乐都路)"},{"poiid":"B2094654DB6DABF8479F","title":"云间大厦","lon":"121.22669","lat":"31.01405","category":"46","category_name":"楼宇","address":"乐都路358"},{"poiid":"B2094654DB6EA1FD4693","title":"民乐学校","lon":"121.22531","lat":"31.01847","category":"54","category_name":"职业技术学校","address":"松江区人民北路439号"},{"poiid":"B2094655D26FAAFB459E","title":"荣乐新村(南边门)","lon":"121.2262","lat":"31.01374","category":"47","category_name":"住宅区","address":""},{"poiid":"B2094654DB6DABF94792","title":"上海松江区新城进修学校","lon":"121.22287","lat":"31.01215","category":"53","category_name":"成人教育","address":"上海松江区西林北路420号"},{"poiid":"B2094654DB6DABF9449F","title":"荣乐小区(西门)","lon":"121.22145","lat":"31.01479","category":"656","category_name":"大门","address":"西林北路890"},{"poiid":"B2094757D16DA7F44999","title":"浦东发展银行松江支行","lon":"121.224952","lat":"31.013707","category":"500","category_name":"未知分类","address":"上海松江乐都路"},{"poiid":"B2094757D06AAAF94298","title":"摸错门牛肚王","lon":"121.22795","lat":"31.01233","category":"86","category_name":"火锅店","address":"松江区人民北路110号"},{"poiid":"B2094757D06AA4F8499E","title":"松乐南苑","lon":"121.21963","lat":"31.01474","category":"47","category_name":"住宅区","address":"上海松江区西林北路889弄"},{"poiid":"B2094654DB6DAAFF409B","title":"永乐家电生活电器卖场松江店","lon":"121.22733","lat":"31.01526","category":"138","category_name":"家电电子卖场","address":"人民北路招商市场底楼"},{"poiid":"B2094654DB6EA0FE4292","title":"绿舟苑","lon":"121.22019","lat":"31.01637","category":"196","category_name":"公园","address":"松江镇"},{"poiid":"B2094750D164A4F4429E","title":"上海松江城区星程美司豪酒店","lon":"121.221563115939","lat":"31.0112520904167","category":"216","category_name":"经济型连锁酒店","address":"松江区西林北路355号(近松江大学城)"},{"poiid":"B2094654DB64A0FD4298","title":"民乐小区(南一号门)","lon":"121.22474","lat":"31.01703","category":"47","category_name":"住宅区","address":""},{"poiid":"B2094757D164A7F54399","title":"酷味乐餐厅 人民北店 COOL","lon":"121.22758","lat":"31.01336","category":"68","category_name":"快餐厅","address":"松江区人民北路88号(近乐都路)"},{"poiid":"B2094654DB6DAAFF4198","title":"九峰小区","lon":"121.22921","lat":"31.015453","category":"47","category_name":"住宅区","address":"人民中路880弄"},{"poiid":"B2094655D36DA7FE4193","title":"招商市场(招呼站)","lon":"121.22708","lat":"31.01508","category":"38","category_name":"公交车站","address":""},{"poiid":"B2094654DB6DABF8479B","title":"惠鑫百货","lon":"121.22695","lat":"31.01381","category":"119","category_name":"商场","address":"乐都路348"}]