[{"poiid":"B2094654DA6BA1F54193","title":"东方绿舟","lon":"121.01279","lat":"31.10787","category":"240","category_name":"国家级景点","address":"青浦区沪青平公路6888号"},{"poiid":"B2094757D06BA1FC409E","title":"东方绿洲水上运动中心","lon":"121.00769854","lat":"31.11052649","category":"500","category_name":"未知分类","address":"上海市青浦区盈朱路"},{"poiid":"B2094757D66FA6FB409C","title":"东方绿舟体育训练基地","lon":"121.018679","lat":"31.099144","category":"260","category_name":"其他","address":"青浦区沪青平公路7000号东方绿舟内"},{"poiid":"B2094654DA6BA1F54192","title":"上海机场培训中心(虹珠苑)","lon":"121.03344","lat":"31.1057","category":"190","category_name":"培训机构","address":""},{"poiid":"B2094757D569A1FB4592","title":"东方绿舟烧烤园","lon":"121.0135489","lat":"31.10774806","category":"269","category_name":"烧烤","address":"青浦区沪青平公路7000号东方绿舟内"},{"poiid":"B2094654DA6BA1F5419D","title":"绿舟别墅","lon":"121.02385552261","lat":"31.104551874875","category":"47","category_name":"住宅区","address":"沪青平公路6888号"},{"poiid":"B2094654DA6BA1F44993","title":"上海国际高尔夫球乡村俱乐部","lon":"121.01869","lat":"31.12475","category":"206","category_name":"高尔夫相关","address":"青浦区朱家角绿湖路961号(东方绿舟朱家角)"},{"poiid":"B2094757D06BA5FC469B","title":"东方绿舟度假村餐厅","lon":"121.01305","lat":"31.1076","category":"76","category_name":"上海菜","address":"上海近郊青浦沪青平公路6888号东方绿舟3号门至5号门  "},{"poiid":"B2094757D168A6FA419D","title":"东方绿舟体育训练基地招待所(红房子)","lon":"121.01748444","lat":"31.111529013","category":"500","category_name":"未知分类","address":"上海市青浦区盈朱路289号"},{"poiid":"B2094757D069A0FB4899","title":"快乐饭店","lon":"121.03141","lat":"31.10114","category":"76","category_name":"上海菜","address":"青浦区沪青平公路6666号(近东方绿洲)"},{"poiid":"B2094757D16DA6F5429A","title":"百福来饭店","lon":"121.02188251","lat":"31.124660985","category":"257","category_name":"中餐厅","address":"上海国际高尔夫球场正门口"},{"poiid":"B2094757D06FAAFC4599","title":"水上运动中心","lon":"121.01121521","lat":"31.100889205","category":"220","category_name":"运动场所","address":"上海东方绿舟旁"},{"poiid":"B2094655D264A6F4469D","title":"上海水上运动场","lon":"121.01228","lat":"31.11145","category":"220","category_name":"运动场所","address":"青浦区东方绿洲"},{"poiid":"B2094750D164A2F8469B","title":"上海东方绿舟别墅酒店","lon":"121.01431901731","lat":"31.105214276406","category":"215","category_name":"三星级宾馆","address":"绿湖路258弄1号(近318国道)"},{"poiid":"B2094654DB6AA3FC409C","title":"风帆餐厅","lon":"121.01354","lat":"31.10774","category":"268","category_name":"自助","address":"青浦区沪青平公路7000号东方绿舟内"},{"poiid":"B2094757D66CA6FE479B","title":"海上湾","lon":"121.01608299","lat":"31.108173188","category":"500","category_name":"未知分类","address":"上海朱家角"},{"poiid":"B2094757D16BAAF5499A","title":"泰安公寓","lon":"121.03448","lat":"31.127426","category":"47","category_name":"住宅区","address":"石家浜路150弄"},{"poiid":"B2094757D168A4F4489C","title":"上海机场活动中心","lon":"121.02843582","lat":"31.107483013","category":"46","category_name":"楼宇","address":"上海青浦区沪青平公路"},{"poiid":"B2094750DA6AAAFB4593","title":"上海市青浦区东方绿洲训练基地田径场","lon":"121.014099","lat":"31.107196","category":"500","category_name":"未知分类","address":null},{"poiid":"B2094751D564A2FE4093","title":"中国民航上海区域管制中心","lon":"121.021328","lat":"31.107679","category":"252","category_name":"楼宇机构","address":null},{"poiid":"B2094757D169A5F94598","title":"上海图书馆二楼报告厅","lon":"121.00646441","lat":"31.113843516","category":"181","category_name":"图书馆","address":"上海淮海中路1555号"},{"poiid":"B2094757D66CAAFA4799","title":"红心闪闪农家菜","lon":"121.02091654","lat":"31.098394222","category":"247","category_name":"餐饮美食","address":"上海青浦区东方绿洲中心对面"},{"poiid":"B2094752D36AA1FF4998","title":"淀山湖畔","lon":"121.009399","lat":"31.106583","category":"500","category_name":"未知分类","address":null},{"poiid":"B2094655D36CA0FF4293","title":"金家桥","lon":"121.02784","lat":"31.09937","category":"38","category_name":"公交车站","address":""}]