[{"poiid":"B2094654DB64A3FC409D","title":"福朋喜来登由由酒店","lon":"121.51699","lat":"31.20981","category":"214","category_name":"四星级宾馆","address":"浦东新区浦东南路2111号(近浦建路)"},{"poiid":"B2094757D06FA2FC4993","title":"塘桥","lon":"121.51654052","lat":"31.21005249","category":"260","category_name":"其他","address":"塘桥路551识别"},{"poiid":"B2094757D06FA3FA4799","title":"麦当劳(塘桥店)","lon":"121.51674","lat":"31.2101","category":"68","category_name":"快餐厅","address":"浦东新区浦东南路2100号(浦建路塘桥新路)"},{"poiid":"B209475CD564A7F84392","title":"上海滩浦东香格里拉店","lon":"121.50058","lat":"31.23634","category":"119","category_name":"商场","address":"浦东富成路33号香格里拉酒店内大堂层"},{"poiid":"B2094757D068A3FD4198","title":"浦东大酒店","lon":"121.5177363","lat":"31.215603318","category":"217","category_name":"旅馆招待所","address":"上海浦东南路1888号"},{"poiid":"B2094757D06FA2FA449A","title":"感智盲人保健会所(浦东南路店)","lon":"121.516704631","lat":"31.2098654502","category":"149","category_name":"洗浴推拿场所","address":"浦东新区浦东南路2100号B1楼(近浦建路)"},{"poiid":"B2094757D06FABFF4392","title":"四季亭(塘桥店)","lon":"121.51673","lat":"31.21006","category":"95","category_name":"日本料理","address":"浦东新区塘桥新路200号(近浦东南路)"},{"poiid":"B2094752D269A1FE439F","title":"满记甜品","lon":"121.51564","lat":"31.210876","category":"247","category_name":"餐饮美食","address":"浦建路巴黎春天"},{"poiid":"B2094654DB64A3FE429F","title":"锦江之星(陆家嘴店)","lon":"121.51617","lat":"31.21726","category":"216","category_name":"经济型连锁酒店","address":"上海市浦东新区浦电路57号(近浦城路)"},{"poiid":"B2094757D068A0F8479B","title":"江村寨子韩国料理 浦东南路店","lon":"121.51854949869","lat":"31.213659813051","category":"96","category_name":"韩国料理","address":"浦东新区浦东南路1960号(近峨山路)"},{"poiid":"B2094757D068A3F4409D","title":"中国工商银行(浦东分行)","lon":"121.51838","lat":"31.21171","category":"150","category_name":"银行","address":"上海浦东新区浦东南路2024号宁阳路口  "},{"poiid":"B2094654DB65A0F8479D","title":"莫泰168连锁旅店(浦东南路店)","lon":"121.5186","lat":"31.21701","category":"216","category_name":"经济型连锁酒店","address":"上海市浦东新区浦东南路1758号（近北张家浜路）"},{"poiid":"B2094655D26DAAF5429C","title":"格林豪泰酒店","lon":"121.51804","lat":"31.21107","category":"216","category_name":"经济型连锁酒店","address":"上海市浦东新区浦建路1号（近浦东南路）"},{"poiid":"B2094655D26BA2F5449C","title":"浦东南路宁阳路","lon":"121.51847","lat":"31.21265","category":"38","category_name":"公交车站","address":""},{"poiid":"B2094654DA69A6FF489D","title":"由由大酒店","lon":"121.51718","lat":"31.21002","category":"76","category_name":"上海菜","address":"上海市浦东新区浦东南路2111号（近浦建路）"},{"poiid":"B2094750DA65A3FE4299","title":"外婆小菜","lon":"121.51893","lat":"31.21288","category":"76","category_name":"上海菜","address":"浦东新区蓝村路514号(近南泉路)"},{"poiid":"B2094750D665A0FB459B","title":"天天晓私房菜(浦东店)","lon":"121.518","lat":"31.214","category":"76","category_name":"上海菜","address":"浦东新区浦东南路1948号(近峨山路)"},{"poiid":"B2094654DA69A6F54799","title":"爱家·东旅大厦","lon":"121.51913","lat":"31.21537","category":"46","category_name":"楼宇","address":"南开滨海高新技术产业开发区华苑产业区兰苑路2号西侧(海泰大厦对面)"},{"poiid":"B2094757D168ABFC439A","title":"家化滨江苑","lon":"121.51449","lat":"31.21438","category":"47","category_name":"住宅区","address":"上海市浦东新区浦明路1188弄"},{"poiid":"B2094753D56AA0F94399","title":"小黑裙-法式西點La Petite Robe Noire","lon":"121.514472","lat":"31.214263","category":"247","category_name":"餐饮美食","address":"外馬路601號沃弗3號庫105"},{"poiid":"B2094654DA69ABF4439C","title":"上海市黄浦区精神卫生分中心","lon":"121.51716","lat":"31.2164","category":"162","category_name":"医院","address":"张家浜路39弄5"},{"poiid":"B2094654DA69ABF44193","title":"世茂滨江花园(南边门)","lon":"121.51452","lat":"31.21726","category":"47","category_name":"住宅区","address":""},{"poiid":"B2094654DA69ABF44199","title":"滨江大楼","lon":"121.51524","lat":"31.216516","category":"47","category_name":"住宅区","address":"浦电路29弄1-35号"},{"poiid":"B2094655D265A0FA429C","title":"浦东潍坊开业园区","lon":"121.51707","lat":"31.21565","category":"46","category_name":"楼宇","address":"张家浜路37弄4"},{"poiid":"B2094654DA69ABF4449C","title":"又来亭","lon":"121.5188209973","lat":"31.217899894236","category":"96","category_name":"韩国料理","address":"浦东新区浦东南路1818号(浦电路峨山路间)"},{"poiid":"B2094655D36CA3FD4593","title":"浦江映象","lon":"121.52018","lat":"31.214096","category":"47","category_name":"住宅区","address":"上海市浦东新区峨山路679号"},{"poiid":"B209475DD56CA1FC4899","title":"西塘古镇","lon":"121.516632","lat":"31.216506","category":"250","category_name":"公园户外","address":"上海市 浙江省嘉兴市嘉善县西塘"},{"poiid":"B2094655D26FA6F94399","title":"香园(浦明路)","lon":"121.51418","lat":"31.21349","category":"47","category_name":"住宅区","address":"上海浦明路1188弄-1228弄"},{"poiid":"B2094757D069A6FE439B","title":"组合发型(浦东南路店)","lon":"121.51845","lat":"31.21274","category":"148","category_name":"美容美发店","address":"浦东新区浦东南路2002号(近宁阳路)"},{"poiid":"B2094654DA69ABF44393","title":"光明乳业浦城配送站","lon":"121.51762","lat":"31.21523","category":"117","category_name":"便民商店/便利店","address":""},{"poiid":"B2094757D06AA0FD4499","title":"宁阳小区","lon":"121.51601","lat":"31.212202","category":"47","category_name":"住宅区","address":"上海华安路24弄"},{"poiid":"B2094757D06FA6FB419B","title":"中国电信上海研究院","lon":"121.519426","lat":"31.216302","category":"500","category_name":"未知分类","address":"上海浦东南路1835号"},{"poiid":"B2094757D06BA6FC489A","title":"飞奔疯人院","lon":"121.517381738","lat":"31.2173150249","category":"500","category_name":"未知分类","address":"上海市浦东新区浦城路浦电路"},{"poiid":"B2094757D66EA0FD4293","title":"家化滨江苑会所","lon":"121.51391433","lat":"31.21477567","category":"500","category_name":"未知分类","address":"上海浦明路1188号"},{"poiid":"B2094757D06BA3FF4099","title":"仲元堂","lon":"121.516952738","lat":"31.2104578788","category":"500","category_name":"未知分类","address":"浦东南路2100号上尚商厦2楼"},{"poiid":"B2094654DA69A6F5469D","title":"嘉德公寓","lon":"121.5196","lat":"31.215782","category":"47","category_name":"住宅区","address":"上海市浦东新区北张家浜路30号"},{"poiid":"B2094655D26EA6FB4898","title":"浦东大酒店餐厅","lon":"121.51847","lat":"31.21527","category":"257","category_name":"中餐厅","address":"浦东新区浦东南路1888号"},{"poiid":"B2094757D16EA3FC439D","title":"东川造型(塘桥)","lon":"121.51738873","lat":"31.21241292","category":"148","category_name":"美容美发店","address":"浦东新区浦东南路1964号(近宁阳路)"},{"poiid":"B2094757D66EA5FF419C","title":"博硕创意园","lon":"121.517998738","lat":"31.2126896264","category":"46","category_name":"楼宇","address":"上海浦东新区峨山路633号"},{"poiid":"B2094757D66EA0FE4799","title":"避风塘(莘庄龙之梦店)","lon":"121.514908938","lat":"31.2150496766","category":"500","category_name":"未知分类","address":"上海闵行区沪闵路6088号莘庄凯德龙之梦3F"},{"poiid":"B2094654DA69ABF4409A","title":"众盛公寓","lon":"121.51619","lat":"31.216702","category":"47","category_name":"住宅区","address":"浦电路53弄5-16号"},{"poiid":"B2094750D76CABF54799","title":"招财金煲","lon":"121.518","lat":"31.2183","category":"71","category_name":"四川菜","address":"浦东新区浦电路68号(近浦东南路)"},{"poiid":"B2094757D568ABF9499C","title":"新苗幼儿园","lon":"121.51491645","lat":"31.21655328","category":"57","category_name":"幼儿园","address":"浦电路29弄9"},{"poiid":"B2094757D06BA5F5439A","title":"蓝村路南泉路","lon":"121.515563924","lat":"31.2126956551","category":"500","category_name":"未知分类","address":"上海蓝村路南泉路路口"},{"poiid":"B2094757DA6FA2FD439B","title":"新亚大包(浦电路店)","lon":"121.516269999999","lat":"31.2172890000001","category":"68","category_name":"快餐厅","address":"浦东新区浦电路57号(近浦城路)"},{"poiid":"B2094654DA69ABFF429D","title":"老同盛商务中心","lon":"121.51828","lat":"31.21333","category":"46","category_name":"楼宇","address":"浦东南路1948"},{"poiid":"B2094654DA69ABF44499","title":"国国音乐茶室","lon":"121.51824","lat":"31.21631","category":"66","category_name":"茶艺馆","address":"浦东南路1860号"},{"poiid":"B2094654DA69A5FF489D","title":"上海市萌芽实验中学","lon":"121.51936","lat":"31.21139","category":"55","category_name":"中学","address":"上海浦东新区塘桥路445号(近徐家弄路)"},{"poiid":"B2094654DA69ABFF439B","title":"罗森(浦东南路)","lon":"121.51826","lat":"31.21316","category":"117","category_name":"便民商店/便利店","address":"浦东南路1950"},{"poiid":"B2094757D064A5FC499B","title":"浦电路29弄","lon":"121.515247","lat":"31.216516","category":"252","category_name":"楼宇机构","address":"上海我住这!!!"},{"poiid":"B2094654DB64A3FC409D","title":"福朋喜来登由由酒店","lon":"121.51699","lat":"31.20981","category":"214","category_name":"四星级宾馆","address":"浦东新区浦东南路2111号(近浦建路)"},{"poiid":"B2094757D06FA2FC4993","title":"塘桥","lon":"121.51654052","lat":"31.21005249","category":"260","category_name":"其他","address":"塘桥路551识别"},{"poiid":"B2094757D06FA3FA4799","title":"麦当劳(塘桥店)","lon":"121.51674","lat":"31.2101","category":"68","category_name":"快餐厅","address":"浦东新区浦东南路2100号(浦建路塘桥新路)"},{"poiid":"B209475CD564A7F84392","title":"上海滩浦东香格里拉店","lon":"121.50058","lat":"31.23634","category":"119","category_name":"商场","address":"浦东富成路33号香格里拉酒店内大堂层"},{"poiid":"B2094757D068A3FD4198","title":"浦东大酒店","lon":"121.5177363","lat":"31.215603318","category":"217","category_name":"旅馆招待所","address":"上海浦东南路1888号"},{"poiid":"B2094757D06FA2FA449A","title":"感智盲人保健会所(浦东南路店)","lon":"121.516704631","lat":"31.2098654502","category":"149","category_name":"洗浴推拿场所","address":"浦东新区浦东南路2100号B1楼(近浦建路)"},{"poiid":"B2094757D06FABFF4392","title":"四季亭(塘桥店)","lon":"121.51673","lat":"31.21006","category":"95","category_name":"日本料理","address":"浦东新区塘桥新路200号(近浦东南路)"},{"poiid":"B2094752D269A1FE439F","title":"满记甜品","lon":"121.51564","lat":"31.210876","category":"247","category_name":"餐饮美食","address":"浦建路巴黎春天"},{"poiid":"B2094654DB64A3FE429F","title":"锦江之星(陆家嘴店)","lon":"121.51617","lat":"31.21726","category":"216","category_name":"经济型连锁酒店","address":"上海市浦东新区浦电路57号(近浦城路)"},{"poiid":"B2094757D068A0F8479B","title":"江村寨子韩国料理 浦东南路店","lon":"121.51854949869","lat":"31.213659813051","category":"96","category_name":"韩国料理","address":"浦东新区浦东南路1960号(近峨山路)"},{"poiid":"B2094757D068A3F4409D","title":"中国工商银行(浦东分行)","lon":"121.51838","lat":"31.21171","category":"150","category_name":"银行","address":"上海浦东新区浦东南路2024号宁阳路口  "},{"poiid":"B2094654DB65A0F8479D","title":"莫泰168连锁旅店(浦东南路店)","lon":"121.5186","lat":"31.21701","category":"216","category_name":"经济型连锁酒店","address":"上海市浦东新区浦东南路1758号（近北张家浜路）"},{"poiid":"B2094655D26DAAF5429C","title":"格林豪泰酒店","lon":"121.51804","lat":"31.21107","category":"216","category_name":"经济型连锁酒店","address":"上海市浦东新区浦建路1号（近浦东南路）"},{"poiid":"B2094655D26BA2F5449C","title":"浦东南路宁阳路","lon":"121.51847","lat":"31.21265","category":"38","category_name":"公交车站","address":""},{"poiid":"B2094654DA69A6FF489D","title":"由由大酒店","lon":"121.51718","lat":"31.21002","category":"76","category_name":"上海菜","address":"上海市浦东新区浦东南路2111号（近浦建路）"},{"poiid":"B2094750DA65A3FE4299","title":"外婆小菜","lon":"121.51893","lat":"31.21288","category":"76","category_name":"上海菜","address":"浦东新区蓝村路514号(近南泉路)"},{"poiid":"B2094750D665A0FB459B","title":"天天晓私房菜(浦东店)","lon":"121.518","lat":"31.214","category":"76","category_name":"上海菜","address":"浦东新区浦东南路1948号(近峨山路)"},{"poiid":"B2094654DA69A6F54799","title":"爱家·东旅大厦","lon":"121.51913","lat":"31.21537","category":"46","category_name":"楼宇","address":"南开滨海高新技术产业开发区华苑产业区兰苑路2号西侧(海泰大厦对面)"},{"poiid":"B2094757D168ABFC439A","title":"家化滨江苑","lon":"121.51449","lat":"31.21438","category":"47","category_name":"住宅区","address":"上海市浦东新区浦明路1188弄"},{"poiid":"B2094753D56AA0F94399","title":"小黑裙-法式西點La Petite Robe Noire","lon":"121.514472","lat":"31.214263","category":"247","category_name":"餐饮美食","address":"外馬路601號沃弗3號庫105"},{"poiid":"B2094654DA69ABF4439C","title":"上海市黄浦区精神卫生分中心","lon":"121.51716","lat":"31.2164","category":"162","category_name":"医院","address":"张家浜路39弄5"},{"poiid":"B2094654DA69ABF44193","title":"世茂滨江花园(南边门)","lon":"121.51452","lat":"31.21726","category":"47","category_name":"住宅区","address":""},{"poiid":"B2094654DA69ABF44199","title":"滨江大楼","lon":"121.51524","lat":"31.216516","category":"47","category_name":"住宅区","address":"浦电路29弄1-35号"},{"poiid":"B2094655D265A0FA429C","title":"浦东潍坊开业园区","lon":"121.51707","lat":"31.21565","category":"46","category_name":"楼宇","address":"张家浜路37弄4"},{"poiid":"B2094654DA69ABF4449C","title":"又来亭","lon":"121.5188209973","lat":"31.217899894236","category":"96","category_name":"韩国料理","address":"浦东新区浦东南路1818号(浦电路峨山路间)"},{"poiid":"B2094655D36CA3FD4593","title":"浦江映象","lon":"121.52018","lat":"31.214096","category":"47","category_name":"住宅区","address":"上海市浦东新区峨山路679号"},{"poiid":"B209475DD56CA1FC4899","title":"西塘古镇","lon":"121.516632","lat":"31.216506","category":"250","category_name":"公园户外","address":"上海市 浙江省嘉兴市嘉善县西塘"},{"poiid":"B2094655D26FA6F94399","title":"香园(浦明路)","lon":"121.51418","lat":"31.21349","category":"47","category_name":"住宅区","address":"上海浦明路1188弄-1228弄"},{"poiid":"B2094757D069A6FE439B","title":"组合发型(浦东南路店)","lon":"121.51845","lat":"31.21274","category":"148","category_name":"美容美发店","address":"浦东新区浦东南路2002号(近宁阳路)"},{"poiid":"B2094654DA69ABF44393","title":"光明乳业浦城配送站","lon":"121.51762","lat":"31.21523","category":"117","category_name":"便民商店/便利店","address":""},{"poiid":"B2094757D06AA0FD4499","title":"宁阳小区","lon":"121.51601","lat":"31.212202","category":"47","category_name":"住宅区","address":"上海华安路24弄"},{"poiid":"B2094757D06FA6FB419B","title":"中国电信上海研究院","lon":"121.519426","lat":"31.216302","category":"500","category_name":"未知分类","address":"上海浦东南路1835号"},{"poiid":"B2094757D06BA6FC489A","title":"飞奔疯人院","lon":"121.517381738","lat":"31.2173150249","category":"500","category_name":"未知分类","address":"上海市浦东新区浦城路浦电路"},{"poiid":"B2094757D66EA0FD4293","title":"家化滨江苑会所","lon":"121.51391433","lat":"31.21477567","category":"500","category_name":"未知分类","address":"上海浦明路1188号"},{"poiid":"B2094757D06BA3FF4099","title":"仲元堂","lon":"121.516952738","lat":"31.2104578788","category":"500","category_name":"未知分类","address":"浦东南路2100号上尚商厦2楼"},{"poiid":"B2094654DA69A6F5469D","title":"嘉德公寓","lon":"121.5196","lat":"31.215782","category":"47","category_name":"住宅区","address":"上海市浦东新区北张家浜路30号"},{"poiid":"B2094655D26EA6FB4898","title":"浦东大酒店餐厅","lon":"121.51847","lat":"31.21527","category":"257","category_name":"中餐厅","address":"浦东新区浦东南路1888号"},{"poiid":"B2094757D16EA3FC439D","title":"东川造型(塘桥)","lon":"121.51738873","lat":"31.21241292","category":"148","category_name":"美容美发店","address":"浦东新区浦东南路1964号(近宁阳路)"},{"poiid":"B2094757D66EA5FF419C","title":"博硕创意园","lon":"121.517998738","lat":"31.2126896264","category":"46","category_name":"楼宇","address":"上海浦东新区峨山路633号"},{"poiid":"B2094757D66EA0FE4799","title":"避风塘(莘庄龙之梦店)","lon":"121.514908938","lat":"31.2150496766","category":"500","category_name":"未知分类","address":"上海闵行区沪闵路6088号莘庄凯德龙之梦3F"},{"poiid":"B2094654DA69ABF4409A","title":"众盛公寓","lon":"121.51619","lat":"31.216702","category":"47","category_name":"住宅区","address":"浦电路53弄5-16号"},{"poiid":"B2094750D76CABF54799","title":"招财金煲","lon":"121.518","lat":"31.2183","category":"71","category_name":"四川菜","address":"浦东新区浦电路68号(近浦东南路)"},{"poiid":"B2094757D568ABF9499C","title":"新苗幼儿园","lon":"121.51491645","lat":"31.21655328","category":"57","category_name":"幼儿园","address":"浦电路29弄9"},{"poiid":"B2094757D06BA5F5439A","title":"蓝村路南泉路","lon":"121.515563924","lat":"31.2126956551","category":"500","category_name":"未知分类","address":"上海蓝村路南泉路路口"},{"poiid":"B2094757DA6FA2FD439B","title":"新亚大包(浦电路店)","lon":"121.516269999999","lat":"31.2172890000001","category":"68","category_name":"快餐厅","address":"浦东新区浦电路57号(近浦城路)"},{"poiid":"B2094654DA69ABFF429D","title":"老同盛商务中心","lon":"121.51828","lat":"31.21333","category":"46","category_name":"楼宇","address":"浦东南路1948"},{"poiid":"B2094654DA69ABF44499","title":"国国音乐茶室","lon":"121.51824","lat":"31.21631","category":"66","category_name":"茶艺馆","address":"浦东南路1860号"},{"poiid":"B2094654DA69A5FF489D","title":"上海市萌芽实验中学","lon":"121.51936","lat":"31.21139","category":"55","category_name":"中学","address":"上海浦东新区塘桥路445号(近徐家弄路)"},{"poiid":"B2094654DA69ABFF439B","title":"罗森(浦东南路)","lon":"121.51826","lat":"31.21316","category":"117","category_name":"便民商店/便利店","address":"浦东南路1950"},{"poiid":"B2094757D064A5FC499B","title":"浦电路29弄","lon":"121.515247","lat":"31.216516","category":"252","category_name":"楼宇机构","address":"上海我住这!!!"},{"poiid":"B2094654DB64A3FC409D","title":"福朋喜来登由由酒店","lon":"121.51699","lat":"31.20981","category":"214","category_name":"四星级宾馆","address":"浦东新区浦东南路2111号(近浦建路)"},{"poiid":"B2094757D06FA2FC4993","title":"塘桥","lon":"121.51654052","lat":"31.21005249","category":"260","category_name":"其他","address":"塘桥路551识别"},{"poiid":"B2094757D06FA3FA4799","title":"麦当劳(塘桥店)","lon":"121.51674","lat":"31.2101","category":"68","category_name":"快餐厅","address":"浦东新区浦东南路2100号(浦建路塘桥新路)"},{"poiid":"B209475CD564A7F84392","title":"上海滩浦东香格里拉店","lon":"121.50058","lat":"31.23634","category":"119","category_name":"商场","address":"浦东富成路33号香格里拉酒店内大堂层"},{"poiid":"B2094757D068A3FD4198","title":"浦东大酒店","lon":"121.5177363","lat":"31.215603318","category":"217","category_name":"旅馆招待所","address":"上海浦东南路1888号"},{"poiid":"B2094757D06FA2FA449A","title":"感智盲人保健会所(浦东南路店)","lon":"121.516704631","lat":"31.2098654502","category":"149","category_name":"洗浴推拿场所","address":"浦东新区浦东南路2100号B1楼(近浦建路)"},{"poiid":"B2094757D06FABFF4392","title":"四季亭(塘桥店)","lon":"121.51673","lat":"31.21006","category":"95","category_name":"日本料理","address":"浦东新区塘桥新路200号(近浦东南路)"},{"poiid":"B2094752D269A1FE439F","title":"满记甜品","lon":"121.51564","lat":"31.210876","category":"247","category_name":"餐饮美食","address":"浦建路巴黎春天"},{"poiid":"B2094654DB64A3FE429F","title":"锦江之星(陆家嘴店)","lon":"121.51617","lat":"31.21726","category":"216","category_name":"经济型连锁酒店","address":"上海市浦东新区浦电路57号(近浦城路)"},{"poiid":"B2094757D068A0F8479B","title":"江村寨子韩国料理 浦东南路店","lon":"121.51854949869","lat":"31.213659813051","category":"96","category_name":"韩国料理","address":"浦东新区浦东南路1960号(近峨山路)"},{"poiid":"B2094757D068A3F4409D","title":"中国工商银行(浦东分行)","lon":"121.51838","lat":"31.21171","category":"150","category_name":"银行","address":"上海浦东新区浦东南路2024号宁阳路口  "},{"poiid":"B2094654DB65A0F8479D","title":"莫泰168连锁旅店(浦东南路店)","lon":"121.5186","lat":"31.21701","category":"216","category_name":"经济型连锁酒店","address":"上海市浦东新区浦东南路1758号（近北张家浜路）"},{"poiid":"B2094655D26DAAF5429C","title":"格林豪泰酒店","lon":"121.51804","lat":"31.21107","category":"216","category_name":"经济型连锁酒店","address":"上海市浦东新区浦建路1号（近浦东南路）"},{"poiid":"B2094655D26BA2F5449C","title":"浦东南路宁阳路","lon":"121.51847","lat":"31.21265","category":"38","category_name":"公交车站","address":""},{"poiid":"B2094654DA69A6FF489D","title":"由由大酒店","lon":"121.51718","lat":"31.21002","category":"76","category_name":"上海菜","address":"上海市浦东新区浦东南路2111号（近浦建路）"},{"poiid":"B2094750DA65A3FE4299","title":"外婆小菜","lon":"121.51893","lat":"31.21288","category":"76","category_name":"上海菜","address":"浦东新区蓝村路514号(近南泉路)"},{"poiid":"B2094750D665A0FB459B","title":"天天晓私房菜(浦东店)","lon":"121.518","lat":"31.214","category":"76","category_name":"上海菜","address":"浦东新区浦东南路1948号(近峨山路)"},{"poiid":"B2094654DA69A6F54799","title":"爱家·东旅大厦","lon":"121.51913","lat":"31.21537","category":"46","category_name":"楼宇","address":"南开滨海高新技术产业开发区华苑产业区兰苑路2号西侧(海泰大厦对面)"},{"poiid":"B2094757D168ABFC439A","title":"家化滨江苑","lon":"121.51449","lat":"31.21438","category":"47","category_name":"住宅区","address":"上海市浦东新区浦明路1188弄"},{"poiid":"B2094753D56AA0F94399","title":"小黑裙-法式西點La Petite Robe Noire","lon":"121.514472","lat":"31.214263","category":"247","category_name":"餐饮美食","address":"外馬路601號沃弗3號庫105"},{"poiid":"B2094654DA69ABF4439C","title":"上海市黄浦区精神卫生分中心","lon":"121.51716","lat":"31.2164","category":"162","category_name":"医院","address":"张家浜路39弄5"},{"poiid":"B2094654DA69ABF44193","title":"世茂滨江花园(南边门)","lon":"121.51452","lat":"31.21726","category":"47","category_name":"住宅区","address":""},{"poiid":"B2094654DA69ABF44199","title":"滨江大楼","lon":"121.51524","lat":"31.216516","category":"47","category_name":"住宅区","address":"浦电路29弄1-35号"},{"poiid":"B2094655D265A0FA429C","title":"浦东潍坊开业园区","lon":"121.51707","lat":"31.21565","category":"46","category_name":"楼宇","address":"张家浜路37弄4"},{"poiid":"B2094654DA69ABF4449C","title":"又来亭","lon":"121.5188209973","lat":"31.217899894236","category":"96","category_name":"韩国料理","address":"浦东新区浦东南路1818号(浦电路峨山路间)"},{"poiid":"B2094655D36CA3FD4593","title":"浦江映象","lon":"121.52018","lat":"31.214096","category":"47","category_name":"住宅区","address":"上海市浦东新区峨山路679号"},{"poiid":"B209475DD56CA1FC4899","title":"西塘古镇","lon":"121.516632","lat":"31.216506","category":"250","category_name":"公园户外","address":"上海市 浙江省嘉兴市嘉善县西塘"},{"poiid":"B2094655D26FA6F94399","title":"香园(浦明路)","lon":"121.51418","lat":"31.21349","category":"47","category_name":"住宅区","address":"上海浦明路1188弄-1228弄"},{"poiid":"B2094757D069A6FE439B","title":"组合发型(浦东南路店)","lon":"121.51845","lat":"31.21274","category":"148","category_name":"美容美发店","address":"浦东新区浦东南路2002号(近宁阳路)"},{"poiid":"B2094654DA69ABF44393","title":"光明乳业浦城配送站","lon":"121.51762","lat":"31.21523","category":"117","category_name":"便民商店/便利店","address":""},{"poiid":"B2094757D06AA0FD4499","title":"宁阳小区","lon":"121.51601","lat":"31.212202","category":"47","category_name":"住宅区","address":"上海华安路24弄"},{"poiid":"B2094757D06FA6FB419B","title":"中国电信上海研究院","lon":"121.519426","lat":"31.216302","category":"500","category_name":"未知分类","address":"上海浦东南路1835号"},{"poiid":"B2094757D06BA6FC489A","title":"飞奔疯人院","lon":"121.517381738","lat":"31.2173150249","category":"500","category_name":"未知分类","address":"上海市浦东新区浦城路浦电路"},{"poiid":"B2094757D66EA0FD4293","title":"家化滨江苑会所","lon":"121.51391433","lat":"31.21477567","category":"500","category_name":"未知分类","address":"上海浦明路1188号"},{"poiid":"B2094757D06BA3FF4099","title":"仲元堂","lon":"121.516952738","lat":"31.2104578788","category":"500","category_name":"未知分类","address":"浦东南路2100号上尚商厦2楼"},{"poiid":"B2094654DA69A6F5469D","title":"嘉德公寓","lon":"121.5196","lat":"31.215782","category":"47","category_name":"住宅区","address":"上海市浦东新区北张家浜路30号"},{"poiid":"B2094655D26EA6FB4898","title":"浦东大酒店餐厅","lon":"121.51847","lat":"31.21527","category":"257","category_name":"中餐厅","address":"浦东新区浦东南路1888号"},{"poiid":"B2094757D16EA3FC439D","title":"东川造型(塘桥)","lon":"121.51738873","lat":"31.21241292","category":"148","category_name":"美容美发店","address":"浦东新区浦东南路1964号(近宁阳路)"},{"poiid":"B2094757D66EA5FF419C","title":"博硕创意园","lon":"121.517998738","lat":"31.2126896264","category":"46","category_name":"楼宇","address":"上海浦东新区峨山路633号"},{"poiid":"B2094757D66EA0FE4799","title":"避风塘(莘庄龙之梦店)","lon":"121.514908938","lat":"31.2150496766","category":"500","category_name":"未知分类","address":"上海闵行区沪闵路6088号莘庄凯德龙之梦3F"},{"poiid":"B2094654DA69ABF4409A","title":"众盛公寓","lon":"121.51619","lat":"31.216702","category":"47","category_name":"住宅区","address":"浦电路53弄5-16号"},{"poiid":"B2094750D76CABF54799","title":"招财金煲","lon":"121.518","lat":"31.2183","category":"71","category_name":"四川菜","address":"浦东新区浦电路68号(近浦东南路)"},{"poiid":"B2094757D568ABF9499C","title":"新苗幼儿园","lon":"121.51491645","lat":"31.21655328","category":"57","category_name":"幼儿园","address":"浦电路29弄9"},{"poiid":"B2094757D06BA5F5439A","title":"蓝村路南泉路","lon":"121.515563924","lat":"31.2126956551","category":"500","category_name":"未知分类","address":"上海蓝村路南泉路路口"},{"poiid":"B2094757DA6FA2FD439B","title":"新亚大包(浦电路店)","lon":"121.516269999999","lat":"31.2172890000001","category":"68","category_name":"快餐厅","address":"浦东新区浦电路57号(近浦城路)"},{"poiid":"B2094654DA69ABFF429D","title":"老同盛商务中心","lon":"121.51828","lat":"31.21333","category":"46","category_name":"楼宇","address":"浦东南路1948"},{"poiid":"B2094654DA69ABF44499","title":"国国音乐茶室","lon":"121.51824","lat":"31.21631","category":"66","category_name":"茶艺馆","address":"浦东南路1860号"},{"poiid":"B2094654DA69A5FF489D","title":"上海市萌芽实验中学","lon":"121.51936","lat":"31.21139","category":"55","category_name":"中学","address":"上海浦东新区塘桥路445号(近徐家弄路)"},{"poiid":"B2094654DA69ABFF439B","title":"罗森(浦东南路)","lon":"121.51826","lat":"31.21316","category":"117","category_name":"便民商店/便利店","address":"浦东南路1950"},{"poiid":"B2094757D064A5FC499B","title":"浦电路29弄","lon":"121.515247","lat":"31.216516","category":"252","category_name":"楼宇机构","address":"上海我住这!!!"},{"poiid":"B2094654DB64A3FC409D","title":"福朋喜来登由由酒店","lon":"121.51699","lat":"31.20981","category":"214","category_name":"四星级宾馆","address":"浦东新区浦东南路2111号(近浦建路)"},{"poiid":"B2094757D06FA2FC4993","title":"塘桥","lon":"121.51654052","lat":"31.21005249","category":"260","category_name":"其他","address":"塘桥路551识别"},{"poiid":"B2094757D06FA3FA4799","title":"麦当劳(塘桥店)","lon":"121.51674","lat":"31.2101","category":"68","category_name":"快餐厅","address":"浦东新区浦东南路2100号(浦建路塘桥新路)"},{"poiid":"B209475CD564A7F84392","title":"上海滩浦东香格里拉店","lon":"121.50058","lat":"31.23634","category":"119","category_name":"商场","address":"浦东富成路33号香格里拉酒店内大堂层"},{"poiid":"B2094757D068A3FD4198","title":"浦东大酒店","lon":"121.5177363","lat":"31.215603318","category":"217","category_name":"旅馆招待所","address":"上海浦东南路1888号"},{"poiid":"B2094757D06FA2FA449A","title":"感智盲人保健会所(浦东南路店)","lon":"121.516704631","lat":"31.2098654502","category":"149","category_name":"洗浴推拿场所","address":"浦东新区浦东南路2100号B1楼(近浦建路)"},{"poiid":"B2094757D06FABFF4392","title":"四季亭(塘桥店)","lon":"121.51673","lat":"31.21006","category":"95","category_name":"日本料理","address":"浦东新区塘桥新路200号(近浦东南路)"},{"poiid":"B2094752D269A1FE439F","title":"满记甜品","lon":"121.51564","lat":"31.210876","category":"247","category_name":"餐饮美食","address":"浦建路巴黎春天"},{"poiid":"B2094654DB64A3FE429F","title":"锦江之星(陆家嘴店)","lon":"121.51617","lat":"31.21726","category":"216","category_name":"经济型连锁酒店","address":"上海市浦东新区浦电路57号(近浦城路)"},{"poiid":"B2094757D068A0F8479B","title":"江村寨子韩国料理 浦东南路店","lon":"121.51854949869","lat":"31.213659813051","category":"96","category_name":"韩国料理","address":"浦东新区浦东南路1960号(近峨山路)"},{"poiid":"B2094757D068A3F4409D","title":"中国工商银行(浦东分行)","lon":"121.51838","lat":"31.21171","category":"150","category_name":"银行","address":"上海浦东新区浦东南路2024号宁阳路口  "},{"poiid":"B2094654DB65A0F8479D","title":"莫泰168连锁旅店(浦东南路店)","lon":"121.5186","lat":"31.21701","category":"216","category_name":"经济型连锁酒店","address":"上海市浦东新区浦东南路1758号（近北张家浜路）"},{"poiid":"B2094655D26DAAF5429C","title":"格林豪泰酒店","lon":"121.51804","lat":"31.21107","category":"216","category_name":"经济型连锁酒店","address":"上海市浦东新区浦建路1号（近浦东南路）"},{"poiid":"B2094655D26BA2F5449C","title":"浦东南路宁阳路","lon":"121.51847","lat":"31.21265","category":"38","category_name":"公交车站","address":""},{"poiid":"B2094654DA69A6FF489D","title":"由由大酒店","lon":"121.51718","lat":"31.21002","category":"76","category_name":"上海菜","address":"上海市浦东新区浦东南路2111号（近浦建路）"},{"poiid":"B2094750DA65A3FE4299","title":"外婆小菜","lon":"121.51893","lat":"31.21288","category":"76","category_name":"上海菜","address":"浦东新区蓝村路514号(近南泉路)"},{"poiid":"B2094750D665A0FB459B","title":"天天晓私房菜(浦东店)","lon":"121.518","lat":"31.214","category":"76","category_name":"上海菜","address":"浦东新区浦东南路1948号(近峨山路)"},{"poiid":"B2094654DA69A6F54799","title":"爱家·东旅大厦","lon":"121.51913","lat":"31.21537","category":"46","category_name":"楼宇","address":"南开滨海高新技术产业开发区华苑产业区兰苑路2号西侧(海泰大厦对面)"},{"poiid":"B2094757D168ABFC439A","title":"家化滨江苑","lon":"121.51449","lat":"31.21438","category":"47","category_name":"住宅区","address":"上海市浦东新区浦明路1188弄"},{"poiid":"B2094753D56AA0F94399","title":"小黑裙-法式西點La Petite Robe Noire","lon":"121.514472","lat":"31.214263","category":"247","category_name":"餐饮美食","address":"外馬路601號沃弗3號庫105"},{"poiid":"B2094654DA69ABF4439C","title":"上海市黄浦区精神卫生分中心","lon":"121.51716","lat":"31.2164","category":"162","category_name":"医院","address":"张家浜路39弄5"},{"poiid":"B2094654DA69ABF44193","title":"世茂滨江花园(南边门)","lon":"121.51452","lat":"31.21726","category":"47","category_name":"住宅区","address":""},{"poiid":"B2094654DA69ABF44199","title":"滨江大楼","lon":"121.51524","lat":"31.216516","category":"47","category_name":"住宅区","address":"浦电路29弄1-35号"},{"poiid":"B2094655D265A0FA429C","title":"浦东潍坊开业园区","lon":"121.51707","lat":"31.21565","category":"46","category_name":"楼宇","address":"张家浜路37弄4"},{"poiid":"B2094654DA69ABF4449C","title":"又来亭","lon":"121.5188209973","lat":"31.217899894236","category":"96","category_name":"韩国料理","address":"浦东新区浦东南路1818号(浦电路峨山路间)"},{"poiid":"B2094655D36CA3FD4593","title":"浦江映象","lon":"121.52018","lat":"31.214096","category":"47","category_name":"住宅区","address":"上海市浦东新区峨山路679号"},{"poiid":"B209475DD56CA1FC4899","title":"西塘古镇","lon":"121.516632","lat":"31.216506","category":"250","category_name":"公园户外","address":"上海市 浙江省嘉兴市嘉善县西塘"},{"poiid":"B2094655D26FA6F94399","title":"香园(浦明路)","lon":"121.51418","lat":"31.21349","category":"47","category_name":"住宅区","address":"上海浦明路1188弄-1228弄"},{"poiid":"B2094757D069A6FE439B","title":"组合发型(浦东南路店)","lon":"121.51845","lat":"31.21274","category":"148","category_name":"美容美发店","address":"浦东新区浦东南路2002号(近宁阳路)"},{"poiid":"B2094654DA69ABF44393","title":"光明乳业浦城配送站","lon":"121.51762","lat":"31.21523","category":"117","category_name":"便民商店/便利店","address":""},{"poiid":"B2094757D06AA0FD4499","title":"宁阳小区","lon":"121.51601","lat":"31.212202","category":"47","category_name":"住宅区","address":"上海华安路24弄"},{"poiid":"B2094757D06FA6FB419B","title":"中国电信上海研究院","lon":"121.519426","lat":"31.216302","category":"500","category_name":"未知分类","address":"上海浦东南路1835号"},{"poiid":"B2094757D06BA6FC489A","title":"飞奔疯人院","lon":"121.517381738","lat":"31.2173150249","category":"500","category_name":"未知分类","address":"上海市浦东新区浦城路浦电路"},{"poiid":"B2094757D66EA0FD4293","title":"家化滨江苑会所","lon":"121.51391433","lat":"31.21477567","category":"500","category_name":"未知分类","address":"上海浦明路1188号"},{"poiid":"B2094757D06BA3FF4099","title":"仲元堂","lon":"121.516952738","lat":"31.2104578788","category":"500","category_name":"未知分类","address":"浦东南路2100号上尚商厦2楼"},{"poiid":"B2094654DA69A6F5469D","title":"嘉德公寓","lon":"121.5196","lat":"31.215782","category":"47","category_name":"住宅区","address":"上海市浦东新区北张家浜路30号"},{"poiid":"B2094655D26EA6FB4898","title":"浦东大酒店餐厅","lon":"121.51847","lat":"31.21527","category":"257","category_name":"中餐厅","address":"浦东新区浦东南路1888号"},{"poiid":"B2094757D16EA3FC439D","title":"东川造型(塘桥)","lon":"121.51738873","lat":"31.21241292","category":"148","category_name":"美容美发店","address":"浦东新区浦东南路1964号(近宁阳路)"},{"poiid":"B2094757D66EA5FF419C","title":"博硕创意园","lon":"121.517998738","lat":"31.2126896264","category":"46","category_name":"楼宇","address":"上海浦东新区峨山路633号"},{"poiid":"B2094757D66EA0FE4799","title":"避风塘(莘庄龙之梦店)","lon":"121.514908938","lat":"31.2150496766","category":"500","category_name":"未知分类","address":"上海闵行区沪闵路6088号莘庄凯德龙之梦3F"},{"poiid":"B2094654DA69ABF4409A","title":"众盛公寓","lon":"121.51619","lat":"31.216702","category":"47","category_name":"住宅区","address":"浦电路53弄5-16号"},{"poiid":"B2094750D76CABF54799","title":"招财金煲","lon":"121.518","lat":"31.2183","category":"71","category_name":"四川菜","address":"浦东新区浦电路68号(近浦东南路)"},{"poiid":"B2094757D568ABF9499C","title":"新苗幼儿园","lon":"121.51491645","lat":"31.21655328","category":"57","category_name":"幼儿园","address":"浦电路29弄9"},{"poiid":"B2094757D06BA5F5439A","title":"蓝村路南泉路","lon":"121.515563924","lat":"31.2126956551","category":"500","category_name":"未知分类","address":"上海蓝村路南泉路路口"},{"poiid":"B2094757DA6FA2FD439B","title":"新亚大包(浦电路店)","lon":"121.516269999999","lat":"31.2172890000001","category":"68","category_name":"快餐厅","address":"浦东新区浦电路57号(近浦城路)"},{"poiid":"B2094654DA69ABFF429D","title":"老同盛商务中心","lon":"121.51828","lat":"31.21333","category":"46","category_name":"楼宇","address":"浦东南路1948"},{"poiid":"B2094654DA69ABF44499","title":"国国音乐茶室","lon":"121.51824","lat":"31.21631","category":"66","category_name":"茶艺馆","address":"浦东南路1860号"},{"poiid":"B2094654DA69A5FF489D","title":"上海市萌芽实验中学","lon":"121.51936","lat":"31.21139","category":"55","category_name":"中学","address":"上海浦东新区塘桥路445号(近徐家弄路)"},{"poiid":"B2094654DA69ABFF439B","title":"罗森(浦东南路)","lon":"121.51826","lat":"31.21316","category":"117","category_name":"便民商店/便利店","address":"浦东南路1950"},{"poiid":"B2094757D064A5FC499B","title":"浦电路29弄","lon":"121.515247","lat":"31.216516","category":"252","category_name":"楼宇机构","address":"上海我住这!!!"},{"poiid":"B2094654DB64A3FC409D","title":"福朋喜来登由由酒店","lon":"121.51699","lat":"31.20981","category":"214","category_name":"四星级宾馆","address":"浦东新区浦东南路2111号(近浦建路)"},{"poiid":"B2094757D06FA2FC4993","title":"塘桥","lon":"121.51654052","lat":"31.21005249","category":"260","category_name":"其他","address":"塘桥路551识别"},{"poiid":"B2094757D06FA3FA4799","title":"麦当劳(塘桥店)","lon":"121.51674","lat":"31.2101","category":"68","category_name":"快餐厅","address":"浦东新区浦东南路2100号(浦建路塘桥新路)"},{"poiid":"B209475CD564A7F84392","title":"上海滩浦东香格里拉店","lon":"121.50058","lat":"31.23634","category":"119","category_name":"商场","address":"浦东富成路33号香格里拉酒店内大堂层"},{"poiid":"B2094757D068A3FD4198","title":"浦东大酒店","lon":"121.5177363","lat":"31.215603318","category":"217","category_name":"旅馆招待所","address":"上海浦东南路1888号"},{"poiid":"B2094757D06FA2FA449A","title":"感智盲人保健会所(浦东南路店)","lon":"121.516704631","lat":"31.2098654502","category":"149","category_name":"洗浴推拿场所","address":"浦东新区浦东南路2100号B1楼(近浦建路)"},{"poiid":"B2094757D06FABFF4392","title":"四季亭(塘桥店)","lon":"121.51673","lat":"31.21006","category":"95","category_name":"日本料理","address":"浦东新区塘桥新路200号(近浦东南路)"},{"poiid":"B2094752D269A1FE439F","title":"满记甜品","lon":"121.51564","lat":"31.210876","category":"247","category_name":"餐饮美食","address":"浦建路巴黎春天"},{"poiid":"B2094654DB64A3FE429F","title":"锦江之星(陆家嘴店)","lon":"121.51617","lat":"31.21726","category":"216","category_name":"经济型连锁酒店","address":"上海市浦东新区浦电路57号(近浦城路)"},{"poiid":"B2094757D068A0F8479B","title":"江村寨子韩国料理 浦东南路店","lon":"121.51854949869","lat":"31.213659813051","category":"96","category_name":"韩国料理","address":"浦东新区浦东南路1960号(近峨山路)"},{"poiid":"B2094757D068A3F4409D","title":"中国工商银行(浦东分行)","lon":"121.51838","lat":"31.21171","category":"150","category_name":"银行","address":"上海浦东新区浦东南路2024号宁阳路口  "},{"poiid":"B2094654DB65A0F8479D","title":"莫泰168连锁旅店(浦东南路店)","lon":"121.5186","lat":"31.21701","category":"216","category_name":"经济型连锁酒店","address":"上海市浦东新区浦东南路1758号（近北张家浜路）"},{"poiid":"B2094655D26DAAF5429C","title":"格林豪泰酒店","lon":"121.51804","lat":"31.21107","category":"216","category_name":"经济型连锁酒店","address":"上海市浦东新区浦建路1号（近浦东南路）"},{"poiid":"B2094655D26BA2F5449C","title":"浦东南路宁阳路","lon":"121.51847","lat":"31.21265","category":"38","category_name":"公交车站","address":""},{"poiid":"B2094654DA69A6FF489D","title":"由由大酒店","lon":"121.51718","lat":"31.21002","category":"76","category_name":"上海菜","address":"上海市浦东新区浦东南路2111号（近浦建路）"},{"poiid":"B2094750DA65A3FE4299","title":"外婆小菜","lon":"121.51893","lat":"31.21288","category":"76","category_name":"上海菜","address":"浦东新区蓝村路514号(近南泉路)"},{"poiid":"B2094750D665A0FB459B","title":"天天晓私房菜(浦东店)","lon":"121.518","lat":"31.214","category":"76","category_name":"上海菜","address":"浦东新区浦东南路1948号(近峨山路)"},{"poiid":"B2094654DA69A6F54799","title":"爱家·东旅大厦","lon":"121.51913","lat":"31.21537","category":"46","category_name":"楼宇","address":"南开滨海高新技术产业开发区华苑产业区兰苑路2号西侧(海泰大厦对面)"},{"poiid":"B2094757D168ABFC439A","title":"家化滨江苑","lon":"121.51449","lat":"31.21438","category":"47","category_name":"住宅区","address":"上海市浦东新区浦明路1188弄"},{"poiid":"B2094753D56AA0F94399","title":"小黑裙-法式西點La Petite Robe Noire","lon":"121.514472","lat":"31.214263","category":"247","category_name":"餐饮美食","address":"外馬路601號沃弗3號庫105"},{"poiid":"B2094654DA69ABF4439C","title":"上海市黄浦区精神卫生分中心","lon":"121.51716","lat":"31.2164","category":"162","category_name":"医院","address":"张家浜路39弄5"},{"poiid":"B2094654DA69ABF44193","title":"世茂滨江花园(南边门)","lon":"121.51452","lat":"31.21726","category":"47","category_name":"住宅区","address":""},{"poiid":"B2094654DA69ABF44199","title":"滨江大楼","lon":"121.51524","lat":"31.216516","category":"47","category_name":"住宅区","address":"浦电路29弄1-35号"},{"poiid":"B2094655D265A0FA429C","title":"浦东潍坊开业园区","lon":"121.51707","lat":"31.21565","category":"46","category_name":"楼宇","address":"张家浜路37弄4"},{"poiid":"B2094654DA69ABF4449C","title":"又来亭","lon":"121.5188209973","lat":"31.217899894236","category":"96","category_name":"韩国料理","address":"浦东新区浦东南路1818号(浦电路峨山路间)"},{"poiid":"B2094655D36CA3FD4593","title":"浦江映象","lon":"121.52018","lat":"31.214096","category":"47","category_name":"住宅区","address":"上海市浦东新区峨山路679号"},{"poiid":"B209475DD56CA1FC4899","title":"西塘古镇","lon":"121.516632","lat":"31.216506","category":"250","category_name":"公园户外","address":"上海市 浙江省嘉兴市嘉善县西塘"},{"poiid":"B2094655D26FA6F94399","title":"香园(浦明路)","lon":"121.51418","lat":"31.21349","category":"47","category_name":"住宅区","address":"上海浦明路1188弄-1228弄"},{"poiid":"B2094757D069A6FE439B","title":"组合发型(浦东南路店)","lon":"121.51845","lat":"31.21274","category":"148","category_name":"美容美发店","address":"浦东新区浦东南路2002号(近宁阳路)"},{"poiid":"B2094654DA69ABF44393","title":"光明乳业浦城配送站","lon":"121.51762","lat":"31.21523","category":"117","category_name":"便民商店/便利店","address":""},{"poiid":"B2094757D06AA0FD4499","title":"宁阳小区","lon":"121.51601","lat":"31.212202","category":"47","category_name":"住宅区","address":"上海华安路24弄"},{"poiid":"B2094757D06FA6FB419B","title":"中国电信上海研究院","lon":"121.519426","lat":"31.216302","category":"500","category_name":"未知分类","address":"上海浦东南路1835号"},{"poiid":"B2094757D06BA6FC489A","title":"飞奔疯人院","lon":"121.517381738","lat":"31.2173150249","category":"500","category_name":"未知分类","address":"上海市浦东新区浦城路浦电路"},{"poiid":"B2094757D66EA0FD4293","title":"家化滨江苑会所","lon":"121.51391433","lat":"31.21477567","category":"500","category_name":"未知分类","address":"上海浦明路1188号"},{"poiid":"B2094757D06BA3FF4099","title":"仲元堂","lon":"121.516952738","lat":"31.2104578788","category":"500","category_name":"未知分类","address":"浦东南路2100号上尚商厦2楼"},{"poiid":"B2094654DA69A6F5469D","title":"嘉德公寓","lon":"121.5196","lat":"31.215782","category":"47","category_name":"住宅区","address":"上海市浦东新区北张家浜路30号"},{"poiid":"B2094655D26EA6FB4898","title":"浦东大酒店餐厅","lon":"121.51847","lat":"31.21527","category":"257","category_name":"中餐厅","address":"浦东新区浦东南路1888号"},{"poiid":"B2094757D16EA3FC439D","title":"东川造型(塘桥)","lon":"121.51738873","lat":"31.21241292","category":"148","category_name":"美容美发店","address":"浦东新区浦东南路1964号(近宁阳路)"},{"poiid":"B2094757D66EA5FF419C","title":"博硕创意园","lon":"121.517998738","lat":"31.2126896264","category":"46","category_name":"楼宇","address":"上海浦东新区峨山路633号"},{"poiid":"B2094757D66EA0FE4799","title":"避风塘(莘庄龙之梦店)","lon":"121.514908938","lat":"31.2150496766","category":"500","category_name":"未知分类","address":"上海闵行区沪闵路6088号莘庄凯德龙之梦3F"},{"poiid":"B2094654DA69ABF4409A","title":"众盛公寓","lon":"121.51619","lat":"31.216702","category":"47","category_name":"住宅区","address":"浦电路53弄5-16号"},{"poiid":"B2094750D76CABF54799","title":"招财金煲","lon":"121.518","lat":"31.2183","category":"71","category_name":"四川菜","address":"浦东新区浦电路68号(近浦东南路)"},{"poiid":"B2094757D568ABF9499C","title":"新苗幼儿园","lon":"121.51491645","lat":"31.21655328","category":"57","category_name":"幼儿园","address":"浦电路29弄9"},{"poiid":"B2094757D06BA5F5439A","title":"蓝村路南泉路","lon":"121.515563924","lat":"31.2126956551","category":"500","category_name":"未知分类","address":"上海蓝村路南泉路路口"},{"poiid":"B2094757DA6FA2FD439B","title":"新亚大包(浦电路店)","lon":"121.516269999999","lat":"31.2172890000001","category":"68","category_name":"快餐厅","address":"浦东新区浦电路57号(近浦城路)"},{"poiid":"B2094654DA69ABFF429D","title":"老同盛商务中心","lon":"121.51828","lat":"31.21333","category":"46","category_name":"楼宇","address":"浦东南路1948"},{"poiid":"B2094654DA69ABF44499","title":"国国音乐茶室","lon":"121.51824","lat":"31.21631","category":"66","category_name":"茶艺馆","address":"浦东南路1860号"},{"poiid":"B2094654DA69A5FF489D","title":"上海市萌芽实验中学","lon":"121.51936","lat":"31.21139","category":"55","category_name":"中学","address":"上海浦东新区塘桥路445号(近徐家弄路)"},{"poiid":"B2094654DA69ABFF439B","title":"罗森(浦东南路)","lon":"121.51826","lat":"31.21316","category":"117","category_name":"便民商店/便利店","address":"浦东南路1950"},{"poiid":"B2094757D064A5FC499B","title":"浦电路29弄","lon":"121.515247","lat":"31.216516","category":"252","category_name":"楼宇机构","address":"上海我住这!!!"}]