[{"poiid":"B2094654DB65A6FA429E","title":"上海长途客运南站","lon":"121.43361","lat":"31.15276","category":"35","category_name":"长途汽车站","address":"徐汇区石龙路666号(近柳州路)"},{"poiid":"B2094654DB6CA1F8489F","title":"上海植物园","lon":"121.44504","lat":"31.14669","category":"198","category_name":"植物园","address":"徐汇区龙吴路1111号"},{"poiid":"B2094757D06FA1F84399","title":"上海南站候车室","lon":"121.43352508","lat":"31.152164459","category":"22","category_name":"火车站","address":"上海南站"},{"poiid":"B2094757D06AA5F54593","title":"三号线上海南站站","lon":"121.432209286","lat":"31.1515143928","category":"500","category_name":"未知分类","address":"上海南站南广场"},{"poiid":"B2094757D469A0FB429C","title":"肯德基 上海南站店 KFC","lon":"121.434433054","lat":"31.153030793","category":"68","category_name":"快餐厅","address":"石龙路750-3号银泰购物中心南2-A1近龙川北路"},{"poiid":"B2094757D06FA7F94893","title":"柳州螺蛳粉 石龙路店","lon":"121.44338","lat":"31.15687","category":"257","category_name":"中餐厅","address":"徐汇区石龙路121号(近3号线石龙站)"},{"poiid":"B2094654DA65A6FA4199","title":"上海植物园(4号门)","lon":"121.44595","lat":"31.15189","category":"680","category_name":"楼宇机构","address":"罗城路"},{"poiid":"B2094757D06BA3FC4592","title":"桔子摄影","lon":"121.43903099","lat":"31.154246876","category":"500","category_name":"未知分类","address":"上海市徐汇区石龙路411弄18号3楼"},{"poiid":"B2094757D06FA5F44492","title":"呷哺呷哺 徐汇盛泰店","lon":"121.43451","lat":"31.153133","category":"86","category_name":"火锅店","address":"徐汇区石龙路750号-3号地B2楼A区2-A5号商铺(近石龙路)"},{"poiid":"B2094757D06FA7FA429F","title":"金牛苑","lon":"121.43311","lat":"31.150234","category":"47","category_name":"住宅区","address":"金牛苑位于徐汇老沪闵路420弄"},{"poiid":"B2094757D06AA7F94292","title":"德林酸菜鱼(罗城路店)","lon":"121.435704","lat":"31.152392","category":"86","category_name":"火锅店","address":"上海市徐汇区罗城路429号"},{"poiid":"B2094757D068A6FC4393","title":"味千拉面(上海南站店)","lon":"121.43151","lat":"31.15191","category":"95","category_name":"日本料理","address":"徐汇区沪闵路9001-3号银泰购物中心南商场2-A6号(近上海南站)"},{"poiid":"B2094750D06CA1FD429C","title":"新石器烤肉","lon":"121.43589","lat":"31.15396","category":"68","category_name":"快餐厅","address":"徐汇区石龙路750号上海南站地下商场南馆B2楼A区南2-A16铺"},{"poiid":"B2094757D169AAFA4199","title":"龙川北路罗城路","lon":"121.43387658","lat":"31.149576855","category":"500","category_name":"未知分类","address":"上海龙川北路罗城路"},{"poiid":"B2094654DB64A2F94793","title":"华东花苑","lon":"121.43641","lat":"31.149044","category":"47","category_name":"住宅区","address":"地铁明珠苑位于闵行莘建东路198弄"},{"poiid":"B2094757D464A4F9499D","title":"禾绿回转寿司 上海南站店","lon":"121.434433054","lat":"31.153030793","category":"95","category_name":"日本料理","address":"徐汇区沪闵路9001-3号银泰购物中心南商场2-A15号铺(近上海南站)"},{"poiid":"B2094454D268A7FD459A","title":"龙猫咖啡1号店","lon":"121.439781","lat":"31.151071","category":"247","category_name":"餐饮美食","address":"上海市 上海市石龙路581号"},{"poiid":"B2094757D16AABFB4199","title":"龙腾大道","lon":"121.43878058","lat":"31.150743877","category":"500","category_name":"未知分类","address":"上海市徐汇区龙腾大道"},{"poiid":"B2094757D16FA2F5499A","title":"新疆喀什烤肉王","lon":"121.438118586","lat":"31.1503038692","category":"90","category_name":"清真餐馆","address":"徐汇区罗城路403号(近龙川路)"},{"poiid":"B2094654DB65A1F44193","title":"东泉小区","lon":"121.44322","lat":"31.156372","category":"47","category_name":"住宅区","address":"东泉路50弄1-30号,64弄11-16号,104弄1-33号"},{"poiid":"B2094757D465A7F5419A","title":"巴贝拉 上海南站店 Babela's Kitchen","lon":"121.434433054","lat":"31.153030793","category":"247","category_name":"餐饮美食","address":"石龙路750-3号银泰购物中心南2-A17近龙川北路"},{"poiid":"B2094757D06AABFD449C","title":"长桥花鸟市场","lon":"121.438987","lat":"31.150205","category":"249","category_name":"购物服务","address":"上海徐汇区罗城路389号"},{"poiid":"B2094654DB6CA1F44399","title":"上海市西南模范中学","lon":"121.43412","lat":"31.14635","category":"55","category_name":"中学","address":"上海徐汇区百色路汇成一村67号"},{"poiid":"B2094757D06BA6FC4298","title":"上海汽车南站","lon":"121.43401","lat":"31.152771","category":"35","category_name":"长途汽车站","address":"上海市徐汇区石龙路666号"},{"poiid":"B2094454D26DAAFA4199","title":"龙猫咖啡","lon":"121.439735","lat":"31.151138","category":"247","category_name":"餐饮美食","address":"上海市 上海南站"},{"poiid":"B2094655D26FA6FA4993","title":"莫泰168上海南站店","lon":"121.43196","lat":"31.14934","category":"216","category_name":"经济型连锁酒店","address":"上海市徐汇区石龙路839号（火车南站南广场的对面）"},{"poiid":"B2094757D66BA6FD4892","title":"鼎中鼎澳门豆捞 石龙路店","lon":"121.433741054","lat":"31.151547793","category":"86","category_name":"火锅店","address":"徐汇区石龙路853-859号(近上海南站)"},{"poiid":"B2094757D06AA1FE419C","title":"罗城路700弄","lon":"121.435179617","lat":"31.1499577837","category":"500","category_name":"未知分类","address":"上海罗城路700弄"},{"poiid":"B2094757D068A2F5449E","title":"酷圣石 上海南站店 Cold Stone Creamery","lon":"121.434433054","lat":"31.153030793","category":"67","category_name":"甜品店","address":"徐汇区沪闵路9001-3号盛泰购物中心南商场1-B14号铺(近上海南站)"},{"poiid":"B2094655D26AA0F9419F","title":"地铁石龙路站","lon":"121.44113","lat":"31.15672","category":"36","category_name":"地铁站","address":""},{"poiid":"B2094757D464ABF84393","title":"吉野家 上海南站店","lon":"121.434433054","lat":"31.153019793","category":"95","category_name":"日本料理","address":"徐汇区沪闵路9001-3号银泰购物中心南商场内(近上海南站)"},{"poiid":"B2094654DB64A2F94893","title":"住大商务楼(罗城路)","lon":"121.43865","lat":"31.15109","category":"46","category_name":"楼宇","address":"罗城路530"},{"poiid":"B2094750D26EA3FC479F","title":"徐家汇地铁站","lon":"121.439998","lat":"31.156708","category":"36","category_name":"地铁站","address":null},{"poiid":"B2094757D76AA6FD429A","title":"欧凯萨铁板烧","lon":"121.43377685547","lat":"31.151927947998","category":"269","category_name":"烧烤","address":"徐汇区沪闵路9001-3号银泰购物中心南商场2-A10号商铺(近上海南站)"},{"poiid":"B2094757D06BA0F44793","title":"汇成三村","lon":"121.441","lat":"31.1509","category":"252","category_name":"楼宇机构","address":"上海百色路"},{"poiid":"B2094757D464ABF94498","title":"棒约翰比萨 上海南站店 Papa John's Pizza","lon":"121.434433054","lat":"31.153030793","category":"94","category_name":"西餐厅","address":"徐汇区石龙路750-3号银泰购物中心南2-A8号(近上海南站)"},{"poiid":"B2094753D66AA3FF439C","title":"新天地","lon":"121.439453","lat":"31.149948","category":"500","category_name":"未知分类","address":"上海市 淮海路"},{"poiid":"B2094654DB64A2F9489C","title":"汇达苑","lon":"121.4381","lat":"31.149321","category":"47","category_name":"住宅区","address":"汇达苑位于徐汇龙川北路681弄"},{"poiid":"B2094757D465A6FA489A","title":"天香麻辣工坊","lon":"121.434433054","lat":"31.153030793","category":"247","category_name":"餐饮美食","address":"徐汇区沪闵路9001-3号银泰购物中心南商场B1楼(近上海南站)"},{"poiid":"B2094655D36DA6FE4492","title":"石龙路","lon":"121.44113","lat":"31.15672","category":"38","category_name":"公交车站","address":""},{"poiid":"B2094757D068ABFC4898","title":"汇成四村","lon":"121.43607","lat":"31.143908","category":"47","category_name":"住宅区","address":"上海市徐汇区百色路"},{"poiid":"B2094655D268A4F5489D","title":"恒龙苑(侧门)","lon":"121.43799","lat":"31.15027","category":"47","category_name":"住宅区","address":"罗城路570弄1-32号"},{"poiid":"B2094654DA65A6FF469A","title":"上海玛萨美容美发有限公司","lon":"121.43865","lat":"31.15109","category":"148","category_name":"美容美发店","address":"罗城路530号住大商务楼4层"},{"poiid":"B2094757D065A3F44699","title":"汾阳中学","lon":"121.43661","lat":"31.1504","category":"55","category_name":"中学","address":"徐汇区龙川北路788号(近石龙路)"},{"poiid":"B2094654DB64A2F9499A","title":"快客(罗城路)","lon":"121.43814","lat":"31.15033","category":"117","category_name":"便民商店/便利店","address":""},{"poiid":"B209475CD16EAAF94292","title":"徐汇滨江","lon":"121.437988","lat":"31.150661","category":"47","category_name":"住宅区","address":"上海市 龙腾大道"},{"poiid":"B2094757D16DA0FB4993","title":"恒龙苑","lon":"121.43777","lat":"31.150768","category":"500","category_name":"未知分类","address":"上海罗城路570弄"},{"poiid":"B2094655D26FA6FE449C","title":"上岛咖啡(石龙路)","lon":"121.43614","lat":"31.15385","category":"260","category_name":"其他","address":"徐汇区石龙路567号(近上海南站)"},{"poiid":"B2094654DB64A2F9489D","title":"中国电信","lon":"121.43821","lat":"31.14996","category":"151","category_name":"电讯营业厅","address":"徐汇区罗城路413号(龙川北路)"},{"poiid":"B2094655D26BA3FA469E","title":"广翰小厨","lon":"121.434252054","lat":"31.152614793","category":"72","category_name":"广东菜","address":"徐汇区石龙路569号2号楼1楼OK宾馆内(近上海南站)"},{"poiid":"B2094654DB65A6FA429E","title":"上海长途客运南站","lon":"121.43361","lat":"31.15276","category":"35","category_name":"长途汽车站","address":"徐汇区石龙路666号(近柳州路)"},{"poiid":"B2094654DB6CA1F8489F","title":"上海植物园","lon":"121.44504","lat":"31.14669","category":"198","category_name":"植物园","address":"徐汇区龙吴路1111号"},{"poiid":"B2094757D06FA1F84399","title":"上海南站候车室","lon":"121.43352508","lat":"31.152164459","category":"22","category_name":"火车站","address":"上海南站"},{"poiid":"B2094757D06AA5F54593","title":"三号线上海南站站","lon":"121.432209286","lat":"31.1515143928","category":"500","category_name":"未知分类","address":"上海南站南广场"},{"poiid":"B2094757D469A0FB429C","title":"肯德基 上海南站店 KFC","lon":"121.434433054","lat":"31.153030793","category":"68","category_name":"快餐厅","address":"石龙路750-3号银泰购物中心南2-A1近龙川北路"},{"poiid":"B2094757D06FA7F94893","title":"柳州螺蛳粉 石龙路店","lon":"121.44338","lat":"31.15687","category":"257","category_name":"中餐厅","address":"徐汇区石龙路121号(近3号线石龙站)"},{"poiid":"B2094654DA65A6FA4199","title":"上海植物园(4号门)","lon":"121.44595","lat":"31.15189","category":"680","category_name":"楼宇机构","address":"罗城路"},{"poiid":"B2094757D06BA3FC4592","title":"桔子摄影","lon":"121.43903099","lat":"31.154246876","category":"500","category_name":"未知分类","address":"上海市徐汇区石龙路411弄18号3楼"},{"poiid":"B2094757D06FA5F44492","title":"呷哺呷哺 徐汇盛泰店","lon":"121.43451","lat":"31.153133","category":"86","category_name":"火锅店","address":"徐汇区石龙路750号-3号地B2楼A区2-A5号商铺(近石龙路)"},{"poiid":"B2094757D06FA7FA429F","title":"金牛苑","lon":"121.43311","lat":"31.150234","category":"47","category_name":"住宅区","address":"金牛苑位于徐汇老沪闵路420弄"},{"poiid":"B2094757D06AA7F94292","title":"德林酸菜鱼(罗城路店)","lon":"121.435704","lat":"31.152392","category":"86","category_name":"火锅店","address":"上海市徐汇区罗城路429号"},{"poiid":"B2094757D068A6FC4393","title":"味千拉面(上海南站店)","lon":"121.43151","lat":"31.15191","category":"95","category_name":"日本料理","address":"徐汇区沪闵路9001-3号银泰购物中心南商场2-A6号(近上海南站)"},{"poiid":"B2094750D06CA1FD429C","title":"新石器烤肉","lon":"121.43589","lat":"31.15396","category":"68","category_name":"快餐厅","address":"徐汇区石龙路750号上海南站地下商场南馆B2楼A区南2-A16铺"},{"poiid":"B2094757D169AAFA4199","title":"龙川北路罗城路","lon":"121.43387658","lat":"31.149576855","category":"500","category_name":"未知分类","address":"上海龙川北路罗城路"},{"poiid":"B2094654DB64A2F94793","title":"华东花苑","lon":"121.43641","lat":"31.149044","category":"47","category_name":"住宅区","address":"地铁明珠苑位于闵行莘建东路198弄"},{"poiid":"B2094757D464A4F9499D","title":"禾绿回转寿司 上海南站店","lon":"121.434433054","lat":"31.153030793","category":"95","category_name":"日本料理","address":"徐汇区沪闵路9001-3号银泰购物中心南商场2-A15号铺(近上海南站)"},{"poiid":"B2094454D268A7FD459A","title":"龙猫咖啡1号店","lon":"121.439781","lat":"31.151071","category":"247","category_name":"餐饮美食","address":"上海市 上海市石龙路581号"},{"poiid":"B2094757D16AABFB4199","title":"龙腾大道","lon":"121.43878058","lat":"31.150743877","category":"500","category_name":"未知分类","address":"上海市徐汇区龙腾大道"},{"poiid":"B2094757D16FA2F5499A","title":"新疆喀什烤肉王","lon":"121.438118586","lat":"31.1503038692","category":"90","category_name":"清真餐馆","address":"徐汇区罗城路403号(近龙川路)"},{"poiid":"B2094654DB65A1F44193","title":"东泉小区","lon":"121.44322","lat":"31.156372","category":"47","category_name":"住宅区","address":"东泉路50弄1-30号,64弄11-16号,104弄1-33号"},{"poiid":"B2094757D465A7F5419A","title":"巴贝拉 上海南站店 Babela's Kitchen","lon":"121.434433054","lat":"31.153030793","category":"247","category_name":"餐饮美食","address":"石龙路750-3号银泰购物中心南2-A17近龙川北路"},{"poiid":"B2094757D06AABFD449C","title":"长桥花鸟市场","lon":"121.438987","lat":"31.150205","category":"249","category_name":"购物服务","address":"上海徐汇区罗城路389号"},{"poiid":"B2094654DB6CA1F44399","title":"上海市西南模范中学","lon":"121.43412","lat":"31.14635","category":"55","category_name":"中学","address":"上海徐汇区百色路汇成一村67号"},{"poiid":"B2094757D06BA6FC4298","title":"上海汽车南站","lon":"121.43401","lat":"31.152771","category":"35","category_name":"长途汽车站","address":"上海市徐汇区石龙路666号"},{"poiid":"B2094454D26DAAFA4199","title":"龙猫咖啡","lon":"121.439735","lat":"31.151138","category":"247","category_name":"餐饮美食","address":"上海市 上海南站"},{"poiid":"B2094655D26FA6FA4993","title":"莫泰168上海南站店","lon":"121.43196","lat":"31.14934","category":"216","category_name":"经济型连锁酒店","address":"上海市徐汇区石龙路839号（火车南站南广场的对面）"},{"poiid":"B2094757D66BA6FD4892","title":"鼎中鼎澳门豆捞 石龙路店","lon":"121.433741054","lat":"31.151547793","category":"86","category_name":"火锅店","address":"徐汇区石龙路853-859号(近上海南站)"},{"poiid":"B2094757D06AA1FE419C","title":"罗城路700弄","lon":"121.435179617","lat":"31.1499577837","category":"500","category_name":"未知分类","address":"上海罗城路700弄"},{"poiid":"B2094757D068A2F5449E","title":"酷圣石 上海南站店 Cold Stone Creamery","lon":"121.434433054","lat":"31.153030793","category":"67","category_name":"甜品店","address":"徐汇区沪闵路9001-3号盛泰购物中心南商场1-B14号铺(近上海南站)"},{"poiid":"B2094655D26AA0F9419F","title":"地铁石龙路站","lon":"121.44113","lat":"31.15672","category":"36","category_name":"地铁站","address":""},{"poiid":"B2094757D464ABF84393","title":"吉野家 上海南站店","lon":"121.434433054","lat":"31.153019793","category":"95","category_name":"日本料理","address":"徐汇区沪闵路9001-3号银泰购物中心南商场内(近上海南站)"},{"poiid":"B2094654DB64A2F94893","title":"住大商务楼(罗城路)","lon":"121.43865","lat":"31.15109","category":"46","category_name":"楼宇","address":"罗城路530"},{"poiid":"B2094750D26EA3FC479F","title":"徐家汇地铁站","lon":"121.439998","lat":"31.156708","category":"36","category_name":"地铁站","address":null},{"poiid":"B2094757D76AA6FD429A","title":"欧凯萨铁板烧","lon":"121.43377685547","lat":"31.151927947998","category":"269","category_name":"烧烤","address":"徐汇区沪闵路9001-3号银泰购物中心南商场2-A10号商铺(近上海南站)"},{"poiid":"B2094757D06BA0F44793","title":"汇成三村","lon":"121.441","lat":"31.1509","category":"252","category_name":"楼宇机构","address":"上海百色路"},{"poiid":"B2094757D464ABF94498","title":"棒约翰比萨 上海南站店 Papa John's Pizza","lon":"121.434433054","lat":"31.153030793","category":"94","category_name":"西餐厅","address":"徐汇区石龙路750-3号银泰购物中心南2-A8号(近上海南站)"},{"poiid":"B2094753D66AA3FF439C","title":"新天地","lon":"121.439453","lat":"31.149948","category":"500","category_name":"未知分类","address":"上海市 淮海路"},{"poiid":"B2094654DB64A2F9489C","title":"汇达苑","lon":"121.4381","lat":"31.149321","category":"47","category_name":"住宅区","address":"汇达苑位于徐汇龙川北路681弄"},{"poiid":"B2094757D465A6FA489A","title":"天香麻辣工坊","lon":"121.434433054","lat":"31.153030793","category":"247","category_name":"餐饮美食","address":"徐汇区沪闵路9001-3号银泰购物中心南商场B1楼(近上海南站)"},{"poiid":"B2094655D36DA6FE4492","title":"石龙路","lon":"121.44113","lat":"31.15672","category":"38","category_name":"公交车站","address":""},{"poiid":"B2094757D068ABFC4898","title":"汇成四村","lon":"121.43607","lat":"31.143908","category":"47","category_name":"住宅区","address":"上海市徐汇区百色路"},{"poiid":"B2094655D268A4F5489D","title":"恒龙苑(侧门)","lon":"121.43799","lat":"31.15027","category":"47","category_name":"住宅区","address":"罗城路570弄1-32号"},{"poiid":"B2094654DA65A6FF469A","title":"上海玛萨美容美发有限公司","lon":"121.43865","lat":"31.15109","category":"148","category_name":"美容美发店","address":"罗城路530号住大商务楼4层"},{"poiid":"B2094757D065A3F44699","title":"汾阳中学","lon":"121.43661","lat":"31.1504","category":"55","category_name":"中学","address":"徐汇区龙川北路788号(近石龙路)"},{"poiid":"B2094654DB64A2F9499A","title":"快客(罗城路)","lon":"121.43814","lat":"31.15033","category":"117","category_name":"便民商店/便利店","address":""},{"poiid":"B209475CD16EAAF94292","title":"徐汇滨江","lon":"121.437988","lat":"31.150661","category":"47","category_name":"住宅区","address":"上海市 龙腾大道"},{"poiid":"B2094757D16DA0FB4993","title":"恒龙苑","lon":"121.43777","lat":"31.150768","category":"500","category_name":"未知分类","address":"上海罗城路570弄"},{"poiid":"B2094655D26FA6FE449C","title":"上岛咖啡(石龙路)","lon":"121.43614","lat":"31.15385","category":"260","category_name":"其他","address":"徐汇区石龙路567号(近上海南站)"},{"poiid":"B2094654DB64A2F9489D","title":"中国电信","lon":"121.43821","lat":"31.14996","category":"151","category_name":"电讯营业厅","address":"徐汇区罗城路413号(龙川北路)"},{"poiid":"B2094655D26BA3FA469E","title":"广翰小厨","lon":"121.434252054","lat":"31.152614793","category":"72","category_name":"广东菜","address":"徐汇区石龙路569号2号楼1楼OK宾馆内(近上海南站)"},{"poiid":"B2094654DB65A6FA429E","title":"上海长途客运南站","lon":"121.43361","lat":"31.15276","category":"35","category_name":"长途汽车站","address":"徐汇区石龙路666号(近柳州路)"},{"poiid":"B2094654DB6CA1F8489F","title":"上海植物园","lon":"121.44504","lat":"31.14669","category":"198","category_name":"植物园","address":"徐汇区龙吴路1111号"},{"poiid":"B2094757D06FA1F84399","title":"上海南站候车室","lon":"121.43352508","lat":"31.152164459","category":"22","category_name":"火车站","address":"上海南站"},{"poiid":"B2094757D06AA5F54593","title":"三号线上海南站站","lon":"121.432209286","lat":"31.1515143928","category":"500","category_name":"未知分类","address":"上海南站南广场"},{"poiid":"B2094757D469A0FB429C","title":"肯德基 上海南站店 KFC","lon":"121.434433054","lat":"31.153030793","category":"68","category_name":"快餐厅","address":"石龙路750-3号银泰购物中心南2-A1近龙川北路"},{"poiid":"B2094757D06FA7F94893","title":"柳州螺蛳粉 石龙路店","lon":"121.44338","lat":"31.15687","category":"257","category_name":"中餐厅","address":"徐汇区石龙路121号(近3号线石龙站)"},{"poiid":"B2094654DA65A6FA4199","title":"上海植物园(4号门)","lon":"121.44595","lat":"31.15189","category":"680","category_name":"楼宇机构","address":"罗城路"},{"poiid":"B2094757D06BA3FC4592","title":"桔子摄影","lon":"121.43903099","lat":"31.154246876","category":"500","category_name":"未知分类","address":"上海市徐汇区石龙路411弄18号3楼"},{"poiid":"B2094757D06FA5F44492","title":"呷哺呷哺 徐汇盛泰店","lon":"121.43451","lat":"31.153133","category":"86","category_name":"火锅店","address":"徐汇区石龙路750号-3号地B2楼A区2-A5号商铺(近石龙路)"},{"poiid":"B2094757D06FA7FA429F","title":"金牛苑","lon":"121.43311","lat":"31.150234","category":"47","category_name":"住宅区","address":"金牛苑位于徐汇老沪闵路420弄"},{"poiid":"B2094757D06AA7F94292","title":"德林酸菜鱼(罗城路店)","lon":"121.435704","lat":"31.152392","category":"86","category_name":"火锅店","address":"上海市徐汇区罗城路429号"},{"poiid":"B2094757D068A6FC4393","title":"味千拉面(上海南站店)","lon":"121.43151","lat":"31.15191","category":"95","category_name":"日本料理","address":"徐汇区沪闵路9001-3号银泰购物中心南商场2-A6号(近上海南站)"},{"poiid":"B2094750D06CA1FD429C","title":"新石器烤肉","lon":"121.43589","lat":"31.15396","category":"68","category_name":"快餐厅","address":"徐汇区石龙路750号上海南站地下商场南馆B2楼A区南2-A16铺"},{"poiid":"B2094757D169AAFA4199","title":"龙川北路罗城路","lon":"121.43387658","lat":"31.149576855","category":"500","category_name":"未知分类","address":"上海龙川北路罗城路"},{"poiid":"B2094654DB64A2F94793","title":"华东花苑","lon":"121.43641","lat":"31.149044","category":"47","category_name":"住宅区","address":"地铁明珠苑位于闵行莘建东路198弄"},{"poiid":"B2094757D464A4F9499D","title":"禾绿回转寿司 上海南站店","lon":"121.434433054","lat":"31.153030793","category":"95","category_name":"日本料理","address":"徐汇区沪闵路9001-3号银泰购物中心南商场2-A15号铺(近上海南站)"},{"poiid":"B2094454D268A7FD459A","title":"龙猫咖啡1号店","lon":"121.439781","lat":"31.151071","category":"247","category_name":"餐饮美食","address":"上海市 上海市石龙路581号"},{"poiid":"B2094757D16AABFB4199","title":"龙腾大道","lon":"121.43878058","lat":"31.150743877","category":"500","category_name":"未知分类","address":"上海市徐汇区龙腾大道"},{"poiid":"B2094757D16FA2F5499A","title":"新疆喀什烤肉王","lon":"121.438118586","lat":"31.1503038692","category":"90","category_name":"清真餐馆","address":"徐汇区罗城路403号(近龙川路)"},{"poiid":"B2094654DB65A1F44193","title":"东泉小区","lon":"121.44322","lat":"31.156372","category":"47","category_name":"住宅区","address":"东泉路50弄1-30号,64弄11-16号,104弄1-33号"},{"poiid":"B2094757D465A7F5419A","title":"巴贝拉 上海南站店 Babela's Kitchen","lon":"121.434433054","lat":"31.153030793","category":"247","category_name":"餐饮美食","address":"石龙路750-3号银泰购物中心南2-A17近龙川北路"},{"poiid":"B2094757D06AABFD449C","title":"长桥花鸟市场","lon":"121.438987","lat":"31.150205","category":"249","category_name":"购物服务","address":"上海徐汇区罗城路389号"},{"poiid":"B2094654DB6CA1F44399","title":"上海市西南模范中学","lon":"121.43412","lat":"31.14635","category":"55","category_name":"中学","address":"上海徐汇区百色路汇成一村67号"},{"poiid":"B2094757D06BA6FC4298","title":"上海汽车南站","lon":"121.43401","lat":"31.152771","category":"35","category_name":"长途汽车站","address":"上海市徐汇区石龙路666号"},{"poiid":"B2094454D26DAAFA4199","title":"龙猫咖啡","lon":"121.439735","lat":"31.151138","category":"247","category_name":"餐饮美食","address":"上海市 上海南站"},{"poiid":"B2094655D26FA6FA4993","title":"莫泰168上海南站店","lon":"121.43196","lat":"31.14934","category":"216","category_name":"经济型连锁酒店","address":"上海市徐汇区石龙路839号（火车南站南广场的对面）"},{"poiid":"B2094757D66BA6FD4892","title":"鼎中鼎澳门豆捞 石龙路店","lon":"121.433741054","lat":"31.151547793","category":"86","category_name":"火锅店","address":"徐汇区石龙路853-859号(近上海南站)"},{"poiid":"B2094757D06AA1FE419C","title":"罗城路700弄","lon":"121.435179617","lat":"31.1499577837","category":"500","category_name":"未知分类","address":"上海罗城路700弄"},{"poiid":"B2094757D068A2F5449E","title":"酷圣石 上海南站店 Cold Stone Creamery","lon":"121.434433054","lat":"31.153030793","category":"67","category_name":"甜品店","address":"徐汇区沪闵路9001-3号盛泰购物中心南商场1-B14号铺(近上海南站)"},{"poiid":"B2094655D26AA0F9419F","title":"地铁石龙路站","lon":"121.44113","lat":"31.15672","category":"36","category_name":"地铁站","address":""},{"poiid":"B2094757D464ABF84393","title":"吉野家 上海南站店","lon":"121.434433054","lat":"31.153019793","category":"95","category_name":"日本料理","address":"徐汇区沪闵路9001-3号银泰购物中心南商场内(近上海南站)"},{"poiid":"B2094654DB64A2F94893","title":"住大商务楼(罗城路)","lon":"121.43865","lat":"31.15109","category":"46","category_name":"楼宇","address":"罗城路530"},{"poiid":"B2094750D26EA3FC479F","title":"徐家汇地铁站","lon":"121.439998","lat":"31.156708","category":"36","category_name":"地铁站","address":null},{"poiid":"B2094757D76AA6FD429A","title":"欧凯萨铁板烧","lon":"121.43377685547","lat":"31.151927947998","category":"269","category_name":"烧烤","address":"徐汇区沪闵路9001-3号银泰购物中心南商场2-A10号商铺(近上海南站)"},{"poiid":"B2094757D06BA0F44793","title":"汇成三村","lon":"121.441","lat":"31.1509","category":"252","category_name":"楼宇机构","address":"上海百色路"},{"poiid":"B2094757D464ABF94498","title":"棒约翰比萨 上海南站店 Papa John's Pizza","lon":"121.434433054","lat":"31.153030793","category":"94","category_name":"西餐厅","address":"徐汇区石龙路750-3号银泰购物中心南2-A8号(近上海南站)"},{"poiid":"B2094753D66AA3FF439C","title":"新天地","lon":"121.439453","lat":"31.149948","category":"500","category_name":"未知分类","address":"上海市 淮海路"},{"poiid":"B2094654DB64A2F9489C","title":"汇达苑","lon":"121.4381","lat":"31.149321","category":"47","category_name":"住宅区","address":"汇达苑位于徐汇龙川北路681弄"},{"poiid":"B2094757D465A6FA489A","title":"天香麻辣工坊","lon":"121.434433054","lat":"31.153030793","category":"247","category_name":"餐饮美食","address":"徐汇区沪闵路9001-3号银泰购物中心南商场B1楼(近上海南站)"},{"poiid":"B2094655D36DA6FE4492","title":"石龙路","lon":"121.44113","lat":"31.15672","category":"38","category_name":"公交车站","address":""},{"poiid":"B2094757D068ABFC4898","title":"汇成四村","lon":"121.43607","lat":"31.143908","category":"47","category_name":"住宅区","address":"上海市徐汇区百色路"},{"poiid":"B2094655D268A4F5489D","title":"恒龙苑(侧门)","lon":"121.43799","lat":"31.15027","category":"47","category_name":"住宅区","address":"罗城路570弄1-32号"},{"poiid":"B2094654DA65A6FF469A","title":"上海玛萨美容美发有限公司","lon":"121.43865","lat":"31.15109","category":"148","category_name":"美容美发店","address":"罗城路530号住大商务楼4层"},{"poiid":"B2094757D065A3F44699","title":"汾阳中学","lon":"121.43661","lat":"31.1504","category":"55","category_name":"中学","address":"徐汇区龙川北路788号(近石龙路)"},{"poiid":"B2094654DB64A2F9499A","title":"快客(罗城路)","lon":"121.43814","lat":"31.15033","category":"117","category_name":"便民商店/便利店","address":""},{"poiid":"B209475CD16EAAF94292","title":"徐汇滨江","lon":"121.437988","lat":"31.150661","category":"47","category_name":"住宅区","address":"上海市 龙腾大道"},{"poiid":"B2094757D16DA0FB4993","title":"恒龙苑","lon":"121.43777","lat":"31.150768","category":"500","category_name":"未知分类","address":"上海罗城路570弄"},{"poiid":"B2094655D26FA6FE449C","title":"上岛咖啡(石龙路)","lon":"121.43614","lat":"31.15385","category":"260","category_name":"其他","address":"徐汇区石龙路567号(近上海南站)"},{"poiid":"B2094654DB64A2F9489D","title":"中国电信","lon":"121.43821","lat":"31.14996","category":"151","category_name":"电讯营业厅","address":"徐汇区罗城路413号(龙川北路)"},{"poiid":"B2094655D26BA3FA469E","title":"广翰小厨","lon":"121.434252054","lat":"31.152614793","category":"72","category_name":"广东菜","address":"徐汇区石龙路569号2号楼1楼OK宾馆内(近上海南站)"},{"poiid":"B2094654DB65A6FA429E","title":"上海长途客运南站","lon":"121.43361","lat":"31.15276","category":"35","category_name":"长途汽车站","address":"徐汇区石龙路666号(近柳州路)"},{"poiid":"B2094654DB6CA1F8489F","title":"上海植物园","lon":"121.44504","lat":"31.14669","category":"198","category_name":"植物园","address":"徐汇区龙吴路1111号"},{"poiid":"B2094757D06FA1F84399","title":"上海南站候车室","lon":"121.43352508","lat":"31.152164459","category":"22","category_name":"火车站","address":"上海南站"},{"poiid":"B2094757D06AA5F54593","title":"三号线上海南站站","lon":"121.432209286","lat":"31.1515143928","category":"500","category_name":"未知分类","address":"上海南站南广场"},{"poiid":"B2094757D469A0FB429C","title":"肯德基 上海南站店 KFC","lon":"121.434433054","lat":"31.153030793","category":"68","category_name":"快餐厅","address":"石龙路750-3号银泰购物中心南2-A1近龙川北路"},{"poiid":"B2094757D06FA7F94893","title":"柳州螺蛳粉 石龙路店","lon":"121.44338","lat":"31.15687","category":"257","category_name":"中餐厅","address":"徐汇区石龙路121号(近3号线石龙站)"},{"poiid":"B2094654DA65A6FA4199","title":"上海植物园(4号门)","lon":"121.44595","lat":"31.15189","category":"680","category_name":"楼宇机构","address":"罗城路"},{"poiid":"B2094757D06BA3FC4592","title":"桔子摄影","lon":"121.43903099","lat":"31.154246876","category":"500","category_name":"未知分类","address":"上海市徐汇区石龙路411弄18号3楼"},{"poiid":"B2094757D06FA5F44492","title":"呷哺呷哺 徐汇盛泰店","lon":"121.43451","lat":"31.153133","category":"86","category_name":"火锅店","address":"徐汇区石龙路750号-3号地B2楼A区2-A5号商铺(近石龙路)"},{"poiid":"B2094757D06FA7FA429F","title":"金牛苑","lon":"121.43311","lat":"31.150234","category":"47","category_name":"住宅区","address":"金牛苑位于徐汇老沪闵路420弄"},{"poiid":"B2094757D06AA7F94292","title":"德林酸菜鱼(罗城路店)","lon":"121.435704","lat":"31.152392","category":"86","category_name":"火锅店","address":"上海市徐汇区罗城路429号"},{"poiid":"B2094757D068A6FC4393","title":"味千拉面(上海南站店)","lon":"121.43151","lat":"31.15191","category":"95","category_name":"日本料理","address":"徐汇区沪闵路9001-3号银泰购物中心南商场2-A6号(近上海南站)"},{"poiid":"B2094750D06CA1FD429C","title":"新石器烤肉","lon":"121.43589","lat":"31.15396","category":"68","category_name":"快餐厅","address":"徐汇区石龙路750号上海南站地下商场南馆B2楼A区南2-A16铺"},{"poiid":"B2094757D169AAFA4199","title":"龙川北路罗城路","lon":"121.43387658","lat":"31.149576855","category":"500","category_name":"未知分类","address":"上海龙川北路罗城路"},{"poiid":"B2094654DB64A2F94793","title":"华东花苑","lon":"121.43641","lat":"31.149044","category":"47","category_name":"住宅区","address":"地铁明珠苑位于闵行莘建东路198弄"},{"poiid":"B2094757D464A4F9499D","title":"禾绿回转寿司 上海南站店","lon":"121.434433054","lat":"31.153030793","category":"95","category_name":"日本料理","address":"徐汇区沪闵路9001-3号银泰购物中心南商场2-A15号铺(近上海南站)"},{"poiid":"B2094454D268A7FD459A","title":"龙猫咖啡1号店","lon":"121.439781","lat":"31.151071","category":"247","category_name":"餐饮美食","address":"上海市 上海市石龙路581号"},{"poiid":"B2094757D16AABFB4199","title":"龙腾大道","lon":"121.43878058","lat":"31.150743877","category":"500","category_name":"未知分类","address":"上海市徐汇区龙腾大道"},{"poiid":"B2094757D16FA2F5499A","title":"新疆喀什烤肉王","lon":"121.438118586","lat":"31.1503038692","category":"90","category_name":"清真餐馆","address":"徐汇区罗城路403号(近龙川路)"},{"poiid":"B2094654DB65A1F44193","title":"东泉小区","lon":"121.44322","lat":"31.156372","category":"47","category_name":"住宅区","address":"东泉路50弄1-30号,64弄11-16号,104弄1-33号"},{"poiid":"B2094757D465A7F5419A","title":"巴贝拉 上海南站店 Babela's Kitchen","lon":"121.434433054","lat":"31.153030793","category":"247","category_name":"餐饮美食","address":"石龙路750-3号银泰购物中心南2-A17近龙川北路"},{"poiid":"B2094757D06AABFD449C","title":"长桥花鸟市场","lon":"121.438987","lat":"31.150205","category":"249","category_name":"购物服务","address":"上海徐汇区罗城路389号"},{"poiid":"B2094654DB6CA1F44399","title":"上海市西南模范中学","lon":"121.43412","lat":"31.14635","category":"55","category_name":"中学","address":"上海徐汇区百色路汇成一村67号"},{"poiid":"B2094757D06BA6FC4298","title":"上海汽车南站","lon":"121.43401","lat":"31.152771","category":"35","category_name":"长途汽车站","address":"上海市徐汇区石龙路666号"},{"poiid":"B2094454D26DAAFA4199","title":"龙猫咖啡","lon":"121.439735","lat":"31.151138","category":"247","category_name":"餐饮美食","address":"上海市 上海南站"},{"poiid":"B2094655D26FA6FA4993","title":"莫泰168上海南站店","lon":"121.43196","lat":"31.14934","category":"216","category_name":"经济型连锁酒店","address":"上海市徐汇区石龙路839号（火车南站南广场的对面）"},{"poiid":"B2094757D66BA6FD4892","title":"鼎中鼎澳门豆捞 石龙路店","lon":"121.433741054","lat":"31.151547793","category":"86","category_name":"火锅店","address":"徐汇区石龙路853-859号(近上海南站)"},{"poiid":"B2094757D06AA1FE419C","title":"罗城路700弄","lon":"121.435179617","lat":"31.1499577837","category":"500","category_name":"未知分类","address":"上海罗城路700弄"},{"poiid":"B2094757D068A2F5449E","title":"酷圣石 上海南站店 Cold Stone Creamery","lon":"121.434433054","lat":"31.153030793","category":"67","category_name":"甜品店","address":"徐汇区沪闵路9001-3号盛泰购物中心南商场1-B14号铺(近上海南站)"},{"poiid":"B2094655D26AA0F9419F","title":"地铁石龙路站","lon":"121.44113","lat":"31.15672","category":"36","category_name":"地铁站","address":""},{"poiid":"B2094757D464ABF84393","title":"吉野家 上海南站店","lon":"121.434433054","lat":"31.153019793","category":"95","category_name":"日本料理","address":"徐汇区沪闵路9001-3号银泰购物中心南商场内(近上海南站)"},{"poiid":"B2094654DB64A2F94893","title":"住大商务楼(罗城路)","lon":"121.43865","lat":"31.15109","category":"46","category_name":"楼宇","address":"罗城路530"},{"poiid":"B2094750D26EA3FC479F","title":"徐家汇地铁站","lon":"121.439998","lat":"31.156708","category":"36","category_name":"地铁站","address":null},{"poiid":"B2094757D76AA6FD429A","title":"欧凯萨铁板烧","lon":"121.43377685547","lat":"31.151927947998","category":"269","category_name":"烧烤","address":"徐汇区沪闵路9001-3号银泰购物中心南商场2-A10号商铺(近上海南站)"},{"poiid":"B2094757D06BA0F44793","title":"汇成三村","lon":"121.441","lat":"31.1509","category":"252","category_name":"楼宇机构","address":"上海百色路"},{"poiid":"B2094757D464ABF94498","title":"棒约翰比萨 上海南站店 Papa John's Pizza","lon":"121.434433054","lat":"31.153030793","category":"94","category_name":"西餐厅","address":"徐汇区石龙路750-3号银泰购物中心南2-A8号(近上海南站)"},{"poiid":"B2094753D66AA3FF439C","title":"新天地","lon":"121.439453","lat":"31.149948","category":"500","category_name":"未知分类","address":"上海市 淮海路"},{"poiid":"B2094654DB64A2F9489C","title":"汇达苑","lon":"121.4381","lat":"31.149321","category":"47","category_name":"住宅区","address":"汇达苑位于徐汇龙川北路681弄"},{"poiid":"B2094757D465A6FA489A","title":"天香麻辣工坊","lon":"121.434433054","lat":"31.153030793","category":"247","category_name":"餐饮美食","address":"徐汇区沪闵路9001-3号银泰购物中心南商场B1楼(近上海南站)"},{"poiid":"B2094655D36DA6FE4492","title":"石龙路","lon":"121.44113","lat":"31.15672","category":"38","category_name":"公交车站","address":""},{"poiid":"B2094757D068ABFC4898","title":"汇成四村","lon":"121.43607","lat":"31.143908","category":"47","category_name":"住宅区","address":"上海市徐汇区百色路"},{"poiid":"B2094655D268A4F5489D","title":"恒龙苑(侧门)","lon":"121.43799","lat":"31.15027","category":"47","category_name":"住宅区","address":"罗城路570弄1-32号"},{"poiid":"B2094654DA65A6FF469A","title":"上海玛萨美容美发有限公司","lon":"121.43865","lat":"31.15109","category":"148","category_name":"美容美发店","address":"罗城路530号住大商务楼4层"},{"poiid":"B2094757D065A3F44699","title":"汾阳中学","lon":"121.43661","lat":"31.1504","category":"55","category_name":"中学","address":"徐汇区龙川北路788号(近石龙路)"},{"poiid":"B2094654DB64A2F9499A","title":"快客(罗城路)","lon":"121.43814","lat":"31.15033","category":"117","category_name":"便民商店/便利店","address":""},{"poiid":"B209475CD16EAAF94292","title":"徐汇滨江","lon":"121.437988","lat":"31.150661","category":"47","category_name":"住宅区","address":"上海市 龙腾大道"},{"poiid":"B2094757D16DA0FB4993","title":"恒龙苑","lon":"121.43777","lat":"31.150768","category":"500","category_name":"未知分类","address":"上海罗城路570弄"},{"poiid":"B2094655D26FA6FE449C","title":"上岛咖啡(石龙路)","lon":"121.43614","lat":"31.15385","category":"260","category_name":"其他","address":"徐汇区石龙路567号(近上海南站)"},{"poiid":"B2094654DB64A2F9489D","title":"中国电信","lon":"121.43821","lat":"31.14996","category":"151","category_name":"电讯营业厅","address":"徐汇区罗城路413号(龙川北路)"},{"poiid":"B2094655D26BA3FA469E","title":"广翰小厨","lon":"121.434252054","lat":"31.152614793","category":"72","category_name":"广东菜","address":"徐汇区石龙路569号2号楼1楼OK宾馆内(近上海南站)"}]