[{"poiid":"B2094654DB65A6F84598","title":"上海虹桥国际机场","lon":"121.34635","lat":"31.19389","category":"21","category_name":"飞机场","address":"上海长宁区虹桥路2550号,虹桥机场"},{"poiid":"B2094655D36CA7F8459C","title":"虹桥机场(一号航站楼)","lon":"121.34834","lat":"31.19198","category":"21","category_name":"飞机场","address":"长宁区虹桥路2550号"},{"poiid":"B2094757D068A7F94698","title":"虹桥机场T1国际/港澳台出发","lon":"121.348372564","lat":"31.1924143052","category":"21","category_name":"飞机场","address":"上海虹桥国际机场"},{"poiid":"B2094757D169A4FB4099","title":"上海虹桥机场T1航站楼A10登机口","lon":"121.34647116","lat":"31.195816521","category":"21","category_name":"飞机场","address":"上海虹桥机场"},{"poiid":"B2094757D065A2F84892","title":"虹橋機場一號航站樓","lon":"121.34894756","lat":"31.1947728996","category":"500","category_name":"未知分类","address":"上海虹橋機場一號航站樓"},{"poiid":"B2094654D56AABF9449D","title":"上海虹桥国际机场A楼(出发)","lon":"121.34704","lat":"31.19522","category":"21","category_name":"飞机场","address":"迎宾一路700号"},{"poiid":"B2094654D56AABF94492","title":"上海虹桥国际机场A楼(到达)","lon":"121.34704","lat":"31.19522","category":"21","category_name":"飞机场","address":"迎宾一路700"},{"poiid":"B2094757D168A5FB479C","title":"西郊动物园","lon":"121.357255586","lat":"31.1915996757","category":"500","category_name":"未知分类","address":"上海"},{"poiid":"B2094757D06BABFE4698","title":"虹桥机场2号航站楼21号登机口","lon":"121.35440496","lat":"31.1979483666","category":"21","category_name":"飞机场","address":"上海虹桥机场T2"},{"poiid":"B2094757D06AA3FA439E","title":"虹桥1号楼","lon":"121.3544507","lat":"31.1985262788","category":"252","category_name":"楼宇机构","address":"上海虹桥机场"},{"poiid":"B2094757D06FA3FE4199","title":"虹桥机场新村","lon":"121.35444934","lat":"31.184550556","category":"47","category_name":"住宅区","address":"上海市徐汇区龙华西路丰谷路"},{"poiid":"B2094757D065ABFC449E","title":"虹桥机场2号航站楼贵宾厅","lon":"121.34634","lat":"31.19389","category":"65","category_name":"咖啡厅","address":"长宁区虹桥路2550号虹桥机场2号航站楼内"},{"poiid":"B2094757D16FA5FD419E","title":"虹桥机场T1国内到达","lon":"121.3482676","lat":"31.1913282","category":"21","category_name":"飞机场","address":"上海虹桥国际机场1号航站楼国内到达"},{"poiid":"B2094757D06BA7FD4993","title":"虹桥机场1号航站楼B10头等舱候机室","lon":"121.34525386","lat":"31.193621073","category":"21","category_name":"飞机场","address":"上海虹桥国际机场T1"},{"poiid":"B2094757D16CA4FF459D","title":"虹桥机场2号航站楼27号登机口","lon":"121.35021209","lat":"31.192869186","category":"21","category_name":"飞机场","address":"上海虹桥机场T2"},{"poiid":"B2094654D56AA1FB4792","title":"东航上海客舱部","lon":"121.34949","lat":"31.18423","category":"263","category_name":"公司","address":"上海迎宾三路"},{"poiid":"B2094654D56AA2FE4898","title":"东航培训中心","lon":"121.35004","lat":"31.18468","category":"190","category_name":"培训机构","address":"上海迎宾三路288号"},{"poiid":"B2094757D06FA0FD4293","title":"麦当劳(虹桥机场店)","lon":"121.347148","lat":"31.193232","category":"68","category_name":"快餐厅","address":"长宁区虹桥路2550号虹桥机场内(近空港一路)"},{"poiid":"B2094757D16CA1FE4898","title":"上海华港雅阁酒店","lon":"121.34834856","lat":"31.1925758533","category":"217","category_name":"旅馆招待所","address":"上海市长宁区空港一路458号虹桥机场候机楼内"},{"poiid":"B2094654D56AA2FF4493","title":"上海虹桥国际机场B楼(出发)","lon":"121.34634","lat":"31.1939","category":"21","category_name":"飞机场","address":"迎宾一路800号"},{"poiid":"B2094757D06AA2FF4692","title":"虹桥机场1号航站楼B11头等舱贵宾厅","lon":"121.348013875","lat":"31.1912828191","category":"21","category_name":"飞机场","address":"上海虹桥国际机场T1(近B11登机口)"},{"poiid":"B2094757D069AAF4409E","title":"上海国际机场宾馆","lon":"121.351939","lat":"31.193988","category":"217","category_name":"旅馆招待所","address":"长宁区迎宾一路368号(虹桥机场候机楼旁)"},{"poiid":"B2094757D06FA0F4449B","title":"虹桥1号航站楼地铁站","lon":"121.34835688","lat":"31.191216967","category":"36","category_name":"地铁站","address":"上海轨道交通 十号线 轨交虹桥1号航站楼站 10"},{"poiid":"B2094654D56AA2FF449E","title":"上海航友宾馆","lon":"121.35079","lat":"31.19295","category":"215","category_name":"三星级宾馆","address":"上海市长宁区迎宾一路425号(近虹桥机场一号航站楼)"},{"poiid":"B2094757D068ABFE499D","title":"中国东方航空股份有限公司","lon":"121.350748","lat":"31.194755","category":"263","category_name":"公司","address":"上海市虹桥机场空港三路"},{"poiid":"B2094757D66EA1FB449D","title":"虹桥机场2号航站楼22号登机口","lon":"121.34868276","lat":"31.195881323","category":"500","category_name":"未知分类","address":"上海虹桥机场2号航站楼22号登机口"},{"poiid":"B2094757D064A4F44698","title":"上海机场集团有限公司","lon":"121.35063956","lat":"31.186995735","category":"46","category_name":"楼宇","address":"上海迎宾二路200号"},{"poiid":"B2094757D06AA3FE479F","title":"春秋航空","lon":"121.35004078","lat":"31.193489364","category":"251","category_name":"出行住宿","address":"上海空港一路528号2号楼"},{"poiid":"B2094757D568A6FE489D","title":"真功夫(虹桥机场T2店)","lon":"121.351975999998","lat":"31.1938240000001","category":"68","category_name":"快餐厅","address":"闵行区虹桥路2550号虹桥机场T2航站楼内(近迎宾一路)"},{"poiid":"B2094757D068A2F44693","title":"上海霍克太平洋公務機基地","lon":"121.34658056","lat":"31.186510725","category":"260","category_name":"其他","address":"上海迎宾七路99号"},{"poiid":"B2094757D06AA0FC469E","title":"虹桥机场2号航站楼安检通道","lon":"121.346290588","lat":"31.1938991547","category":"21","category_name":"飞机场","address":"上海虹桥机场"},{"poiid":"B2094751D56EA3F5459F","title":"COSTA COFFEE(虹桥机场二店)","lon":"121.35197","lat":"31.19375","category":"65","category_name":"咖啡厅","address":"闵行区虹桥路2550号虹桥机场T2航站楼3楼A岛店(近迎宾一路)"},{"poiid":"B2094654D56AA2FF4492","title":"上海虹桥国际机场B楼(到达)","lon":"121.34634","lat":"31.19389","category":"21","category_name":"飞机场","address":"迎宾一路800号"},{"poiid":"B2094655D26AA2FD4493","title":"东方既白(虹桥机场一店)","lon":"121.34863","lat":"31.19254","category":"68","category_name":"快餐厅","address":"长宁区虹桥路2550号虹桥机场A楼(近空港一路)"},{"poiid":"B2094757D16DABFB479A","title":"永和大王(虹桥一号航站楼店)","lon":"121.34892856","lat":"31.1944028918","category":"68","category_name":"快餐厅","address":"闵行区申达一路1号B1-1-S1虹桥机场T2航站楼到达大厅(近迎宾一路)"},{"poiid":"B2094750D76FAAFE459D","title":"哈根达斯(虹桥机场店)","lon":"121.349","lat":"31.192","category":"113","category_name":"冷饮店","address":"长宁区虹桥路2550号虹桥机场T2航站楼(近申昆路)"},{"poiid":"B2094750D76EA7FD4592","title":"雅品清真面馆","lon":"121.352","lat":"31.1938","category":"87","category_name":"特色／地方风味餐厅","address":"闵行区虹桥路2550号虹桥机场T2航站楼内(近迎宾一路)"},{"poiid":"B2094757D068A7F9499D","title":"沪青平公路","lon":"121.356526","lat":"31.187773","category":"500","category_name":"未知分类","address":"上海沪青平公路336号"},{"poiid":"B2094757D16BA1FA489E","title":"虹桥机场航友宾馆会议中心","lon":"121.35617998","lat":"31.191082165","category":"21","category_name":"飞机场","address":"上海迎宾一路425号"},{"poiid":"B2094757D164A3FD429A","title":"航友宾馆中餐厅","lon":"121.35138","lat":"31.19253","category":"217","category_name":"旅馆招待所","address":"长宁区虹桥路2550号虹桥机场内(近空港一路)"},{"poiid":"B2094757D065A4FA489F","title":"空港一路300号","lon":"121.348536683","lat":"31.1906929442","category":"46","category_name":"楼宇","address":"上海虹桥国际机场公司"},{"poiid":"B2094757D16EABFC4899","title":"东航STARCO机库","lon":"121.3503533","lat":"31.2005093706","category":"500","category_name":"未知分类","address":"上海虹桥机场一号航站楼"},{"poiid":"B2094750D665A6FC4398","title":"永和豆浆(虹桥机场店)","lon":"121.354","lat":"31.1922","category":"68","category_name":"快餐厅","address":"长宁区虹桥路2550号虹桥机场T1航站楼"},{"poiid":"B2094757D06BA5FA449F","title":"日上免税行(虹桥机场店)","lon":"121.34898","lat":"31.19241","category":"122","category_name":"个人用品/化妆品店","address":"上海长宁区虹桥路2550号虹桥机场"},{"poiid":"B2094655D36CA7F8459F","title":"虹桥机场候机楼","lon":"121.34712","lat":"31.19486","category":"38","category_name":"公交车站","address":""},{"poiid":"B2094655D26FA2FB4499","title":"加门","lon":"121.35079","lat":"31.19296","category":"95","category_name":"日本料理","address":"虹桥路2550号国际机场宾馆1楼近沪青平公路"},{"poiid":"B2094757D16FA7FD4698","title":"上海市国际机场分局虹桥公安处","lon":"121.348137566","lat":"31.1884429559","category":"46","category_name":"楼宇","address":"上海空港一路201"},{"poiid":"B2094757D06AA0F5499B","title":"民航华东地区空中交通管理局","lon":"121.350879","lat":"31.194089","category":"500","category_name":"未知分类","address":"上海空港一路171号"},{"poiid":"B2094757D068AAF8429A","title":"上海国航大厦","lon":"121.349887","lat":"31.185197","category":"46","category_name":"楼宇","address":"上海虹桥机场迎宾三路199号"},{"poiid":"B2094654D56AA2FF449F","title":"东航大酒店","lon":"121.34989","lat":"31.19496","category":"70","category_name":"综合酒楼","address":"长宁区空港三路"},{"poiid":"B2094654DB65A6F84598","title":"上海虹桥国际机场","lon":"121.34635","lat":"31.19389","category":"21","category_name":"飞机场","address":"上海长宁区虹桥路2550号,虹桥机场"},{"poiid":"B2094655D36CA7F8459C","title":"虹桥机场(一号航站楼)","lon":"121.34834","lat":"31.19198","category":"21","category_name":"飞机场","address":"长宁区虹桥路2550号"},{"poiid":"B2094757D068A7F94698","title":"虹桥机场T1国际/港澳台出发","lon":"121.348372564","lat":"31.1924143052","category":"21","category_name":"飞机场","address":"上海虹桥国际机场"},{"poiid":"B2094757D169A4FB4099","title":"上海虹桥机场T1航站楼A10登机口","lon":"121.34647116","lat":"31.195816521","category":"21","category_name":"飞机场","address":"上海虹桥机场"},{"poiid":"B2094757D065A2F84892","title":"虹橋機場一號航站樓","lon":"121.34894756","lat":"31.1947728996","category":"500","category_name":"未知分类","address":"上海虹橋機場一號航站樓"},{"poiid":"B2094654D56AABF9449D","title":"上海虹桥国际机场A楼(出发)","lon":"121.34704","lat":"31.19522","category":"21","category_name":"飞机场","address":"迎宾一路700号"},{"poiid":"B2094654D56AABF94492","title":"上海虹桥国际机场A楼(到达)","lon":"121.34704","lat":"31.19522","category":"21","category_name":"飞机场","address":"迎宾一路700"},{"poiid":"B2094757D168A5FB479C","title":"西郊动物园","lon":"121.357255586","lat":"31.1915996757","category":"500","category_name":"未知分类","address":"上海"},{"poiid":"B2094757D06BABFE4698","title":"虹桥机场2号航站楼21号登机口","lon":"121.35440496","lat":"31.1979483666","category":"21","category_name":"飞机场","address":"上海虹桥机场T2"},{"poiid":"B2094757D06AA3FA439E","title":"虹桥1号楼","lon":"121.3544507","lat":"31.1985262788","category":"252","category_name":"楼宇机构","address":"上海虹桥机场"},{"poiid":"B2094757D06FA3FE4199","title":"虹桥机场新村","lon":"121.35444934","lat":"31.184550556","category":"47","category_name":"住宅区","address":"上海市徐汇区龙华西路丰谷路"},{"poiid":"B2094757D065ABFC449E","title":"虹桥机场2号航站楼贵宾厅","lon":"121.34634","lat":"31.19389","category":"65","category_name":"咖啡厅","address":"长宁区虹桥路2550号虹桥机场2号航站楼内"},{"poiid":"B2094757D16FA5FD419E","title":"虹桥机场T1国内到达","lon":"121.3482676","lat":"31.1913282","category":"21","category_name":"飞机场","address":"上海虹桥国际机场1号航站楼国内到达"},{"poiid":"B2094757D06BA7FD4993","title":"虹桥机场1号航站楼B10头等舱候机室","lon":"121.34525386","lat":"31.193621073","category":"21","category_name":"飞机场","address":"上海虹桥国际机场T1"},{"poiid":"B2094757D16CA4FF459D","title":"虹桥机场2号航站楼27号登机口","lon":"121.35021209","lat":"31.192869186","category":"21","category_name":"飞机场","address":"上海虹桥机场T2"},{"poiid":"B2094654D56AA1FB4792","title":"东航上海客舱部","lon":"121.34949","lat":"31.18423","category":"263","category_name":"公司","address":"上海迎宾三路"},{"poiid":"B2094654D56AA2FE4898","title":"东航培训中心","lon":"121.35004","lat":"31.18468","category":"190","category_name":"培训机构","address":"上海迎宾三路288号"},{"poiid":"B2094757D06FA0FD4293","title":"麦当劳(虹桥机场店)","lon":"121.347148","lat":"31.193232","category":"68","category_name":"快餐厅","address":"长宁区虹桥路2550号虹桥机场内(近空港一路)"},{"poiid":"B2094757D16CA1FE4898","title":"上海华港雅阁酒店","lon":"121.34834856","lat":"31.1925758533","category":"217","category_name":"旅馆招待所","address":"上海市长宁区空港一路458号虹桥机场候机楼内"},{"poiid":"B2094654D56AA2FF4493","title":"上海虹桥国际机场B楼(出发)","lon":"121.34634","lat":"31.1939","category":"21","category_name":"飞机场","address":"迎宾一路800号"},{"poiid":"B2094757D06AA2FF4692","title":"虹桥机场1号航站楼B11头等舱贵宾厅","lon":"121.348013875","lat":"31.1912828191","category":"21","category_name":"飞机场","address":"上海虹桥国际机场T1(近B11登机口)"},{"poiid":"B2094757D069AAF4409E","title":"上海国际机场宾馆","lon":"121.351939","lat":"31.193988","category":"217","category_name":"旅馆招待所","address":"长宁区迎宾一路368号(虹桥机场候机楼旁)"},{"poiid":"B2094757D06FA0F4449B","title":"虹桥1号航站楼地铁站","lon":"121.34835688","lat":"31.191216967","category":"36","category_name":"地铁站","address":"上海轨道交通 十号线 轨交虹桥1号航站楼站 10"},{"poiid":"B2094654D56AA2FF449E","title":"上海航友宾馆","lon":"121.35079","lat":"31.19295","category":"215","category_name":"三星级宾馆","address":"上海市长宁区迎宾一路425号(近虹桥机场一号航站楼)"},{"poiid":"B2094757D068ABFE499D","title":"中国东方航空股份有限公司","lon":"121.350748","lat":"31.194755","category":"263","category_name":"公司","address":"上海市虹桥机场空港三路"},{"poiid":"B2094757D66EA1FB449D","title":"虹桥机场2号航站楼22号登机口","lon":"121.34868276","lat":"31.195881323","category":"500","category_name":"未知分类","address":"上海虹桥机场2号航站楼22号登机口"},{"poiid":"B2094757D064A4F44698","title":"上海机场集团有限公司","lon":"121.35063956","lat":"31.186995735","category":"46","category_name":"楼宇","address":"上海迎宾二路200号"},{"poiid":"B2094757D06AA3FE479F","title":"春秋航空","lon":"121.35004078","lat":"31.193489364","category":"251","category_name":"出行住宿","address":"上海空港一路528号2号楼"},{"poiid":"B2094757D568A6FE489D","title":"真功夫(虹桥机场T2店)","lon":"121.351975999998","lat":"31.1938240000001","category":"68","category_name":"快餐厅","address":"闵行区虹桥路2550号虹桥机场T2航站楼内(近迎宾一路)"},{"poiid":"B2094757D068A2F44693","title":"上海霍克太平洋公務機基地","lon":"121.34658056","lat":"31.186510725","category":"260","category_name":"其他","address":"上海迎宾七路99号"},{"poiid":"B2094757D06AA0FC469E","title":"虹桥机场2号航站楼安检通道","lon":"121.346290588","lat":"31.1938991547","category":"21","category_name":"飞机场","address":"上海虹桥机场"},{"poiid":"B2094751D56EA3F5459F","title":"COSTA COFFEE(虹桥机场二店)","lon":"121.35197","lat":"31.19375","category":"65","category_name":"咖啡厅","address":"闵行区虹桥路2550号虹桥机场T2航站楼3楼A岛店(近迎宾一路)"},{"poiid":"B2094654D56AA2FF4492","title":"上海虹桥国际机场B楼(到达)","lon":"121.34634","lat":"31.19389","category":"21","category_name":"飞机场","address":"迎宾一路800号"},{"poiid":"B2094655D26AA2FD4493","title":"东方既白(虹桥机场一店)","lon":"121.34863","lat":"31.19254","category":"68","category_name":"快餐厅","address":"长宁区虹桥路2550号虹桥机场A楼(近空港一路)"},{"poiid":"B2094757D16DABFB479A","title":"永和大王(虹桥一号航站楼店)","lon":"121.34892856","lat":"31.1944028918","category":"68","category_name":"快餐厅","address":"闵行区申达一路1号B1-1-S1虹桥机场T2航站楼到达大厅(近迎宾一路)"},{"poiid":"B2094750D76FAAFE459D","title":"哈根达斯(虹桥机场店)","lon":"121.349","lat":"31.192","category":"113","category_name":"冷饮店","address":"长宁区虹桥路2550号虹桥机场T2航站楼(近申昆路)"},{"poiid":"B2094750D76EA7FD4592","title":"雅品清真面馆","lon":"121.352","lat":"31.1938","category":"87","category_name":"特色／地方风味餐厅","address":"闵行区虹桥路2550号虹桥机场T2航站楼内(近迎宾一路)"},{"poiid":"B2094757D068A7F9499D","title":"沪青平公路","lon":"121.356526","lat":"31.187773","category":"500","category_name":"未知分类","address":"上海沪青平公路336号"},{"poiid":"B2094757D16BA1FA489E","title":"虹桥机场航友宾馆会议中心","lon":"121.35617998","lat":"31.191082165","category":"21","category_name":"飞机场","address":"上海迎宾一路425号"},{"poiid":"B2094757D164A3FD429A","title":"航友宾馆中餐厅","lon":"121.35138","lat":"31.19253","category":"217","category_name":"旅馆招待所","address":"长宁区虹桥路2550号虹桥机场内(近空港一路)"},{"poiid":"B2094757D065A4FA489F","title":"空港一路300号","lon":"121.348536683","lat":"31.1906929442","category":"46","category_name":"楼宇","address":"上海虹桥国际机场公司"},{"poiid":"B2094757D16EABFC4899","title":"东航STARCO机库","lon":"121.3503533","lat":"31.2005093706","category":"500","category_name":"未知分类","address":"上海虹桥机场一号航站楼"},{"poiid":"B2094750D665A6FC4398","title":"永和豆浆(虹桥机场店)","lon":"121.354","lat":"31.1922","category":"68","category_name":"快餐厅","address":"长宁区虹桥路2550号虹桥机场T1航站楼"},{"poiid":"B2094757D06BA5FA449F","title":"日上免税行(虹桥机场店)","lon":"121.34898","lat":"31.19241","category":"122","category_name":"个人用品/化妆品店","address":"上海长宁区虹桥路2550号虹桥机场"},{"poiid":"B2094655D36CA7F8459F","title":"虹桥机场候机楼","lon":"121.34712","lat":"31.19486","category":"38","category_name":"公交车站","address":""},{"poiid":"B2094655D26FA2FB4499","title":"加门","lon":"121.35079","lat":"31.19296","category":"95","category_name":"日本料理","address":"虹桥路2550号国际机场宾馆1楼近沪青平公路"},{"poiid":"B2094757D16FA7FD4698","title":"上海市国际机场分局虹桥公安处","lon":"121.348137566","lat":"31.1884429559","category":"46","category_name":"楼宇","address":"上海空港一路201"},{"poiid":"B2094757D06AA0F5499B","title":"民航华东地区空中交通管理局","lon":"121.350879","lat":"31.194089","category":"500","category_name":"未知分类","address":"上海空港一路171号"},{"poiid":"B2094757D068AAF8429A","title":"上海国航大厦","lon":"121.349887","lat":"31.185197","category":"46","category_name":"楼宇","address":"上海虹桥机场迎宾三路199号"},{"poiid":"B2094654D56AA2FF449F","title":"东航大酒店","lon":"121.34989","lat":"31.19496","category":"70","category_name":"综合酒楼","address":"长宁区空港三路"},{"poiid":"B2094654DB65A6F84598","title":"上海虹桥国际机场","lon":"121.34635","lat":"31.19389","category":"21","category_name":"飞机场","address":"上海长宁区虹桥路2550号,虹桥机场"},{"poiid":"B2094655D36CA7F8459C","title":"虹桥机场(一号航站楼)","lon":"121.34834","lat":"31.19198","category":"21","category_name":"飞机场","address":"长宁区虹桥路2550号"},{"poiid":"B2094757D068A7F94698","title":"虹桥机场T1国际/港澳台出发","lon":"121.348372564","lat":"31.1924143052","category":"21","category_name":"飞机场","address":"上海虹桥国际机场"},{"poiid":"B2094757D169A4FB4099","title":"上海虹桥机场T1航站楼A10登机口","lon":"121.34647116","lat":"31.195816521","category":"21","category_name":"飞机场","address":"上海虹桥机场"},{"poiid":"B2094757D065A2F84892","title":"虹橋機場一號航站樓","lon":"121.34894756","lat":"31.1947728996","category":"500","category_name":"未知分类","address":"上海虹橋機場一號航站樓"},{"poiid":"B2094654D56AABF9449D","title":"上海虹桥国际机场A楼(出发)","lon":"121.34704","lat":"31.19522","category":"21","category_name":"飞机场","address":"迎宾一路700号"},{"poiid":"B2094654D56AABF94492","title":"上海虹桥国际机场A楼(到达)","lon":"121.34704","lat":"31.19522","category":"21","category_name":"飞机场","address":"迎宾一路700"},{"poiid":"B2094757D168A5FB479C","title":"西郊动物园","lon":"121.357255586","lat":"31.1915996757","category":"500","category_name":"未知分类","address":"上海"},{"poiid":"B2094757D06BABFE4698","title":"虹桥机场2号航站楼21号登机口","lon":"121.35440496","lat":"31.1979483666","category":"21","category_name":"飞机场","address":"上海虹桥机场T2"},{"poiid":"B2094757D06AA3FA439E","title":"虹桥1号楼","lon":"121.3544507","lat":"31.1985262788","category":"252","category_name":"楼宇机构","address":"上海虹桥机场"},{"poiid":"B2094757D06FA3FE4199","title":"虹桥机场新村","lon":"121.35444934","lat":"31.184550556","category":"47","category_name":"住宅区","address":"上海市徐汇区龙华西路丰谷路"},{"poiid":"B2094757D065ABFC449E","title":"虹桥机场2号航站楼贵宾厅","lon":"121.34634","lat":"31.19389","category":"65","category_name":"咖啡厅","address":"长宁区虹桥路2550号虹桥机场2号航站楼内"},{"poiid":"B2094757D16FA5FD419E","title":"虹桥机场T1国内到达","lon":"121.3482676","lat":"31.1913282","category":"21","category_name":"飞机场","address":"上海虹桥国际机场1号航站楼国内到达"},{"poiid":"B2094757D06BA7FD4993","title":"虹桥机场1号航站楼B10头等舱候机室","lon":"121.34525386","lat":"31.193621073","category":"21","category_name":"飞机场","address":"上海虹桥国际机场T1"},{"poiid":"B2094757D16CA4FF459D","title":"虹桥机场2号航站楼27号登机口","lon":"121.35021209","lat":"31.192869186","category":"21","category_name":"飞机场","address":"上海虹桥机场T2"},{"poiid":"B2094654D56AA1FB4792","title":"东航上海客舱部","lon":"121.34949","lat":"31.18423","category":"263","category_name":"公司","address":"上海迎宾三路"},{"poiid":"B2094654D56AA2FE4898","title":"东航培训中心","lon":"121.35004","lat":"31.18468","category":"190","category_name":"培训机构","address":"上海迎宾三路288号"},{"poiid":"B2094757D06FA0FD4293","title":"麦当劳(虹桥机场店)","lon":"121.347148","lat":"31.193232","category":"68","category_name":"快餐厅","address":"长宁区虹桥路2550号虹桥机场内(近空港一路)"},{"poiid":"B2094757D16CA1FE4898","title":"上海华港雅阁酒店","lon":"121.34834856","lat":"31.1925758533","category":"217","category_name":"旅馆招待所","address":"上海市长宁区空港一路458号虹桥机场候机楼内"},{"poiid":"B2094654D56AA2FF4493","title":"上海虹桥国际机场B楼(出发)","lon":"121.34634","lat":"31.1939","category":"21","category_name":"飞机场","address":"迎宾一路800号"},{"poiid":"B2094757D06AA2FF4692","title":"虹桥机场1号航站楼B11头等舱贵宾厅","lon":"121.348013875","lat":"31.1912828191","category":"21","category_name":"飞机场","address":"上海虹桥国际机场T1(近B11登机口)"},{"poiid":"B2094757D069AAF4409E","title":"上海国际机场宾馆","lon":"121.351939","lat":"31.193988","category":"217","category_name":"旅馆招待所","address":"长宁区迎宾一路368号(虹桥机场候机楼旁)"},{"poiid":"B2094757D06FA0F4449B","title":"虹桥1号航站楼地铁站","lon":"121.34835688","lat":"31.191216967","category":"36","category_name":"地铁站","address":"上海轨道交通 十号线 轨交虹桥1号航站楼站 10"},{"poiid":"B2094654D56AA2FF449E","title":"上海航友宾馆","lon":"121.35079","lat":"31.19295","category":"215","category_name":"三星级宾馆","address":"上海市长宁区迎宾一路425号(近虹桥机场一号航站楼)"},{"poiid":"B2094757D068ABFE499D","title":"中国东方航空股份有限公司","lon":"121.350748","lat":"31.194755","category":"263","category_name":"公司","address":"上海市虹桥机场空港三路"},{"poiid":"B2094757D66EA1FB449D","title":"虹桥机场2号航站楼22号登机口","lon":"121.34868276","lat":"31.195881323","category":"500","category_name":"未知分类","address":"上海虹桥机场2号航站楼22号登机口"},{"poiid":"B2094757D064A4F44698","title":"上海机场集团有限公司","lon":"121.35063956","lat":"31.186995735","category":"46","category_name":"楼宇","address":"上海迎宾二路200号"},{"poiid":"B2094757D06AA3FE479F","title":"春秋航空","lon":"121.35004078","lat":"31.193489364","category":"251","category_name":"出行住宿","address":"上海空港一路528号2号楼"},{"poiid":"B2094757D568A6FE489D","title":"真功夫(虹桥机场T2店)","lon":"121.351975999998","lat":"31.1938240000001","category":"68","category_name":"快餐厅","address":"闵行区虹桥路2550号虹桥机场T2航站楼内(近迎宾一路)"},{"poiid":"B2094757D068A2F44693","title":"上海霍克太平洋公務機基地","lon":"121.34658056","lat":"31.186510725","category":"260","category_name":"其他","address":"上海迎宾七路99号"},{"poiid":"B2094757D06AA0FC469E","title":"虹桥机场2号航站楼安检通道","lon":"121.346290588","lat":"31.1938991547","category":"21","category_name":"飞机场","address":"上海虹桥机场"},{"poiid":"B2094751D56EA3F5459F","title":"COSTA COFFEE(虹桥机场二店)","lon":"121.35197","lat":"31.19375","category":"65","category_name":"咖啡厅","address":"闵行区虹桥路2550号虹桥机场T2航站楼3楼A岛店(近迎宾一路)"},{"poiid":"B2094654D56AA2FF4492","title":"上海虹桥国际机场B楼(到达)","lon":"121.34634","lat":"31.19389","category":"21","category_name":"飞机场","address":"迎宾一路800号"},{"poiid":"B2094655D26AA2FD4493","title":"东方既白(虹桥机场一店)","lon":"121.34863","lat":"31.19254","category":"68","category_name":"快餐厅","address":"长宁区虹桥路2550号虹桥机场A楼(近空港一路)"},{"poiid":"B2094757D16DABFB479A","title":"永和大王(虹桥一号航站楼店)","lon":"121.34892856","lat":"31.1944028918","category":"68","category_name":"快餐厅","address":"闵行区申达一路1号B1-1-S1虹桥机场T2航站楼到达大厅(近迎宾一路)"},{"poiid":"B2094750D76FAAFE459D","title":"哈根达斯(虹桥机场店)","lon":"121.349","lat":"31.192","category":"113","category_name":"冷饮店","address":"长宁区虹桥路2550号虹桥机场T2航站楼(近申昆路)"},{"poiid":"B2094750D76EA7FD4592","title":"雅品清真面馆","lon":"121.352","lat":"31.1938","category":"87","category_name":"特色／地方风味餐厅","address":"闵行区虹桥路2550号虹桥机场T2航站楼内(近迎宾一路)"},{"poiid":"B2094757D068A7F9499D","title":"沪青平公路","lon":"121.356526","lat":"31.187773","category":"500","category_name":"未知分类","address":"上海沪青平公路336号"},{"poiid":"B2094757D16BA1FA489E","title":"虹桥机场航友宾馆会议中心","lon":"121.35617998","lat":"31.191082165","category":"21","category_name":"飞机场","address":"上海迎宾一路425号"},{"poiid":"B2094757D164A3FD429A","title":"航友宾馆中餐厅","lon":"121.35138","lat":"31.19253","category":"217","category_name":"旅馆招待所","address":"长宁区虹桥路2550号虹桥机场内(近空港一路)"},{"poiid":"B2094757D065A4FA489F","title":"空港一路300号","lon":"121.348536683","lat":"31.1906929442","category":"46","category_name":"楼宇","address":"上海虹桥国际机场公司"},{"poiid":"B2094757D16EABFC4899","title":"东航STARCO机库","lon":"121.3503533","lat":"31.2005093706","category":"500","category_name":"未知分类","address":"上海虹桥机场一号航站楼"},{"poiid":"B2094750D665A6FC4398","title":"永和豆浆(虹桥机场店)","lon":"121.354","lat":"31.1922","category":"68","category_name":"快餐厅","address":"长宁区虹桥路2550号虹桥机场T1航站楼"},{"poiid":"B2094757D06BA5FA449F","title":"日上免税行(虹桥机场店)","lon":"121.34898","lat":"31.19241","category":"122","category_name":"个人用品/化妆品店","address":"上海长宁区虹桥路2550号虹桥机场"},{"poiid":"B2094655D36CA7F8459F","title":"虹桥机场候机楼","lon":"121.34712","lat":"31.19486","category":"38","category_name":"公交车站","address":""},{"poiid":"B2094655D26FA2FB4499","title":"加门","lon":"121.35079","lat":"31.19296","category":"95","category_name":"日本料理","address":"虹桥路2550号国际机场宾馆1楼近沪青平公路"},{"poiid":"B2094757D16FA7FD4698","title":"上海市国际机场分局虹桥公安处","lon":"121.348137566","lat":"31.1884429559","category":"46","category_name":"楼宇","address":"上海空港一路201"},{"poiid":"B2094757D06AA0F5499B","title":"民航华东地区空中交通管理局","lon":"121.350879","lat":"31.194089","category":"500","category_name":"未知分类","address":"上海空港一路171号"},{"poiid":"B2094757D068AAF8429A","title":"上海国航大厦","lon":"121.349887","lat":"31.185197","category":"46","category_name":"楼宇","address":"上海虹桥机场迎宾三路199号"},{"poiid":"B2094654D56AA2FF449F","title":"东航大酒店","lon":"121.34989","lat":"31.19496","category":"70","category_name":"综合酒楼","address":"长宁区空港三路"},{"poiid":"B2094654DB65A6F84598","title":"上海虹桥国际机场","lon":"121.34635","lat":"31.19389","category":"21","category_name":"飞机场","address":"上海长宁区虹桥路2550号,虹桥机场"},{"poiid":"B2094655D36CA7F8459C","title":"虹桥机场(一号航站楼)","lon":"121.34834","lat":"31.19198","category":"21","category_name":"飞机场","address":"长宁区虹桥路2550号"},{"poiid":"B2094757D068A7F94698","title":"虹桥机场T1国际/港澳台出发","lon":"121.348372564","lat":"31.1924143052","category":"21","category_name":"飞机场","address":"上海虹桥国际机场"},{"poiid":"B2094757D169A4FB4099","title":"上海虹桥机场T1航站楼A10登机口","lon":"121.34647116","lat":"31.195816521","category":"21","category_name":"飞机场","address":"上海虹桥机场"},{"poiid":"B2094757D065A2F84892","title":"虹橋機場一號航站樓","lon":"121.34894756","lat":"31.1947728996","category":"500","category_name":"未知分类","address":"上海虹橋機場一號航站樓"},{"poiid":"B2094654D56AABF9449D","title":"上海虹桥国际机场A楼(出发)","lon":"121.34704","lat":"31.19522","category":"21","category_name":"飞机场","address":"迎宾一路700号"},{"poiid":"B2094654D56AABF94492","title":"上海虹桥国际机场A楼(到达)","lon":"121.34704","lat":"31.19522","category":"21","category_name":"飞机场","address":"迎宾一路700"},{"poiid":"B2094757D168A5FB479C","title":"西郊动物园","lon":"121.357255586","lat":"31.1915996757","category":"500","category_name":"未知分类","address":"上海"},{"poiid":"B2094757D06BABFE4698","title":"虹桥机场2号航站楼21号登机口","lon":"121.35440496","lat":"31.1979483666","category":"21","category_name":"飞机场","address":"上海虹桥机场T2"},{"poiid":"B2094757D06AA3FA439E","title":"虹桥1号楼","lon":"121.3544507","lat":"31.1985262788","category":"252","category_name":"楼宇机构","address":"上海虹桥机场"},{"poiid":"B2094757D06FA3FE4199","title":"虹桥机场新村","lon":"121.35444934","lat":"31.184550556","category":"47","category_name":"住宅区","address":"上海市徐汇区龙华西路丰谷路"},{"poiid":"B2094757D065ABFC449E","title":"虹桥机场2号航站楼贵宾厅","lon":"121.34634","lat":"31.19389","category":"65","category_name":"咖啡厅","address":"长宁区虹桥路2550号虹桥机场2号航站楼内"},{"poiid":"B2094757D16FA5FD419E","title":"虹桥机场T1国内到达","lon":"121.3482676","lat":"31.1913282","category":"21","category_name":"飞机场","address":"上海虹桥国际机场1号航站楼国内到达"},{"poiid":"B2094757D06BA7FD4993","title":"虹桥机场1号航站楼B10头等舱候机室","lon":"121.34525386","lat":"31.193621073","category":"21","category_name":"飞机场","address":"上海虹桥国际机场T1"},{"poiid":"B2094757D16CA4FF459D","title":"虹桥机场2号航站楼27号登机口","lon":"121.35021209","lat":"31.192869186","category":"21","category_name":"飞机场","address":"上海虹桥机场T2"},{"poiid":"B2094654D56AA1FB4792","title":"东航上海客舱部","lon":"121.34949","lat":"31.18423","category":"263","category_name":"公司","address":"上海迎宾三路"},{"poiid":"B2094654D56AA2FE4898","title":"东航培训中心","lon":"121.35004","lat":"31.18468","category":"190","category_name":"培训机构","address":"上海迎宾三路288号"},{"poiid":"B2094757D06FA0FD4293","title":"麦当劳(虹桥机场店)","lon":"121.347148","lat":"31.193232","category":"68","category_name":"快餐厅","address":"长宁区虹桥路2550号虹桥机场内(近空港一路)"},{"poiid":"B2094757D16CA1FE4898","title":"上海华港雅阁酒店","lon":"121.34834856","lat":"31.1925758533","category":"217","category_name":"旅馆招待所","address":"上海市长宁区空港一路458号虹桥机场候机楼内"},{"poiid":"B2094654D56AA2FF4493","title":"上海虹桥国际机场B楼(出发)","lon":"121.34634","lat":"31.1939","category":"21","category_name":"飞机场","address":"迎宾一路800号"},{"poiid":"B2094757D06AA2FF4692","title":"虹桥机场1号航站楼B11头等舱贵宾厅","lon":"121.348013875","lat":"31.1912828191","category":"21","category_name":"飞机场","address":"上海虹桥国际机场T1(近B11登机口)"},{"poiid":"B2094757D069AAF4409E","title":"上海国际机场宾馆","lon":"121.351939","lat":"31.193988","category":"217","category_name":"旅馆招待所","address":"长宁区迎宾一路368号(虹桥机场候机楼旁)"},{"poiid":"B2094757D06FA0F4449B","title":"虹桥1号航站楼地铁站","lon":"121.34835688","lat":"31.191216967","category":"36","category_name":"地铁站","address":"上海轨道交通 十号线 轨交虹桥1号航站楼站 10"},{"poiid":"B2094654D56AA2FF449E","title":"上海航友宾馆","lon":"121.35079","lat":"31.19295","category":"215","category_name":"三星级宾馆","address":"上海市长宁区迎宾一路425号(近虹桥机场一号航站楼)"},{"poiid":"B2094757D068ABFE499D","title":"中国东方航空股份有限公司","lon":"121.350748","lat":"31.194755","category":"263","category_name":"公司","address":"上海市虹桥机场空港三路"},{"poiid":"B2094757D66EA1FB449D","title":"虹桥机场2号航站楼22号登机口","lon":"121.34868276","lat":"31.195881323","category":"500","category_name":"未知分类","address":"上海虹桥机场2号航站楼22号登机口"},{"poiid":"B2094757D064A4F44698","title":"上海机场集团有限公司","lon":"121.35063956","lat":"31.186995735","category":"46","category_name":"楼宇","address":"上海迎宾二路200号"},{"poiid":"B2094757D06AA3FE479F","title":"春秋航空","lon":"121.35004078","lat":"31.193489364","category":"251","category_name":"出行住宿","address":"上海空港一路528号2号楼"},{"poiid":"B2094757D568A6FE489D","title":"真功夫(虹桥机场T2店)","lon":"121.351975999998","lat":"31.1938240000001","category":"68","category_name":"快餐厅","address":"闵行区虹桥路2550号虹桥机场T2航站楼内(近迎宾一路)"},{"poiid":"B2094757D068A2F44693","title":"上海霍克太平洋公務機基地","lon":"121.34658056","lat":"31.186510725","category":"260","category_name":"其他","address":"上海迎宾七路99号"},{"poiid":"B2094757D06AA0FC469E","title":"虹桥机场2号航站楼安检通道","lon":"121.346290588","lat":"31.1938991547","category":"21","category_name":"飞机场","address":"上海虹桥机场"},{"poiid":"B2094751D56EA3F5459F","title":"COSTA COFFEE(虹桥机场二店)","lon":"121.35197","lat":"31.19375","category":"65","category_name":"咖啡厅","address":"闵行区虹桥路2550号虹桥机场T2航站楼3楼A岛店(近迎宾一路)"},{"poiid":"B2094654D56AA2FF4492","title":"上海虹桥国际机场B楼(到达)","lon":"121.34634","lat":"31.19389","category":"21","category_name":"飞机场","address":"迎宾一路800号"},{"poiid":"B2094655D26AA2FD4493","title":"东方既白(虹桥机场一店)","lon":"121.34863","lat":"31.19254","category":"68","category_name":"快餐厅","address":"长宁区虹桥路2550号虹桥机场A楼(近空港一路)"},{"poiid":"B2094757D16DABFB479A","title":"永和大王(虹桥一号航站楼店)","lon":"121.34892856","lat":"31.1944028918","category":"68","category_name":"快餐厅","address":"闵行区申达一路1号B1-1-S1虹桥机场T2航站楼到达大厅(近迎宾一路)"},{"poiid":"B2094750D76FAAFE459D","title":"哈根达斯(虹桥机场店)","lon":"121.349","lat":"31.192","category":"113","category_name":"冷饮店","address":"长宁区虹桥路2550号虹桥机场T2航站楼(近申昆路)"},{"poiid":"B2094750D76EA7FD4592","title":"雅品清真面馆","lon":"121.352","lat":"31.1938","category":"87","category_name":"特色／地方风味餐厅","address":"闵行区虹桥路2550号虹桥机场T2航站楼内(近迎宾一路)"},{"poiid":"B2094757D068A7F9499D","title":"沪青平公路","lon":"121.356526","lat":"31.187773","category":"500","category_name":"未知分类","address":"上海沪青平公路336号"},{"poiid":"B2094757D16BA1FA489E","title":"虹桥机场航友宾馆会议中心","lon":"121.35617998","lat":"31.191082165","category":"21","category_name":"飞机场","address":"上海迎宾一路425号"},{"poiid":"B2094757D164A3FD429A","title":"航友宾馆中餐厅","lon":"121.35138","lat":"31.19253","category":"217","category_name":"旅馆招待所","address":"长宁区虹桥路2550号虹桥机场内(近空港一路)"},{"poiid":"B2094757D065A4FA489F","title":"空港一路300号","lon":"121.348536683","lat":"31.1906929442","category":"46","category_name":"楼宇","address":"上海虹桥国际机场公司"},{"poiid":"B2094757D16EABFC4899","title":"东航STARCO机库","lon":"121.3503533","lat":"31.2005093706","category":"500","category_name":"未知分类","address":"上海虹桥机场一号航站楼"},{"poiid":"B2094750D665A6FC4398","title":"永和豆浆(虹桥机场店)","lon":"121.354","lat":"31.1922","category":"68","category_name":"快餐厅","address":"长宁区虹桥路2550号虹桥机场T1航站楼"},{"poiid":"B2094757D06BA5FA449F","title":"日上免税行(虹桥机场店)","lon":"121.34898","lat":"31.19241","category":"122","category_name":"个人用品/化妆品店","address":"上海长宁区虹桥路2550号虹桥机场"},{"poiid":"B2094655D36CA7F8459F","title":"虹桥机场候机楼","lon":"121.34712","lat":"31.19486","category":"38","category_name":"公交车站","address":""},{"poiid":"B2094655D26FA2FB4499","title":"加门","lon":"121.35079","lat":"31.19296","category":"95","category_name":"日本料理","address":"虹桥路2550号国际机场宾馆1楼近沪青平公路"},{"poiid":"B2094757D16FA7FD4698","title":"上海市国际机场分局虹桥公安处","lon":"121.348137566","lat":"31.1884429559","category":"46","category_name":"楼宇","address":"上海空港一路201"},{"poiid":"B2094757D06AA0F5499B","title":"民航华东地区空中交通管理局","lon":"121.350879","lat":"31.194089","category":"500","category_name":"未知分类","address":"上海空港一路171号"},{"poiid":"B2094757D068AAF8429A","title":"上海国航大厦","lon":"121.349887","lat":"31.185197","category":"46","category_name":"楼宇","address":"上海虹桥机场迎宾三路199号"},{"poiid":"B2094654D56AA2FF449F","title":"东航大酒店","lon":"121.34989","lat":"31.19496","category":"70","category_name":"综合酒楼","address":"长宁区空港三路"}]