[{"poiid":"B2094757D06FA0F94692","title":"上海金融学院","lon":"121.6536383","lat":"31.2764308","category":"671","category_name":"高校中心点","address":"上海上川路995号"},{"poiid":"B2094654D569A2F9449E","title":"上海金融学院学生公寓","lon":"121.65841","lat":"31.27462","category":"47","category_name":"住宅区","address":"上海浦东新区民雪路108号"},{"poiid":"B2094655D26BA7F84499","title":"上海杉达学院","lon":"121.6587244618845","lat":"31.266664708677787","category":"253","category_name":"校园生活","address":"浦东新区金海路2727号"},{"poiid":"B2094654DB6BA1FA469B","title":"上海第二工业大学","lon":"121.65148","lat":"31.26086","category":"671","category_name":"高校中心点","address":"浦东新区金海路2360号"},{"poiid":"B2094752D56CA6F9459A","title":"宝龙城市广场","lon":"121.659509","lat":"31.272171","category":"47","category_name":"住宅区","address":"金海路2505弄近民耀路"},{"poiid":"B2094654D569A3F5479E","title":"上海第二工业大学学生公寓","lon":"121.65776","lat":"31.26113","category":"47","category_name":"住宅区","address":""},{"poiid":"B2094757D06AA1FE419B","title":"杉达学院女生寝室","lon":"121.6590271","lat":"31.267677307","category":"500","category_name":"未知分类","address":null},{"poiid":"B2094757D068A1F84599","title":"曹路","lon":"121.668468","lat":"31.278657","category":"500","category_name":"未知分类","address":"上海上川路川沙路"},{"poiid":"B2094757D16EABF9479D","title":"阳光苑","lon":"121.65295731","lat":"31.272371545","category":"47","category_name":"住宅区","address":"上海浦东新区民耀路268弄"},{"poiid":"B2094757D068A4FB489E","title":"上海金融学院图书馆","lon":"121.65375","lat":"31.27627","category":"253","category_name":"校园生活","address":"浦东新区上川路995号"},{"poiid":"B2094757D068A6FB409D","title":"上海第二工业大学图书馆","lon":"121.65252","lat":"31.26446","category":"253","category_name":"校园生活","address":"上海浦东新区金海路2360号"},{"poiid":"B2094757D069A0F4419B","title":"梦奇园海鲜大酒店","lon":"121.66341","lat":"31.2742","category":"260","category_name":"其他","address":"浦东新区曹路镇民雨路390号(民春路)"},{"poiid":"B2094757D168A2FD449F","title":"上海金融学院文博楼","lon":"121.65687445","lat":"31.275942651","category":"500","category_name":"未知分类","address":"上海上川路995号"},{"poiid":"B2094757D069A7FA4293","title":"上海金融学院六号教学楼","lon":"121.65058533","lat":"31.278383449","category":"500","category_name":"未知分类","address":"上海上川路995号"},{"poiid":"B2094655D26BA1F94099","title":"民耀路民区路","lon":"121.65265","lat":"31.27339","category":"38","category_name":"公交车站","address":""},{"poiid":"B2094654D569A3FF419E","title":"杉达大学(金海路)","lon":"121.66515","lat":"31.26829","category":"671","category_name":"高校中心点","address":"浦东新区金海路2727号"},{"poiid":"B2094757D164A1F44298","title":"上海金融学院新苑二号","lon":"121.65838545","lat":"31.2812884666","category":"500","category_name":"未知分类","address":"上海市浦东新区民雪路"},{"poiid":"B2094757D069A4FE479C","title":"蜀膳传火锅传奇 民耀路店","lon":"121.65199069654","lat":"31.27541289843","category":"86","category_name":"火锅店","address":"浦东新区民耀路217-219号(民区路民耀路)"},{"poiid":"B2094757D16CA3FC429F","title":"赵记麻辣烫","lon":"121.65879","lat":"31.27452","category":"68","category_name":"快餐厅","address":"浦东新区民雪路(金融学院宿舍对面)"},{"poiid":"B2094757D064A4FD4099","title":"上海金融学院食堂","lon":"121.65265","lat":"31.27685","category":"68","category_name":"快餐厅","address":"浦东新区上海金融学院内"},{"poiid":"B2094757D06AA6F44798","title":"杉达黑暗料理街","lon":"121.65786","lat":"31.26612","category":"111","category_name":"休闲餐饮场所","address":"浦东新区金海路2727号杉达学院附近(近民耀路)"},{"poiid":"B2094654D569A2F8439D","title":"百味楼","lon":"121.65481","lat":"31.26933","category":"68","category_name":"快餐厅","address":"浦东新区曹路镇民耀路191号(阳光苑旁)"},{"poiid":"B2094654D569A2F84198","title":"东北人家(民耀路)","lon":"121.65393","lat":"31.27163","category":"82","category_name":"东北菜","address":"浦东新区民耀路271号"},{"poiid":"B2094757D76CA3F8439A","title":"都可茶饮 民雪路店 CoCo","lon":"121.65813","lat":"31.27536","category":"113","category_name":"冷饮店","address":"浦东新区民雪路108号(近上海金融学院)"},{"poiid":"B2094654D569A2F9459E","title":"爱晚亭湘菜馆","lon":"121.65917","lat":"31.27359","category":"77","category_name":"湖南菜","address":"浦东新区民春路125号(近上海金融学院学生公寓)"},{"poiid":"B2094757D064A3F84399","title":"上海金融学院体育馆","lon":"121.65348815","lat":"31.276546478","category":"500","category_name":"未知分类","address":"浦东新区上川路995号上海金融学院内"},{"poiid":"B2094757D164A5FC499F","title":"佳室鸣香","lon":"121.65844","lat":"31.27527","category":"68","category_name":"快餐厅","address":"浦东新区民雪路108号(近上川路)"},{"poiid":"B2094654D569A2F8429C","title":"新芳邻","lon":"121.653489","lat":"31.271609","category":"47","category_name":"住宅区","address":"康惠苑位于徐汇康健路16弄(沪闵路)"},{"poiid":"B2094654D569A2FC4299","title":"克莉丝汀 民耀路店","lon":"121.65397","lat":"31.27159","category":"112","category_name":"糕饼店","address":"浦东新区民耀路270-278号(近民区路)"},{"poiid":"B2094654DB65A7F44893","title":"阿康烧烤(金融学院店)","lon":"121.65842","lat":"31.27473","category":"87","category_name":"特色／地方风味餐厅","address":"浦东新区民雪路"},{"poiid":"B2094757D46FABFC439C","title":"1 1韩国烤肉自助餐 民耀路店","lon":"121.6543","lat":"31.2706485","category":"268","category_name":"自助","address":"浦东新区曹路镇民耀路374号(近金海路)"},{"poiid":"B2094654D569A2F94498","title":"三兄弟饭店","lon":"121.65833","lat":"31.27476","category":"257","category_name":"中餐厅","address":""},{"poiid":"B2094654D569A2F9469B","title":"福建千里香馄饨民雪店","lon":"121.6584","lat":"31.27507","category":"257","category_name":"中餐厅","address":""},{"poiid":"B2094655D36CA2F4429F","title":"上川路华东路","lon":"121.65701","lat":"31.27666","category":"38","category_name":"公交车站","address":""},{"poiid":"B2094654D569A2F94293","title":"兰州正宗牛肉拉面(民雪路)","lon":"121.65785","lat":"31.27545","category":"90","category_name":"清真餐馆","address":""},{"poiid":"B2094751D369A0FC479A","title":"星空咖啡厅(金融学院店)","lon":"121.65348","lat":"31.27654","category":"65","category_name":"咖啡厅","address":"浦东新区上川路995号金融学院内"},{"poiid":"B2094654D569A2F9429C","title":"芭比镘头先锋服务社民雪分店","lon":"121.65788","lat":"31.27571","category":"247","category_name":"餐饮美食","address":""},{"poiid":"B2094654D569A2F9449F","title":"二缘阁川菜馆","lon":"121.6589","lat":"31.27315","category":"71","category_name":"四川菜","address":""},{"poiid":"B2094654D569A2F94599","title":"鸿运来东北菜馆","lon":"121.65925","lat":"31.27343","category":"82","category_name":"东北菜","address":""},{"poiid":"B2094757D168AAFD429B","title":"爱法花园二期","lon":"121.661","lat":"31.2763","category":"47","category_name":"住宅区","address":"民耀路423弄"},{"poiid":"B2094655D36CA2F4429C","title":"上川路民雪路","lon":"121.65757","lat":"31.2768","category":"38","category_name":"公交车站","address":""},{"poiid":"B2094757D465A5F94692","title":"盱眙龙虾城","lon":"121.65357","lat":"31.2723","category":"68","category_name":"快餐厅","address":"浦东新区曹路镇民耀路231号(民区路民耀路)"},{"poiid":"B2094654D569A2F8419F","title":"重庆鸡公煲(民耀路)","lon":"121.65454","lat":"31.27051","category":"71","category_name":"四川菜","address":"浦东新区民耀路杉达大学附近(民同路路口)"},{"poiid":"B2094757D06BAAF9489E","title":"伊铭坊 民耀路店","lon":"121.653142054","lat":"31.273166793","category":"86","category_name":"火锅店","address":"浦东新区民耀路235-241号(近民区路)"},{"poiid":"B2094757D16FA5FE409E","title":"溢佳香","lon":"121.66238272","lat":"31.275625904","category":"68","category_name":"快餐厅","address":"浦东新区民雨路327-331号(近民雪路)"},{"poiid":"B2094757D169A2F9429F","title":"鸿运","lon":"121.658259","lat":"31.274913","category":"500","category_name":"未知分类","address":"上海民雪路。"},{"poiid":"B2094654D569A2F94298","title":"土家掉渣烧饼(民雪路)","lon":"121.65753","lat":"31.2764","category":"247","category_name":"餐饮美食","address":""},{"poiid":"B2094757D16DA2F44198","title":"星美正大国际影城IMAX厅","lon":"121.651799339","lat":"31.2752786784","category":"178","category_name":"电影院","address":"上海浦东新区陆家嘴正大广场八楼"},{"poiid":"B2094757D06BA4FD4599","title":"村夫烤鱼(民耀路店)","lon":"121.654549","lat":"31.270515","category":"247","category_name":"餐饮美食","address":"上海浦东民耀路"},{"poiid":"B2094757D168A1FF469B","title":"coco 都可茶饮","lon":"121.656724558","lat":"31.2755383925","category":"500","category_name":"未知分类","address":"上海民雪路"},{"poiid":"B2094757D06FA0F94692","title":"上海金融学院","lon":"121.6536383","lat":"31.2764308","category":"671","category_name":"高校中心点","address":"上海上川路995号"},{"poiid":"B2094654D569A2F9449E","title":"上海金融学院学生公寓","lon":"121.65841","lat":"31.27462","category":"47","category_name":"住宅区","address":"上海浦东新区民雪路108号"},{"poiid":"B2094655D26BA7F84499","title":"上海杉达学院","lon":"121.6587244618845","lat":"31.266664708677787","category":"253","category_name":"校园生活","address":"浦东新区金海路2727号"},{"poiid":"B2094654DB6BA1FA469B","title":"上海第二工业大学","lon":"121.65148","lat":"31.26086","category":"671","category_name":"高校中心点","address":"浦东新区金海路2360号"},{"poiid":"B2094752D56CA6F9459A","title":"宝龙城市广场","lon":"121.659509","lat":"31.272171","category":"47","category_name":"住宅区","address":"金海路2505弄近民耀路"},{"poiid":"B2094654D569A3F5479E","title":"上海第二工业大学学生公寓","lon":"121.65776","lat":"31.26113","category":"47","category_name":"住宅区","address":""},{"poiid":"B2094757D06AA1FE419B","title":"杉达学院女生寝室","lon":"121.6590271","lat":"31.267677307","category":"500","category_name":"未知分类","address":null},{"poiid":"B2094757D068A1F84599","title":"曹路","lon":"121.668468","lat":"31.278657","category":"500","category_name":"未知分类","address":"上海上川路川沙路"},{"poiid":"B2094757D16EABF9479D","title":"阳光苑","lon":"121.65295731","lat":"31.272371545","category":"47","category_name":"住宅区","address":"上海浦东新区民耀路268弄"},{"poiid":"B2094757D068A4FB489E","title":"上海金融学院图书馆","lon":"121.65375","lat":"31.27627","category":"253","category_name":"校园生活","address":"浦东新区上川路995号"},{"poiid":"B2094757D068A6FB409D","title":"上海第二工业大学图书馆","lon":"121.65252","lat":"31.26446","category":"253","category_name":"校园生活","address":"上海浦东新区金海路2360号"},{"poiid":"B2094757D069A0F4419B","title":"梦奇园海鲜大酒店","lon":"121.66341","lat":"31.2742","category":"260","category_name":"其他","address":"浦东新区曹路镇民雨路390号(民春路)"},{"poiid":"B2094757D168A2FD449F","title":"上海金融学院文博楼","lon":"121.65687445","lat":"31.275942651","category":"500","category_name":"未知分类","address":"上海上川路995号"},{"poiid":"B2094757D069A7FA4293","title":"上海金融学院六号教学楼","lon":"121.65058533","lat":"31.278383449","category":"500","category_name":"未知分类","address":"上海上川路995号"},{"poiid":"B2094655D26BA1F94099","title":"民耀路民区路","lon":"121.65265","lat":"31.27339","category":"38","category_name":"公交车站","address":""},{"poiid":"B2094654D569A3FF419E","title":"杉达大学(金海路)","lon":"121.66515","lat":"31.26829","category":"671","category_name":"高校中心点","address":"浦东新区金海路2727号"},{"poiid":"B2094757D164A1F44298","title":"上海金融学院新苑二号","lon":"121.65838545","lat":"31.2812884666","category":"500","category_name":"未知分类","address":"上海市浦东新区民雪路"},{"poiid":"B2094757D069A4FE479C","title":"蜀膳传火锅传奇 民耀路店","lon":"121.65199069654","lat":"31.27541289843","category":"86","category_name":"火锅店","address":"浦东新区民耀路217-219号(民区路民耀路)"},{"poiid":"B2094757D16CA3FC429F","title":"赵记麻辣烫","lon":"121.65879","lat":"31.27452","category":"68","category_name":"快餐厅","address":"浦东新区民雪路(金融学院宿舍对面)"},{"poiid":"B2094757D064A4FD4099","title":"上海金融学院食堂","lon":"121.65265","lat":"31.27685","category":"68","category_name":"快餐厅","address":"浦东新区上海金融学院内"},{"poiid":"B2094757D06AA6F44798","title":"杉达黑暗料理街","lon":"121.65786","lat":"31.26612","category":"111","category_name":"休闲餐饮场所","address":"浦东新区金海路2727号杉达学院附近(近民耀路)"},{"poiid":"B2094654D569A2F8439D","title":"百味楼","lon":"121.65481","lat":"31.26933","category":"68","category_name":"快餐厅","address":"浦东新区曹路镇民耀路191号(阳光苑旁)"},{"poiid":"B2094654D569A2F84198","title":"东北人家(民耀路)","lon":"121.65393","lat":"31.27163","category":"82","category_name":"东北菜","address":"浦东新区民耀路271号"},{"poiid":"B2094757D76CA3F8439A","title":"都可茶饮 民雪路店 CoCo","lon":"121.65813","lat":"31.27536","category":"113","category_name":"冷饮店","address":"浦东新区民雪路108号(近上海金融学院)"},{"poiid":"B2094654D569A2F9459E","title":"爱晚亭湘菜馆","lon":"121.65917","lat":"31.27359","category":"77","category_name":"湖南菜","address":"浦东新区民春路125号(近上海金融学院学生公寓)"},{"poiid":"B2094757D064A3F84399","title":"上海金融学院体育馆","lon":"121.65348815","lat":"31.276546478","category":"500","category_name":"未知分类","address":"浦东新区上川路995号上海金融学院内"},{"poiid":"B2094757D164A5FC499F","title":"佳室鸣香","lon":"121.65844","lat":"31.27527","category":"68","category_name":"快餐厅","address":"浦东新区民雪路108号(近上川路)"},{"poiid":"B2094654D569A2F8429C","title":"新芳邻","lon":"121.653489","lat":"31.271609","category":"47","category_name":"住宅区","address":"康惠苑位于徐汇康健路16弄(沪闵路)"},{"poiid":"B2094654D569A2FC4299","title":"克莉丝汀 民耀路店","lon":"121.65397","lat":"31.27159","category":"112","category_name":"糕饼店","address":"浦东新区民耀路270-278号(近民区路)"},{"poiid":"B2094654DB65A7F44893","title":"阿康烧烤(金融学院店)","lon":"121.65842","lat":"31.27473","category":"87","category_name":"特色／地方风味餐厅","address":"浦东新区民雪路"},{"poiid":"B2094757D46FABFC439C","title":"1 1韩国烤肉自助餐 民耀路店","lon":"121.6543","lat":"31.2706485","category":"268","category_name":"自助","address":"浦东新区曹路镇民耀路374号(近金海路)"},{"poiid":"B2094654D569A2F94498","title":"三兄弟饭店","lon":"121.65833","lat":"31.27476","category":"257","category_name":"中餐厅","address":""},{"poiid":"B2094654D569A2F9469B","title":"福建千里香馄饨民雪店","lon":"121.6584","lat":"31.27507","category":"257","category_name":"中餐厅","address":""},{"poiid":"B2094655D36CA2F4429F","title":"上川路华东路","lon":"121.65701","lat":"31.27666","category":"38","category_name":"公交车站","address":""},{"poiid":"B2094654D569A2F94293","title":"兰州正宗牛肉拉面(民雪路)","lon":"121.65785","lat":"31.27545","category":"90","category_name":"清真餐馆","address":""},{"poiid":"B2094751D369A0FC479A","title":"星空咖啡厅(金融学院店)","lon":"121.65348","lat":"31.27654","category":"65","category_name":"咖啡厅","address":"浦东新区上川路995号金融学院内"},{"poiid":"B2094654D569A2F9429C","title":"芭比镘头先锋服务社民雪分店","lon":"121.65788","lat":"31.27571","category":"247","category_name":"餐饮美食","address":""},{"poiid":"B2094654D569A2F9449F","title":"二缘阁川菜馆","lon":"121.6589","lat":"31.27315","category":"71","category_name":"四川菜","address":""},{"poiid":"B2094654D569A2F94599","title":"鸿运来东北菜馆","lon":"121.65925","lat":"31.27343","category":"82","category_name":"东北菜","address":""},{"poiid":"B2094757D168AAFD429B","title":"爱法花园二期","lon":"121.661","lat":"31.2763","category":"47","category_name":"住宅区","address":"民耀路423弄"},{"poiid":"B2094655D36CA2F4429C","title":"上川路民雪路","lon":"121.65757","lat":"31.2768","category":"38","category_name":"公交车站","address":""},{"poiid":"B2094757D465A5F94692","title":"盱眙龙虾城","lon":"121.65357","lat":"31.2723","category":"68","category_name":"快餐厅","address":"浦东新区曹路镇民耀路231号(民区路民耀路)"},{"poiid":"B2094654D569A2F8419F","title":"重庆鸡公煲(民耀路)","lon":"121.65454","lat":"31.27051","category":"71","category_name":"四川菜","address":"浦东新区民耀路杉达大学附近(民同路路口)"},{"poiid":"B2094757D06BAAF9489E","title":"伊铭坊 民耀路店","lon":"121.653142054","lat":"31.273166793","category":"86","category_name":"火锅店","address":"浦东新区民耀路235-241号(近民区路)"},{"poiid":"B2094757D16FA5FE409E","title":"溢佳香","lon":"121.66238272","lat":"31.275625904","category":"68","category_name":"快餐厅","address":"浦东新区民雨路327-331号(近民雪路)"},{"poiid":"B2094757D169A2F9429F","title":"鸿运","lon":"121.658259","lat":"31.274913","category":"500","category_name":"未知分类","address":"上海民雪路。"},{"poiid":"B2094654D569A2F94298","title":"土家掉渣烧饼(民雪路)","lon":"121.65753","lat":"31.2764","category":"247","category_name":"餐饮美食","address":""},{"poiid":"B2094757D16DA2F44198","title":"星美正大国际影城IMAX厅","lon":"121.651799339","lat":"31.2752786784","category":"178","category_name":"电影院","address":"上海浦东新区陆家嘴正大广场八楼"},{"poiid":"B2094757D06BA4FD4599","title":"村夫烤鱼(民耀路店)","lon":"121.654549","lat":"31.270515","category":"247","category_name":"餐饮美食","address":"上海浦东民耀路"},{"poiid":"B2094757D168A1FF469B","title":"coco 都可茶饮","lon":"121.656724558","lat":"31.2755383925","category":"500","category_name":"未知分类","address":"上海民雪路"},{"poiid":"B2094757D06FA0F94692","title":"上海金融学院","lon":"121.6536383","lat":"31.2764308","category":"671","category_name":"高校中心点","address":"上海上川路995号"},{"poiid":"B2094654D569A2F9449E","title":"上海金融学院学生公寓","lon":"121.65841","lat":"31.27462","category":"47","category_name":"住宅区","address":"上海浦东新区民雪路108号"},{"poiid":"B2094655D26BA7F84499","title":"上海杉达学院","lon":"121.6587244618845","lat":"31.266664708677787","category":"253","category_name":"校园生活","address":"浦东新区金海路2727号"},{"poiid":"B2094654DB6BA1FA469B","title":"上海第二工业大学","lon":"121.65148","lat":"31.26086","category":"671","category_name":"高校中心点","address":"浦东新区金海路2360号"},{"poiid":"B2094752D56CA6F9459A","title":"宝龙城市广场","lon":"121.659509","lat":"31.272171","category":"47","category_name":"住宅区","address":"金海路2505弄近民耀路"},{"poiid":"B2094654D569A3F5479E","title":"上海第二工业大学学生公寓","lon":"121.65776","lat":"31.26113","category":"47","category_name":"住宅区","address":""},{"poiid":"B2094757D06AA1FE419B","title":"杉达学院女生寝室","lon":"121.6590271","lat":"31.267677307","category":"500","category_name":"未知分类","address":null},{"poiid":"B2094757D068A1F84599","title":"曹路","lon":"121.668468","lat":"31.278657","category":"500","category_name":"未知分类","address":"上海上川路川沙路"},{"poiid":"B2094757D16EABF9479D","title":"阳光苑","lon":"121.65295731","lat":"31.272371545","category":"47","category_name":"住宅区","address":"上海浦东新区民耀路268弄"},{"poiid":"B2094757D068A4FB489E","title":"上海金融学院图书馆","lon":"121.65375","lat":"31.27627","category":"253","category_name":"校园生活","address":"浦东新区上川路995号"},{"poiid":"B2094757D068A6FB409D","title":"上海第二工业大学图书馆","lon":"121.65252","lat":"31.26446","category":"253","category_name":"校园生活","address":"上海浦东新区金海路2360号"},{"poiid":"B2094757D069A0F4419B","title":"梦奇园海鲜大酒店","lon":"121.66341","lat":"31.2742","category":"260","category_name":"其他","address":"浦东新区曹路镇民雨路390号(民春路)"},{"poiid":"B2094757D168A2FD449F","title":"上海金融学院文博楼","lon":"121.65687445","lat":"31.275942651","category":"500","category_name":"未知分类","address":"上海上川路995号"},{"poiid":"B2094757D069A7FA4293","title":"上海金融学院六号教学楼","lon":"121.65058533","lat":"31.278383449","category":"500","category_name":"未知分类","address":"上海上川路995号"},{"poiid":"B2094655D26BA1F94099","title":"民耀路民区路","lon":"121.65265","lat":"31.27339","category":"38","category_name":"公交车站","address":""},{"poiid":"B2094654D569A3FF419E","title":"杉达大学(金海路)","lon":"121.66515","lat":"31.26829","category":"671","category_name":"高校中心点","address":"浦东新区金海路2727号"},{"poiid":"B2094757D164A1F44298","title":"上海金融学院新苑二号","lon":"121.65838545","lat":"31.2812884666","category":"500","category_name":"未知分类","address":"上海市浦东新区民雪路"},{"poiid":"B2094757D069A4FE479C","title":"蜀膳传火锅传奇 民耀路店","lon":"121.65199069654","lat":"31.27541289843","category":"86","category_name":"火锅店","address":"浦东新区民耀路217-219号(民区路民耀路)"},{"poiid":"B2094757D16CA3FC429F","title":"赵记麻辣烫","lon":"121.65879","lat":"31.27452","category":"68","category_name":"快餐厅","address":"浦东新区民雪路(金融学院宿舍对面)"},{"poiid":"B2094757D064A4FD4099","title":"上海金融学院食堂","lon":"121.65265","lat":"31.27685","category":"68","category_name":"快餐厅","address":"浦东新区上海金融学院内"},{"poiid":"B2094757D06AA6F44798","title":"杉达黑暗料理街","lon":"121.65786","lat":"31.26612","category":"111","category_name":"休闲餐饮场所","address":"浦东新区金海路2727号杉达学院附近(近民耀路)"},{"poiid":"B2094654D569A2F8439D","title":"百味楼","lon":"121.65481","lat":"31.26933","category":"68","category_name":"快餐厅","address":"浦东新区曹路镇民耀路191号(阳光苑旁)"},{"poiid":"B2094654D569A2F84198","title":"东北人家(民耀路)","lon":"121.65393","lat":"31.27163","category":"82","category_name":"东北菜","address":"浦东新区民耀路271号"},{"poiid":"B2094757D76CA3F8439A","title":"都可茶饮 民雪路店 CoCo","lon":"121.65813","lat":"31.27536","category":"113","category_name":"冷饮店","address":"浦东新区民雪路108号(近上海金融学院)"},{"poiid":"B2094654D569A2F9459E","title":"爱晚亭湘菜馆","lon":"121.65917","lat":"31.27359","category":"77","category_name":"湖南菜","address":"浦东新区民春路125号(近上海金融学院学生公寓)"},{"poiid":"B2094757D064A3F84399","title":"上海金融学院体育馆","lon":"121.65348815","lat":"31.276546478","category":"500","category_name":"未知分类","address":"浦东新区上川路995号上海金融学院内"},{"poiid":"B2094757D164A5FC499F","title":"佳室鸣香","lon":"121.65844","lat":"31.27527","category":"68","category_name":"快餐厅","address":"浦东新区民雪路108号(近上川路)"},{"poiid":"B2094654D569A2F8429C","title":"新芳邻","lon":"121.653489","lat":"31.271609","category":"47","category_name":"住宅区","address":"康惠苑位于徐汇康健路16弄(沪闵路)"},{"poiid":"B2094654D569A2FC4299","title":"克莉丝汀 民耀路店","lon":"121.65397","lat":"31.27159","category":"112","category_name":"糕饼店","address":"浦东新区民耀路270-278号(近民区路)"},{"poiid":"B2094654DB65A7F44893","title":"阿康烧烤(金融学院店)","lon":"121.65842","lat":"31.27473","category":"87","category_name":"特色／地方风味餐厅","address":"浦东新区民雪路"},{"poiid":"B2094757D46FABFC439C","title":"1 1韩国烤肉自助餐 民耀路店","lon":"121.6543","lat":"31.2706485","category":"268","category_name":"自助","address":"浦东新区曹路镇民耀路374号(近金海路)"},{"poiid":"B2094654D569A2F94498","title":"三兄弟饭店","lon":"121.65833","lat":"31.27476","category":"257","category_name":"中餐厅","address":""},{"poiid":"B2094654D569A2F9469B","title":"福建千里香馄饨民雪店","lon":"121.6584","lat":"31.27507","category":"257","category_name":"中餐厅","address":""},{"poiid":"B2094655D36CA2F4429F","title":"上川路华东路","lon":"121.65701","lat":"31.27666","category":"38","category_name":"公交车站","address":""},{"poiid":"B2094654D569A2F94293","title":"兰州正宗牛肉拉面(民雪路)","lon":"121.65785","lat":"31.27545","category":"90","category_name":"清真餐馆","address":""},{"poiid":"B2094751D369A0FC479A","title":"星空咖啡厅(金融学院店)","lon":"121.65348","lat":"31.27654","category":"65","category_name":"咖啡厅","address":"浦东新区上川路995号金融学院内"},{"poiid":"B2094654D569A2F9429C","title":"芭比镘头先锋服务社民雪分店","lon":"121.65788","lat":"31.27571","category":"247","category_name":"餐饮美食","address":""},{"poiid":"B2094654D569A2F9449F","title":"二缘阁川菜馆","lon":"121.6589","lat":"31.27315","category":"71","category_name":"四川菜","address":""},{"poiid":"B2094654D569A2F94599","title":"鸿运来东北菜馆","lon":"121.65925","lat":"31.27343","category":"82","category_name":"东北菜","address":""},{"poiid":"B2094757D168AAFD429B","title":"爱法花园二期","lon":"121.661","lat":"31.2763","category":"47","category_name":"住宅区","address":"民耀路423弄"},{"poiid":"B2094655D36CA2F4429C","title":"上川路民雪路","lon":"121.65757","lat":"31.2768","category":"38","category_name":"公交车站","address":""},{"poiid":"B2094757D465A5F94692","title":"盱眙龙虾城","lon":"121.65357","lat":"31.2723","category":"68","category_name":"快餐厅","address":"浦东新区曹路镇民耀路231号(民区路民耀路)"},{"poiid":"B2094654D569A2F8419F","title":"重庆鸡公煲(民耀路)","lon":"121.65454","lat":"31.27051","category":"71","category_name":"四川菜","address":"浦东新区民耀路杉达大学附近(民同路路口)"},{"poiid":"B2094757D06BAAF9489E","title":"伊铭坊 民耀路店","lon":"121.653142054","lat":"31.273166793","category":"86","category_name":"火锅店","address":"浦东新区民耀路235-241号(近民区路)"},{"poiid":"B2094757D16FA5FE409E","title":"溢佳香","lon":"121.66238272","lat":"31.275625904","category":"68","category_name":"快餐厅","address":"浦东新区民雨路327-331号(近民雪路)"},{"poiid":"B2094757D169A2F9429F","title":"鸿运","lon":"121.658259","lat":"31.274913","category":"500","category_name":"未知分类","address":"上海民雪路。"},{"poiid":"B2094654D569A2F94298","title":"土家掉渣烧饼(民雪路)","lon":"121.65753","lat":"31.2764","category":"247","category_name":"餐饮美食","address":""},{"poiid":"B2094757D16DA2F44198","title":"星美正大国际影城IMAX厅","lon":"121.651799339","lat":"31.2752786784","category":"178","category_name":"电影院","address":"上海浦东新区陆家嘴正大广场八楼"},{"poiid":"B2094757D06BA4FD4599","title":"村夫烤鱼(民耀路店)","lon":"121.654549","lat":"31.270515","category":"247","category_name":"餐饮美食","address":"上海浦东民耀路"},{"poiid":"B2094757D168A1FF469B","title":"coco 都可茶饮","lon":"121.656724558","lat":"31.2755383925","category":"500","category_name":"未知分类","address":"上海民雪路"},{"poiid":"B2094757D06FA0F94692","title":"上海金融学院","lon":"121.6536383","lat":"31.2764308","category":"671","category_name":"高校中心点","address":"上海上川路995号"},{"poiid":"B2094654D569A2F9449E","title":"上海金融学院学生公寓","lon":"121.65841","lat":"31.27462","category":"47","category_name":"住宅区","address":"上海浦东新区民雪路108号"},{"poiid":"B2094655D26BA7F84499","title":"上海杉达学院","lon":"121.6587244618845","lat":"31.266664708677787","category":"253","category_name":"校园生活","address":"浦东新区金海路2727号"},{"poiid":"B2094654DB6BA1FA469B","title":"上海第二工业大学","lon":"121.65148","lat":"31.26086","category":"671","category_name":"高校中心点","address":"浦东新区金海路2360号"},{"poiid":"B2094752D56CA6F9459A","title":"宝龙城市广场","lon":"121.659509","lat":"31.272171","category":"47","category_name":"住宅区","address":"金海路2505弄近民耀路"},{"poiid":"B2094654D569A3F5479E","title":"上海第二工业大学学生公寓","lon":"121.65776","lat":"31.26113","category":"47","category_name":"住宅区","address":""},{"poiid":"B2094757D06AA1FE419B","title":"杉达学院女生寝室","lon":"121.6590271","lat":"31.267677307","category":"500","category_name":"未知分类","address":null},{"poiid":"B2094757D068A1F84599","title":"曹路","lon":"121.668468","lat":"31.278657","category":"500","category_name":"未知分类","address":"上海上川路川沙路"},{"poiid":"B2094757D16EABF9479D","title":"阳光苑","lon":"121.65295731","lat":"31.272371545","category":"47","category_name":"住宅区","address":"上海浦东新区民耀路268弄"},{"poiid":"B2094757D068A4FB489E","title":"上海金融学院图书馆","lon":"121.65375","lat":"31.27627","category":"253","category_name":"校园生活","address":"浦东新区上川路995号"},{"poiid":"B2094757D068A6FB409D","title":"上海第二工业大学图书馆","lon":"121.65252","lat":"31.26446","category":"253","category_name":"校园生活","address":"上海浦东新区金海路2360号"},{"poiid":"B2094757D069A0F4419B","title":"梦奇园海鲜大酒店","lon":"121.66341","lat":"31.2742","category":"260","category_name":"其他","address":"浦东新区曹路镇民雨路390号(民春路)"},{"poiid":"B2094757D168A2FD449F","title":"上海金融学院文博楼","lon":"121.65687445","lat":"31.275942651","category":"500","category_name":"未知分类","address":"上海上川路995号"},{"poiid":"B2094757D069A7FA4293","title":"上海金融学院六号教学楼","lon":"121.65058533","lat":"31.278383449","category":"500","category_name":"未知分类","address":"上海上川路995号"},{"poiid":"B2094655D26BA1F94099","title":"民耀路民区路","lon":"121.65265","lat":"31.27339","category":"38","category_name":"公交车站","address":""},{"poiid":"B2094654D569A3FF419E","title":"杉达大学(金海路)","lon":"121.66515","lat":"31.26829","category":"671","category_name":"高校中心点","address":"浦东新区金海路2727号"},{"poiid":"B2094757D164A1F44298","title":"上海金融学院新苑二号","lon":"121.65838545","lat":"31.2812884666","category":"500","category_name":"未知分类","address":"上海市浦东新区民雪路"},{"poiid":"B2094757D069A4FE479C","title":"蜀膳传火锅传奇 民耀路店","lon":"121.65199069654","lat":"31.27541289843","category":"86","category_name":"火锅店","address":"浦东新区民耀路217-219号(民区路民耀路)"},{"poiid":"B2094757D16CA3FC429F","title":"赵记麻辣烫","lon":"121.65879","lat":"31.27452","category":"68","category_name":"快餐厅","address":"浦东新区民雪路(金融学院宿舍对面)"},{"poiid":"B2094757D064A4FD4099","title":"上海金融学院食堂","lon":"121.65265","lat":"31.27685","category":"68","category_name":"快餐厅","address":"浦东新区上海金融学院内"},{"poiid":"B2094757D06AA6F44798","title":"杉达黑暗料理街","lon":"121.65786","lat":"31.26612","category":"111","category_name":"休闲餐饮场所","address":"浦东新区金海路2727号杉达学院附近(近民耀路)"},{"poiid":"B2094654D569A2F8439D","title":"百味楼","lon":"121.65481","lat":"31.26933","category":"68","category_name":"快餐厅","address":"浦东新区曹路镇民耀路191号(阳光苑旁)"},{"poiid":"B2094654D569A2F84198","title":"东北人家(民耀路)","lon":"121.65393","lat":"31.27163","category":"82","category_name":"东北菜","address":"浦东新区民耀路271号"},{"poiid":"B2094757D76CA3F8439A","title":"都可茶饮 民雪路店 CoCo","lon":"121.65813","lat":"31.27536","category":"113","category_name":"冷饮店","address":"浦东新区民雪路108号(近上海金融学院)"},{"poiid":"B2094654D569A2F9459E","title":"爱晚亭湘菜馆","lon":"121.65917","lat":"31.27359","category":"77","category_name":"湖南菜","address":"浦东新区民春路125号(近上海金融学院学生公寓)"},{"poiid":"B2094757D064A3F84399","title":"上海金融学院体育馆","lon":"121.65348815","lat":"31.276546478","category":"500","category_name":"未知分类","address":"浦东新区上川路995号上海金融学院内"},{"poiid":"B2094757D164A5FC499F","title":"佳室鸣香","lon":"121.65844","lat":"31.27527","category":"68","category_name":"快餐厅","address":"浦东新区民雪路108号(近上川路)"},{"poiid":"B2094654D569A2F8429C","title":"新芳邻","lon":"121.653489","lat":"31.271609","category":"47","category_name":"住宅区","address":"康惠苑位于徐汇康健路16弄(沪闵路)"},{"poiid":"B2094654D569A2FC4299","title":"克莉丝汀 民耀路店","lon":"121.65397","lat":"31.27159","category":"112","category_name":"糕饼店","address":"浦东新区民耀路270-278号(近民区路)"},{"poiid":"B2094654DB65A7F44893","title":"阿康烧烤(金融学院店)","lon":"121.65842","lat":"31.27473","category":"87","category_name":"特色／地方风味餐厅","address":"浦东新区民雪路"},{"poiid":"B2094757D46FABFC439C","title":"1 1韩国烤肉自助餐 民耀路店","lon":"121.6543","lat":"31.2706485","category":"268","category_name":"自助","address":"浦东新区曹路镇民耀路374号(近金海路)"},{"poiid":"B2094654D569A2F94498","title":"三兄弟饭店","lon":"121.65833","lat":"31.27476","category":"257","category_name":"中餐厅","address":""},{"poiid":"B2094654D569A2F9469B","title":"福建千里香馄饨民雪店","lon":"121.6584","lat":"31.27507","category":"257","category_name":"中餐厅","address":""},{"poiid":"B2094655D36CA2F4429F","title":"上川路华东路","lon":"121.65701","lat":"31.27666","category":"38","category_name":"公交车站","address":""},{"poiid":"B2094654D569A2F94293","title":"兰州正宗牛肉拉面(民雪路)","lon":"121.65785","lat":"31.27545","category":"90","category_name":"清真餐馆","address":""},{"poiid":"B2094751D369A0FC479A","title":"星空咖啡厅(金融学院店)","lon":"121.65348","lat":"31.27654","category":"65","category_name":"咖啡厅","address":"浦东新区上川路995号金融学院内"},{"poiid":"B2094654D569A2F9429C","title":"芭比镘头先锋服务社民雪分店","lon":"121.65788","lat":"31.27571","category":"247","category_name":"餐饮美食","address":""},{"poiid":"B2094654D569A2F9449F","title":"二缘阁川菜馆","lon":"121.6589","lat":"31.27315","category":"71","category_name":"四川菜","address":""},{"poiid":"B2094654D569A2F94599","title":"鸿运来东北菜馆","lon":"121.65925","lat":"31.27343","category":"82","category_name":"东北菜","address":""},{"poiid":"B2094757D168AAFD429B","title":"爱法花园二期","lon":"121.661","lat":"31.2763","category":"47","category_name":"住宅区","address":"民耀路423弄"},{"poiid":"B2094655D36CA2F4429C","title":"上川路民雪路","lon":"121.65757","lat":"31.2768","category":"38","category_name":"公交车站","address":""},{"poiid":"B2094757D465A5F94692","title":"盱眙龙虾城","lon":"121.65357","lat":"31.2723","category":"68","category_name":"快餐厅","address":"浦东新区曹路镇民耀路231号(民区路民耀路)"},{"poiid":"B2094654D569A2F8419F","title":"重庆鸡公煲(民耀路)","lon":"121.65454","lat":"31.27051","category":"71","category_name":"四川菜","address":"浦东新区民耀路杉达大学附近(民同路路口)"},{"poiid":"B2094757D06BAAF9489E","title":"伊铭坊 民耀路店","lon":"121.653142054","lat":"31.273166793","category":"86","category_name":"火锅店","address":"浦东新区民耀路235-241号(近民区路)"},{"poiid":"B2094757D16FA5FE409E","title":"溢佳香","lon":"121.66238272","lat":"31.275625904","category":"68","category_name":"快餐厅","address":"浦东新区民雨路327-331号(近民雪路)"},{"poiid":"B2094757D169A2F9429F","title":"鸿运","lon":"121.658259","lat":"31.274913","category":"500","category_name":"未知分类","address":"上海民雪路。"},{"poiid":"B2094654D569A2F94298","title":"土家掉渣烧饼(民雪路)","lon":"121.65753","lat":"31.2764","category":"247","category_name":"餐饮美食","address":""},{"poiid":"B2094757D16DA2F44198","title":"星美正大国际影城IMAX厅","lon":"121.651799339","lat":"31.2752786784","category":"178","category_name":"电影院","address":"上海浦东新区陆家嘴正大广场八楼"},{"poiid":"B2094757D06BA4FD4599","title":"村夫烤鱼(民耀路店)","lon":"121.654549","lat":"31.270515","category":"247","category_name":"餐饮美食","address":"上海浦东民耀路"},{"poiid":"B2094757D168A1FF469B","title":"coco 都可茶饮","lon":"121.656724558","lat":"31.2755383925","category":"500","category_name":"未知分类","address":"上海民雪路"}]