[{"poiid":"B2094757D06FA3FB419C","title":"玛格萝妮比萨屋(物华店)","lon":"121.49097189","lat":"31.26244171","category":"94","category_name":"西餐厅","address":"上海虹口区四平路188号(近物华路)"},{"poiid":"B209475CD769A7F94093","title":"王子公主奇遇记主题KTV","lon":"121.488833","lat":"31.261971","category":"170","category_name":"KTV","address":"上海市虹口区四平路257号1-3楼(近溧阳路)"},{"poiid":"B2094654DB6AAAF84898","title":"美林阁 四平路店 MeiLinGe","lon":"121.489139054","lat":"31.262070793","category":"76","category_name":"上海菜","address":"虹口区四平路257号虹口世纪酒店1-2楼(近溧阳路)"},{"poiid":"B2094757D069A3FB4798","title":"四平路临平北路","lon":"121.4908431","lat":"31.264171","category":"260","category_name":"其他","address":"上海虹口区四平路临平北路"},{"poiid":"B2094751D56CABF8409A","title":"上海大饭堂(四平路店)","lon":"121.49058","lat":"31.26357","category":"76","category_name":"上海菜","address":"虹口区四平路216号新能源大厦内(近临平北路)"},{"poiid":"B2094654D56DAAF4449D","title":"上海市地方税务局虹口区分局","lon":"121.49301","lat":"31.26348","category":"250","category_name":"公园户外","address":"虹口区临平北路35号"},{"poiid":"B2094655D26FA6FB4098","title":"上海虹口世纪大酒店(东门)","lon":"121.4895","lat":"31.26183","category":"214","category_name":"四星级宾馆","address":"上海市虹口区溧阳路1111号（近四平路）"},{"poiid":"B2094654DB6BA3F84993","title":"致真酒家 虹口店 Sincere Restaurant","lon":"121.490685054","lat":"31.263551793","category":"76","category_name":"上海菜","address":"虹口区四平路208号(近物华路)"},{"poiid":"B2094757D065A0FE429E","title":"10号线四平路站","lon":"121.492128103","lat":"31.2614232342","category":"500","category_name":"未知分类","address":"上海四平路"},{"poiid":"B2094757D16DA5FE419A","title":"四平路","lon":"121.4897721","lat":"31.261685239","category":"500","category_name":"未知分类","address":"上海四平路"},{"poiid":"B2094655D26DA4FB449A","title":"溧阳华府","lon":"121.48854","lat":"31.26298","category":"47","category_name":"住宅区","address":"上海市虹口区宝安路1号"},{"poiid":"B2094757D069AAF9479B","title":"老盛昌苏州汤包馆(临平店)","lon":"121.49756","lat":"31.26158","category":"68","category_name":"快餐厅","address":"虹口区临平路333号瑞虹新城正门旁(近天宝路)"},{"poiid":"B2094654D56DABF5469E","title":"盛泰国际大厦","lon":"121.49125","lat":"31.26289","category":"46","category_name":"楼宇","address":"上海市虹口区四平路200号"},{"poiid":"B2094752DA6AABFF4393","title":"红麻辣料理","lon":"121.4919952653603","lat":"31.26094885039997","category":"247","category_name":"餐饮美食","address":"上海市 物华路海拉尔路"},{"poiid":"B2094757D06BAAF4409F","title":"巨麦KTV","lon":"121.4916901","lat":"31.264270293","category":"170","category_name":"KTV","address":"虹口区物华路300号(近四平路)"},{"poiid":"B2094757D069A7FF4293","title":"一兆韦德(溧阳华府店)","lon":"121.490071","lat":"31.26333","category":"500","category_name":"未知分类","address":"虹口区宝安支路46号(近溧阳路)"},{"poiid":"B2094654D56DAAF44592","title":"渡边国际商务楼","lon":"121.49254932887084","lat":"31.263657606365875","category":"46","category_name":"楼宇","address":"上海市虹口区临平北路55号"},{"poiid":"B2094654D56DABF5439E","title":"银欣花苑","lon":"121.49253","lat":"31.262911","category":"47","category_name":"住宅区","address":"临平北路36-58号,60弄1-8号"},{"poiid":"B2094757D16EA0F94493","title":"老北京羊肉涮锅","lon":"121.49101","lat":"31.26231","category":"86","category_name":"火锅店","address":"虹口区天宝路61号(近临平路)"},{"poiid":"B2094750D66EA5F5479E","title":"COSTA COFFEE","lon":"121.49328","lat":"31.26153","category":"65","category_name":"咖啡厅","address":"虹口区物华路212号(近香烟桥路)"},{"poiid":"B2094654DB6BA3F8489B","title":"麒麟KTV音乐城","lon":"121.4915","lat":"31.26245","category":"170","category_name":"KTV","address":"物华路300"},{"poiid":"B2094750D76FA1FE419F","title":"潮汕砂煲粥","lon":"121.491","lat":"31.2621","category":"72","category_name":"广东菜","address":"虹口区四平路188号(近贯中路)"},{"poiid":"B2094757D068A6FF4392","title":"锦鑫桌球俱乐部","lon":"121.49018","lat":"31.26254","category":"171","category_name":"台球厅","address":"虹口区四平路277号2楼(近物华路)"},{"poiid":"B2094757D069AAF94892","title":"大桶大足浴(物华店)","lon":"121.49236","lat":"31.26168","category":"149","category_name":"洗浴推拿场所","address":"虹口区物华路276号(近四平路)"},{"poiid":"B2094654D56DAAFC409D","title":"Magaroni","lon":"121.49097","lat":"31.26242","category":"94","category_name":"西餐厅","address":"四平路188号"},{"poiid":"B2094757D664AAF84192","title":"缘来斋","lon":"121.49509","lat":"31.26046","category":"76","category_name":"上海菜","address":"虹口区物华路108号(近天宝路)"},{"poiid":"B2094757D068A1F5469B","title":"中国建设银行(临平路支行)","lon":"121.49348","lat":"31.26289","category":"150","category_name":"银行","address":"虹口区临平北路12号(临平北路临平路)"},{"poiid":"B2094654D56DAAFC409E","title":"轻工国际大厦","lon":"121.49073","lat":"31.26304","category":"46","category_name":"楼宇","address":"昌平区回龙观镇国际信息产业基地高新二街"},{"poiid":"B2094654D56DABFA499A","title":"爱家豪庭","lon":"121.49217","lat":"31.26136","category":"47","category_name":"住宅区","address":"物华路246弄1-6号"},{"poiid":"B2094750D76DAAF4419B","title":"EHS晶宴西餐厅","lon":"121.492","lat":"31.2624","category":"94","category_name":"西餐厅","address":"虹口区物华路288号2号楼1楼爱家国际大厦内(近临平路)"},{"poiid":"B2094655D269AAF4409F","title":"锦江之星海伦路店","lon":"121.49014","lat":"31.26358","category":"247","category_name":"餐饮美食","address":"虹口区四平路285号(近物华路)"},{"poiid":"B2094757D06AA1F54198","title":"7-ELEVEN(四平店)","lon":"121.490827","lat":"31.262099","category":"117","category_name":"便民商店/便利店","address":"上海虹口区四平路188号113,116室"},{"poiid":"B2094757D069A3F54993","title":"伊加伊(四平店)","lon":"121.49006","lat":"31.26121","category":"68","category_name":"快餐厅","address":"虹口区四平路146号(近天水路)"},{"poiid":"B2094654DB6BA3F8499C","title":"罗森物华路店","lon":"121.49123","lat":"31.26278","category":"117","category_name":"便民商店/便利店","address":""},{"poiid":"B2094654D56DAAFC4298","title":"虹诚大厦","lon":"121.49148","lat":"31.263783","category":"47","category_name":"住宅区","address":"上海虹诚大厦位于虹口临平北路88号"},{"poiid":"B2094654D56DAAFC409F","title":"光明便利No.174","lon":"121.49087","lat":"31.26243","category":"117","category_name":"便民商店/便利店","address":"嘉兴路"},{"poiid":"B2094753D269A6FE489C","title":"上海第一人民医院","lon":"121.490417","lat":"31.262512","category":"162","category_name":"医院","address":"上海市 上海市海宁路100号"},{"poiid":"B2094757D164A0FF469C","title":"麒麟音乐城","lon":"121.491556345","lat":"31.2623679254","category":"170","category_name":"KTV","address":"上海物华路300"},{"poiid":"B2094757D06AAAF54798","title":"欧洲花园","lon":"121.492105","lat":"31.26443","category":"47","category_name":"住宅区","address":"上海临平北路89弄"},{"poiid":"B2094655D26BA3FB499C","title":"名典咖啡语茶四平路店","lon":"121.49113","lat":"31.2629","category":"260","category_name":"其他","address":"虹口区四平路200号(近物华路)"},{"poiid":"B2094655D26AA5FA4993","title":"SuperFoodsMarket","lon":"121.49113","lat":"31.2629","category":"247","category_name":"餐饮美食","address":"虹口区四平路200号(近物华路)"},{"poiid":"B2094655D36CA2FD479C","title":"荣汇公寓","lon":"121.49097","lat":"31.26242","category":"47","category_name":"住宅区","address":"四平路188号"},{"poiid":"B2094757D06BA2F44292","title":"家纺大厦","lon":"121.490373703","lat":"31.2634898774","category":"46","category_name":"楼宇","address":"上海虹口区四平路210号"},{"poiid":"B2094655D265A7FF4999","title":"国际公寓","lon":"121.49022","lat":"31.26194","category":"47","category_name":"住宅区","address":"上海市虹口区四平路186号"},{"poiid":"B2094757D068A7FA469B","title":"全家便利(临平北路店)","lon":"121.492041","lat":"31.263542","category":"117","category_name":"便民商店/便利店","address":"上海虹口区临平北路53号"},{"poiid":"B2094757D069A1FB469B","title":"上海市海事政务大厦","lon":"121.49064636","lat":"31.262886047","category":"500","category_name":"未知分类","address":"上海虹口区四平路190号"},{"poiid":"B2094753D469A3FD4799","title":"红料理物华路店","lon":"121.492074","lat":"31.26232","category":"247","category_name":"餐饮美食","address":"虹口区物华路73号"},{"poiid":"B2094757D168A6FA499D","title":"FamilyMart全家","lon":"121.491552","lat":"31.263074","category":"247","category_name":"餐饮美食","address":"上海临平北路53号"},{"poiid":"B2094757D16FA3FF4498","title":"Magaroni(银欣路)","lon":"121.4909911","lat":"31.26269326","category":"500","category_name":"未知分类","address":"上海市虹口区临平北路银欣路"},{"poiid":"B2094757DA64A6F5429B","title":"瑞虹新城铭庭","lon":"121.492920491457","lat":"31.26354000573943","category":"47","category_name":"住宅区","address":"虹口区天宝路181弄"},{"poiid":"B2094757D06FA3FB419C","title":"玛格萝妮比萨屋(物华店)","lon":"121.49097189","lat":"31.26244171","category":"94","category_name":"西餐厅","address":"上海虹口区四平路188号(近物华路)"},{"poiid":"B209475CD769A7F94093","title":"王子公主奇遇记主题KTV","lon":"121.488833","lat":"31.261971","category":"170","category_name":"KTV","address":"上海市虹口区四平路257号1-3楼(近溧阳路)"},{"poiid":"B2094654DB6AAAF84898","title":"美林阁 四平路店 MeiLinGe","lon":"121.489139054","lat":"31.262070793","category":"76","category_name":"上海菜","address":"虹口区四平路257号虹口世纪酒店1-2楼(近溧阳路)"},{"poiid":"B2094757D069A3FB4798","title":"四平路临平北路","lon":"121.4908431","lat":"31.264171","category":"260","category_name":"其他","address":"上海虹口区四平路临平北路"},{"poiid":"B2094751D56CABF8409A","title":"上海大饭堂(四平路店)","lon":"121.49058","lat":"31.26357","category":"76","category_name":"上海菜","address":"虹口区四平路216号新能源大厦内(近临平北路)"},{"poiid":"B2094654D56DAAF4449D","title":"上海市地方税务局虹口区分局","lon":"121.49301","lat":"31.26348","category":"250","category_name":"公园户外","address":"虹口区临平北路35号"},{"poiid":"B2094655D26FA6FB4098","title":"上海虹口世纪大酒店(东门)","lon":"121.4895","lat":"31.26183","category":"214","category_name":"四星级宾馆","address":"上海市虹口区溧阳路1111号（近四平路）"},{"poiid":"B2094654DB6BA3F84993","title":"致真酒家 虹口店 Sincere Restaurant","lon":"121.490685054","lat":"31.263551793","category":"76","category_name":"上海菜","address":"虹口区四平路208号(近物华路)"},{"poiid":"B2094757D065A0FE429E","title":"10号线四平路站","lon":"121.492128103","lat":"31.2614232342","category":"500","category_name":"未知分类","address":"上海四平路"},{"poiid":"B2094757D16DA5FE419A","title":"四平路","lon":"121.4897721","lat":"31.261685239","category":"500","category_name":"未知分类","address":"上海四平路"},{"poiid":"B2094655D26DA4FB449A","title":"溧阳华府","lon":"121.48854","lat":"31.26298","category":"47","category_name":"住宅区","address":"上海市虹口区宝安路1号"},{"poiid":"B2094757D069AAF9479B","title":"老盛昌苏州汤包馆(临平店)","lon":"121.49756","lat":"31.26158","category":"68","category_name":"快餐厅","address":"虹口区临平路333号瑞虹新城正门旁(近天宝路)"},{"poiid":"B2094654D56DABF5469E","title":"盛泰国际大厦","lon":"121.49125","lat":"31.26289","category":"46","category_name":"楼宇","address":"上海市虹口区四平路200号"},{"poiid":"B2094752DA6AABFF4393","title":"红麻辣料理","lon":"121.4919952653603","lat":"31.26094885039997","category":"247","category_name":"餐饮美食","address":"上海市 物华路海拉尔路"},{"poiid":"B2094757D06BAAF4409F","title":"巨麦KTV","lon":"121.4916901","lat":"31.264270293","category":"170","category_name":"KTV","address":"虹口区物华路300号(近四平路)"},{"poiid":"B2094757D069A7FF4293","title":"一兆韦德(溧阳华府店)","lon":"121.490071","lat":"31.26333","category":"500","category_name":"未知分类","address":"虹口区宝安支路46号(近溧阳路)"},{"poiid":"B2094654D56DAAF44592","title":"渡边国际商务楼","lon":"121.49254932887084","lat":"31.263657606365875","category":"46","category_name":"楼宇","address":"上海市虹口区临平北路55号"},{"poiid":"B2094654D56DABF5439E","title":"银欣花苑","lon":"121.49253","lat":"31.262911","category":"47","category_name":"住宅区","address":"临平北路36-58号,60弄1-8号"},{"poiid":"B2094757D16EA0F94493","title":"老北京羊肉涮锅","lon":"121.49101","lat":"31.26231","category":"86","category_name":"火锅店","address":"虹口区天宝路61号(近临平路)"},{"poiid":"B2094750D66EA5F5479E","title":"COSTA COFFEE","lon":"121.49328","lat":"31.26153","category":"65","category_name":"咖啡厅","address":"虹口区物华路212号(近香烟桥路)"},{"poiid":"B2094654DB6BA3F8489B","title":"麒麟KTV音乐城","lon":"121.4915","lat":"31.26245","category":"170","category_name":"KTV","address":"物华路300"},{"poiid":"B2094750D76FA1FE419F","title":"潮汕砂煲粥","lon":"121.491","lat":"31.2621","category":"72","category_name":"广东菜","address":"虹口区四平路188号(近贯中路)"},{"poiid":"B2094757D068A6FF4392","title":"锦鑫桌球俱乐部","lon":"121.49018","lat":"31.26254","category":"171","category_name":"台球厅","address":"虹口区四平路277号2楼(近物华路)"},{"poiid":"B2094757D069AAF94892","title":"大桶大足浴(物华店)","lon":"121.49236","lat":"31.26168","category":"149","category_name":"洗浴推拿场所","address":"虹口区物华路276号(近四平路)"},{"poiid":"B2094654D56DAAFC409D","title":"Magaroni","lon":"121.49097","lat":"31.26242","category":"94","category_name":"西餐厅","address":"四平路188号"},{"poiid":"B2094757D664AAF84192","title":"缘来斋","lon":"121.49509","lat":"31.26046","category":"76","category_name":"上海菜","address":"虹口区物华路108号(近天宝路)"},{"poiid":"B2094757D068A1F5469B","title":"中国建设银行(临平路支行)","lon":"121.49348","lat":"31.26289","category":"150","category_name":"银行","address":"虹口区临平北路12号(临平北路临平路)"},{"poiid":"B2094654D56DAAFC409E","title":"轻工国际大厦","lon":"121.49073","lat":"31.26304","category":"46","category_name":"楼宇","address":"昌平区回龙观镇国际信息产业基地高新二街"},{"poiid":"B2094654D56DABFA499A","title":"爱家豪庭","lon":"121.49217","lat":"31.26136","category":"47","category_name":"住宅区","address":"物华路246弄1-6号"},{"poiid":"B2094750D76DAAF4419B","title":"EHS晶宴西餐厅","lon":"121.492","lat":"31.2624","category":"94","category_name":"西餐厅","address":"虹口区物华路288号2号楼1楼爱家国际大厦内(近临平路)"},{"poiid":"B2094655D269AAF4409F","title":"锦江之星海伦路店","lon":"121.49014","lat":"31.26358","category":"247","category_name":"餐饮美食","address":"虹口区四平路285号(近物华路)"},{"poiid":"B2094757D06AA1F54198","title":"7-ELEVEN(四平店)","lon":"121.490827","lat":"31.262099","category":"117","category_name":"便民商店/便利店","address":"上海虹口区四平路188号113,116室"},{"poiid":"B2094757D069A3F54993","title":"伊加伊(四平店)","lon":"121.49006","lat":"31.26121","category":"68","category_name":"快餐厅","address":"虹口区四平路146号(近天水路)"},{"poiid":"B2094654DB6BA3F8499C","title":"罗森物华路店","lon":"121.49123","lat":"31.26278","category":"117","category_name":"便民商店/便利店","address":""},{"poiid":"B2094654D56DAAFC4298","title":"虹诚大厦","lon":"121.49148","lat":"31.263783","category":"47","category_name":"住宅区","address":"上海虹诚大厦位于虹口临平北路88号"},{"poiid":"B2094654D56DAAFC409F","title":"光明便利No.174","lon":"121.49087","lat":"31.26243","category":"117","category_name":"便民商店/便利店","address":"嘉兴路"},{"poiid":"B2094753D269A6FE489C","title":"上海第一人民医院","lon":"121.490417","lat":"31.262512","category":"162","category_name":"医院","address":"上海市 上海市海宁路100号"},{"poiid":"B2094757D164A0FF469C","title":"麒麟音乐城","lon":"121.491556345","lat":"31.2623679254","category":"170","category_name":"KTV","address":"上海物华路300"},{"poiid":"B2094757D06AAAF54798","title":"欧洲花园","lon":"121.492105","lat":"31.26443","category":"47","category_name":"住宅区","address":"上海临平北路89弄"},{"poiid":"B2094655D26BA3FB499C","title":"名典咖啡语茶四平路店","lon":"121.49113","lat":"31.2629","category":"260","category_name":"其他","address":"虹口区四平路200号(近物华路)"},{"poiid":"B2094655D26AA5FA4993","title":"SuperFoodsMarket","lon":"121.49113","lat":"31.2629","category":"247","category_name":"餐饮美食","address":"虹口区四平路200号(近物华路)"},{"poiid":"B2094655D36CA2FD479C","title":"荣汇公寓","lon":"121.49097","lat":"31.26242","category":"47","category_name":"住宅区","address":"四平路188号"},{"poiid":"B2094757D06BA2F44292","title":"家纺大厦","lon":"121.490373703","lat":"31.2634898774","category":"46","category_name":"楼宇","address":"上海虹口区四平路210号"},{"poiid":"B2094655D265A7FF4999","title":"国际公寓","lon":"121.49022","lat":"31.26194","category":"47","category_name":"住宅区","address":"上海市虹口区四平路186号"},{"poiid":"B2094757D068A7FA469B","title":"全家便利(临平北路店)","lon":"121.492041","lat":"31.263542","category":"117","category_name":"便民商店/便利店","address":"上海虹口区临平北路53号"},{"poiid":"B2094757D069A1FB469B","title":"上海市海事政务大厦","lon":"121.49064636","lat":"31.262886047","category":"500","category_name":"未知分类","address":"上海虹口区四平路190号"},{"poiid":"B2094753D469A3FD4799","title":"红料理物华路店","lon":"121.492074","lat":"31.26232","category":"247","category_name":"餐饮美食","address":"虹口区物华路73号"},{"poiid":"B2094757D168A6FA499D","title":"FamilyMart全家","lon":"121.491552","lat":"31.263074","category":"247","category_name":"餐饮美食","address":"上海临平北路53号"},{"poiid":"B2094757D16FA3FF4498","title":"Magaroni(银欣路)","lon":"121.4909911","lat":"31.26269326","category":"500","category_name":"未知分类","address":"上海市虹口区临平北路银欣路"},{"poiid":"B2094757DA64A6F5429B","title":"瑞虹新城铭庭","lon":"121.492920491457","lat":"31.26354000573943","category":"47","category_name":"住宅区","address":"虹口区天宝路181弄"},{"poiid":"B2094757D06FA3FB419C","title":"玛格萝妮比萨屋(物华店)","lon":"121.49097189","lat":"31.26244171","category":"94","category_name":"西餐厅","address":"上海虹口区四平路188号(近物华路)"},{"poiid":"B209475CD769A7F94093","title":"王子公主奇遇记主题KTV","lon":"121.488833","lat":"31.261971","category":"170","category_name":"KTV","address":"上海市虹口区四平路257号1-3楼(近溧阳路)"},{"poiid":"B2094654DB6AAAF84898","title":"美林阁 四平路店 MeiLinGe","lon":"121.489139054","lat":"31.262070793","category":"76","category_name":"上海菜","address":"虹口区四平路257号虹口世纪酒店1-2楼(近溧阳路)"},{"poiid":"B2094757D069A3FB4798","title":"四平路临平北路","lon":"121.4908431","lat":"31.264171","category":"260","category_name":"其他","address":"上海虹口区四平路临平北路"},{"poiid":"B2094751D56CABF8409A","title":"上海大饭堂(四平路店)","lon":"121.49058","lat":"31.26357","category":"76","category_name":"上海菜","address":"虹口区四平路216号新能源大厦内(近临平北路)"},{"poiid":"B2094654D56DAAF4449D","title":"上海市地方税务局虹口区分局","lon":"121.49301","lat":"31.26348","category":"250","category_name":"公园户外","address":"虹口区临平北路35号"},{"poiid":"B2094655D26FA6FB4098","title":"上海虹口世纪大酒店(东门)","lon":"121.4895","lat":"31.26183","category":"214","category_name":"四星级宾馆","address":"上海市虹口区溧阳路1111号（近四平路）"},{"poiid":"B2094654DB6BA3F84993","title":"致真酒家 虹口店 Sincere Restaurant","lon":"121.490685054","lat":"31.263551793","category":"76","category_name":"上海菜","address":"虹口区四平路208号(近物华路)"},{"poiid":"B2094757D065A0FE429E","title":"10号线四平路站","lon":"121.492128103","lat":"31.2614232342","category":"500","category_name":"未知分类","address":"上海四平路"},{"poiid":"B2094757D16DA5FE419A","title":"四平路","lon":"121.4897721","lat":"31.261685239","category":"500","category_name":"未知分类","address":"上海四平路"},{"poiid":"B2094655D26DA4FB449A","title":"溧阳华府","lon":"121.48854","lat":"31.26298","category":"47","category_name":"住宅区","address":"上海市虹口区宝安路1号"},{"poiid":"B2094757D069AAF9479B","title":"老盛昌苏州汤包馆(临平店)","lon":"121.49756","lat":"31.26158","category":"68","category_name":"快餐厅","address":"虹口区临平路333号瑞虹新城正门旁(近天宝路)"},{"poiid":"B2094654D56DABF5469E","title":"盛泰国际大厦","lon":"121.49125","lat":"31.26289","category":"46","category_name":"楼宇","address":"上海市虹口区四平路200号"},{"poiid":"B2094752DA6AABFF4393","title":"红麻辣料理","lon":"121.4919952653603","lat":"31.26094885039997","category":"247","category_name":"餐饮美食","address":"上海市 物华路海拉尔路"},{"poiid":"B2094757D06BAAF4409F","title":"巨麦KTV","lon":"121.4916901","lat":"31.264270293","category":"170","category_name":"KTV","address":"虹口区物华路300号(近四平路)"},{"poiid":"B2094757D069A7FF4293","title":"一兆韦德(溧阳华府店)","lon":"121.490071","lat":"31.26333","category":"500","category_name":"未知分类","address":"虹口区宝安支路46号(近溧阳路)"},{"poiid":"B2094654D56DAAF44592","title":"渡边国际商务楼","lon":"121.49254932887084","lat":"31.263657606365875","category":"46","category_name":"楼宇","address":"上海市虹口区临平北路55号"},{"poiid":"B2094654D56DABF5439E","title":"银欣花苑","lon":"121.49253","lat":"31.262911","category":"47","category_name":"住宅区","address":"临平北路36-58号,60弄1-8号"},{"poiid":"B2094757D16EA0F94493","title":"老北京羊肉涮锅","lon":"121.49101","lat":"31.26231","category":"86","category_name":"火锅店","address":"虹口区天宝路61号(近临平路)"},{"poiid":"B2094750D66EA5F5479E","title":"COSTA COFFEE","lon":"121.49328","lat":"31.26153","category":"65","category_name":"咖啡厅","address":"虹口区物华路212号(近香烟桥路)"},{"poiid":"B2094654DB6BA3F8489B","title":"麒麟KTV音乐城","lon":"121.4915","lat":"31.26245","category":"170","category_name":"KTV","address":"物华路300"},{"poiid":"B2094750D76FA1FE419F","title":"潮汕砂煲粥","lon":"121.491","lat":"31.2621","category":"72","category_name":"广东菜","address":"虹口区四平路188号(近贯中路)"},{"poiid":"B2094757D068A6FF4392","title":"锦鑫桌球俱乐部","lon":"121.49018","lat":"31.26254","category":"171","category_name":"台球厅","address":"虹口区四平路277号2楼(近物华路)"},{"poiid":"B2094757D069AAF94892","title":"大桶大足浴(物华店)","lon":"121.49236","lat":"31.26168","category":"149","category_name":"洗浴推拿场所","address":"虹口区物华路276号(近四平路)"},{"poiid":"B2094654D56DAAFC409D","title":"Magaroni","lon":"121.49097","lat":"31.26242","category":"94","category_name":"西餐厅","address":"四平路188号"},{"poiid":"B2094757D664AAF84192","title":"缘来斋","lon":"121.49509","lat":"31.26046","category":"76","category_name":"上海菜","address":"虹口区物华路108号(近天宝路)"},{"poiid":"B2094757D068A1F5469B","title":"中国建设银行(临平路支行)","lon":"121.49348","lat":"31.26289","category":"150","category_name":"银行","address":"虹口区临平北路12号(临平北路临平路)"},{"poiid":"B2094654D56DAAFC409E","title":"轻工国际大厦","lon":"121.49073","lat":"31.26304","category":"46","category_name":"楼宇","address":"昌平区回龙观镇国际信息产业基地高新二街"},{"poiid":"B2094654D56DABFA499A","title":"爱家豪庭","lon":"121.49217","lat":"31.26136","category":"47","category_name":"住宅区","address":"物华路246弄1-6号"},{"poiid":"B2094750D76DAAF4419B","title":"EHS晶宴西餐厅","lon":"121.492","lat":"31.2624","category":"94","category_name":"西餐厅","address":"虹口区物华路288号2号楼1楼爱家国际大厦内(近临平路)"},{"poiid":"B2094655D269AAF4409F","title":"锦江之星海伦路店","lon":"121.49014","lat":"31.26358","category":"247","category_name":"餐饮美食","address":"虹口区四平路285号(近物华路)"},{"poiid":"B2094757D06AA1F54198","title":"7-ELEVEN(四平店)","lon":"121.490827","lat":"31.262099","category":"117","category_name":"便民商店/便利店","address":"上海虹口区四平路188号113,116室"},{"poiid":"B2094757D069A3F54993","title":"伊加伊(四平店)","lon":"121.49006","lat":"31.26121","category":"68","category_name":"快餐厅","address":"虹口区四平路146号(近天水路)"},{"poiid":"B2094654DB6BA3F8499C","title":"罗森物华路店","lon":"121.49123","lat":"31.26278","category":"117","category_name":"便民商店/便利店","address":""},{"poiid":"B2094654D56DAAFC4298","title":"虹诚大厦","lon":"121.49148","lat":"31.263783","category":"47","category_name":"住宅区","address":"上海虹诚大厦位于虹口临平北路88号"},{"poiid":"B2094654D56DAAFC409F","title":"光明便利No.174","lon":"121.49087","lat":"31.26243","category":"117","category_name":"便民商店/便利店","address":"嘉兴路"},{"poiid":"B2094753D269A6FE489C","title":"上海第一人民医院","lon":"121.490417","lat":"31.262512","category":"162","category_name":"医院","address":"上海市 上海市海宁路100号"},{"poiid":"B2094757D164A0FF469C","title":"麒麟音乐城","lon":"121.491556345","lat":"31.2623679254","category":"170","category_name":"KTV","address":"上海物华路300"},{"poiid":"B2094757D06AAAF54798","title":"欧洲花园","lon":"121.492105","lat":"31.26443","category":"47","category_name":"住宅区","address":"上海临平北路89弄"},{"poiid":"B2094655D26BA3FB499C","title":"名典咖啡语茶四平路店","lon":"121.49113","lat":"31.2629","category":"260","category_name":"其他","address":"虹口区四平路200号(近物华路)"},{"poiid":"B2094655D26AA5FA4993","title":"SuperFoodsMarket","lon":"121.49113","lat":"31.2629","category":"247","category_name":"餐饮美食","address":"虹口区四平路200号(近物华路)"},{"poiid":"B2094655D36CA2FD479C","title":"荣汇公寓","lon":"121.49097","lat":"31.26242","category":"47","category_name":"住宅区","address":"四平路188号"},{"poiid":"B2094757D06BA2F44292","title":"家纺大厦","lon":"121.490373703","lat":"31.2634898774","category":"46","category_name":"楼宇","address":"上海虹口区四平路210号"},{"poiid":"B2094655D265A7FF4999","title":"国际公寓","lon":"121.49022","lat":"31.26194","category":"47","category_name":"住宅区","address":"上海市虹口区四平路186号"},{"poiid":"B2094757D068A7FA469B","title":"全家便利(临平北路店)","lon":"121.492041","lat":"31.263542","category":"117","category_name":"便民商店/便利店","address":"上海虹口区临平北路53号"},{"poiid":"B2094757D069A1FB469B","title":"上海市海事政务大厦","lon":"121.49064636","lat":"31.262886047","category":"500","category_name":"未知分类","address":"上海虹口区四平路190号"},{"poiid":"B2094753D469A3FD4799","title":"红料理物华路店","lon":"121.492074","lat":"31.26232","category":"247","category_name":"餐饮美食","address":"虹口区物华路73号"},{"poiid":"B2094757D168A6FA499D","title":"FamilyMart全家","lon":"121.491552","lat":"31.263074","category":"247","category_name":"餐饮美食","address":"上海临平北路53号"},{"poiid":"B2094757D16FA3FF4498","title":"Magaroni(银欣路)","lon":"121.4909911","lat":"31.26269326","category":"500","category_name":"未知分类","address":"上海市虹口区临平北路银欣路"},{"poiid":"B2094757DA64A6F5429B","title":"瑞虹新城铭庭","lon":"121.492920491457","lat":"31.26354000573943","category":"47","category_name":"住宅区","address":"虹口区天宝路181弄"},{"poiid":"B2094757D06FA3FB419C","title":"玛格萝妮比萨屋(物华店)","lon":"121.49097189","lat":"31.26244171","category":"94","category_name":"西餐厅","address":"上海虹口区四平路188号(近物华路)"},{"poiid":"B209475CD769A7F94093","title":"王子公主奇遇记主题KTV","lon":"121.488833","lat":"31.261971","category":"170","category_name":"KTV","address":"上海市虹口区四平路257号1-3楼(近溧阳路)"},{"poiid":"B2094654DB6AAAF84898","title":"美林阁 四平路店 MeiLinGe","lon":"121.489139054","lat":"31.262070793","category":"76","category_name":"上海菜","address":"虹口区四平路257号虹口世纪酒店1-2楼(近溧阳路)"},{"poiid":"B2094757D069A3FB4798","title":"四平路临平北路","lon":"121.4908431","lat":"31.264171","category":"260","category_name":"其他","address":"上海虹口区四平路临平北路"},{"poiid":"B2094751D56CABF8409A","title":"上海大饭堂(四平路店)","lon":"121.49058","lat":"31.26357","category":"76","category_name":"上海菜","address":"虹口区四平路216号新能源大厦内(近临平北路)"},{"poiid":"B2094654D56DAAF4449D","title":"上海市地方税务局虹口区分局","lon":"121.49301","lat":"31.26348","category":"250","category_name":"公园户外","address":"虹口区临平北路35号"},{"poiid":"B2094655D26FA6FB4098","title":"上海虹口世纪大酒店(东门)","lon":"121.4895","lat":"31.26183","category":"214","category_name":"四星级宾馆","address":"上海市虹口区溧阳路1111号（近四平路）"},{"poiid":"B2094654DB6BA3F84993","title":"致真酒家 虹口店 Sincere Restaurant","lon":"121.490685054","lat":"31.263551793","category":"76","category_name":"上海菜","address":"虹口区四平路208号(近物华路)"},{"poiid":"B2094757D065A0FE429E","title":"10号线四平路站","lon":"121.492128103","lat":"31.2614232342","category":"500","category_name":"未知分类","address":"上海四平路"},{"poiid":"B2094757D16DA5FE419A","title":"四平路","lon":"121.4897721","lat":"31.261685239","category":"500","category_name":"未知分类","address":"上海四平路"},{"poiid":"B2094655D26DA4FB449A","title":"溧阳华府","lon":"121.48854","lat":"31.26298","category":"47","category_name":"住宅区","address":"上海市虹口区宝安路1号"},{"poiid":"B2094757D069AAF9479B","title":"老盛昌苏州汤包馆(临平店)","lon":"121.49756","lat":"31.26158","category":"68","category_name":"快餐厅","address":"虹口区临平路333号瑞虹新城正门旁(近天宝路)"},{"poiid":"B2094654D56DABF5469E","title":"盛泰国际大厦","lon":"121.49125","lat":"31.26289","category":"46","category_name":"楼宇","address":"上海市虹口区四平路200号"},{"poiid":"B2094752DA6AABFF4393","title":"红麻辣料理","lon":"121.4919952653603","lat":"31.26094885039997","category":"247","category_name":"餐饮美食","address":"上海市 物华路海拉尔路"},{"poiid":"B2094757D06BAAF4409F","title":"巨麦KTV","lon":"121.4916901","lat":"31.264270293","category":"170","category_name":"KTV","address":"虹口区物华路300号(近四平路)"},{"poiid":"B2094757D069A7FF4293","title":"一兆韦德(溧阳华府店)","lon":"121.490071","lat":"31.26333","category":"500","category_name":"未知分类","address":"虹口区宝安支路46号(近溧阳路)"},{"poiid":"B2094654D56DAAF44592","title":"渡边国际商务楼","lon":"121.49254932887084","lat":"31.263657606365875","category":"46","category_name":"楼宇","address":"上海市虹口区临平北路55号"},{"poiid":"B2094654D56DABF5439E","title":"银欣花苑","lon":"121.49253","lat":"31.262911","category":"47","category_name":"住宅区","address":"临平北路36-58号,60弄1-8号"},{"poiid":"B2094757D16EA0F94493","title":"老北京羊肉涮锅","lon":"121.49101","lat":"31.26231","category":"86","category_name":"火锅店","address":"虹口区天宝路61号(近临平路)"},{"poiid":"B2094750D66EA5F5479E","title":"COSTA COFFEE","lon":"121.49328","lat":"31.26153","category":"65","category_name":"咖啡厅","address":"虹口区物华路212号(近香烟桥路)"},{"poiid":"B2094654DB6BA3F8489B","title":"麒麟KTV音乐城","lon":"121.4915","lat":"31.26245","category":"170","category_name":"KTV","address":"物华路300"},{"poiid":"B2094750D76FA1FE419F","title":"潮汕砂煲粥","lon":"121.491","lat":"31.2621","category":"72","category_name":"广东菜","address":"虹口区四平路188号(近贯中路)"},{"poiid":"B2094757D068A6FF4392","title":"锦鑫桌球俱乐部","lon":"121.49018","lat":"31.26254","category":"171","category_name":"台球厅","address":"虹口区四平路277号2楼(近物华路)"},{"poiid":"B2094757D069AAF94892","title":"大桶大足浴(物华店)","lon":"121.49236","lat":"31.26168","category":"149","category_name":"洗浴推拿场所","address":"虹口区物华路276号(近四平路)"},{"poiid":"B2094654D56DAAFC409D","title":"Magaroni","lon":"121.49097","lat":"31.26242","category":"94","category_name":"西餐厅","address":"四平路188号"},{"poiid":"B2094757D664AAF84192","title":"缘来斋","lon":"121.49509","lat":"31.26046","category":"76","category_name":"上海菜","address":"虹口区物华路108号(近天宝路)"},{"poiid":"B2094757D068A1F5469B","title":"中国建设银行(临平路支行)","lon":"121.49348","lat":"31.26289","category":"150","category_name":"银行","address":"虹口区临平北路12号(临平北路临平路)"},{"poiid":"B2094654D56DAAFC409E","title":"轻工国际大厦","lon":"121.49073","lat":"31.26304","category":"46","category_name":"楼宇","address":"昌平区回龙观镇国际信息产业基地高新二街"},{"poiid":"B2094654D56DABFA499A","title":"爱家豪庭","lon":"121.49217","lat":"31.26136","category":"47","category_name":"住宅区","address":"物华路246弄1-6号"},{"poiid":"B2094750D76DAAF4419B","title":"EHS晶宴西餐厅","lon":"121.492","lat":"31.2624","category":"94","category_name":"西餐厅","address":"虹口区物华路288号2号楼1楼爱家国际大厦内(近临平路)"},{"poiid":"B2094655D269AAF4409F","title":"锦江之星海伦路店","lon":"121.49014","lat":"31.26358","category":"247","category_name":"餐饮美食","address":"虹口区四平路285号(近物华路)"},{"poiid":"B2094757D06AA1F54198","title":"7-ELEVEN(四平店)","lon":"121.490827","lat":"31.262099","category":"117","category_name":"便民商店/便利店","address":"上海虹口区四平路188号113,116室"},{"poiid":"B2094757D069A3F54993","title":"伊加伊(四平店)","lon":"121.49006","lat":"31.26121","category":"68","category_name":"快餐厅","address":"虹口区四平路146号(近天水路)"},{"poiid":"B2094654DB6BA3F8499C","title":"罗森物华路店","lon":"121.49123","lat":"31.26278","category":"117","category_name":"便民商店/便利店","address":""},{"poiid":"B2094654D56DAAFC4298","title":"虹诚大厦","lon":"121.49148","lat":"31.263783","category":"47","category_name":"住宅区","address":"上海虹诚大厦位于虹口临平北路88号"},{"poiid":"B2094654D56DAAFC409F","title":"光明便利No.174","lon":"121.49087","lat":"31.26243","category":"117","category_name":"便民商店/便利店","address":"嘉兴路"},{"poiid":"B2094753D269A6FE489C","title":"上海第一人民医院","lon":"121.490417","lat":"31.262512","category":"162","category_name":"医院","address":"上海市 上海市海宁路100号"},{"poiid":"B2094757D164A0FF469C","title":"麒麟音乐城","lon":"121.491556345","lat":"31.2623679254","category":"170","category_name":"KTV","address":"上海物华路300"},{"poiid":"B2094757D06AAAF54798","title":"欧洲花园","lon":"121.492105","lat":"31.26443","category":"47","category_name":"住宅区","address":"上海临平北路89弄"},{"poiid":"B2094655D26BA3FB499C","title":"名典咖啡语茶四平路店","lon":"121.49113","lat":"31.2629","category":"260","category_name":"其他","address":"虹口区四平路200号(近物华路)"},{"poiid":"B2094655D26AA5FA4993","title":"SuperFoodsMarket","lon":"121.49113","lat":"31.2629","category":"247","category_name":"餐饮美食","address":"虹口区四平路200号(近物华路)"},{"poiid":"B2094655D36CA2FD479C","title":"荣汇公寓","lon":"121.49097","lat":"31.26242","category":"47","category_name":"住宅区","address":"四平路188号"},{"poiid":"B2094757D06BA2F44292","title":"家纺大厦","lon":"121.490373703","lat":"31.2634898774","category":"46","category_name":"楼宇","address":"上海虹口区四平路210号"},{"poiid":"B2094655D265A7FF4999","title":"国际公寓","lon":"121.49022","lat":"31.26194","category":"47","category_name":"住宅区","address":"上海市虹口区四平路186号"},{"poiid":"B2094757D068A7FA469B","title":"全家便利(临平北路店)","lon":"121.492041","lat":"31.263542","category":"117","category_name":"便民商店/便利店","address":"上海虹口区临平北路53号"},{"poiid":"B2094757D069A1FB469B","title":"上海市海事政务大厦","lon":"121.49064636","lat":"31.262886047","category":"500","category_name":"未知分类","address":"上海虹口区四平路190号"},{"poiid":"B2094753D469A3FD4799","title":"红料理物华路店","lon":"121.492074","lat":"31.26232","category":"247","category_name":"餐饮美食","address":"虹口区物华路73号"},{"poiid":"B2094757D168A6FA499D","title":"FamilyMart全家","lon":"121.491552","lat":"31.263074","category":"247","category_name":"餐饮美食","address":"上海临平北路53号"},{"poiid":"B2094757D16FA3FF4498","title":"Magaroni(银欣路)","lon":"121.4909911","lat":"31.26269326","category":"500","category_name":"未知分类","address":"上海市虹口区临平北路银欣路"},{"poiid":"B2094757DA64A6F5429B","title":"瑞虹新城铭庭","lon":"121.492920491457","lat":"31.26354000573943","category":"47","category_name":"住宅区","address":"虹口区天宝路181弄"}]