[{"poiid":"B2094757D064A4F8409B","title":"上海衡山北郊宾馆","lon":"121.38487905","lat":"31.3455428044","category":"76","category_name":"上海菜","address":"宝山区顾村镇沪太路4788号顾村公园内"},{"poiid":"B2094757D06FA0FF459C","title":"泰和新城","lon":"121.412","lat":"31.3549","category":"47","category_name":"住宅区","address":"上海泰和新城3381弄"},{"poiid":"B2094757D068AAFD429A","title":"宝山太平禅寺","lon":"121.410213","lat":"31.355918","category":"246","category_name":"回教寺","address":"上海宝山区顾村镇富联路(近泰和西路)"},{"poiid":"B2094757D069A7FC459B","title":"东方帕堤欧","lon":"121.38584","lat":"31.351549","category":"47","category_name":"住宅区","address":"宝山区顾北路691号(近沪太路)"},{"poiid":"B2094757D06AA1FE479F","title":"顾北路电台路","lon":"121.393651","lat":"31.351812","category":"500","category_name":"未知分类","address":"上海宝山区顾北路电台路"},{"poiid":"B2094757D465A3F9469C","title":"顾村公园鹰冠庄园","lon":"121.38529968262","lat":"31.347066879273","category":"247","category_name":"餐饮美食","address":"宝山区沪太路4788号顾村公园英伦风情园悦林大道11号查看地图"},{"poiid":"B2094757D069A2F5429F","title":"大唐花园","lon":"121.40004","lat":"31.344345","category":"47","category_name":"住宅区","address":"大唐花园位于宝山上海宝山沪太路3717弄"},{"poiid":"B2094757D168A0FE4898","title":"顾村公园﹣鹰冠婚礼庄园","lon":"121.39265295","lat":"31.3451464968","category":"196","category_name":"公园","address":"上海市宝山区沪太路"},{"poiid":"B2094757D06AA7FA4292","title":"顾村大家园A区","lon":"121.407711679","lat":"31.3588722439","category":"500","category_name":"未知分类","address":"上海市宝山区顾北东路501弄"},{"poiid":"B2094757D069A3F94498","title":"701路终点站 泰和新城","lon":"121.403744","lat":"31.351059","category":"38","category_name":"公交车站","address":"上海泰和西路"},{"poiid":"B2094757D064AAFD4399","title":"丰水宝坻 西苑","lon":"121.393518","lat":"31.355909","category":"500","category_name":"未知分类","address":"上海电台路教育路"},{"poiid":"B2094757D169A5FD469D","title":"鸡排超人(顾村店)","lon":"121.403499713","lat":"31.3506720893","category":"68","category_name":"快餐厅","address":"宝山区泰和西路3499弄65号(顾太路口)"},{"poiid":"B2094654DB6AA5FF419E","title":"泰和西路","lon":"121.402","lat":"31.35043","category":"47","category_name":"住宅区","address":""},{"poiid":"B2094757D464A0F44698","title":"伊诺咖啡 顾北路店","lon":"121.39682","lat":"31.3532","category":"65","category_name":"咖啡厅","address":"宝山区顾北路578号(顾北路教育路)"},{"poiid":"B2094757D068A7F94499","title":"东明家具广场(沪太路店)","lon":"121.40212","lat":"31.33917","category":"249","category_name":"购物服务","address":"宝山区沪太路4301号"},{"poiid":"B2094655D36CA7F5469A","title":"顾太路泰和路","lon":"121.39804","lat":"31.34777","category":"38","category_name":"公交车站","address":""},{"poiid":"B2094757D06AABF44493","title":"宝山国际民间艺术博览馆","lon":"121.3877161","lat":"31.346555898","category":"182","category_name":"博物馆","address":"宝山区沪太路4788号(近顾村公园1号门)"},{"poiid":"B2094654D469AAF94692","title":"好德NO.802(祥和路)","lon":"121.40267","lat":"31.35008","category":"117","category_name":"便民商店/便利店","address":""},{"poiid":"B2094654D469AAF9459A","title":"中国电信顾新路营业厅","lon":"121.39746","lat":"31.34837","category":"151","category_name":"电讯营业厅","address":"宝山区顾村顾新路2号"},{"poiid":"B2094757D069A7FA4393","title":"丰水宝坻 东苑","lon":"121.39669024","lat":"31.3517751278","category":"47","category_name":"住宅区","address":"上海市宝山区教育路555弄"},{"poiid":"B2094655D36CA1FE4798","title":"水产西路富联路","lon":"121.41202","lat":"31.35561","category":"38","category_name":"公交车站","address":""},{"poiid":"B2094654D469ABFB4593","title":"上海市顾村中学","lon":"121.39422","lat":"31.35164","category":"55","category_name":"中学","address":"电台路93"},{"poiid":"B2094654D469AAF5419E","title":"一德大药房恒泰店","lon":"121.40321","lat":"31.35031","category":"162","category_name":"医院","address":"顾村镇"},{"poiid":"B2094654DB6AA5F8459C","title":"宝山区泰和新城小学","lon":"121.40277","lat":"31.35156","category":"56","category_name":"小学","address":"宝山区泰和西路3493弄188"},{"poiid":"B2094654DB65A2F5439C","title":"中国移动营业厅(顾太路)","lon":"121.39749","lat":"31.34824","category":"151","category_name":"电讯营业厅","address":"顾太路10号"},{"poiid":"B2094654D469AAF94492","title":"快客(顾新路)","lon":"121.39708","lat":"31.34858","category":"117","category_name":"便民商店/便利店","address":""},{"poiid":"B2094654D46AA0FA4392","title":"双利百货","lon":"121.39749","lat":"31.34726","category":"119","category_name":"商场","address":""},{"poiid":"B2094757D16FA3F54192","title":"一唇香迷宗蟹","lon":"121.39015767","lat":"31.350380083","category":"71","category_name":"四川菜","address":"宝山区顾北路680号(近顾荻路)"},{"poiid":"B2094654D46AA0FA469F","title":"宝山区顾村工贸商场","lon":"121.39676","lat":"31.34824","category":"119","category_name":"商场","address":""},{"poiid":"B2094757D068ABF9449D","title":"圣卡洛 铂庭","lon":"121.388371","lat":"31.35749","category":"47","category_name":"住宅区","address":"上海沙浦路518弄"},{"poiid":"B2094757D069A5FC4592","title":"顾村大家园C区","lon":"121.41204192","lat":"31.360784179","category":"500","category_name":"未知分类","address":"上海顾北东路155弄"},{"poiid":"B2094654D46AA3FA409C","title":"德胜饮食店","lon":"121.39696","lat":"31.34739","category":"257","category_name":"中餐厅","address":""},{"poiid":"B2094655D264A0F5429A","title":"颐河苑","lon":"121.40876428618","lat":"31.348603156453","category":"47","category_name":"住宅区","address":"上海市宝山区顾太路21弄"},{"poiid":"B2094654D46AA0FA439F","title":"宝山区顾村中心幼儿园","lon":"121.39629","lat":"31.34749","category":"57","category_name":"幼儿园","address":"新泰路31"},{"poiid":"B2094654D469AAF5449B","title":"快客NO.1264","lon":"121.40481","lat":"31.35097","category":"117","category_name":"便民商店/便利店","address":"顾村镇"},{"poiid":"B2094654D469AAF5439C","title":"名角女士生活馆(祥和路)","lon":"121.40461","lat":"31.35089","category":"148","category_name":"美容美发店","address":""},{"poiid":"B2094654D469AAF94498","title":"雅美花苑","lon":"121.39633","lat":"31.348158","category":"47","category_name":"住宅区","address":"顾新路18号"},{"poiid":"B2094757D16CA0FF439B","title":"自然居家園","lon":"121.409995","lat":"31.353395","category":"500","category_name":"未知分类","address":"水产西路999弄1-11,38-47号"},{"poiid":"B2094654D469AAF94493","title":"中国建设银行上海市顾新路支行","lon":"121.39717","lat":"31.3486","category":"150","category_name":"银行","address":"宝山区顾村镇顾新路3号(顾太路顾新路)"},{"poiid":"B2094654D469AAF94992","title":"顾村社区卫生服务中心","lon":"121.40888","lat":"31.35302","category":"162","category_name":"医院","address":"宝山区泰和西路3369号"},{"poiid":"B2094654D46AA0FA4999","title":"红十字卫生站","lon":"121.40509","lat":"31.35128","category":"162","category_name":"医院","address":"泰和新城第一居委3463弄38号对面"},{"poiid":"B2094757D069A7F9479C","title":"成亿宝盛","lon":"121.414759","lat":"31.354816","category":"500","category_name":"未知分类","address":"上海水产西路859弄"},{"poiid":"B2094757D06AA0FA4499","title":"丰水宝坻","lon":"121.39216691","lat":"31.357603336","category":"253","category_name":"校园生活","address":"上海电台路教育路"},{"poiid":"B2094655D265A0FC469E","title":"阳光迪金阁","lon":"121.404677","lat":"31.354497","category":"47","category_name":"住宅区","address":"宝山区顾新东路387弄"},{"poiid":"B2094757DB69A2FC449A","title":"苏武牧羊 顾北路店","lon":"121.39244556427","lat":"31.351841147503","category":"86","category_name":"火锅店","address":"宝山区顾北路460号(近电台路)"},{"poiid":"B2094757D069A6FD469E","title":"顾村大家园B区","lon":"121.407729","lat":"31.358065","category":"500","category_name":"未知分类","address":"上海宝山区顾村大家园B区"},{"poiid":"B2094757D66CA7FC459F","title":"沪太路","lon":"121.40159195","lat":"31.34274145","category":"500","category_name":"未知分类","address":"上海沪太路4361号"},{"poiid":"B2094654D469ABF44793","title":"顾村镇图书馆","lon":"121.39566","lat":"31.3469","category":"181","category_name":"图书馆","address":"顾村镇电台南路7号"},{"poiid":"B2094751D565A3FB419A","title":"美蘭湖別墅","lon":"121.3948150944116","lat":"31.34968526929555","category":"47","category_name":"住宅区","address":null},{"poiid":"B2094654D46AA0FA4398","title":"上海市宝山区顾村镇兽医站","lon":"121.3953","lat":"31.34768","category":"162","category_name":"医院","address":""},{"poiid":"B2094757D064A4F8409B","title":"上海衡山北郊宾馆","lon":"121.38487905","lat":"31.3455428044","category":"76","category_name":"上海菜","address":"宝山区顾村镇沪太路4788号顾村公园内"},{"poiid":"B2094757D06FA0FF459C","title":"泰和新城","lon":"121.412","lat":"31.3549","category":"47","category_name":"住宅区","address":"上海泰和新城3381弄"},{"poiid":"B2094757D068AAFD429A","title":"宝山太平禅寺","lon":"121.410213","lat":"31.355918","category":"246","category_name":"回教寺","address":"上海宝山区顾村镇富联路(近泰和西路)"},{"poiid":"B2094757D069A7FC459B","title":"东方帕堤欧","lon":"121.38584","lat":"31.351549","category":"47","category_name":"住宅区","address":"宝山区顾北路691号(近沪太路)"},{"poiid":"B2094757D06AA1FE479F","title":"顾北路电台路","lon":"121.393651","lat":"31.351812","category":"500","category_name":"未知分类","address":"上海宝山区顾北路电台路"},{"poiid":"B2094757D465A3F9469C","title":"顾村公园鹰冠庄园","lon":"121.38529968262","lat":"31.347066879273","category":"247","category_name":"餐饮美食","address":"宝山区沪太路4788号顾村公园英伦风情园悦林大道11号查看地图"},{"poiid":"B2094757D069A2F5429F","title":"大唐花园","lon":"121.40004","lat":"31.344345","category":"47","category_name":"住宅区","address":"大唐花园位于宝山上海宝山沪太路3717弄"},{"poiid":"B2094757D168A0FE4898","title":"顾村公园﹣鹰冠婚礼庄园","lon":"121.39265295","lat":"31.3451464968","category":"196","category_name":"公园","address":"上海市宝山区沪太路"},{"poiid":"B2094757D06AA7FA4292","title":"顾村大家园A区","lon":"121.407711679","lat":"31.3588722439","category":"500","category_name":"未知分类","address":"上海市宝山区顾北东路501弄"},{"poiid":"B2094757D069A3F94498","title":"701路终点站 泰和新城","lon":"121.403744","lat":"31.351059","category":"38","category_name":"公交车站","address":"上海泰和西路"},{"poiid":"B2094757D064AAFD4399","title":"丰水宝坻 西苑","lon":"121.393518","lat":"31.355909","category":"500","category_name":"未知分类","address":"上海电台路教育路"},{"poiid":"B2094757D169A5FD469D","title":"鸡排超人(顾村店)","lon":"121.403499713","lat":"31.3506720893","category":"68","category_name":"快餐厅","address":"宝山区泰和西路3499弄65号(顾太路口)"},{"poiid":"B2094654DB6AA5FF419E","title":"泰和西路","lon":"121.402","lat":"31.35043","category":"47","category_name":"住宅区","address":""},{"poiid":"B2094757D464A0F44698","title":"伊诺咖啡 顾北路店","lon":"121.39682","lat":"31.3532","category":"65","category_name":"咖啡厅","address":"宝山区顾北路578号(顾北路教育路)"},{"poiid":"B2094757D068A7F94499","title":"东明家具广场(沪太路店)","lon":"121.40212","lat":"31.33917","category":"249","category_name":"购物服务","address":"宝山区沪太路4301号"},{"poiid":"B2094655D36CA7F5469A","title":"顾太路泰和路","lon":"121.39804","lat":"31.34777","category":"38","category_name":"公交车站","address":""},{"poiid":"B2094757D06AABF44493","title":"宝山国际民间艺术博览馆","lon":"121.3877161","lat":"31.346555898","category":"182","category_name":"博物馆","address":"宝山区沪太路4788号(近顾村公园1号门)"},{"poiid":"B2094654D469AAF94692","title":"好德NO.802(祥和路)","lon":"121.40267","lat":"31.35008","category":"117","category_name":"便民商店/便利店","address":""},{"poiid":"B2094654D469AAF9459A","title":"中国电信顾新路营业厅","lon":"121.39746","lat":"31.34837","category":"151","category_name":"电讯营业厅","address":"宝山区顾村顾新路2号"},{"poiid":"B2094757D069A7FA4393","title":"丰水宝坻 东苑","lon":"121.39669024","lat":"31.3517751278","category":"47","category_name":"住宅区","address":"上海市宝山区教育路555弄"},{"poiid":"B2094655D36CA1FE4798","title":"水产西路富联路","lon":"121.41202","lat":"31.35561","category":"38","category_name":"公交车站","address":""},{"poiid":"B2094654D469ABFB4593","title":"上海市顾村中学","lon":"121.39422","lat":"31.35164","category":"55","category_name":"中学","address":"电台路93"},{"poiid":"B2094654D469AAF5419E","title":"一德大药房恒泰店","lon":"121.40321","lat":"31.35031","category":"162","category_name":"医院","address":"顾村镇"},{"poiid":"B2094654DB6AA5F8459C","title":"宝山区泰和新城小学","lon":"121.40277","lat":"31.35156","category":"56","category_name":"小学","address":"宝山区泰和西路3493弄188"},{"poiid":"B2094654DB65A2F5439C","title":"中国移动营业厅(顾太路)","lon":"121.39749","lat":"31.34824","category":"151","category_name":"电讯营业厅","address":"顾太路10号"},{"poiid":"B2094654D469AAF94492","title":"快客(顾新路)","lon":"121.39708","lat":"31.34858","category":"117","category_name":"便民商店/便利店","address":""},{"poiid":"B2094654D46AA0FA4392","title":"双利百货","lon":"121.39749","lat":"31.34726","category":"119","category_name":"商场","address":""},{"poiid":"B2094757D16FA3F54192","title":"一唇香迷宗蟹","lon":"121.39015767","lat":"31.350380083","category":"71","category_name":"四川菜","address":"宝山区顾北路680号(近顾荻路)"},{"poiid":"B2094654D46AA0FA469F","title":"宝山区顾村工贸商场","lon":"121.39676","lat":"31.34824","category":"119","category_name":"商场","address":""},{"poiid":"B2094757D068ABF9449D","title":"圣卡洛 铂庭","lon":"121.388371","lat":"31.35749","category":"47","category_name":"住宅区","address":"上海沙浦路518弄"},{"poiid":"B2094757D069A5FC4592","title":"顾村大家园C区","lon":"121.41204192","lat":"31.360784179","category":"500","category_name":"未知分类","address":"上海顾北东路155弄"},{"poiid":"B2094654D46AA3FA409C","title":"德胜饮食店","lon":"121.39696","lat":"31.34739","category":"257","category_name":"中餐厅","address":""},{"poiid":"B2094655D264A0F5429A","title":"颐河苑","lon":"121.40876428618","lat":"31.348603156453","category":"47","category_name":"住宅区","address":"上海市宝山区顾太路21弄"},{"poiid":"B2094654D46AA0FA439F","title":"宝山区顾村中心幼儿园","lon":"121.39629","lat":"31.34749","category":"57","category_name":"幼儿园","address":"新泰路31"},{"poiid":"B2094654D469AAF5449B","title":"快客NO.1264","lon":"121.40481","lat":"31.35097","category":"117","category_name":"便民商店/便利店","address":"顾村镇"},{"poiid":"B2094654D469AAF5439C","title":"名角女士生活馆(祥和路)","lon":"121.40461","lat":"31.35089","category":"148","category_name":"美容美发店","address":""},{"poiid":"B2094654D469AAF94498","title":"雅美花苑","lon":"121.39633","lat":"31.348158","category":"47","category_name":"住宅区","address":"顾新路18号"},{"poiid":"B2094757D16CA0FF439B","title":"自然居家園","lon":"121.409995","lat":"31.353395","category":"500","category_name":"未知分类","address":"水产西路999弄1-11,38-47号"},{"poiid":"B2094654D469AAF94493","title":"中国建设银行上海市顾新路支行","lon":"121.39717","lat":"31.3486","category":"150","category_name":"银行","address":"宝山区顾村镇顾新路3号(顾太路顾新路)"},{"poiid":"B2094654D469AAF94992","title":"顾村社区卫生服务中心","lon":"121.40888","lat":"31.35302","category":"162","category_name":"医院","address":"宝山区泰和西路3369号"},{"poiid":"B2094654D46AA0FA4999","title":"红十字卫生站","lon":"121.40509","lat":"31.35128","category":"162","category_name":"医院","address":"泰和新城第一居委3463弄38号对面"},{"poiid":"B2094757D069A7F9479C","title":"成亿宝盛","lon":"121.414759","lat":"31.354816","category":"500","category_name":"未知分类","address":"上海水产西路859弄"},{"poiid":"B2094757D06AA0FA4499","title":"丰水宝坻","lon":"121.39216691","lat":"31.357603336","category":"253","category_name":"校园生活","address":"上海电台路教育路"},{"poiid":"B2094655D265A0FC469E","title":"阳光迪金阁","lon":"121.404677","lat":"31.354497","category":"47","category_name":"住宅区","address":"宝山区顾新东路387弄"},{"poiid":"B2094757DB69A2FC449A","title":"苏武牧羊 顾北路店","lon":"121.39244556427","lat":"31.351841147503","category":"86","category_name":"火锅店","address":"宝山区顾北路460号(近电台路)"},{"poiid":"B2094757D069A6FD469E","title":"顾村大家园B区","lon":"121.407729","lat":"31.358065","category":"500","category_name":"未知分类","address":"上海宝山区顾村大家园B区"},{"poiid":"B2094757D66CA7FC459F","title":"沪太路","lon":"121.40159195","lat":"31.34274145","category":"500","category_name":"未知分类","address":"上海沪太路4361号"},{"poiid":"B2094654D469ABF44793","title":"顾村镇图书馆","lon":"121.39566","lat":"31.3469","category":"181","category_name":"图书馆","address":"顾村镇电台南路7号"},{"poiid":"B2094751D565A3FB419A","title":"美蘭湖別墅","lon":"121.3948150944116","lat":"31.34968526929555","category":"47","category_name":"住宅区","address":null},{"poiid":"B2094654D46AA0FA4398","title":"上海市宝山区顾村镇兽医站","lon":"121.3953","lat":"31.34768","category":"162","category_name":"医院","address":""},{"poiid":"B2094757D064A4F8409B","title":"上海衡山北郊宾馆","lon":"121.38487905","lat":"31.3455428044","category":"76","category_name":"上海菜","address":"宝山区顾村镇沪太路4788号顾村公园内"},{"poiid":"B2094757D06FA0FF459C","title":"泰和新城","lon":"121.412","lat":"31.3549","category":"47","category_name":"住宅区","address":"上海泰和新城3381弄"},{"poiid":"B2094757D068AAFD429A","title":"宝山太平禅寺","lon":"121.410213","lat":"31.355918","category":"246","category_name":"回教寺","address":"上海宝山区顾村镇富联路(近泰和西路)"},{"poiid":"B2094757D069A7FC459B","title":"东方帕堤欧","lon":"121.38584","lat":"31.351549","category":"47","category_name":"住宅区","address":"宝山区顾北路691号(近沪太路)"},{"poiid":"B2094757D06AA1FE479F","title":"顾北路电台路","lon":"121.393651","lat":"31.351812","category":"500","category_name":"未知分类","address":"上海宝山区顾北路电台路"},{"poiid":"B2094757D465A3F9469C","title":"顾村公园鹰冠庄园","lon":"121.38529968262","lat":"31.347066879273","category":"247","category_name":"餐饮美食","address":"宝山区沪太路4788号顾村公园英伦风情园悦林大道11号查看地图"},{"poiid":"B2094757D069A2F5429F","title":"大唐花园","lon":"121.40004","lat":"31.344345","category":"47","category_name":"住宅区","address":"大唐花园位于宝山上海宝山沪太路3717弄"},{"poiid":"B2094757D168A0FE4898","title":"顾村公园﹣鹰冠婚礼庄园","lon":"121.39265295","lat":"31.3451464968","category":"196","category_name":"公园","address":"上海市宝山区沪太路"},{"poiid":"B2094757D06AA7FA4292","title":"顾村大家园A区","lon":"121.407711679","lat":"31.3588722439","category":"500","category_name":"未知分类","address":"上海市宝山区顾北东路501弄"},{"poiid":"B2094757D069A3F94498","title":"701路终点站 泰和新城","lon":"121.403744","lat":"31.351059","category":"38","category_name":"公交车站","address":"上海泰和西路"},{"poiid":"B2094757D064AAFD4399","title":"丰水宝坻 西苑","lon":"121.393518","lat":"31.355909","category":"500","category_name":"未知分类","address":"上海电台路教育路"},{"poiid":"B2094757D169A5FD469D","title":"鸡排超人(顾村店)","lon":"121.403499713","lat":"31.3506720893","category":"68","category_name":"快餐厅","address":"宝山区泰和西路3499弄65号(顾太路口)"},{"poiid":"B2094654DB6AA5FF419E","title":"泰和西路","lon":"121.402","lat":"31.35043","category":"47","category_name":"住宅区","address":""},{"poiid":"B2094757D464A0F44698","title":"伊诺咖啡 顾北路店","lon":"121.39682","lat":"31.3532","category":"65","category_name":"咖啡厅","address":"宝山区顾北路578号(顾北路教育路)"},{"poiid":"B2094757D068A7F94499","title":"东明家具广场(沪太路店)","lon":"121.40212","lat":"31.33917","category":"249","category_name":"购物服务","address":"宝山区沪太路4301号"},{"poiid":"B2094655D36CA7F5469A","title":"顾太路泰和路","lon":"121.39804","lat":"31.34777","category":"38","category_name":"公交车站","address":""},{"poiid":"B2094757D06AABF44493","title":"宝山国际民间艺术博览馆","lon":"121.3877161","lat":"31.346555898","category":"182","category_name":"博物馆","address":"宝山区沪太路4788号(近顾村公园1号门)"},{"poiid":"B2094654D469AAF94692","title":"好德NO.802(祥和路)","lon":"121.40267","lat":"31.35008","category":"117","category_name":"便民商店/便利店","address":""},{"poiid":"B2094654D469AAF9459A","title":"中国电信顾新路营业厅","lon":"121.39746","lat":"31.34837","category":"151","category_name":"电讯营业厅","address":"宝山区顾村顾新路2号"},{"poiid":"B2094757D069A7FA4393","title":"丰水宝坻 东苑","lon":"121.39669024","lat":"31.3517751278","category":"47","category_name":"住宅区","address":"上海市宝山区教育路555弄"},{"poiid":"B2094655D36CA1FE4798","title":"水产西路富联路","lon":"121.41202","lat":"31.35561","category":"38","category_name":"公交车站","address":""},{"poiid":"B2094654D469ABFB4593","title":"上海市顾村中学","lon":"121.39422","lat":"31.35164","category":"55","category_name":"中学","address":"电台路93"},{"poiid":"B2094654D469AAF5419E","title":"一德大药房恒泰店","lon":"121.40321","lat":"31.35031","category":"162","category_name":"医院","address":"顾村镇"},{"poiid":"B2094654DB6AA5F8459C","title":"宝山区泰和新城小学","lon":"121.40277","lat":"31.35156","category":"56","category_name":"小学","address":"宝山区泰和西路3493弄188"},{"poiid":"B2094654DB65A2F5439C","title":"中国移动营业厅(顾太路)","lon":"121.39749","lat":"31.34824","category":"151","category_name":"电讯营业厅","address":"顾太路10号"},{"poiid":"B2094654D469AAF94492","title":"快客(顾新路)","lon":"121.39708","lat":"31.34858","category":"117","category_name":"便民商店/便利店","address":""},{"poiid":"B2094654D46AA0FA4392","title":"双利百货","lon":"121.39749","lat":"31.34726","category":"119","category_name":"商场","address":""},{"poiid":"B2094757D16FA3F54192","title":"一唇香迷宗蟹","lon":"121.39015767","lat":"31.350380083","category":"71","category_name":"四川菜","address":"宝山区顾北路680号(近顾荻路)"},{"poiid":"B2094654D46AA0FA469F","title":"宝山区顾村工贸商场","lon":"121.39676","lat":"31.34824","category":"119","category_name":"商场","address":""},{"poiid":"B2094757D068ABF9449D","title":"圣卡洛 铂庭","lon":"121.388371","lat":"31.35749","category":"47","category_name":"住宅区","address":"上海沙浦路518弄"},{"poiid":"B2094757D069A5FC4592","title":"顾村大家园C区","lon":"121.41204192","lat":"31.360784179","category":"500","category_name":"未知分类","address":"上海顾北东路155弄"},{"poiid":"B2094654D46AA3FA409C","title":"德胜饮食店","lon":"121.39696","lat":"31.34739","category":"257","category_name":"中餐厅","address":""},{"poiid":"B2094655D264A0F5429A","title":"颐河苑","lon":"121.40876428618","lat":"31.348603156453","category":"47","category_name":"住宅区","address":"上海市宝山区顾太路21弄"},{"poiid":"B2094654D46AA0FA439F","title":"宝山区顾村中心幼儿园","lon":"121.39629","lat":"31.34749","category":"57","category_name":"幼儿园","address":"新泰路31"},{"poiid":"B2094654D469AAF5449B","title":"快客NO.1264","lon":"121.40481","lat":"31.35097","category":"117","category_name":"便民商店/便利店","address":"顾村镇"},{"poiid":"B2094654D469AAF5439C","title":"名角女士生活馆(祥和路)","lon":"121.40461","lat":"31.35089","category":"148","category_name":"美容美发店","address":""},{"poiid":"B2094654D469AAF94498","title":"雅美花苑","lon":"121.39633","lat":"31.348158","category":"47","category_name":"住宅区","address":"顾新路18号"},{"poiid":"B2094757D16CA0FF439B","title":"自然居家園","lon":"121.409995","lat":"31.353395","category":"500","category_name":"未知分类","address":"水产西路999弄1-11,38-47号"},{"poiid":"B2094654D469AAF94493","title":"中国建设银行上海市顾新路支行","lon":"121.39717","lat":"31.3486","category":"150","category_name":"银行","address":"宝山区顾村镇顾新路3号(顾太路顾新路)"},{"poiid":"B2094654D469AAF94992","title":"顾村社区卫生服务中心","lon":"121.40888","lat":"31.35302","category":"162","category_name":"医院","address":"宝山区泰和西路3369号"},{"poiid":"B2094654D46AA0FA4999","title":"红十字卫生站","lon":"121.40509","lat":"31.35128","category":"162","category_name":"医院","address":"泰和新城第一居委3463弄38号对面"},{"poiid":"B2094757D069A7F9479C","title":"成亿宝盛","lon":"121.414759","lat":"31.354816","category":"500","category_name":"未知分类","address":"上海水产西路859弄"},{"poiid":"B2094757D06AA0FA4499","title":"丰水宝坻","lon":"121.39216691","lat":"31.357603336","category":"253","category_name":"校园生活","address":"上海电台路教育路"},{"poiid":"B2094655D265A0FC469E","title":"阳光迪金阁","lon":"121.404677","lat":"31.354497","category":"47","category_name":"住宅区","address":"宝山区顾新东路387弄"},{"poiid":"B2094757DB69A2FC449A","title":"苏武牧羊 顾北路店","lon":"121.39244556427","lat":"31.351841147503","category":"86","category_name":"火锅店","address":"宝山区顾北路460号(近电台路)"},{"poiid":"B2094757D069A6FD469E","title":"顾村大家园B区","lon":"121.407729","lat":"31.358065","category":"500","category_name":"未知分类","address":"上海宝山区顾村大家园B区"},{"poiid":"B2094757D66CA7FC459F","title":"沪太路","lon":"121.40159195","lat":"31.34274145","category":"500","category_name":"未知分类","address":"上海沪太路4361号"},{"poiid":"B2094654D469ABF44793","title":"顾村镇图书馆","lon":"121.39566","lat":"31.3469","category":"181","category_name":"图书馆","address":"顾村镇电台南路7号"},{"poiid":"B2094751D565A3FB419A","title":"美蘭湖別墅","lon":"121.3948150944116","lat":"31.34968526929555","category":"47","category_name":"住宅区","address":null},{"poiid":"B2094654D46AA0FA4398","title":"上海市宝山区顾村镇兽医站","lon":"121.3953","lat":"31.34768","category":"162","category_name":"医院","address":""},{"poiid":"B2094757D064A4F8409B","title":"上海衡山北郊宾馆","lon":"121.38487905","lat":"31.3455428044","category":"76","category_name":"上海菜","address":"宝山区顾村镇沪太路4788号顾村公园内"},{"poiid":"B2094757D06FA0FF459C","title":"泰和新城","lon":"121.412","lat":"31.3549","category":"47","category_name":"住宅区","address":"上海泰和新城3381弄"},{"poiid":"B2094757D068AAFD429A","title":"宝山太平禅寺","lon":"121.410213","lat":"31.355918","category":"246","category_name":"回教寺","address":"上海宝山区顾村镇富联路(近泰和西路)"},{"poiid":"B2094757D069A7FC459B","title":"东方帕堤欧","lon":"121.38584","lat":"31.351549","category":"47","category_name":"住宅区","address":"宝山区顾北路691号(近沪太路)"},{"poiid":"B2094757D06AA1FE479F","title":"顾北路电台路","lon":"121.393651","lat":"31.351812","category":"500","category_name":"未知分类","address":"上海宝山区顾北路电台路"},{"poiid":"B2094757D465A3F9469C","title":"顾村公园鹰冠庄园","lon":"121.38529968262","lat":"31.347066879273","category":"247","category_name":"餐饮美食","address":"宝山区沪太路4788号顾村公园英伦风情园悦林大道11号查看地图"},{"poiid":"B2094757D069A2F5429F","title":"大唐花园","lon":"121.40004","lat":"31.344345","category":"47","category_name":"住宅区","address":"大唐花园位于宝山上海宝山沪太路3717弄"},{"poiid":"B2094757D168A0FE4898","title":"顾村公园﹣鹰冠婚礼庄园","lon":"121.39265295","lat":"31.3451464968","category":"196","category_name":"公园","address":"上海市宝山区沪太路"},{"poiid":"B2094757D06AA7FA4292","title":"顾村大家园A区","lon":"121.407711679","lat":"31.3588722439","category":"500","category_name":"未知分类","address":"上海市宝山区顾北东路501弄"},{"poiid":"B2094757D069A3F94498","title":"701路终点站 泰和新城","lon":"121.403744","lat":"31.351059","category":"38","category_name":"公交车站","address":"上海泰和西路"},{"poiid":"B2094757D064AAFD4399","title":"丰水宝坻 西苑","lon":"121.393518","lat":"31.355909","category":"500","category_name":"未知分类","address":"上海电台路教育路"},{"poiid":"B2094757D169A5FD469D","title":"鸡排超人(顾村店)","lon":"121.403499713","lat":"31.3506720893","category":"68","category_name":"快餐厅","address":"宝山区泰和西路3499弄65号(顾太路口)"},{"poiid":"B2094654DB6AA5FF419E","title":"泰和西路","lon":"121.402","lat":"31.35043","category":"47","category_name":"住宅区","address":""},{"poiid":"B2094757D464A0F44698","title":"伊诺咖啡 顾北路店","lon":"121.39682","lat":"31.3532","category":"65","category_name":"咖啡厅","address":"宝山区顾北路578号(顾北路教育路)"},{"poiid":"B2094757D068A7F94499","title":"东明家具广场(沪太路店)","lon":"121.40212","lat":"31.33917","category":"249","category_name":"购物服务","address":"宝山区沪太路4301号"},{"poiid":"B2094655D36CA7F5469A","title":"顾太路泰和路","lon":"121.39804","lat":"31.34777","category":"38","category_name":"公交车站","address":""},{"poiid":"B2094757D06AABF44493","title":"宝山国际民间艺术博览馆","lon":"121.3877161","lat":"31.346555898","category":"182","category_name":"博物馆","address":"宝山区沪太路4788号(近顾村公园1号门)"},{"poiid":"B2094654D469AAF94692","title":"好德NO.802(祥和路)","lon":"121.40267","lat":"31.35008","category":"117","category_name":"便民商店/便利店","address":""},{"poiid":"B2094654D469AAF9459A","title":"中国电信顾新路营业厅","lon":"121.39746","lat":"31.34837","category":"151","category_name":"电讯营业厅","address":"宝山区顾村顾新路2号"},{"poiid":"B2094757D069A7FA4393","title":"丰水宝坻 东苑","lon":"121.39669024","lat":"31.3517751278","category":"47","category_name":"住宅区","address":"上海市宝山区教育路555弄"},{"poiid":"B2094655D36CA1FE4798","title":"水产西路富联路","lon":"121.41202","lat":"31.35561","category":"38","category_name":"公交车站","address":""},{"poiid":"B2094654D469ABFB4593","title":"上海市顾村中学","lon":"121.39422","lat":"31.35164","category":"55","category_name":"中学","address":"电台路93"},{"poiid":"B2094654D469AAF5419E","title":"一德大药房恒泰店","lon":"121.40321","lat":"31.35031","category":"162","category_name":"医院","address":"顾村镇"},{"poiid":"B2094654DB6AA5F8459C","title":"宝山区泰和新城小学","lon":"121.40277","lat":"31.35156","category":"56","category_name":"小学","address":"宝山区泰和西路3493弄188"},{"poiid":"B2094654DB65A2F5439C","title":"中国移动营业厅(顾太路)","lon":"121.39749","lat":"31.34824","category":"151","category_name":"电讯营业厅","address":"顾太路10号"},{"poiid":"B2094654D469AAF94492","title":"快客(顾新路)","lon":"121.39708","lat":"31.34858","category":"117","category_name":"便民商店/便利店","address":""},{"poiid":"B2094654D46AA0FA4392","title":"双利百货","lon":"121.39749","lat":"31.34726","category":"119","category_name":"商场","address":""},{"poiid":"B2094757D16FA3F54192","title":"一唇香迷宗蟹","lon":"121.39015767","lat":"31.350380083","category":"71","category_name":"四川菜","address":"宝山区顾北路680号(近顾荻路)"},{"poiid":"B2094654D46AA0FA469F","title":"宝山区顾村工贸商场","lon":"121.39676","lat":"31.34824","category":"119","category_name":"商场","address":""},{"poiid":"B2094757D068ABF9449D","title":"圣卡洛 铂庭","lon":"121.388371","lat":"31.35749","category":"47","category_name":"住宅区","address":"上海沙浦路518弄"},{"poiid":"B2094757D069A5FC4592","title":"顾村大家园C区","lon":"121.41204192","lat":"31.360784179","category":"500","category_name":"未知分类","address":"上海顾北东路155弄"},{"poiid":"B2094654D46AA3FA409C","title":"德胜饮食店","lon":"121.39696","lat":"31.34739","category":"257","category_name":"中餐厅","address":""},{"poiid":"B2094655D264A0F5429A","title":"颐河苑","lon":"121.40876428618","lat":"31.348603156453","category":"47","category_name":"住宅区","address":"上海市宝山区顾太路21弄"},{"poiid":"B2094654D46AA0FA439F","title":"宝山区顾村中心幼儿园","lon":"121.39629","lat":"31.34749","category":"57","category_name":"幼儿园","address":"新泰路31"},{"poiid":"B2094654D469AAF5449B","title":"快客NO.1264","lon":"121.40481","lat":"31.35097","category":"117","category_name":"便民商店/便利店","address":"顾村镇"},{"poiid":"B2094654D469AAF5439C","title":"名角女士生活馆(祥和路)","lon":"121.40461","lat":"31.35089","category":"148","category_name":"美容美发店","address":""},{"poiid":"B2094654D469AAF94498","title":"雅美花苑","lon":"121.39633","lat":"31.348158","category":"47","category_name":"住宅区","address":"顾新路18号"},{"poiid":"B2094757D16CA0FF439B","title":"自然居家園","lon":"121.409995","lat":"31.353395","category":"500","category_name":"未知分类","address":"水产西路999弄1-11,38-47号"},{"poiid":"B2094654D469AAF94493","title":"中国建设银行上海市顾新路支行","lon":"121.39717","lat":"31.3486","category":"150","category_name":"银行","address":"宝山区顾村镇顾新路3号(顾太路顾新路)"},{"poiid":"B2094654D469AAF94992","title":"顾村社区卫生服务中心","lon":"121.40888","lat":"31.35302","category":"162","category_name":"医院","address":"宝山区泰和西路3369号"},{"poiid":"B2094654D46AA0FA4999","title":"红十字卫生站","lon":"121.40509","lat":"31.35128","category":"162","category_name":"医院","address":"泰和新城第一居委3463弄38号对面"},{"poiid":"B2094757D069A7F9479C","title":"成亿宝盛","lon":"121.414759","lat":"31.354816","category":"500","category_name":"未知分类","address":"上海水产西路859弄"},{"poiid":"B2094757D06AA0FA4499","title":"丰水宝坻","lon":"121.39216691","lat":"31.357603336","category":"253","category_name":"校园生活","address":"上海电台路教育路"},{"poiid":"B2094655D265A0FC469E","title":"阳光迪金阁","lon":"121.404677","lat":"31.354497","category":"47","category_name":"住宅区","address":"宝山区顾新东路387弄"},{"poiid":"B2094757DB69A2FC449A","title":"苏武牧羊 顾北路店","lon":"121.39244556427","lat":"31.351841147503","category":"86","category_name":"火锅店","address":"宝山区顾北路460号(近电台路)"},{"poiid":"B2094757D069A6FD469E","title":"顾村大家园B区","lon":"121.407729","lat":"31.358065","category":"500","category_name":"未知分类","address":"上海宝山区顾村大家园B区"},{"poiid":"B2094757D66CA7FC459F","title":"沪太路","lon":"121.40159195","lat":"31.34274145","category":"500","category_name":"未知分类","address":"上海沪太路4361号"},{"poiid":"B2094654D469ABF44793","title":"顾村镇图书馆","lon":"121.39566","lat":"31.3469","category":"181","category_name":"图书馆","address":"顾村镇电台南路7号"},{"poiid":"B2094751D565A3FB419A","title":"美蘭湖別墅","lon":"121.3948150944116","lat":"31.34968526929555","category":"47","category_name":"住宅区","address":null},{"poiid":"B2094654D46AA0FA4398","title":"上海市宝山区顾村镇兽医站","lon":"121.3953","lat":"31.34768","category":"162","category_name":"医院","address":""}]