[{"poiid":"B2094757D06FA3F4449F","title":"万豪虹桥大酒店","lon":"121.3769","lat":"31.19163","category":"213","category_name":"五星级宾馆","address":"上海长宁区虹桥路2270号(近剑河路)  "},{"poiid":"B2094750D268A1FF4599","title":"虹桥机场1号航站楼","lon":"121.374694","lat":"31.194229","category":"21","category_name":"飞机场","address":"长宁区虹桥路2550号"},{"poiid":"B2094757D06FA4FF4999","title":"西郊宾馆会议中心百花厅","lon":"121.37757288","lat":"31.202861075","category":"217","category_name":"旅馆招待所","address":"上海虹桥路1961号"},{"poiid":"B2094757D06FA2F4499D","title":"新农庄(剑河路总店)","lon":"121.3761","lat":"31.1905","category":"76","category_name":"上海菜","address":"长宁区剑河路2396号(近延安路高架)"},{"poiid":"B2094654DB69A0F9479D","title":"王朝大酒楼(虹桥店)","lon":"121.37808","lat":"31.19264","category":"257","category_name":"中餐厅","address":"上海长宁区虹桥路2260号(近剑河路)"},{"poiid":"B2094757D66EA3F84392","title":"虹桥机场北彩虹桥","lon":"121.380809686","lat":"31.1975813926","category":"21","category_name":"飞机场","address":"上海虹桥机场2号航站楼"},{"poiid":"B2094757D169A5FC4893","title":"西郊宾馆7号楼水上餐厅","lon":"121.37832858","lat":"31.201840875","category":"217","category_name":"旅馆招待所","address":"上海市长宁区虹桥路1921号"},{"poiid":"B2094757D068A0FB4892","title":"鼎邦俪池","lon":"121.37372","lat":"31.19683","category":"500","category_name":"未知分类","address":"上海长宁区青溪路288弄(近龙溪路)  "},{"poiid":"B2094757D06FA2FF4093","title":"星巴克(虹桥万豪店)","lon":"121.376118","lat":"31.191415","category":"260","category_name":"其他","address":"长宁区虹桥路2268号虹桥商务楼1楼B-C段(近剑河路)"},{"poiid":"B2094757D06EAAF84599","title":"龙溪路地铁站","lon":"121.37988978","lat":"31.194287116","category":"36","category_name":"地铁站","address":"上海轨道交通 十号线 轨交龙溪路站 10"},{"poiid":"B2094750D269A3FD4892","title":"唐宫壹号 万豪店","lon":"121.377032","lat":"31.191498","category":"72","category_name":"广东菜","address":"长宁区虹桥路2270号万豪虹桥大酒店2楼(近剑河路)"},{"poiid":"B2094757D06BA1FD4298","title":"西郊百联电影院","lon":"121.37847158","lat":"31.193721717","category":"178","category_name":"电影院","address":"上海市长宁区"},{"poiid":"B2094654DB6BA0FE449B","title":"新加坡泰国村鱼翅(虹桥店)","lon":"121.37748","lat":"31.19071","category":"72","category_name":"广东菜","address":"长宁区虹桥路2266号阳光大酒店内(近剑河路)"},{"poiid":"B2094655D26DA6FA499B","title":"西郊宾馆(北门)","lon":"121.37531","lat":"31.20363","category":"250","category_name":"公园户外","address":""},{"poiid":"B2094655D26DA5F8469C","title":"上海万豪虹桥大酒店(东门)","lon":"121.37765","lat":"31.1915","category":"656","category_name":"大门","address":"上海市长宁区虹桥路2270号（近剑河路）"},{"poiid":"B2094757D66BA0FD4598","title":"鼎邦俪池私人会所","lon":"121.375898054","lat":"31.197669793","category":"268","category_name":"自助","address":"长宁区青溪路288弄(近龙溪路)查看地图"},{"poiid":"B2094655D26BAAFF449E","title":"虹桥万豪酒店","lon":"121.37589","lat":"31.191","category":"250","category_name":"公园户外","address":"虹桥路2270号"},{"poiid":"B2094757D068A0F94393","title":"国际农业展览馆","lon":"121.37689","lat":"31.19202","category":"179","category_name":"音乐厅","address":"长宁区虹桥路2268号(近剑河路)"},{"poiid":"B2094757D06BA5FB419C","title":"地铁十号线(龙溪路站)","lon":"121.38004158","lat":"31.19352586","category":"36","category_name":"地铁站","address":"上海龙溪路虹桥路"},{"poiid":"B2094655D26EA3FA4593","title":"格林豪泰(上海虹桥机场酒店公寓)","lon":"121.36744","lat":"31.19583","category":"216","category_name":"经济型连锁酒店","address":"长宁区哈密路1721号(近虹桥路)"},{"poiid":"B2094757D069ABFA4498","title":"中国人民解放军第四五五医院(哈密路分院)","lon":"121.36747","lat":"31.19587","category":"162","category_name":"医院","address":"长宁区哈密路1713号(近虹桥路)"},{"poiid":"B2094654D569AAFD4293","title":"张泾小区","lon":"121.37108","lat":"31.194754","category":"47","category_name":"住宅区","address":"上海剑河路2001弄"},{"poiid":"B2094757D06AA0FB4099","title":"人民公社农家菜","lon":"121.37031","lat":"31.19103","category":"87","category_name":"特色／地方风味餐厅","address":"长宁区哈密路2028号(近虹桥路)"},{"poiid":"B2094654D569AAF44599","title":"新滨铁板烧 New Hama Teppanyaki","lon":"121.37690694119","lat":"31.192314439953","category":"87","category_name":"特色／地方风味餐厅","address":"长宁区虹桥路2260号孔府别墅内(虹梅路剑河路间)"},{"poiid":"B2094757DA64A5F4489E","title":"虹桥机场T2航站楼71登记口","lon":"121.3745983338356","lat":"31.19463270098341","category":"500","category_name":"未知分类","address":"虹桥机场"},{"poiid":"B2094655D26CA4FC4598","title":"西郊会议中心","lon":"121.37794","lat":"31.20285","category":"185","category_name":"会展中心","address":""},{"poiid":"B2094654DB64A7F4439B","title":"上海万豪虹桥大酒店(北门)","lon":"121.37609","lat":"31.19191","category":"656","category_name":"大门","address":"上海市长宁区虹桥路2270号（近剑河路）"},{"poiid":"B2094757D06BA3FE4992","title":"Bubba's Texas-style BBQ(虹桥路店)","lon":"121.37549","lat":"31.19147","category":"94","category_name":"西餐厅","address":"长宁区虹桥路2262号(剑河路口)"},{"poiid":"B2094757D465A4FA4392","title":"万豪虹桥大酒店 宴会厅","lon":"121.375667054","lat":"31.191734793","category":"76","category_name":"上海菜","address":"长宁区虹桥路2270号万豪虹桥大酒店(近剑河路)"},{"poiid":"B2094654D569AAF54092","title":"夏都花园","lon":"121.37456","lat":"31.195242","category":"47","category_name":"住宅区","address":"夏都花园位于长宁剑河路2000号"},{"poiid":"B2094751DA65A4FD4399","title":"酒藏","lon":"121.371378","lat":"31.192276","category":"247","category_name":"餐饮美食","address":"长宁区剑河路(近延安西路)"},{"poiid":"B2094757D16BA5FE4592","title":"申德医院","lon":"121.37451","lat":"31.19124","category":"162","category_name":"医院","address":"长宁区虹桥路2281号(近剑河路)"},{"poiid":"B2094655D26FA7FC4398","title":"鼎邦俪池(北门)","lon":"121.37258","lat":"31.19724","category":"47","category_name":"住宅区","address":"青溪路288号"},{"poiid":"B2094655D36CA7F8489E","title":"虹梅路","lon":"121.38061","lat":"31.19464","category":"38","category_name":"公交车站","address":"2007号"},{"poiid":"B2094654D569AAFB479B","title":"鲍鱼火锅","lon":"121.37622","lat":"31.19035","category":"86","category_name":"火锅店","address":"长宁区剑河路2378号(近延安西路)"},{"poiid":"B2094654D569AAFB4193","title":"北顾小区","lon":"121.37067","lat":"31.19923","category":"47","category_name":"住宅区","address":"上海剑河路998弄"},{"poiid":"B2094757D069A3F4429B","title":"西郊明苑别墅会所","lon":"121.37866","lat":"31.19651","category":"148","category_name":"美容美发店","address":"上海长宁区龙溪路189号(近虹井路)  "},{"poiid":"B2094750D464A5F94499","title":"鼎邦俪池私人俱乐部","lon":"121.372802","lat":"31.197538","category":"500","category_name":"未知分类","address":null},{"poiid":"B2094757D16FA0F44293","title":"Le Joli Bistro 周(西郊宾馆店)","lon":"121.378337086","lat":"31.2018328757","category":"94","category_name":"西餐厅","address":"上海市虹桥路1921号西郊宾馆7号楼(近虹许路)"},{"poiid":"B2094757D164A7FF419C","title":"慕光日本料理","lon":"121.372366386","lat":"31.1971500842","category":"500","category_name":"未知分类","address":"上海虹梅路Soho3911"},{"poiid":"B2094757D068A6FD4692","title":"檀宫","lon":"121.373368383","lat":"31.2023260816","category":"47","category_name":"住宅区","address":"檀宫位于长宁清溪路555号"},{"poiid":"B2094655D36CA0FA409D","title":"剑河路平溪路","lon":"121.37246","lat":"31.19443","category":"38","category_name":"公交车站","address":""},{"poiid":"B2094757D16DA6F54293","title":"虹桥中园","lon":"121.36947258","lat":"31.194007722","category":"500","category_name":"未知分类","address":"上海市长宁区哈密路1999弄"},{"poiid":"B2094654DB69A6FC429D","title":"虹桥晶彩","lon":"121.374","lat":"31.194","category":"47","category_name":"住宅区","address":"虹桥晶彩位于长宁虹井路831号"},{"poiid":"B2094757D16EA3F5469B","title":"名颂人家","lon":"121.36799","lat":"31.19575","category":"76","category_name":"上海菜","address":"长宁区哈密路1799号(近青溪路)"},{"poiid":"B2094757D568A5F5479C","title":"御笼坊(哈密路店)","lon":"121.3692931","lat":"31.19420806","category":"68","category_name":"快餐厅","address":"长宁区哈密路1896弄(近青溪路)"},{"poiid":"B2094655D269A4F5439A","title":"宝隆居家酒店哈密路店","lon":"121.36978","lat":"31.19221","category":"247","category_name":"餐饮美食","address":"上海市长宁区哈密路2010号（近虹桥路）"},{"poiid":"B2094757D469A3F4499A","title":"曼哈顿扒房 Manhattan Steakhouse","lon":"121.375667054","lat":"31.191734793","category":"94","category_name":"西餐厅","address":"长宁区虹桥路2270号万豪虹桥大酒店2楼(近剑河路)"},{"poiid":"B2094751DA6CA2FD4793","title":"上海虹桥机场T1","lon":"121.378583","lat":"31.193634","category":"500","category_name":"未知分类","address":null},{"poiid":"B2094654DB6BA0FD499C","title":"竹园餐厅(舟山海鲜坊)","lon":"121.36894","lat":"31.19466","category":"257","category_name":"中餐厅","address":"长宁区哈密路1896号"},{"poiid":"B2094757D06FA3F4449F","title":"万豪虹桥大酒店","lon":"121.3769","lat":"31.19163","category":"213","category_name":"五星级宾馆","address":"上海长宁区虹桥路2270号(近剑河路)  "},{"poiid":"B2094750D268A1FF4599","title":"虹桥机场1号航站楼","lon":"121.374694","lat":"31.194229","category":"21","category_name":"飞机场","address":"长宁区虹桥路2550号"},{"poiid":"B2094757D06FA4FF4999","title":"西郊宾馆会议中心百花厅","lon":"121.37757288","lat":"31.202861075","category":"217","category_name":"旅馆招待所","address":"上海虹桥路1961号"},{"poiid":"B2094757D06FA2F4499D","title":"新农庄(剑河路总店)","lon":"121.3761","lat":"31.1905","category":"76","category_name":"上海菜","address":"长宁区剑河路2396号(近延安路高架)"},{"poiid":"B2094654DB69A0F9479D","title":"王朝大酒楼(虹桥店)","lon":"121.37808","lat":"31.19264","category":"257","category_name":"中餐厅","address":"上海长宁区虹桥路2260号(近剑河路)"},{"poiid":"B2094757D66EA3F84392","title":"虹桥机场北彩虹桥","lon":"121.380809686","lat":"31.1975813926","category":"21","category_name":"飞机场","address":"上海虹桥机场2号航站楼"},{"poiid":"B2094757D169A5FC4893","title":"西郊宾馆7号楼水上餐厅","lon":"121.37832858","lat":"31.201840875","category":"217","category_name":"旅馆招待所","address":"上海市长宁区虹桥路1921号"},{"poiid":"B2094757D068A0FB4892","title":"鼎邦俪池","lon":"121.37372","lat":"31.19683","category":"500","category_name":"未知分类","address":"上海长宁区青溪路288弄(近龙溪路)  "},{"poiid":"B2094757D06FA2FF4093","title":"星巴克(虹桥万豪店)","lon":"121.376118","lat":"31.191415","category":"260","category_name":"其他","address":"长宁区虹桥路2268号虹桥商务楼1楼B-C段(近剑河路)"},{"poiid":"B2094757D06EAAF84599","title":"龙溪路地铁站","lon":"121.37988978","lat":"31.194287116","category":"36","category_name":"地铁站","address":"上海轨道交通 十号线 轨交龙溪路站 10"},{"poiid":"B2094750D269A3FD4892","title":"唐宫壹号 万豪店","lon":"121.377032","lat":"31.191498","category":"72","category_name":"广东菜","address":"长宁区虹桥路2270号万豪虹桥大酒店2楼(近剑河路)"},{"poiid":"B2094757D06BA1FD4298","title":"西郊百联电影院","lon":"121.37847158","lat":"31.193721717","category":"178","category_name":"电影院","address":"上海市长宁区"},{"poiid":"B2094654DB6BA0FE449B","title":"新加坡泰国村鱼翅(虹桥店)","lon":"121.37748","lat":"31.19071","category":"72","category_name":"广东菜","address":"长宁区虹桥路2266号阳光大酒店内(近剑河路)"},{"poiid":"B2094655D26DA6FA499B","title":"西郊宾馆(北门)","lon":"121.37531","lat":"31.20363","category":"250","category_name":"公园户外","address":""},{"poiid":"B2094655D26DA5F8469C","title":"上海万豪虹桥大酒店(东门)","lon":"121.37765","lat":"31.1915","category":"656","category_name":"大门","address":"上海市长宁区虹桥路2270号（近剑河路）"},{"poiid":"B2094757D66BA0FD4598","title":"鼎邦俪池私人会所","lon":"121.375898054","lat":"31.197669793","category":"268","category_name":"自助","address":"长宁区青溪路288弄(近龙溪路)查看地图"},{"poiid":"B2094655D26BAAFF449E","title":"虹桥万豪酒店","lon":"121.37589","lat":"31.191","category":"250","category_name":"公园户外","address":"虹桥路2270号"},{"poiid":"B2094757D068A0F94393","title":"国际农业展览馆","lon":"121.37689","lat":"31.19202","category":"179","category_name":"音乐厅","address":"长宁区虹桥路2268号(近剑河路)"},{"poiid":"B2094757D06BA5FB419C","title":"地铁十号线(龙溪路站)","lon":"121.38004158","lat":"31.19352586","category":"36","category_name":"地铁站","address":"上海龙溪路虹桥路"},{"poiid":"B2094655D26EA3FA4593","title":"格林豪泰(上海虹桥机场酒店公寓)","lon":"121.36744","lat":"31.19583","category":"216","category_name":"经济型连锁酒店","address":"长宁区哈密路1721号(近虹桥路)"},{"poiid":"B2094757D069ABFA4498","title":"中国人民解放军第四五五医院(哈密路分院)","lon":"121.36747","lat":"31.19587","category":"162","category_name":"医院","address":"长宁区哈密路1713号(近虹桥路)"},{"poiid":"B2094654D569AAFD4293","title":"张泾小区","lon":"121.37108","lat":"31.194754","category":"47","category_name":"住宅区","address":"上海剑河路2001弄"},{"poiid":"B2094757D06AA0FB4099","title":"人民公社农家菜","lon":"121.37031","lat":"31.19103","category":"87","category_name":"特色／地方风味餐厅","address":"长宁区哈密路2028号(近虹桥路)"},{"poiid":"B2094654D569AAF44599","title":"新滨铁板烧 New Hama Teppanyaki","lon":"121.37690694119","lat":"31.192314439953","category":"87","category_name":"特色／地方风味餐厅","address":"长宁区虹桥路2260号孔府别墅内(虹梅路剑河路间)"},{"poiid":"B2094757DA64A5F4489E","title":"虹桥机场T2航站楼71登记口","lon":"121.3745983338356","lat":"31.19463270098341","category":"500","category_name":"未知分类","address":"虹桥机场"},{"poiid":"B2094655D26CA4FC4598","title":"西郊会议中心","lon":"121.37794","lat":"31.20285","category":"185","category_name":"会展中心","address":""},{"poiid":"B2094654DB64A7F4439B","title":"上海万豪虹桥大酒店(北门)","lon":"121.37609","lat":"31.19191","category":"656","category_name":"大门","address":"上海市长宁区虹桥路2270号（近剑河路）"},{"poiid":"B2094757D06BA3FE4992","title":"Bubba's Texas-style BBQ(虹桥路店)","lon":"121.37549","lat":"31.19147","category":"94","category_name":"西餐厅","address":"长宁区虹桥路2262号(剑河路口)"},{"poiid":"B2094757D465A4FA4392","title":"万豪虹桥大酒店 宴会厅","lon":"121.375667054","lat":"31.191734793","category":"76","category_name":"上海菜","address":"长宁区虹桥路2270号万豪虹桥大酒店(近剑河路)"},{"poiid":"B2094654D569AAF54092","title":"夏都花园","lon":"121.37456","lat":"31.195242","category":"47","category_name":"住宅区","address":"夏都花园位于长宁剑河路2000号"},{"poiid":"B2094751DA65A4FD4399","title":"酒藏","lon":"121.371378","lat":"31.192276","category":"247","category_name":"餐饮美食","address":"长宁区剑河路(近延安西路)"},{"poiid":"B2094757D16BA5FE4592","title":"申德医院","lon":"121.37451","lat":"31.19124","category":"162","category_name":"医院","address":"长宁区虹桥路2281号(近剑河路)"},{"poiid":"B2094655D26FA7FC4398","title":"鼎邦俪池(北门)","lon":"121.37258","lat":"31.19724","category":"47","category_name":"住宅区","address":"青溪路288号"},{"poiid":"B2094655D36CA7F8489E","title":"虹梅路","lon":"121.38061","lat":"31.19464","category":"38","category_name":"公交车站","address":"2007号"},{"poiid":"B2094654D569AAFB479B","title":"鲍鱼火锅","lon":"121.37622","lat":"31.19035","category":"86","category_name":"火锅店","address":"长宁区剑河路2378号(近延安西路)"},{"poiid":"B2094654D569AAFB4193","title":"北顾小区","lon":"121.37067","lat":"31.19923","category":"47","category_name":"住宅区","address":"上海剑河路998弄"},{"poiid":"B2094757D069A3F4429B","title":"西郊明苑别墅会所","lon":"121.37866","lat":"31.19651","category":"148","category_name":"美容美发店","address":"上海长宁区龙溪路189号(近虹井路)  "},{"poiid":"B2094750D464A5F94499","title":"鼎邦俪池私人俱乐部","lon":"121.372802","lat":"31.197538","category":"500","category_name":"未知分类","address":null},{"poiid":"B2094757D16FA0F44293","title":"Le Joli Bistro 周(西郊宾馆店)","lon":"121.378337086","lat":"31.2018328757","category":"94","category_name":"西餐厅","address":"上海市虹桥路1921号西郊宾馆7号楼(近虹许路)"},{"poiid":"B2094757D164A7FF419C","title":"慕光日本料理","lon":"121.372366386","lat":"31.1971500842","category":"500","category_name":"未知分类","address":"上海虹梅路Soho3911"},{"poiid":"B2094757D068A6FD4692","title":"檀宫","lon":"121.373368383","lat":"31.2023260816","category":"47","category_name":"住宅区","address":"檀宫位于长宁清溪路555号"},{"poiid":"B2094655D36CA0FA409D","title":"剑河路平溪路","lon":"121.37246","lat":"31.19443","category":"38","category_name":"公交车站","address":""},{"poiid":"B2094757D16DA6F54293","title":"虹桥中园","lon":"121.36947258","lat":"31.194007722","category":"500","category_name":"未知分类","address":"上海市长宁区哈密路1999弄"},{"poiid":"B2094654DB69A6FC429D","title":"虹桥晶彩","lon":"121.374","lat":"31.194","category":"47","category_name":"住宅区","address":"虹桥晶彩位于长宁虹井路831号"},{"poiid":"B2094757D16EA3F5469B","title":"名颂人家","lon":"121.36799","lat":"31.19575","category":"76","category_name":"上海菜","address":"长宁区哈密路1799号(近青溪路)"},{"poiid":"B2094757D568A5F5479C","title":"御笼坊(哈密路店)","lon":"121.3692931","lat":"31.19420806","category":"68","category_name":"快餐厅","address":"长宁区哈密路1896弄(近青溪路)"},{"poiid":"B2094655D269A4F5439A","title":"宝隆居家酒店哈密路店","lon":"121.36978","lat":"31.19221","category":"247","category_name":"餐饮美食","address":"上海市长宁区哈密路2010号（近虹桥路）"},{"poiid":"B2094757D469A3F4499A","title":"曼哈顿扒房 Manhattan Steakhouse","lon":"121.375667054","lat":"31.191734793","category":"94","category_name":"西餐厅","address":"长宁区虹桥路2270号万豪虹桥大酒店2楼(近剑河路)"},{"poiid":"B2094751DA6CA2FD4793","title":"上海虹桥机场T1","lon":"121.378583","lat":"31.193634","category":"500","category_name":"未知分类","address":null},{"poiid":"B2094654DB6BA0FD499C","title":"竹园餐厅(舟山海鲜坊)","lon":"121.36894","lat":"31.19466","category":"257","category_name":"中餐厅","address":"长宁区哈密路1896号"},{"poiid":"B2094757D06FA3F4449F","title":"万豪虹桥大酒店","lon":"121.3769","lat":"31.19163","category":"213","category_name":"五星级宾馆","address":"上海长宁区虹桥路2270号(近剑河路)  "},{"poiid":"B2094750D268A1FF4599","title":"虹桥机场1号航站楼","lon":"121.374694","lat":"31.194229","category":"21","category_name":"飞机场","address":"长宁区虹桥路2550号"},{"poiid":"B2094757D06FA4FF4999","title":"西郊宾馆会议中心百花厅","lon":"121.37757288","lat":"31.202861075","category":"217","category_name":"旅馆招待所","address":"上海虹桥路1961号"},{"poiid":"B2094757D06FA2F4499D","title":"新农庄(剑河路总店)","lon":"121.3761","lat":"31.1905","category":"76","category_name":"上海菜","address":"长宁区剑河路2396号(近延安路高架)"},{"poiid":"B2094654DB69A0F9479D","title":"王朝大酒楼(虹桥店)","lon":"121.37808","lat":"31.19264","category":"257","category_name":"中餐厅","address":"上海长宁区虹桥路2260号(近剑河路)"},{"poiid":"B2094757D66EA3F84392","title":"虹桥机场北彩虹桥","lon":"121.380809686","lat":"31.1975813926","category":"21","category_name":"飞机场","address":"上海虹桥机场2号航站楼"},{"poiid":"B2094757D169A5FC4893","title":"西郊宾馆7号楼水上餐厅","lon":"121.37832858","lat":"31.201840875","category":"217","category_name":"旅馆招待所","address":"上海市长宁区虹桥路1921号"},{"poiid":"B2094757D068A0FB4892","title":"鼎邦俪池","lon":"121.37372","lat":"31.19683","category":"500","category_name":"未知分类","address":"上海长宁区青溪路288弄(近龙溪路)  "},{"poiid":"B2094757D06FA2FF4093","title":"星巴克(虹桥万豪店)","lon":"121.376118","lat":"31.191415","category":"260","category_name":"其他","address":"长宁区虹桥路2268号虹桥商务楼1楼B-C段(近剑河路)"},{"poiid":"B2094757D06EAAF84599","title":"龙溪路地铁站","lon":"121.37988978","lat":"31.194287116","category":"36","category_name":"地铁站","address":"上海轨道交通 十号线 轨交龙溪路站 10"},{"poiid":"B2094750D269A3FD4892","title":"唐宫壹号 万豪店","lon":"121.377032","lat":"31.191498","category":"72","category_name":"广东菜","address":"长宁区虹桥路2270号万豪虹桥大酒店2楼(近剑河路)"},{"poiid":"B2094757D06BA1FD4298","title":"西郊百联电影院","lon":"121.37847158","lat":"31.193721717","category":"178","category_name":"电影院","address":"上海市长宁区"},{"poiid":"B2094654DB6BA0FE449B","title":"新加坡泰国村鱼翅(虹桥店)","lon":"121.37748","lat":"31.19071","category":"72","category_name":"广东菜","address":"长宁区虹桥路2266号阳光大酒店内(近剑河路)"},{"poiid":"B2094655D26DA6FA499B","title":"西郊宾馆(北门)","lon":"121.37531","lat":"31.20363","category":"250","category_name":"公园户外","address":""},{"poiid":"B2094655D26DA5F8469C","title":"上海万豪虹桥大酒店(东门)","lon":"121.37765","lat":"31.1915","category":"656","category_name":"大门","address":"上海市长宁区虹桥路2270号（近剑河路）"},{"poiid":"B2094757D66BA0FD4598","title":"鼎邦俪池私人会所","lon":"121.375898054","lat":"31.197669793","category":"268","category_name":"自助","address":"长宁区青溪路288弄(近龙溪路)查看地图"},{"poiid":"B2094655D26BAAFF449E","title":"虹桥万豪酒店","lon":"121.37589","lat":"31.191","category":"250","category_name":"公园户外","address":"虹桥路2270号"},{"poiid":"B2094757D068A0F94393","title":"国际农业展览馆","lon":"121.37689","lat":"31.19202","category":"179","category_name":"音乐厅","address":"长宁区虹桥路2268号(近剑河路)"},{"poiid":"B2094757D06BA5FB419C","title":"地铁十号线(龙溪路站)","lon":"121.38004158","lat":"31.19352586","category":"36","category_name":"地铁站","address":"上海龙溪路虹桥路"},{"poiid":"B2094655D26EA3FA4593","title":"格林豪泰(上海虹桥机场酒店公寓)","lon":"121.36744","lat":"31.19583","category":"216","category_name":"经济型连锁酒店","address":"长宁区哈密路1721号(近虹桥路)"},{"poiid":"B2094757D069ABFA4498","title":"中国人民解放军第四五五医院(哈密路分院)","lon":"121.36747","lat":"31.19587","category":"162","category_name":"医院","address":"长宁区哈密路1713号(近虹桥路)"},{"poiid":"B2094654D569AAFD4293","title":"张泾小区","lon":"121.37108","lat":"31.194754","category":"47","category_name":"住宅区","address":"上海剑河路2001弄"},{"poiid":"B2094757D06AA0FB4099","title":"人民公社农家菜","lon":"121.37031","lat":"31.19103","category":"87","category_name":"特色／地方风味餐厅","address":"长宁区哈密路2028号(近虹桥路)"},{"poiid":"B2094654D569AAF44599","title":"新滨铁板烧 New Hama Teppanyaki","lon":"121.37690694119","lat":"31.192314439953","category":"87","category_name":"特色／地方风味餐厅","address":"长宁区虹桥路2260号孔府别墅内(虹梅路剑河路间)"},{"poiid":"B2094757DA64A5F4489E","title":"虹桥机场T2航站楼71登记口","lon":"121.3745983338356","lat":"31.19463270098341","category":"500","category_name":"未知分类","address":"虹桥机场"},{"poiid":"B2094655D26CA4FC4598","title":"西郊会议中心","lon":"121.37794","lat":"31.20285","category":"185","category_name":"会展中心","address":""},{"poiid":"B2094654DB64A7F4439B","title":"上海万豪虹桥大酒店(北门)","lon":"121.37609","lat":"31.19191","category":"656","category_name":"大门","address":"上海市长宁区虹桥路2270号（近剑河路）"},{"poiid":"B2094757D06BA3FE4992","title":"Bubba's Texas-style BBQ(虹桥路店)","lon":"121.37549","lat":"31.19147","category":"94","category_name":"西餐厅","address":"长宁区虹桥路2262号(剑河路口)"},{"poiid":"B2094757D465A4FA4392","title":"万豪虹桥大酒店 宴会厅","lon":"121.375667054","lat":"31.191734793","category":"76","category_name":"上海菜","address":"长宁区虹桥路2270号万豪虹桥大酒店(近剑河路)"},{"poiid":"B2094654D569AAF54092","title":"夏都花园","lon":"121.37456","lat":"31.195242","category":"47","category_name":"住宅区","address":"夏都花园位于长宁剑河路2000号"},{"poiid":"B2094751DA65A4FD4399","title":"酒藏","lon":"121.371378","lat":"31.192276","category":"247","category_name":"餐饮美食","address":"长宁区剑河路(近延安西路)"},{"poiid":"B2094757D16BA5FE4592","title":"申德医院","lon":"121.37451","lat":"31.19124","category":"162","category_name":"医院","address":"长宁区虹桥路2281号(近剑河路)"},{"poiid":"B2094655D26FA7FC4398","title":"鼎邦俪池(北门)","lon":"121.37258","lat":"31.19724","category":"47","category_name":"住宅区","address":"青溪路288号"},{"poiid":"B2094655D36CA7F8489E","title":"虹梅路","lon":"121.38061","lat":"31.19464","category":"38","category_name":"公交车站","address":"2007号"},{"poiid":"B2094654D569AAFB479B","title":"鲍鱼火锅","lon":"121.37622","lat":"31.19035","category":"86","category_name":"火锅店","address":"长宁区剑河路2378号(近延安西路)"},{"poiid":"B2094654D569AAFB4193","title":"北顾小区","lon":"121.37067","lat":"31.19923","category":"47","category_name":"住宅区","address":"上海剑河路998弄"},{"poiid":"B2094757D069A3F4429B","title":"西郊明苑别墅会所","lon":"121.37866","lat":"31.19651","category":"148","category_name":"美容美发店","address":"上海长宁区龙溪路189号(近虹井路)  "},{"poiid":"B2094750D464A5F94499","title":"鼎邦俪池私人俱乐部","lon":"121.372802","lat":"31.197538","category":"500","category_name":"未知分类","address":null},{"poiid":"B2094757D16FA0F44293","title":"Le Joli Bistro 周(西郊宾馆店)","lon":"121.378337086","lat":"31.2018328757","category":"94","category_name":"西餐厅","address":"上海市虹桥路1921号西郊宾馆7号楼(近虹许路)"},{"poiid":"B2094757D164A7FF419C","title":"慕光日本料理","lon":"121.372366386","lat":"31.1971500842","category":"500","category_name":"未知分类","address":"上海虹梅路Soho3911"},{"poiid":"B2094757D068A6FD4692","title":"檀宫","lon":"121.373368383","lat":"31.2023260816","category":"47","category_name":"住宅区","address":"檀宫位于长宁清溪路555号"},{"poiid":"B2094655D36CA0FA409D","title":"剑河路平溪路","lon":"121.37246","lat":"31.19443","category":"38","category_name":"公交车站","address":""},{"poiid":"B2094757D16DA6F54293","title":"虹桥中园","lon":"121.36947258","lat":"31.194007722","category":"500","category_name":"未知分类","address":"上海市长宁区哈密路1999弄"},{"poiid":"B2094654DB69A6FC429D","title":"虹桥晶彩","lon":"121.374","lat":"31.194","category":"47","category_name":"住宅区","address":"虹桥晶彩位于长宁虹井路831号"},{"poiid":"B2094757D16EA3F5469B","title":"名颂人家","lon":"121.36799","lat":"31.19575","category":"76","category_name":"上海菜","address":"长宁区哈密路1799号(近青溪路)"},{"poiid":"B2094757D568A5F5479C","title":"御笼坊(哈密路店)","lon":"121.3692931","lat":"31.19420806","category":"68","category_name":"快餐厅","address":"长宁区哈密路1896弄(近青溪路)"},{"poiid":"B2094655D269A4F5439A","title":"宝隆居家酒店哈密路店","lon":"121.36978","lat":"31.19221","category":"247","category_name":"餐饮美食","address":"上海市长宁区哈密路2010号（近虹桥路）"},{"poiid":"B2094757D469A3F4499A","title":"曼哈顿扒房 Manhattan Steakhouse","lon":"121.375667054","lat":"31.191734793","category":"94","category_name":"西餐厅","address":"长宁区虹桥路2270号万豪虹桥大酒店2楼(近剑河路)"},{"poiid":"B2094751DA6CA2FD4793","title":"上海虹桥机场T1","lon":"121.378583","lat":"31.193634","category":"500","category_name":"未知分类","address":null},{"poiid":"B2094654DB6BA0FD499C","title":"竹园餐厅(舟山海鲜坊)","lon":"121.36894","lat":"31.19466","category":"257","category_name":"中餐厅","address":"长宁区哈密路1896号"},{"poiid":"B2094757D06FA3F4449F","title":"万豪虹桥大酒店","lon":"121.3769","lat":"31.19163","category":"213","category_name":"五星级宾馆","address":"上海长宁区虹桥路2270号(近剑河路)  "},{"poiid":"B2094750D268A1FF4599","title":"虹桥机场1号航站楼","lon":"121.374694","lat":"31.194229","category":"21","category_name":"飞机场","address":"长宁区虹桥路2550号"},{"poiid":"B2094757D06FA4FF4999","title":"西郊宾馆会议中心百花厅","lon":"121.37757288","lat":"31.202861075","category":"217","category_name":"旅馆招待所","address":"上海虹桥路1961号"},{"poiid":"B2094757D06FA2F4499D","title":"新农庄(剑河路总店)","lon":"121.3761","lat":"31.1905","category":"76","category_name":"上海菜","address":"长宁区剑河路2396号(近延安路高架)"},{"poiid":"B2094654DB69A0F9479D","title":"王朝大酒楼(虹桥店)","lon":"121.37808","lat":"31.19264","category":"257","category_name":"中餐厅","address":"上海长宁区虹桥路2260号(近剑河路)"},{"poiid":"B2094757D66EA3F84392","title":"虹桥机场北彩虹桥","lon":"121.380809686","lat":"31.1975813926","category":"21","category_name":"飞机场","address":"上海虹桥机场2号航站楼"},{"poiid":"B2094757D169A5FC4893","title":"西郊宾馆7号楼水上餐厅","lon":"121.37832858","lat":"31.201840875","category":"217","category_name":"旅馆招待所","address":"上海市长宁区虹桥路1921号"},{"poiid":"B2094757D068A0FB4892","title":"鼎邦俪池","lon":"121.37372","lat":"31.19683","category":"500","category_name":"未知分类","address":"上海长宁区青溪路288弄(近龙溪路)  "},{"poiid":"B2094757D06FA2FF4093","title":"星巴克(虹桥万豪店)","lon":"121.376118","lat":"31.191415","category":"260","category_name":"其他","address":"长宁区虹桥路2268号虹桥商务楼1楼B-C段(近剑河路)"},{"poiid":"B2094757D06EAAF84599","title":"龙溪路地铁站","lon":"121.37988978","lat":"31.194287116","category":"36","category_name":"地铁站","address":"上海轨道交通 十号线 轨交龙溪路站 10"},{"poiid":"B2094750D269A3FD4892","title":"唐宫壹号 万豪店","lon":"121.377032","lat":"31.191498","category":"72","category_name":"广东菜","address":"长宁区虹桥路2270号万豪虹桥大酒店2楼(近剑河路)"},{"poiid":"B2094757D06BA1FD4298","title":"西郊百联电影院","lon":"121.37847158","lat":"31.193721717","category":"178","category_name":"电影院","address":"上海市长宁区"},{"poiid":"B2094654DB6BA0FE449B","title":"新加坡泰国村鱼翅(虹桥店)","lon":"121.37748","lat":"31.19071","category":"72","category_name":"广东菜","address":"长宁区虹桥路2266号阳光大酒店内(近剑河路)"},{"poiid":"B2094655D26DA6FA499B","title":"西郊宾馆(北门)","lon":"121.37531","lat":"31.20363","category":"250","category_name":"公园户外","address":""},{"poiid":"B2094655D26DA5F8469C","title":"上海万豪虹桥大酒店(东门)","lon":"121.37765","lat":"31.1915","category":"656","category_name":"大门","address":"上海市长宁区虹桥路2270号（近剑河路）"},{"poiid":"B2094757D66BA0FD4598","title":"鼎邦俪池私人会所","lon":"121.375898054","lat":"31.197669793","category":"268","category_name":"自助","address":"长宁区青溪路288弄(近龙溪路)查看地图"},{"poiid":"B2094655D26BAAFF449E","title":"虹桥万豪酒店","lon":"121.37589","lat":"31.191","category":"250","category_name":"公园户外","address":"虹桥路2270号"},{"poiid":"B2094757D068A0F94393","title":"国际农业展览馆","lon":"121.37689","lat":"31.19202","category":"179","category_name":"音乐厅","address":"长宁区虹桥路2268号(近剑河路)"},{"poiid":"B2094757D06BA5FB419C","title":"地铁十号线(龙溪路站)","lon":"121.38004158","lat":"31.19352586","category":"36","category_name":"地铁站","address":"上海龙溪路虹桥路"},{"poiid":"B2094655D26EA3FA4593","title":"格林豪泰(上海虹桥机场酒店公寓)","lon":"121.36744","lat":"31.19583","category":"216","category_name":"经济型连锁酒店","address":"长宁区哈密路1721号(近虹桥路)"},{"poiid":"B2094757D069ABFA4498","title":"中国人民解放军第四五五医院(哈密路分院)","lon":"121.36747","lat":"31.19587","category":"162","category_name":"医院","address":"长宁区哈密路1713号(近虹桥路)"},{"poiid":"B2094654D569AAFD4293","title":"张泾小区","lon":"121.37108","lat":"31.194754","category":"47","category_name":"住宅区","address":"上海剑河路2001弄"},{"poiid":"B2094757D06AA0FB4099","title":"人民公社农家菜","lon":"121.37031","lat":"31.19103","category":"87","category_name":"特色／地方风味餐厅","address":"长宁区哈密路2028号(近虹桥路)"},{"poiid":"B2094654D569AAF44599","title":"新滨铁板烧 New Hama Teppanyaki","lon":"121.37690694119","lat":"31.192314439953","category":"87","category_name":"特色／地方风味餐厅","address":"长宁区虹桥路2260号孔府别墅内(虹梅路剑河路间)"},{"poiid":"B2094757DA64A5F4489E","title":"虹桥机场T2航站楼71登记口","lon":"121.3745983338356","lat":"31.19463270098341","category":"500","category_name":"未知分类","address":"虹桥机场"},{"poiid":"B2094655D26CA4FC4598","title":"西郊会议中心","lon":"121.37794","lat":"31.20285","category":"185","category_name":"会展中心","address":""},{"poiid":"B2094654DB64A7F4439B","title":"上海万豪虹桥大酒店(北门)","lon":"121.37609","lat":"31.19191","category":"656","category_name":"大门","address":"上海市长宁区虹桥路2270号（近剑河路）"},{"poiid":"B2094757D06BA3FE4992","title":"Bubba's Texas-style BBQ(虹桥路店)","lon":"121.37549","lat":"31.19147","category":"94","category_name":"西餐厅","address":"长宁区虹桥路2262号(剑河路口)"},{"poiid":"B2094757D465A4FA4392","title":"万豪虹桥大酒店 宴会厅","lon":"121.375667054","lat":"31.191734793","category":"76","category_name":"上海菜","address":"长宁区虹桥路2270号万豪虹桥大酒店(近剑河路)"},{"poiid":"B2094654D569AAF54092","title":"夏都花园","lon":"121.37456","lat":"31.195242","category":"47","category_name":"住宅区","address":"夏都花园位于长宁剑河路2000号"},{"poiid":"B2094751DA65A4FD4399","title":"酒藏","lon":"121.371378","lat":"31.192276","category":"247","category_name":"餐饮美食","address":"长宁区剑河路(近延安西路)"},{"poiid":"B2094757D16BA5FE4592","title":"申德医院","lon":"121.37451","lat":"31.19124","category":"162","category_name":"医院","address":"长宁区虹桥路2281号(近剑河路)"},{"poiid":"B2094655D26FA7FC4398","title":"鼎邦俪池(北门)","lon":"121.37258","lat":"31.19724","category":"47","category_name":"住宅区","address":"青溪路288号"},{"poiid":"B2094655D36CA7F8489E","title":"虹梅路","lon":"121.38061","lat":"31.19464","category":"38","category_name":"公交车站","address":"2007号"},{"poiid":"B2094654D569AAFB479B","title":"鲍鱼火锅","lon":"121.37622","lat":"31.19035","category":"86","category_name":"火锅店","address":"长宁区剑河路2378号(近延安西路)"},{"poiid":"B2094654D569AAFB4193","title":"北顾小区","lon":"121.37067","lat":"31.19923","category":"47","category_name":"住宅区","address":"上海剑河路998弄"},{"poiid":"B2094757D069A3F4429B","title":"西郊明苑别墅会所","lon":"121.37866","lat":"31.19651","category":"148","category_name":"美容美发店","address":"上海长宁区龙溪路189号(近虹井路)  "},{"poiid":"B2094750D464A5F94499","title":"鼎邦俪池私人俱乐部","lon":"121.372802","lat":"31.197538","category":"500","category_name":"未知分类","address":null},{"poiid":"B2094757D16FA0F44293","title":"Le Joli Bistro 周(西郊宾馆店)","lon":"121.378337086","lat":"31.2018328757","category":"94","category_name":"西餐厅","address":"上海市虹桥路1921号西郊宾馆7号楼(近虹许路)"},{"poiid":"B2094757D164A7FF419C","title":"慕光日本料理","lon":"121.372366386","lat":"31.1971500842","category":"500","category_name":"未知分类","address":"上海虹梅路Soho3911"},{"poiid":"B2094757D068A6FD4692","title":"檀宫","lon":"121.373368383","lat":"31.2023260816","category":"47","category_name":"住宅区","address":"檀宫位于长宁清溪路555号"},{"poiid":"B2094655D36CA0FA409D","title":"剑河路平溪路","lon":"121.37246","lat":"31.19443","category":"38","category_name":"公交车站","address":""},{"poiid":"B2094757D16DA6F54293","title":"虹桥中园","lon":"121.36947258","lat":"31.194007722","category":"500","category_name":"未知分类","address":"上海市长宁区哈密路1999弄"},{"poiid":"B2094654DB69A6FC429D","title":"虹桥晶彩","lon":"121.374","lat":"31.194","category":"47","category_name":"住宅区","address":"虹桥晶彩位于长宁虹井路831号"},{"poiid":"B2094757D16EA3F5469B","title":"名颂人家","lon":"121.36799","lat":"31.19575","category":"76","category_name":"上海菜","address":"长宁区哈密路1799号(近青溪路)"},{"poiid":"B2094757D568A5F5479C","title":"御笼坊(哈密路店)","lon":"121.3692931","lat":"31.19420806","category":"68","category_name":"快餐厅","address":"长宁区哈密路1896弄(近青溪路)"},{"poiid":"B2094655D269A4F5439A","title":"宝隆居家酒店哈密路店","lon":"121.36978","lat":"31.19221","category":"247","category_name":"餐饮美食","address":"上海市长宁区哈密路2010号（近虹桥路）"},{"poiid":"B2094757D469A3F4499A","title":"曼哈顿扒房 Manhattan Steakhouse","lon":"121.375667054","lat":"31.191734793","category":"94","category_name":"西餐厅","address":"长宁区虹桥路2270号万豪虹桥大酒店2楼(近剑河路)"},{"poiid":"B2094751DA6CA2FD4793","title":"上海虹桥机场T1","lon":"121.378583","lat":"31.193634","category":"500","category_name":"未知分类","address":null},{"poiid":"B2094654DB6BA0FD499C","title":"竹园餐厅(舟山海鲜坊)","lon":"121.36894","lat":"31.19466","category":"257","category_name":"中餐厅","address":"长宁区哈密路1896号"}]