[{"poiid":"B2094655D36CA1F84493","title":"龙华","lon":"121.4447","lat":"31.17314","category":"38","category_name":"公交车站","address":""},{"poiid":"B2094757D06FA1FA469A","title":"龙华烈士陵园","lon":"121.44877","lat":"31.17546","category":"620","category_name":"丧葬","address":"徐汇区龙华西路180号(近龙华路)"},{"poiid":"B2094757D06FA1FE409E","title":"宋记香辣蟹(天钥桥路店)","lon":"121.44487","lat":"31.17894","category":"71","category_name":"四川菜","address":"徐汇区天钥桥路898号(近中山南二路)"},{"poiid":"B2094654DA6DA7FE449B","title":"徐汇苑大厦","lon":"121.443064","lat":"31.178863","category":"46","category_name":"楼宇","address":"徐汇区中山南二路1089号"},{"poiid":"B2094655D265A0FA489E","title":"D1国际创意空间","lon":"121.44582","lat":"31.17874","category":"45","category_name":"产业园区","address":"上海徐汇区天钥桥路909号"},{"poiid":"B2094654DB69A5FF439A","title":"莫泰168连锁旅店(天钥桥路店)","lon":"121.44567","lat":"31.1791","category":"216","category_name":"经济型连锁酒店","address":"上海市徐汇区天钥桥路909号（近中山南二路）"},{"poiid":"B2094654DA6DA1FE479B","title":"天华信息科技园区","lon":"121.44167","lat":"31.17406","category":"45","category_name":"产业园区","address":""},{"poiid":"B2094753D569ABFC439D","title":"上海八万人体育场","lon":"121.445259","lat":"31.178665","category":"500","category_name":"未知分类","address":"上海市 上海八万人体育场"},{"poiid":"B2094750DB6BA1F4479D","title":"宜家家居IKEA","lon":"121.443565","lat":"31.17851","category":"249","category_name":"购物服务","address":"漕溪北路中山西路"},{"poiid":"B2094757D06FA5FC4393","title":"望族城","lon":"121.442","lat":"31.1767","category":"47","category_name":"住宅区","address":"上海徐汇区漕溪路251弄"},{"poiid":"B2094751DA65A1FF4693","title":"新奢奢侈品护理","lon":"121.446152","lat":"31.17868","category":"249","category_name":"购物服务","address":"天钥桥路909号D1国际创意空间3号楼218室"},{"poiid":"B2094757D06FAAF8459F","title":"徐汇苑","lon":"121.44469","lat":"31.176945","category":"47","category_name":"住宅区","address":"上海市徐汇区天钥桥路968号"},{"poiid":"B2094655D265A3F8499C","title":"汉庭快捷酒店上海万体馆南店","lon":"121.44645","lat":"31.1739","category":"216","category_name":"经济型连锁酒店","address":"徐汇区零陵路789弄19号(近漕溪北路)"},{"poiid":"B2094654DA6DA7FE4992","title":"龙华烈士纪念馆(3号门)","lon":"121.44662","lat":"31.17637","category":"680","category_name":"楼宇机构","address":"天钥桥路1155"},{"poiid":"B2094654DB65A4FC4392","title":"神舟商旅酒店(上海徐汇店)","lon":"121.44316","lat":"31.17587","category":"250","category_name":"公园户外","address":"上海市徐汇区龙华西路501号(近中山南二路)"},{"poiid":"B2094655D26EA0F5479B","title":"上缝小区","lon":"121.44619","lat":"31.173052","category":"47","category_name":"住宅区","address":"龙华西路285弄2-30号"},{"poiid":"B2094654DB6BA5FA4398","title":"月亮湾酒家","lon":"121.44524","lat":"31.17872","category":"257","category_name":"中餐厅","address":"徐汇区天钥桥路909号(近中山南二路)"},{"poiid":"B2094753D76CABFD4698","title":"上上签串串香火锅","lon":"121.446235","lat":"31.175706","category":"247","category_name":"餐饮美食","address":"上海市 龙华西路585号(近中山南二路)"},{"poiid":"B2094654DA6DA2F9439C","title":"宏润大厦","lon":"121.448","lat":"31.1757","category":"46","category_name":"楼宇","address":"北一环与亳州路交叉口(庐阳区政府对面)"},{"poiid":"B2094654DA6DA7FE4893","title":"上海师大附中附属龙华中学","lon":"121.44607","lat":"31.17425","category":"55","category_name":"中学","address":"上海龙华西路292号"},{"poiid":"B2094757D064A1F9409A","title":"强生花苑","lon":"121.44524","lat":"31.176025","category":"252","category_name":"楼宇机构","address":"上海市徐汇区龙华西路398号"},{"poiid":"B2094750D164A7F9469B","title":"7天连锁酒店上海万体馆店","lon":"121.44309706986","lat":"31.174478910449","category":"216","category_name":"经济型连锁酒店","address":"上海市徐汇区龙华西路315弄"},{"poiid":"B2094753D56CA0FB4898","title":"上上谦串串香火锅旗舰店","lon":"121.445762","lat":"31.175743","category":"247","category_name":"餐饮美食","address":"上海市龙华西路 585号 华富大厦 B座1F"},{"poiid":"B2094751D469A6FF469C","title":"龙华地段医院","lon":"121.445136","lat":"31.175706","category":"162","category_name":"医院","address":"龙华西路"},{"poiid":"B2094752D46BA7F9449A","title":"上海体育场","lon":"121.443008","lat":"31.174438","category":"500","category_name":"未知分类","address":null},{"poiid":"B2094655D264AAF84798","title":"徐汇苑酒店式公寓","lon":"121.44482","lat":"31.17756","category":"250","category_name":"公园户外","address":""},{"poiid":"B2094654DA6DA7FE499D","title":"龙华烈士陵园(3号门)","lon":"121.44663","lat":"31.17638","category":"250","category_name":"公园户外","address":"天钥桥路1155"},{"poiid":"B2094757D06FA1FF479F","title":"天华信息科技园","lon":"121.44504547","lat":"31.17243576","category":"500","category_name":"未知分类","address":"上海市徐汇区龙田路190号"},{"poiid":"B2094757D464A6FA4192","title":"心琪粥店 零陵路店","lon":"121.44278","lat":"31.17335","category":"68","category_name":"快餐厅","address":"徐汇区零陵路667-1号临(天钥桥路斜土路)"},{"poiid":"B2094757D069AAF44792","title":"Very  CD","lon":"121.446434021","lat":"31.1764907837","category":"46","category_name":"楼宇","address":"上海天钥桥路909号D1国际创意空间"},{"poiid":"B2094757D16EAAFA4398","title":"白玉兰茶餐厅","lon":"121.44619558","lat":"31.173788327","category":"68","category_name":"快餐厅","address":"徐汇区龙华西路286号(近龙华中学)"},{"poiid":"B209475CDB6EA1FF479D","title":"上海徐汇体育场和颐酒店","lon":"121.4430535","lat":"31.17621498","category":"214","category_name":"四星级宾馆","address":"上海市徐汇区龙华西路515号(航天神州大厦旁)"},{"poiid":"B2094751D464A7F4479E","title":"玫瑰坊","lon":"121.4451359","lat":"31.1757063","category":"248","category_name":"生活娱乐","address":"中山公园"},{"poiid":"B2094654DA6DA7FF4098","title":"新惠宾馆","lon":"121.44573","lat":"31.17825","category":"250","category_name":"公园户外","address":"徐汇区天钥桥路1001号"},{"poiid":"B2094655D26FABF5469B","title":"龙华西路309弄小区(东门)","lon":"121.44441","lat":"31.17445","category":"47","category_name":"住宅区","address":"龙华西路309弄2-3、5-8号"},{"poiid":"B2094655D26EA0F44593","title":"上海师范大学中新科技管理学院(南门)","lon":"121.44376","lat":"31.17496","category":"52","category_name":"高等院校","address":"徐汇区龙华西路323"},{"poiid":"B2094654DA6DA1FE4899","title":"沪大国际外语学院徐汇校区","lon":"121.44387","lat":"31.17488","category":"52","category_name":"高等院校","address":"龙华西路323"},{"poiid":"B2094654DA6DA7FF4199","title":"宛南六村","lon":"121.44566","lat":"31.179573","category":"47","category_name":"住宅区","address":"上海天钥桥路905弄"},{"poiid":"B2094655D26FAAF84699","title":"PCEC科技管理学院","lon":"121.44387","lat":"31.17488","category":"52","category_name":"高等院校","address":"龙华西路323号"},{"poiid":"B2094655D26FAAF84698","title":"英国斯泰福厦大学上海代表处","lon":"121.44386","lat":"31.17488","category":"52","category_name":"高等院校","address":"龙华西路323"},{"poiid":"B2094757D069A1FD439E","title":"姑苏邨","lon":"121.44552307288","lat":"31.176713112403","category":"68","category_name":"快餐厅","address":"徐汇区天钥桥路909号(近中山南二路)"},{"poiid":"B2094654DB6AA7F54393","title":"上海科技学院","lon":"121.44376","lat":"31.17496","category":"52","category_name":"高等院校","address":"徐汇区龙华西路323号"},{"poiid":"B2094757D064AAF4409E","title":"住友公寓","lon":"121.44302","lat":"31.175503","category":"500","category_name":"未知分类","address":"住友公寓位于徐汇龙华西路345号"},{"poiid":"B2094654DB65A2F54699","title":"上海师范大学中新科技管理学院","lon":"121.44387","lat":"31.17487","category":"52","category_name":"高等院校","address":"龙华西路323"},{"poiid":"B2094655D268A7F44699","title":"上海市民办杉育高级中学","lon":"121.44386","lat":"31.17487","category":"55","category_name":"中学","address":"龙华西路323号"},{"poiid":"B2094655D268A3F94793","title":"沪大国际外语学院徐汇校区(南门)","lon":"121.44381","lat":"31.17466","category":"52","category_name":"高等院校","address":"龙华西路323"},{"poiid":"B2094757D065A4FE4893","title":"吴江路生煎 (龙华西路店)","lon":"121.448254155","lat":"31.1732468896","category":"68","category_name":"快餐厅","address":"徐汇区龙华西路9号(近龙恒路44路下客站)"},{"poiid":"B2094757D064A7F44093","title":"友联生煎(龙华西路店)","lon":"121.44634","lat":"31.1736","category":"68","category_name":"快餐厅","address":"徐汇区龙华西路284号龙华中学旁(近龙吴路)"},{"poiid":"B2094757D06BA7FF449B","title":"IKEA OFFICE","lon":"121.44166564","lat":"31.174070358","category":"46","category_name":"楼宇","address":"上海龙田路190号3号楼"},{"poiid":"B2094654DB65A1FC4998","title":"中国电信南区电信局","lon":"121.44496","lat":"31.17814","category":"263","category_name":"公司","address":"天钥桥路980号"},{"poiid":"B2094655D36CA1F84493","title":"龙华","lon":"121.4447","lat":"31.17314","category":"38","category_name":"公交车站","address":""},{"poiid":"B2094757D06FA1FA469A","title":"龙华烈士陵园","lon":"121.44877","lat":"31.17546","category":"620","category_name":"丧葬","address":"徐汇区龙华西路180号(近龙华路)"},{"poiid":"B2094757D06FA1FE409E","title":"宋记香辣蟹(天钥桥路店)","lon":"121.44487","lat":"31.17894","category":"71","category_name":"四川菜","address":"徐汇区天钥桥路898号(近中山南二路)"},{"poiid":"B2094654DA6DA7FE449B","title":"徐汇苑大厦","lon":"121.443064","lat":"31.178863","category":"46","category_name":"楼宇","address":"徐汇区中山南二路1089号"},{"poiid":"B2094655D265A0FA489E","title":"D1国际创意空间","lon":"121.44582","lat":"31.17874","category":"45","category_name":"产业园区","address":"上海徐汇区天钥桥路909号"},{"poiid":"B2094654DB69A5FF439A","title":"莫泰168连锁旅店(天钥桥路店)","lon":"121.44567","lat":"31.1791","category":"216","category_name":"经济型连锁酒店","address":"上海市徐汇区天钥桥路909号（近中山南二路）"},{"poiid":"B2094654DA6DA1FE479B","title":"天华信息科技园区","lon":"121.44167","lat":"31.17406","category":"45","category_name":"产业园区","address":""},{"poiid":"B2094753D569ABFC439D","title":"上海八万人体育场","lon":"121.445259","lat":"31.178665","category":"500","category_name":"未知分类","address":"上海市 上海八万人体育场"},{"poiid":"B2094750DB6BA1F4479D","title":"宜家家居IKEA","lon":"121.443565","lat":"31.17851","category":"249","category_name":"购物服务","address":"漕溪北路中山西路"},{"poiid":"B2094757D06FA5FC4393","title":"望族城","lon":"121.442","lat":"31.1767","category":"47","category_name":"住宅区","address":"上海徐汇区漕溪路251弄"},{"poiid":"B2094751DA65A1FF4693","title":"新奢奢侈品护理","lon":"121.446152","lat":"31.17868","category":"249","category_name":"购物服务","address":"天钥桥路909号D1国际创意空间3号楼218室"},{"poiid":"B2094757D06FAAF8459F","title":"徐汇苑","lon":"121.44469","lat":"31.176945","category":"47","category_name":"住宅区","address":"上海市徐汇区天钥桥路968号"},{"poiid":"B2094655D265A3F8499C","title":"汉庭快捷酒店上海万体馆南店","lon":"121.44645","lat":"31.1739","category":"216","category_name":"经济型连锁酒店","address":"徐汇区零陵路789弄19号(近漕溪北路)"},{"poiid":"B2094654DA6DA7FE4992","title":"龙华烈士纪念馆(3号门)","lon":"121.44662","lat":"31.17637","category":"680","category_name":"楼宇机构","address":"天钥桥路1155"},{"poiid":"B2094654DB65A4FC4392","title":"神舟商旅酒店(上海徐汇店)","lon":"121.44316","lat":"31.17587","category":"250","category_name":"公园户外","address":"上海市徐汇区龙华西路501号(近中山南二路)"},{"poiid":"B2094655D26EA0F5479B","title":"上缝小区","lon":"121.44619","lat":"31.173052","category":"47","category_name":"住宅区","address":"龙华西路285弄2-30号"},{"poiid":"B2094654DB6BA5FA4398","title":"月亮湾酒家","lon":"121.44524","lat":"31.17872","category":"257","category_name":"中餐厅","address":"徐汇区天钥桥路909号(近中山南二路)"},{"poiid":"B2094753D76CABFD4698","title":"上上签串串香火锅","lon":"121.446235","lat":"31.175706","category":"247","category_name":"餐饮美食","address":"上海市 龙华西路585号(近中山南二路)"},{"poiid":"B2094654DA6DA2F9439C","title":"宏润大厦","lon":"121.448","lat":"31.1757","category":"46","category_name":"楼宇","address":"北一环与亳州路交叉口(庐阳区政府对面)"},{"poiid":"B2094654DA6DA7FE4893","title":"上海师大附中附属龙华中学","lon":"121.44607","lat":"31.17425","category":"55","category_name":"中学","address":"上海龙华西路292号"},{"poiid":"B2094757D064A1F9409A","title":"强生花苑","lon":"121.44524","lat":"31.176025","category":"252","category_name":"楼宇机构","address":"上海市徐汇区龙华西路398号"},{"poiid":"B2094750D164A7F9469B","title":"7天连锁酒店上海万体馆店","lon":"121.44309706986","lat":"31.174478910449","category":"216","category_name":"经济型连锁酒店","address":"上海市徐汇区龙华西路315弄"},{"poiid":"B2094753D56CA0FB4898","title":"上上谦串串香火锅旗舰店","lon":"121.445762","lat":"31.175743","category":"247","category_name":"餐饮美食","address":"上海市龙华西路 585号 华富大厦 B座1F"},{"poiid":"B2094751D469A6FF469C","title":"龙华地段医院","lon":"121.445136","lat":"31.175706","category":"162","category_name":"医院","address":"龙华西路"},{"poiid":"B2094752D46BA7F9449A","title":"上海体育场","lon":"121.443008","lat":"31.174438","category":"500","category_name":"未知分类","address":null},{"poiid":"B2094655D264AAF84798","title":"徐汇苑酒店式公寓","lon":"121.44482","lat":"31.17756","category":"250","category_name":"公园户外","address":""},{"poiid":"B2094654DA6DA7FE499D","title":"龙华烈士陵园(3号门)","lon":"121.44663","lat":"31.17638","category":"250","category_name":"公园户外","address":"天钥桥路1155"},{"poiid":"B2094757D06FA1FF479F","title":"天华信息科技园","lon":"121.44504547","lat":"31.17243576","category":"500","category_name":"未知分类","address":"上海市徐汇区龙田路190号"},{"poiid":"B2094757D464A6FA4192","title":"心琪粥店 零陵路店","lon":"121.44278","lat":"31.17335","category":"68","category_name":"快餐厅","address":"徐汇区零陵路667-1号临(天钥桥路斜土路)"},{"poiid":"B2094757D069AAF44792","title":"Very  CD","lon":"121.446434021","lat":"31.1764907837","category":"46","category_name":"楼宇","address":"上海天钥桥路909号D1国际创意空间"},{"poiid":"B2094757D16EAAFA4398","title":"白玉兰茶餐厅","lon":"121.44619558","lat":"31.173788327","category":"68","category_name":"快餐厅","address":"徐汇区龙华西路286号(近龙华中学)"},{"poiid":"B209475CDB6EA1FF479D","title":"上海徐汇体育场和颐酒店","lon":"121.4430535","lat":"31.17621498","category":"214","category_name":"四星级宾馆","address":"上海市徐汇区龙华西路515号(航天神州大厦旁)"},{"poiid":"B2094751D464A7F4479E","title":"玫瑰坊","lon":"121.4451359","lat":"31.1757063","category":"248","category_name":"生活娱乐","address":"中山公园"},{"poiid":"B2094654DA6DA7FF4098","title":"新惠宾馆","lon":"121.44573","lat":"31.17825","category":"250","category_name":"公园户外","address":"徐汇区天钥桥路1001号"},{"poiid":"B2094655D26FABF5469B","title":"龙华西路309弄小区(东门)","lon":"121.44441","lat":"31.17445","category":"47","category_name":"住宅区","address":"龙华西路309弄2-3、5-8号"},{"poiid":"B2094655D26EA0F44593","title":"上海师范大学中新科技管理学院(南门)","lon":"121.44376","lat":"31.17496","category":"52","category_name":"高等院校","address":"徐汇区龙华西路323"},{"poiid":"B2094654DA6DA1FE4899","title":"沪大国际外语学院徐汇校区","lon":"121.44387","lat":"31.17488","category":"52","category_name":"高等院校","address":"龙华西路323"},{"poiid":"B2094654DA6DA7FF4199","title":"宛南六村","lon":"121.44566","lat":"31.179573","category":"47","category_name":"住宅区","address":"上海天钥桥路905弄"},{"poiid":"B2094655D26FAAF84699","title":"PCEC科技管理学院","lon":"121.44387","lat":"31.17488","category":"52","category_name":"高等院校","address":"龙华西路323号"},{"poiid":"B2094655D26FAAF84698","title":"英国斯泰福厦大学上海代表处","lon":"121.44386","lat":"31.17488","category":"52","category_name":"高等院校","address":"龙华西路323"},{"poiid":"B2094757D069A1FD439E","title":"姑苏邨","lon":"121.44552307288","lat":"31.176713112403","category":"68","category_name":"快餐厅","address":"徐汇区天钥桥路909号(近中山南二路)"},{"poiid":"B2094654DB6AA7F54393","title":"上海科技学院","lon":"121.44376","lat":"31.17496","category":"52","category_name":"高等院校","address":"徐汇区龙华西路323号"},{"poiid":"B2094757D064AAF4409E","title":"住友公寓","lon":"121.44302","lat":"31.175503","category":"500","category_name":"未知分类","address":"住友公寓位于徐汇龙华西路345号"},{"poiid":"B2094654DB65A2F54699","title":"上海师范大学中新科技管理学院","lon":"121.44387","lat":"31.17487","category":"52","category_name":"高等院校","address":"龙华西路323"},{"poiid":"B2094655D268A7F44699","title":"上海市民办杉育高级中学","lon":"121.44386","lat":"31.17487","category":"55","category_name":"中学","address":"龙华西路323号"},{"poiid":"B2094655D268A3F94793","title":"沪大国际外语学院徐汇校区(南门)","lon":"121.44381","lat":"31.17466","category":"52","category_name":"高等院校","address":"龙华西路323"},{"poiid":"B2094757D065A4FE4893","title":"吴江路生煎 (龙华西路店)","lon":"121.448254155","lat":"31.1732468896","category":"68","category_name":"快餐厅","address":"徐汇区龙华西路9号(近龙恒路44路下客站)"},{"poiid":"B2094757D064A7F44093","title":"友联生煎(龙华西路店)","lon":"121.44634","lat":"31.1736","category":"68","category_name":"快餐厅","address":"徐汇区龙华西路284号龙华中学旁(近龙吴路)"},{"poiid":"B2094757D06BA7FF449B","title":"IKEA OFFICE","lon":"121.44166564","lat":"31.174070358","category":"46","category_name":"楼宇","address":"上海龙田路190号3号楼"},{"poiid":"B2094654DB65A1FC4998","title":"中国电信南区电信局","lon":"121.44496","lat":"31.17814","category":"263","category_name":"公司","address":"天钥桥路980号"},{"poiid":"B2094655D36CA1F84493","title":"龙华","lon":"121.4447","lat":"31.17314","category":"38","category_name":"公交车站","address":""},{"poiid":"B2094757D06FA1FA469A","title":"龙华烈士陵园","lon":"121.44877","lat":"31.17546","category":"620","category_name":"丧葬","address":"徐汇区龙华西路180号(近龙华路)"},{"poiid":"B2094757D06FA1FE409E","title":"宋记香辣蟹(天钥桥路店)","lon":"121.44487","lat":"31.17894","category":"71","category_name":"四川菜","address":"徐汇区天钥桥路898号(近中山南二路)"},{"poiid":"B2094654DA6DA7FE449B","title":"徐汇苑大厦","lon":"121.443064","lat":"31.178863","category":"46","category_name":"楼宇","address":"徐汇区中山南二路1089号"},{"poiid":"B2094655D265A0FA489E","title":"D1国际创意空间","lon":"121.44582","lat":"31.17874","category":"45","category_name":"产业园区","address":"上海徐汇区天钥桥路909号"},{"poiid":"B2094654DB69A5FF439A","title":"莫泰168连锁旅店(天钥桥路店)","lon":"121.44567","lat":"31.1791","category":"216","category_name":"经济型连锁酒店","address":"上海市徐汇区天钥桥路909号（近中山南二路）"},{"poiid":"B2094654DA6DA1FE479B","title":"天华信息科技园区","lon":"121.44167","lat":"31.17406","category":"45","category_name":"产业园区","address":""},{"poiid":"B2094753D569ABFC439D","title":"上海八万人体育场","lon":"121.445259","lat":"31.178665","category":"500","category_name":"未知分类","address":"上海市 上海八万人体育场"},{"poiid":"B2094750DB6BA1F4479D","title":"宜家家居IKEA","lon":"121.443565","lat":"31.17851","category":"249","category_name":"购物服务","address":"漕溪北路中山西路"},{"poiid":"B2094757D06FA5FC4393","title":"望族城","lon":"121.442","lat":"31.1767","category":"47","category_name":"住宅区","address":"上海徐汇区漕溪路251弄"},{"poiid":"B2094751DA65A1FF4693","title":"新奢奢侈品护理","lon":"121.446152","lat":"31.17868","category":"249","category_name":"购物服务","address":"天钥桥路909号D1国际创意空间3号楼218室"},{"poiid":"B2094757D06FAAF8459F","title":"徐汇苑","lon":"121.44469","lat":"31.176945","category":"47","category_name":"住宅区","address":"上海市徐汇区天钥桥路968号"},{"poiid":"B2094655D265A3F8499C","title":"汉庭快捷酒店上海万体馆南店","lon":"121.44645","lat":"31.1739","category":"216","category_name":"经济型连锁酒店","address":"徐汇区零陵路789弄19号(近漕溪北路)"},{"poiid":"B2094654DA6DA7FE4992","title":"龙华烈士纪念馆(3号门)","lon":"121.44662","lat":"31.17637","category":"680","category_name":"楼宇机构","address":"天钥桥路1155"},{"poiid":"B2094654DB65A4FC4392","title":"神舟商旅酒店(上海徐汇店)","lon":"121.44316","lat":"31.17587","category":"250","category_name":"公园户外","address":"上海市徐汇区龙华西路501号(近中山南二路)"},{"poiid":"B2094655D26EA0F5479B","title":"上缝小区","lon":"121.44619","lat":"31.173052","category":"47","category_name":"住宅区","address":"龙华西路285弄2-30号"},{"poiid":"B2094654DB6BA5FA4398","title":"月亮湾酒家","lon":"121.44524","lat":"31.17872","category":"257","category_name":"中餐厅","address":"徐汇区天钥桥路909号(近中山南二路)"},{"poiid":"B2094753D76CABFD4698","title":"上上签串串香火锅","lon":"121.446235","lat":"31.175706","category":"247","category_name":"餐饮美食","address":"上海市 龙华西路585号(近中山南二路)"},{"poiid":"B2094654DA6DA2F9439C","title":"宏润大厦","lon":"121.448","lat":"31.1757","category":"46","category_name":"楼宇","address":"北一环与亳州路交叉口(庐阳区政府对面)"},{"poiid":"B2094654DA6DA7FE4893","title":"上海师大附中附属龙华中学","lon":"121.44607","lat":"31.17425","category":"55","category_name":"中学","address":"上海龙华西路292号"},{"poiid":"B2094757D064A1F9409A","title":"强生花苑","lon":"121.44524","lat":"31.176025","category":"252","category_name":"楼宇机构","address":"上海市徐汇区龙华西路398号"},{"poiid":"B2094750D164A7F9469B","title":"7天连锁酒店上海万体馆店","lon":"121.44309706986","lat":"31.174478910449","category":"216","category_name":"经济型连锁酒店","address":"上海市徐汇区龙华西路315弄"},{"poiid":"B2094753D56CA0FB4898","title":"上上谦串串香火锅旗舰店","lon":"121.445762","lat":"31.175743","category":"247","category_name":"餐饮美食","address":"上海市龙华西路 585号 华富大厦 B座1F"},{"poiid":"B2094751D469A6FF469C","title":"龙华地段医院","lon":"121.445136","lat":"31.175706","category":"162","category_name":"医院","address":"龙华西路"},{"poiid":"B2094752D46BA7F9449A","title":"上海体育场","lon":"121.443008","lat":"31.174438","category":"500","category_name":"未知分类","address":null},{"poiid":"B2094655D264AAF84798","title":"徐汇苑酒店式公寓","lon":"121.44482","lat":"31.17756","category":"250","category_name":"公园户外","address":""},{"poiid":"B2094654DA6DA7FE499D","title":"龙华烈士陵园(3号门)","lon":"121.44663","lat":"31.17638","category":"250","category_name":"公园户外","address":"天钥桥路1155"},{"poiid":"B2094757D06FA1FF479F","title":"天华信息科技园","lon":"121.44504547","lat":"31.17243576","category":"500","category_name":"未知分类","address":"上海市徐汇区龙田路190号"},{"poiid":"B2094757D464A6FA4192","title":"心琪粥店 零陵路店","lon":"121.44278","lat":"31.17335","category":"68","category_name":"快餐厅","address":"徐汇区零陵路667-1号临(天钥桥路斜土路)"},{"poiid":"B2094757D069AAF44792","title":"Very  CD","lon":"121.446434021","lat":"31.1764907837","category":"46","category_name":"楼宇","address":"上海天钥桥路909号D1国际创意空间"},{"poiid":"B2094757D16EAAFA4398","title":"白玉兰茶餐厅","lon":"121.44619558","lat":"31.173788327","category":"68","category_name":"快餐厅","address":"徐汇区龙华西路286号(近龙华中学)"},{"poiid":"B209475CDB6EA1FF479D","title":"上海徐汇体育场和颐酒店","lon":"121.4430535","lat":"31.17621498","category":"214","category_name":"四星级宾馆","address":"上海市徐汇区龙华西路515号(航天神州大厦旁)"},{"poiid":"B2094751D464A7F4479E","title":"玫瑰坊","lon":"121.4451359","lat":"31.1757063","category":"248","category_name":"生活娱乐","address":"中山公园"},{"poiid":"B2094654DA6DA7FF4098","title":"新惠宾馆","lon":"121.44573","lat":"31.17825","category":"250","category_name":"公园户外","address":"徐汇区天钥桥路1001号"},{"poiid":"B2094655D26FABF5469B","title":"龙华西路309弄小区(东门)","lon":"121.44441","lat":"31.17445","category":"47","category_name":"住宅区","address":"龙华西路309弄2-3、5-8号"},{"poiid":"B2094655D26EA0F44593","title":"上海师范大学中新科技管理学院(南门)","lon":"121.44376","lat":"31.17496","category":"52","category_name":"高等院校","address":"徐汇区龙华西路323"},{"poiid":"B2094654DA6DA1FE4899","title":"沪大国际外语学院徐汇校区","lon":"121.44387","lat":"31.17488","category":"52","category_name":"高等院校","address":"龙华西路323"},{"poiid":"B2094654DA6DA7FF4199","title":"宛南六村","lon":"121.44566","lat":"31.179573","category":"47","category_name":"住宅区","address":"上海天钥桥路905弄"},{"poiid":"B2094655D26FAAF84699","title":"PCEC科技管理学院","lon":"121.44387","lat":"31.17488","category":"52","category_name":"高等院校","address":"龙华西路323号"},{"poiid":"B2094655D26FAAF84698","title":"英国斯泰福厦大学上海代表处","lon":"121.44386","lat":"31.17488","category":"52","category_name":"高等院校","address":"龙华西路323"},{"poiid":"B2094757D069A1FD439E","title":"姑苏邨","lon":"121.44552307288","lat":"31.176713112403","category":"68","category_name":"快餐厅","address":"徐汇区天钥桥路909号(近中山南二路)"},{"poiid":"B2094654DB6AA7F54393","title":"上海科技学院","lon":"121.44376","lat":"31.17496","category":"52","category_name":"高等院校","address":"徐汇区龙华西路323号"},{"poiid":"B2094757D064AAF4409E","title":"住友公寓","lon":"121.44302","lat":"31.175503","category":"500","category_name":"未知分类","address":"住友公寓位于徐汇龙华西路345号"},{"poiid":"B2094654DB65A2F54699","title":"上海师范大学中新科技管理学院","lon":"121.44387","lat":"31.17487","category":"52","category_name":"高等院校","address":"龙华西路323"},{"poiid":"B2094655D268A7F44699","title":"上海市民办杉育高级中学","lon":"121.44386","lat":"31.17487","category":"55","category_name":"中学","address":"龙华西路323号"},{"poiid":"B2094655D268A3F94793","title":"沪大国际外语学院徐汇校区(南门)","lon":"121.44381","lat":"31.17466","category":"52","category_name":"高等院校","address":"龙华西路323"},{"poiid":"B2094757D065A4FE4893","title":"吴江路生煎 (龙华西路店)","lon":"121.448254155","lat":"31.1732468896","category":"68","category_name":"快餐厅","address":"徐汇区龙华西路9号(近龙恒路44路下客站)"},{"poiid":"B2094757D064A7F44093","title":"友联生煎(龙华西路店)","lon":"121.44634","lat":"31.1736","category":"68","category_name":"快餐厅","address":"徐汇区龙华西路284号龙华中学旁(近龙吴路)"},{"poiid":"B2094757D06BA7FF449B","title":"IKEA OFFICE","lon":"121.44166564","lat":"31.174070358","category":"46","category_name":"楼宇","address":"上海龙田路190号3号楼"},{"poiid":"B2094654DB65A1FC4998","title":"中国电信南区电信局","lon":"121.44496","lat":"31.17814","category":"263","category_name":"公司","address":"天钥桥路980号"},{"poiid":"B2094655D36CA1F84493","title":"龙华","lon":"121.4447","lat":"31.17314","category":"38","category_name":"公交车站","address":""},{"poiid":"B2094757D06FA1FA469A","title":"龙华烈士陵园","lon":"121.44877","lat":"31.17546","category":"620","category_name":"丧葬","address":"徐汇区龙华西路180号(近龙华路)"},{"poiid":"B2094757D06FA1FE409E","title":"宋记香辣蟹(天钥桥路店)","lon":"121.44487","lat":"31.17894","category":"71","category_name":"四川菜","address":"徐汇区天钥桥路898号(近中山南二路)"},{"poiid":"B2094654DA6DA7FE449B","title":"徐汇苑大厦","lon":"121.443064","lat":"31.178863","category":"46","category_name":"楼宇","address":"徐汇区中山南二路1089号"},{"poiid":"B2094655D265A0FA489E","title":"D1国际创意空间","lon":"121.44582","lat":"31.17874","category":"45","category_name":"产业园区","address":"上海徐汇区天钥桥路909号"},{"poiid":"B2094654DB69A5FF439A","title":"莫泰168连锁旅店(天钥桥路店)","lon":"121.44567","lat":"31.1791","category":"216","category_name":"经济型连锁酒店","address":"上海市徐汇区天钥桥路909号（近中山南二路）"},{"poiid":"B2094654DA6DA1FE479B","title":"天华信息科技园区","lon":"121.44167","lat":"31.17406","category":"45","category_name":"产业园区","address":""},{"poiid":"B2094753D569ABFC439D","title":"上海八万人体育场","lon":"121.445259","lat":"31.178665","category":"500","category_name":"未知分类","address":"上海市 上海八万人体育场"},{"poiid":"B2094750DB6BA1F4479D","title":"宜家家居IKEA","lon":"121.443565","lat":"31.17851","category":"249","category_name":"购物服务","address":"漕溪北路中山西路"},{"poiid":"B2094757D06FA5FC4393","title":"望族城","lon":"121.442","lat":"31.1767","category":"47","category_name":"住宅区","address":"上海徐汇区漕溪路251弄"},{"poiid":"B2094751DA65A1FF4693","title":"新奢奢侈品护理","lon":"121.446152","lat":"31.17868","category":"249","category_name":"购物服务","address":"天钥桥路909号D1国际创意空间3号楼218室"},{"poiid":"B2094757D06FAAF8459F","title":"徐汇苑","lon":"121.44469","lat":"31.176945","category":"47","category_name":"住宅区","address":"上海市徐汇区天钥桥路968号"},{"poiid":"B2094655D265A3F8499C","title":"汉庭快捷酒店上海万体馆南店","lon":"121.44645","lat":"31.1739","category":"216","category_name":"经济型连锁酒店","address":"徐汇区零陵路789弄19号(近漕溪北路)"},{"poiid":"B2094654DA6DA7FE4992","title":"龙华烈士纪念馆(3号门)","lon":"121.44662","lat":"31.17637","category":"680","category_name":"楼宇机构","address":"天钥桥路1155"},{"poiid":"B2094654DB65A4FC4392","title":"神舟商旅酒店(上海徐汇店)","lon":"121.44316","lat":"31.17587","category":"250","category_name":"公园户外","address":"上海市徐汇区龙华西路501号(近中山南二路)"},{"poiid":"B2094655D26EA0F5479B","title":"上缝小区","lon":"121.44619","lat":"31.173052","category":"47","category_name":"住宅区","address":"龙华西路285弄2-30号"},{"poiid":"B2094654DB6BA5FA4398","title":"月亮湾酒家","lon":"121.44524","lat":"31.17872","category":"257","category_name":"中餐厅","address":"徐汇区天钥桥路909号(近中山南二路)"},{"poiid":"B2094753D76CABFD4698","title":"上上签串串香火锅","lon":"121.446235","lat":"31.175706","category":"247","category_name":"餐饮美食","address":"上海市 龙华西路585号(近中山南二路)"},{"poiid":"B2094654DA6DA2F9439C","title":"宏润大厦","lon":"121.448","lat":"31.1757","category":"46","category_name":"楼宇","address":"北一环与亳州路交叉口(庐阳区政府对面)"},{"poiid":"B2094654DA6DA7FE4893","title":"上海师大附中附属龙华中学","lon":"121.44607","lat":"31.17425","category":"55","category_name":"中学","address":"上海龙华西路292号"},{"poiid":"B2094757D064A1F9409A","title":"强生花苑","lon":"121.44524","lat":"31.176025","category":"252","category_name":"楼宇机构","address":"上海市徐汇区龙华西路398号"},{"poiid":"B2094750D164A7F9469B","title":"7天连锁酒店上海万体馆店","lon":"121.44309706986","lat":"31.174478910449","category":"216","category_name":"经济型连锁酒店","address":"上海市徐汇区龙华西路315弄"},{"poiid":"B2094753D56CA0FB4898","title":"上上谦串串香火锅旗舰店","lon":"121.445762","lat":"31.175743","category":"247","category_name":"餐饮美食","address":"上海市龙华西路 585号 华富大厦 B座1F"},{"poiid":"B2094751D469A6FF469C","title":"龙华地段医院","lon":"121.445136","lat":"31.175706","category":"162","category_name":"医院","address":"龙华西路"},{"poiid":"B2094752D46BA7F9449A","title":"上海体育场","lon":"121.443008","lat":"31.174438","category":"500","category_name":"未知分类","address":null},{"poiid":"B2094655D264AAF84798","title":"徐汇苑酒店式公寓","lon":"121.44482","lat":"31.17756","category":"250","category_name":"公园户外","address":""},{"poiid":"B2094654DA6DA7FE499D","title":"龙华烈士陵园(3号门)","lon":"121.44663","lat":"31.17638","category":"250","category_name":"公园户外","address":"天钥桥路1155"},{"poiid":"B2094757D06FA1FF479F","title":"天华信息科技园","lon":"121.44504547","lat":"31.17243576","category":"500","category_name":"未知分类","address":"上海市徐汇区龙田路190号"},{"poiid":"B2094757D464A6FA4192","title":"心琪粥店 零陵路店","lon":"121.44278","lat":"31.17335","category":"68","category_name":"快餐厅","address":"徐汇区零陵路667-1号临(天钥桥路斜土路)"},{"poiid":"B2094757D069AAF44792","title":"Very  CD","lon":"121.446434021","lat":"31.1764907837","category":"46","category_name":"楼宇","address":"上海天钥桥路909号D1国际创意空间"},{"poiid":"B2094757D16EAAFA4398","title":"白玉兰茶餐厅","lon":"121.44619558","lat":"31.173788327","category":"68","category_name":"快餐厅","address":"徐汇区龙华西路286号(近龙华中学)"},{"poiid":"B209475CDB6EA1FF479D","title":"上海徐汇体育场和颐酒店","lon":"121.4430535","lat":"31.17621498","category":"214","category_name":"四星级宾馆","address":"上海市徐汇区龙华西路515号(航天神州大厦旁)"},{"poiid":"B2094751D464A7F4479E","title":"玫瑰坊","lon":"121.4451359","lat":"31.1757063","category":"248","category_name":"生活娱乐","address":"中山公园"},{"poiid":"B2094654DA6DA7FF4098","title":"新惠宾馆","lon":"121.44573","lat":"31.17825","category":"250","category_name":"公园户外","address":"徐汇区天钥桥路1001号"},{"poiid":"B2094655D26FABF5469B","title":"龙华西路309弄小区(东门)","lon":"121.44441","lat":"31.17445","category":"47","category_name":"住宅区","address":"龙华西路309弄2-3、5-8号"},{"poiid":"B2094655D26EA0F44593","title":"上海师范大学中新科技管理学院(南门)","lon":"121.44376","lat":"31.17496","category":"52","category_name":"高等院校","address":"徐汇区龙华西路323"},{"poiid":"B2094654DA6DA1FE4899","title":"沪大国际外语学院徐汇校区","lon":"121.44387","lat":"31.17488","category":"52","category_name":"高等院校","address":"龙华西路323"},{"poiid":"B2094654DA6DA7FF4199","title":"宛南六村","lon":"121.44566","lat":"31.179573","category":"47","category_name":"住宅区","address":"上海天钥桥路905弄"},{"poiid":"B2094655D26FAAF84699","title":"PCEC科技管理学院","lon":"121.44387","lat":"31.17488","category":"52","category_name":"高等院校","address":"龙华西路323号"},{"poiid":"B2094655D26FAAF84698","title":"英国斯泰福厦大学上海代表处","lon":"121.44386","lat":"31.17488","category":"52","category_name":"高等院校","address":"龙华西路323"},{"poiid":"B2094757D069A1FD439E","title":"姑苏邨","lon":"121.44552307288","lat":"31.176713112403","category":"68","category_name":"快餐厅","address":"徐汇区天钥桥路909号(近中山南二路)"},{"poiid":"B2094654DB6AA7F54393","title":"上海科技学院","lon":"121.44376","lat":"31.17496","category":"52","category_name":"高等院校","address":"徐汇区龙华西路323号"},{"poiid":"B2094757D064AAF4409E","title":"住友公寓","lon":"121.44302","lat":"31.175503","category":"500","category_name":"未知分类","address":"住友公寓位于徐汇龙华西路345号"},{"poiid":"B2094654DB65A2F54699","title":"上海师范大学中新科技管理学院","lon":"121.44387","lat":"31.17487","category":"52","category_name":"高等院校","address":"龙华西路323"},{"poiid":"B2094655D268A7F44699","title":"上海市民办杉育高级中学","lon":"121.44386","lat":"31.17487","category":"55","category_name":"中学","address":"龙华西路323号"},{"poiid":"B2094655D268A3F94793","title":"沪大国际外语学院徐汇校区(南门)","lon":"121.44381","lat":"31.17466","category":"52","category_name":"高等院校","address":"龙华西路323"},{"poiid":"B2094757D065A4FE4893","title":"吴江路生煎 (龙华西路店)","lon":"121.448254155","lat":"31.1732468896","category":"68","category_name":"快餐厅","address":"徐汇区龙华西路9号(近龙恒路44路下客站)"},{"poiid":"B2094757D064A7F44093","title":"友联生煎(龙华西路店)","lon":"121.44634","lat":"31.1736","category":"68","category_name":"快餐厅","address":"徐汇区龙华西路284号龙华中学旁(近龙吴路)"},{"poiid":"B2094757D06BA7FF449B","title":"IKEA OFFICE","lon":"121.44166564","lat":"31.174070358","category":"46","category_name":"楼宇","address":"上海龙田路190号3号楼"},{"poiid":"B2094654DB65A1FC4998","title":"中国电信南区电信局","lon":"121.44496","lat":"31.17814","category":"263","category_name":"公司","address":"天钥桥路980号"}]