[{"poiid":"B2094757D06FA7F5489D","title":"唐镇地铁站","lon":"121.655261389","lat":"31.2132715098","category":"36","category_name":"地铁站","address":"上海轨道交通 二号线 轨交塘镇站 2"},{"poiid":"B2094654DA6AAAFD489D","title":"绿波城","lon":"121.66481","lat":"31.209545","category":"47","category_name":"住宅区","address":"创新中路258号"},{"poiid":"B2094655D36DA6FE4698","title":"唐镇","lon":"121.65525","lat":"31.21328","category":"38","category_name":"公交车站","address":""},{"poiid":"B2094757D06FA3F44799","title":"华夏东路地铁站","lon":"121.67645614","lat":"31.196494693","category":"36","category_name":"地铁站","address":"上海轨道交通 二号线 轨交华夏东路站 2"},{"poiid":"B2094757D06EAAFD469C","title":"泛亚汽车技术中心有限公司","lon":"121.65544891","lat":"31.228515625","category":"46","category_name":"楼宇","address":"浦东新区龙东大道3999号(近龙新路)"},{"poiid":"B2094654DA6AAAFD4699","title":"上海民远职业技术学院","lon":"121.66107","lat":"31.19932","category":"671","category_name":"高校中心点","address":"浦东新区唐陆公路3892号(近华夏东路)"},{"poiid":"B2094757D068A7FA469F","title":"金唐公寓","lon":"121.65786","lat":"31.202555","category":"500","category_name":"未知分类","address":"创新西路75弄1-136号"},{"poiid":"B2094655D265ABF9499B","title":"保利金爵公寓(一期)","lon":"121.651128","lat":"31.206772","category":"47","category_name":"住宅区","address":"浦东新区创新西路75弄131号B座"},{"poiid":"B2094757D068AAFD4392","title":"创新中路地铁站","lon":"121.664993","lat":"31.214909","category":"36","category_name":"地铁站","address":"上海轨道交通,二号线,轨交创新中路站,2"},{"poiid":"B2094757D06FA5FF4692","title":"金利公寓","lon":"121.66344","lat":"31.2026","category":"47","category_name":"住宅区","address":"上海南曹路901弄"},{"poiid":"B2094757D068ABF4469B","title":"中国银联培训中心","lon":"121.663736","lat":"31.231019","category":"46","category_name":"楼宇","address":"上海顾唐路 龙东大道"},{"poiid":"B2094757D06AA5FA489D","title":"永安公墓","lon":"121.666467005","lat":"31.195946669","category":"620","category_name":"丧葬","address":"浦东新区川沙镇唐陆公路(近华夏东路)"},{"poiid":"B2094757D069A3F9479C","title":"唐镇天主教堂","lon":"121.65758514","lat":"31.201940536","category":"245","category_name":"教堂","address":"上海唐陆路"},{"poiid":"B2094655D26BA7FC459D","title":"保利金利公寓","lon":"121.665","lat":"31.2106","category":"47","category_name":"住宅区","address":"创新西路唐陆路口"},{"poiid":"B2094655D36CA7F5469B","title":"顾唐路创新中路","lon":"121.66822","lat":"31.2098","category":"38","category_name":"公交车站","address":""},{"poiid":"B2094655D36DA6FD4099","title":"创新中路","lon":"121.66499","lat":"31.2149","category":"38","category_name":"公交车站","address":""},{"poiid":"B2094655D264A6FD449A","title":"齐爱佳苑","lon":"121.6618","lat":"31.206957","category":"47","category_name":"住宅区","address":"上海市宝山区新二路183弄"},{"poiid":"B2094655D36CA5FD439D","title":"创新中路齐爱路","lon":"121.66386","lat":"31.20711","category":"38","category_name":"公交车站","address":""},{"poiid":"B2094655D265ABF54398","title":"保利金色唐城","lon":"121.66432279916","lat":"31.210350014629","category":"47","category_name":"住宅区","address":"上海市浦东新区创新西路75弄"},{"poiid":"B2094757D66CAAF9499C","title":"绿城玉兰花园","lon":"121.65719056928992","lat":"31.219996063475424","category":"47","category_name":"住宅区","address":"上海市浦东新区齐爱路99弄"},{"poiid":"B2094757D165A5FF469F","title":"得利酒店","lon":"121.66810808","lat":"31.209185619","category":"76","category_name":"上海菜","address":"上海市浦东新区唐兴路"},{"poiid":"B2094753D76EA2FD449E","title":"唐城人才公寓","lon":"121.666641","lat":"31.211059","category":"500","category_name":"未知分类","address":"上海市 上海市创新中路399号"},{"poiid":"B2094757D164A7F5479E","title":"复旦大学光华楼西主楼10楼","lon":"121.66602168","lat":"31.209501926","category":"500","category_name":"未知分类","address":"上海邯郸路220号复旦大学光华楼"},{"poiid":"B2094654DA6AAAFD429D","title":"唐人苑","lon":"121.64923","lat":"31.208265","category":"47","category_name":"住宅区","address":"唐镇路127弄"},{"poiid":"B2094654DA6AAAFE409C","title":"上海电信(创新中路)","lon":"121.67119","lat":"31.21018","category":"151","category_name":"电讯营业厅","address":""},{"poiid":"B2094757D06BA3FD409E","title":"瀚盛家园","lon":"121.65532","lat":"31.200581","category":"47","category_name":"住宅区","address":"上海浦东新区创新西路199弄"},{"poiid":"B2094750D56AA0FF449A","title":"保利御樽苑","lon":"121.65776","lat":"31.210739","category":"47","category_name":"住宅区","address":"上海市浦东新区唐兴路"},{"poiid":"B2094752D76AA6FB4693","title":"龙阳路地铁站","lon":"121.660666","lat":"31.211","category":"36","category_name":"地铁站","address":null},{"poiid":"B2094654DA6AA5F4449C","title":"河东新村","lon":"121.67257","lat":"31.209921","category":"47","category_name":"住宅区","address":"创新中路"},{"poiid":"B2094654DB69A7FB4493","title":"圣马丽诺桥别墅","lon":"121.67612","lat":"31.21411","category":"47","category_name":"住宅区","address":"浦东新区唐安路199弄"},{"poiid":"B2094757D56EA5F5459E","title":"创新中路站3号口(地铁2号线)","lon":"121.664368","lat":"31.214829","category":"251","category_name":"出行住宿","address":"中国上海市浦东新区高科东路"},{"poiid":"B2094654DA6AAAFD4499","title":"浦东唐墓桥露德圣母堂","lon":"121.65727","lat":"31.20935","category":"244","category_name":"寺庙道观","address":"浦东新区东唐镇40号"},{"poiid":"B2094655D36CA0FB4593","title":"机口村","lon":"121.66283","lat":"31.20693","category":"38","category_name":"公交车站","address":""},{"poiid":"B2094753D46CA1F5429C","title":"创新佳苑","lon":"121.668563","lat":"31.207235","category":"500","category_name":"未知分类","address":"上海市 浦东新区创新中路380弄"},{"poiid":"B2094750D768A3F84399","title":"川悦食空","lon":"121.655","lat":"31.2048","category":"71","category_name":"四川菜","address":"浦东新区唐安路1008号(唐兴路口)"},{"poiid":"B2094654DA6AAAFE409B","title":"上海浦东育苗学校","lon":"121.67182","lat":"31.20892","category":"253","category_name":"校园生活","address":""},{"poiid":"B2094654DA6AAAFD4393","title":"唐镇中学","lon":"121.65885","lat":"31.20886","category":"55","category_name":"中学","address":"浦东新区齐爱路646号"},{"poiid":"B2094655D36CA7F54593","title":"顾唐路龙东大道","lon":"121.66346","lat":"31.23056","category":"38","category_name":"公交车站","address":""},{"poiid":"B2094654DA6AA4FE419A","title":"上海金桥出口加工区(南区)","lon":"121.67745","lat":"31.22324","category":"45","category_name":"产业园区","address":""},{"poiid":"B2094654DA6AAAF5439C","title":"东唐苑","lon":"121.65368","lat":"31.209255","category":"47","category_name":"住宅区","address":"上海唐镇路320弄"},{"poiid":"B2094654DA6AAAFD419F","title":"福乐家超市(唐四小学东)","lon":"121.65895","lat":"31.21654","category":"118","category_name":"超级市场","address":""},{"poiid":"B2094654DA6AAAFD4998","title":"上海浦东唐镇机口工业小区","lon":"121.66721","lat":"31.20535","category":"47","category_name":"住宅区","address":""},{"poiid":"B2094757D06AA2F54599","title":"金色奥斯卡(金爵别墅)","lon":"121.660241835","lat":"31.2205939107","category":"47","category_name":"住宅区","address":"上海浦东新区龙东大道4028弄"},{"poiid":"B2094654DA6AAAFD4792","title":"上海市浦东新区唐镇卫生院","lon":"121.66007","lat":"31.20582","category":"162","category_name":"医院","address":"创新中路566号"},{"poiid":"B2094757D065A5FC409F","title":"白金汉宫","lon":"121.66391754","lat":"31.220762252","category":"500","category_name":"未知分类","address":"上海龙东大道"},{"poiid":"B2094757D16BAAF8469F","title":"立邦涂料有限公司","lon":"121.676234285","lat":"31.2123347891","category":"263","category_name":"公司","address":"上海创业路287号"},{"poiid":"B2094757D768AAFB4393","title":"Venice面包蛋糕咖啡","lon":"121.654439","lat":"31.209447","category":"67","category_name":"甜品店","address":"浦东新区唐镇路354号(唐镇路邮局对面)"},{"poiid":"B2094654DA6AAAFC499D","title":"白金瀚宫","lon":"121.6582","lat":"31.22733","category":"47","category_name":"住宅区","address":"白金瀚宫(华亭丽都)位于浦东龙东大道4288号"},{"poiid":"B2094654DA6AAAFD449E","title":"唐镇小学","lon":"121.65505","lat":"31.20651","category":"56","category_name":"小学","address":"唐兴路439号"},{"poiid":"B2094757D66DA0F4439E","title":"ORBIS","lon":"121.66486178","lat":"31.205525839","category":"500","category_name":"未知分类","address":"上海中山公园龙之梦2楼2035"},{"poiid":"B2094757D06FA7F5489D","title":"唐镇地铁站","lon":"121.655261389","lat":"31.2132715098","category":"36","category_name":"地铁站","address":"上海轨道交通 二号线 轨交塘镇站 2"},{"poiid":"B2094654DA6AAAFD489D","title":"绿波城","lon":"121.66481","lat":"31.209545","category":"47","category_name":"住宅区","address":"创新中路258号"},{"poiid":"B2094655D36DA6FE4698","title":"唐镇","lon":"121.65525","lat":"31.21328","category":"38","category_name":"公交车站","address":""},{"poiid":"B2094757D06FA3F44799","title":"华夏东路地铁站","lon":"121.67645614","lat":"31.196494693","category":"36","category_name":"地铁站","address":"上海轨道交通 二号线 轨交华夏东路站 2"},{"poiid":"B2094757D06EAAFD469C","title":"泛亚汽车技术中心有限公司","lon":"121.65544891","lat":"31.228515625","category":"46","category_name":"楼宇","address":"浦东新区龙东大道3999号(近龙新路)"},{"poiid":"B2094654DA6AAAFD4699","title":"上海民远职业技术学院","lon":"121.66107","lat":"31.19932","category":"671","category_name":"高校中心点","address":"浦东新区唐陆公路3892号(近华夏东路)"},{"poiid":"B2094757D068A7FA469F","title":"金唐公寓","lon":"121.65786","lat":"31.202555","category":"500","category_name":"未知分类","address":"创新西路75弄1-136号"},{"poiid":"B2094655D265ABF9499B","title":"保利金爵公寓(一期)","lon":"121.651128","lat":"31.206772","category":"47","category_name":"住宅区","address":"浦东新区创新西路75弄131号B座"},{"poiid":"B2094757D068AAFD4392","title":"创新中路地铁站","lon":"121.664993","lat":"31.214909","category":"36","category_name":"地铁站","address":"上海轨道交通,二号线,轨交创新中路站,2"},{"poiid":"B2094757D06FA5FF4692","title":"金利公寓","lon":"121.66344","lat":"31.2026","category":"47","category_name":"住宅区","address":"上海南曹路901弄"},{"poiid":"B2094757D068ABF4469B","title":"中国银联培训中心","lon":"121.663736","lat":"31.231019","category":"46","category_name":"楼宇","address":"上海顾唐路 龙东大道"},{"poiid":"B2094757D06AA5FA489D","title":"永安公墓","lon":"121.666467005","lat":"31.195946669","category":"620","category_name":"丧葬","address":"浦东新区川沙镇唐陆公路(近华夏东路)"},{"poiid":"B2094757D069A3F9479C","title":"唐镇天主教堂","lon":"121.65758514","lat":"31.201940536","category":"245","category_name":"教堂","address":"上海唐陆路"},{"poiid":"B2094655D26BA7FC459D","title":"保利金利公寓","lon":"121.665","lat":"31.2106","category":"47","category_name":"住宅区","address":"创新西路唐陆路口"},{"poiid":"B2094655D36CA7F5469B","title":"顾唐路创新中路","lon":"121.66822","lat":"31.2098","category":"38","category_name":"公交车站","address":""},{"poiid":"B2094655D36DA6FD4099","title":"创新中路","lon":"121.66499","lat":"31.2149","category":"38","category_name":"公交车站","address":""},{"poiid":"B2094655D264A6FD449A","title":"齐爱佳苑","lon":"121.6618","lat":"31.206957","category":"47","category_name":"住宅区","address":"上海市宝山区新二路183弄"},{"poiid":"B2094655D36CA5FD439D","title":"创新中路齐爱路","lon":"121.66386","lat":"31.20711","category":"38","category_name":"公交车站","address":""},{"poiid":"B2094655D265ABF54398","title":"保利金色唐城","lon":"121.66432279916","lat":"31.210350014629","category":"47","category_name":"住宅区","address":"上海市浦东新区创新西路75弄"},{"poiid":"B2094757D66CAAF9499C","title":"绿城玉兰花园","lon":"121.65719056928992","lat":"31.219996063475424","category":"47","category_name":"住宅区","address":"上海市浦东新区齐爱路99弄"},{"poiid":"B2094757D165A5FF469F","title":"得利酒店","lon":"121.66810808","lat":"31.209185619","category":"76","category_name":"上海菜","address":"上海市浦东新区唐兴路"},{"poiid":"B2094753D76EA2FD449E","title":"唐城人才公寓","lon":"121.666641","lat":"31.211059","category":"500","category_name":"未知分类","address":"上海市 上海市创新中路399号"},{"poiid":"B2094757D164A7F5479E","title":"复旦大学光华楼西主楼10楼","lon":"121.66602168","lat":"31.209501926","category":"500","category_name":"未知分类","address":"上海邯郸路220号复旦大学光华楼"},{"poiid":"B2094654DA6AAAFD429D","title":"唐人苑","lon":"121.64923","lat":"31.208265","category":"47","category_name":"住宅区","address":"唐镇路127弄"},{"poiid":"B2094654DA6AAAFE409C","title":"上海电信(创新中路)","lon":"121.67119","lat":"31.21018","category":"151","category_name":"电讯营业厅","address":""},{"poiid":"B2094757D06BA3FD409E","title":"瀚盛家园","lon":"121.65532","lat":"31.200581","category":"47","category_name":"住宅区","address":"上海浦东新区创新西路199弄"},{"poiid":"B2094750D56AA0FF449A","title":"保利御樽苑","lon":"121.65776","lat":"31.210739","category":"47","category_name":"住宅区","address":"上海市浦东新区唐兴路"},{"poiid":"B2094752D76AA6FB4693","title":"龙阳路地铁站","lon":"121.660666","lat":"31.211","category":"36","category_name":"地铁站","address":null},{"poiid":"B2094654DA6AA5F4449C","title":"河东新村","lon":"121.67257","lat":"31.209921","category":"47","category_name":"住宅区","address":"创新中路"},{"poiid":"B2094654DB69A7FB4493","title":"圣马丽诺桥别墅","lon":"121.67612","lat":"31.21411","category":"47","category_name":"住宅区","address":"浦东新区唐安路199弄"},{"poiid":"B2094757D56EA5F5459E","title":"创新中路站3号口(地铁2号线)","lon":"121.664368","lat":"31.214829","category":"251","category_name":"出行住宿","address":"中国上海市浦东新区高科东路"},{"poiid":"B2094654DA6AAAFD4499","title":"浦东唐墓桥露德圣母堂","lon":"121.65727","lat":"31.20935","category":"244","category_name":"寺庙道观","address":"浦东新区东唐镇40号"},{"poiid":"B2094655D36CA0FB4593","title":"机口村","lon":"121.66283","lat":"31.20693","category":"38","category_name":"公交车站","address":""},{"poiid":"B2094753D46CA1F5429C","title":"创新佳苑","lon":"121.668563","lat":"31.207235","category":"500","category_name":"未知分类","address":"上海市 浦东新区创新中路380弄"},{"poiid":"B2094750D768A3F84399","title":"川悦食空","lon":"121.655","lat":"31.2048","category":"71","category_name":"四川菜","address":"浦东新区唐安路1008号(唐兴路口)"},{"poiid":"B2094654DA6AAAFE409B","title":"上海浦东育苗学校","lon":"121.67182","lat":"31.20892","category":"253","category_name":"校园生活","address":""},{"poiid":"B2094654DA6AAAFD4393","title":"唐镇中学","lon":"121.65885","lat":"31.20886","category":"55","category_name":"中学","address":"浦东新区齐爱路646号"},{"poiid":"B2094655D36CA7F54593","title":"顾唐路龙东大道","lon":"121.66346","lat":"31.23056","category":"38","category_name":"公交车站","address":""},{"poiid":"B2094654DA6AA4FE419A","title":"上海金桥出口加工区(南区)","lon":"121.67745","lat":"31.22324","category":"45","category_name":"产业园区","address":""},{"poiid":"B2094654DA6AAAF5439C","title":"东唐苑","lon":"121.65368","lat":"31.209255","category":"47","category_name":"住宅区","address":"上海唐镇路320弄"},{"poiid":"B2094654DA6AAAFD419F","title":"福乐家超市(唐四小学东)","lon":"121.65895","lat":"31.21654","category":"118","category_name":"超级市场","address":""},{"poiid":"B2094654DA6AAAFD4998","title":"上海浦东唐镇机口工业小区","lon":"121.66721","lat":"31.20535","category":"47","category_name":"住宅区","address":""},{"poiid":"B2094757D06AA2F54599","title":"金色奥斯卡(金爵别墅)","lon":"121.660241835","lat":"31.2205939107","category":"47","category_name":"住宅区","address":"上海浦东新区龙东大道4028弄"},{"poiid":"B2094654DA6AAAFD4792","title":"上海市浦东新区唐镇卫生院","lon":"121.66007","lat":"31.20582","category":"162","category_name":"医院","address":"创新中路566号"},{"poiid":"B2094757D065A5FC409F","title":"白金汉宫","lon":"121.66391754","lat":"31.220762252","category":"500","category_name":"未知分类","address":"上海龙东大道"},{"poiid":"B2094757D16BAAF8469F","title":"立邦涂料有限公司","lon":"121.676234285","lat":"31.2123347891","category":"263","category_name":"公司","address":"上海创业路287号"},{"poiid":"B2094757D768AAFB4393","title":"Venice面包蛋糕咖啡","lon":"121.654439","lat":"31.209447","category":"67","category_name":"甜品店","address":"浦东新区唐镇路354号(唐镇路邮局对面)"},{"poiid":"B2094654DA6AAAFC499D","title":"白金瀚宫","lon":"121.6582","lat":"31.22733","category":"47","category_name":"住宅区","address":"白金瀚宫(华亭丽都)位于浦东龙东大道4288号"},{"poiid":"B2094654DA6AAAFD449E","title":"唐镇小学","lon":"121.65505","lat":"31.20651","category":"56","category_name":"小学","address":"唐兴路439号"},{"poiid":"B2094757D66DA0F4439E","title":"ORBIS","lon":"121.66486178","lat":"31.205525839","category":"500","category_name":"未知分类","address":"上海中山公园龙之梦2楼2035"},{"poiid":"B2094757D06FA7F5489D","title":"唐镇地铁站","lon":"121.655261389","lat":"31.2132715098","category":"36","category_name":"地铁站","address":"上海轨道交通 二号线 轨交塘镇站 2"},{"poiid":"B2094654DA6AAAFD489D","title":"绿波城","lon":"121.66481","lat":"31.209545","category":"47","category_name":"住宅区","address":"创新中路258号"},{"poiid":"B2094655D36DA6FE4698","title":"唐镇","lon":"121.65525","lat":"31.21328","category":"38","category_name":"公交车站","address":""},{"poiid":"B2094757D06FA3F44799","title":"华夏东路地铁站","lon":"121.67645614","lat":"31.196494693","category":"36","category_name":"地铁站","address":"上海轨道交通 二号线 轨交华夏东路站 2"},{"poiid":"B2094757D06EAAFD469C","title":"泛亚汽车技术中心有限公司","lon":"121.65544891","lat":"31.228515625","category":"46","category_name":"楼宇","address":"浦东新区龙东大道3999号(近龙新路)"},{"poiid":"B2094654DA6AAAFD4699","title":"上海民远职业技术学院","lon":"121.66107","lat":"31.19932","category":"671","category_name":"高校中心点","address":"浦东新区唐陆公路3892号(近华夏东路)"},{"poiid":"B2094757D068A7FA469F","title":"金唐公寓","lon":"121.65786","lat":"31.202555","category":"500","category_name":"未知分类","address":"创新西路75弄1-136号"},{"poiid":"B2094655D265ABF9499B","title":"保利金爵公寓(一期)","lon":"121.651128","lat":"31.206772","category":"47","category_name":"住宅区","address":"浦东新区创新西路75弄131号B座"},{"poiid":"B2094757D068AAFD4392","title":"创新中路地铁站","lon":"121.664993","lat":"31.214909","category":"36","category_name":"地铁站","address":"上海轨道交通,二号线,轨交创新中路站,2"},{"poiid":"B2094757D06FA5FF4692","title":"金利公寓","lon":"121.66344","lat":"31.2026","category":"47","category_name":"住宅区","address":"上海南曹路901弄"},{"poiid":"B2094757D068ABF4469B","title":"中国银联培训中心","lon":"121.663736","lat":"31.231019","category":"46","category_name":"楼宇","address":"上海顾唐路 龙东大道"},{"poiid":"B2094757D06AA5FA489D","title":"永安公墓","lon":"121.666467005","lat":"31.195946669","category":"620","category_name":"丧葬","address":"浦东新区川沙镇唐陆公路(近华夏东路)"},{"poiid":"B2094757D069A3F9479C","title":"唐镇天主教堂","lon":"121.65758514","lat":"31.201940536","category":"245","category_name":"教堂","address":"上海唐陆路"},{"poiid":"B2094655D26BA7FC459D","title":"保利金利公寓","lon":"121.665","lat":"31.2106","category":"47","category_name":"住宅区","address":"创新西路唐陆路口"},{"poiid":"B2094655D36CA7F5469B","title":"顾唐路创新中路","lon":"121.66822","lat":"31.2098","category":"38","category_name":"公交车站","address":""},{"poiid":"B2094655D36DA6FD4099","title":"创新中路","lon":"121.66499","lat":"31.2149","category":"38","category_name":"公交车站","address":""},{"poiid":"B2094655D264A6FD449A","title":"齐爱佳苑","lon":"121.6618","lat":"31.206957","category":"47","category_name":"住宅区","address":"上海市宝山区新二路183弄"},{"poiid":"B2094655D36CA5FD439D","title":"创新中路齐爱路","lon":"121.66386","lat":"31.20711","category":"38","category_name":"公交车站","address":""},{"poiid":"B2094655D265ABF54398","title":"保利金色唐城","lon":"121.66432279916","lat":"31.210350014629","category":"47","category_name":"住宅区","address":"上海市浦东新区创新西路75弄"},{"poiid":"B2094757D66CAAF9499C","title":"绿城玉兰花园","lon":"121.65719056928992","lat":"31.219996063475424","category":"47","category_name":"住宅区","address":"上海市浦东新区齐爱路99弄"},{"poiid":"B2094757D165A5FF469F","title":"得利酒店","lon":"121.66810808","lat":"31.209185619","category":"76","category_name":"上海菜","address":"上海市浦东新区唐兴路"},{"poiid":"B2094753D76EA2FD449E","title":"唐城人才公寓","lon":"121.666641","lat":"31.211059","category":"500","category_name":"未知分类","address":"上海市 上海市创新中路399号"},{"poiid":"B2094757D164A7F5479E","title":"复旦大学光华楼西主楼10楼","lon":"121.66602168","lat":"31.209501926","category":"500","category_name":"未知分类","address":"上海邯郸路220号复旦大学光华楼"},{"poiid":"B2094654DA6AAAFD429D","title":"唐人苑","lon":"121.64923","lat":"31.208265","category":"47","category_name":"住宅区","address":"唐镇路127弄"},{"poiid":"B2094654DA6AAAFE409C","title":"上海电信(创新中路)","lon":"121.67119","lat":"31.21018","category":"151","category_name":"电讯营业厅","address":""},{"poiid":"B2094757D06BA3FD409E","title":"瀚盛家园","lon":"121.65532","lat":"31.200581","category":"47","category_name":"住宅区","address":"上海浦东新区创新西路199弄"},{"poiid":"B2094750D56AA0FF449A","title":"保利御樽苑","lon":"121.65776","lat":"31.210739","category":"47","category_name":"住宅区","address":"上海市浦东新区唐兴路"},{"poiid":"B2094752D76AA6FB4693","title":"龙阳路地铁站","lon":"121.660666","lat":"31.211","category":"36","category_name":"地铁站","address":null},{"poiid":"B2094654DA6AA5F4449C","title":"河东新村","lon":"121.67257","lat":"31.209921","category":"47","category_name":"住宅区","address":"创新中路"},{"poiid":"B2094654DB69A7FB4493","title":"圣马丽诺桥别墅","lon":"121.67612","lat":"31.21411","category":"47","category_name":"住宅区","address":"浦东新区唐安路199弄"},{"poiid":"B2094757D56EA5F5459E","title":"创新中路站3号口(地铁2号线)","lon":"121.664368","lat":"31.214829","category":"251","category_name":"出行住宿","address":"中国上海市浦东新区高科东路"},{"poiid":"B2094654DA6AAAFD4499","title":"浦东唐墓桥露德圣母堂","lon":"121.65727","lat":"31.20935","category":"244","category_name":"寺庙道观","address":"浦东新区东唐镇40号"},{"poiid":"B2094655D36CA0FB4593","title":"机口村","lon":"121.66283","lat":"31.20693","category":"38","category_name":"公交车站","address":""},{"poiid":"B2094753D46CA1F5429C","title":"创新佳苑","lon":"121.668563","lat":"31.207235","category":"500","category_name":"未知分类","address":"上海市 浦东新区创新中路380弄"},{"poiid":"B2094750D768A3F84399","title":"川悦食空","lon":"121.655","lat":"31.2048","category":"71","category_name":"四川菜","address":"浦东新区唐安路1008号(唐兴路口)"},{"poiid":"B2094654DA6AAAFE409B","title":"上海浦东育苗学校","lon":"121.67182","lat":"31.20892","category":"253","category_name":"校园生活","address":""},{"poiid":"B2094654DA6AAAFD4393","title":"唐镇中学","lon":"121.65885","lat":"31.20886","category":"55","category_name":"中学","address":"浦东新区齐爱路646号"},{"poiid":"B2094655D36CA7F54593","title":"顾唐路龙东大道","lon":"121.66346","lat":"31.23056","category":"38","category_name":"公交车站","address":""},{"poiid":"B2094654DA6AA4FE419A","title":"上海金桥出口加工区(南区)","lon":"121.67745","lat":"31.22324","category":"45","category_name":"产业园区","address":""},{"poiid":"B2094654DA6AAAF5439C","title":"东唐苑","lon":"121.65368","lat":"31.209255","category":"47","category_name":"住宅区","address":"上海唐镇路320弄"},{"poiid":"B2094654DA6AAAFD419F","title":"福乐家超市(唐四小学东)","lon":"121.65895","lat":"31.21654","category":"118","category_name":"超级市场","address":""},{"poiid":"B2094654DA6AAAFD4998","title":"上海浦东唐镇机口工业小区","lon":"121.66721","lat":"31.20535","category":"47","category_name":"住宅区","address":""},{"poiid":"B2094757D06AA2F54599","title":"金色奥斯卡(金爵别墅)","lon":"121.660241835","lat":"31.2205939107","category":"47","category_name":"住宅区","address":"上海浦东新区龙东大道4028弄"},{"poiid":"B2094654DA6AAAFD4792","title":"上海市浦东新区唐镇卫生院","lon":"121.66007","lat":"31.20582","category":"162","category_name":"医院","address":"创新中路566号"},{"poiid":"B2094757D065A5FC409F","title":"白金汉宫","lon":"121.66391754","lat":"31.220762252","category":"500","category_name":"未知分类","address":"上海龙东大道"},{"poiid":"B2094757D16BAAF8469F","title":"立邦涂料有限公司","lon":"121.676234285","lat":"31.2123347891","category":"263","category_name":"公司","address":"上海创业路287号"},{"poiid":"B2094757D768AAFB4393","title":"Venice面包蛋糕咖啡","lon":"121.654439","lat":"31.209447","category":"67","category_name":"甜品店","address":"浦东新区唐镇路354号(唐镇路邮局对面)"},{"poiid":"B2094654DA6AAAFC499D","title":"白金瀚宫","lon":"121.6582","lat":"31.22733","category":"47","category_name":"住宅区","address":"白金瀚宫(华亭丽都)位于浦东龙东大道4288号"},{"poiid":"B2094654DA6AAAFD449E","title":"唐镇小学","lon":"121.65505","lat":"31.20651","category":"56","category_name":"小学","address":"唐兴路439号"},{"poiid":"B2094757D66DA0F4439E","title":"ORBIS","lon":"121.66486178","lat":"31.205525839","category":"500","category_name":"未知分类","address":"上海中山公园龙之梦2楼2035"},{"poiid":"B2094757D06FA7F5489D","title":"唐镇地铁站","lon":"121.655261389","lat":"31.2132715098","category":"36","category_name":"地铁站","address":"上海轨道交通 二号线 轨交塘镇站 2"},{"poiid":"B2094654DA6AAAFD489D","title":"绿波城","lon":"121.66481","lat":"31.209545","category":"47","category_name":"住宅区","address":"创新中路258号"},{"poiid":"B2094655D36DA6FE4698","title":"唐镇","lon":"121.65525","lat":"31.21328","category":"38","category_name":"公交车站","address":""},{"poiid":"B2094757D06FA3F44799","title":"华夏东路地铁站","lon":"121.67645614","lat":"31.196494693","category":"36","category_name":"地铁站","address":"上海轨道交通 二号线 轨交华夏东路站 2"},{"poiid":"B2094757D06EAAFD469C","title":"泛亚汽车技术中心有限公司","lon":"121.65544891","lat":"31.228515625","category":"46","category_name":"楼宇","address":"浦东新区龙东大道3999号(近龙新路)"},{"poiid":"B2094654DA6AAAFD4699","title":"上海民远职业技术学院","lon":"121.66107","lat":"31.19932","category":"671","category_name":"高校中心点","address":"浦东新区唐陆公路3892号(近华夏东路)"},{"poiid":"B2094757D068A7FA469F","title":"金唐公寓","lon":"121.65786","lat":"31.202555","category":"500","category_name":"未知分类","address":"创新西路75弄1-136号"},{"poiid":"B2094655D265ABF9499B","title":"保利金爵公寓(一期)","lon":"121.651128","lat":"31.206772","category":"47","category_name":"住宅区","address":"浦东新区创新西路75弄131号B座"},{"poiid":"B2094757D068AAFD4392","title":"创新中路地铁站","lon":"121.664993","lat":"31.214909","category":"36","category_name":"地铁站","address":"上海轨道交通,二号线,轨交创新中路站,2"},{"poiid":"B2094757D06FA5FF4692","title":"金利公寓","lon":"121.66344","lat":"31.2026","category":"47","category_name":"住宅区","address":"上海南曹路901弄"},{"poiid":"B2094757D068ABF4469B","title":"中国银联培训中心","lon":"121.663736","lat":"31.231019","category":"46","category_name":"楼宇","address":"上海顾唐路 龙东大道"},{"poiid":"B2094757D06AA5FA489D","title":"永安公墓","lon":"121.666467005","lat":"31.195946669","category":"620","category_name":"丧葬","address":"浦东新区川沙镇唐陆公路(近华夏东路)"},{"poiid":"B2094757D069A3F9479C","title":"唐镇天主教堂","lon":"121.65758514","lat":"31.201940536","category":"245","category_name":"教堂","address":"上海唐陆路"},{"poiid":"B2094655D26BA7FC459D","title":"保利金利公寓","lon":"121.665","lat":"31.2106","category":"47","category_name":"住宅区","address":"创新西路唐陆路口"},{"poiid":"B2094655D36CA7F5469B","title":"顾唐路创新中路","lon":"121.66822","lat":"31.2098","category":"38","category_name":"公交车站","address":""},{"poiid":"B2094655D36DA6FD4099","title":"创新中路","lon":"121.66499","lat":"31.2149","category":"38","category_name":"公交车站","address":""},{"poiid":"B2094655D264A6FD449A","title":"齐爱佳苑","lon":"121.6618","lat":"31.206957","category":"47","category_name":"住宅区","address":"上海市宝山区新二路183弄"},{"poiid":"B2094655D36CA5FD439D","title":"创新中路齐爱路","lon":"121.66386","lat":"31.20711","category":"38","category_name":"公交车站","address":""},{"poiid":"B2094655D265ABF54398","title":"保利金色唐城","lon":"121.66432279916","lat":"31.210350014629","category":"47","category_name":"住宅区","address":"上海市浦东新区创新西路75弄"},{"poiid":"B2094757D66CAAF9499C","title":"绿城玉兰花园","lon":"121.65719056928992","lat":"31.219996063475424","category":"47","category_name":"住宅区","address":"上海市浦东新区齐爱路99弄"},{"poiid":"B2094757D165A5FF469F","title":"得利酒店","lon":"121.66810808","lat":"31.209185619","category":"76","category_name":"上海菜","address":"上海市浦东新区唐兴路"},{"poiid":"B2094753D76EA2FD449E","title":"唐城人才公寓","lon":"121.666641","lat":"31.211059","category":"500","category_name":"未知分类","address":"上海市 上海市创新中路399号"},{"poiid":"B2094757D164A7F5479E","title":"复旦大学光华楼西主楼10楼","lon":"121.66602168","lat":"31.209501926","category":"500","category_name":"未知分类","address":"上海邯郸路220号复旦大学光华楼"},{"poiid":"B2094654DA6AAAFD429D","title":"唐人苑","lon":"121.64923","lat":"31.208265","category":"47","category_name":"住宅区","address":"唐镇路127弄"},{"poiid":"B2094654DA6AAAFE409C","title":"上海电信(创新中路)","lon":"121.67119","lat":"31.21018","category":"151","category_name":"电讯营业厅","address":""},{"poiid":"B2094757D06BA3FD409E","title":"瀚盛家园","lon":"121.65532","lat":"31.200581","category":"47","category_name":"住宅区","address":"上海浦东新区创新西路199弄"},{"poiid":"B2094750D56AA0FF449A","title":"保利御樽苑","lon":"121.65776","lat":"31.210739","category":"47","category_name":"住宅区","address":"上海市浦东新区唐兴路"},{"poiid":"B2094752D76AA6FB4693","title":"龙阳路地铁站","lon":"121.660666","lat":"31.211","category":"36","category_name":"地铁站","address":null},{"poiid":"B2094654DA6AA5F4449C","title":"河东新村","lon":"121.67257","lat":"31.209921","category":"47","category_name":"住宅区","address":"创新中路"},{"poiid":"B2094654DB69A7FB4493","title":"圣马丽诺桥别墅","lon":"121.67612","lat":"31.21411","category":"47","category_name":"住宅区","address":"浦东新区唐安路199弄"},{"poiid":"B2094757D56EA5F5459E","title":"创新中路站3号口(地铁2号线)","lon":"121.664368","lat":"31.214829","category":"251","category_name":"出行住宿","address":"中国上海市浦东新区高科东路"},{"poiid":"B2094654DA6AAAFD4499","title":"浦东唐墓桥露德圣母堂","lon":"121.65727","lat":"31.20935","category":"244","category_name":"寺庙道观","address":"浦东新区东唐镇40号"},{"poiid":"B2094655D36CA0FB4593","title":"机口村","lon":"121.66283","lat":"31.20693","category":"38","category_name":"公交车站","address":""},{"poiid":"B2094753D46CA1F5429C","title":"创新佳苑","lon":"121.668563","lat":"31.207235","category":"500","category_name":"未知分类","address":"上海市 浦东新区创新中路380弄"},{"poiid":"B2094750D768A3F84399","title":"川悦食空","lon":"121.655","lat":"31.2048","category":"71","category_name":"四川菜","address":"浦东新区唐安路1008号(唐兴路口)"},{"poiid":"B2094654DA6AAAFE409B","title":"上海浦东育苗学校","lon":"121.67182","lat":"31.20892","category":"253","category_name":"校园生活","address":""},{"poiid":"B2094654DA6AAAFD4393","title":"唐镇中学","lon":"121.65885","lat":"31.20886","category":"55","category_name":"中学","address":"浦东新区齐爱路646号"},{"poiid":"B2094655D36CA7F54593","title":"顾唐路龙东大道","lon":"121.66346","lat":"31.23056","category":"38","category_name":"公交车站","address":""},{"poiid":"B2094654DA6AA4FE419A","title":"上海金桥出口加工区(南区)","lon":"121.67745","lat":"31.22324","category":"45","category_name":"产业园区","address":""},{"poiid":"B2094654DA6AAAF5439C","title":"东唐苑","lon":"121.65368","lat":"31.209255","category":"47","category_name":"住宅区","address":"上海唐镇路320弄"},{"poiid":"B2094654DA6AAAFD419F","title":"福乐家超市(唐四小学东)","lon":"121.65895","lat":"31.21654","category":"118","category_name":"超级市场","address":""},{"poiid":"B2094654DA6AAAFD4998","title":"上海浦东唐镇机口工业小区","lon":"121.66721","lat":"31.20535","category":"47","category_name":"住宅区","address":""},{"poiid":"B2094757D06AA2F54599","title":"金色奥斯卡(金爵别墅)","lon":"121.660241835","lat":"31.2205939107","category":"47","category_name":"住宅区","address":"上海浦东新区龙东大道4028弄"},{"poiid":"B2094654DA6AAAFD4792","title":"上海市浦东新区唐镇卫生院","lon":"121.66007","lat":"31.20582","category":"162","category_name":"医院","address":"创新中路566号"},{"poiid":"B2094757D065A5FC409F","title":"白金汉宫","lon":"121.66391754","lat":"31.220762252","category":"500","category_name":"未知分类","address":"上海龙东大道"},{"poiid":"B2094757D16BAAF8469F","title":"立邦涂料有限公司","lon":"121.676234285","lat":"31.2123347891","category":"263","category_name":"公司","address":"上海创业路287号"},{"poiid":"B2094757D768AAFB4393","title":"Venice面包蛋糕咖啡","lon":"121.654439","lat":"31.209447","category":"67","category_name":"甜品店","address":"浦东新区唐镇路354号(唐镇路邮局对面)"},{"poiid":"B2094654DA6AAAFC499D","title":"白金瀚宫","lon":"121.6582","lat":"31.22733","category":"47","category_name":"住宅区","address":"白金瀚宫(华亭丽都)位于浦东龙东大道4288号"},{"poiid":"B2094654DA6AAAFD449E","title":"唐镇小学","lon":"121.65505","lat":"31.20651","category":"56","category_name":"小学","address":"唐兴路439号"},{"poiid":"B2094757D66DA0F4439E","title":"ORBIS","lon":"121.66486178","lat":"31.205525839","category":"500","category_name":"未知分类","address":"上海中山公园龙之梦2楼2035"}]