[{"poiid":"B2094654DB6BA7FF439B","title":"长风公园","lon":"121.39952","lat":"31.22399","category":"196","category_name":"公园","address":"普陀区枣阳路510号(近华师大后门)"},{"poiid":"B2094757D06FA7F9469E","title":"长风海洋世界极地白鲸表演馆","lon":"121.39928374","lat":"31.223985756","category":"196","category_name":"公园","address":"上海普陀区枣阳路525号长风公园内"},{"poiid":"B2094654DB6BA7FF439A","title":"上海长风海洋世界","lon":"121.39955","lat":"31.22399","category":"196","category_name":"公园","address":"大渡河路451"},{"poiid":"B2094757D06FA3F4489C","title":"和记小菜(长宁店)","lon":"121.40547","lat":"31.2172","category":"76","category_name":"上海菜","address":"长宁区娄山关路999弄79号春天花园会所(近长宁路)"},{"poiid":"B2094757D06FA7FD409E","title":"迪士卡卡丁车赛车馆(Disckart Indoor Karting)","lon":"121.40163","lat":"31.22478","category":"220","category_name":"运动场所","address":"普陀区枣阳路809号长风公园附近(近华师大后门)"},{"poiid":"B2094655D36CA5F9419B","title":"长宁路娄山关路","lon":"121.40622","lat":"31.21751","category":"38","category_name":"公交车站","address":""},{"poiid":"B2094757D06FA2FC489A","title":"思创大厦","lon":"121.403","lat":"31.2197","category":"46","category_name":"楼宇","address":"上海市长宁区天山路600弄3-4号楼"},{"poiid":"B2094655D26DAAF44999","title":"华东师范大学逸夫楼","lon":"121.40685","lat":"31.22623","category":"52","category_name":"高等院校","address":"上海闵行区中山北路3663号华东师范大学中山北路校区"},{"poiid":"B2094757D068AAFF409F","title":"周家桥创意园","lon":"121.40578658","lat":"31.220065232","category":"46","category_name":"楼宇","address":"长宁区万航渡路2453号(华阳路万航渡路)"},{"poiid":"B2094757D06FA5F4469A","title":"华东师范大学理科大楼","lon":"121.40352825","lat":"31.227578924","category":"253","category_name":"校园生活","address":"上海普陀区中山北路3663号华东师范大学中山北路校区"},{"poiid":"B2094654D56BA4FA439C","title":"华东师范大学","lon":"121.40639","lat":"31.22835","category":"671","category_name":"高校中心点","address":"上海市普陀区中山北路3663号"},{"poiid":"B2094757D06AA3F5479E","title":"华师大 对外汉语学院","lon":"121.403979","lat":"31.222253","category":"253","category_name":"校园生活","address":"上海枣阳路896"},{"poiid":"B2094757D06FABF5439D","title":"春天花园","lon":"121.4038","lat":"31.217037","category":"47","category_name":"住宅区","address":"长宁区娄山关路999弄(近长宁路)"},{"poiid":"B2094654D56BA4F4469F","title":"上海花城","lon":"121.40445","lat":"31.21896","category":"47","category_name":"住宅区","address":"普陀区澳门路519号华生大厦2号楼2202室(近普陀路)查看地图"},{"poiid":"B2094757D069A0FA409D","title":"虹桥河滨公园","lon":"121.40090251","lat":"31.219385867","category":"196","category_name":"公园","address":"长宁区长宁路2080号(锦屏路口)"},{"poiid":"B2094757D16DA1F5469F","title":"虹桥河滨花园","lon":"121.40254","lat":"31.219532","category":"47","category_name":"住宅区","address":"上海市长宁区长宁路1898弄"},{"poiid":"B2094757D068A3FC429A","title":"同达创业大厦","lon":"121.403","lat":"31.2189","category":"46","category_name":"楼宇","address":"朝阳华威桥东北角"},{"poiid":"B2094757D06FA6F84998","title":"威尔士健身会所(长宁店)","lon":"121.40599","lat":"31.21729","category":"221","category_name":"健身中心","address":"长宁区娄山关路999号春天花园(近长宁路)"},{"poiid":"B2094655D26DA2FC429E","title":"DOHO","lon":"121.40579871717932","lat":"31.220632293765263","category":"45","category_name":"产业园区","address":"上海市长宁区万航渡路2452号"},{"poiid":"B2094757D164AAFB4492","title":"万航渡路","lon":"121.408267586","lat":"31.2199143293","category":"500","category_name":"未知分类","address":"上海万航渡路"},{"poiid":"B2094757D069A6F4469D","title":"全家便利(虹桥机场店)","lon":"121.405636","lat":"31.218717","category":"117","category_name":"便民商店/便利店","address":"上海长宁区虹桥机场2号航站楼内"},{"poiid":"B2094757D06FAAF44298","title":"艺林盲人按摩院(长宁店)","lon":"121.40361","lat":"31.21796","category":"149","category_name":"洗浴推拿场所","address":"长宁区长宁路1842号"},{"poiid":"B2094655D26FA6F84998","title":"华东师范大学对外汉语学院(西门)","lon":"121.40282","lat":"31.222","category":"52","category_name":"高等院校","address":"枣阳路896"},{"poiid":"B2094757D66BA3F44999","title":"苏河湾","lon":"121.406163","lat":"31.2205512","category":"94","category_name":"西餐厅","address":"长宁区万航渡路2452号DOHO创意园区3楼屋顶花园(近娄山关路)"},{"poiid":"B2094757D06FA7FD4898","title":"华师大文史楼","lon":"121.403717983","lat":"31.2205415171","category":"253","category_name":"校园生活","address":"上海中山北路3663"},{"poiid":"B2094757D16EA4F94992","title":"华东师范大学物理楼","lon":"121.405059186","lat":"31.2258269449","category":"253","category_name":"校园生活","address":"上海闵行区中山北路3663号华东师范大学中山北路校区"},{"poiid":"B2094654D56BA4F9469C","title":"华东师范大学留学生公寓","lon":"121.40398","lat":"31.22225","category":"47","category_name":"住宅区","address":"枣阳路896"},{"poiid":"B2094757D06BABF94892","title":"华师大设计学院","lon":"121.40263158","lat":"31.221334257","category":"253","category_name":"校园生活","address":"上海华东师范大学"},{"poiid":"B2094757D068A2FA4899","title":"红腊餐饮","lon":"121.40179543697","lat":"31.228735765565","category":"76","category_name":"上海菜","address":"普陀区枣阳路477号(近华师大后门)"},{"poiid":"B2094753D265A6F9469C","title":"HBC华谊兄弟上海影院","lon":"121.40096","lat":"31.22136","category":"178","category_name":"电影院","address":"大渡河路196号长风景畔广场5层"},{"poiid":"B2094757D16CABFE4398","title":"华东师范大学 科学会堂","lon":"121.406528586","lat":"31.2266953619","category":"500","category_name":"未知分类","address":"上海市普陀区枣阳路"},{"poiid":"B2094757D165AAF84493","title":"宁悦人家","lon":"121.404210586","lat":"31.2179331905","category":"76","category_name":"上海菜","address":"长宁区长宁路1796号(近娄山关路)"},{"poiid":"B2094654D56BA4F94592","title":"文沁苑","lon":"121.40398","lat":"31.221649","category":"47","category_name":"住宅区","address":"光复西路2297弄"},{"poiid":"B2094654D56BA4F4489E","title":"清宁小区","lon":"121.40678","lat":"31.219639","category":"47","category_name":"住宅区","address":"万航渡路2505弄21-46"},{"poiid":"B2094654D56BA4F5459F","title":"风华水岸","lon":"121.4016","lat":"31.222267","category":"47","category_name":"住宅区","address":"上海枣阳路891弄"},{"poiid":"B2094757D16CA7F4419A","title":"华东师范大学对外汉语学院教学楼附楼","lon":"121.403753671","lat":"31.223266789","category":"500","category_name":"未知分类","address":"上海中山北路3663号华东师范大学内(近枣阳路896号)"},{"poiid":"B2094757D065A5F4489E","title":"延安初级中学","lon":"121.40343233","lat":"31.221183504","category":"55","category_name":"中学","address":"上海延安西路601号"},{"poiid":"B2094757D16BABFB439E","title":"新渡口","lon":"121.404469653","lat":"31.2232308858","category":"500","category_name":"未知分类","address":"上海光复西路2213弄"},{"poiid":"B2094757D069A0F5479E","title":"春草堂足疗(长宁店)","lon":"121.40519","lat":"31.218","category":"149","category_name":"洗浴推拿场所","address":"上海长宁区长宁路1798号(近娄山关路)  "},{"poiid":"B2094655D26AABFA419A","title":"锦江之星上海长宁店","lon":"121.40729","lat":"31.21788","category":"250","category_name":"公园户外","address":"上海长宁区长宁路1600弄5号(近遵义路)  "},{"poiid":"B2094757D16BA0FA479E","title":"蓝蛙","lon":"121.403091586","lat":"31.2226672831","category":"500","category_name":"未知分类","address":"上海辛耕路135号永新坊B1楼"},{"poiid":"B2094757D065A2FE409B","title":"华东师范大学 新四教室","lon":"121.40344243","lat":"31.22457398","category":"253","category_name":"校园生活","address":"上海中山北路校区"},{"poiid":"B2094655D26DA7FC4892","title":"风华水岸(东门)","lon":"121.40251","lat":"31.22219","category":"47","category_name":"住宅区","address":"枣阳路891弄"},{"poiid":"B2094757D065ABFE459D","title":"全家便利(娄山关路店)","lon":"121.40493608","lat":"31.223218543","category":"117","category_name":"便民商店/便利店","address":"上海长宁区2号线西延伸段娄山关路站2号出口2-104号"},{"poiid":"B2094654D56BA1FF4099","title":"虹桥电子广场","lon":"121.403","lat":"31.2206","category":"46","category_name":"楼宇","address":"长宁区天山支路160,168号"},{"poiid":"B2094654DB6BA7FE499F","title":"文沁苑(南门)","lon":"121.40366","lat":"31.22103","category":"47","category_name":"住宅区","address":"光复西路2297弄"},{"poiid":"B2094655D26EA5F5479D","title":"大洋海底世界","lon":"121.39955","lat":"31.22399","category":"199","category_name":"水族馆","address":"大渡河路451号长风公园4号门内"},{"poiid":"B2094654D56BA4FA4899","title":"黎金苑","lon":"121.40803","lat":"31.22338","category":"47","category_name":"住宅区","address":"光复西路2077弄1-89号"},{"poiid":"B2094757DB69A7F44799","title":"和米堂","lon":"121.403828","lat":"31.218376","category":"95","category_name":"日本料理","address":"长宁区长宁路820号上海小马路美食街轻食区-10商铺"},{"poiid":"B2094654D56BA4F94598","title":"解放食品商店","lon":"121.40547","lat":"31.22133","category":"117","category_name":"便民商店/便利店","address":"光复西路2205"},{"poiid":"B2094654DB6BA7FF439B","title":"长风公园","lon":"121.39952","lat":"31.22399","category":"196","category_name":"公园","address":"普陀区枣阳路510号(近华师大后门)"},{"poiid":"B2094757D06FA7F9469E","title":"长风海洋世界极地白鲸表演馆","lon":"121.39928374","lat":"31.223985756","category":"196","category_name":"公园","address":"上海普陀区枣阳路525号长风公园内"},{"poiid":"B2094654DB6BA7FF439A","title":"上海长风海洋世界","lon":"121.39955","lat":"31.22399","category":"196","category_name":"公园","address":"大渡河路451"},{"poiid":"B2094757D06FA3F4489C","title":"和记小菜(长宁店)","lon":"121.40547","lat":"31.2172","category":"76","category_name":"上海菜","address":"长宁区娄山关路999弄79号春天花园会所(近长宁路)"},{"poiid":"B2094757D06FA7FD409E","title":"迪士卡卡丁车赛车馆(Disckart Indoor Karting)","lon":"121.40163","lat":"31.22478","category":"220","category_name":"运动场所","address":"普陀区枣阳路809号长风公园附近(近华师大后门)"},{"poiid":"B2094655D36CA5F9419B","title":"长宁路娄山关路","lon":"121.40622","lat":"31.21751","category":"38","category_name":"公交车站","address":""},{"poiid":"B2094757D06FA2FC489A","title":"思创大厦","lon":"121.403","lat":"31.2197","category":"46","category_name":"楼宇","address":"上海市长宁区天山路600弄3-4号楼"},{"poiid":"B2094655D26DAAF44999","title":"华东师范大学逸夫楼","lon":"121.40685","lat":"31.22623","category":"52","category_name":"高等院校","address":"上海闵行区中山北路3663号华东师范大学中山北路校区"},{"poiid":"B2094757D068AAFF409F","title":"周家桥创意园","lon":"121.40578658","lat":"31.220065232","category":"46","category_name":"楼宇","address":"长宁区万航渡路2453号(华阳路万航渡路)"},{"poiid":"B2094757D06FA5F4469A","title":"华东师范大学理科大楼","lon":"121.40352825","lat":"31.227578924","category":"253","category_name":"校园生活","address":"上海普陀区中山北路3663号华东师范大学中山北路校区"},{"poiid":"B2094654D56BA4FA439C","title":"华东师范大学","lon":"121.40639","lat":"31.22835","category":"671","category_name":"高校中心点","address":"上海市普陀区中山北路3663号"},{"poiid":"B2094757D06AA3F5479E","title":"华师大 对外汉语学院","lon":"121.403979","lat":"31.222253","category":"253","category_name":"校园生活","address":"上海枣阳路896"},{"poiid":"B2094757D06FABF5439D","title":"春天花园","lon":"121.4038","lat":"31.217037","category":"47","category_name":"住宅区","address":"长宁区娄山关路999弄(近长宁路)"},{"poiid":"B2094654D56BA4F4469F","title":"上海花城","lon":"121.40445","lat":"31.21896","category":"47","category_name":"住宅区","address":"普陀区澳门路519号华生大厦2号楼2202室(近普陀路)查看地图"},{"poiid":"B2094757D069A0FA409D","title":"虹桥河滨公园","lon":"121.40090251","lat":"31.219385867","category":"196","category_name":"公园","address":"长宁区长宁路2080号(锦屏路口)"},{"poiid":"B2094757D16DA1F5469F","title":"虹桥河滨花园","lon":"121.40254","lat":"31.219532","category":"47","category_name":"住宅区","address":"上海市长宁区长宁路1898弄"},{"poiid":"B2094757D068A3FC429A","title":"同达创业大厦","lon":"121.403","lat":"31.2189","category":"46","category_name":"楼宇","address":"朝阳华威桥东北角"},{"poiid":"B2094757D06FA6F84998","title":"威尔士健身会所(长宁店)","lon":"121.40599","lat":"31.21729","category":"221","category_name":"健身中心","address":"长宁区娄山关路999号春天花园(近长宁路)"},{"poiid":"B2094655D26DA2FC429E","title":"DOHO","lon":"121.40579871717932","lat":"31.220632293765263","category":"45","category_name":"产业园区","address":"上海市长宁区万航渡路2452号"},{"poiid":"B2094757D164AAFB4492","title":"万航渡路","lon":"121.408267586","lat":"31.2199143293","category":"500","category_name":"未知分类","address":"上海万航渡路"},{"poiid":"B2094757D069A6F4469D","title":"全家便利(虹桥机场店)","lon":"121.405636","lat":"31.218717","category":"117","category_name":"便民商店/便利店","address":"上海长宁区虹桥机场2号航站楼内"},{"poiid":"B2094757D06FAAF44298","title":"艺林盲人按摩院(长宁店)","lon":"121.40361","lat":"31.21796","category":"149","category_name":"洗浴推拿场所","address":"长宁区长宁路1842号"},{"poiid":"B2094655D26FA6F84998","title":"华东师范大学对外汉语学院(西门)","lon":"121.40282","lat":"31.222","category":"52","category_name":"高等院校","address":"枣阳路896"},{"poiid":"B2094757D66BA3F44999","title":"苏河湾","lon":"121.406163","lat":"31.2205512","category":"94","category_name":"西餐厅","address":"长宁区万航渡路2452号DOHO创意园区3楼屋顶花园(近娄山关路)"},{"poiid":"B2094757D06FA7FD4898","title":"华师大文史楼","lon":"121.403717983","lat":"31.2205415171","category":"253","category_name":"校园生活","address":"上海中山北路3663"},{"poiid":"B2094757D16EA4F94992","title":"华东师范大学物理楼","lon":"121.405059186","lat":"31.2258269449","category":"253","category_name":"校园生活","address":"上海闵行区中山北路3663号华东师范大学中山北路校区"},{"poiid":"B2094654D56BA4F9469C","title":"华东师范大学留学生公寓","lon":"121.40398","lat":"31.22225","category":"47","category_name":"住宅区","address":"枣阳路896"},{"poiid":"B2094757D06BABF94892","title":"华师大设计学院","lon":"121.40263158","lat":"31.221334257","category":"253","category_name":"校园生活","address":"上海华东师范大学"},{"poiid":"B2094757D068A2FA4899","title":"红腊餐饮","lon":"121.40179543697","lat":"31.228735765565","category":"76","category_name":"上海菜","address":"普陀区枣阳路477号(近华师大后门)"},{"poiid":"B2094753D265A6F9469C","title":"HBC华谊兄弟上海影院","lon":"121.40096","lat":"31.22136","category":"178","category_name":"电影院","address":"大渡河路196号长风景畔广场5层"},{"poiid":"B2094757D16CABFE4398","title":"华东师范大学 科学会堂","lon":"121.406528586","lat":"31.2266953619","category":"500","category_name":"未知分类","address":"上海市普陀区枣阳路"},{"poiid":"B2094757D165AAF84493","title":"宁悦人家","lon":"121.404210586","lat":"31.2179331905","category":"76","category_name":"上海菜","address":"长宁区长宁路1796号(近娄山关路)"},{"poiid":"B2094654D56BA4F94592","title":"文沁苑","lon":"121.40398","lat":"31.221649","category":"47","category_name":"住宅区","address":"光复西路2297弄"},{"poiid":"B2094654D56BA4F4489E","title":"清宁小区","lon":"121.40678","lat":"31.219639","category":"47","category_name":"住宅区","address":"万航渡路2505弄21-46"},{"poiid":"B2094654D56BA4F5459F","title":"风华水岸","lon":"121.4016","lat":"31.222267","category":"47","category_name":"住宅区","address":"上海枣阳路891弄"},{"poiid":"B2094757D16CA7F4419A","title":"华东师范大学对外汉语学院教学楼附楼","lon":"121.403753671","lat":"31.223266789","category":"500","category_name":"未知分类","address":"上海中山北路3663号华东师范大学内(近枣阳路896号)"},{"poiid":"B2094757D065A5F4489E","title":"延安初级中学","lon":"121.40343233","lat":"31.221183504","category":"55","category_name":"中学","address":"上海延安西路601号"},{"poiid":"B2094757D16BABFB439E","title":"新渡口","lon":"121.404469653","lat":"31.2232308858","category":"500","category_name":"未知分类","address":"上海光复西路2213弄"},{"poiid":"B2094757D069A0F5479E","title":"春草堂足疗(长宁店)","lon":"121.40519","lat":"31.218","category":"149","category_name":"洗浴推拿场所","address":"上海长宁区长宁路1798号(近娄山关路)  "},{"poiid":"B2094655D26AABFA419A","title":"锦江之星上海长宁店","lon":"121.40729","lat":"31.21788","category":"250","category_name":"公园户外","address":"上海长宁区长宁路1600弄5号(近遵义路)  "},{"poiid":"B2094757D16BA0FA479E","title":"蓝蛙","lon":"121.403091586","lat":"31.2226672831","category":"500","category_name":"未知分类","address":"上海辛耕路135号永新坊B1楼"},{"poiid":"B2094757D065A2FE409B","title":"华东师范大学 新四教室","lon":"121.40344243","lat":"31.22457398","category":"253","category_name":"校园生活","address":"上海中山北路校区"},{"poiid":"B2094655D26DA7FC4892","title":"风华水岸(东门)","lon":"121.40251","lat":"31.22219","category":"47","category_name":"住宅区","address":"枣阳路891弄"},{"poiid":"B2094757D065ABFE459D","title":"全家便利(娄山关路店)","lon":"121.40493608","lat":"31.223218543","category":"117","category_name":"便民商店/便利店","address":"上海长宁区2号线西延伸段娄山关路站2号出口2-104号"},{"poiid":"B2094654D56BA1FF4099","title":"虹桥电子广场","lon":"121.403","lat":"31.2206","category":"46","category_name":"楼宇","address":"长宁区天山支路160,168号"},{"poiid":"B2094654DB6BA7FE499F","title":"文沁苑(南门)","lon":"121.40366","lat":"31.22103","category":"47","category_name":"住宅区","address":"光复西路2297弄"},{"poiid":"B2094655D26EA5F5479D","title":"大洋海底世界","lon":"121.39955","lat":"31.22399","category":"199","category_name":"水族馆","address":"大渡河路451号长风公园4号门内"},{"poiid":"B2094654D56BA4FA4899","title":"黎金苑","lon":"121.40803","lat":"31.22338","category":"47","category_name":"住宅区","address":"光复西路2077弄1-89号"},{"poiid":"B2094757DB69A7F44799","title":"和米堂","lon":"121.403828","lat":"31.218376","category":"95","category_name":"日本料理","address":"长宁区长宁路820号上海小马路美食街轻食区-10商铺"},{"poiid":"B2094654D56BA4F94598","title":"解放食品商店","lon":"121.40547","lat":"31.22133","category":"117","category_name":"便民商店/便利店","address":"光复西路2205"},{"poiid":"B2094654DB6BA7FF439B","title":"长风公园","lon":"121.39952","lat":"31.22399","category":"196","category_name":"公园","address":"普陀区枣阳路510号(近华师大后门)"},{"poiid":"B2094757D06FA7F9469E","title":"长风海洋世界极地白鲸表演馆","lon":"121.39928374","lat":"31.223985756","category":"196","category_name":"公园","address":"上海普陀区枣阳路525号长风公园内"},{"poiid":"B2094654DB6BA7FF439A","title":"上海长风海洋世界","lon":"121.39955","lat":"31.22399","category":"196","category_name":"公园","address":"大渡河路451"},{"poiid":"B2094757D06FA3F4489C","title":"和记小菜(长宁店)","lon":"121.40547","lat":"31.2172","category":"76","category_name":"上海菜","address":"长宁区娄山关路999弄79号春天花园会所(近长宁路)"},{"poiid":"B2094757D06FA7FD409E","title":"迪士卡卡丁车赛车馆(Disckart Indoor Karting)","lon":"121.40163","lat":"31.22478","category":"220","category_name":"运动场所","address":"普陀区枣阳路809号长风公园附近(近华师大后门)"},{"poiid":"B2094655D36CA5F9419B","title":"长宁路娄山关路","lon":"121.40622","lat":"31.21751","category":"38","category_name":"公交车站","address":""},{"poiid":"B2094757D06FA2FC489A","title":"思创大厦","lon":"121.403","lat":"31.2197","category":"46","category_name":"楼宇","address":"上海市长宁区天山路600弄3-4号楼"},{"poiid":"B2094655D26DAAF44999","title":"华东师范大学逸夫楼","lon":"121.40685","lat":"31.22623","category":"52","category_name":"高等院校","address":"上海闵行区中山北路3663号华东师范大学中山北路校区"},{"poiid":"B2094757D068AAFF409F","title":"周家桥创意园","lon":"121.40578658","lat":"31.220065232","category":"46","category_name":"楼宇","address":"长宁区万航渡路2453号(华阳路万航渡路)"},{"poiid":"B2094757D06FA5F4469A","title":"华东师范大学理科大楼","lon":"121.40352825","lat":"31.227578924","category":"253","category_name":"校园生活","address":"上海普陀区中山北路3663号华东师范大学中山北路校区"},{"poiid":"B2094654D56BA4FA439C","title":"华东师范大学","lon":"121.40639","lat":"31.22835","category":"671","category_name":"高校中心点","address":"上海市普陀区中山北路3663号"},{"poiid":"B2094757D06AA3F5479E","title":"华师大 对外汉语学院","lon":"121.403979","lat":"31.222253","category":"253","category_name":"校园生活","address":"上海枣阳路896"},{"poiid":"B2094757D06FABF5439D","title":"春天花园","lon":"121.4038","lat":"31.217037","category":"47","category_name":"住宅区","address":"长宁区娄山关路999弄(近长宁路)"},{"poiid":"B2094654D56BA4F4469F","title":"上海花城","lon":"121.40445","lat":"31.21896","category":"47","category_name":"住宅区","address":"普陀区澳门路519号华生大厦2号楼2202室(近普陀路)查看地图"},{"poiid":"B2094757D069A0FA409D","title":"虹桥河滨公园","lon":"121.40090251","lat":"31.219385867","category":"196","category_name":"公园","address":"长宁区长宁路2080号(锦屏路口)"},{"poiid":"B2094757D16DA1F5469F","title":"虹桥河滨花园","lon":"121.40254","lat":"31.219532","category":"47","category_name":"住宅区","address":"上海市长宁区长宁路1898弄"},{"poiid":"B2094757D068A3FC429A","title":"同达创业大厦","lon":"121.403","lat":"31.2189","category":"46","category_name":"楼宇","address":"朝阳华威桥东北角"},{"poiid":"B2094757D06FA6F84998","title":"威尔士健身会所(长宁店)","lon":"121.40599","lat":"31.21729","category":"221","category_name":"健身中心","address":"长宁区娄山关路999号春天花园(近长宁路)"},{"poiid":"B2094655D26DA2FC429E","title":"DOHO","lon":"121.40579871717932","lat":"31.220632293765263","category":"45","category_name":"产业园区","address":"上海市长宁区万航渡路2452号"},{"poiid":"B2094757D164AAFB4492","title":"万航渡路","lon":"121.408267586","lat":"31.2199143293","category":"500","category_name":"未知分类","address":"上海万航渡路"},{"poiid":"B2094757D069A6F4469D","title":"全家便利(虹桥机场店)","lon":"121.405636","lat":"31.218717","category":"117","category_name":"便民商店/便利店","address":"上海长宁区虹桥机场2号航站楼内"},{"poiid":"B2094757D06FAAF44298","title":"艺林盲人按摩院(长宁店)","lon":"121.40361","lat":"31.21796","category":"149","category_name":"洗浴推拿场所","address":"长宁区长宁路1842号"},{"poiid":"B2094655D26FA6F84998","title":"华东师范大学对外汉语学院(西门)","lon":"121.40282","lat":"31.222","category":"52","category_name":"高等院校","address":"枣阳路896"},{"poiid":"B2094757D66BA3F44999","title":"苏河湾","lon":"121.406163","lat":"31.2205512","category":"94","category_name":"西餐厅","address":"长宁区万航渡路2452号DOHO创意园区3楼屋顶花园(近娄山关路)"},{"poiid":"B2094757D06FA7FD4898","title":"华师大文史楼","lon":"121.403717983","lat":"31.2205415171","category":"253","category_name":"校园生活","address":"上海中山北路3663"},{"poiid":"B2094757D16EA4F94992","title":"华东师范大学物理楼","lon":"121.405059186","lat":"31.2258269449","category":"253","category_name":"校园生活","address":"上海闵行区中山北路3663号华东师范大学中山北路校区"},{"poiid":"B2094654D56BA4F9469C","title":"华东师范大学留学生公寓","lon":"121.40398","lat":"31.22225","category":"47","category_name":"住宅区","address":"枣阳路896"},{"poiid":"B2094757D06BABF94892","title":"华师大设计学院","lon":"121.40263158","lat":"31.221334257","category":"253","category_name":"校园生活","address":"上海华东师范大学"},{"poiid":"B2094757D068A2FA4899","title":"红腊餐饮","lon":"121.40179543697","lat":"31.228735765565","category":"76","category_name":"上海菜","address":"普陀区枣阳路477号(近华师大后门)"},{"poiid":"B2094753D265A6F9469C","title":"HBC华谊兄弟上海影院","lon":"121.40096","lat":"31.22136","category":"178","category_name":"电影院","address":"大渡河路196号长风景畔广场5层"},{"poiid":"B2094757D16CABFE4398","title":"华东师范大学 科学会堂","lon":"121.406528586","lat":"31.2266953619","category":"500","category_name":"未知分类","address":"上海市普陀区枣阳路"},{"poiid":"B2094757D165AAF84493","title":"宁悦人家","lon":"121.404210586","lat":"31.2179331905","category":"76","category_name":"上海菜","address":"长宁区长宁路1796号(近娄山关路)"},{"poiid":"B2094654D56BA4F94592","title":"文沁苑","lon":"121.40398","lat":"31.221649","category":"47","category_name":"住宅区","address":"光复西路2297弄"},{"poiid":"B2094654D56BA4F4489E","title":"清宁小区","lon":"121.40678","lat":"31.219639","category":"47","category_name":"住宅区","address":"万航渡路2505弄21-46"},{"poiid":"B2094654D56BA4F5459F","title":"风华水岸","lon":"121.4016","lat":"31.222267","category":"47","category_name":"住宅区","address":"上海枣阳路891弄"},{"poiid":"B2094757D16CA7F4419A","title":"华东师范大学对外汉语学院教学楼附楼","lon":"121.403753671","lat":"31.223266789","category":"500","category_name":"未知分类","address":"上海中山北路3663号华东师范大学内(近枣阳路896号)"},{"poiid":"B2094757D065A5F4489E","title":"延安初级中学","lon":"121.40343233","lat":"31.221183504","category":"55","category_name":"中学","address":"上海延安西路601号"},{"poiid":"B2094757D16BABFB439E","title":"新渡口","lon":"121.404469653","lat":"31.2232308858","category":"500","category_name":"未知分类","address":"上海光复西路2213弄"},{"poiid":"B2094757D069A0F5479E","title":"春草堂足疗(长宁店)","lon":"121.40519","lat":"31.218","category":"149","category_name":"洗浴推拿场所","address":"上海长宁区长宁路1798号(近娄山关路)  "},{"poiid":"B2094655D26AABFA419A","title":"锦江之星上海长宁店","lon":"121.40729","lat":"31.21788","category":"250","category_name":"公园户外","address":"上海长宁区长宁路1600弄5号(近遵义路)  "},{"poiid":"B2094757D16BA0FA479E","title":"蓝蛙","lon":"121.403091586","lat":"31.2226672831","category":"500","category_name":"未知分类","address":"上海辛耕路135号永新坊B1楼"},{"poiid":"B2094757D065A2FE409B","title":"华东师范大学 新四教室","lon":"121.40344243","lat":"31.22457398","category":"253","category_name":"校园生活","address":"上海中山北路校区"},{"poiid":"B2094655D26DA7FC4892","title":"风华水岸(东门)","lon":"121.40251","lat":"31.22219","category":"47","category_name":"住宅区","address":"枣阳路891弄"},{"poiid":"B2094757D065ABFE459D","title":"全家便利(娄山关路店)","lon":"121.40493608","lat":"31.223218543","category":"117","category_name":"便民商店/便利店","address":"上海长宁区2号线西延伸段娄山关路站2号出口2-104号"},{"poiid":"B2094654D56BA1FF4099","title":"虹桥电子广场","lon":"121.403","lat":"31.2206","category":"46","category_name":"楼宇","address":"长宁区天山支路160,168号"},{"poiid":"B2094654DB6BA7FE499F","title":"文沁苑(南门)","lon":"121.40366","lat":"31.22103","category":"47","category_name":"住宅区","address":"光复西路2297弄"},{"poiid":"B2094655D26EA5F5479D","title":"大洋海底世界","lon":"121.39955","lat":"31.22399","category":"199","category_name":"水族馆","address":"大渡河路451号长风公园4号门内"},{"poiid":"B2094654D56BA4FA4899","title":"黎金苑","lon":"121.40803","lat":"31.22338","category":"47","category_name":"住宅区","address":"光复西路2077弄1-89号"},{"poiid":"B2094757DB69A7F44799","title":"和米堂","lon":"121.403828","lat":"31.218376","category":"95","category_name":"日本料理","address":"长宁区长宁路820号上海小马路美食街轻食区-10商铺"},{"poiid":"B2094654D56BA4F94598","title":"解放食品商店","lon":"121.40547","lat":"31.22133","category":"117","category_name":"便民商店/便利店","address":"光复西路2205"},{"poiid":"B2094654DB6BA7FF439B","title":"长风公园","lon":"121.39952","lat":"31.22399","category":"196","category_name":"公园","address":"普陀区枣阳路510号(近华师大后门)"},{"poiid":"B2094757D06FA7F9469E","title":"长风海洋世界极地白鲸表演馆","lon":"121.39928374","lat":"31.223985756","category":"196","category_name":"公园","address":"上海普陀区枣阳路525号长风公园内"},{"poiid":"B2094654DB6BA7FF439A","title":"上海长风海洋世界","lon":"121.39955","lat":"31.22399","category":"196","category_name":"公园","address":"大渡河路451"},{"poiid":"B2094757D06FA3F4489C","title":"和记小菜(长宁店)","lon":"121.40547","lat":"31.2172","category":"76","category_name":"上海菜","address":"长宁区娄山关路999弄79号春天花园会所(近长宁路)"},{"poiid":"B2094757D06FA7FD409E","title":"迪士卡卡丁车赛车馆(Disckart Indoor Karting)","lon":"121.40163","lat":"31.22478","category":"220","category_name":"运动场所","address":"普陀区枣阳路809号长风公园附近(近华师大后门)"},{"poiid":"B2094655D36CA5F9419B","title":"长宁路娄山关路","lon":"121.40622","lat":"31.21751","category":"38","category_name":"公交车站","address":""},{"poiid":"B2094757D06FA2FC489A","title":"思创大厦","lon":"121.403","lat":"31.2197","category":"46","category_name":"楼宇","address":"上海市长宁区天山路600弄3-4号楼"},{"poiid":"B2094655D26DAAF44999","title":"华东师范大学逸夫楼","lon":"121.40685","lat":"31.22623","category":"52","category_name":"高等院校","address":"上海闵行区中山北路3663号华东师范大学中山北路校区"},{"poiid":"B2094757D068AAFF409F","title":"周家桥创意园","lon":"121.40578658","lat":"31.220065232","category":"46","category_name":"楼宇","address":"长宁区万航渡路2453号(华阳路万航渡路)"},{"poiid":"B2094757D06FA5F4469A","title":"华东师范大学理科大楼","lon":"121.40352825","lat":"31.227578924","category":"253","category_name":"校园生活","address":"上海普陀区中山北路3663号华东师范大学中山北路校区"},{"poiid":"B2094654D56BA4FA439C","title":"华东师范大学","lon":"121.40639","lat":"31.22835","category":"671","category_name":"高校中心点","address":"上海市普陀区中山北路3663号"},{"poiid":"B2094757D06AA3F5479E","title":"华师大 对外汉语学院","lon":"121.403979","lat":"31.222253","category":"253","category_name":"校园生活","address":"上海枣阳路896"},{"poiid":"B2094757D06FABF5439D","title":"春天花园","lon":"121.4038","lat":"31.217037","category":"47","category_name":"住宅区","address":"长宁区娄山关路999弄(近长宁路)"},{"poiid":"B2094654D56BA4F4469F","title":"上海花城","lon":"121.40445","lat":"31.21896","category":"47","category_name":"住宅区","address":"普陀区澳门路519号华生大厦2号楼2202室(近普陀路)查看地图"},{"poiid":"B2094757D069A0FA409D","title":"虹桥河滨公园","lon":"121.40090251","lat":"31.219385867","category":"196","category_name":"公园","address":"长宁区长宁路2080号(锦屏路口)"},{"poiid":"B2094757D16DA1F5469F","title":"虹桥河滨花园","lon":"121.40254","lat":"31.219532","category":"47","category_name":"住宅区","address":"上海市长宁区长宁路1898弄"},{"poiid":"B2094757D068A3FC429A","title":"同达创业大厦","lon":"121.403","lat":"31.2189","category":"46","category_name":"楼宇","address":"朝阳华威桥东北角"},{"poiid":"B2094757D06FA6F84998","title":"威尔士健身会所(长宁店)","lon":"121.40599","lat":"31.21729","category":"221","category_name":"健身中心","address":"长宁区娄山关路999号春天花园(近长宁路)"},{"poiid":"B2094655D26DA2FC429E","title":"DOHO","lon":"121.40579871717932","lat":"31.220632293765263","category":"45","category_name":"产业园区","address":"上海市长宁区万航渡路2452号"},{"poiid":"B2094757D164AAFB4492","title":"万航渡路","lon":"121.408267586","lat":"31.2199143293","category":"500","category_name":"未知分类","address":"上海万航渡路"},{"poiid":"B2094757D069A6F4469D","title":"全家便利(虹桥机场店)","lon":"121.405636","lat":"31.218717","category":"117","category_name":"便民商店/便利店","address":"上海长宁区虹桥机场2号航站楼内"},{"poiid":"B2094757D06FAAF44298","title":"艺林盲人按摩院(长宁店)","lon":"121.40361","lat":"31.21796","category":"149","category_name":"洗浴推拿场所","address":"长宁区长宁路1842号"},{"poiid":"B2094655D26FA6F84998","title":"华东师范大学对外汉语学院(西门)","lon":"121.40282","lat":"31.222","category":"52","category_name":"高等院校","address":"枣阳路896"},{"poiid":"B2094757D66BA3F44999","title":"苏河湾","lon":"121.406163","lat":"31.2205512","category":"94","category_name":"西餐厅","address":"长宁区万航渡路2452号DOHO创意园区3楼屋顶花园(近娄山关路)"},{"poiid":"B2094757D06FA7FD4898","title":"华师大文史楼","lon":"121.403717983","lat":"31.2205415171","category":"253","category_name":"校园生活","address":"上海中山北路3663"},{"poiid":"B2094757D16EA4F94992","title":"华东师范大学物理楼","lon":"121.405059186","lat":"31.2258269449","category":"253","category_name":"校园生活","address":"上海闵行区中山北路3663号华东师范大学中山北路校区"},{"poiid":"B2094654D56BA4F9469C","title":"华东师范大学留学生公寓","lon":"121.40398","lat":"31.22225","category":"47","category_name":"住宅区","address":"枣阳路896"},{"poiid":"B2094757D06BABF94892","title":"华师大设计学院","lon":"121.40263158","lat":"31.221334257","category":"253","category_name":"校园生活","address":"上海华东师范大学"},{"poiid":"B2094757D068A2FA4899","title":"红腊餐饮","lon":"121.40179543697","lat":"31.228735765565","category":"76","category_name":"上海菜","address":"普陀区枣阳路477号(近华师大后门)"},{"poiid":"B2094753D265A6F9469C","title":"HBC华谊兄弟上海影院","lon":"121.40096","lat":"31.22136","category":"178","category_name":"电影院","address":"大渡河路196号长风景畔广场5层"},{"poiid":"B2094757D16CABFE4398","title":"华东师范大学 科学会堂","lon":"121.406528586","lat":"31.2266953619","category":"500","category_name":"未知分类","address":"上海市普陀区枣阳路"},{"poiid":"B2094757D165AAF84493","title":"宁悦人家","lon":"121.404210586","lat":"31.2179331905","category":"76","category_name":"上海菜","address":"长宁区长宁路1796号(近娄山关路)"},{"poiid":"B2094654D56BA4F94592","title":"文沁苑","lon":"121.40398","lat":"31.221649","category":"47","category_name":"住宅区","address":"光复西路2297弄"},{"poiid":"B2094654D56BA4F4489E","title":"清宁小区","lon":"121.40678","lat":"31.219639","category":"47","category_name":"住宅区","address":"万航渡路2505弄21-46"},{"poiid":"B2094654D56BA4F5459F","title":"风华水岸","lon":"121.4016","lat":"31.222267","category":"47","category_name":"住宅区","address":"上海枣阳路891弄"},{"poiid":"B2094757D16CA7F4419A","title":"华东师范大学对外汉语学院教学楼附楼","lon":"121.403753671","lat":"31.223266789","category":"500","category_name":"未知分类","address":"上海中山北路3663号华东师范大学内(近枣阳路896号)"},{"poiid":"B2094757D065A5F4489E","title":"延安初级中学","lon":"121.40343233","lat":"31.221183504","category":"55","category_name":"中学","address":"上海延安西路601号"},{"poiid":"B2094757D16BABFB439E","title":"新渡口","lon":"121.404469653","lat":"31.2232308858","category":"500","category_name":"未知分类","address":"上海光复西路2213弄"},{"poiid":"B2094757D069A0F5479E","title":"春草堂足疗(长宁店)","lon":"121.40519","lat":"31.218","category":"149","category_name":"洗浴推拿场所","address":"上海长宁区长宁路1798号(近娄山关路)  "},{"poiid":"B2094655D26AABFA419A","title":"锦江之星上海长宁店","lon":"121.40729","lat":"31.21788","category":"250","category_name":"公园户外","address":"上海长宁区长宁路1600弄5号(近遵义路)  "},{"poiid":"B2094757D16BA0FA479E","title":"蓝蛙","lon":"121.403091586","lat":"31.2226672831","category":"500","category_name":"未知分类","address":"上海辛耕路135号永新坊B1楼"},{"poiid":"B2094757D065A2FE409B","title":"华东师范大学 新四教室","lon":"121.40344243","lat":"31.22457398","category":"253","category_name":"校园生活","address":"上海中山北路校区"},{"poiid":"B2094655D26DA7FC4892","title":"风华水岸(东门)","lon":"121.40251","lat":"31.22219","category":"47","category_name":"住宅区","address":"枣阳路891弄"},{"poiid":"B2094757D065ABFE459D","title":"全家便利(娄山关路店)","lon":"121.40493608","lat":"31.223218543","category":"117","category_name":"便民商店/便利店","address":"上海长宁区2号线西延伸段娄山关路站2号出口2-104号"},{"poiid":"B2094654D56BA1FF4099","title":"虹桥电子广场","lon":"121.403","lat":"31.2206","category":"46","category_name":"楼宇","address":"长宁区天山支路160,168号"},{"poiid":"B2094654DB6BA7FE499F","title":"文沁苑(南门)","lon":"121.40366","lat":"31.22103","category":"47","category_name":"住宅区","address":"光复西路2297弄"},{"poiid":"B2094655D26EA5F5479D","title":"大洋海底世界","lon":"121.39955","lat":"31.22399","category":"199","category_name":"水族馆","address":"大渡河路451号长风公园4号门内"},{"poiid":"B2094654D56BA4FA4899","title":"黎金苑","lon":"121.40803","lat":"31.22338","category":"47","category_name":"住宅区","address":"光复西路2077弄1-89号"},{"poiid":"B2094757DB69A7F44799","title":"和米堂","lon":"121.403828","lat":"31.218376","category":"95","category_name":"日本料理","address":"长宁区长宁路820号上海小马路美食街轻食区-10商铺"},{"poiid":"B2094654D56BA4F94598","title":"解放食品商店","lon":"121.40547","lat":"31.22133","category":"117","category_name":"便民商店/便利店","address":"光复西路2205"}]