[{"poiid":"B2094655D268A4F9409F","title":"上海国金中心IFC","lon":"121.50226752034189","lat":"31.2362712719287","category":"119","category_name":"商场","address":"浦东新区世纪大道8号(近东泰路)"},{"poiid":"B2094757D06FABF54292","title":"丽思卡尔顿酒店(The Ritz-Carlton)","lon":"121.50138631619564","lat":"31.236426742043335","category":"213","category_name":"五星级宾馆","address":"上海浦东新区陆家嘴世纪大道8号上海国金中心(需至52楼办理入住手续)"},{"poiid":"B2094655D36DA6FE409E","title":"陆家嘴","lon":"121.50163","lat":"31.23807","category":"38","category_name":"公交车站","address":"时代金融中心"},{"poiid":"B209475CD564A7F84392","title":"上海滩浦东香格里拉店","lon":"121.50058","lat":"31.23634","category":"119","category_name":"商场","address":"浦东富成路33号香格里拉酒店内大堂层"},{"poiid":"B2094757D06EAAFF449F","title":"食尚港丽(国金店)","lon":"121.50596","lat":"31.23591","category":"72","category_name":"广东菜","address":"浦东新区世纪大道8号国金中心商场LG1-20号商铺(近东泰路)"},{"poiid":"B2094757D06FA2F8419C","title":"莫尔顿牛排坊","lon":"121.501268246","lat":"31.2370047514","category":"94","category_name":"西餐厅","address":"浦东新区世纪大道8号国金中心商场4楼15-16号商铺(近银城中路)"},{"poiid":"B2094757D06EAAFF459D","title":"Apple  Store 苹果官方零售店(上海浦东店)","lon":"121.50101869280331","lat":"31.23755114250053","category":"138","category_name":"家电电子卖场","address":"浦东新区陆家嘴世纪大道8号上海国金中心IFC商场LG2-27号"},{"poiid":"B2094757D06FA5FB4493","title":"东方明珠旋转餐厅","lon":"121.50184","lat":"31.23831","category":"268","category_name":"自助","address":"浦东新区世纪大道1号东方明珠电视塔(近二号线陆家嘴站)"},{"poiid":"B2094757D165A0FC4793","title":"东方明珠","lon":"121.501606738","lat":"31.2372364494","category":"500","category_name":"未知分类","address":"浦东世纪大道1号，坐落于黄浦江畔浦东陆家嘴嘴尖上，与外滩的万国建筑博览群隔江相望"},{"poiid":"B2094757D06EAAFB439A","title":"星巴克(国金中心店)","lon":"121.500683","lat":"31.23677","category":"260","category_name":"其他","address":"浦东新区世纪大道8号国金中心商场LG2楼(近银城中路)"},{"poiid":"B2094757D06FA3FC4392","title":"中银大厦","lon":"121.502753258","lat":"31.2385470983","category":"46","category_name":"楼宇","address":"上海浦东新区银城中路200号"},{"poiid":"B2094757D06FA2FF4398","title":"天家(国金中心店)","lon":"121.50596","lat":"31.23591","category":"95","category_name":"日本料理","address":"浦东新区世纪大道8号国金中心商场4楼(近东泰路)"},{"poiid":"B2094655D26BA1F4419B","title":"陆家嘴地铁站","lon":"121.50161","lat":"31.23788","category":"36","category_name":"地铁站","address":"上海轨道交通 二号线 轨交陆家嘴站"},{"poiid":"B2094757D06FA4F54099","title":"炉匠(炉端烧•酒)","lon":"121.50304973","lat":"31.236487433","category":"269","category_name":"烧烤","address":"浦东新区世纪大道8号国金中心商场L4-22号商铺(近银城西路)"},{"poiid":"B2094757D06FA3FD4392","title":"利苑(国金中心店)","lon":"121.501273278","lat":"31.2366628513","category":"47","category_name":"住宅区","address":"浦东新区世纪大道8号上海国金中心3楼(近陆家嘴东路)"},{"poiid":"B2094757D06FA0FB439D","title":"银座梅林","lon":"121.50311726","lat":"31.236394374","category":"95","category_name":"日本料理","address":"浦东新区世纪大道8号国金中心商场L4楼(近浦东大道)"},{"poiid":"B2094757D06FA1FB489B","title":"Haiku by Hatsune(国金中心店)","lon":"121.50596","lat":"31.23591","category":"95","category_name":"日本料理","address":"浦东新区世纪大道8号国金中心商场LG1楼36号铺(近东泰路)"},{"poiid":"B2094757D06FA7FD4099","title":"Godiva(国金中心店)","lon":"121.502431321","lat":"31.2363452182","category":"67","category_name":"甜品店","address":"浦东新区陆家嘴世纪大道8号国际金融中心B2楼LG2-36、37号铺(近东泰路)"},{"poiid":"B2094757DB64A6F9479F","title":"金牛苑越南菜馆（上海IFC商场店）","lon":"121.501","lat":"31.2366","category":"141","category_name":"服装鞋帽皮具店","address":"浦东新区世纪大道8号上海国金中心L3-19号(近东泰路)"},{"poiid":"B2094757D164A3FD419A","title":"Baker&Spice(国金中心店)","lon":"121.50242473","lat":"31.237036445","category":"67","category_name":"甜品店","address":"浦东新区世纪大道8号国金中心IFC商场LG层16室(近浦东大道)"},{"poiid":"B2094757D06FA5FB4292","title":"安薇塔英国茶体系 国金中心店 Annvita English Tea Company","lon":"121.50131","lat":"31.23663","category":"260","category_name":"其他","address":"浦东新区世纪大道8号国金中心商场LG2楼(近浦东大道)"},{"poiid":"B2094757D068A7FF469C","title":"Cova","lon":"121.50131","lat":"31.23663","category":"67","category_name":"甜品店","address":"浦东新区世纪大道8号国金中心商场L1楼30号商铺(近东泰路)"},{"poiid":"B2094757D06BA1FE449F","title":"COSTA COFFEE(国金中心店)","lon":"121.50132707050625","lat":"31.236917862206965","category":"65","category_name":"咖啡厅","address":"浦东新区世纪大道8号上海国金中心D座B1楼LG1-37室"},{"poiid":"B2094757D06EAAFA489E","title":"陆家嘴天桥","lon":"121.50079971","lat":"31.237515497","category":"260","category_name":"其他","address":"上海浦东新区陆家嘴中心地区"},{"poiid":"B2094757DB64A6F8419B","title":"正斗粥面专家（上海IFC商场店）","lon":"121.501","lat":"31.2366","category":"141","category_name":"服装鞋帽皮具店","address":"上海浦东新区世纪大道8号国际金融中心 上海IFC商场三层"},{"poiid":"B2094757D06EABF5459A","title":"City Super 超生活(国金中心店)","lon":"121.501665","lat":"31.236665","category":"118","category_name":"超级市场","address":"上海浦东新区世纪大道8号国际金融中心B2楼"},{"poiid":"B2094757D068A1F8459B","title":"汇丰银行大楼","lon":"121.50146652","lat":"31.236643826","category":"500","category_name":"未知分类","address":"浦东新区世纪大道8号上海国金中心"},{"poiid":"B2094757D068ABF54492","title":"星美正大影城六號廳","lon":"121.501231968","lat":"31.2374576441","category":"500","category_name":"未知分类","address":"上海浦东新区陆家嘴西路168号正大广场8楼"},{"poiid":"B2094757DB64AAFD4098","title":"丸金日式拉面（上海IFC商场店）","lon":"121.501","lat":"31.2366","category":"247","category_name":"餐饮美食","address":"浦东新区世纪大道8号国金中心"},{"poiid":"B2094757D06FA5FD499E","title":"星巴克Starbucks(东方浮庭店)","lon":"121.501809489","lat":"31.2383870977","category":"260","category_name":"其他","address":"浦东新区世纪大道55号东方浮庭2楼(近陆家嘴东路)"},{"poiid":"B2094757D06FA2FB4498","title":"PANKOO釜山料理(国金中心店)","lon":"121.50154973","lat":"31.236637341","category":"96","category_name":"韩国料理","address":"浦东新区世纪大道8号国金中心商场4楼(近浦东大道)"},{"poiid":"B2094757D06FA6F9479A","title":"交银金融大厦","lon":"121.50331115","lat":"31.238565444","category":"46","category_name":"楼宇","address":"碧云东壹栋位于浦东金藏路51号(浙桥路口)"},{"poiid":"B2094757D06FABFC439E","title":"Aura","lon":"121.501827738","lat":"31.2367564392","category":"260","category_name":"其他","address":"浦东新区世纪大道8号上海国金中心丽思卡尔顿酒店52楼(东泰路世纪大道)"},{"poiid":"B2094750D268A5FA439A","title":"俏江南 国金中心店 South Beauty","lon":"121.50131","lat":"31.23663","category":"71","category_name":"四川菜","address":"世纪大道8号上海国际金融中心(国金中心)4楼近银城中路"},{"poiid":"B2094757D068A6FF4099","title":"Whittard of Chelsea","lon":"121.502784738","lat":"31.2368724417","category":"113","category_name":"冷饮店","address":"陆家嘴世纪大道8号上海国金中心D座四层L4-12室"},{"poiid":"B2094757D06FA3FA419E","title":"瓢六(国金中心店)","lon":"121.50596","lat":"31.23591","category":"95","category_name":"日本料理","address":"浦东新区世纪大道8号国金中心商场B2楼C-2号商铺(近东泰路)"},{"poiid":"B2094757D66CABFF4198","title":"蘇浙總會(国金中心店)","lon":"121.502735738","lat":"31.2373164511","category":"248","category_name":"生活娱乐","address":"上海浦东新区世纪大道8号国金中心L4"},{"poiid":"B2094757D16FA6FA459F","title":"陸家嘴","lon":"121.502214738","lat":"31.2382874718","category":"500","category_name":"未知分类","address":"上海市浦东新区丰和路"},{"poiid":"B2094757D06FA7FB409A","title":"东方既白(小陆家嘴店)","lon":"121.50165713","lat":"31.238781115","category":"68","category_name":"快餐厅","address":"浦东新区世纪大道55号东方浮庭1楼(近东方明珠)"},{"poiid":"B2094757D06FA7FD4799","title":"圣久代","lon":"121.502195738","lat":"31.2372974507","category":"113","category_name":"冷饮店","address":"浦东新区世纪大道8号国金中心IFC商场LG2(近CitySuper)"},{"poiid":"B2094757D068ABF5499F","title":"Haiku隐泉之语","lon":"121.50104992","lat":"31.236761629","category":"95","category_name":"日本料理","address":"上海ifc国金店"},{"poiid":"B2094757D16EABFB4793","title":"Latina","lon":"121.50173373","lat":"31.237477454","category":"500","category_name":"未知分类","address":"上海陆家嘴环路165号"},{"poiid":"B2094757D16DAAFB4693","title":"ifc俏江南","lon":"121.503631738","lat":"31.2372784503","category":"500","category_name":"未知分类","address":"上海市浦东新区世纪大道"},{"poiid":"B2094757D66EA5F9469A","title":"唐宫海鲜坊","lon":"121.50139373","lat":"31.237452454","category":"247","category_name":"餐饮美食","address":"上海浦东新区规二路"},{"poiid":"B2094750D365ABF94092","title":"正大广场星美国际影城3号厅","lon":"121.501655","lat":"31.237243","category":"500","category_name":"未知分类","address":null},{"poiid":"B2094655D26AA0FA469F","title":"地铁陆家嘴站","lon":"121.50163","lat":"31.23807","category":"36","category_name":"地铁站","address":""},{"poiid":"B2094753D36EA0F8419C","title":"乐新皇朝","lon":"121.501285","lat":"31.236626","category":"68","category_name":"快餐厅","address":"世纪大道8号IFC商场L3-36"},{"poiid":"B2094757D66FA1FE469E","title":"Flair","lon":"121.501119738","lat":"31.2368084403","category":"500","category_name":"未知分类","address":"上海The,Ritz,Carlton"},{"poiid":"B2094757D06AABF4439D","title":"釜山料理","lon":"121.50271673","lat":"31.236967443","category":"247","category_name":"餐饮美食","address":"上海世纪大道8号国金中心商场4楼"},{"poiid":"B2094757D16AA5FC469C","title":"上海板长寿司（国金中心店）","lon":"121.50117573","lat":"31.237380452","category":"247","category_name":"餐饮美食","address":"浦东新区世纪大道8号国金中心LG1-18号商铺(近东泰路)"},{"poiid":"B2094655D268A4F9409F","title":"上海国金中心IFC","lon":"121.50226752034189","lat":"31.2362712719287","category":"119","category_name":"商场","address":"浦东新区世纪大道8号(近东泰路)"},{"poiid":"B2094757D06FABF54292","title":"丽思卡尔顿酒店(The Ritz-Carlton)","lon":"121.50138631619564","lat":"31.236426742043335","category":"213","category_name":"五星级宾馆","address":"上海浦东新区陆家嘴世纪大道8号上海国金中心(需至52楼办理入住手续)"},{"poiid":"B2094655D36DA6FE409E","title":"陆家嘴","lon":"121.50163","lat":"31.23807","category":"38","category_name":"公交车站","address":"时代金融中心"},{"poiid":"B209475CD564A7F84392","title":"上海滩浦东香格里拉店","lon":"121.50058","lat":"31.23634","category":"119","category_name":"商场","address":"浦东富成路33号香格里拉酒店内大堂层"},{"poiid":"B2094757D06EAAFF449F","title":"食尚港丽(国金店)","lon":"121.50596","lat":"31.23591","category":"72","category_name":"广东菜","address":"浦东新区世纪大道8号国金中心商场LG1-20号商铺(近东泰路)"},{"poiid":"B2094757D06FA2F8419C","title":"莫尔顿牛排坊","lon":"121.501268246","lat":"31.2370047514","category":"94","category_name":"西餐厅","address":"浦东新区世纪大道8号国金中心商场4楼15-16号商铺(近银城中路)"},{"poiid":"B2094757D06EAAFF459D","title":"Apple  Store 苹果官方零售店(上海浦东店)","lon":"121.50101869280331","lat":"31.23755114250053","category":"138","category_name":"家电电子卖场","address":"浦东新区陆家嘴世纪大道8号上海国金中心IFC商场LG2-27号"},{"poiid":"B2094757D06FA5FB4493","title":"东方明珠旋转餐厅","lon":"121.50184","lat":"31.23831","category":"268","category_name":"自助","address":"浦东新区世纪大道1号东方明珠电视塔(近二号线陆家嘴站)"},{"poiid":"B2094757D165A0FC4793","title":"东方明珠","lon":"121.501606738","lat":"31.2372364494","category":"500","category_name":"未知分类","address":"浦东世纪大道1号，坐落于黄浦江畔浦东陆家嘴嘴尖上，与外滩的万国建筑博览群隔江相望"},{"poiid":"B2094757D06EAAFB439A","title":"星巴克(国金中心店)","lon":"121.500683","lat":"31.23677","category":"260","category_name":"其他","address":"浦东新区世纪大道8号国金中心商场LG2楼(近银城中路)"},{"poiid":"B2094757D06FA3FC4392","title":"中银大厦","lon":"121.502753258","lat":"31.2385470983","category":"46","category_name":"楼宇","address":"上海浦东新区银城中路200号"},{"poiid":"B2094757D06FA2FF4398","title":"天家(国金中心店)","lon":"121.50596","lat":"31.23591","category":"95","category_name":"日本料理","address":"浦东新区世纪大道8号国金中心商场4楼(近东泰路)"},{"poiid":"B2094655D26BA1F4419B","title":"陆家嘴地铁站","lon":"121.50161","lat":"31.23788","category":"36","category_name":"地铁站","address":"上海轨道交通 二号线 轨交陆家嘴站"},{"poiid":"B2094757D06FA4F54099","title":"炉匠(炉端烧•酒)","lon":"121.50304973","lat":"31.236487433","category":"269","category_name":"烧烤","address":"浦东新区世纪大道8号国金中心商场L4-22号商铺(近银城西路)"},{"poiid":"B2094757D06FA3FD4392","title":"利苑(国金中心店)","lon":"121.501273278","lat":"31.2366628513","category":"47","category_name":"住宅区","address":"浦东新区世纪大道8号上海国金中心3楼(近陆家嘴东路)"},{"poiid":"B2094757D06FA0FB439D","title":"银座梅林","lon":"121.50311726","lat":"31.236394374","category":"95","category_name":"日本料理","address":"浦东新区世纪大道8号国金中心商场L4楼(近浦东大道)"},{"poiid":"B2094757D06FA1FB489B","title":"Haiku by Hatsune(国金中心店)","lon":"121.50596","lat":"31.23591","category":"95","category_name":"日本料理","address":"浦东新区世纪大道8号国金中心商场LG1楼36号铺(近东泰路)"},{"poiid":"B2094757D06FA7FD4099","title":"Godiva(国金中心店)","lon":"121.502431321","lat":"31.2363452182","category":"67","category_name":"甜品店","address":"浦东新区陆家嘴世纪大道8号国际金融中心B2楼LG2-36、37号铺(近东泰路)"},{"poiid":"B2094757DB64A6F9479F","title":"金牛苑越南菜馆（上海IFC商场店）","lon":"121.501","lat":"31.2366","category":"141","category_name":"服装鞋帽皮具店","address":"浦东新区世纪大道8号上海国金中心L3-19号(近东泰路)"},{"poiid":"B2094757D164A3FD419A","title":"Baker&Spice(国金中心店)","lon":"121.50242473","lat":"31.237036445","category":"67","category_name":"甜品店","address":"浦东新区世纪大道8号国金中心IFC商场LG层16室(近浦东大道)"},{"poiid":"B2094757D06FA5FB4292","title":"安薇塔英国茶体系 国金中心店 Annvita English Tea Company","lon":"121.50131","lat":"31.23663","category":"260","category_name":"其他","address":"浦东新区世纪大道8号国金中心商场LG2楼(近浦东大道)"},{"poiid":"B2094757D068A7FF469C","title":"Cova","lon":"121.50131","lat":"31.23663","category":"67","category_name":"甜品店","address":"浦东新区世纪大道8号国金中心商场L1楼30号商铺(近东泰路)"},{"poiid":"B2094757D06BA1FE449F","title":"COSTA COFFEE(国金中心店)","lon":"121.50132707050625","lat":"31.236917862206965","category":"65","category_name":"咖啡厅","address":"浦东新区世纪大道8号上海国金中心D座B1楼LG1-37室"},{"poiid":"B2094757D06EAAFA489E","title":"陆家嘴天桥","lon":"121.50079971","lat":"31.237515497","category":"260","category_name":"其他","address":"上海浦东新区陆家嘴中心地区"},{"poiid":"B2094757DB64A6F8419B","title":"正斗粥面专家（上海IFC商场店）","lon":"121.501","lat":"31.2366","category":"141","category_name":"服装鞋帽皮具店","address":"上海浦东新区世纪大道8号国际金融中心 上海IFC商场三层"},{"poiid":"B2094757D06EABF5459A","title":"City Super 超生活(国金中心店)","lon":"121.501665","lat":"31.236665","category":"118","category_name":"超级市场","address":"上海浦东新区世纪大道8号国际金融中心B2楼"},{"poiid":"B2094757D068A1F8459B","title":"汇丰银行大楼","lon":"121.50146652","lat":"31.236643826","category":"500","category_name":"未知分类","address":"浦东新区世纪大道8号上海国金中心"},{"poiid":"B2094757D068ABF54492","title":"星美正大影城六號廳","lon":"121.501231968","lat":"31.2374576441","category":"500","category_name":"未知分类","address":"上海浦东新区陆家嘴西路168号正大广场8楼"},{"poiid":"B2094757DB64AAFD4098","title":"丸金日式拉面（上海IFC商场店）","lon":"121.501","lat":"31.2366","category":"247","category_name":"餐饮美食","address":"浦东新区世纪大道8号国金中心"},{"poiid":"B2094757D06FA5FD499E","title":"星巴克Starbucks(东方浮庭店)","lon":"121.501809489","lat":"31.2383870977","category":"260","category_name":"其他","address":"浦东新区世纪大道55号东方浮庭2楼(近陆家嘴东路)"},{"poiid":"B2094757D06FA2FB4498","title":"PANKOO釜山料理(国金中心店)","lon":"121.50154973","lat":"31.236637341","category":"96","category_name":"韩国料理","address":"浦东新区世纪大道8号国金中心商场4楼(近浦东大道)"},{"poiid":"B2094757D06FA6F9479A","title":"交银金融大厦","lon":"121.50331115","lat":"31.238565444","category":"46","category_name":"楼宇","address":"碧云东壹栋位于浦东金藏路51号(浙桥路口)"},{"poiid":"B2094757D06FABFC439E","title":"Aura","lon":"121.501827738","lat":"31.2367564392","category":"260","category_name":"其他","address":"浦东新区世纪大道8号上海国金中心丽思卡尔顿酒店52楼(东泰路世纪大道)"},{"poiid":"B2094750D268A5FA439A","title":"俏江南 国金中心店 South Beauty","lon":"121.50131","lat":"31.23663","category":"71","category_name":"四川菜","address":"世纪大道8号上海国际金融中心(国金中心)4楼近银城中路"},{"poiid":"B2094757D068A6FF4099","title":"Whittard of Chelsea","lon":"121.502784738","lat":"31.2368724417","category":"113","category_name":"冷饮店","address":"陆家嘴世纪大道8号上海国金中心D座四层L4-12室"},{"poiid":"B2094757D06FA3FA419E","title":"瓢六(国金中心店)","lon":"121.50596","lat":"31.23591","category":"95","category_name":"日本料理","address":"浦东新区世纪大道8号国金中心商场B2楼C-2号商铺(近东泰路)"},{"poiid":"B2094757D66CABFF4198","title":"蘇浙總會(国金中心店)","lon":"121.502735738","lat":"31.2373164511","category":"248","category_name":"生活娱乐","address":"上海浦东新区世纪大道8号国金中心L4"},{"poiid":"B2094757D16FA6FA459F","title":"陸家嘴","lon":"121.502214738","lat":"31.2382874718","category":"500","category_name":"未知分类","address":"上海市浦东新区丰和路"},{"poiid":"B2094757D06FA7FB409A","title":"东方既白(小陆家嘴店)","lon":"121.50165713","lat":"31.238781115","category":"68","category_name":"快餐厅","address":"浦东新区世纪大道55号东方浮庭1楼(近东方明珠)"},{"poiid":"B2094757D06FA7FD4799","title":"圣久代","lon":"121.502195738","lat":"31.2372974507","category":"113","category_name":"冷饮店","address":"浦东新区世纪大道8号国金中心IFC商场LG2(近CitySuper)"},{"poiid":"B2094757D068ABF5499F","title":"Haiku隐泉之语","lon":"121.50104992","lat":"31.236761629","category":"95","category_name":"日本料理","address":"上海ifc国金店"},{"poiid":"B2094757D16EABFB4793","title":"Latina","lon":"121.50173373","lat":"31.237477454","category":"500","category_name":"未知分类","address":"上海陆家嘴环路165号"},{"poiid":"B2094757D16DAAFB4693","title":"ifc俏江南","lon":"121.503631738","lat":"31.2372784503","category":"500","category_name":"未知分类","address":"上海市浦东新区世纪大道"},{"poiid":"B2094757D66EA5F9469A","title":"唐宫海鲜坊","lon":"121.50139373","lat":"31.237452454","category":"247","category_name":"餐饮美食","address":"上海浦东新区规二路"},{"poiid":"B2094750D365ABF94092","title":"正大广场星美国际影城3号厅","lon":"121.501655","lat":"31.237243","category":"500","category_name":"未知分类","address":null},{"poiid":"B2094655D26AA0FA469F","title":"地铁陆家嘴站","lon":"121.50163","lat":"31.23807","category":"36","category_name":"地铁站","address":""},{"poiid":"B2094753D36EA0F8419C","title":"乐新皇朝","lon":"121.501285","lat":"31.236626","category":"68","category_name":"快餐厅","address":"世纪大道8号IFC商场L3-36"},{"poiid":"B2094757D66FA1FE469E","title":"Flair","lon":"121.501119738","lat":"31.2368084403","category":"500","category_name":"未知分类","address":"上海The,Ritz,Carlton"},{"poiid":"B2094757D06AABF4439D","title":"釜山料理","lon":"121.50271673","lat":"31.236967443","category":"247","category_name":"餐饮美食","address":"上海世纪大道8号国金中心商场4楼"},{"poiid":"B2094757D16AA5FC469C","title":"上海板长寿司（国金中心店）","lon":"121.50117573","lat":"31.237380452","category":"247","category_name":"餐饮美食","address":"浦东新区世纪大道8号国金中心LG1-18号商铺(近东泰路)"},{"poiid":"B2094655D268A4F9409F","title":"上海国金中心IFC","lon":"121.50226752034189","lat":"31.2362712719287","category":"119","category_name":"商场","address":"浦东新区世纪大道8号(近东泰路)"},{"poiid":"B2094757D06FABF54292","title":"丽思卡尔顿酒店(The Ritz-Carlton)","lon":"121.50138631619564","lat":"31.236426742043335","category":"213","category_name":"五星级宾馆","address":"上海浦东新区陆家嘴世纪大道8号上海国金中心(需至52楼办理入住手续)"},{"poiid":"B2094655D36DA6FE409E","title":"陆家嘴","lon":"121.50163","lat":"31.23807","category":"38","category_name":"公交车站","address":"时代金融中心"},{"poiid":"B209475CD564A7F84392","title":"上海滩浦东香格里拉店","lon":"121.50058","lat":"31.23634","category":"119","category_name":"商场","address":"浦东富成路33号香格里拉酒店内大堂层"},{"poiid":"B2094757D06EAAFF449F","title":"食尚港丽(国金店)","lon":"121.50596","lat":"31.23591","category":"72","category_name":"广东菜","address":"浦东新区世纪大道8号国金中心商场LG1-20号商铺(近东泰路)"},{"poiid":"B2094757D06FA2F8419C","title":"莫尔顿牛排坊","lon":"121.501268246","lat":"31.2370047514","category":"94","category_name":"西餐厅","address":"浦东新区世纪大道8号国金中心商场4楼15-16号商铺(近银城中路)"},{"poiid":"B2094757D06EAAFF459D","title":"Apple  Store 苹果官方零售店(上海浦东店)","lon":"121.50101869280331","lat":"31.23755114250053","category":"138","category_name":"家电电子卖场","address":"浦东新区陆家嘴世纪大道8号上海国金中心IFC商场LG2-27号"},{"poiid":"B2094757D06FA5FB4493","title":"东方明珠旋转餐厅","lon":"121.50184","lat":"31.23831","category":"268","category_name":"自助","address":"浦东新区世纪大道1号东方明珠电视塔(近二号线陆家嘴站)"},{"poiid":"B2094757D165A0FC4793","title":"东方明珠","lon":"121.501606738","lat":"31.2372364494","category":"500","category_name":"未知分类","address":"浦东世纪大道1号，坐落于黄浦江畔浦东陆家嘴嘴尖上，与外滩的万国建筑博览群隔江相望"},{"poiid":"B2094757D06EAAFB439A","title":"星巴克(国金中心店)","lon":"121.500683","lat":"31.23677","category":"260","category_name":"其他","address":"浦东新区世纪大道8号国金中心商场LG2楼(近银城中路)"},{"poiid":"B2094757D06FA3FC4392","title":"中银大厦","lon":"121.502753258","lat":"31.2385470983","category":"46","category_name":"楼宇","address":"上海浦东新区银城中路200号"},{"poiid":"B2094757D06FA2FF4398","title":"天家(国金中心店)","lon":"121.50596","lat":"31.23591","category":"95","category_name":"日本料理","address":"浦东新区世纪大道8号国金中心商场4楼(近东泰路)"},{"poiid":"B2094655D26BA1F4419B","title":"陆家嘴地铁站","lon":"121.50161","lat":"31.23788","category":"36","category_name":"地铁站","address":"上海轨道交通 二号线 轨交陆家嘴站"},{"poiid":"B2094757D06FA4F54099","title":"炉匠(炉端烧•酒)","lon":"121.50304973","lat":"31.236487433","category":"269","category_name":"烧烤","address":"浦东新区世纪大道8号国金中心商场L4-22号商铺(近银城西路)"},{"poiid":"B2094757D06FA3FD4392","title":"利苑(国金中心店)","lon":"121.501273278","lat":"31.2366628513","category":"47","category_name":"住宅区","address":"浦东新区世纪大道8号上海国金中心3楼(近陆家嘴东路)"},{"poiid":"B2094757D06FA0FB439D","title":"银座梅林","lon":"121.50311726","lat":"31.236394374","category":"95","category_name":"日本料理","address":"浦东新区世纪大道8号国金中心商场L4楼(近浦东大道)"},{"poiid":"B2094757D06FA1FB489B","title":"Haiku by Hatsune(国金中心店)","lon":"121.50596","lat":"31.23591","category":"95","category_name":"日本料理","address":"浦东新区世纪大道8号国金中心商场LG1楼36号铺(近东泰路)"},{"poiid":"B2094757D06FA7FD4099","title":"Godiva(国金中心店)","lon":"121.502431321","lat":"31.2363452182","category":"67","category_name":"甜品店","address":"浦东新区陆家嘴世纪大道8号国际金融中心B2楼LG2-36、37号铺(近东泰路)"},{"poiid":"B2094757DB64A6F9479F","title":"金牛苑越南菜馆（上海IFC商场店）","lon":"121.501","lat":"31.2366","category":"141","category_name":"服装鞋帽皮具店","address":"浦东新区世纪大道8号上海国金中心L3-19号(近东泰路)"},{"poiid":"B2094757D164A3FD419A","title":"Baker&Spice(国金中心店)","lon":"121.50242473","lat":"31.237036445","category":"67","category_name":"甜品店","address":"浦东新区世纪大道8号国金中心IFC商场LG层16室(近浦东大道)"},{"poiid":"B2094757D06FA5FB4292","title":"安薇塔英国茶体系 国金中心店 Annvita English Tea Company","lon":"121.50131","lat":"31.23663","category":"260","category_name":"其他","address":"浦东新区世纪大道8号国金中心商场LG2楼(近浦东大道)"},{"poiid":"B2094757D068A7FF469C","title":"Cova","lon":"121.50131","lat":"31.23663","category":"67","category_name":"甜品店","address":"浦东新区世纪大道8号国金中心商场L1楼30号商铺(近东泰路)"},{"poiid":"B2094757D06BA1FE449F","title":"COSTA COFFEE(国金中心店)","lon":"121.50132707050625","lat":"31.236917862206965","category":"65","category_name":"咖啡厅","address":"浦东新区世纪大道8号上海国金中心D座B1楼LG1-37室"},{"poiid":"B2094757D06EAAFA489E","title":"陆家嘴天桥","lon":"121.50079971","lat":"31.237515497","category":"260","category_name":"其他","address":"上海浦东新区陆家嘴中心地区"},{"poiid":"B2094757DB64A6F8419B","title":"正斗粥面专家（上海IFC商场店）","lon":"121.501","lat":"31.2366","category":"141","category_name":"服装鞋帽皮具店","address":"上海浦东新区世纪大道8号国际金融中心 上海IFC商场三层"},{"poiid":"B2094757D06EABF5459A","title":"City Super 超生活(国金中心店)","lon":"121.501665","lat":"31.236665","category":"118","category_name":"超级市场","address":"上海浦东新区世纪大道8号国际金融中心B2楼"},{"poiid":"B2094757D068A1F8459B","title":"汇丰银行大楼","lon":"121.50146652","lat":"31.236643826","category":"500","category_name":"未知分类","address":"浦东新区世纪大道8号上海国金中心"},{"poiid":"B2094757D068ABF54492","title":"星美正大影城六號廳","lon":"121.501231968","lat":"31.2374576441","category":"500","category_name":"未知分类","address":"上海浦东新区陆家嘴西路168号正大广场8楼"},{"poiid":"B2094757DB64AAFD4098","title":"丸金日式拉面（上海IFC商场店）","lon":"121.501","lat":"31.2366","category":"247","category_name":"餐饮美食","address":"浦东新区世纪大道8号国金中心"},{"poiid":"B2094757D06FA5FD499E","title":"星巴克Starbucks(东方浮庭店)","lon":"121.501809489","lat":"31.2383870977","category":"260","category_name":"其他","address":"浦东新区世纪大道55号东方浮庭2楼(近陆家嘴东路)"},{"poiid":"B2094757D06FA2FB4498","title":"PANKOO釜山料理(国金中心店)","lon":"121.50154973","lat":"31.236637341","category":"96","category_name":"韩国料理","address":"浦东新区世纪大道8号国金中心商场4楼(近浦东大道)"},{"poiid":"B2094757D06FA6F9479A","title":"交银金融大厦","lon":"121.50331115","lat":"31.238565444","category":"46","category_name":"楼宇","address":"碧云东壹栋位于浦东金藏路51号(浙桥路口)"},{"poiid":"B2094757D06FABFC439E","title":"Aura","lon":"121.501827738","lat":"31.2367564392","category":"260","category_name":"其他","address":"浦东新区世纪大道8号上海国金中心丽思卡尔顿酒店52楼(东泰路世纪大道)"},{"poiid":"B2094750D268A5FA439A","title":"俏江南 国金中心店 South Beauty","lon":"121.50131","lat":"31.23663","category":"71","category_name":"四川菜","address":"世纪大道8号上海国际金融中心(国金中心)4楼近银城中路"},{"poiid":"B2094757D068A6FF4099","title":"Whittard of Chelsea","lon":"121.502784738","lat":"31.2368724417","category":"113","category_name":"冷饮店","address":"陆家嘴世纪大道8号上海国金中心D座四层L4-12室"},{"poiid":"B2094757D06FA3FA419E","title":"瓢六(国金中心店)","lon":"121.50596","lat":"31.23591","category":"95","category_name":"日本料理","address":"浦东新区世纪大道8号国金中心商场B2楼C-2号商铺(近东泰路)"},{"poiid":"B2094757D66CABFF4198","title":"蘇浙總會(国金中心店)","lon":"121.502735738","lat":"31.2373164511","category":"248","category_name":"生活娱乐","address":"上海浦东新区世纪大道8号国金中心L4"},{"poiid":"B2094757D16FA6FA459F","title":"陸家嘴","lon":"121.502214738","lat":"31.2382874718","category":"500","category_name":"未知分类","address":"上海市浦东新区丰和路"},{"poiid":"B2094757D06FA7FB409A","title":"东方既白(小陆家嘴店)","lon":"121.50165713","lat":"31.238781115","category":"68","category_name":"快餐厅","address":"浦东新区世纪大道55号东方浮庭1楼(近东方明珠)"},{"poiid":"B2094757D06FA7FD4799","title":"圣久代","lon":"121.502195738","lat":"31.2372974507","category":"113","category_name":"冷饮店","address":"浦东新区世纪大道8号国金中心IFC商场LG2(近CitySuper)"},{"poiid":"B2094757D068ABF5499F","title":"Haiku隐泉之语","lon":"121.50104992","lat":"31.236761629","category":"95","category_name":"日本料理","address":"上海ifc国金店"},{"poiid":"B2094757D16EABFB4793","title":"Latina","lon":"121.50173373","lat":"31.237477454","category":"500","category_name":"未知分类","address":"上海陆家嘴环路165号"},{"poiid":"B2094757D16DAAFB4693","title":"ifc俏江南","lon":"121.503631738","lat":"31.2372784503","category":"500","category_name":"未知分类","address":"上海市浦东新区世纪大道"},{"poiid":"B2094757D66EA5F9469A","title":"唐宫海鲜坊","lon":"121.50139373","lat":"31.237452454","category":"247","category_name":"餐饮美食","address":"上海浦东新区规二路"},{"poiid":"B2094750D365ABF94092","title":"正大广场星美国际影城3号厅","lon":"121.501655","lat":"31.237243","category":"500","category_name":"未知分类","address":null},{"poiid":"B2094655D26AA0FA469F","title":"地铁陆家嘴站","lon":"121.50163","lat":"31.23807","category":"36","category_name":"地铁站","address":""},{"poiid":"B2094753D36EA0F8419C","title":"乐新皇朝","lon":"121.501285","lat":"31.236626","category":"68","category_name":"快餐厅","address":"世纪大道8号IFC商场L3-36"},{"poiid":"B2094757D66FA1FE469E","title":"Flair","lon":"121.501119738","lat":"31.2368084403","category":"500","category_name":"未知分类","address":"上海The,Ritz,Carlton"},{"poiid":"B2094757D06AABF4439D","title":"釜山料理","lon":"121.50271673","lat":"31.236967443","category":"247","category_name":"餐饮美食","address":"上海世纪大道8号国金中心商场4楼"},{"poiid":"B2094757D16AA5FC469C","title":"上海板长寿司（国金中心店）","lon":"121.50117573","lat":"31.237380452","category":"247","category_name":"餐饮美食","address":"浦东新区世纪大道8号国金中心LG1-18号商铺(近东泰路)"},{"poiid":"B2094655D268A4F9409F","title":"上海国金中心IFC","lon":"121.50226752034189","lat":"31.2362712719287","category":"119","category_name":"商场","address":"浦东新区世纪大道8号(近东泰路)"},{"poiid":"B2094757D06FABF54292","title":"丽思卡尔顿酒店(The Ritz-Carlton)","lon":"121.50138631619564","lat":"31.236426742043335","category":"213","category_name":"五星级宾馆","address":"上海浦东新区陆家嘴世纪大道8号上海国金中心(需至52楼办理入住手续)"},{"poiid":"B2094655D36DA6FE409E","title":"陆家嘴","lon":"121.50163","lat":"31.23807","category":"38","category_name":"公交车站","address":"时代金融中心"},{"poiid":"B209475CD564A7F84392","title":"上海滩浦东香格里拉店","lon":"121.50058","lat":"31.23634","category":"119","category_name":"商场","address":"浦东富成路33号香格里拉酒店内大堂层"},{"poiid":"B2094757D06EAAFF449F","title":"食尚港丽(国金店)","lon":"121.50596","lat":"31.23591","category":"72","category_name":"广东菜","address":"浦东新区世纪大道8号国金中心商场LG1-20号商铺(近东泰路)"},{"poiid":"B2094757D06FA2F8419C","title":"莫尔顿牛排坊","lon":"121.501268246","lat":"31.2370047514","category":"94","category_name":"西餐厅","address":"浦东新区世纪大道8号国金中心商场4楼15-16号商铺(近银城中路)"},{"poiid":"B2094757D06EAAFF459D","title":"Apple  Store 苹果官方零售店(上海浦东店)","lon":"121.50101869280331","lat":"31.23755114250053","category":"138","category_name":"家电电子卖场","address":"浦东新区陆家嘴世纪大道8号上海国金中心IFC商场LG2-27号"},{"poiid":"B2094757D06FA5FB4493","title":"东方明珠旋转餐厅","lon":"121.50184","lat":"31.23831","category":"268","category_name":"自助","address":"浦东新区世纪大道1号东方明珠电视塔(近二号线陆家嘴站)"},{"poiid":"B2094757D165A0FC4793","title":"东方明珠","lon":"121.501606738","lat":"31.2372364494","category":"500","category_name":"未知分类","address":"浦东世纪大道1号，坐落于黄浦江畔浦东陆家嘴嘴尖上，与外滩的万国建筑博览群隔江相望"},{"poiid":"B2094757D06EAAFB439A","title":"星巴克(国金中心店)","lon":"121.500683","lat":"31.23677","category":"260","category_name":"其他","address":"浦东新区世纪大道8号国金中心商场LG2楼(近银城中路)"},{"poiid":"B2094757D06FA3FC4392","title":"中银大厦","lon":"121.502753258","lat":"31.2385470983","category":"46","category_name":"楼宇","address":"上海浦东新区银城中路200号"},{"poiid":"B2094757D06FA2FF4398","title":"天家(国金中心店)","lon":"121.50596","lat":"31.23591","category":"95","category_name":"日本料理","address":"浦东新区世纪大道8号国金中心商场4楼(近东泰路)"},{"poiid":"B2094655D26BA1F4419B","title":"陆家嘴地铁站","lon":"121.50161","lat":"31.23788","category":"36","category_name":"地铁站","address":"上海轨道交通 二号线 轨交陆家嘴站"},{"poiid":"B2094757D06FA4F54099","title":"炉匠(炉端烧•酒)","lon":"121.50304973","lat":"31.236487433","category":"269","category_name":"烧烤","address":"浦东新区世纪大道8号国金中心商场L4-22号商铺(近银城西路)"},{"poiid":"B2094757D06FA3FD4392","title":"利苑(国金中心店)","lon":"121.501273278","lat":"31.2366628513","category":"47","category_name":"住宅区","address":"浦东新区世纪大道8号上海国金中心3楼(近陆家嘴东路)"},{"poiid":"B2094757D06FA0FB439D","title":"银座梅林","lon":"121.50311726","lat":"31.236394374","category":"95","category_name":"日本料理","address":"浦东新区世纪大道8号国金中心商场L4楼(近浦东大道)"},{"poiid":"B2094757D06FA1FB489B","title":"Haiku by Hatsune(国金中心店)","lon":"121.50596","lat":"31.23591","category":"95","category_name":"日本料理","address":"浦东新区世纪大道8号国金中心商场LG1楼36号铺(近东泰路)"},{"poiid":"B2094757D06FA7FD4099","title":"Godiva(国金中心店)","lon":"121.502431321","lat":"31.2363452182","category":"67","category_name":"甜品店","address":"浦东新区陆家嘴世纪大道8号国际金融中心B2楼LG2-36、37号铺(近东泰路)"},{"poiid":"B2094757DB64A6F9479F","title":"金牛苑越南菜馆（上海IFC商场店）","lon":"121.501","lat":"31.2366","category":"141","category_name":"服装鞋帽皮具店","address":"浦东新区世纪大道8号上海国金中心L3-19号(近东泰路)"},{"poiid":"B2094757D164A3FD419A","title":"Baker&Spice(国金中心店)","lon":"121.50242473","lat":"31.237036445","category":"67","category_name":"甜品店","address":"浦东新区世纪大道8号国金中心IFC商场LG层16室(近浦东大道)"},{"poiid":"B2094757D06FA5FB4292","title":"安薇塔英国茶体系 国金中心店 Annvita English Tea Company","lon":"121.50131","lat":"31.23663","category":"260","category_name":"其他","address":"浦东新区世纪大道8号国金中心商场LG2楼(近浦东大道)"},{"poiid":"B2094757D068A7FF469C","title":"Cova","lon":"121.50131","lat":"31.23663","category":"67","category_name":"甜品店","address":"浦东新区世纪大道8号国金中心商场L1楼30号商铺(近东泰路)"},{"poiid":"B2094757D06BA1FE449F","title":"COSTA COFFEE(国金中心店)","lon":"121.50132707050625","lat":"31.236917862206965","category":"65","category_name":"咖啡厅","address":"浦东新区世纪大道8号上海国金中心D座B1楼LG1-37室"},{"poiid":"B2094757D06EAAFA489E","title":"陆家嘴天桥","lon":"121.50079971","lat":"31.237515497","category":"260","category_name":"其他","address":"上海浦东新区陆家嘴中心地区"},{"poiid":"B2094757DB64A6F8419B","title":"正斗粥面专家（上海IFC商场店）","lon":"121.501","lat":"31.2366","category":"141","category_name":"服装鞋帽皮具店","address":"上海浦东新区世纪大道8号国际金融中心 上海IFC商场三层"},{"poiid":"B2094757D06EABF5459A","title":"City Super 超生活(国金中心店)","lon":"121.501665","lat":"31.236665","category":"118","category_name":"超级市场","address":"上海浦东新区世纪大道8号国际金融中心B2楼"},{"poiid":"B2094757D068A1F8459B","title":"汇丰银行大楼","lon":"121.50146652","lat":"31.236643826","category":"500","category_name":"未知分类","address":"浦东新区世纪大道8号上海国金中心"},{"poiid":"B2094757D068ABF54492","title":"星美正大影城六號廳","lon":"121.501231968","lat":"31.2374576441","category":"500","category_name":"未知分类","address":"上海浦东新区陆家嘴西路168号正大广场8楼"},{"poiid":"B2094757DB64AAFD4098","title":"丸金日式拉面（上海IFC商场店）","lon":"121.501","lat":"31.2366","category":"247","category_name":"餐饮美食","address":"浦东新区世纪大道8号国金中心"},{"poiid":"B2094757D06FA5FD499E","title":"星巴克Starbucks(东方浮庭店)","lon":"121.501809489","lat":"31.2383870977","category":"260","category_name":"其他","address":"浦东新区世纪大道55号东方浮庭2楼(近陆家嘴东路)"},{"poiid":"B2094757D06FA2FB4498","title":"PANKOO釜山料理(国金中心店)","lon":"121.50154973","lat":"31.236637341","category":"96","category_name":"韩国料理","address":"浦东新区世纪大道8号国金中心商场4楼(近浦东大道)"},{"poiid":"B2094757D06FA6F9479A","title":"交银金融大厦","lon":"121.50331115","lat":"31.238565444","category":"46","category_name":"楼宇","address":"碧云东壹栋位于浦东金藏路51号(浙桥路口)"},{"poiid":"B2094757D06FABFC439E","title":"Aura","lon":"121.501827738","lat":"31.2367564392","category":"260","category_name":"其他","address":"浦东新区世纪大道8号上海国金中心丽思卡尔顿酒店52楼(东泰路世纪大道)"},{"poiid":"B2094750D268A5FA439A","title":"俏江南 国金中心店 South Beauty","lon":"121.50131","lat":"31.23663","category":"71","category_name":"四川菜","address":"世纪大道8号上海国际金融中心(国金中心)4楼近银城中路"},{"poiid":"B2094757D068A6FF4099","title":"Whittard of Chelsea","lon":"121.502784738","lat":"31.2368724417","category":"113","category_name":"冷饮店","address":"陆家嘴世纪大道8号上海国金中心D座四层L4-12室"},{"poiid":"B2094757D06FA3FA419E","title":"瓢六(国金中心店)","lon":"121.50596","lat":"31.23591","category":"95","category_name":"日本料理","address":"浦东新区世纪大道8号国金中心商场B2楼C-2号商铺(近东泰路)"},{"poiid":"B2094757D66CABFF4198","title":"蘇浙總會(国金中心店)","lon":"121.502735738","lat":"31.2373164511","category":"248","category_name":"生活娱乐","address":"上海浦东新区世纪大道8号国金中心L4"},{"poiid":"B2094757D16FA6FA459F","title":"陸家嘴","lon":"121.502214738","lat":"31.2382874718","category":"500","category_name":"未知分类","address":"上海市浦东新区丰和路"},{"poiid":"B2094757D06FA7FB409A","title":"东方既白(小陆家嘴店)","lon":"121.50165713","lat":"31.238781115","category":"68","category_name":"快餐厅","address":"浦东新区世纪大道55号东方浮庭1楼(近东方明珠)"},{"poiid":"B2094757D06FA7FD4799","title":"圣久代","lon":"121.502195738","lat":"31.2372974507","category":"113","category_name":"冷饮店","address":"浦东新区世纪大道8号国金中心IFC商场LG2(近CitySuper)"},{"poiid":"B2094757D068ABF5499F","title":"Haiku隐泉之语","lon":"121.50104992","lat":"31.236761629","category":"95","category_name":"日本料理","address":"上海ifc国金店"},{"poiid":"B2094757D16EABFB4793","title":"Latina","lon":"121.50173373","lat":"31.237477454","category":"500","category_name":"未知分类","address":"上海陆家嘴环路165号"},{"poiid":"B2094757D16DAAFB4693","title":"ifc俏江南","lon":"121.503631738","lat":"31.2372784503","category":"500","category_name":"未知分类","address":"上海市浦东新区世纪大道"},{"poiid":"B2094757D66EA5F9469A","title":"唐宫海鲜坊","lon":"121.50139373","lat":"31.237452454","category":"247","category_name":"餐饮美食","address":"上海浦东新区规二路"},{"poiid":"B2094750D365ABF94092","title":"正大广场星美国际影城3号厅","lon":"121.501655","lat":"31.237243","category":"500","category_name":"未知分类","address":null},{"poiid":"B2094655D26AA0FA469F","title":"地铁陆家嘴站","lon":"121.50163","lat":"31.23807","category":"36","category_name":"地铁站","address":""},{"poiid":"B2094753D36EA0F8419C","title":"乐新皇朝","lon":"121.501285","lat":"31.236626","category":"68","category_name":"快餐厅","address":"世纪大道8号IFC商场L3-36"},{"poiid":"B2094757D66FA1FE469E","title":"Flair","lon":"121.501119738","lat":"31.2368084403","category":"500","category_name":"未知分类","address":"上海The,Ritz,Carlton"},{"poiid":"B2094757D06AABF4439D","title":"釜山料理","lon":"121.50271673","lat":"31.236967443","category":"247","category_name":"餐饮美食","address":"上海世纪大道8号国金中心商场4楼"},{"poiid":"B2094757D16AA5FC469C","title":"上海板长寿司（国金中心店）","lon":"121.50117573","lat":"31.237380452","category":"247","category_name":"餐饮美食","address":"浦东新区世纪大道8号国金中心LG1-18号商铺(近东泰路)"},{"poiid":"B2094655D268A4F9409F","title":"上海国金中心IFC","lon":"121.50226752034189","lat":"31.2362712719287","category":"119","category_name":"商场","address":"浦东新区世纪大道8号(近东泰路)"},{"poiid":"B2094757D06FABF54292","title":"丽思卡尔顿酒店(The Ritz-Carlton)","lon":"121.50138631619564","lat":"31.236426742043335","category":"213","category_name":"五星级宾馆","address":"上海浦东新区陆家嘴世纪大道8号上海国金中心(需至52楼办理入住手续)"},{"poiid":"B2094655D36DA6FE409E","title":"陆家嘴","lon":"121.50163","lat":"31.23807","category":"38","category_name":"公交车站","address":"时代金融中心"},{"poiid":"B209475CD564A7F84392","title":"上海滩浦东香格里拉店","lon":"121.50058","lat":"31.23634","category":"119","category_name":"商场","address":"浦东富成路33号香格里拉酒店内大堂层"},{"poiid":"B2094757D06EAAFF449F","title":"食尚港丽(国金店)","lon":"121.50596","lat":"31.23591","category":"72","category_name":"广东菜","address":"浦东新区世纪大道8号国金中心商场LG1-20号商铺(近东泰路)"},{"poiid":"B2094757D06FA2F8419C","title":"莫尔顿牛排坊","lon":"121.501268246","lat":"31.2370047514","category":"94","category_name":"西餐厅","address":"浦东新区世纪大道8号国金中心商场4楼15-16号商铺(近银城中路)"},{"poiid":"B2094757D06EAAFF459D","title":"Apple  Store 苹果官方零售店(上海浦东店)","lon":"121.50101869280331","lat":"31.23755114250053","category":"138","category_name":"家电电子卖场","address":"浦东新区陆家嘴世纪大道8号上海国金中心IFC商场LG2-27号"},{"poiid":"B2094757D06FA5FB4493","title":"东方明珠旋转餐厅","lon":"121.50184","lat":"31.23831","category":"268","category_name":"自助","address":"浦东新区世纪大道1号东方明珠电视塔(近二号线陆家嘴站)"},{"poiid":"B2094757D165A0FC4793","title":"东方明珠","lon":"121.501606738","lat":"31.2372364494","category":"500","category_name":"未知分类","address":"浦东世纪大道1号，坐落于黄浦江畔浦东陆家嘴嘴尖上，与外滩的万国建筑博览群隔江相望"},{"poiid":"B2094757D06EAAFB439A","title":"星巴克(国金中心店)","lon":"121.500683","lat":"31.23677","category":"260","category_name":"其他","address":"浦东新区世纪大道8号国金中心商场LG2楼(近银城中路)"},{"poiid":"B2094757D06FA3FC4392","title":"中银大厦","lon":"121.502753258","lat":"31.2385470983","category":"46","category_name":"楼宇","address":"上海浦东新区银城中路200号"},{"poiid":"B2094757D06FA2FF4398","title":"天家(国金中心店)","lon":"121.50596","lat":"31.23591","category":"95","category_name":"日本料理","address":"浦东新区世纪大道8号国金中心商场4楼(近东泰路)"},{"poiid":"B2094655D26BA1F4419B","title":"陆家嘴地铁站","lon":"121.50161","lat":"31.23788","category":"36","category_name":"地铁站","address":"上海轨道交通 二号线 轨交陆家嘴站"},{"poiid":"B2094757D06FA4F54099","title":"炉匠(炉端烧•酒)","lon":"121.50304973","lat":"31.236487433","category":"269","category_name":"烧烤","address":"浦东新区世纪大道8号国金中心商场L4-22号商铺(近银城西路)"},{"poiid":"B2094757D06FA3FD4392","title":"利苑(国金中心店)","lon":"121.501273278","lat":"31.2366628513","category":"47","category_name":"住宅区","address":"浦东新区世纪大道8号上海国金中心3楼(近陆家嘴东路)"},{"poiid":"B2094757D06FA0FB439D","title":"银座梅林","lon":"121.50311726","lat":"31.236394374","category":"95","category_name":"日本料理","address":"浦东新区世纪大道8号国金中心商场L4楼(近浦东大道)"},{"poiid":"B2094757D06FA1FB489B","title":"Haiku by Hatsune(国金中心店)","lon":"121.50596","lat":"31.23591","category":"95","category_name":"日本料理","address":"浦东新区世纪大道8号国金中心商场LG1楼36号铺(近东泰路)"},{"poiid":"B2094757D06FA7FD4099","title":"Godiva(国金中心店)","lon":"121.502431321","lat":"31.2363452182","category":"67","category_name":"甜品店","address":"浦东新区陆家嘴世纪大道8号国际金融中心B2楼LG2-36、37号铺(近东泰路)"},{"poiid":"B2094757DB64A6F9479F","title":"金牛苑越南菜馆（上海IFC商场店）","lon":"121.501","lat":"31.2366","category":"141","category_name":"服装鞋帽皮具店","address":"浦东新区世纪大道8号上海国金中心L3-19号(近东泰路)"},{"poiid":"B2094757D164A3FD419A","title":"Baker&Spice(国金中心店)","lon":"121.50242473","lat":"31.237036445","category":"67","category_name":"甜品店","address":"浦东新区世纪大道8号国金中心IFC商场LG层16室(近浦东大道)"},{"poiid":"B2094757D06FA5FB4292","title":"安薇塔英国茶体系 国金中心店 Annvita English Tea Company","lon":"121.50131","lat":"31.23663","category":"260","category_name":"其他","address":"浦东新区世纪大道8号国金中心商场LG2楼(近浦东大道)"},{"poiid":"B2094757D068A7FF469C","title":"Cova","lon":"121.50131","lat":"31.23663","category":"67","category_name":"甜品店","address":"浦东新区世纪大道8号国金中心商场L1楼30号商铺(近东泰路)"},{"poiid":"B2094757D06BA1FE449F","title":"COSTA COFFEE(国金中心店)","lon":"121.50132707050625","lat":"31.236917862206965","category":"65","category_name":"咖啡厅","address":"浦东新区世纪大道8号上海国金中心D座B1楼LG1-37室"},{"poiid":"B2094757D06EAAFA489E","title":"陆家嘴天桥","lon":"121.50079971","lat":"31.237515497","category":"260","category_name":"其他","address":"上海浦东新区陆家嘴中心地区"},{"poiid":"B2094757DB64A6F8419B","title":"正斗粥面专家（上海IFC商场店）","lon":"121.501","lat":"31.2366","category":"141","category_name":"服装鞋帽皮具店","address":"上海浦东新区世纪大道8号国际金融中心 上海IFC商场三层"},{"poiid":"B2094757D06EABF5459A","title":"City Super 超生活(国金中心店)","lon":"121.501665","lat":"31.236665","category":"118","category_name":"超级市场","address":"上海浦东新区世纪大道8号国际金融中心B2楼"},{"poiid":"B2094757D068A1F8459B","title":"汇丰银行大楼","lon":"121.50146652","lat":"31.236643826","category":"500","category_name":"未知分类","address":"浦东新区世纪大道8号上海国金中心"},{"poiid":"B2094757D068ABF54492","title":"星美正大影城六號廳","lon":"121.501231968","lat":"31.2374576441","category":"500","category_name":"未知分类","address":"上海浦东新区陆家嘴西路168号正大广场8楼"},{"poiid":"B2094757DB64AAFD4098","title":"丸金日式拉面（上海IFC商场店）","lon":"121.501","lat":"31.2366","category":"247","category_name":"餐饮美食","address":"浦东新区世纪大道8号国金中心"},{"poiid":"B2094757D06FA5FD499E","title":"星巴克Starbucks(东方浮庭店)","lon":"121.501809489","lat":"31.2383870977","category":"260","category_name":"其他","address":"浦东新区世纪大道55号东方浮庭2楼(近陆家嘴东路)"},{"poiid":"B2094757D06FA2FB4498","title":"PANKOO釜山料理(国金中心店)","lon":"121.50154973","lat":"31.236637341","category":"96","category_name":"韩国料理","address":"浦东新区世纪大道8号国金中心商场4楼(近浦东大道)"},{"poiid":"B2094757D06FA6F9479A","title":"交银金融大厦","lon":"121.50331115","lat":"31.238565444","category":"46","category_name":"楼宇","address":"碧云东壹栋位于浦东金藏路51号(浙桥路口)"},{"poiid":"B2094757D06FABFC439E","title":"Aura","lon":"121.501827738","lat":"31.2367564392","category":"260","category_name":"其他","address":"浦东新区世纪大道8号上海国金中心丽思卡尔顿酒店52楼(东泰路世纪大道)"},{"poiid":"B2094750D268A5FA439A","title":"俏江南 国金中心店 South Beauty","lon":"121.50131","lat":"31.23663","category":"71","category_name":"四川菜","address":"世纪大道8号上海国际金融中心(国金中心)4楼近银城中路"},{"poiid":"B2094757D068A6FF4099","title":"Whittard of Chelsea","lon":"121.502784738","lat":"31.2368724417","category":"113","category_name":"冷饮店","address":"陆家嘴世纪大道8号上海国金中心D座四层L4-12室"},{"poiid":"B2094757D06FA3FA419E","title":"瓢六(国金中心店)","lon":"121.50596","lat":"31.23591","category":"95","category_name":"日本料理","address":"浦东新区世纪大道8号国金中心商场B2楼C-2号商铺(近东泰路)"},{"poiid":"B2094757D66CABFF4198","title":"蘇浙總會(国金中心店)","lon":"121.502735738","lat":"31.2373164511","category":"248","category_name":"生活娱乐","address":"上海浦东新区世纪大道8号国金中心L4"},{"poiid":"B2094757D16FA6FA459F","title":"陸家嘴","lon":"121.502214738","lat":"31.2382874718","category":"500","category_name":"未知分类","address":"上海市浦东新区丰和路"},{"poiid":"B2094757D06FA7FB409A","title":"东方既白(小陆家嘴店)","lon":"121.50165713","lat":"31.238781115","category":"68","category_name":"快餐厅","address":"浦东新区世纪大道55号东方浮庭1楼(近东方明珠)"},{"poiid":"B2094757D06FA7FD4799","title":"圣久代","lon":"121.502195738","lat":"31.2372974507","category":"113","category_name":"冷饮店","address":"浦东新区世纪大道8号国金中心IFC商场LG2(近CitySuper)"},{"poiid":"B2094757D068ABF5499F","title":"Haiku隐泉之语","lon":"121.50104992","lat":"31.236761629","category":"95","category_name":"日本料理","address":"上海ifc国金店"},{"poiid":"B2094757D16EABFB4793","title":"Latina","lon":"121.50173373","lat":"31.237477454","category":"500","category_name":"未知分类","address":"上海陆家嘴环路165号"},{"poiid":"B2094757D16DAAFB4693","title":"ifc俏江南","lon":"121.503631738","lat":"31.2372784503","category":"500","category_name":"未知分类","address":"上海市浦东新区世纪大道"},{"poiid":"B2094757D66EA5F9469A","title":"唐宫海鲜坊","lon":"121.50139373","lat":"31.237452454","category":"247","category_name":"餐饮美食","address":"上海浦东新区规二路"},{"poiid":"B2094750D365ABF94092","title":"正大广场星美国际影城3号厅","lon":"121.501655","lat":"31.237243","category":"500","category_name":"未知分类","address":null},{"poiid":"B2094655D26AA0FA469F","title":"地铁陆家嘴站","lon":"121.50163","lat":"31.23807","category":"36","category_name":"地铁站","address":""},{"poiid":"B2094753D36EA0F8419C","title":"乐新皇朝","lon":"121.501285","lat":"31.236626","category":"68","category_name":"快餐厅","address":"世纪大道8号IFC商场L3-36"},{"poiid":"B2094757D66FA1FE469E","title":"Flair","lon":"121.501119738","lat":"31.2368084403","category":"500","category_name":"未知分类","address":"上海The,Ritz,Carlton"},{"poiid":"B2094757D06AABF4439D","title":"釜山料理","lon":"121.50271673","lat":"31.236967443","category":"247","category_name":"餐饮美食","address":"上海世纪大道8号国金中心商场4楼"},{"poiid":"B2094757D16AA5FC469C","title":"上海板长寿司（国金中心店）","lon":"121.50117573","lat":"31.237380452","category":"247","category_name":"餐饮美食","address":"浦东新区世纪大道8号国金中心LG1-18号商铺(近东泰路)"}]