[{"poiid":"B2094757D06FA2FA429B","title":"上海国际时尚中心","lon":"121.55726862","lat":"31.270837313","category":"260","category_name":"其他","address":"杨浦区杨树浦路2866号(近内江路)"},{"poiid":"B2094750D76CA3FC4492","title":"金钱豹(杨树浦路店)","lon":"121.557","lat":"31.2714","category":"87","category_name":"特色／地方风味餐厅","address":"杨树浦路2866号(近内江路6月开业)"},{"poiid":"B2094757D06FA7F4409B","title":"金桥路浦东大道","lon":"121.570783","lat":"31.2663931","category":"260","category_name":"其他","address":"上海浦东新区金桥路浦东大道"},{"poiid":"B2094757D068A6FA4798","title":"沪东中华造船(集团)有限公司","lon":"121.574978","lat":"31.271862","category":"263","category_name":"公司","address":"上海浦东大道2851号"},{"poiid":"B2094752D36BA0F8479F","title":"星巴克(杨树浦路店)","lon":"121.557357","lat":"31.271385","category":"247","category_name":"餐饮美食","address":"杨浦区杨树浦路2866号(近内江路)"},{"poiid":"B2094757D06BA5FE4799","title":"定海桥轮渡站","lon":"121.56264308","lat":"31.272182024","category":"500","category_name":"未知分类","address":"上海共青路4号"},{"poiid":"B2094757D068A2FD489B","title":"浦东大道东波路","lon":"121.575669","lat":"31.283804","category":"500","category_name":"未知分类","address":"上海浦东大道东波路"},{"poiid":"B2094757D064A3FE499B","title":"盱眙倪氏龙虾(莱阳路店)","lon":"121.57985","lat":"31.2725","category":"68","category_name":"快餐厅","address":"浦东新区莱阳路221号(近浦东大道)"},{"poiid":"B2094757D06FA2FE449A","title":"军工路隧道","lon":"121.564936863","lat":"31.2710545852","category":"260","category_name":"其他","address":"上海市杨浦区军工路-浦东新区金桥路"},{"poiid":"B2094757D068A6F8459D","title":"金桥轮渡站","lon":"121.56765957","lat":"31.269204681","category":"251","category_name":"出行住宿","address":"上海金桥路1号"},{"poiid":"B2094757D065A3FE459F","title":"大桥四线","lon":"121.56484922","lat":"31.274729995","category":"38","category_name":"公交车站","address":"上海安图路靖宇东路~五莲路双桥路"},{"poiid":"B2094750DB6DA0F5409A","title":"米瑟 MIXER","lon":"121.557283","lat":"31.271839","category":"67","category_name":"甜品店","address":"杨浦区杨树浦路2866号国际时尚中心(近内江路)"},{"poiid":"B2094655D26BA5F5469F","title":"中环滨江大厦","lon":"121.57168","lat":"31.26648","category":"47","category_name":"住宅区","address":"上海浦东新区浦东大道2742号(近金桥路)"},{"poiid":"B2094757D069A4FC4293","title":"浦东大道金桥路","lon":"121.569491","lat":"31.265606","category":"500","category_name":"未知分类","address":"上海浦东消防支队"},{"poiid":"B2094655D26FA0F84892","title":"平凉路2767弄小区","lon":"121.564","lat":"31.2848","category":"47","category_name":"住宅区","address":"上海市杨浦区平凉路平凉路2767弄"},{"poiid":"B2094654D568A2F4449F","title":"上海民办存志育海初级中学","lon":"121.56343","lat":"31.27529","category":"55","category_name":"中学","address":"共青路82弄7号"},{"poiid":"B2094757D16DABF94099","title":"定海桥","lon":"121.56081333","lat":"31.271165283","category":"500","category_name":"未知分类","address":"上海杨浦区定海路"},{"poiid":"B2094757D064A2FD4592","title":"高桥石化宾馆","lon":"121.57754","lat":"31.27742","category":"76","category_name":"上海菜","address":"上海浦东新区浦东大道2998号  "},{"poiid":"B2094750D26BABFF489D","title":"新华医院","lon":"121.564682","lat":"31.279571","category":"162","category_name":"医院","address":null},{"poiid":"B2094757D069A5FF459A","title":"上房金丰苑","lon":"121.569","lat":"31.266","category":"47","category_name":"住宅区","address":"上海市浦东新区浦东大道2567号"},{"poiid":"B2094654D568A2F4449C","title":"上海航道局职工教育培训中心","lon":"121.56343","lat":"31.27529","category":"190","category_name":"培训机构","address":"共青路82弄7号"},{"poiid":"B2094655D26FA0FE4193","title":"陈家宅小区","lon":"121.57315","lat":"31.26672","category":"47","category_name":"住宅区","address":"金桥路301弄1-32号"},{"poiid":"B2094751DA6AAAF54099","title":"星巴克时尚中心店","lon":"121.558759","lat":"31.271","category":"247","category_name":"餐饮美食","address":null},{"poiid":"B2094757D06AA3FA499C","title":"福瑞轩","lon":"121.580264","lat":"31.275004","category":"76","category_name":"上海菜","address":"浦东新区五莲路216号(近浦东大道)"},{"poiid":"B2094654D568A2F4489D","title":"中华造船厂","lon":"121.56265","lat":"31.27717","category":"263","category_name":"公司","address":"共青路130"},{"poiid":"B2094654D568A3F8499C","title":"杨树浦路3061弄住宅小区","lon":"121.566","lat":"31.2804","category":"47","category_name":"住宅区","address":"杨树浦路3061弄"},{"poiid":"B2094757D068A4FE4692","title":"平凉路第四小学","lon":"121.557","lat":"31.27798","category":"56","category_name":"小学","address":"杨浦区平凉路2767弄5号(近军工路)"},{"poiid":"B2094654D568A2F4449B","title":"上海港复兴船务公司复兴岛基地","lon":"121.56355","lat":"31.2751","category":"263","category_name":"公司","address":""},{"poiid":"B2094654D568A3F8499E","title":"黎平大楼","lon":"121.566","lat":"31.2807","category":"47","category_name":"住宅区","address":"黎平路1号"},{"poiid":"B2094654D568A5F44898","title":"东华科技大厦","lon":"121.57269","lat":"31.26868","category":"46","category_name":"楼宇","address":"浦东大道2789号"},{"poiid":"B2094655D36DA6FF459A","title":"金桥路渡口","lon":"121.568","lat":"31.2691","category":"38","category_name":"公交车站","address":""},{"poiid":"B2094654D568A2F4459C","title":"可的(复兴岛大酒店南)","lon":"121.56236","lat":"31.27213","category":"117","category_name":"便民商店/便利店","address":""},{"poiid":"B2094654DB6BA2F4499E","title":"中国船舶工业集团公司沪东中华造船(集团)有限公司共青路","lon":"121.56266","lat":"31.27717","category":"263","category_name":"公司","address":"共青路130"},{"poiid":"B2094654D568A2F4449E","title":"上海海事局航海图书印制中心","lon":"121.56343","lat":"31.27528","category":"248","category_name":"生活娱乐","address":"共青路82弄7号"},{"poiid":"B2094654DB6BA1FD4698","title":"上海海事大学东校区北门(浦东大道)","lon":"121.56855","lat":"31.26329","category":"52","category_name":"高等院校","address":"浦东大道2600"},{"poiid":"B2094757D065A6FF489F","title":"德兴馆(金桥店)","lon":"121.57706","lat":"31.27357","category":"76","category_name":"上海菜","address":"浦东新区浦东大道2910号(近五莲路)"},{"poiid":"B2094757D068A2FB4098","title":"25路平凉路军工路站","lon":"121.557719756","lat":"31.2785505256","category":"38","category_name":"公交车站","address":"上海杨浦区平凉路军工路"},{"poiid":"B2094654DB6BA1FF4498","title":"上海市沪新中学","lon":"121.57988","lat":"31.27277","category":"55","category_name":"中学","address":"浦东新区莱阳路224号(近浦东大道)"},{"poiid":"B2094654D568A5F5449A","title":"东桥路渡口","lon":"121.56777","lat":"31.26921","category":"34","category_name":"港口码头","address":""},{"poiid":"B2094655D26EA2F54598","title":"伟莱家园","lon":"121.5772","lat":"31.281532","category":"47","category_name":"住宅区","address":"上海市宝山区环镇北路152号"},{"poiid":"B2094757D06AAAF8439B","title":"新亚大包 沪东店","lon":"121.578238054","lat":"31.276597793","category":"68","category_name":"快餐厅","address":"浦东新区五莲路87号(近浦东大道)"},{"poiid":"B2094757D76AA7FF409D","title":"华莱士 莱阳路店","lon":"121.57965","lat":"31.27318","category":"68","category_name":"快餐厅","address":"浦东新区莱阳路243号(沪新中学对面)"},{"poiid":"B2094654D568A3F8489D","title":"金龙公寓杨浦","lon":"121.5657783026","lat":"31.281674908288","category":"47","category_name":"住宅区","address":"黎平路63弄"},{"poiid":"B2094655D26EA3FD419B","title":"陆行中学北校","lon":"121.57784","lat":"31.28029","category":"55","category_name":"中学","address":"浦东新区利津路53号(近浦东大道)"},{"poiid":"B2094654D568A5F5449D","title":"三郎艺术纹身馆","lon":"121.56861","lat":"31.26868","category":"148","category_name":"美容美发店","address":"金桥路41"},{"poiid":"B2094655D264A1F5419C","title":"国际滨江城","lon":"121.560679","lat":"31.280198","category":"47","category_name":"住宅区","address":"内江路16弄(近杨树浦路)"},{"poiid":"B2094654D568A3F8499A","title":"好德便利No.725","lon":"121.55956","lat":"31.27422","category":"117","category_name":"便民商店/便利店","address":"杨树浦路3075"},{"poiid":"B2094757D16BA2FE4098","title":"上海航天802研究所","lon":"121.55847533","lat":"31.276697411","category":"500","category_name":"未知分类","address":"上海市杨浦区黎平路218号"},{"poiid":"B2094654D568A5F4489B","title":"沛尔之星旅馆","lon":"121.57411","lat":"31.26874","category":"217","category_name":"旅馆招待所","address":"浦东新区浦东大道2752号(近八号桥)"},{"poiid":"B2094757D065A3FC4698","title":"定海桥渡口站","lon":"121.56801633","lat":"31.269210238","category":"251","category_name":"出行住宿","address":"上海杨浦区定海路"},{"poiid":"B2094757D06FA2FA429B","title":"上海国际时尚中心","lon":"121.55726862","lat":"31.270837313","category":"260","category_name":"其他","address":"杨浦区杨树浦路2866号(近内江路)"},{"poiid":"B2094750D76CA3FC4492","title":"金钱豹(杨树浦路店)","lon":"121.557","lat":"31.2714","category":"87","category_name":"特色／地方风味餐厅","address":"杨树浦路2866号(近内江路6月开业)"},{"poiid":"B2094757D06FA7F4409B","title":"金桥路浦东大道","lon":"121.570783","lat":"31.2663931","category":"260","category_name":"其他","address":"上海浦东新区金桥路浦东大道"},{"poiid":"B2094757D068A6FA4798","title":"沪东中华造船(集团)有限公司","lon":"121.574978","lat":"31.271862","category":"263","category_name":"公司","address":"上海浦东大道2851号"},{"poiid":"B2094752D36BA0F8479F","title":"星巴克(杨树浦路店)","lon":"121.557357","lat":"31.271385","category":"247","category_name":"餐饮美食","address":"杨浦区杨树浦路2866号(近内江路)"},{"poiid":"B2094757D06BA5FE4799","title":"定海桥轮渡站","lon":"121.56264308","lat":"31.272182024","category":"500","category_name":"未知分类","address":"上海共青路4号"},{"poiid":"B2094757D068A2FD489B","title":"浦东大道东波路","lon":"121.575669","lat":"31.283804","category":"500","category_name":"未知分类","address":"上海浦东大道东波路"},{"poiid":"B2094757D064A3FE499B","title":"盱眙倪氏龙虾(莱阳路店)","lon":"121.57985","lat":"31.2725","category":"68","category_name":"快餐厅","address":"浦东新区莱阳路221号(近浦东大道)"},{"poiid":"B2094757D06FA2FE449A","title":"军工路隧道","lon":"121.564936863","lat":"31.2710545852","category":"260","category_name":"其他","address":"上海市杨浦区军工路-浦东新区金桥路"},{"poiid":"B2094757D068A6F8459D","title":"金桥轮渡站","lon":"121.56765957","lat":"31.269204681","category":"251","category_name":"出行住宿","address":"上海金桥路1号"},{"poiid":"B2094757D065A3FE459F","title":"大桥四线","lon":"121.56484922","lat":"31.274729995","category":"38","category_name":"公交车站","address":"上海安图路靖宇东路~五莲路双桥路"},{"poiid":"B2094750DB6DA0F5409A","title":"米瑟 MIXER","lon":"121.557283","lat":"31.271839","category":"67","category_name":"甜品店","address":"杨浦区杨树浦路2866号国际时尚中心(近内江路)"},{"poiid":"B2094655D26BA5F5469F","title":"中环滨江大厦","lon":"121.57168","lat":"31.26648","category":"47","category_name":"住宅区","address":"上海浦东新区浦东大道2742号(近金桥路)"},{"poiid":"B2094757D069A4FC4293","title":"浦东大道金桥路","lon":"121.569491","lat":"31.265606","category":"500","category_name":"未知分类","address":"上海浦东消防支队"},{"poiid":"B2094655D26FA0F84892","title":"平凉路2767弄小区","lon":"121.564","lat":"31.2848","category":"47","category_name":"住宅区","address":"上海市杨浦区平凉路平凉路2767弄"},{"poiid":"B2094654D568A2F4449F","title":"上海民办存志育海初级中学","lon":"121.56343","lat":"31.27529","category":"55","category_name":"中学","address":"共青路82弄7号"},{"poiid":"B2094757D16DABF94099","title":"定海桥","lon":"121.56081333","lat":"31.271165283","category":"500","category_name":"未知分类","address":"上海杨浦区定海路"},{"poiid":"B2094757D064A2FD4592","title":"高桥石化宾馆","lon":"121.57754","lat":"31.27742","category":"76","category_name":"上海菜","address":"上海浦东新区浦东大道2998号  "},{"poiid":"B2094750D26BABFF489D","title":"新华医院","lon":"121.564682","lat":"31.279571","category":"162","category_name":"医院","address":null},{"poiid":"B2094757D069A5FF459A","title":"上房金丰苑","lon":"121.569","lat":"31.266","category":"47","category_name":"住宅区","address":"上海市浦东新区浦东大道2567号"},{"poiid":"B2094654D568A2F4449C","title":"上海航道局职工教育培训中心","lon":"121.56343","lat":"31.27529","category":"190","category_name":"培训机构","address":"共青路82弄7号"},{"poiid":"B2094655D26FA0FE4193","title":"陈家宅小区","lon":"121.57315","lat":"31.26672","category":"47","category_name":"住宅区","address":"金桥路301弄1-32号"},{"poiid":"B2094751DA6AAAF54099","title":"星巴克时尚中心店","lon":"121.558759","lat":"31.271","category":"247","category_name":"餐饮美食","address":null},{"poiid":"B2094757D06AA3FA499C","title":"福瑞轩","lon":"121.580264","lat":"31.275004","category":"76","category_name":"上海菜","address":"浦东新区五莲路216号(近浦东大道)"},{"poiid":"B2094654D568A2F4489D","title":"中华造船厂","lon":"121.56265","lat":"31.27717","category":"263","category_name":"公司","address":"共青路130"},{"poiid":"B2094654D568A3F8499C","title":"杨树浦路3061弄住宅小区","lon":"121.566","lat":"31.2804","category":"47","category_name":"住宅区","address":"杨树浦路3061弄"},{"poiid":"B2094757D068A4FE4692","title":"平凉路第四小学","lon":"121.557","lat":"31.27798","category":"56","category_name":"小学","address":"杨浦区平凉路2767弄5号(近军工路)"},{"poiid":"B2094654D568A2F4449B","title":"上海港复兴船务公司复兴岛基地","lon":"121.56355","lat":"31.2751","category":"263","category_name":"公司","address":""},{"poiid":"B2094654D568A3F8499E","title":"黎平大楼","lon":"121.566","lat":"31.2807","category":"47","category_name":"住宅区","address":"黎平路1号"},{"poiid":"B2094654D568A5F44898","title":"东华科技大厦","lon":"121.57269","lat":"31.26868","category":"46","category_name":"楼宇","address":"浦东大道2789号"},{"poiid":"B2094655D36DA6FF459A","title":"金桥路渡口","lon":"121.568","lat":"31.2691","category":"38","category_name":"公交车站","address":""},{"poiid":"B2094654D568A2F4459C","title":"可的(复兴岛大酒店南)","lon":"121.56236","lat":"31.27213","category":"117","category_name":"便民商店/便利店","address":""},{"poiid":"B2094654DB6BA2F4499E","title":"中国船舶工业集团公司沪东中华造船(集团)有限公司共青路","lon":"121.56266","lat":"31.27717","category":"263","category_name":"公司","address":"共青路130"},{"poiid":"B2094654D568A2F4449E","title":"上海海事局航海图书印制中心","lon":"121.56343","lat":"31.27528","category":"248","category_name":"生活娱乐","address":"共青路82弄7号"},{"poiid":"B2094654DB6BA1FD4698","title":"上海海事大学东校区北门(浦东大道)","lon":"121.56855","lat":"31.26329","category":"52","category_name":"高等院校","address":"浦东大道2600"},{"poiid":"B2094757D065A6FF489F","title":"德兴馆(金桥店)","lon":"121.57706","lat":"31.27357","category":"76","category_name":"上海菜","address":"浦东新区浦东大道2910号(近五莲路)"},{"poiid":"B2094757D068A2FB4098","title":"25路平凉路军工路站","lon":"121.557719756","lat":"31.2785505256","category":"38","category_name":"公交车站","address":"上海杨浦区平凉路军工路"},{"poiid":"B2094654DB6BA1FF4498","title":"上海市沪新中学","lon":"121.57988","lat":"31.27277","category":"55","category_name":"中学","address":"浦东新区莱阳路224号(近浦东大道)"},{"poiid":"B2094654D568A5F5449A","title":"东桥路渡口","lon":"121.56777","lat":"31.26921","category":"34","category_name":"港口码头","address":""},{"poiid":"B2094655D26EA2F54598","title":"伟莱家园","lon":"121.5772","lat":"31.281532","category":"47","category_name":"住宅区","address":"上海市宝山区环镇北路152号"},{"poiid":"B2094757D06AAAF8439B","title":"新亚大包 沪东店","lon":"121.578238054","lat":"31.276597793","category":"68","category_name":"快餐厅","address":"浦东新区五莲路87号(近浦东大道)"},{"poiid":"B2094757D76AA7FF409D","title":"华莱士 莱阳路店","lon":"121.57965","lat":"31.27318","category":"68","category_name":"快餐厅","address":"浦东新区莱阳路243号(沪新中学对面)"},{"poiid":"B2094654D568A3F8489D","title":"金龙公寓杨浦","lon":"121.5657783026","lat":"31.281674908288","category":"47","category_name":"住宅区","address":"黎平路63弄"},{"poiid":"B2094655D26EA3FD419B","title":"陆行中学北校","lon":"121.57784","lat":"31.28029","category":"55","category_name":"中学","address":"浦东新区利津路53号(近浦东大道)"},{"poiid":"B2094654D568A5F5449D","title":"三郎艺术纹身馆","lon":"121.56861","lat":"31.26868","category":"148","category_name":"美容美发店","address":"金桥路41"},{"poiid":"B2094655D264A1F5419C","title":"国际滨江城","lon":"121.560679","lat":"31.280198","category":"47","category_name":"住宅区","address":"内江路16弄(近杨树浦路)"},{"poiid":"B2094654D568A3F8499A","title":"好德便利No.725","lon":"121.55956","lat":"31.27422","category":"117","category_name":"便民商店/便利店","address":"杨树浦路3075"},{"poiid":"B2094757D16BA2FE4098","title":"上海航天802研究所","lon":"121.55847533","lat":"31.276697411","category":"500","category_name":"未知分类","address":"上海市杨浦区黎平路218号"},{"poiid":"B2094654D568A5F4489B","title":"沛尔之星旅馆","lon":"121.57411","lat":"31.26874","category":"217","category_name":"旅馆招待所","address":"浦东新区浦东大道2752号(近八号桥)"},{"poiid":"B2094757D065A3FC4698","title":"定海桥渡口站","lon":"121.56801633","lat":"31.269210238","category":"251","category_name":"出行住宿","address":"上海杨浦区定海路"},{"poiid":"B2094757D06FA2FA429B","title":"上海国际时尚中心","lon":"121.55726862","lat":"31.270837313","category":"260","category_name":"其他","address":"杨浦区杨树浦路2866号(近内江路)"},{"poiid":"B2094750D76CA3FC4492","title":"金钱豹(杨树浦路店)","lon":"121.557","lat":"31.2714","category":"87","category_name":"特色／地方风味餐厅","address":"杨树浦路2866号(近内江路6月开业)"},{"poiid":"B2094757D06FA7F4409B","title":"金桥路浦东大道","lon":"121.570783","lat":"31.2663931","category":"260","category_name":"其他","address":"上海浦东新区金桥路浦东大道"},{"poiid":"B2094757D068A6FA4798","title":"沪东中华造船(集团)有限公司","lon":"121.574978","lat":"31.271862","category":"263","category_name":"公司","address":"上海浦东大道2851号"},{"poiid":"B2094752D36BA0F8479F","title":"星巴克(杨树浦路店)","lon":"121.557357","lat":"31.271385","category":"247","category_name":"餐饮美食","address":"杨浦区杨树浦路2866号(近内江路)"},{"poiid":"B2094757D06BA5FE4799","title":"定海桥轮渡站","lon":"121.56264308","lat":"31.272182024","category":"500","category_name":"未知分类","address":"上海共青路4号"},{"poiid":"B2094757D068A2FD489B","title":"浦东大道东波路","lon":"121.575669","lat":"31.283804","category":"500","category_name":"未知分类","address":"上海浦东大道东波路"},{"poiid":"B2094757D064A3FE499B","title":"盱眙倪氏龙虾(莱阳路店)","lon":"121.57985","lat":"31.2725","category":"68","category_name":"快餐厅","address":"浦东新区莱阳路221号(近浦东大道)"},{"poiid":"B2094757D06FA2FE449A","title":"军工路隧道","lon":"121.564936863","lat":"31.2710545852","category":"260","category_name":"其他","address":"上海市杨浦区军工路-浦东新区金桥路"},{"poiid":"B2094757D068A6F8459D","title":"金桥轮渡站","lon":"121.56765957","lat":"31.269204681","category":"251","category_name":"出行住宿","address":"上海金桥路1号"},{"poiid":"B2094757D065A3FE459F","title":"大桥四线","lon":"121.56484922","lat":"31.274729995","category":"38","category_name":"公交车站","address":"上海安图路靖宇东路~五莲路双桥路"},{"poiid":"B2094750DB6DA0F5409A","title":"米瑟 MIXER","lon":"121.557283","lat":"31.271839","category":"67","category_name":"甜品店","address":"杨浦区杨树浦路2866号国际时尚中心(近内江路)"},{"poiid":"B2094655D26BA5F5469F","title":"中环滨江大厦","lon":"121.57168","lat":"31.26648","category":"47","category_name":"住宅区","address":"上海浦东新区浦东大道2742号(近金桥路)"},{"poiid":"B2094757D069A4FC4293","title":"浦东大道金桥路","lon":"121.569491","lat":"31.265606","category":"500","category_name":"未知分类","address":"上海浦东消防支队"},{"poiid":"B2094655D26FA0F84892","title":"平凉路2767弄小区","lon":"121.564","lat":"31.2848","category":"47","category_name":"住宅区","address":"上海市杨浦区平凉路平凉路2767弄"},{"poiid":"B2094654D568A2F4449F","title":"上海民办存志育海初级中学","lon":"121.56343","lat":"31.27529","category":"55","category_name":"中学","address":"共青路82弄7号"},{"poiid":"B2094757D16DABF94099","title":"定海桥","lon":"121.56081333","lat":"31.271165283","category":"500","category_name":"未知分类","address":"上海杨浦区定海路"},{"poiid":"B2094757D064A2FD4592","title":"高桥石化宾馆","lon":"121.57754","lat":"31.27742","category":"76","category_name":"上海菜","address":"上海浦东新区浦东大道2998号  "},{"poiid":"B2094750D26BABFF489D","title":"新华医院","lon":"121.564682","lat":"31.279571","category":"162","category_name":"医院","address":null},{"poiid":"B2094757D069A5FF459A","title":"上房金丰苑","lon":"121.569","lat":"31.266","category":"47","category_name":"住宅区","address":"上海市浦东新区浦东大道2567号"},{"poiid":"B2094654D568A2F4449C","title":"上海航道局职工教育培训中心","lon":"121.56343","lat":"31.27529","category":"190","category_name":"培训机构","address":"共青路82弄7号"},{"poiid":"B2094655D26FA0FE4193","title":"陈家宅小区","lon":"121.57315","lat":"31.26672","category":"47","category_name":"住宅区","address":"金桥路301弄1-32号"},{"poiid":"B2094751DA6AAAF54099","title":"星巴克时尚中心店","lon":"121.558759","lat":"31.271","category":"247","category_name":"餐饮美食","address":null},{"poiid":"B2094757D06AA3FA499C","title":"福瑞轩","lon":"121.580264","lat":"31.275004","category":"76","category_name":"上海菜","address":"浦东新区五莲路216号(近浦东大道)"},{"poiid":"B2094654D568A2F4489D","title":"中华造船厂","lon":"121.56265","lat":"31.27717","category":"263","category_name":"公司","address":"共青路130"},{"poiid":"B2094654D568A3F8499C","title":"杨树浦路3061弄住宅小区","lon":"121.566","lat":"31.2804","category":"47","category_name":"住宅区","address":"杨树浦路3061弄"},{"poiid":"B2094757D068A4FE4692","title":"平凉路第四小学","lon":"121.557","lat":"31.27798","category":"56","category_name":"小学","address":"杨浦区平凉路2767弄5号(近军工路)"},{"poiid":"B2094654D568A2F4449B","title":"上海港复兴船务公司复兴岛基地","lon":"121.56355","lat":"31.2751","category":"263","category_name":"公司","address":""},{"poiid":"B2094654D568A3F8499E","title":"黎平大楼","lon":"121.566","lat":"31.2807","category":"47","category_name":"住宅区","address":"黎平路1号"},{"poiid":"B2094654D568A5F44898","title":"东华科技大厦","lon":"121.57269","lat":"31.26868","category":"46","category_name":"楼宇","address":"浦东大道2789号"},{"poiid":"B2094655D36DA6FF459A","title":"金桥路渡口","lon":"121.568","lat":"31.2691","category":"38","category_name":"公交车站","address":""},{"poiid":"B2094654D568A2F4459C","title":"可的(复兴岛大酒店南)","lon":"121.56236","lat":"31.27213","category":"117","category_name":"便民商店/便利店","address":""},{"poiid":"B2094654DB6BA2F4499E","title":"中国船舶工业集团公司沪东中华造船(集团)有限公司共青路","lon":"121.56266","lat":"31.27717","category":"263","category_name":"公司","address":"共青路130"},{"poiid":"B2094654D568A2F4449E","title":"上海海事局航海图书印制中心","lon":"121.56343","lat":"31.27528","category":"248","category_name":"生活娱乐","address":"共青路82弄7号"},{"poiid":"B2094654DB6BA1FD4698","title":"上海海事大学东校区北门(浦东大道)","lon":"121.56855","lat":"31.26329","category":"52","category_name":"高等院校","address":"浦东大道2600"},{"poiid":"B2094757D065A6FF489F","title":"德兴馆(金桥店)","lon":"121.57706","lat":"31.27357","category":"76","category_name":"上海菜","address":"浦东新区浦东大道2910号(近五莲路)"},{"poiid":"B2094757D068A2FB4098","title":"25路平凉路军工路站","lon":"121.557719756","lat":"31.2785505256","category":"38","category_name":"公交车站","address":"上海杨浦区平凉路军工路"},{"poiid":"B2094654DB6BA1FF4498","title":"上海市沪新中学","lon":"121.57988","lat":"31.27277","category":"55","category_name":"中学","address":"浦东新区莱阳路224号(近浦东大道)"},{"poiid":"B2094654D568A5F5449A","title":"东桥路渡口","lon":"121.56777","lat":"31.26921","category":"34","category_name":"港口码头","address":""},{"poiid":"B2094655D26EA2F54598","title":"伟莱家园","lon":"121.5772","lat":"31.281532","category":"47","category_name":"住宅区","address":"上海市宝山区环镇北路152号"},{"poiid":"B2094757D06AAAF8439B","title":"新亚大包 沪东店","lon":"121.578238054","lat":"31.276597793","category":"68","category_name":"快餐厅","address":"浦东新区五莲路87号(近浦东大道)"},{"poiid":"B2094757D76AA7FF409D","title":"华莱士 莱阳路店","lon":"121.57965","lat":"31.27318","category":"68","category_name":"快餐厅","address":"浦东新区莱阳路243号(沪新中学对面)"},{"poiid":"B2094654D568A3F8489D","title":"金龙公寓杨浦","lon":"121.5657783026","lat":"31.281674908288","category":"47","category_name":"住宅区","address":"黎平路63弄"},{"poiid":"B2094655D26EA3FD419B","title":"陆行中学北校","lon":"121.57784","lat":"31.28029","category":"55","category_name":"中学","address":"浦东新区利津路53号(近浦东大道)"},{"poiid":"B2094654D568A5F5449D","title":"三郎艺术纹身馆","lon":"121.56861","lat":"31.26868","category":"148","category_name":"美容美发店","address":"金桥路41"},{"poiid":"B2094655D264A1F5419C","title":"国际滨江城","lon":"121.560679","lat":"31.280198","category":"47","category_name":"住宅区","address":"内江路16弄(近杨树浦路)"},{"poiid":"B2094654D568A3F8499A","title":"好德便利No.725","lon":"121.55956","lat":"31.27422","category":"117","category_name":"便民商店/便利店","address":"杨树浦路3075"},{"poiid":"B2094757D16BA2FE4098","title":"上海航天802研究所","lon":"121.55847533","lat":"31.276697411","category":"500","category_name":"未知分类","address":"上海市杨浦区黎平路218号"},{"poiid":"B2094654D568A5F4489B","title":"沛尔之星旅馆","lon":"121.57411","lat":"31.26874","category":"217","category_name":"旅馆招待所","address":"浦东新区浦东大道2752号(近八号桥)"},{"poiid":"B2094757D065A3FC4698","title":"定海桥渡口站","lon":"121.56801633","lat":"31.269210238","category":"251","category_name":"出行住宿","address":"上海杨浦区定海路"},{"poiid":"B2094757D06FA2FA429B","title":"上海国际时尚中心","lon":"121.55726862","lat":"31.270837313","category":"260","category_name":"其他","address":"杨浦区杨树浦路2866号(近内江路)"},{"poiid":"B2094750D76CA3FC4492","title":"金钱豹(杨树浦路店)","lon":"121.557","lat":"31.2714","category":"87","category_name":"特色／地方风味餐厅","address":"杨树浦路2866号(近内江路6月开业)"},{"poiid":"B2094757D06FA7F4409B","title":"金桥路浦东大道","lon":"121.570783","lat":"31.2663931","category":"260","category_name":"其他","address":"上海浦东新区金桥路浦东大道"},{"poiid":"B2094757D068A6FA4798","title":"沪东中华造船(集团)有限公司","lon":"121.574978","lat":"31.271862","category":"263","category_name":"公司","address":"上海浦东大道2851号"},{"poiid":"B2094752D36BA0F8479F","title":"星巴克(杨树浦路店)","lon":"121.557357","lat":"31.271385","category":"247","category_name":"餐饮美食","address":"杨浦区杨树浦路2866号(近内江路)"},{"poiid":"B2094757D06BA5FE4799","title":"定海桥轮渡站","lon":"121.56264308","lat":"31.272182024","category":"500","category_name":"未知分类","address":"上海共青路4号"},{"poiid":"B2094757D068A2FD489B","title":"浦东大道东波路","lon":"121.575669","lat":"31.283804","category":"500","category_name":"未知分类","address":"上海浦东大道东波路"},{"poiid":"B2094757D064A3FE499B","title":"盱眙倪氏龙虾(莱阳路店)","lon":"121.57985","lat":"31.2725","category":"68","category_name":"快餐厅","address":"浦东新区莱阳路221号(近浦东大道)"},{"poiid":"B2094757D06FA2FE449A","title":"军工路隧道","lon":"121.564936863","lat":"31.2710545852","category":"260","category_name":"其他","address":"上海市杨浦区军工路-浦东新区金桥路"},{"poiid":"B2094757D068A6F8459D","title":"金桥轮渡站","lon":"121.56765957","lat":"31.269204681","category":"251","category_name":"出行住宿","address":"上海金桥路1号"},{"poiid":"B2094757D065A3FE459F","title":"大桥四线","lon":"121.56484922","lat":"31.274729995","category":"38","category_name":"公交车站","address":"上海安图路靖宇东路~五莲路双桥路"},{"poiid":"B2094750DB6DA0F5409A","title":"米瑟 MIXER","lon":"121.557283","lat":"31.271839","category":"67","category_name":"甜品店","address":"杨浦区杨树浦路2866号国际时尚中心(近内江路)"},{"poiid":"B2094655D26BA5F5469F","title":"中环滨江大厦","lon":"121.57168","lat":"31.26648","category":"47","category_name":"住宅区","address":"上海浦东新区浦东大道2742号(近金桥路)"},{"poiid":"B2094757D069A4FC4293","title":"浦东大道金桥路","lon":"121.569491","lat":"31.265606","category":"500","category_name":"未知分类","address":"上海浦东消防支队"},{"poiid":"B2094655D26FA0F84892","title":"平凉路2767弄小区","lon":"121.564","lat":"31.2848","category":"47","category_name":"住宅区","address":"上海市杨浦区平凉路平凉路2767弄"},{"poiid":"B2094654D568A2F4449F","title":"上海民办存志育海初级中学","lon":"121.56343","lat":"31.27529","category":"55","category_name":"中学","address":"共青路82弄7号"},{"poiid":"B2094757D16DABF94099","title":"定海桥","lon":"121.56081333","lat":"31.271165283","category":"500","category_name":"未知分类","address":"上海杨浦区定海路"},{"poiid":"B2094757D064A2FD4592","title":"高桥石化宾馆","lon":"121.57754","lat":"31.27742","category":"76","category_name":"上海菜","address":"上海浦东新区浦东大道2998号  "},{"poiid":"B2094750D26BABFF489D","title":"新华医院","lon":"121.564682","lat":"31.279571","category":"162","category_name":"医院","address":null},{"poiid":"B2094757D069A5FF459A","title":"上房金丰苑","lon":"121.569","lat":"31.266","category":"47","category_name":"住宅区","address":"上海市浦东新区浦东大道2567号"},{"poiid":"B2094654D568A2F4449C","title":"上海航道局职工教育培训中心","lon":"121.56343","lat":"31.27529","category":"190","category_name":"培训机构","address":"共青路82弄7号"},{"poiid":"B2094655D26FA0FE4193","title":"陈家宅小区","lon":"121.57315","lat":"31.26672","category":"47","category_name":"住宅区","address":"金桥路301弄1-32号"},{"poiid":"B2094751DA6AAAF54099","title":"星巴克时尚中心店","lon":"121.558759","lat":"31.271","category":"247","category_name":"餐饮美食","address":null},{"poiid":"B2094757D06AA3FA499C","title":"福瑞轩","lon":"121.580264","lat":"31.275004","category":"76","category_name":"上海菜","address":"浦东新区五莲路216号(近浦东大道)"},{"poiid":"B2094654D568A2F4489D","title":"中华造船厂","lon":"121.56265","lat":"31.27717","category":"263","category_name":"公司","address":"共青路130"},{"poiid":"B2094654D568A3F8499C","title":"杨树浦路3061弄住宅小区","lon":"121.566","lat":"31.2804","category":"47","category_name":"住宅区","address":"杨树浦路3061弄"},{"poiid":"B2094757D068A4FE4692","title":"平凉路第四小学","lon":"121.557","lat":"31.27798","category":"56","category_name":"小学","address":"杨浦区平凉路2767弄5号(近军工路)"},{"poiid":"B2094654D568A2F4449B","title":"上海港复兴船务公司复兴岛基地","lon":"121.56355","lat":"31.2751","category":"263","category_name":"公司","address":""},{"poiid":"B2094654D568A3F8499E","title":"黎平大楼","lon":"121.566","lat":"31.2807","category":"47","category_name":"住宅区","address":"黎平路1号"},{"poiid":"B2094654D568A5F44898","title":"东华科技大厦","lon":"121.57269","lat":"31.26868","category":"46","category_name":"楼宇","address":"浦东大道2789号"},{"poiid":"B2094655D36DA6FF459A","title":"金桥路渡口","lon":"121.568","lat":"31.2691","category":"38","category_name":"公交车站","address":""},{"poiid":"B2094654D568A2F4459C","title":"可的(复兴岛大酒店南)","lon":"121.56236","lat":"31.27213","category":"117","category_name":"便民商店/便利店","address":""},{"poiid":"B2094654DB6BA2F4499E","title":"中国船舶工业集团公司沪东中华造船(集团)有限公司共青路","lon":"121.56266","lat":"31.27717","category":"263","category_name":"公司","address":"共青路130"},{"poiid":"B2094654D568A2F4449E","title":"上海海事局航海图书印制中心","lon":"121.56343","lat":"31.27528","category":"248","category_name":"生活娱乐","address":"共青路82弄7号"},{"poiid":"B2094654DB6BA1FD4698","title":"上海海事大学东校区北门(浦东大道)","lon":"121.56855","lat":"31.26329","category":"52","category_name":"高等院校","address":"浦东大道2600"},{"poiid":"B2094757D065A6FF489F","title":"德兴馆(金桥店)","lon":"121.57706","lat":"31.27357","category":"76","category_name":"上海菜","address":"浦东新区浦东大道2910号(近五莲路)"},{"poiid":"B2094757D068A2FB4098","title":"25路平凉路军工路站","lon":"121.557719756","lat":"31.2785505256","category":"38","category_name":"公交车站","address":"上海杨浦区平凉路军工路"},{"poiid":"B2094654DB6BA1FF4498","title":"上海市沪新中学","lon":"121.57988","lat":"31.27277","category":"55","category_name":"中学","address":"浦东新区莱阳路224号(近浦东大道)"},{"poiid":"B2094654D568A5F5449A","title":"东桥路渡口","lon":"121.56777","lat":"31.26921","category":"34","category_name":"港口码头","address":""},{"poiid":"B2094655D26EA2F54598","title":"伟莱家园","lon":"121.5772","lat":"31.281532","category":"47","category_name":"住宅区","address":"上海市宝山区环镇北路152号"},{"poiid":"B2094757D06AAAF8439B","title":"新亚大包 沪东店","lon":"121.578238054","lat":"31.276597793","category":"68","category_name":"快餐厅","address":"浦东新区五莲路87号(近浦东大道)"},{"poiid":"B2094757D76AA7FF409D","title":"华莱士 莱阳路店","lon":"121.57965","lat":"31.27318","category":"68","category_name":"快餐厅","address":"浦东新区莱阳路243号(沪新中学对面)"},{"poiid":"B2094654D568A3F8489D","title":"金龙公寓杨浦","lon":"121.5657783026","lat":"31.281674908288","category":"47","category_name":"住宅区","address":"黎平路63弄"},{"poiid":"B2094655D26EA3FD419B","title":"陆行中学北校","lon":"121.57784","lat":"31.28029","category":"55","category_name":"中学","address":"浦东新区利津路53号(近浦东大道)"},{"poiid":"B2094654D568A5F5449D","title":"三郎艺术纹身馆","lon":"121.56861","lat":"31.26868","category":"148","category_name":"美容美发店","address":"金桥路41"},{"poiid":"B2094655D264A1F5419C","title":"国际滨江城","lon":"121.560679","lat":"31.280198","category":"47","category_name":"住宅区","address":"内江路16弄(近杨树浦路)"},{"poiid":"B2094654D568A3F8499A","title":"好德便利No.725","lon":"121.55956","lat":"31.27422","category":"117","category_name":"便民商店/便利店","address":"杨树浦路3075"},{"poiid":"B2094757D16BA2FE4098","title":"上海航天802研究所","lon":"121.55847533","lat":"31.276697411","category":"500","category_name":"未知分类","address":"上海市杨浦区黎平路218号"},{"poiid":"B2094654D568A5F4489B","title":"沛尔之星旅馆","lon":"121.57411","lat":"31.26874","category":"217","category_name":"旅馆招待所","address":"浦东新区浦东大道2752号(近八号桥)"},{"poiid":"B2094757D065A3FC4698","title":"定海桥渡口站","lon":"121.56801633","lat":"31.269210238","category":"251","category_name":"出行住宿","address":"上海杨浦区定海路"}]