[{"poiid":"B2094757D06FA3FB459B","title":"奥林匹克花园","lon":"121.334701","lat":"31.152401","category":"47","category_name":"住宅区","address":"松江区九亭镇涞寅路106弄"},{"poiid":"B2094757D06EAAFE4599","title":"七宝地铁站","lon":"121.348758","lat":"31.155028","category":"36","category_name":"地铁站","address":"上海轨道交通 九号线 轨交七宝站 9"},{"poiid":"B2094757D06FA6F8479B","title":"中春路地铁站","lon":"121.33836508","lat":"31.149302088","category":"36","category_name":"地铁站","address":"上海轨道交通 九号线 轨交中春路站 9"},{"poiid":"B2094757D06FA1F8479B","title":"乐购(七宝店)","lon":"121.346509563","lat":"31.1570358462","category":"118","category_name":"超级市场","address":"上海闵行区七宝镇七莘路3155号(近新龙路)"},{"poiid":"B2094654DA64A3F8439B","title":"万科·郎润园","lon":"121.34011","lat":"31.15338","category":"47","category_name":"住宅区","address":"新龙路1111弄"},{"poiid":"B2094757D06FABF9459C","title":"来天华(七宝店)","lon":"121.34839","lat":"31.15504","category":"76","category_name":"上海菜","address":"闵行区七莘路3011号星钻城5楼(近漕宝路)"},{"poiid":"B2094757D06FABFC4893","title":"COSTA COFFEE(七宝乐购店)","lon":"121.34655153","lat":"31.158143312","category":"65","category_name":"咖啡厅","address":"闵行区七莘路3155号乐购1楼(近新龙路)"},{"poiid":"B2094655D26BABFB4499","title":"水清年华花园","lon":"121.34231","lat":"31.15116","category":"47","category_name":"住宅区","address":"上海市闵行区沪松公路565弄"},{"poiid":"B2094654DB69A4F84398","title":"星巴克 七宝店 Starbucks Cafe","lon":"121.34842061966","lat":"31.155162367368","category":"247","category_name":"餐饮美食","address":"七莘路3155号近新龙路"},{"poiid":"B2094757DA6EAAFC419F","title":"鲜芋仙(七宝店)","lon":"121.348790000002","lat":"31.1549070000001","category":"67","category_name":"甜品店","address":"闵行区漕宝路3509号汇宝购物广场1楼(近七莘路)"},{"poiid":"B2094654DA6BABFB4892","title":"必胜客 七宝店 Pizza Hut","lon":"121.34832709738","lat":"31.155256828982","category":"68","category_name":"快餐厅","address":"闵行区七莘路3155号河畔百货1-2楼(近新龙路)"},{"poiid":"B2094757D065A0FA429E","title":"自由港量贩式KTV(七宝店)","lon":"121.34720956","lat":"31.1516669908","category":"170","category_name":"KTV","address":"闵行区沪星路289弄2号3楼(近七莘路家乐福)"},{"poiid":"B2094654DA64A3F94093","title":"上海七宝商城商业街","lon":"121.34695","lat":"31.15547","category":"116","category_name":"特色商业街","address":""},{"poiid":"B2094757D069A7F4499D","title":"吞云小莳(汇宝店)","lon":"121.34890876","lat":"31.1533169256","category":"91","category_name":"台湾菜","address":"闵行区漕宝路3509号汇宝广场1楼(近七莘路)"},{"poiid":"B2094757D06AAAFF4898","title":"渔太郎日料(七宝店)","lon":"121.34321196","lat":"31.158011924","category":"95","category_name":"日本料理","address":"闵行区七莘路3333号万科城市花园7区22号(近吴中路)"},{"poiid":"B2094757D66DABFD479D","title":"闵行区税务局","lon":"121.33980756","lat":"31.150148358","category":"500","category_name":"未知分类","address":"上海沪松公路600号"},{"poiid":"B2094757D06FA6F9429B","title":"麦当劳(七宝店)","lon":"121.34719085","lat":"31.15681076","category":"68","category_name":"快餐厅","address":"闵行区七莘路3045号(近漕宝路)"},{"poiid":"B2094757DA6EAAFE4099","title":"江南公社(七宝店)","lon":"121.3476435","lat":"31.1552652","category":"77","category_name":"湖南菜","address":"闵行区七莘路3011号星钻城4楼(近沪松公路)"},{"poiid":"B2094757D06BA7FD4793","title":"七宝文化中心","lon":"121.34297","lat":"31.15173","category":"179","category_name":"音乐厅","address":"闵行区沪松公路450号(近七宝乐购)"},{"poiid":"B2094757D068A2FB489A","title":"上海奥林匹克花园运动中心","lon":"121.33514404","lat":"31.145084381","category":"260","category_name":"其他","address":"上海沪淞公路"},{"poiid":"B2094757D068A6F44592","title":"味千拉面(七宝店)","lon":"121.34776","lat":"31.1565","category":"95","category_name":"日本料理","address":"七莘路3045号A04,B04号商铺"},{"poiid":"B2094654DA64A3F9459B","title":"魅力之城","lon":"121.33998","lat":"31.15374","category":"47","category_name":"住宅区","address":"七宝镇"},{"poiid":"B2094757D064A4FC459E","title":"第十六税务所七宝征收大厅","lon":"121.34233656","lat":"31.1509429756","category":"500","category_name":"未知分类","address":"上海市闵行区沪松公路559号"},{"poiid":"B2094757D068A4F9409A","title":"肯德基 KFC (汇宝店)","lon":"121.348783","lat":"31.155101","category":"68","category_name":"快餐厅","address":"闵行区漕宝路3509号汇宝购物广场1楼(近七莘路)"},{"poiid":"B2094654DA6BAAFC4499","title":"豪世盛地","lon":"121.34531","lat":"31.152189","category":"47","category_name":"住宅区","address":"沪松公路195弄"},{"poiid":"B2094757DA65A5F5419B","title":"汉庭快捷酒店（上海七宝中心店）","lon":"121.342100501","lat":"31.150725026","category":"216","category_name":"经济型连锁酒店","address":"上海市闵行区沪松公路577号(近中春路)"},{"poiid":"B2094757D064A6FA4198","title":"七宝派出所","lon":"121.342318","lat":"31.151712","category":"609","category_name":"警察局","address":"上海,上海市,沪松公路600号"},{"poiid":"B2094757D16AA4FD419B","title":"上海市地方税务局闵行区第五所","lon":"121.33981616","lat":"31.1511559801","category":"500","category_name":"未知分类","address":"上海沪松公路618号"},{"poiid":"B2094757D168AAFF4493","title":"一兆韦德健身七宝会所","lon":"121.33677456","lat":"31.1532970252","category":"500","category_name":"未知分类","address":"闵行区中春路8889号万科城花新园(近中春路新龙路)"},{"poiid":"B2094655D26AA0FA4598","title":"地铁中春路站","lon":"121.33834","lat":"31.14935","category":"36","category_name":"地铁站","address":""},{"poiid":"B2094752D76CA6FA469E","title":"闵行区中心医院","lon":"121.340403","lat":"31.152408","category":"162","category_name":"医院","address":null},{"poiid":"B2094757D06AA1F9459F","title":"沪松公路","lon":"121.336916","lat":"31.149231","category":"500","category_name":"未知分类","address":"上海沪松公路中春路"},{"poiid":"B2094757D064AAFB4492","title":"水清年华","lon":"121.34230092","lat":"31.149938784","category":"500","category_name":"未知分类","address":"上海沪淞公路565弄"},{"poiid":"B2094757D069A7FB429D","title":"万科优诗美地","lon":"121.33768359","lat":"31.157590384","category":"500","category_name":"未知分类","address":"上海中春路8888弄"},{"poiid":"B2094757D06FABFB4999","title":"85度C(七莘店)","lon":"121.34767","lat":"31.1563","category":"112","category_name":"糕饼店","address":"闵行区七莘路3039号(近沪松公路)"},{"poiid":"B2094757D66FA0F54699","title":"无限量自助烤肉","lon":"121.34674","lat":"31.15678","category":"268","category_name":"自助","address":"闵行区新龙路佳宝一村1-51号(近万科花园6号门)"},{"poiid":"B2094757D069A7FF469A","title":"萨莉亚 七宝乐购店","lon":"121.34629","lat":"31.1582","category":"94","category_name":"西餐厅","address":"闵行区七莘路3155号河畔百货4楼(近新龙路)"},{"poiid":"B2094757D06AAAFB489A","title":"干锅传奇侬好蛙","lon":"121.34937756","lat":"31.1531270216","category":"500","category_name":"未知分类","address":"上海七莘路2949"},{"poiid":"B2094757D068A3FC459C","title":"万科魅力之城","lon":"121.335945","lat":"31.155858","category":"500","category_name":"未知分类","address":"上海中春路8888弄"},{"poiid":"B2094753D465A4FE439F","title":"上海玛雅水上乐园","lon":"121.336982","lat":"31.149391","category":"500","category_name":"未知分类","address":"上海市 欢乐谷旁边"},{"poiid":"B2094757D16EAAF9439F","title":"闵行区人民法院七宝法庭","lon":"121.34258866","lat":"31.1521182","category":"500","category_name":"未知分类","address":"上海闵行区沪松公路460号"},{"poiid":"B2094654DA6BABF4439E","title":"城市花园新区优诗美地","lon":"121.33637","lat":"31.15628","category":"47","category_name":"住宅区","address":"中春路8888弄"},{"poiid":"B2094654DA6BAAFC4592","title":"莱茵风尚","lon":"121.34606","lat":"31.15328","category":"47","category_name":"住宅区","address":"莱茵风尚(万兆家园五期)位于闵行七莘路2929号"},{"poiid":"B2094751D36FA3F44998","title":"巴贝隆自助烤肉(七宝店)","lon":"121.34879","lat":"31.15508","category":"96","category_name":"韩国料理","address":"闵行区漕宝路3509号汇宝广场8楼(10月开张)"},{"poiid":"B2094655D26AA0FA459B","title":"地铁七宝站","lon":"121.34876","lat":"31.15503","category":"36","category_name":"地铁站","address":""},{"poiid":"B2094757D16FA0FB479D","title":"星钻城","lon":"121.347640991","lat":"31.1552658081","category":"500","category_name":"未知分类","address":"闵行区七莘路3021号(近漕宝路)"},{"poiid":"B2094757D069A0FB419C","title":"德克士(七宝店)","lon":"121.34763","lat":"31.15617","category":"68","category_name":"快餐厅","address":"闵行区七莘路3041号星钻城1楼(近新龙路,地铁9号线)"},{"poiid":"B2094751D56EA2F8459F","title":"村夫烤鱼(七宝店)","lon":"121.34565","lat":"31.15491","category":"71","category_name":"四川菜","address":"闵行区佳宝路七宝商业街餐8号(近沪松公路)"},{"poiid":"B2094655D36DA7FF469E","title":"中春路","lon":"121.34418","lat":"31.14329","category":"38","category_name":"公交车站","address":""},{"poiid":"B2094655D26AA1FE4193","title":"法拉利玛莎拉蒂维修专门店","lon":"121.33617","lat":"31.15377","category":"247","category_name":"餐饮美食","address":"闵行区中春路8685号"},{"poiid":"B2094757D06FA3FB459B","title":"奥林匹克花园","lon":"121.334701","lat":"31.152401","category":"47","category_name":"住宅区","address":"松江区九亭镇涞寅路106弄"},{"poiid":"B2094757D06EAAFE4599","title":"七宝地铁站","lon":"121.348758","lat":"31.155028","category":"36","category_name":"地铁站","address":"上海轨道交通 九号线 轨交七宝站 9"},{"poiid":"B2094757D06FA6F8479B","title":"中春路地铁站","lon":"121.33836508","lat":"31.149302088","category":"36","category_name":"地铁站","address":"上海轨道交通 九号线 轨交中春路站 9"},{"poiid":"B2094757D06FA1F8479B","title":"乐购(七宝店)","lon":"121.346509563","lat":"31.1570358462","category":"118","category_name":"超级市场","address":"上海闵行区七宝镇七莘路3155号(近新龙路)"},{"poiid":"B2094654DA64A3F8439B","title":"万科·郎润园","lon":"121.34011","lat":"31.15338","category":"47","category_name":"住宅区","address":"新龙路1111弄"},{"poiid":"B2094757D06FABF9459C","title":"来天华(七宝店)","lon":"121.34839","lat":"31.15504","category":"76","category_name":"上海菜","address":"闵行区七莘路3011号星钻城5楼(近漕宝路)"},{"poiid":"B2094757D06FABFC4893","title":"COSTA COFFEE(七宝乐购店)","lon":"121.34655153","lat":"31.158143312","category":"65","category_name":"咖啡厅","address":"闵行区七莘路3155号乐购1楼(近新龙路)"},{"poiid":"B2094655D26BABFB4499","title":"水清年华花园","lon":"121.34231","lat":"31.15116","category":"47","category_name":"住宅区","address":"上海市闵行区沪松公路565弄"},{"poiid":"B2094654DB69A4F84398","title":"星巴克 七宝店 Starbucks Cafe","lon":"121.34842061966","lat":"31.155162367368","category":"247","category_name":"餐饮美食","address":"七莘路3155号近新龙路"},{"poiid":"B2094757DA6EAAFC419F","title":"鲜芋仙(七宝店)","lon":"121.348790000002","lat":"31.1549070000001","category":"67","category_name":"甜品店","address":"闵行区漕宝路3509号汇宝购物广场1楼(近七莘路)"},{"poiid":"B2094654DA6BABFB4892","title":"必胜客 七宝店 Pizza Hut","lon":"121.34832709738","lat":"31.155256828982","category":"68","category_name":"快餐厅","address":"闵行区七莘路3155号河畔百货1-2楼(近新龙路)"},{"poiid":"B2094757D065A0FA429E","title":"自由港量贩式KTV(七宝店)","lon":"121.34720956","lat":"31.1516669908","category":"170","category_name":"KTV","address":"闵行区沪星路289弄2号3楼(近七莘路家乐福)"},{"poiid":"B2094654DA64A3F94093","title":"上海七宝商城商业街","lon":"121.34695","lat":"31.15547","category":"116","category_name":"特色商业街","address":""},{"poiid":"B2094757D069A7F4499D","title":"吞云小莳(汇宝店)","lon":"121.34890876","lat":"31.1533169256","category":"91","category_name":"台湾菜","address":"闵行区漕宝路3509号汇宝广场1楼(近七莘路)"},{"poiid":"B2094757D06AAAFF4898","title":"渔太郎日料(七宝店)","lon":"121.34321196","lat":"31.158011924","category":"95","category_name":"日本料理","address":"闵行区七莘路3333号万科城市花园7区22号(近吴中路)"},{"poiid":"B2094757D66DABFD479D","title":"闵行区税务局","lon":"121.33980756","lat":"31.150148358","category":"500","category_name":"未知分类","address":"上海沪松公路600号"},{"poiid":"B2094757D06FA6F9429B","title":"麦当劳(七宝店)","lon":"121.34719085","lat":"31.15681076","category":"68","category_name":"快餐厅","address":"闵行区七莘路3045号(近漕宝路)"},{"poiid":"B2094757DA6EAAFE4099","title":"江南公社(七宝店)","lon":"121.3476435","lat":"31.1552652","category":"77","category_name":"湖南菜","address":"闵行区七莘路3011号星钻城4楼(近沪松公路)"},{"poiid":"B2094757D06BA7FD4793","title":"七宝文化中心","lon":"121.34297","lat":"31.15173","category":"179","category_name":"音乐厅","address":"闵行区沪松公路450号(近七宝乐购)"},{"poiid":"B2094757D068A2FB489A","title":"上海奥林匹克花园运动中心","lon":"121.33514404","lat":"31.145084381","category":"260","category_name":"其他","address":"上海沪淞公路"},{"poiid":"B2094757D068A6F44592","title":"味千拉面(七宝店)","lon":"121.34776","lat":"31.1565","category":"95","category_name":"日本料理","address":"七莘路3045号A04,B04号商铺"},{"poiid":"B2094654DA64A3F9459B","title":"魅力之城","lon":"121.33998","lat":"31.15374","category":"47","category_name":"住宅区","address":"七宝镇"},{"poiid":"B2094757D064A4FC459E","title":"第十六税务所七宝征收大厅","lon":"121.34233656","lat":"31.1509429756","category":"500","category_name":"未知分类","address":"上海市闵行区沪松公路559号"},{"poiid":"B2094757D068A4F9409A","title":"肯德基 KFC (汇宝店)","lon":"121.348783","lat":"31.155101","category":"68","category_name":"快餐厅","address":"闵行区漕宝路3509号汇宝购物广场1楼(近七莘路)"},{"poiid":"B2094654DA6BAAFC4499","title":"豪世盛地","lon":"121.34531","lat":"31.152189","category":"47","category_name":"住宅区","address":"沪松公路195弄"},{"poiid":"B2094757DA65A5F5419B","title":"汉庭快捷酒店（上海七宝中心店）","lon":"121.342100501","lat":"31.150725026","category":"216","category_name":"经济型连锁酒店","address":"上海市闵行区沪松公路577号(近中春路)"},{"poiid":"B2094757D064A6FA4198","title":"七宝派出所","lon":"121.342318","lat":"31.151712","category":"609","category_name":"警察局","address":"上海,上海市,沪松公路600号"},{"poiid":"B2094757D16AA4FD419B","title":"上海市地方税务局闵行区第五所","lon":"121.33981616","lat":"31.1511559801","category":"500","category_name":"未知分类","address":"上海沪松公路618号"},{"poiid":"B2094757D168AAFF4493","title":"一兆韦德健身七宝会所","lon":"121.33677456","lat":"31.1532970252","category":"500","category_name":"未知分类","address":"闵行区中春路8889号万科城花新园(近中春路新龙路)"},{"poiid":"B2094655D26AA0FA4598","title":"地铁中春路站","lon":"121.33834","lat":"31.14935","category":"36","category_name":"地铁站","address":""},{"poiid":"B2094752D76CA6FA469E","title":"闵行区中心医院","lon":"121.340403","lat":"31.152408","category":"162","category_name":"医院","address":null},{"poiid":"B2094757D06AA1F9459F","title":"沪松公路","lon":"121.336916","lat":"31.149231","category":"500","category_name":"未知分类","address":"上海沪松公路中春路"},{"poiid":"B2094757D064AAFB4492","title":"水清年华","lon":"121.34230092","lat":"31.149938784","category":"500","category_name":"未知分类","address":"上海沪淞公路565弄"},{"poiid":"B2094757D069A7FB429D","title":"万科优诗美地","lon":"121.33768359","lat":"31.157590384","category":"500","category_name":"未知分类","address":"上海中春路8888弄"},{"poiid":"B2094757D06FABFB4999","title":"85度C(七莘店)","lon":"121.34767","lat":"31.1563","category":"112","category_name":"糕饼店","address":"闵行区七莘路3039号(近沪松公路)"},{"poiid":"B2094757D66FA0F54699","title":"无限量自助烤肉","lon":"121.34674","lat":"31.15678","category":"268","category_name":"自助","address":"闵行区新龙路佳宝一村1-51号(近万科花园6号门)"},{"poiid":"B2094757D069A7FF469A","title":"萨莉亚 七宝乐购店","lon":"121.34629","lat":"31.1582","category":"94","category_name":"西餐厅","address":"闵行区七莘路3155号河畔百货4楼(近新龙路)"},{"poiid":"B2094757D06AAAFB489A","title":"干锅传奇侬好蛙","lon":"121.34937756","lat":"31.1531270216","category":"500","category_name":"未知分类","address":"上海七莘路2949"},{"poiid":"B2094757D068A3FC459C","title":"万科魅力之城","lon":"121.335945","lat":"31.155858","category":"500","category_name":"未知分类","address":"上海中春路8888弄"},{"poiid":"B2094753D465A4FE439F","title":"上海玛雅水上乐园","lon":"121.336982","lat":"31.149391","category":"500","category_name":"未知分类","address":"上海市 欢乐谷旁边"},{"poiid":"B2094757D16EAAF9439F","title":"闵行区人民法院七宝法庭","lon":"121.34258866","lat":"31.1521182","category":"500","category_name":"未知分类","address":"上海闵行区沪松公路460号"},{"poiid":"B2094654DA6BABF4439E","title":"城市花园新区优诗美地","lon":"121.33637","lat":"31.15628","category":"47","category_name":"住宅区","address":"中春路8888弄"},{"poiid":"B2094654DA6BAAFC4592","title":"莱茵风尚","lon":"121.34606","lat":"31.15328","category":"47","category_name":"住宅区","address":"莱茵风尚(万兆家园五期)位于闵行七莘路2929号"},{"poiid":"B2094751D36FA3F44998","title":"巴贝隆自助烤肉(七宝店)","lon":"121.34879","lat":"31.15508","category":"96","category_name":"韩国料理","address":"闵行区漕宝路3509号汇宝广场8楼(10月开张)"},{"poiid":"B2094655D26AA0FA459B","title":"地铁七宝站","lon":"121.34876","lat":"31.15503","category":"36","category_name":"地铁站","address":""},{"poiid":"B2094757D16FA0FB479D","title":"星钻城","lon":"121.347640991","lat":"31.1552658081","category":"500","category_name":"未知分类","address":"闵行区七莘路3021号(近漕宝路)"},{"poiid":"B2094757D069A0FB419C","title":"德克士(七宝店)","lon":"121.34763","lat":"31.15617","category":"68","category_name":"快餐厅","address":"闵行区七莘路3041号星钻城1楼(近新龙路,地铁9号线)"},{"poiid":"B2094751D56EA2F8459F","title":"村夫烤鱼(七宝店)","lon":"121.34565","lat":"31.15491","category":"71","category_name":"四川菜","address":"闵行区佳宝路七宝商业街餐8号(近沪松公路)"},{"poiid":"B2094655D36DA7FF469E","title":"中春路","lon":"121.34418","lat":"31.14329","category":"38","category_name":"公交车站","address":""},{"poiid":"B2094655D26AA1FE4193","title":"法拉利玛莎拉蒂维修专门店","lon":"121.33617","lat":"31.15377","category":"247","category_name":"餐饮美食","address":"闵行区中春路8685号"},{"poiid":"B2094757D06FA3FB459B","title":"奥林匹克花园","lon":"121.334701","lat":"31.152401","category":"47","category_name":"住宅区","address":"松江区九亭镇涞寅路106弄"},{"poiid":"B2094757D06EAAFE4599","title":"七宝地铁站","lon":"121.348758","lat":"31.155028","category":"36","category_name":"地铁站","address":"上海轨道交通 九号线 轨交七宝站 9"},{"poiid":"B2094757D06FA6F8479B","title":"中春路地铁站","lon":"121.33836508","lat":"31.149302088","category":"36","category_name":"地铁站","address":"上海轨道交通 九号线 轨交中春路站 9"},{"poiid":"B2094757D06FA1F8479B","title":"乐购(七宝店)","lon":"121.346509563","lat":"31.1570358462","category":"118","category_name":"超级市场","address":"上海闵行区七宝镇七莘路3155号(近新龙路)"},{"poiid":"B2094654DA64A3F8439B","title":"万科·郎润园","lon":"121.34011","lat":"31.15338","category":"47","category_name":"住宅区","address":"新龙路1111弄"},{"poiid":"B2094757D06FABF9459C","title":"来天华(七宝店)","lon":"121.34839","lat":"31.15504","category":"76","category_name":"上海菜","address":"闵行区七莘路3011号星钻城5楼(近漕宝路)"},{"poiid":"B2094757D06FABFC4893","title":"COSTA COFFEE(七宝乐购店)","lon":"121.34655153","lat":"31.158143312","category":"65","category_name":"咖啡厅","address":"闵行区七莘路3155号乐购1楼(近新龙路)"},{"poiid":"B2094655D26BABFB4499","title":"水清年华花园","lon":"121.34231","lat":"31.15116","category":"47","category_name":"住宅区","address":"上海市闵行区沪松公路565弄"},{"poiid":"B2094654DB69A4F84398","title":"星巴克 七宝店 Starbucks Cafe","lon":"121.34842061966","lat":"31.155162367368","category":"247","category_name":"餐饮美食","address":"七莘路3155号近新龙路"},{"poiid":"B2094757DA6EAAFC419F","title":"鲜芋仙(七宝店)","lon":"121.348790000002","lat":"31.1549070000001","category":"67","category_name":"甜品店","address":"闵行区漕宝路3509号汇宝购物广场1楼(近七莘路)"},{"poiid":"B2094654DA6BABFB4892","title":"必胜客 七宝店 Pizza Hut","lon":"121.34832709738","lat":"31.155256828982","category":"68","category_name":"快餐厅","address":"闵行区七莘路3155号河畔百货1-2楼(近新龙路)"},{"poiid":"B2094757D065A0FA429E","title":"自由港量贩式KTV(七宝店)","lon":"121.34720956","lat":"31.1516669908","category":"170","category_name":"KTV","address":"闵行区沪星路289弄2号3楼(近七莘路家乐福)"},{"poiid":"B2094654DA64A3F94093","title":"上海七宝商城商业街","lon":"121.34695","lat":"31.15547","category":"116","category_name":"特色商业街","address":""},{"poiid":"B2094757D069A7F4499D","title":"吞云小莳(汇宝店)","lon":"121.34890876","lat":"31.1533169256","category":"91","category_name":"台湾菜","address":"闵行区漕宝路3509号汇宝广场1楼(近七莘路)"},{"poiid":"B2094757D06AAAFF4898","title":"渔太郎日料(七宝店)","lon":"121.34321196","lat":"31.158011924","category":"95","category_name":"日本料理","address":"闵行区七莘路3333号万科城市花园7区22号(近吴中路)"},{"poiid":"B2094757D66DABFD479D","title":"闵行区税务局","lon":"121.33980756","lat":"31.150148358","category":"500","category_name":"未知分类","address":"上海沪松公路600号"},{"poiid":"B2094757D06FA6F9429B","title":"麦当劳(七宝店)","lon":"121.34719085","lat":"31.15681076","category":"68","category_name":"快餐厅","address":"闵行区七莘路3045号(近漕宝路)"},{"poiid":"B2094757DA6EAAFE4099","title":"江南公社(七宝店)","lon":"121.3476435","lat":"31.1552652","category":"77","category_name":"湖南菜","address":"闵行区七莘路3011号星钻城4楼(近沪松公路)"},{"poiid":"B2094757D06BA7FD4793","title":"七宝文化中心","lon":"121.34297","lat":"31.15173","category":"179","category_name":"音乐厅","address":"闵行区沪松公路450号(近七宝乐购)"},{"poiid":"B2094757D068A2FB489A","title":"上海奥林匹克花园运动中心","lon":"121.33514404","lat":"31.145084381","category":"260","category_name":"其他","address":"上海沪淞公路"},{"poiid":"B2094757D068A6F44592","title":"味千拉面(七宝店)","lon":"121.34776","lat":"31.1565","category":"95","category_name":"日本料理","address":"七莘路3045号A04,B04号商铺"},{"poiid":"B2094654DA64A3F9459B","title":"魅力之城","lon":"121.33998","lat":"31.15374","category":"47","category_name":"住宅区","address":"七宝镇"},{"poiid":"B2094757D064A4FC459E","title":"第十六税务所七宝征收大厅","lon":"121.34233656","lat":"31.1509429756","category":"500","category_name":"未知分类","address":"上海市闵行区沪松公路559号"},{"poiid":"B2094757D068A4F9409A","title":"肯德基 KFC (汇宝店)","lon":"121.348783","lat":"31.155101","category":"68","category_name":"快餐厅","address":"闵行区漕宝路3509号汇宝购物广场1楼(近七莘路)"},{"poiid":"B2094654DA6BAAFC4499","title":"豪世盛地","lon":"121.34531","lat":"31.152189","category":"47","category_name":"住宅区","address":"沪松公路195弄"},{"poiid":"B2094757DA65A5F5419B","title":"汉庭快捷酒店（上海七宝中心店）","lon":"121.342100501","lat":"31.150725026","category":"216","category_name":"经济型连锁酒店","address":"上海市闵行区沪松公路577号(近中春路)"},{"poiid":"B2094757D064A6FA4198","title":"七宝派出所","lon":"121.342318","lat":"31.151712","category":"609","category_name":"警察局","address":"上海,上海市,沪松公路600号"},{"poiid":"B2094757D16AA4FD419B","title":"上海市地方税务局闵行区第五所","lon":"121.33981616","lat":"31.1511559801","category":"500","category_name":"未知分类","address":"上海沪松公路618号"},{"poiid":"B2094757D168AAFF4493","title":"一兆韦德健身七宝会所","lon":"121.33677456","lat":"31.1532970252","category":"500","category_name":"未知分类","address":"闵行区中春路8889号万科城花新园(近中春路新龙路)"},{"poiid":"B2094655D26AA0FA4598","title":"地铁中春路站","lon":"121.33834","lat":"31.14935","category":"36","category_name":"地铁站","address":""},{"poiid":"B2094752D76CA6FA469E","title":"闵行区中心医院","lon":"121.340403","lat":"31.152408","category":"162","category_name":"医院","address":null},{"poiid":"B2094757D06AA1F9459F","title":"沪松公路","lon":"121.336916","lat":"31.149231","category":"500","category_name":"未知分类","address":"上海沪松公路中春路"},{"poiid":"B2094757D064AAFB4492","title":"水清年华","lon":"121.34230092","lat":"31.149938784","category":"500","category_name":"未知分类","address":"上海沪淞公路565弄"},{"poiid":"B2094757D069A7FB429D","title":"万科优诗美地","lon":"121.33768359","lat":"31.157590384","category":"500","category_name":"未知分类","address":"上海中春路8888弄"},{"poiid":"B2094757D06FABFB4999","title":"85度C(七莘店)","lon":"121.34767","lat":"31.1563","category":"112","category_name":"糕饼店","address":"闵行区七莘路3039号(近沪松公路)"},{"poiid":"B2094757D66FA0F54699","title":"无限量自助烤肉","lon":"121.34674","lat":"31.15678","category":"268","category_name":"自助","address":"闵行区新龙路佳宝一村1-51号(近万科花园6号门)"},{"poiid":"B2094757D069A7FF469A","title":"萨莉亚 七宝乐购店","lon":"121.34629","lat":"31.1582","category":"94","category_name":"西餐厅","address":"闵行区七莘路3155号河畔百货4楼(近新龙路)"},{"poiid":"B2094757D06AAAFB489A","title":"干锅传奇侬好蛙","lon":"121.34937756","lat":"31.1531270216","category":"500","category_name":"未知分类","address":"上海七莘路2949"},{"poiid":"B2094757D068A3FC459C","title":"万科魅力之城","lon":"121.335945","lat":"31.155858","category":"500","category_name":"未知分类","address":"上海中春路8888弄"},{"poiid":"B2094753D465A4FE439F","title":"上海玛雅水上乐园","lon":"121.336982","lat":"31.149391","category":"500","category_name":"未知分类","address":"上海市 欢乐谷旁边"},{"poiid":"B2094757D16EAAF9439F","title":"闵行区人民法院七宝法庭","lon":"121.34258866","lat":"31.1521182","category":"500","category_name":"未知分类","address":"上海闵行区沪松公路460号"},{"poiid":"B2094654DA6BABF4439E","title":"城市花园新区优诗美地","lon":"121.33637","lat":"31.15628","category":"47","category_name":"住宅区","address":"中春路8888弄"},{"poiid":"B2094654DA6BAAFC4592","title":"莱茵风尚","lon":"121.34606","lat":"31.15328","category":"47","category_name":"住宅区","address":"莱茵风尚(万兆家园五期)位于闵行七莘路2929号"},{"poiid":"B2094751D36FA3F44998","title":"巴贝隆自助烤肉(七宝店)","lon":"121.34879","lat":"31.15508","category":"96","category_name":"韩国料理","address":"闵行区漕宝路3509号汇宝广场8楼(10月开张)"},{"poiid":"B2094655D26AA0FA459B","title":"地铁七宝站","lon":"121.34876","lat":"31.15503","category":"36","category_name":"地铁站","address":""},{"poiid":"B2094757D16FA0FB479D","title":"星钻城","lon":"121.347640991","lat":"31.1552658081","category":"500","category_name":"未知分类","address":"闵行区七莘路3021号(近漕宝路)"},{"poiid":"B2094757D069A0FB419C","title":"德克士(七宝店)","lon":"121.34763","lat":"31.15617","category":"68","category_name":"快餐厅","address":"闵行区七莘路3041号星钻城1楼(近新龙路,地铁9号线)"},{"poiid":"B2094751D56EA2F8459F","title":"村夫烤鱼(七宝店)","lon":"121.34565","lat":"31.15491","category":"71","category_name":"四川菜","address":"闵行区佳宝路七宝商业街餐8号(近沪松公路)"},{"poiid":"B2094655D36DA7FF469E","title":"中春路","lon":"121.34418","lat":"31.14329","category":"38","category_name":"公交车站","address":""},{"poiid":"B2094655D26AA1FE4193","title":"法拉利玛莎拉蒂维修专门店","lon":"121.33617","lat":"31.15377","category":"247","category_name":"餐饮美食","address":"闵行区中春路8685号"},{"poiid":"B2094757D06FA3FB459B","title":"奥林匹克花园","lon":"121.334701","lat":"31.152401","category":"47","category_name":"住宅区","address":"松江区九亭镇涞寅路106弄"},{"poiid":"B2094757D06EAAFE4599","title":"七宝地铁站","lon":"121.348758","lat":"31.155028","category":"36","category_name":"地铁站","address":"上海轨道交通 九号线 轨交七宝站 9"},{"poiid":"B2094757D06FA6F8479B","title":"中春路地铁站","lon":"121.33836508","lat":"31.149302088","category":"36","category_name":"地铁站","address":"上海轨道交通 九号线 轨交中春路站 9"},{"poiid":"B2094757D06FA1F8479B","title":"乐购(七宝店)","lon":"121.346509563","lat":"31.1570358462","category":"118","category_name":"超级市场","address":"上海闵行区七宝镇七莘路3155号(近新龙路)"},{"poiid":"B2094654DA64A3F8439B","title":"万科·郎润园","lon":"121.34011","lat":"31.15338","category":"47","category_name":"住宅区","address":"新龙路1111弄"},{"poiid":"B2094757D06FABF9459C","title":"来天华(七宝店)","lon":"121.34839","lat":"31.15504","category":"76","category_name":"上海菜","address":"闵行区七莘路3011号星钻城5楼(近漕宝路)"},{"poiid":"B2094757D06FABFC4893","title":"COSTA COFFEE(七宝乐购店)","lon":"121.34655153","lat":"31.158143312","category":"65","category_name":"咖啡厅","address":"闵行区七莘路3155号乐购1楼(近新龙路)"},{"poiid":"B2094655D26BABFB4499","title":"水清年华花园","lon":"121.34231","lat":"31.15116","category":"47","category_name":"住宅区","address":"上海市闵行区沪松公路565弄"},{"poiid":"B2094654DB69A4F84398","title":"星巴克 七宝店 Starbucks Cafe","lon":"121.34842061966","lat":"31.155162367368","category":"247","category_name":"餐饮美食","address":"七莘路3155号近新龙路"},{"poiid":"B2094757DA6EAAFC419F","title":"鲜芋仙(七宝店)","lon":"121.348790000002","lat":"31.1549070000001","category":"67","category_name":"甜品店","address":"闵行区漕宝路3509号汇宝购物广场1楼(近七莘路)"},{"poiid":"B2094654DA6BABFB4892","title":"必胜客 七宝店 Pizza Hut","lon":"121.34832709738","lat":"31.155256828982","category":"68","category_name":"快餐厅","address":"闵行区七莘路3155号河畔百货1-2楼(近新龙路)"},{"poiid":"B2094757D065A0FA429E","title":"自由港量贩式KTV(七宝店)","lon":"121.34720956","lat":"31.1516669908","category":"170","category_name":"KTV","address":"闵行区沪星路289弄2号3楼(近七莘路家乐福)"},{"poiid":"B2094654DA64A3F94093","title":"上海七宝商城商业街","lon":"121.34695","lat":"31.15547","category":"116","category_name":"特色商业街","address":""},{"poiid":"B2094757D069A7F4499D","title":"吞云小莳(汇宝店)","lon":"121.34890876","lat":"31.1533169256","category":"91","category_name":"台湾菜","address":"闵行区漕宝路3509号汇宝广场1楼(近七莘路)"},{"poiid":"B2094757D06AAAFF4898","title":"渔太郎日料(七宝店)","lon":"121.34321196","lat":"31.158011924","category":"95","category_name":"日本料理","address":"闵行区七莘路3333号万科城市花园7区22号(近吴中路)"},{"poiid":"B2094757D66DABFD479D","title":"闵行区税务局","lon":"121.33980756","lat":"31.150148358","category":"500","category_name":"未知分类","address":"上海沪松公路600号"},{"poiid":"B2094757D06FA6F9429B","title":"麦当劳(七宝店)","lon":"121.34719085","lat":"31.15681076","category":"68","category_name":"快餐厅","address":"闵行区七莘路3045号(近漕宝路)"},{"poiid":"B2094757DA6EAAFE4099","title":"江南公社(七宝店)","lon":"121.3476435","lat":"31.1552652","category":"77","category_name":"湖南菜","address":"闵行区七莘路3011号星钻城4楼(近沪松公路)"},{"poiid":"B2094757D06BA7FD4793","title":"七宝文化中心","lon":"121.34297","lat":"31.15173","category":"179","category_name":"音乐厅","address":"闵行区沪松公路450号(近七宝乐购)"},{"poiid":"B2094757D068A2FB489A","title":"上海奥林匹克花园运动中心","lon":"121.33514404","lat":"31.145084381","category":"260","category_name":"其他","address":"上海沪淞公路"},{"poiid":"B2094757D068A6F44592","title":"味千拉面(七宝店)","lon":"121.34776","lat":"31.1565","category":"95","category_name":"日本料理","address":"七莘路3045号A04,B04号商铺"},{"poiid":"B2094654DA64A3F9459B","title":"魅力之城","lon":"121.33998","lat":"31.15374","category":"47","category_name":"住宅区","address":"七宝镇"},{"poiid":"B2094757D064A4FC459E","title":"第十六税务所七宝征收大厅","lon":"121.34233656","lat":"31.1509429756","category":"500","category_name":"未知分类","address":"上海市闵行区沪松公路559号"},{"poiid":"B2094757D068A4F9409A","title":"肯德基 KFC (汇宝店)","lon":"121.348783","lat":"31.155101","category":"68","category_name":"快餐厅","address":"闵行区漕宝路3509号汇宝购物广场1楼(近七莘路)"},{"poiid":"B2094654DA6BAAFC4499","title":"豪世盛地","lon":"121.34531","lat":"31.152189","category":"47","category_name":"住宅区","address":"沪松公路195弄"},{"poiid":"B2094757DA65A5F5419B","title":"汉庭快捷酒店（上海七宝中心店）","lon":"121.342100501","lat":"31.150725026","category":"216","category_name":"经济型连锁酒店","address":"上海市闵行区沪松公路577号(近中春路)"},{"poiid":"B2094757D064A6FA4198","title":"七宝派出所","lon":"121.342318","lat":"31.151712","category":"609","category_name":"警察局","address":"上海,上海市,沪松公路600号"},{"poiid":"B2094757D16AA4FD419B","title":"上海市地方税务局闵行区第五所","lon":"121.33981616","lat":"31.1511559801","category":"500","category_name":"未知分类","address":"上海沪松公路618号"},{"poiid":"B2094757D168AAFF4493","title":"一兆韦德健身七宝会所","lon":"121.33677456","lat":"31.1532970252","category":"500","category_name":"未知分类","address":"闵行区中春路8889号万科城花新园(近中春路新龙路)"},{"poiid":"B2094655D26AA0FA4598","title":"地铁中春路站","lon":"121.33834","lat":"31.14935","category":"36","category_name":"地铁站","address":""},{"poiid":"B2094752D76CA6FA469E","title":"闵行区中心医院","lon":"121.340403","lat":"31.152408","category":"162","category_name":"医院","address":null},{"poiid":"B2094757D06AA1F9459F","title":"沪松公路","lon":"121.336916","lat":"31.149231","category":"500","category_name":"未知分类","address":"上海沪松公路中春路"},{"poiid":"B2094757D064AAFB4492","title":"水清年华","lon":"121.34230092","lat":"31.149938784","category":"500","category_name":"未知分类","address":"上海沪淞公路565弄"},{"poiid":"B2094757D069A7FB429D","title":"万科优诗美地","lon":"121.33768359","lat":"31.157590384","category":"500","category_name":"未知分类","address":"上海中春路8888弄"},{"poiid":"B2094757D06FABFB4999","title":"85度C(七莘店)","lon":"121.34767","lat":"31.1563","category":"112","category_name":"糕饼店","address":"闵行区七莘路3039号(近沪松公路)"},{"poiid":"B2094757D66FA0F54699","title":"无限量自助烤肉","lon":"121.34674","lat":"31.15678","category":"268","category_name":"自助","address":"闵行区新龙路佳宝一村1-51号(近万科花园6号门)"},{"poiid":"B2094757D069A7FF469A","title":"萨莉亚 七宝乐购店","lon":"121.34629","lat":"31.1582","category":"94","category_name":"西餐厅","address":"闵行区七莘路3155号河畔百货4楼(近新龙路)"},{"poiid":"B2094757D06AAAFB489A","title":"干锅传奇侬好蛙","lon":"121.34937756","lat":"31.1531270216","category":"500","category_name":"未知分类","address":"上海七莘路2949"},{"poiid":"B2094757D068A3FC459C","title":"万科魅力之城","lon":"121.335945","lat":"31.155858","category":"500","category_name":"未知分类","address":"上海中春路8888弄"},{"poiid":"B2094753D465A4FE439F","title":"上海玛雅水上乐园","lon":"121.336982","lat":"31.149391","category":"500","category_name":"未知分类","address":"上海市 欢乐谷旁边"},{"poiid":"B2094757D16EAAF9439F","title":"闵行区人民法院七宝法庭","lon":"121.34258866","lat":"31.1521182","category":"500","category_name":"未知分类","address":"上海闵行区沪松公路460号"},{"poiid":"B2094654DA6BABF4439E","title":"城市花园新区优诗美地","lon":"121.33637","lat":"31.15628","category":"47","category_name":"住宅区","address":"中春路8888弄"},{"poiid":"B2094654DA6BAAFC4592","title":"莱茵风尚","lon":"121.34606","lat":"31.15328","category":"47","category_name":"住宅区","address":"莱茵风尚(万兆家园五期)位于闵行七莘路2929号"},{"poiid":"B2094751D36FA3F44998","title":"巴贝隆自助烤肉(七宝店)","lon":"121.34879","lat":"31.15508","category":"96","category_name":"韩国料理","address":"闵行区漕宝路3509号汇宝广场8楼(10月开张)"},{"poiid":"B2094655D26AA0FA459B","title":"地铁七宝站","lon":"121.34876","lat":"31.15503","category":"36","category_name":"地铁站","address":""},{"poiid":"B2094757D16FA0FB479D","title":"星钻城","lon":"121.347640991","lat":"31.1552658081","category":"500","category_name":"未知分类","address":"闵行区七莘路3021号(近漕宝路)"},{"poiid":"B2094757D069A0FB419C","title":"德克士(七宝店)","lon":"121.34763","lat":"31.15617","category":"68","category_name":"快餐厅","address":"闵行区七莘路3041号星钻城1楼(近新龙路,地铁9号线)"},{"poiid":"B2094751D56EA2F8459F","title":"村夫烤鱼(七宝店)","lon":"121.34565","lat":"31.15491","category":"71","category_name":"四川菜","address":"闵行区佳宝路七宝商业街餐8号(近沪松公路)"},{"poiid":"B2094655D36DA7FF469E","title":"中春路","lon":"121.34418","lat":"31.14329","category":"38","category_name":"公交车站","address":""},{"poiid":"B2094655D26AA1FE4193","title":"法拉利玛莎拉蒂维修专门店","lon":"121.33617","lat":"31.15377","category":"247","category_name":"餐饮美食","address":"闵行区中春路8685号"}]