[{"poiid":"B2094757D06FA1FF4799","title":"豫园","lon":"121.49209476305077","lat":"31.227224682757594","category":"240","category_name":"国家级景点","address":"上海市黄浦区安仁街218号"},{"poiid":"B2094757D06FA6FC429D","title":"外滩新十六铺","lon":"121.498305","lat":"31.227433","category":"234","category_name":"海滨浴场","address":"上海中山东二路531号"},{"poiid":"B2094757D06FA1F94792","title":"香港名都","lon":"121.496","lat":"31.228","category":"119","category_name":"商场","address":"黄浦区河南南路489号(近复兴东路)"},{"poiid":"B209475CD564A7F84292","title":"上海滩新天地店","lon":"121.47463","lat":"31.22164","category":"119","category_name":"商场","address":"\"太仓路181弄新天地北里15号\r\n\""},{"poiid":"B209475CD564A7F84392","title":"上海滩浦东香格里拉店","lon":"121.50058","lat":"31.23634","category":"119","category_name":"商场","address":"浦东富成路33号香格里拉酒店内大堂层"},{"poiid":"B2094757D06EAAFA489F","title":"上海外滩英迪格酒店 (Hotel Indigo)","lon":"121.499735","lat":"31.226432","category":"217","category_name":"旅馆招待所","address":"黄浦区中山东二路585号(近东门路)"},{"poiid":"B2094757D06FA1FE439B","title":"老城隍庙小吃广场","lon":"121.49257","lat":"31.22648","category":"68","category_name":"快餐厅","address":"黄浦区福佑路238号豫园内"},{"poiid":"B2094757D06FA7F54892","title":"外滩轮渡","lon":"121.49613189","lat":"31.232406616","category":"260","category_name":"其他","address":"上海外滩"},{"poiid":"B2094757D568A6FE449D","title":"松鹤楼(外滩店)","lon":"121.49712782","lat":"31.22868273","category":"76","category_name":"上海菜","address":"黄浦区中山东二路505号(近外马路)"},{"poiid":"B2094757D06FA3FC419B","title":"小林煎饼 豫园店","lon":"121.490016054","lat":"31.227538793","category":"67","category_name":"甜品店","address":"黄浦区豫春路9号豫园商城内B室(近老庙黄金广场)"},{"poiid":"B2094757D06FA4FF4298","title":"Zeal","lon":"121.494104619","lat":"31.230399184","category":"260","category_name":"其他","address":"黄浦区中山东二路22号6楼(近金陵东路)"},{"poiid":"B2094757D06FA6F8429D","title":"古城公园","lon":"121.493892508","lat":"31.2285424773","category":"196","category_name":"公园","address":"黄浦区人民路333号(近福佑路)"},{"poiid":"B2094750D26EA2FB419E","title":"El Willy","lon":"121.493644","lat":"31.231233","category":"94","category_name":"西餐厅","address":"黄浦区中山东二路22号5楼(近新永安路)"},{"poiid":"B2094757D16FA0FF4092","title":"小南国(十六铺店)","lon":"121.500050938","lat":"31.2274259403","category":"76","category_name":"上海菜","address":"黄浦区中山东二路565号A楼(近东门路)"},{"poiid":"B2094757D06FA3FC439D","title":"城隍庙九曲桥","lon":"121.49238","lat":"31.22698","category":"260","category_name":"其他","address":"黄浦区福佑路238号豫园内"},{"poiid":"B2094757D069A6FE449C","title":"十六铺码头边","lon":"121.49703768","lat":"31.228610509","category":"500","category_name":"未知分类","address":"上海市,上海中山东二路"},{"poiid":"B2094757D06AA2FD4298","title":"龙皇酒家","lon":"121.49882273","lat":"31.227382239","category":"72","category_name":"广东菜","address":"黄浦区中山东二路535号十六铺B栋楼(外马路中山东二路)"},{"poiid":"B2094757D468A4FE489A","title":"Horizen","lon":"121.492901","lat":"31.231715","category":"247","category_name":"餐饮美食","address":"金陵东路1号近中山东二路"},{"poiid":"B2094757D068A3FA459C","title":"四牌楼路小吃一条街","lon":"121.4956","lat":"31.22506","category":"68","category_name":"快餐厅","address":"黄浦区四牌楼路牌坊下(方浜中路口)"},{"poiid":"B2094750D26FABF44592","title":"Bocca","lon":"121.4960508","lat":"31.2293856","category":"98","category_name":"意式菜品餐厅","address":"黄浦区中山东二路22号5楼(近新永安路)"},{"poiid":"B2094757D06FABFF4699","title":"东方商旅 Les Suites Orient","lon":"121.492741","lat":"31.231819","category":"217","category_name":"旅馆招待所","address":"黄浦区金陵东路1号(近中山东二路)"},{"poiid":"B2094757D06FA3FF419C","title":"星巴克 STARBUCKS (豫园二店)","lon":"121.49199","lat":"31.22696","category":"260","category_name":"其他","address":"黄浦区福佑路238号豫园内"},{"poiid":"B2094757D068AAF44399","title":"士林华苑","lon":"121.497","lat":"31.2262","category":"47","category_name":"住宅区","address":"上海黄浦区河南南路555弄"},{"poiid":"B2094757D06FA7FD4592","title":"网鱼网咖(张杨店)","lon":"121.49722426","lat":"31.229141715","category":"173","category_name":"游戏厅","address":"浦东新区张杨路640号3楼A座(近第一八佰伴)"},{"poiid":"B2094750D26EA7F44892","title":"YAWARAGI ON THE BUND","lon":"121.494522","lat":"31.232086","category":"95","category_name":"日本料理","address":"黄浦区中山东二路22号3楼(近新永安路)"},{"poiid":"B2094757D068A6FF489B","title":"金陵东路渡口","lon":"121.493181968","lat":"31.2321444779","category":"35","category_name":"长途汽车站","address":"上海中山东二路121号(金陵东路口)"},{"poiid":"B2094655D36DA1F5439B","title":"小东门","lon":"121.49708","lat":"31.22573","category":"38","category_name":"公交车站","address":""},{"poiid":"B209475CD76BA0F9469E","title":"大蔬无界 外滩22号馆","lon":"121.493989","lat":"31.230711","category":"111","category_name":"休闲餐饮场所","address":"上海市黄浦区中山东二路外滩22号4楼"},{"poiid":"B2094757D66AAAFB439C","title":"江畔Quay","lon":"121.496346","lat":"31.229182","category":"94","category_name":"西餐厅","address":"黄浦区中山东二路585号外滩英迪格酒店6楼"},{"poiid":"B2094757D069A0FC4992","title":"松月楼","lon":"121.49108","lat":"31.22666","category":"89","category_name":"中式素餐馆","address":"黄浦区旧校场路99号(近方浜中路)"},{"poiid":"B2094757D06BA2FA4499","title":"新开河","lon":"121.495265841","lat":"31.2296010434","category":"38","category_name":"公交车站","address":"上海外滩"},{"poiid":"B2094655D36DA6FF4493","title":"金陵东路","lon":"121.49318","lat":"31.23215","category":"38","category_name":"公交车站","address":"上海黄浦区金陵东路"},{"poiid":"B2094757D069A2F8419D","title":"黄浦江游览","lon":"121.49412","lat":"31.23077","category":"260","category_name":"其他","address":"黄浦区中山东二路531号(近新开河)查看地图"},{"poiid":"B2094757D46BA1FD489C","title":"十二果芬 中山东二路店 Brix12","lon":"121.495787","lat":"31.2293892","category":"67","category_name":"甜品店","address":"中山东二路22号5楼近新开河路"},{"poiid":"B2094757D664AAFB479B","title":"上海老街小吃","lon":"121.49814282332","lat":"31.22556929005","category":"68","category_name":"快餐厅","address":"黄浦区方浜中路77号(康家弄四牌楼路)"},{"poiid":"B2094757D068ABF4459F","title":"耕月人茶馆","lon":"121.4933","lat":"31.22533","category":"260","category_name":"其他","address":"上海黄浦区方浜中路235号豫安阁4楼(近安仁街)"},{"poiid":"B2094654DA6EA5FA419E","title":"新外滩商厦","lon":"121.49335","lat":"31.23127","category":"46","category_name":"楼宇","address":"黄浦区中山东二路15号(龙潭路中山东二路)"},{"poiid":"B2094750D665A0F4429B","title":"船长8号","lon":"121.496","lat":"31.2283","category":"76","category_name":"上海菜","address":"黄浦区中山东二路531号十六铺码头C区(近东门路)"},{"poiid":"B2094757D168A0F8489B","title":"fesco adecco","lon":"121.49748523","lat":"31.224477577","category":"500","category_name":"未知分类","address":"上海市中山南路28号久事大厦附楼"},{"poiid":"B2094757D065A5FD429E","title":"中山东二路新开河路站(公交33,55,65,868,910,926,928)","lon":"121.495716131","lat":"31.2294570049","category":"38","category_name":"公交车站","address":"上海市黄浦区中山东二路新开河路"},{"poiid":"B2094757D569A2FE4693","title":"新外滩15号","lon":"121.4933389","lat":"31.23143889","category":"47","category_name":"住宅区","address":"黄浦区中山东二路15号"},{"poiid":"B2094757D16DA5FB459D","title":"MJ  club","lon":"121.499573738","lat":"31.2269042292","category":"500","category_name":"未知分类","address":"上海市黄浦区中山南二路501号"},{"poiid":"B2094654DA6EA5FA4093","title":"上海老街(人民路)","lon":"121.49656","lat":"31.22521","category":"116","category_name":"特色商业街","address":""},{"poiid":"B2094757DB6FA3F84099","title":"淮海路一号酒吧","lon":"121.4966975953756","lat":"31.22976648979435","category":"248","category_name":"生活娱乐","address":"淮海路柳荫路"},{"poiid":"B2094757D469A1F5479F","title":"MJ.98酒吧","lon":"121.4964225","lat":"31.2288226","category":"260","category_name":"其他","address":"黄浦区中山东二路501号新十六铺商业区B112室"},{"poiid":"B2094750DB68A1F84699","title":"滨江大道  哈根达斯","lon":"121.497482","lat":"31.227943","category":"247","category_name":"餐饮美食","address":null},{"poiid":"B2094757D068A7FD4592","title":"新十六铺A区","lon":"121.4964221","lat":"31.2288222","category":"500","category_name":"未知分类","address":"上海黄浦区中山东二路501号"},{"poiid":"B2094654DA6EA4FC439C","title":"福源商厦","lon":"121.496","lat":"31.2327","category":"46","category_name":"楼宇","address":"黄浦区福佑路338号(近丽水路)"},{"poiid":"B2094750D665A0FB469C","title":"船长5号","lon":"121.494","lat":"31.2295","category":"47","category_name":"住宅区","address":"黄浦区中山东二路531号(近东门路)"},{"poiid":"B2094752DB6EA4FC499B","title":"上海半岛酒店","lon":"121.495568","lat":"31.227815","category":"500","category_name":"未知分类","address":"上海市 中山东一路32号"},{"poiid":"B2094757D06FA1FF4799","title":"豫园","lon":"121.49209476305077","lat":"31.227224682757594","category":"240","category_name":"国家级景点","address":"上海市黄浦区安仁街218号"},{"poiid":"B2094757D06FA6FC429D","title":"外滩新十六铺","lon":"121.498305","lat":"31.227433","category":"234","category_name":"海滨浴场","address":"上海中山东二路531号"},{"poiid":"B2094757D06FA1F94792","title":"香港名都","lon":"121.496","lat":"31.228","category":"119","category_name":"商场","address":"黄浦区河南南路489号(近复兴东路)"},{"poiid":"B209475CD564A7F84292","title":"上海滩新天地店","lon":"121.47463","lat":"31.22164","category":"119","category_name":"商场","address":"\"太仓路181弄新天地北里15号\r\n\""},{"poiid":"B209475CD564A7F84392","title":"上海滩浦东香格里拉店","lon":"121.50058","lat":"31.23634","category":"119","category_name":"商场","address":"浦东富成路33号香格里拉酒店内大堂层"},{"poiid":"B2094757D06EAAFA489F","title":"上海外滩英迪格酒店 (Hotel Indigo)","lon":"121.499735","lat":"31.226432","category":"217","category_name":"旅馆招待所","address":"黄浦区中山东二路585号(近东门路)"},{"poiid":"B2094757D06FA1FE439B","title":"老城隍庙小吃广场","lon":"121.49257","lat":"31.22648","category":"68","category_name":"快餐厅","address":"黄浦区福佑路238号豫园内"},{"poiid":"B2094757D06FA7F54892","title":"外滩轮渡","lon":"121.49613189","lat":"31.232406616","category":"260","category_name":"其他","address":"上海外滩"},{"poiid":"B2094757D568A6FE449D","title":"松鹤楼(外滩店)","lon":"121.49712782","lat":"31.22868273","category":"76","category_name":"上海菜","address":"黄浦区中山东二路505号(近外马路)"},{"poiid":"B2094757D06FA3FC419B","title":"小林煎饼 豫园店","lon":"121.490016054","lat":"31.227538793","category":"67","category_name":"甜品店","address":"黄浦区豫春路9号豫园商城内B室(近老庙黄金广场)"},{"poiid":"B2094757D06FA4FF4298","title":"Zeal","lon":"121.494104619","lat":"31.230399184","category":"260","category_name":"其他","address":"黄浦区中山东二路22号6楼(近金陵东路)"},{"poiid":"B2094757D06FA6F8429D","title":"古城公园","lon":"121.493892508","lat":"31.2285424773","category":"196","category_name":"公园","address":"黄浦区人民路333号(近福佑路)"},{"poiid":"B2094750D26EA2FB419E","title":"El Willy","lon":"121.493644","lat":"31.231233","category":"94","category_name":"西餐厅","address":"黄浦区中山东二路22号5楼(近新永安路)"},{"poiid":"B2094757D16FA0FF4092","title":"小南国(十六铺店)","lon":"121.500050938","lat":"31.2274259403","category":"76","category_name":"上海菜","address":"黄浦区中山东二路565号A楼(近东门路)"},{"poiid":"B2094757D06FA3FC439D","title":"城隍庙九曲桥","lon":"121.49238","lat":"31.22698","category":"260","category_name":"其他","address":"黄浦区福佑路238号豫园内"},{"poiid":"B2094757D069A6FE449C","title":"十六铺码头边","lon":"121.49703768","lat":"31.228610509","category":"500","category_name":"未知分类","address":"上海市,上海中山东二路"},{"poiid":"B2094757D06AA2FD4298","title":"龙皇酒家","lon":"121.49882273","lat":"31.227382239","category":"72","category_name":"广东菜","address":"黄浦区中山东二路535号十六铺B栋楼(外马路中山东二路)"},{"poiid":"B2094757D468A4FE489A","title":"Horizen","lon":"121.492901","lat":"31.231715","category":"247","category_name":"餐饮美食","address":"金陵东路1号近中山东二路"},{"poiid":"B2094757D068A3FA459C","title":"四牌楼路小吃一条街","lon":"121.4956","lat":"31.22506","category":"68","category_name":"快餐厅","address":"黄浦区四牌楼路牌坊下(方浜中路口)"},{"poiid":"B2094750D26FABF44592","title":"Bocca","lon":"121.4960508","lat":"31.2293856","category":"98","category_name":"意式菜品餐厅","address":"黄浦区中山东二路22号5楼(近新永安路)"},{"poiid":"B2094757D06FABFF4699","title":"东方商旅 Les Suites Orient","lon":"121.492741","lat":"31.231819","category":"217","category_name":"旅馆招待所","address":"黄浦区金陵东路1号(近中山东二路)"},{"poiid":"B2094757D06FA3FF419C","title":"星巴克 STARBUCKS (豫园二店)","lon":"121.49199","lat":"31.22696","category":"260","category_name":"其他","address":"黄浦区福佑路238号豫园内"},{"poiid":"B2094757D068AAF44399","title":"士林华苑","lon":"121.497","lat":"31.2262","category":"47","category_name":"住宅区","address":"上海黄浦区河南南路555弄"},{"poiid":"B2094757D06FA7FD4592","title":"网鱼网咖(张杨店)","lon":"121.49722426","lat":"31.229141715","category":"173","category_name":"游戏厅","address":"浦东新区张杨路640号3楼A座(近第一八佰伴)"},{"poiid":"B2094750D26EA7F44892","title":"YAWARAGI ON THE BUND","lon":"121.494522","lat":"31.232086","category":"95","category_name":"日本料理","address":"黄浦区中山东二路22号3楼(近新永安路)"},{"poiid":"B2094757D068A6FF489B","title":"金陵东路渡口","lon":"121.493181968","lat":"31.2321444779","category":"35","category_name":"长途汽车站","address":"上海中山东二路121号(金陵东路口)"},{"poiid":"B2094655D36DA1F5439B","title":"小东门","lon":"121.49708","lat":"31.22573","category":"38","category_name":"公交车站","address":""},{"poiid":"B209475CD76BA0F9469E","title":"大蔬无界 外滩22号馆","lon":"121.493989","lat":"31.230711","category":"111","category_name":"休闲餐饮场所","address":"上海市黄浦区中山东二路外滩22号4楼"},{"poiid":"B2094757D66AAAFB439C","title":"江畔Quay","lon":"121.496346","lat":"31.229182","category":"94","category_name":"西餐厅","address":"黄浦区中山东二路585号外滩英迪格酒店6楼"},{"poiid":"B2094757D069A0FC4992","title":"松月楼","lon":"121.49108","lat":"31.22666","category":"89","category_name":"中式素餐馆","address":"黄浦区旧校场路99号(近方浜中路)"},{"poiid":"B2094757D06BA2FA4499","title":"新开河","lon":"121.495265841","lat":"31.2296010434","category":"38","category_name":"公交车站","address":"上海外滩"},{"poiid":"B2094655D36DA6FF4493","title":"金陵东路","lon":"121.49318","lat":"31.23215","category":"38","category_name":"公交车站","address":"上海黄浦区金陵东路"},{"poiid":"B2094757D069A2F8419D","title":"黄浦江游览","lon":"121.49412","lat":"31.23077","category":"260","category_name":"其他","address":"黄浦区中山东二路531号(近新开河)查看地图"},{"poiid":"B2094757D46BA1FD489C","title":"十二果芬 中山东二路店 Brix12","lon":"121.495787","lat":"31.2293892","category":"67","category_name":"甜品店","address":"中山东二路22号5楼近新开河路"},{"poiid":"B2094757D664AAFB479B","title":"上海老街小吃","lon":"121.49814282332","lat":"31.22556929005","category":"68","category_name":"快餐厅","address":"黄浦区方浜中路77号(康家弄四牌楼路)"},{"poiid":"B2094757D068ABF4459F","title":"耕月人茶馆","lon":"121.4933","lat":"31.22533","category":"260","category_name":"其他","address":"上海黄浦区方浜中路235号豫安阁4楼(近安仁街)"},{"poiid":"B2094654DA6EA5FA419E","title":"新外滩商厦","lon":"121.49335","lat":"31.23127","category":"46","category_name":"楼宇","address":"黄浦区中山东二路15号(龙潭路中山东二路)"},{"poiid":"B2094750D665A0F4429B","title":"船长8号","lon":"121.496","lat":"31.2283","category":"76","category_name":"上海菜","address":"黄浦区中山东二路531号十六铺码头C区(近东门路)"},{"poiid":"B2094757D168A0F8489B","title":"fesco adecco","lon":"121.49748523","lat":"31.224477577","category":"500","category_name":"未知分类","address":"上海市中山南路28号久事大厦附楼"},{"poiid":"B2094757D065A5FD429E","title":"中山东二路新开河路站(公交33,55,65,868,910,926,928)","lon":"121.495716131","lat":"31.2294570049","category":"38","category_name":"公交车站","address":"上海市黄浦区中山东二路新开河路"},{"poiid":"B2094757D569A2FE4693","title":"新外滩15号","lon":"121.4933389","lat":"31.23143889","category":"47","category_name":"住宅区","address":"黄浦区中山东二路15号"},{"poiid":"B2094757D16DA5FB459D","title":"MJ  club","lon":"121.499573738","lat":"31.2269042292","category":"500","category_name":"未知分类","address":"上海市黄浦区中山南二路501号"},{"poiid":"B2094654DA6EA5FA4093","title":"上海老街(人民路)","lon":"121.49656","lat":"31.22521","category":"116","category_name":"特色商业街","address":""},{"poiid":"B2094757DB6FA3F84099","title":"淮海路一号酒吧","lon":"121.4966975953756","lat":"31.22976648979435","category":"248","category_name":"生活娱乐","address":"淮海路柳荫路"},{"poiid":"B2094757D469A1F5479F","title":"MJ.98酒吧","lon":"121.4964225","lat":"31.2288226","category":"260","category_name":"其他","address":"黄浦区中山东二路501号新十六铺商业区B112室"},{"poiid":"B2094750DB68A1F84699","title":"滨江大道  哈根达斯","lon":"121.497482","lat":"31.227943","category":"247","category_name":"餐饮美食","address":null},{"poiid":"B2094757D068A7FD4592","title":"新十六铺A区","lon":"121.4964221","lat":"31.2288222","category":"500","category_name":"未知分类","address":"上海黄浦区中山东二路501号"},{"poiid":"B2094654DA6EA4FC439C","title":"福源商厦","lon":"121.496","lat":"31.2327","category":"46","category_name":"楼宇","address":"黄浦区福佑路338号(近丽水路)"},{"poiid":"B2094750D665A0FB469C","title":"船长5号","lon":"121.494","lat":"31.2295","category":"47","category_name":"住宅区","address":"黄浦区中山东二路531号(近东门路)"},{"poiid":"B2094752DB6EA4FC499B","title":"上海半岛酒店","lon":"121.495568","lat":"31.227815","category":"500","category_name":"未知分类","address":"上海市 中山东一路32号"},{"poiid":"B2094757D06FA1FF4799","title":"豫园","lon":"121.49209476305077","lat":"31.227224682757594","category":"240","category_name":"国家级景点","address":"上海市黄浦区安仁街218号"},{"poiid":"B2094757D06FA6FC429D","title":"外滩新十六铺","lon":"121.498305","lat":"31.227433","category":"234","category_name":"海滨浴场","address":"上海中山东二路531号"},{"poiid":"B2094757D06FA1F94792","title":"香港名都","lon":"121.496","lat":"31.228","category":"119","category_name":"商场","address":"黄浦区河南南路489号(近复兴东路)"},{"poiid":"B209475CD564A7F84292","title":"上海滩新天地店","lon":"121.47463","lat":"31.22164","category":"119","category_name":"商场","address":"\"太仓路181弄新天地北里15号\r\n\""},{"poiid":"B209475CD564A7F84392","title":"上海滩浦东香格里拉店","lon":"121.50058","lat":"31.23634","category":"119","category_name":"商场","address":"浦东富成路33号香格里拉酒店内大堂层"},{"poiid":"B2094757D06EAAFA489F","title":"上海外滩英迪格酒店 (Hotel Indigo)","lon":"121.499735","lat":"31.226432","category":"217","category_name":"旅馆招待所","address":"黄浦区中山东二路585号(近东门路)"},{"poiid":"B2094757D06FA1FE439B","title":"老城隍庙小吃广场","lon":"121.49257","lat":"31.22648","category":"68","category_name":"快餐厅","address":"黄浦区福佑路238号豫园内"},{"poiid":"B2094757D06FA7F54892","title":"外滩轮渡","lon":"121.49613189","lat":"31.232406616","category":"260","category_name":"其他","address":"上海外滩"},{"poiid":"B2094757D568A6FE449D","title":"松鹤楼(外滩店)","lon":"121.49712782","lat":"31.22868273","category":"76","category_name":"上海菜","address":"黄浦区中山东二路505号(近外马路)"},{"poiid":"B2094757D06FA3FC419B","title":"小林煎饼 豫园店","lon":"121.490016054","lat":"31.227538793","category":"67","category_name":"甜品店","address":"黄浦区豫春路9号豫园商城内B室(近老庙黄金广场)"},{"poiid":"B2094757D06FA4FF4298","title":"Zeal","lon":"121.494104619","lat":"31.230399184","category":"260","category_name":"其他","address":"黄浦区中山东二路22号6楼(近金陵东路)"},{"poiid":"B2094757D06FA6F8429D","title":"古城公园","lon":"121.493892508","lat":"31.2285424773","category":"196","category_name":"公园","address":"黄浦区人民路333号(近福佑路)"},{"poiid":"B2094750D26EA2FB419E","title":"El Willy","lon":"121.493644","lat":"31.231233","category":"94","category_name":"西餐厅","address":"黄浦区中山东二路22号5楼(近新永安路)"},{"poiid":"B2094757D16FA0FF4092","title":"小南国(十六铺店)","lon":"121.500050938","lat":"31.2274259403","category":"76","category_name":"上海菜","address":"黄浦区中山东二路565号A楼(近东门路)"},{"poiid":"B2094757D06FA3FC439D","title":"城隍庙九曲桥","lon":"121.49238","lat":"31.22698","category":"260","category_name":"其他","address":"黄浦区福佑路238号豫园内"},{"poiid":"B2094757D069A6FE449C","title":"十六铺码头边","lon":"121.49703768","lat":"31.228610509","category":"500","category_name":"未知分类","address":"上海市,上海中山东二路"},{"poiid":"B2094757D06AA2FD4298","title":"龙皇酒家","lon":"121.49882273","lat":"31.227382239","category":"72","category_name":"广东菜","address":"黄浦区中山东二路535号十六铺B栋楼(外马路中山东二路)"},{"poiid":"B2094757D468A4FE489A","title":"Horizen","lon":"121.492901","lat":"31.231715","category":"247","category_name":"餐饮美食","address":"金陵东路1号近中山东二路"},{"poiid":"B2094757D068A3FA459C","title":"四牌楼路小吃一条街","lon":"121.4956","lat":"31.22506","category":"68","category_name":"快餐厅","address":"黄浦区四牌楼路牌坊下(方浜中路口)"},{"poiid":"B2094750D26FABF44592","title":"Bocca","lon":"121.4960508","lat":"31.2293856","category":"98","category_name":"意式菜品餐厅","address":"黄浦区中山东二路22号5楼(近新永安路)"},{"poiid":"B2094757D06FABFF4699","title":"东方商旅 Les Suites Orient","lon":"121.492741","lat":"31.231819","category":"217","category_name":"旅馆招待所","address":"黄浦区金陵东路1号(近中山东二路)"},{"poiid":"B2094757D06FA3FF419C","title":"星巴克 STARBUCKS (豫园二店)","lon":"121.49199","lat":"31.22696","category":"260","category_name":"其他","address":"黄浦区福佑路238号豫园内"},{"poiid":"B2094757D068AAF44399","title":"士林华苑","lon":"121.497","lat":"31.2262","category":"47","category_name":"住宅区","address":"上海黄浦区河南南路555弄"},{"poiid":"B2094757D06FA7FD4592","title":"网鱼网咖(张杨店)","lon":"121.49722426","lat":"31.229141715","category":"173","category_name":"游戏厅","address":"浦东新区张杨路640号3楼A座(近第一八佰伴)"},{"poiid":"B2094750D26EA7F44892","title":"YAWARAGI ON THE BUND","lon":"121.494522","lat":"31.232086","category":"95","category_name":"日本料理","address":"黄浦区中山东二路22号3楼(近新永安路)"},{"poiid":"B2094757D068A6FF489B","title":"金陵东路渡口","lon":"121.493181968","lat":"31.2321444779","category":"35","category_name":"长途汽车站","address":"上海中山东二路121号(金陵东路口)"},{"poiid":"B2094655D36DA1F5439B","title":"小东门","lon":"121.49708","lat":"31.22573","category":"38","category_name":"公交车站","address":""},{"poiid":"B209475CD76BA0F9469E","title":"大蔬无界 外滩22号馆","lon":"121.493989","lat":"31.230711","category":"111","category_name":"休闲餐饮场所","address":"上海市黄浦区中山东二路外滩22号4楼"},{"poiid":"B2094757D66AAAFB439C","title":"江畔Quay","lon":"121.496346","lat":"31.229182","category":"94","category_name":"西餐厅","address":"黄浦区中山东二路585号外滩英迪格酒店6楼"},{"poiid":"B2094757D069A0FC4992","title":"松月楼","lon":"121.49108","lat":"31.22666","category":"89","category_name":"中式素餐馆","address":"黄浦区旧校场路99号(近方浜中路)"},{"poiid":"B2094757D06BA2FA4499","title":"新开河","lon":"121.495265841","lat":"31.2296010434","category":"38","category_name":"公交车站","address":"上海外滩"},{"poiid":"B2094655D36DA6FF4493","title":"金陵东路","lon":"121.49318","lat":"31.23215","category":"38","category_name":"公交车站","address":"上海黄浦区金陵东路"},{"poiid":"B2094757D069A2F8419D","title":"黄浦江游览","lon":"121.49412","lat":"31.23077","category":"260","category_name":"其他","address":"黄浦区中山东二路531号(近新开河)查看地图"},{"poiid":"B2094757D46BA1FD489C","title":"十二果芬 中山东二路店 Brix12","lon":"121.495787","lat":"31.2293892","category":"67","category_name":"甜品店","address":"中山东二路22号5楼近新开河路"},{"poiid":"B2094757D664AAFB479B","title":"上海老街小吃","lon":"121.49814282332","lat":"31.22556929005","category":"68","category_name":"快餐厅","address":"黄浦区方浜中路77号(康家弄四牌楼路)"},{"poiid":"B2094757D068ABF4459F","title":"耕月人茶馆","lon":"121.4933","lat":"31.22533","category":"260","category_name":"其他","address":"上海黄浦区方浜中路235号豫安阁4楼(近安仁街)"},{"poiid":"B2094654DA6EA5FA419E","title":"新外滩商厦","lon":"121.49335","lat":"31.23127","category":"46","category_name":"楼宇","address":"黄浦区中山东二路15号(龙潭路中山东二路)"},{"poiid":"B2094750D665A0F4429B","title":"船长8号","lon":"121.496","lat":"31.2283","category":"76","category_name":"上海菜","address":"黄浦区中山东二路531号十六铺码头C区(近东门路)"},{"poiid":"B2094757D168A0F8489B","title":"fesco adecco","lon":"121.49748523","lat":"31.224477577","category":"500","category_name":"未知分类","address":"上海市中山南路28号久事大厦附楼"},{"poiid":"B2094757D065A5FD429E","title":"中山东二路新开河路站(公交33,55,65,868,910,926,928)","lon":"121.495716131","lat":"31.2294570049","category":"38","category_name":"公交车站","address":"上海市黄浦区中山东二路新开河路"},{"poiid":"B2094757D569A2FE4693","title":"新外滩15号","lon":"121.4933389","lat":"31.23143889","category":"47","category_name":"住宅区","address":"黄浦区中山东二路15号"},{"poiid":"B2094757D16DA5FB459D","title":"MJ  club","lon":"121.499573738","lat":"31.2269042292","category":"500","category_name":"未知分类","address":"上海市黄浦区中山南二路501号"},{"poiid":"B2094654DA6EA5FA4093","title":"上海老街(人民路)","lon":"121.49656","lat":"31.22521","category":"116","category_name":"特色商业街","address":""},{"poiid":"B2094757DB6FA3F84099","title":"淮海路一号酒吧","lon":"121.4966975953756","lat":"31.22976648979435","category":"248","category_name":"生活娱乐","address":"淮海路柳荫路"},{"poiid":"B2094757D469A1F5479F","title":"MJ.98酒吧","lon":"121.4964225","lat":"31.2288226","category":"260","category_name":"其他","address":"黄浦区中山东二路501号新十六铺商业区B112室"},{"poiid":"B2094750DB68A1F84699","title":"滨江大道  哈根达斯","lon":"121.497482","lat":"31.227943","category":"247","category_name":"餐饮美食","address":null},{"poiid":"B2094757D068A7FD4592","title":"新十六铺A区","lon":"121.4964221","lat":"31.2288222","category":"500","category_name":"未知分类","address":"上海黄浦区中山东二路501号"},{"poiid":"B2094654DA6EA4FC439C","title":"福源商厦","lon":"121.496","lat":"31.2327","category":"46","category_name":"楼宇","address":"黄浦区福佑路338号(近丽水路)"},{"poiid":"B2094750D665A0FB469C","title":"船长5号","lon":"121.494","lat":"31.2295","category":"47","category_name":"住宅区","address":"黄浦区中山东二路531号(近东门路)"},{"poiid":"B2094752DB6EA4FC499B","title":"上海半岛酒店","lon":"121.495568","lat":"31.227815","category":"500","category_name":"未知分类","address":"上海市 中山东一路32号"},{"poiid":"B2094757D06FA1FF4799","title":"豫园","lon":"121.49209476305077","lat":"31.227224682757594","category":"240","category_name":"国家级景点","address":"上海市黄浦区安仁街218号"},{"poiid":"B2094757D06FA6FC429D","title":"外滩新十六铺","lon":"121.498305","lat":"31.227433","category":"234","category_name":"海滨浴场","address":"上海中山东二路531号"},{"poiid":"B2094757D06FA1F94792","title":"香港名都","lon":"121.496","lat":"31.228","category":"119","category_name":"商场","address":"黄浦区河南南路489号(近复兴东路)"},{"poiid":"B209475CD564A7F84292","title":"上海滩新天地店","lon":"121.47463","lat":"31.22164","category":"119","category_name":"商场","address":"\"太仓路181弄新天地北里15号\r\n\""},{"poiid":"B209475CD564A7F84392","title":"上海滩浦东香格里拉店","lon":"121.50058","lat":"31.23634","category":"119","category_name":"商场","address":"浦东富成路33号香格里拉酒店内大堂层"},{"poiid":"B2094757D06EAAFA489F","title":"上海外滩英迪格酒店 (Hotel Indigo)","lon":"121.499735","lat":"31.226432","category":"217","category_name":"旅馆招待所","address":"黄浦区中山东二路585号(近东门路)"},{"poiid":"B2094757D06FA1FE439B","title":"老城隍庙小吃广场","lon":"121.49257","lat":"31.22648","category":"68","category_name":"快餐厅","address":"黄浦区福佑路238号豫园内"},{"poiid":"B2094757D06FA7F54892","title":"外滩轮渡","lon":"121.49613189","lat":"31.232406616","category":"260","category_name":"其他","address":"上海外滩"},{"poiid":"B2094757D568A6FE449D","title":"松鹤楼(外滩店)","lon":"121.49712782","lat":"31.22868273","category":"76","category_name":"上海菜","address":"黄浦区中山东二路505号(近外马路)"},{"poiid":"B2094757D06FA3FC419B","title":"小林煎饼 豫园店","lon":"121.490016054","lat":"31.227538793","category":"67","category_name":"甜品店","address":"黄浦区豫春路9号豫园商城内B室(近老庙黄金广场)"},{"poiid":"B2094757D06FA4FF4298","title":"Zeal","lon":"121.494104619","lat":"31.230399184","category":"260","category_name":"其他","address":"黄浦区中山东二路22号6楼(近金陵东路)"},{"poiid":"B2094757D06FA6F8429D","title":"古城公园","lon":"121.493892508","lat":"31.2285424773","category":"196","category_name":"公园","address":"黄浦区人民路333号(近福佑路)"},{"poiid":"B2094750D26EA2FB419E","title":"El Willy","lon":"121.493644","lat":"31.231233","category":"94","category_name":"西餐厅","address":"黄浦区中山东二路22号5楼(近新永安路)"},{"poiid":"B2094757D16FA0FF4092","title":"小南国(十六铺店)","lon":"121.500050938","lat":"31.2274259403","category":"76","category_name":"上海菜","address":"黄浦区中山东二路565号A楼(近东门路)"},{"poiid":"B2094757D06FA3FC439D","title":"城隍庙九曲桥","lon":"121.49238","lat":"31.22698","category":"260","category_name":"其他","address":"黄浦区福佑路238号豫园内"},{"poiid":"B2094757D069A6FE449C","title":"十六铺码头边","lon":"121.49703768","lat":"31.228610509","category":"500","category_name":"未知分类","address":"上海市,上海中山东二路"},{"poiid":"B2094757D06AA2FD4298","title":"龙皇酒家","lon":"121.49882273","lat":"31.227382239","category":"72","category_name":"广东菜","address":"黄浦区中山东二路535号十六铺B栋楼(外马路中山东二路)"},{"poiid":"B2094757D468A4FE489A","title":"Horizen","lon":"121.492901","lat":"31.231715","category":"247","category_name":"餐饮美食","address":"金陵东路1号近中山东二路"},{"poiid":"B2094757D068A3FA459C","title":"四牌楼路小吃一条街","lon":"121.4956","lat":"31.22506","category":"68","category_name":"快餐厅","address":"黄浦区四牌楼路牌坊下(方浜中路口)"},{"poiid":"B2094750D26FABF44592","title":"Bocca","lon":"121.4960508","lat":"31.2293856","category":"98","category_name":"意式菜品餐厅","address":"黄浦区中山东二路22号5楼(近新永安路)"},{"poiid":"B2094757D06FABFF4699","title":"东方商旅 Les Suites Orient","lon":"121.492741","lat":"31.231819","category":"217","category_name":"旅馆招待所","address":"黄浦区金陵东路1号(近中山东二路)"},{"poiid":"B2094757D06FA3FF419C","title":"星巴克 STARBUCKS (豫园二店)","lon":"121.49199","lat":"31.22696","category":"260","category_name":"其他","address":"黄浦区福佑路238号豫园内"},{"poiid":"B2094757D068AAF44399","title":"士林华苑","lon":"121.497","lat":"31.2262","category":"47","category_name":"住宅区","address":"上海黄浦区河南南路555弄"},{"poiid":"B2094757D06FA7FD4592","title":"网鱼网咖(张杨店)","lon":"121.49722426","lat":"31.229141715","category":"173","category_name":"游戏厅","address":"浦东新区张杨路640号3楼A座(近第一八佰伴)"},{"poiid":"B2094750D26EA7F44892","title":"YAWARAGI ON THE BUND","lon":"121.494522","lat":"31.232086","category":"95","category_name":"日本料理","address":"黄浦区中山东二路22号3楼(近新永安路)"},{"poiid":"B2094757D068A6FF489B","title":"金陵东路渡口","lon":"121.493181968","lat":"31.2321444779","category":"35","category_name":"长途汽车站","address":"上海中山东二路121号(金陵东路口)"},{"poiid":"B2094655D36DA1F5439B","title":"小东门","lon":"121.49708","lat":"31.22573","category":"38","category_name":"公交车站","address":""},{"poiid":"B209475CD76BA0F9469E","title":"大蔬无界 外滩22号馆","lon":"121.493989","lat":"31.230711","category":"111","category_name":"休闲餐饮场所","address":"上海市黄浦区中山东二路外滩22号4楼"},{"poiid":"B2094757D66AAAFB439C","title":"江畔Quay","lon":"121.496346","lat":"31.229182","category":"94","category_name":"西餐厅","address":"黄浦区中山东二路585号外滩英迪格酒店6楼"},{"poiid":"B2094757D069A0FC4992","title":"松月楼","lon":"121.49108","lat":"31.22666","category":"89","category_name":"中式素餐馆","address":"黄浦区旧校场路99号(近方浜中路)"},{"poiid":"B2094757D06BA2FA4499","title":"新开河","lon":"121.495265841","lat":"31.2296010434","category":"38","category_name":"公交车站","address":"上海外滩"},{"poiid":"B2094655D36DA6FF4493","title":"金陵东路","lon":"121.49318","lat":"31.23215","category":"38","category_name":"公交车站","address":"上海黄浦区金陵东路"},{"poiid":"B2094757D069A2F8419D","title":"黄浦江游览","lon":"121.49412","lat":"31.23077","category":"260","category_name":"其他","address":"黄浦区中山东二路531号(近新开河)查看地图"},{"poiid":"B2094757D46BA1FD489C","title":"十二果芬 中山东二路店 Brix12","lon":"121.495787","lat":"31.2293892","category":"67","category_name":"甜品店","address":"中山东二路22号5楼近新开河路"},{"poiid":"B2094757D664AAFB479B","title":"上海老街小吃","lon":"121.49814282332","lat":"31.22556929005","category":"68","category_name":"快餐厅","address":"黄浦区方浜中路77号(康家弄四牌楼路)"},{"poiid":"B2094757D068ABF4459F","title":"耕月人茶馆","lon":"121.4933","lat":"31.22533","category":"260","category_name":"其他","address":"上海黄浦区方浜中路235号豫安阁4楼(近安仁街)"},{"poiid":"B2094654DA6EA5FA419E","title":"新外滩商厦","lon":"121.49335","lat":"31.23127","category":"46","category_name":"楼宇","address":"黄浦区中山东二路15号(龙潭路中山东二路)"},{"poiid":"B2094750D665A0F4429B","title":"船长8号","lon":"121.496","lat":"31.2283","category":"76","category_name":"上海菜","address":"黄浦区中山东二路531号十六铺码头C区(近东门路)"},{"poiid":"B2094757D168A0F8489B","title":"fesco adecco","lon":"121.49748523","lat":"31.224477577","category":"500","category_name":"未知分类","address":"上海市中山南路28号久事大厦附楼"},{"poiid":"B2094757D065A5FD429E","title":"中山东二路新开河路站(公交33,55,65,868,910,926,928)","lon":"121.495716131","lat":"31.2294570049","category":"38","category_name":"公交车站","address":"上海市黄浦区中山东二路新开河路"},{"poiid":"B2094757D569A2FE4693","title":"新外滩15号","lon":"121.4933389","lat":"31.23143889","category":"47","category_name":"住宅区","address":"黄浦区中山东二路15号"},{"poiid":"B2094757D16DA5FB459D","title":"MJ  club","lon":"121.499573738","lat":"31.2269042292","category":"500","category_name":"未知分类","address":"上海市黄浦区中山南二路501号"},{"poiid":"B2094654DA6EA5FA4093","title":"上海老街(人民路)","lon":"121.49656","lat":"31.22521","category":"116","category_name":"特色商业街","address":""},{"poiid":"B2094757DB6FA3F84099","title":"淮海路一号酒吧","lon":"121.4966975953756","lat":"31.22976648979435","category":"248","category_name":"生活娱乐","address":"淮海路柳荫路"},{"poiid":"B2094757D469A1F5479F","title":"MJ.98酒吧","lon":"121.4964225","lat":"31.2288226","category":"260","category_name":"其他","address":"黄浦区中山东二路501号新十六铺商业区B112室"},{"poiid":"B2094750DB68A1F84699","title":"滨江大道  哈根达斯","lon":"121.497482","lat":"31.227943","category":"247","category_name":"餐饮美食","address":null},{"poiid":"B2094757D068A7FD4592","title":"新十六铺A区","lon":"121.4964221","lat":"31.2288222","category":"500","category_name":"未知分类","address":"上海黄浦区中山东二路501号"},{"poiid":"B2094654DA6EA4FC439C","title":"福源商厦","lon":"121.496","lat":"31.2327","category":"46","category_name":"楼宇","address":"黄浦区福佑路338号(近丽水路)"},{"poiid":"B2094750D665A0FB469C","title":"船长5号","lon":"121.494","lat":"31.2295","category":"47","category_name":"住宅区","address":"黄浦区中山东二路531号(近东门路)"},{"poiid":"B2094752DB6EA4FC499B","title":"上海半岛酒店","lon":"121.495568","lat":"31.227815","category":"500","category_name":"未知分类","address":"上海市 中山东一路32号"},{"poiid":"B2094757D06FA1FF4799","title":"豫园","lon":"121.49209476305077","lat":"31.227224682757594","category":"240","category_name":"国家级景点","address":"上海市黄浦区安仁街218号"},{"poiid":"B2094757D06FA6FC429D","title":"外滩新十六铺","lon":"121.498305","lat":"31.227433","category":"234","category_name":"海滨浴场","address":"上海中山东二路531号"},{"poiid":"B2094757D06FA1F94792","title":"香港名都","lon":"121.496","lat":"31.228","category":"119","category_name":"商场","address":"黄浦区河南南路489号(近复兴东路)"},{"poiid":"B209475CD564A7F84292","title":"上海滩新天地店","lon":"121.47463","lat":"31.22164","category":"119","category_name":"商场","address":"\"太仓路181弄新天地北里15号\r\n\""},{"poiid":"B209475CD564A7F84392","title":"上海滩浦东香格里拉店","lon":"121.50058","lat":"31.23634","category":"119","category_name":"商场","address":"浦东富成路33号香格里拉酒店内大堂层"},{"poiid":"B2094757D06EAAFA489F","title":"上海外滩英迪格酒店 (Hotel Indigo)","lon":"121.499735","lat":"31.226432","category":"217","category_name":"旅馆招待所","address":"黄浦区中山东二路585号(近东门路)"},{"poiid":"B2094757D06FA1FE439B","title":"老城隍庙小吃广场","lon":"121.49257","lat":"31.22648","category":"68","category_name":"快餐厅","address":"黄浦区福佑路238号豫园内"},{"poiid":"B2094757D06FA7F54892","title":"外滩轮渡","lon":"121.49613189","lat":"31.232406616","category":"260","category_name":"其他","address":"上海外滩"},{"poiid":"B2094757D568A6FE449D","title":"松鹤楼(外滩店)","lon":"121.49712782","lat":"31.22868273","category":"76","category_name":"上海菜","address":"黄浦区中山东二路505号(近外马路)"},{"poiid":"B2094757D06FA3FC419B","title":"小林煎饼 豫园店","lon":"121.490016054","lat":"31.227538793","category":"67","category_name":"甜品店","address":"黄浦区豫春路9号豫园商城内B室(近老庙黄金广场)"},{"poiid":"B2094757D06FA4FF4298","title":"Zeal","lon":"121.494104619","lat":"31.230399184","category":"260","category_name":"其他","address":"黄浦区中山东二路22号6楼(近金陵东路)"},{"poiid":"B2094757D06FA6F8429D","title":"古城公园","lon":"121.493892508","lat":"31.2285424773","category":"196","category_name":"公园","address":"黄浦区人民路333号(近福佑路)"},{"poiid":"B2094750D26EA2FB419E","title":"El Willy","lon":"121.493644","lat":"31.231233","category":"94","category_name":"西餐厅","address":"黄浦区中山东二路22号5楼(近新永安路)"},{"poiid":"B2094757D16FA0FF4092","title":"小南国(十六铺店)","lon":"121.500050938","lat":"31.2274259403","category":"76","category_name":"上海菜","address":"黄浦区中山东二路565号A楼(近东门路)"},{"poiid":"B2094757D06FA3FC439D","title":"城隍庙九曲桥","lon":"121.49238","lat":"31.22698","category":"260","category_name":"其他","address":"黄浦区福佑路238号豫园内"},{"poiid":"B2094757D069A6FE449C","title":"十六铺码头边","lon":"121.49703768","lat":"31.228610509","category":"500","category_name":"未知分类","address":"上海市,上海中山东二路"},{"poiid":"B2094757D06AA2FD4298","title":"龙皇酒家","lon":"121.49882273","lat":"31.227382239","category":"72","category_name":"广东菜","address":"黄浦区中山东二路535号十六铺B栋楼(外马路中山东二路)"},{"poiid":"B2094757D468A4FE489A","title":"Horizen","lon":"121.492901","lat":"31.231715","category":"247","category_name":"餐饮美食","address":"金陵东路1号近中山东二路"},{"poiid":"B2094757D068A3FA459C","title":"四牌楼路小吃一条街","lon":"121.4956","lat":"31.22506","category":"68","category_name":"快餐厅","address":"黄浦区四牌楼路牌坊下(方浜中路口)"},{"poiid":"B2094750D26FABF44592","title":"Bocca","lon":"121.4960508","lat":"31.2293856","category":"98","category_name":"意式菜品餐厅","address":"黄浦区中山东二路22号5楼(近新永安路)"},{"poiid":"B2094757D06FABFF4699","title":"东方商旅 Les Suites Orient","lon":"121.492741","lat":"31.231819","category":"217","category_name":"旅馆招待所","address":"黄浦区金陵东路1号(近中山东二路)"},{"poiid":"B2094757D06FA3FF419C","title":"星巴克 STARBUCKS (豫园二店)","lon":"121.49199","lat":"31.22696","category":"260","category_name":"其他","address":"黄浦区福佑路238号豫园内"},{"poiid":"B2094757D068AAF44399","title":"士林华苑","lon":"121.497","lat":"31.2262","category":"47","category_name":"住宅区","address":"上海黄浦区河南南路555弄"},{"poiid":"B2094757D06FA7FD4592","title":"网鱼网咖(张杨店)","lon":"121.49722426","lat":"31.229141715","category":"173","category_name":"游戏厅","address":"浦东新区张杨路640号3楼A座(近第一八佰伴)"},{"poiid":"B2094750D26EA7F44892","title":"YAWARAGI ON THE BUND","lon":"121.494522","lat":"31.232086","category":"95","category_name":"日本料理","address":"黄浦区中山东二路22号3楼(近新永安路)"},{"poiid":"B2094757D068A6FF489B","title":"金陵东路渡口","lon":"121.493181968","lat":"31.2321444779","category":"35","category_name":"长途汽车站","address":"上海中山东二路121号(金陵东路口)"},{"poiid":"B2094655D36DA1F5439B","title":"小东门","lon":"121.49708","lat":"31.22573","category":"38","category_name":"公交车站","address":""},{"poiid":"B209475CD76BA0F9469E","title":"大蔬无界 外滩22号馆","lon":"121.493989","lat":"31.230711","category":"111","category_name":"休闲餐饮场所","address":"上海市黄浦区中山东二路外滩22号4楼"},{"poiid":"B2094757D66AAAFB439C","title":"江畔Quay","lon":"121.496346","lat":"31.229182","category":"94","category_name":"西餐厅","address":"黄浦区中山东二路585号外滩英迪格酒店6楼"},{"poiid":"B2094757D069A0FC4992","title":"松月楼","lon":"121.49108","lat":"31.22666","category":"89","category_name":"中式素餐馆","address":"黄浦区旧校场路99号(近方浜中路)"},{"poiid":"B2094757D06BA2FA4499","title":"新开河","lon":"121.495265841","lat":"31.2296010434","category":"38","category_name":"公交车站","address":"上海外滩"},{"poiid":"B2094655D36DA6FF4493","title":"金陵东路","lon":"121.49318","lat":"31.23215","category":"38","category_name":"公交车站","address":"上海黄浦区金陵东路"},{"poiid":"B2094757D069A2F8419D","title":"黄浦江游览","lon":"121.49412","lat":"31.23077","category":"260","category_name":"其他","address":"黄浦区中山东二路531号(近新开河)查看地图"},{"poiid":"B2094757D46BA1FD489C","title":"十二果芬 中山东二路店 Brix12","lon":"121.495787","lat":"31.2293892","category":"67","category_name":"甜品店","address":"中山东二路22号5楼近新开河路"},{"poiid":"B2094757D664AAFB479B","title":"上海老街小吃","lon":"121.49814282332","lat":"31.22556929005","category":"68","category_name":"快餐厅","address":"黄浦区方浜中路77号(康家弄四牌楼路)"},{"poiid":"B2094757D068ABF4459F","title":"耕月人茶馆","lon":"121.4933","lat":"31.22533","category":"260","category_name":"其他","address":"上海黄浦区方浜中路235号豫安阁4楼(近安仁街)"},{"poiid":"B2094654DA6EA5FA419E","title":"新外滩商厦","lon":"121.49335","lat":"31.23127","category":"46","category_name":"楼宇","address":"黄浦区中山东二路15号(龙潭路中山东二路)"},{"poiid":"B2094750D665A0F4429B","title":"船长8号","lon":"121.496","lat":"31.2283","category":"76","category_name":"上海菜","address":"黄浦区中山东二路531号十六铺码头C区(近东门路)"},{"poiid":"B2094757D168A0F8489B","title":"fesco adecco","lon":"121.49748523","lat":"31.224477577","category":"500","category_name":"未知分类","address":"上海市中山南路28号久事大厦附楼"},{"poiid":"B2094757D065A5FD429E","title":"中山东二路新开河路站(公交33,55,65,868,910,926,928)","lon":"121.495716131","lat":"31.2294570049","category":"38","category_name":"公交车站","address":"上海市黄浦区中山东二路新开河路"},{"poiid":"B2094757D569A2FE4693","title":"新外滩15号","lon":"121.4933389","lat":"31.23143889","category":"47","category_name":"住宅区","address":"黄浦区中山东二路15号"},{"poiid":"B2094757D16DA5FB459D","title":"MJ  club","lon":"121.499573738","lat":"31.2269042292","category":"500","category_name":"未知分类","address":"上海市黄浦区中山南二路501号"},{"poiid":"B2094654DA6EA5FA4093","title":"上海老街(人民路)","lon":"121.49656","lat":"31.22521","category":"116","category_name":"特色商业街","address":""},{"poiid":"B2094757DB6FA3F84099","title":"淮海路一号酒吧","lon":"121.4966975953756","lat":"31.22976648979435","category":"248","category_name":"生活娱乐","address":"淮海路柳荫路"},{"poiid":"B2094757D469A1F5479F","title":"MJ.98酒吧","lon":"121.4964225","lat":"31.2288226","category":"260","category_name":"其他","address":"黄浦区中山东二路501号新十六铺商业区B112室"},{"poiid":"B2094750DB68A1F84699","title":"滨江大道  哈根达斯","lon":"121.497482","lat":"31.227943","category":"247","category_name":"餐饮美食","address":null},{"poiid":"B2094757D068A7FD4592","title":"新十六铺A区","lon":"121.4964221","lat":"31.2288222","category":"500","category_name":"未知分类","address":"上海黄浦区中山东二路501号"},{"poiid":"B2094654DA6EA4FC439C","title":"福源商厦","lon":"121.496","lat":"31.2327","category":"46","category_name":"楼宇","address":"黄浦区福佑路338号(近丽水路)"},{"poiid":"B2094750D665A0FB469C","title":"船长5号","lon":"121.494","lat":"31.2295","category":"47","category_name":"住宅区","address":"黄浦区中山东二路531号(近东门路)"},{"poiid":"B2094752DB6EA4FC499B","title":"上海半岛酒店","lon":"121.495568","lat":"31.227815","category":"500","category_name":"未知分类","address":"上海市 中山东一路32号"}]