[{"poiid":"B2094757D069A3F8459F","title":"炮台湾湿地森林公园","lon":"121.50571413","lat":"31.393478751","category":"500","category_name":"未知分类","address":"上海宝山区塘后路"},{"poiid":"B2094757D06AA4FE4499","title":"海军博物馆","lon":"121.50643","lat":"31.3887963487","category":"182","category_name":"博物馆","address":"宝山区塘后路68号(近淞宝路)"},{"poiid":"B2094757D06AA6F84598","title":"吴淞客运中心客运站","lon":"121.50122083","lat":"31.378539743","category":"35","category_name":"长途汽车站","address":"上海市宝山区化成路271号"},{"poiid":"B2094757D168ABF5439C","title":"星月国际商务广场","lon":"121.50003163","lat":"31.381648607","category":"500","category_name":"未知分类","address":"徐汇宜山路425号"},{"poiid":"B2094757D66CA4F54498","title":"众所粥滋(潮州海鲜粥)","lon":"121.50136","lat":"31.38392","category":"72","category_name":"广东菜","address":"宝山区淞宝路268号(近永清路)"},{"poiid":"B2094757D06FABFE459A","title":"海江二村","lon":"121.50371","lat":"31.393312","category":"47","category_name":"住宅区","address":"永乐路222弄"},{"poiid":"B2094654DB6AA6FF4192","title":"海滨八村","lon":"121.507","lat":"31.3884","category":"47","category_name":"住宅区","address":"上海宝山区牡丹江路海滨八村46号"},{"poiid":"B2094757D069ABF5409A","title":"万家灯火酒店","lon":"121.502034061","lat":"31.3856950811","category":"75","category_name":"浙江菜","address":"宝山区淞宝路358号"},{"poiid":"B2094757D16FA1FD4298","title":"海滨三村奉贤","lon":"121.49931404461","lat":"31.387000274504","category":"46","category_name":"楼宇","address":"上海牡丹江路水产路"},{"poiid":"B2094750DB64A5FA4492","title":"巨麦时尚KTV(淞宝店)","lon":"121.50075273408515","lat":"31.381164858525576","category":"170","category_name":"KTV","address":"宝山区淞宝路155号星月广场3楼"},{"poiid":"B2094750D26CA3F4429C","title":"老刘野生大鱼坊 宝山店","lon":"121.502523054","lat":"31.385492793","category":"82","category_name":"东北菜","address":"宝山区凇宝路406号(化成路淞宝路)"},{"poiid":"B2094757D568AAF54192","title":"上海市宝山区宝羊食品经营部","lon":"121.50581624","lat":"31.38852702","category":"117","category_name":"便民商店/便利店","address":"塘后路56"},{"poiid":"B2094757D568ABF54599","title":"宝山烟糖(志奕店)","lon":"121.50566406","lat":"31.3885829","category":"117","category_name":"便民商店/便利店","address":"塘后路52"},{"poiid":"B2094655D268A3FE499B","title":"前三营房","lon":"121.5051420877","lat":"31.391444050309","category":"47","category_name":"住宅区","address":"永清路98号"},{"poiid":"B2094757D064A1F84793","title":"宝山三村","lon":"121.49794","lat":"31.39304","category":"47","category_name":"住宅区","address":"上海市宝山区永清路双城路"},{"poiid":"B2094757D568A7F8469F","title":"星岛食府(海淞苑东北)","lon":"121.50215956","lat":"31.3861046","category":"257","category_name":"中餐厅","address":"中国上海市宝山区凇宝路"},{"poiid":"B2094757D068A2FD4198","title":"海江新村","lon":"121.50491","lat":"31.388483","category":"500","category_name":"未知分类","address":"上海宝山区塘后路"},{"poiid":"B2094757D568A7FE409B","title":"好乐迪量贩式KTV音乐茶室","lon":"121.50664795","lat":"31.38941352","category":"170","category_name":"KTV","address":"塘后路112号"},{"poiid":"B2094757D164A6F5499D","title":"海军训练基地三大队","lon":"121.503186","lat":"31.387595","category":"500","category_name":"未知分类","address":"上海淞宝路410号"},{"poiid":"B2094757D66BABF8419C","title":"锦润坊海鲜豆捞餐厅","lon":"121.50124","lat":"31.38345","category":"86","category_name":"火锅店","address":"宝山区淞宝路218号(近永清路)"},{"poiid":"B2094757DA6FA3F44799","title":"中通快递(宝山)公司","lon":"121.505874700001","lat":"31.3884762000001","category":"263","category_name":"公司","address":"宝山区塘后路58号"},{"poiid":"B2094757D568A4FD459A","title":"我们新疆好地方","lon":"121.50536675","lat":"31.38870307","category":"255","category_name":"专卖店","address":"塘后路38"},{"poiid":"B2094655D268A1F54899","title":"聚龙楼","lon":"121.50325","lat":"31.38819","category":"77","category_name":"湖南菜","address":"宝山区淞宝路502号(近永清路)"},{"poiid":"B2094654D46BA2FC4293","title":"新叶公寓","lon":"121.50488","lat":"31.391869","category":"47","category_name":"住宅区","address":"上海市宝山区塘后路231号"},{"poiid":"B2094654D46AA5FC459F","title":"农家粗菜馆(淞宝路)","lon":"121.50243","lat":"31.38975","category":"76","category_name":"上海菜","address":"宝山区淞宝路578-582号(水产路淞宝路)"},{"poiid":"B2094655D268A5F44499","title":"海江新村(北门)","lon":"121.50508","lat":"31.38876","category":"656","category_name":"大门","address":""},{"poiid":"B2094655D26BA6FB4498","title":"吴淞炮台纪念遗址","lon":"121.5083","lat":"31.39336","category":"250","category_name":"公园户外","address":"塘后路206"},{"poiid":"B2094757D06AA4F54899","title":"大唐酒店","lon":"121.50014495","lat":"31.383768081","category":"76","category_name":"上海菜","address":"宝山区永清路55号(近淞宝路)"},{"poiid":"B2094757D164A5F5449A","title":"邻家小菜","lon":"121.50175","lat":"31.39066","category":"76","category_name":"上海菜","address":"宝山区淞宝路(淞宝路淞青路)"},{"poiid":"B2094757D568AAF5409E","title":"伊梦娱乐","lon":"121.50303928","lat":"31.38621474","category":"170","category_name":"KTV","address":"中国上海市宝山区凇宝路"},{"poiid":"B2094655D26BA3F5469F","title":"海淞苑","lon":"121.5007","lat":"31.384554","category":"47","category_name":"住宅区","address":"上海市宝山区淞宝路258弄"},{"poiid":"B2094654D46AA5FE439A","title":"瑞华宝都","lon":"121.504","lat":"31.3839","category":"46","category_name":"楼宇","address":"牡丹江路186弄1幢1-3号"},{"poiid":"B2094655D26FA3FA4898","title":"馋神龙虾馆","lon":"121.49754469204","lat":"31.386369566175","category":"247","category_name":"餐饮美食","address":"淞宝路455号"},{"poiid":"B2094757D06BA4F94298","title":"马拉戈壁","lon":"121.50718433","lat":"31.391325507","category":"247","category_name":"餐饮美食","address":"上海dkkskf"},{"poiid":"B2094655D268A0F8449D","title":"光明便利(新新门窗装潢北)","lon":"121.50289","lat":"31.38984","category":"117","category_name":"便民商店/便利店","address":"淞宝路677"},{"poiid":"B2094654D46AA5FC489F","title":"车霸汽车养护中心宝山店","lon":"121.50331","lat":"31.38813","category":"159","category_name":"汽车维修","address":"淞宝路496-500"},{"poiid":"B2094757D569A0F8489B","title":"联华超市(淞宝路)","lon":"121.50240668","lat":"31.38614963","category":"118","category_name":"超级市场","address":"淞宝路382"},{"poiid":"B2094655D36DA0F44399","title":"永清新村","lon":"121.50102","lat":"31.39143","category":"38","category_name":"公交车站","address":"永清新村54幢188号"},{"poiid":"B2094757D569A2FD4693","title":"淞宝盲人推拿中心","lon":"121.5032331","lat":"31.38846917","category":"149","category_name":"洗浴推拿场所","address":"宝山区淞宝路522号(淞宝路塘后路)"},{"poiid":"B2094655D36DA7F5489F","title":"淞青路淞宝路","lon":"121.50223","lat":"31.39021","category":"38","category_name":"公交车站","address":""},{"poiid":"B2094757D66CA0FB4693","title":"淞宝发大酒店中餐厅","lon":"121.50201","lat":"31.38418","category":"76","category_name":"上海菜","address":"宝山区淞宝路288号"},{"poiid":"B2094757D469A0FC429F","title":"雨城料理","lon":"121.501845","lat":"31.3845689","category":"96","category_name":"韩国料理","address":"宝山区淞宝路399号(近永清路)"},{"poiid":"B2094655D36DA7F54492","title":"淞宝路永清路","lon":"121.50204","lat":"31.385","category":"38","category_name":"公交车站","address":""},{"poiid":"B2094757D66EA3FF479D","title":"肚子好饿","lon":"121.506598031","lat":"31.3907553955","category":"500","category_name":"未知分类","address":"上海肚织饿了"},{"poiid":"B2094757D568ABF54292","title":"中美格润恩生物技术公司(宝山店)","lon":"121.50239285","lat":"31.39031928","category":"162","category_name":"医院","address":"中国上海市宝山区凇宝路"},{"poiid":"B2094757D568AAFC409F","title":"美国CAS国家干洗(塘后路店)","lon":"121.50745877","lat":"31.39075412","category":"610","category_name":"干洗店","address":"塘后支路172"},{"poiid":"B2094750DA65A7F9439D","title":"弄堂口","lon":"121.500152","lat":"31.379171","category":"75","category_name":"浙江菜","address":"宝山区淞宝路155弄星月国际商务广场29号(近永清路)"},{"poiid":"B2094757D569A3FD479C","title":"淞源浴场","lon":"121.50283095","lat":"31.38932861","category":"149","category_name":"洗浴推拿场所","address":"中国上海市宝山区凇宝路"},{"poiid":"B2094757D568A7F84898","title":"祥懿宾馆","lon":"121.50311496","lat":"31.38751655","category":"251","category_name":"出行住宿","address":"淞宝路440"},{"poiid":"B2094757D064A5F94399","title":"90路终点站","lon":"121.502233","lat":"31.390214","category":"500","category_name":"未知分类","address":"上海淞宝路淞青路"},{"poiid":"B2094757D069A3F8459F","title":"炮台湾湿地森林公园","lon":"121.50571413","lat":"31.393478751","category":"500","category_name":"未知分类","address":"上海宝山区塘后路"},{"poiid":"B2094757D06AA4FE4499","title":"海军博物馆","lon":"121.50643","lat":"31.3887963487","category":"182","category_name":"博物馆","address":"宝山区塘后路68号(近淞宝路)"},{"poiid":"B2094757D06AA6F84598","title":"吴淞客运中心客运站","lon":"121.50122083","lat":"31.378539743","category":"35","category_name":"长途汽车站","address":"上海市宝山区化成路271号"},{"poiid":"B2094757D168ABF5439C","title":"星月国际商务广场","lon":"121.50003163","lat":"31.381648607","category":"500","category_name":"未知分类","address":"徐汇宜山路425号"},{"poiid":"B2094757D66CA4F54498","title":"众所粥滋(潮州海鲜粥)","lon":"121.50136","lat":"31.38392","category":"72","category_name":"广东菜","address":"宝山区淞宝路268号(近永清路)"},{"poiid":"B2094757D06FABFE459A","title":"海江二村","lon":"121.50371","lat":"31.393312","category":"47","category_name":"住宅区","address":"永乐路222弄"},{"poiid":"B2094654DB6AA6FF4192","title":"海滨八村","lon":"121.507","lat":"31.3884","category":"47","category_name":"住宅区","address":"上海宝山区牡丹江路海滨八村46号"},{"poiid":"B2094757D069ABF5409A","title":"万家灯火酒店","lon":"121.502034061","lat":"31.3856950811","category":"75","category_name":"浙江菜","address":"宝山区淞宝路358号"},{"poiid":"B2094757D16FA1FD4298","title":"海滨三村奉贤","lon":"121.49931404461","lat":"31.387000274504","category":"46","category_name":"楼宇","address":"上海牡丹江路水产路"},{"poiid":"B2094750DB64A5FA4492","title":"巨麦时尚KTV(淞宝店)","lon":"121.50075273408515","lat":"31.381164858525576","category":"170","category_name":"KTV","address":"宝山区淞宝路155号星月广场3楼"},{"poiid":"B2094750D26CA3F4429C","title":"老刘野生大鱼坊 宝山店","lon":"121.502523054","lat":"31.385492793","category":"82","category_name":"东北菜","address":"宝山区凇宝路406号(化成路淞宝路)"},{"poiid":"B2094757D568AAF54192","title":"上海市宝山区宝羊食品经营部","lon":"121.50581624","lat":"31.38852702","category":"117","category_name":"便民商店/便利店","address":"塘后路56"},{"poiid":"B2094757D568ABF54599","title":"宝山烟糖(志奕店)","lon":"121.50566406","lat":"31.3885829","category":"117","category_name":"便民商店/便利店","address":"塘后路52"},{"poiid":"B2094655D268A3FE499B","title":"前三营房","lon":"121.5051420877","lat":"31.391444050309","category":"47","category_name":"住宅区","address":"永清路98号"},{"poiid":"B2094757D064A1F84793","title":"宝山三村","lon":"121.49794","lat":"31.39304","category":"47","category_name":"住宅区","address":"上海市宝山区永清路双城路"},{"poiid":"B2094757D568A7F8469F","title":"星岛食府(海淞苑东北)","lon":"121.50215956","lat":"31.3861046","category":"257","category_name":"中餐厅","address":"中国上海市宝山区凇宝路"},{"poiid":"B2094757D068A2FD4198","title":"海江新村","lon":"121.50491","lat":"31.388483","category":"500","category_name":"未知分类","address":"上海宝山区塘后路"},{"poiid":"B2094757D568A7FE409B","title":"好乐迪量贩式KTV音乐茶室","lon":"121.50664795","lat":"31.38941352","category":"170","category_name":"KTV","address":"塘后路112号"},{"poiid":"B2094757D164A6F5499D","title":"海军训练基地三大队","lon":"121.503186","lat":"31.387595","category":"500","category_name":"未知分类","address":"上海淞宝路410号"},{"poiid":"B2094757D66BABF8419C","title":"锦润坊海鲜豆捞餐厅","lon":"121.50124","lat":"31.38345","category":"86","category_name":"火锅店","address":"宝山区淞宝路218号(近永清路)"},{"poiid":"B2094757DA6FA3F44799","title":"中通快递(宝山)公司","lon":"121.505874700001","lat":"31.3884762000001","category":"263","category_name":"公司","address":"宝山区塘后路58号"},{"poiid":"B2094757D568A4FD459A","title":"我们新疆好地方","lon":"121.50536675","lat":"31.38870307","category":"255","category_name":"专卖店","address":"塘后路38"},{"poiid":"B2094655D268A1F54899","title":"聚龙楼","lon":"121.50325","lat":"31.38819","category":"77","category_name":"湖南菜","address":"宝山区淞宝路502号(近永清路)"},{"poiid":"B2094654D46BA2FC4293","title":"新叶公寓","lon":"121.50488","lat":"31.391869","category":"47","category_name":"住宅区","address":"上海市宝山区塘后路231号"},{"poiid":"B2094654D46AA5FC459F","title":"农家粗菜馆(淞宝路)","lon":"121.50243","lat":"31.38975","category":"76","category_name":"上海菜","address":"宝山区淞宝路578-582号(水产路淞宝路)"},{"poiid":"B2094655D268A5F44499","title":"海江新村(北门)","lon":"121.50508","lat":"31.38876","category":"656","category_name":"大门","address":""},{"poiid":"B2094655D26BA6FB4498","title":"吴淞炮台纪念遗址","lon":"121.5083","lat":"31.39336","category":"250","category_name":"公园户外","address":"塘后路206"},{"poiid":"B2094757D06AA4F54899","title":"大唐酒店","lon":"121.50014495","lat":"31.383768081","category":"76","category_name":"上海菜","address":"宝山区永清路55号(近淞宝路)"},{"poiid":"B2094757D164A5F5449A","title":"邻家小菜","lon":"121.50175","lat":"31.39066","category":"76","category_name":"上海菜","address":"宝山区淞宝路(淞宝路淞青路)"},{"poiid":"B2094757D568AAF5409E","title":"伊梦娱乐","lon":"121.50303928","lat":"31.38621474","category":"170","category_name":"KTV","address":"中国上海市宝山区凇宝路"},{"poiid":"B2094655D26BA3F5469F","title":"海淞苑","lon":"121.5007","lat":"31.384554","category":"47","category_name":"住宅区","address":"上海市宝山区淞宝路258弄"},{"poiid":"B2094654D46AA5FE439A","title":"瑞华宝都","lon":"121.504","lat":"31.3839","category":"46","category_name":"楼宇","address":"牡丹江路186弄1幢1-3号"},{"poiid":"B2094655D26FA3FA4898","title":"馋神龙虾馆","lon":"121.49754469204","lat":"31.386369566175","category":"247","category_name":"餐饮美食","address":"淞宝路455号"},{"poiid":"B2094757D06BA4F94298","title":"马拉戈壁","lon":"121.50718433","lat":"31.391325507","category":"247","category_name":"餐饮美食","address":"上海dkkskf"},{"poiid":"B2094655D268A0F8449D","title":"光明便利(新新门窗装潢北)","lon":"121.50289","lat":"31.38984","category":"117","category_name":"便民商店/便利店","address":"淞宝路677"},{"poiid":"B2094654D46AA5FC489F","title":"车霸汽车养护中心宝山店","lon":"121.50331","lat":"31.38813","category":"159","category_name":"汽车维修","address":"淞宝路496-500"},{"poiid":"B2094757D569A0F8489B","title":"联华超市(淞宝路)","lon":"121.50240668","lat":"31.38614963","category":"118","category_name":"超级市场","address":"淞宝路382"},{"poiid":"B2094655D36DA0F44399","title":"永清新村","lon":"121.50102","lat":"31.39143","category":"38","category_name":"公交车站","address":"永清新村54幢188号"},{"poiid":"B2094757D569A2FD4693","title":"淞宝盲人推拿中心","lon":"121.5032331","lat":"31.38846917","category":"149","category_name":"洗浴推拿场所","address":"宝山区淞宝路522号(淞宝路塘后路)"},{"poiid":"B2094655D36DA7F5489F","title":"淞青路淞宝路","lon":"121.50223","lat":"31.39021","category":"38","category_name":"公交车站","address":""},{"poiid":"B2094757D66CA0FB4693","title":"淞宝发大酒店中餐厅","lon":"121.50201","lat":"31.38418","category":"76","category_name":"上海菜","address":"宝山区淞宝路288号"},{"poiid":"B2094757D469A0FC429F","title":"雨城料理","lon":"121.501845","lat":"31.3845689","category":"96","category_name":"韩国料理","address":"宝山区淞宝路399号(近永清路)"},{"poiid":"B2094655D36DA7F54492","title":"淞宝路永清路","lon":"121.50204","lat":"31.385","category":"38","category_name":"公交车站","address":""},{"poiid":"B2094757D66EA3FF479D","title":"肚子好饿","lon":"121.506598031","lat":"31.3907553955","category":"500","category_name":"未知分类","address":"上海肚织饿了"},{"poiid":"B2094757D568ABF54292","title":"中美格润恩生物技术公司(宝山店)","lon":"121.50239285","lat":"31.39031928","category":"162","category_name":"医院","address":"中国上海市宝山区凇宝路"},{"poiid":"B2094757D568AAFC409F","title":"美国CAS国家干洗(塘后路店)","lon":"121.50745877","lat":"31.39075412","category":"610","category_name":"干洗店","address":"塘后支路172"},{"poiid":"B2094750DA65A7F9439D","title":"弄堂口","lon":"121.500152","lat":"31.379171","category":"75","category_name":"浙江菜","address":"宝山区淞宝路155弄星月国际商务广场29号(近永清路)"},{"poiid":"B2094757D569A3FD479C","title":"淞源浴场","lon":"121.50283095","lat":"31.38932861","category":"149","category_name":"洗浴推拿场所","address":"中国上海市宝山区凇宝路"},{"poiid":"B2094757D568A7F84898","title":"祥懿宾馆","lon":"121.50311496","lat":"31.38751655","category":"251","category_name":"出行住宿","address":"淞宝路440"},{"poiid":"B2094757D064A5F94399","title":"90路终点站","lon":"121.502233","lat":"31.390214","category":"500","category_name":"未知分类","address":"上海淞宝路淞青路"},{"poiid":"B2094757D069A3F8459F","title":"炮台湾湿地森林公园","lon":"121.50571413","lat":"31.393478751","category":"500","category_name":"未知分类","address":"上海宝山区塘后路"},{"poiid":"B2094757D06AA4FE4499","title":"海军博物馆","lon":"121.50643","lat":"31.3887963487","category":"182","category_name":"博物馆","address":"宝山区塘后路68号(近淞宝路)"},{"poiid":"B2094757D06AA6F84598","title":"吴淞客运中心客运站","lon":"121.50122083","lat":"31.378539743","category":"35","category_name":"长途汽车站","address":"上海市宝山区化成路271号"},{"poiid":"B2094757D168ABF5439C","title":"星月国际商务广场","lon":"121.50003163","lat":"31.381648607","category":"500","category_name":"未知分类","address":"徐汇宜山路425号"},{"poiid":"B2094757D66CA4F54498","title":"众所粥滋(潮州海鲜粥)","lon":"121.50136","lat":"31.38392","category":"72","category_name":"广东菜","address":"宝山区淞宝路268号(近永清路)"},{"poiid":"B2094757D06FABFE459A","title":"海江二村","lon":"121.50371","lat":"31.393312","category":"47","category_name":"住宅区","address":"永乐路222弄"},{"poiid":"B2094654DB6AA6FF4192","title":"海滨八村","lon":"121.507","lat":"31.3884","category":"47","category_name":"住宅区","address":"上海宝山区牡丹江路海滨八村46号"},{"poiid":"B2094757D069ABF5409A","title":"万家灯火酒店","lon":"121.502034061","lat":"31.3856950811","category":"75","category_name":"浙江菜","address":"宝山区淞宝路358号"},{"poiid":"B2094757D16FA1FD4298","title":"海滨三村奉贤","lon":"121.49931404461","lat":"31.387000274504","category":"46","category_name":"楼宇","address":"上海牡丹江路水产路"},{"poiid":"B2094750DB64A5FA4492","title":"巨麦时尚KTV(淞宝店)","lon":"121.50075273408515","lat":"31.381164858525576","category":"170","category_name":"KTV","address":"宝山区淞宝路155号星月广场3楼"},{"poiid":"B2094750D26CA3F4429C","title":"老刘野生大鱼坊 宝山店","lon":"121.502523054","lat":"31.385492793","category":"82","category_name":"东北菜","address":"宝山区凇宝路406号(化成路淞宝路)"},{"poiid":"B2094757D568AAF54192","title":"上海市宝山区宝羊食品经营部","lon":"121.50581624","lat":"31.38852702","category":"117","category_name":"便民商店/便利店","address":"塘后路56"},{"poiid":"B2094757D568ABF54599","title":"宝山烟糖(志奕店)","lon":"121.50566406","lat":"31.3885829","category":"117","category_name":"便民商店/便利店","address":"塘后路52"},{"poiid":"B2094655D268A3FE499B","title":"前三营房","lon":"121.5051420877","lat":"31.391444050309","category":"47","category_name":"住宅区","address":"永清路98号"},{"poiid":"B2094757D064A1F84793","title":"宝山三村","lon":"121.49794","lat":"31.39304","category":"47","category_name":"住宅区","address":"上海市宝山区永清路双城路"},{"poiid":"B2094757D568A7F8469F","title":"星岛食府(海淞苑东北)","lon":"121.50215956","lat":"31.3861046","category":"257","category_name":"中餐厅","address":"中国上海市宝山区凇宝路"},{"poiid":"B2094757D068A2FD4198","title":"海江新村","lon":"121.50491","lat":"31.388483","category":"500","category_name":"未知分类","address":"上海宝山区塘后路"},{"poiid":"B2094757D568A7FE409B","title":"好乐迪量贩式KTV音乐茶室","lon":"121.50664795","lat":"31.38941352","category":"170","category_name":"KTV","address":"塘后路112号"},{"poiid":"B2094757D164A6F5499D","title":"海军训练基地三大队","lon":"121.503186","lat":"31.387595","category":"500","category_name":"未知分类","address":"上海淞宝路410号"},{"poiid":"B2094757D66BABF8419C","title":"锦润坊海鲜豆捞餐厅","lon":"121.50124","lat":"31.38345","category":"86","category_name":"火锅店","address":"宝山区淞宝路218号(近永清路)"},{"poiid":"B2094757DA6FA3F44799","title":"中通快递(宝山)公司","lon":"121.505874700001","lat":"31.3884762000001","category":"263","category_name":"公司","address":"宝山区塘后路58号"},{"poiid":"B2094757D568A4FD459A","title":"我们新疆好地方","lon":"121.50536675","lat":"31.38870307","category":"255","category_name":"专卖店","address":"塘后路38"},{"poiid":"B2094655D268A1F54899","title":"聚龙楼","lon":"121.50325","lat":"31.38819","category":"77","category_name":"湖南菜","address":"宝山区淞宝路502号(近永清路)"},{"poiid":"B2094654D46BA2FC4293","title":"新叶公寓","lon":"121.50488","lat":"31.391869","category":"47","category_name":"住宅区","address":"上海市宝山区塘后路231号"},{"poiid":"B2094654D46AA5FC459F","title":"农家粗菜馆(淞宝路)","lon":"121.50243","lat":"31.38975","category":"76","category_name":"上海菜","address":"宝山区淞宝路578-582号(水产路淞宝路)"},{"poiid":"B2094655D268A5F44499","title":"海江新村(北门)","lon":"121.50508","lat":"31.38876","category":"656","category_name":"大门","address":""},{"poiid":"B2094655D26BA6FB4498","title":"吴淞炮台纪念遗址","lon":"121.5083","lat":"31.39336","category":"250","category_name":"公园户外","address":"塘后路206"},{"poiid":"B2094757D06AA4F54899","title":"大唐酒店","lon":"121.50014495","lat":"31.383768081","category":"76","category_name":"上海菜","address":"宝山区永清路55号(近淞宝路)"},{"poiid":"B2094757D164A5F5449A","title":"邻家小菜","lon":"121.50175","lat":"31.39066","category":"76","category_name":"上海菜","address":"宝山区淞宝路(淞宝路淞青路)"},{"poiid":"B2094757D568AAF5409E","title":"伊梦娱乐","lon":"121.50303928","lat":"31.38621474","category":"170","category_name":"KTV","address":"中国上海市宝山区凇宝路"},{"poiid":"B2094655D26BA3F5469F","title":"海淞苑","lon":"121.5007","lat":"31.384554","category":"47","category_name":"住宅区","address":"上海市宝山区淞宝路258弄"},{"poiid":"B2094654D46AA5FE439A","title":"瑞华宝都","lon":"121.504","lat":"31.3839","category":"46","category_name":"楼宇","address":"牡丹江路186弄1幢1-3号"},{"poiid":"B2094655D26FA3FA4898","title":"馋神龙虾馆","lon":"121.49754469204","lat":"31.386369566175","category":"247","category_name":"餐饮美食","address":"淞宝路455号"},{"poiid":"B2094757D06BA4F94298","title":"马拉戈壁","lon":"121.50718433","lat":"31.391325507","category":"247","category_name":"餐饮美食","address":"上海dkkskf"},{"poiid":"B2094655D268A0F8449D","title":"光明便利(新新门窗装潢北)","lon":"121.50289","lat":"31.38984","category":"117","category_name":"便民商店/便利店","address":"淞宝路677"},{"poiid":"B2094654D46AA5FC489F","title":"车霸汽车养护中心宝山店","lon":"121.50331","lat":"31.38813","category":"159","category_name":"汽车维修","address":"淞宝路496-500"},{"poiid":"B2094757D569A0F8489B","title":"联华超市(淞宝路)","lon":"121.50240668","lat":"31.38614963","category":"118","category_name":"超级市场","address":"淞宝路382"},{"poiid":"B2094655D36DA0F44399","title":"永清新村","lon":"121.50102","lat":"31.39143","category":"38","category_name":"公交车站","address":"永清新村54幢188号"},{"poiid":"B2094757D569A2FD4693","title":"淞宝盲人推拿中心","lon":"121.5032331","lat":"31.38846917","category":"149","category_name":"洗浴推拿场所","address":"宝山区淞宝路522号(淞宝路塘后路)"},{"poiid":"B2094655D36DA7F5489F","title":"淞青路淞宝路","lon":"121.50223","lat":"31.39021","category":"38","category_name":"公交车站","address":""},{"poiid":"B2094757D66CA0FB4693","title":"淞宝发大酒店中餐厅","lon":"121.50201","lat":"31.38418","category":"76","category_name":"上海菜","address":"宝山区淞宝路288号"},{"poiid":"B2094757D469A0FC429F","title":"雨城料理","lon":"121.501845","lat":"31.3845689","category":"96","category_name":"韩国料理","address":"宝山区淞宝路399号(近永清路)"},{"poiid":"B2094655D36DA7F54492","title":"淞宝路永清路","lon":"121.50204","lat":"31.385","category":"38","category_name":"公交车站","address":""},{"poiid":"B2094757D66EA3FF479D","title":"肚子好饿","lon":"121.506598031","lat":"31.3907553955","category":"500","category_name":"未知分类","address":"上海肚织饿了"},{"poiid":"B2094757D568ABF54292","title":"中美格润恩生物技术公司(宝山店)","lon":"121.50239285","lat":"31.39031928","category":"162","category_name":"医院","address":"中国上海市宝山区凇宝路"},{"poiid":"B2094757D568AAFC409F","title":"美国CAS国家干洗(塘后路店)","lon":"121.50745877","lat":"31.39075412","category":"610","category_name":"干洗店","address":"塘后支路172"},{"poiid":"B2094750DA65A7F9439D","title":"弄堂口","lon":"121.500152","lat":"31.379171","category":"75","category_name":"浙江菜","address":"宝山区淞宝路155弄星月国际商务广场29号(近永清路)"},{"poiid":"B2094757D569A3FD479C","title":"淞源浴场","lon":"121.50283095","lat":"31.38932861","category":"149","category_name":"洗浴推拿场所","address":"中国上海市宝山区凇宝路"},{"poiid":"B2094757D568A7F84898","title":"祥懿宾馆","lon":"121.50311496","lat":"31.38751655","category":"251","category_name":"出行住宿","address":"淞宝路440"},{"poiid":"B2094757D064A5F94399","title":"90路终点站","lon":"121.502233","lat":"31.390214","category":"500","category_name":"未知分类","address":"上海淞宝路淞青路"},{"poiid":"B2094757D069A3F8459F","title":"炮台湾湿地森林公园","lon":"121.50571413","lat":"31.393478751","category":"500","category_name":"未知分类","address":"上海宝山区塘后路"},{"poiid":"B2094757D06AA4FE4499","title":"海军博物馆","lon":"121.50643","lat":"31.3887963487","category":"182","category_name":"博物馆","address":"宝山区塘后路68号(近淞宝路)"},{"poiid":"B2094757D06AA6F84598","title":"吴淞客运中心客运站","lon":"121.50122083","lat":"31.378539743","category":"35","category_name":"长途汽车站","address":"上海市宝山区化成路271号"},{"poiid":"B2094757D168ABF5439C","title":"星月国际商务广场","lon":"121.50003163","lat":"31.381648607","category":"500","category_name":"未知分类","address":"徐汇宜山路425号"},{"poiid":"B2094757D66CA4F54498","title":"众所粥滋(潮州海鲜粥)","lon":"121.50136","lat":"31.38392","category":"72","category_name":"广东菜","address":"宝山区淞宝路268号(近永清路)"},{"poiid":"B2094757D06FABFE459A","title":"海江二村","lon":"121.50371","lat":"31.393312","category":"47","category_name":"住宅区","address":"永乐路222弄"},{"poiid":"B2094654DB6AA6FF4192","title":"海滨八村","lon":"121.507","lat":"31.3884","category":"47","category_name":"住宅区","address":"上海宝山区牡丹江路海滨八村46号"},{"poiid":"B2094757D069ABF5409A","title":"万家灯火酒店","lon":"121.502034061","lat":"31.3856950811","category":"75","category_name":"浙江菜","address":"宝山区淞宝路358号"},{"poiid":"B2094757D16FA1FD4298","title":"海滨三村奉贤","lon":"121.49931404461","lat":"31.387000274504","category":"46","category_name":"楼宇","address":"上海牡丹江路水产路"},{"poiid":"B2094750DB64A5FA4492","title":"巨麦时尚KTV(淞宝店)","lon":"121.50075273408515","lat":"31.381164858525576","category":"170","category_name":"KTV","address":"宝山区淞宝路155号星月广场3楼"},{"poiid":"B2094750D26CA3F4429C","title":"老刘野生大鱼坊 宝山店","lon":"121.502523054","lat":"31.385492793","category":"82","category_name":"东北菜","address":"宝山区凇宝路406号(化成路淞宝路)"},{"poiid":"B2094757D568AAF54192","title":"上海市宝山区宝羊食品经营部","lon":"121.50581624","lat":"31.38852702","category":"117","category_name":"便民商店/便利店","address":"塘后路56"},{"poiid":"B2094757D568ABF54599","title":"宝山烟糖(志奕店)","lon":"121.50566406","lat":"31.3885829","category":"117","category_name":"便民商店/便利店","address":"塘后路52"},{"poiid":"B2094655D268A3FE499B","title":"前三营房","lon":"121.5051420877","lat":"31.391444050309","category":"47","category_name":"住宅区","address":"永清路98号"},{"poiid":"B2094757D064A1F84793","title":"宝山三村","lon":"121.49794","lat":"31.39304","category":"47","category_name":"住宅区","address":"上海市宝山区永清路双城路"},{"poiid":"B2094757D568A7F8469F","title":"星岛食府(海淞苑东北)","lon":"121.50215956","lat":"31.3861046","category":"257","category_name":"中餐厅","address":"中国上海市宝山区凇宝路"},{"poiid":"B2094757D068A2FD4198","title":"海江新村","lon":"121.50491","lat":"31.388483","category":"500","category_name":"未知分类","address":"上海宝山区塘后路"},{"poiid":"B2094757D568A7FE409B","title":"好乐迪量贩式KTV音乐茶室","lon":"121.50664795","lat":"31.38941352","category":"170","category_name":"KTV","address":"塘后路112号"},{"poiid":"B2094757D164A6F5499D","title":"海军训练基地三大队","lon":"121.503186","lat":"31.387595","category":"500","category_name":"未知分类","address":"上海淞宝路410号"},{"poiid":"B2094757D66BABF8419C","title":"锦润坊海鲜豆捞餐厅","lon":"121.50124","lat":"31.38345","category":"86","category_name":"火锅店","address":"宝山区淞宝路218号(近永清路)"},{"poiid":"B2094757DA6FA3F44799","title":"中通快递(宝山)公司","lon":"121.505874700001","lat":"31.3884762000001","category":"263","category_name":"公司","address":"宝山区塘后路58号"},{"poiid":"B2094757D568A4FD459A","title":"我们新疆好地方","lon":"121.50536675","lat":"31.38870307","category":"255","category_name":"专卖店","address":"塘后路38"},{"poiid":"B2094655D268A1F54899","title":"聚龙楼","lon":"121.50325","lat":"31.38819","category":"77","category_name":"湖南菜","address":"宝山区淞宝路502号(近永清路)"},{"poiid":"B2094654D46BA2FC4293","title":"新叶公寓","lon":"121.50488","lat":"31.391869","category":"47","category_name":"住宅区","address":"上海市宝山区塘后路231号"},{"poiid":"B2094654D46AA5FC459F","title":"农家粗菜馆(淞宝路)","lon":"121.50243","lat":"31.38975","category":"76","category_name":"上海菜","address":"宝山区淞宝路578-582号(水产路淞宝路)"},{"poiid":"B2094655D268A5F44499","title":"海江新村(北门)","lon":"121.50508","lat":"31.38876","category":"656","category_name":"大门","address":""},{"poiid":"B2094655D26BA6FB4498","title":"吴淞炮台纪念遗址","lon":"121.5083","lat":"31.39336","category":"250","category_name":"公园户外","address":"塘后路206"},{"poiid":"B2094757D06AA4F54899","title":"大唐酒店","lon":"121.50014495","lat":"31.383768081","category":"76","category_name":"上海菜","address":"宝山区永清路55号(近淞宝路)"},{"poiid":"B2094757D164A5F5449A","title":"邻家小菜","lon":"121.50175","lat":"31.39066","category":"76","category_name":"上海菜","address":"宝山区淞宝路(淞宝路淞青路)"},{"poiid":"B2094757D568AAF5409E","title":"伊梦娱乐","lon":"121.50303928","lat":"31.38621474","category":"170","category_name":"KTV","address":"中国上海市宝山区凇宝路"},{"poiid":"B2094655D26BA3F5469F","title":"海淞苑","lon":"121.5007","lat":"31.384554","category":"47","category_name":"住宅区","address":"上海市宝山区淞宝路258弄"},{"poiid":"B2094654D46AA5FE439A","title":"瑞华宝都","lon":"121.504","lat":"31.3839","category":"46","category_name":"楼宇","address":"牡丹江路186弄1幢1-3号"},{"poiid":"B2094655D26FA3FA4898","title":"馋神龙虾馆","lon":"121.49754469204","lat":"31.386369566175","category":"247","category_name":"餐饮美食","address":"淞宝路455号"},{"poiid":"B2094757D06BA4F94298","title":"马拉戈壁","lon":"121.50718433","lat":"31.391325507","category":"247","category_name":"餐饮美食","address":"上海dkkskf"},{"poiid":"B2094655D268A0F8449D","title":"光明便利(新新门窗装潢北)","lon":"121.50289","lat":"31.38984","category":"117","category_name":"便民商店/便利店","address":"淞宝路677"},{"poiid":"B2094654D46AA5FC489F","title":"车霸汽车养护中心宝山店","lon":"121.50331","lat":"31.38813","category":"159","category_name":"汽车维修","address":"淞宝路496-500"},{"poiid":"B2094757D569A0F8489B","title":"联华超市(淞宝路)","lon":"121.50240668","lat":"31.38614963","category":"118","category_name":"超级市场","address":"淞宝路382"},{"poiid":"B2094655D36DA0F44399","title":"永清新村","lon":"121.50102","lat":"31.39143","category":"38","category_name":"公交车站","address":"永清新村54幢188号"},{"poiid":"B2094757D569A2FD4693","title":"淞宝盲人推拿中心","lon":"121.5032331","lat":"31.38846917","category":"149","category_name":"洗浴推拿场所","address":"宝山区淞宝路522号(淞宝路塘后路)"},{"poiid":"B2094655D36DA7F5489F","title":"淞青路淞宝路","lon":"121.50223","lat":"31.39021","category":"38","category_name":"公交车站","address":""},{"poiid":"B2094757D66CA0FB4693","title":"淞宝发大酒店中餐厅","lon":"121.50201","lat":"31.38418","category":"76","category_name":"上海菜","address":"宝山区淞宝路288号"},{"poiid":"B2094757D469A0FC429F","title":"雨城料理","lon":"121.501845","lat":"31.3845689","category":"96","category_name":"韩国料理","address":"宝山区淞宝路399号(近永清路)"},{"poiid":"B2094655D36DA7F54492","title":"淞宝路永清路","lon":"121.50204","lat":"31.385","category":"38","category_name":"公交车站","address":""},{"poiid":"B2094757D66EA3FF479D","title":"肚子好饿","lon":"121.506598031","lat":"31.3907553955","category":"500","category_name":"未知分类","address":"上海肚织饿了"},{"poiid":"B2094757D568ABF54292","title":"中美格润恩生物技术公司(宝山店)","lon":"121.50239285","lat":"31.39031928","category":"162","category_name":"医院","address":"中国上海市宝山区凇宝路"},{"poiid":"B2094757D568AAFC409F","title":"美国CAS国家干洗(塘后路店)","lon":"121.50745877","lat":"31.39075412","category":"610","category_name":"干洗店","address":"塘后支路172"},{"poiid":"B2094750DA65A7F9439D","title":"弄堂口","lon":"121.500152","lat":"31.379171","category":"75","category_name":"浙江菜","address":"宝山区淞宝路155弄星月国际商务广场29号(近永清路)"},{"poiid":"B2094757D569A3FD479C","title":"淞源浴场","lon":"121.50283095","lat":"31.38932861","category":"149","category_name":"洗浴推拿场所","address":"中国上海市宝山区凇宝路"},{"poiid":"B2094757D568A7F84898","title":"祥懿宾馆","lon":"121.50311496","lat":"31.38751655","category":"251","category_name":"出行住宿","address":"淞宝路440"},{"poiid":"B2094757D064A5F94399","title":"90路终点站","lon":"121.502233","lat":"31.390214","category":"500","category_name":"未知分类","address":"上海淞宝路淞青路"}]