[{"poiid":"B2094655D36DA6FF4992","title":"上海金逸院线新恒星影城","lon":"121.46933","lat":"31.25147","category":"178","category_name":"电影院","address":"上海市闸北区西藏北路166号大悦城10-11楼"},{"poiid":"B2094757DB6EA6FE469C","title":"上海铭德大酒店","lon":"121.470063329","lat":"31.251024786","category":"213","category_name":"五星级宾馆","address":"上海市闸北区西藏北路558号(上海火车站地区,近虬江路)"},{"poiid":"B2094757D06FA1FD419F","title":"铭德莱星顿广场酒店","lon":"121.47000877","lat":"31.251120658","category":"213","category_name":"五星级宾馆","address":"上海闸北区西藏北路558号(虬江路口)"},{"poiid":"B209475CD564A7F84292","title":"上海滩新天地店","lon":"121.47463","lat":"31.22164","category":"119","category_name":"商场","address":"\"太仓路181弄新天地北里15号\r\n\""},{"poiid":"B209475CD564A7F8439E","title":"上海滩中信泰富店","lon":"121.45602","lat":"31.22851","category":"119","category_name":"商场","address":"\"南京西路1168号中信泰富广场，店铺号221.\r\n\""},{"poiid":"B2094757D06FA6F9489D","title":"市北中学","lon":"121.47051","lat":"31.25192","category":"55","category_name":"中学","address":"闸北区永兴路365号(民德路永兴路)"},{"poiid":"B2094757D068A1F84993","title":"西藏北路海宁路","lon":"121.473038218","lat":"31.2452786409","category":"500","category_name":"未知分类","address":"上海西藏北路海宁路"},{"poiid":"B2094757D168A5F4409F","title":"地铁三、四号线上海站","lon":"121.4723053","lat":"31.249360982","category":"500","category_name":"未知分类","address":"上海地铁三、四号线上海站"},{"poiid":"B2094654DA6FAAF9499B","title":"凯旋门大厦","lon":"121.473","lat":"31.2497","category":"46","category_name":"楼宇","address":"龙蟠南路33号(龙蟠南路与秦虹路交汇处,秦淮区政府对面)"},{"poiid":"B2094757D069A3FE4198","title":"闸北区图书馆","lon":"121.474","lat":"31.24822","category":"181","category_name":"图书馆","address":"闸北区天目中路6号(天目中路浙江北路)"},{"poiid":"B2094757D06AA6FF4699","title":"宝山路","lon":"121.4729591","lat":"31.24928998","category":"500","category_name":"未知分类","address":"上海宝山路"},{"poiid":"B2094757D06AABFE4993","title":"铁路文化宫","lon":"121.47159","lat":"31.24968","category":"179","category_name":"音乐厅","address":"闸北区王家宅路164号(民德路王家宅路)"},{"poiid":"B2094751D46EA3FA479F","title":"捞王猪肚鸡","lon":"121.4721395","lat":"31.2521098","category":"247","category_name":"餐饮美食","address":"虹口区四川北路1318号盛邦国际大厦3楼(近武进路)"},{"poiid":"B2094757D068A7FE419D","title":"上海滩新昌城","lon":"121.473","lat":"31.2443","category":"47","category_name":"住宅区","address":"上海市黄浦区新昌路477弄"},{"poiid":"B2094757D064A7F4499E","title":"浙江北路天目路","lon":"121.47467","lat":"31.248947","category":"500","category_name":"未知分类","address":"上海浙江北路天目路"},{"poiid":"B2094757D06FABFC409A","title":"新梅大厦","lon":"121.47","lat":"31.2509","category":"46","category_name":"楼宇","address":"铁西卫工南街8―5号"},{"poiid":"B2094757D068ABFE459D","title":"上海铁路局上海客运段","lon":"121.472104","lat":"31.249152","category":"260","category_name":"其他","address":"上海闸北区民德路31号"},{"poiid":"B2094654D56DA1F4449B","title":"聚源大厦","lon":"121.473545","lat":"31.251552","category":"46","category_name":"楼宇","address":"上海市普陀区中山北路1777号"},{"poiid":"B2094757D069A7FC419F","title":"巴黎贝甜(大悦城店)","lon":"121.47227","lat":"31.24237","category":"67","category_name":"甜品店","address":"闸北区西藏北路166号大悦城B1楼(近曲阜路)"},{"poiid":"B2094757D068A3FD4398","title":"唯一视觉(西藏北路店)","lon":"121.4732623","lat":"31.250697831","category":"249","category_name":"购物服务","address":"上海西藏北路605号兴中心c座2楼"},{"poiid":"B2094752D76BA2FD4593","title":"虹桥机场2号航站楼","lon":"121.473502","lat":"31.248145","category":"500","category_name":"未知分类","address":"虹桥机场"},{"poiid":"B2094757D068A5F9449C","title":"SOMI(大悦城店)","lon":"121.46940193","lat":"31.251404648","category":"67","category_name":"甜品店","address":"上海闸北区西藏北路180号大悦城7F-08"},{"poiid":"B2094654DB64A7F4439A","title":"绿地海悦酒店公寓","lon":"121.473","lat":"31.2489","category":"214","category_name":"四星级宾馆","address":"闸北区乌镇路118号"},{"poiid":"B2094654D56DA1F5489A","title":"上海楚天大酒店","lon":"121.47308","lat":"31.25211","category":"76","category_name":"上海菜","address":"闸北区虬江路1011号(近西藏北路)"},{"poiid":"B2094757D06BA2FB499B","title":"New BoBo(原BOBO'S BAR)","lon":"121.473081","lat":"31.25211","category":"172","category_name":"酒吧","address":"上海 閘北區 虬江路1011號 坦福酒店三樓(近會文璐)"},{"poiid":"B2094654DA6FA2FE419B","title":"小肖烧烤","lon":"121.47401","lat":"31.24805","category":"68","category_name":"快餐厅","address":"闸北区浙江北路403弄弄堂口(塘沽路浙江北路)"},{"poiid":"B2094654DA6FA2FD4999","title":"兴铁大厦","lon":"121.47093","lat":"31.24724","category":"46","category_name":"楼宇","address":"上海天目中路181号"},{"poiid":"B2094757D169A0F44793","title":"南星大楼","lon":"121.47179706951","lat":"31.249361507226","category":"47","category_name":"住宅区","address":"上海市闸北区天目中路"},{"poiid":"B2094757D069A0F94093","title":"焦叶(大悦城店)","lon":"121.47440831","lat":"31.245327969","category":"110","category_name":"其他亚洲菜","address":"上海大悦城7楼"},{"poiid":"B2094654D56CA2FB4298","title":"上海铁路游泳池","lon":"121.46953","lat":"31.24894","category":"231","category_name":"游泳馆","address":"闸北区西藏北路503号(近虬江路)"},{"poiid":"B2094654D56DA1FB4199","title":"红厦公寓","lon":"121.47144","lat":"31.249865","category":"47","category_name":"住宅区","address":"闸北区名德路59号"},{"poiid":"B2094655D265A6F4449F","title":"功立餐厅老干部部","lon":"121.472","lat":"31.24958","category":"257","category_name":"中餐厅","address":""},{"poiid":"B2094654D56DA1FB449A","title":"上海纺织工业职工大学针织分校","lon":"121.47204","lat":"31.25109","category":"52","category_name":"高等院校","address":"闸北区虬江路1078号"},{"poiid":"B2094757D465A0F44192","title":"吉祥馄饨 浙江北路店 Gll Wonton","lon":"121.474954054","lat":"31.247073793","category":"68","category_name":"快餐厅","address":"闸北区浙江北路354号(近天目东路)"},{"poiid":"B2094750D66CABFA4093","title":"大悦城 板长寿司","lon":"121.473594","lat":"31.249837","category":"500","category_name":"未知分类","address":"西藏北路"},{"poiid":"B2094757DB68A3F9439C","title":"蛇摊","lon":"121.4683665801971","lat":"31.24743910043616","category":"247","category_name":"餐饮美食","address":"海宁路西藏北路"},{"poiid":"B2094757D064A3FF4399","title":"招商银行(天目支行)","lon":"121.47402191","lat":"31.249061584","category":"150","category_name":"银行","address":"闸北区天目西路451-469号(长寿路天目西路)"},{"poiid":"B2094752D368A7FA479B","title":"星怡会","lon":"121.474488","lat":"31.245342","category":"247","category_name":"餐饮美食","address":"四川北路1360号中信泰富虹广场303单元"},{"poiid":"B2094654DA6FA2F8419B","title":"上海铁路保安服务总公司","lon":"121.47179","lat":"31.24767","category":"263","category_name":"公司","address":"天目中路157"},{"poiid":"B2094757D16FA6F5419F","title":"阿四烧烤","lon":"121.469243","lat":"31.250066","category":"68","category_name":"快餐厅","address":"闸北区虬江路1400号(近重庆鸡公堡)"},{"poiid":"B2094757D065A4FF4993","title":"新世界十层停车场","lon":"121.47356549","lat":"31.247314027","category":"500","category_name":"未知分类","address":"上海南京路新世界商场旁停车场"},{"poiid":"B2094753D568A5F94793","title":"闸北大悦城","lon":"121.469902","lat":"31.249034","category":"500","category_name":"未知分类","address":"上海市 西藏北路蒙古路"},{"poiid":"B2094752D16BA4FC449A","title":"东宝兴路地铁站","lon":"121.473479","lat":"31.250141","category":"36","category_name":"地铁站","address":null},{"poiid":"B2094655D26DA7FF439F","title":"华安坊(东门)","lon":"121.47405","lat":"31.24801","category":"47","category_name":"住宅区","address":"浙江北路405"},{"poiid":"B2094654D56DA1F44093","title":"局北村","lon":"121.47032","lat":"31.2497","category":"47","category_name":"住宅区","address":"虬江路1150号"},{"poiid":"B2094757D66EAAFE449D","title":"上海客运段客技站拉萨车","lon":"121.472366603","lat":"31.2494327837","category":"500","category_name":"未知分类","address":null},{"poiid":"B2094654D56DA1F44699","title":"上海会都大酒店","lon":"121.47373","lat":"31.25089","category":"68","category_name":"快餐厅","address":"闸北区会文路2号"},{"poiid":"B2094654D56DA1FB4298","title":"上海铁路红厦实业有限公司王家宅公寓","lon":"121.47142","lat":"31.25018","category":"47","category_name":"住宅区","address":"王家宅路121号"},{"poiid":"B2094655D26FA1F5439A","title":"局北村(南门)","lon":"121.47055","lat":"31.24959","category":"47","category_name":"住宅区","address":"虬江路1150号"},{"poiid":"B2094757D06BABF4489D","title":"北站派出所","lon":"121.474915","lat":"31.246779","category":"609","category_name":"警察局","address":"上海浙江北路321号"},{"poiid":"B2094757D16EA7FC4393","title":"粤品轩中餐厅","lon":"121.469537054","lat":"31.250571793","category":"72","category_name":"广东菜","address":"闸北区西藏北路558号上海铭德大酒店2楼(近虬江路)"},{"poiid":"B2094757D169A2FF439D","title":"罗森便利(武昌路店)","lon":"121.473372934","lat":"31.2496077274","category":"117","category_name":"便民商店/便利店","address":"上海虹口区武昌路537弄3号  "},{"poiid":"B2094655D265AAFF499A","title":"铁路公安检查大楼","lon":"121.47038","lat":"31.25036","category":"46","category_name":"楼宇","address":"虬江路1168号"},{"poiid":"B2094654D56DA1FA4993","title":"上海铁路局上海工务段","lon":"121.47276","lat":"31.24956","category":"263","category_name":"公司","address":""},{"poiid":"B2094655D26BA2F8499E","title":"天目中路浙江北路","lon":"121.47467","lat":"31.24894","category":"38","category_name":"公交车站","address":""},{"poiid":"B2094654D56DA1FA459C","title":"铁联大厦","lon":"121.47492","lat":"31.24936","category":"46","category_name":"楼宇","address":"天目东路228甲"},{"poiid":"B2094655D26FA7FA479A","title":"上海铁路红厦实业有限公司王家宅公寓(东门)","lon":"121.47146","lat":"31.25016","category":"47","category_name":"住宅区","address":"王家宅路121"},{"poiid":"B2094654D56DA1FB4292","title":"虬江大楼","lon":"121.47118","lat":"31.250402","category":"47","category_name":"住宅区","address":"虬江路1120号"},{"poiid":"B2094655D26FA1FB429A","title":"鹏信都市工业园","lon":"121.46928","lat":"31.2481","category":"45","category_name":"产业园区","address":"西藏北路489"},{"poiid":"B2094757D06BA6FC429C","title":"上海贝尔和田分部","lon":"121.46884155","lat":"31.250766754","category":"68","category_name":"快餐厅","address":"闸北区西藏北路525号(近虬江路)"},{"poiid":"B2094757D16FA5FF419C","title":"被窩裡","lon":"121.473803","lat":"31.247482","category":"500","category_name":"未知分类","address":"上海華興路"},{"poiid":"B2094752D06CABFF4798","title":"北京首都机场","lon":"121.472579","lat":"31.24725","category":"500","category_name":"未知分类","address":null},{"poiid":"B2094654D56DA1F94899","title":"上海市闸北区第一中心小学","lon":"121.47623","lat":"31.24819","category":"56","category_name":"小学","address":"闸北区康乐路199号(近天目东路)"},{"poiid":"B2094654D56DA1FB4293","title":"快客No.835","lon":"121.47113","lat":"31.25058","category":"117","category_name":"便民商店/便利店","address":"虬江路1130"},{"poiid":"B2094655D26DA6F84999","title":"新红厦公寓(东门)","lon":"121.47132","lat":"31.24928","category":"48","category_name":"楼宇大门","address":"民德路36弄"},{"poiid":"B2094654D56DA1FA489D","title":"上海铁路局机务开发公司","lon":"121.47055","lat":"31.24853","category":"263","category_name":"公司","address":"虬江路1150号局南村8"},{"poiid":"B2094654D56DA1F9499C","title":"中国移动天目路营业厅","lon":"121.47509","lat":"31.24885","category":"151","category_name":"电讯营业厅","address":"天目东路225号"},{"poiid":"B2094655D26CA4F5459C","title":"北站街道社区卫生服务中心(海宁路)","lon":"121.47467","lat":"31.24595","category":"162","category_name":"医院","address":"海宁路1020"},{"poiid":"B2094757D06AA4FF469D","title":"恒安大厦","lon":"121.474","lat":"31.2471","category":"252","category_name":"楼宇机构","address":"上海石门二路333弄3号楼"},{"poiid":"B2094757D66EA4FF459A","title":"中国移动天目东路营业厅","lon":"121.47356243","lat":"31.247266863","category":"150","category_name":"银行","address":"上海天目东路225号"},{"poiid":"B2094757D16AA2FC4392","title":"537路天目东路浙江北路站","lon":"121.47495","lat":"31.249231","category":"38","category_name":"公交车站","address":"上海天目东路浙江北路"},{"poiid":"B2094654D56DA1FB499D","title":"上海梦香茶坊","lon":"121.46989","lat":"31.2502","category":"66","category_name":"茶艺馆","address":"闸北区西藏北路534号(近虬江路)"},{"poiid":"B2094750DA68A3F9439F","title":"万航渡路","lon":"121.474121","lat":"31.247688","category":"500","category_name":"未知分类","address":null},{"poiid":"B2094654D56DA1FB439B","title":"舒雨美容美发（虬江店）","lon":"121.4712","lat":"31.25063","category":"148","category_name":"美容美发店","address":"虬江路1388号近共和新路、西藏北路"},{"poiid":"B2094752D06CABFF489B","title":"北京首都国际机场T3航站楼","lon":"121.472579","lat":"31.24725","category":"500","category_name":"未知分类","address":null},{"poiid":"B209475CDB6CA3FB479C","title":"大悦城","lon":"121.470817","lat":"31.250413","category":"500","category_name":"未知分类","address":"上海市 西藏北路"},{"poiid":"B2094654DA6FA2FF4992","title":"宁康里","lon":"121.47465","lat":"31.2477","category":"47","category_name":"住宅区","address":"浙江北路372弄"},{"poiid":"B2094757D16EA2FC439A","title":"颐尚温泉度假村","lon":"121.470251738","lat":"31.2476266709","category":"500","category_name":"未知分类","address":"南京汤山"},{"poiid":"B2094757D16FA0FF4098","title":"北苑大厦","lon":"121.47166707348","lat":"31.249941794175","category":"252","category_name":"楼宇机构","address":"上海天目中路538弄"},{"poiid":"B2094654DB6BA3FD419D","title":"快客","lon":"121.46981","lat":"31.25011","category":"117","category_name":"便民商店/便利店","address":"西藏北路532"},{"poiid":"B2094654D56DA1FB499E","title":"博园大楼","lon":"121.4702","lat":"31.25002","category":"47","category_name":"住宅区","address":"虬江路1226"},{"poiid":"B2094654D56DA1FB409A","title":"上海铁路印刷有限公司","lon":"121.47236","lat":"31.2501","category":"263","category_name":"公司","address":"虬江路1150号局东村21号"},{"poiid":"B2094655D265A7F4459B","title":"中铁24局集团公司办公大楼","lon":"121.47359","lat":"31.25108","category":"46","category_name":"楼宇","address":"会文路2号"},{"poiid":"B2094757D16FA7F5489D","title":"会文路3号","lon":"121.473611103","lat":"31.2503580031","category":"47","category_name":"住宅区","address":null},{"poiid":"B2094757D16BA7F5429E","title":"上海市闸北区住房保障和房屋管理局","lon":"121.471225138","lat":"31.246598999","category":"500","category_name":"未知分类","address":"上海天目中路168号"},{"poiid":"B2094757D66EA6FA459E","title":"STEVE MADDEN","lon":"121.472657038","lat":"31.2461153387","category":"500","category_name":"未知分类","address":"上海大悦城2楼"},{"poiid":"B2094757D06AA4F84092","title":"虬江路1150号局西村","lon":"121.472364","lat":"31.250103","category":"500","category_name":"未知分类","address":"上海虬江路1150号"},{"poiid":"B2094751D364ABFF449B","title":"外滩星巴克","lon":"121.475586","lat":"31.250015","category":"247","category_name":"餐饮美食","address":"中山东一路北京东路"},{"poiid":"B2094757D064A4F8409C","title":"Happy Salt 盐(大悦城店)","lon":"121.471818428","lat":"31.2502770014","category":"249","category_name":"购物服务","address":"上海闸北区西藏北路166号大悦城4楼"},{"poiid":"B2094655D26FA6FA4293","title":"上海纺织工业职工大学针织分校(北门)","lon":"121.47203","lat":"31.2511","category":"52","category_name":"高等院校","address":"虬江路1078号"},{"poiid":"B2094757D16EA3FE499D","title":"ZOFF(大悦城店)","lon":"121.471672538","lat":"31.2450396758","category":"132","category_name":"眼镜店","address":"上海西藏北路166号2F"},{"poiid":"B2094757D16AA5FD4899","title":"浙江北路天目东路","lon":"121.47472173","lat":"31.247313664","category":"500","category_name":"未知分类","address":"上海市闸北区王家宅路"},{"poiid":"B2094654D56DA1FA459E","title":"天东小区","lon":"121.47505","lat":"31.249723","category":"47","category_name":"住宅区","address":"天目东路220号"},{"poiid":"B2094654DB69A6F94293","title":"博园","lon":"121.46974","lat":"31.25034","category":"47","category_name":"住宅区","address":"博园小区位于闸北西藏北路528弄"},{"poiid":"B2094654DA6FA2FE489A","title":"良友金伴No.868","lon":"121.47511","lat":"31.24698","category":"117","category_name":"便民商店/便利店","address":"浙江北路328"},{"poiid":"B2094654D56CA2FB4393","title":"卡斯柯信号有限公司","lon":"121.46928","lat":"31.2481","category":"263","category_name":"公司","address":"西藏北路489号鹏信都市工业园10号楼7层、11号楼7层"},{"poiid":"B2094757D165A0F9409F","title":"13路","lon":"121.474839103","lat":"31.2489429735","category":"500","category_name":"未知分类","address":"上海提篮桥~中山公园地铁站"},{"poiid":"B2094752D669A6F44398","title":"顾村公园","lon":"121.468335","lat":"31.248608","category":"196","category_name":"公园","address":null},{"poiid":"B2094654DB64A4FC429A","title":"上海市第十人民医院第二门诊部","lon":"121.47235","lat":"31.2517","category":"162","category_name":"医院","address":"虬江路1057号"},{"poiid":"B2094757D06AA4FD429F","title":"天目中路晋元路大车站","lon":"121.470348738","lat":"31.2462646419","category":"500","category_name":"未知分类","address":"上海天目中路晋元路路口…"},{"poiid":"B2094654D56DA1FA4098","title":"可的(天目东路)","lon":"121.47548","lat":"31.24903","category":"117","category_name":"便民商店/便利店","address":"闸北区天目东路219号"},{"poiid":"B2094757D16BA6FA459C","title":"维鹏信息技术(上海)有限公司","lon":"121.4714368","lat":"31.250073297","category":"263","category_name":"公司","address":"上海市中江路879号"},{"poiid":"B2094654DA6FA2FD4893","title":"红花小区","lon":"121.47169","lat":"31.245489","category":"47","category_name":"住宅区","address":"西藏北路300弄"},{"poiid":"B2094655D26FA0F5499F","title":"天东小区(南门)","lon":"121.47512","lat":"31.24944","category":"47","category_name":"住宅区","address":"天目东路220号"},{"poiid":"B2094655D26AA7FE409E","title":"铁路国际旅行社天目东路店","lon":"121.47516","lat":"31.24959","category":"247","category_name":"餐饮美食","address":"虹口区天目东路220号207室(康乐路天目东路)"},{"poiid":"B2094654DA6FA2FF479C","title":"北高寿里","lon":"121.47555","lat":"31.247454","category":"47","category_name":"住宅区","address":"天目东路245弄"},{"poiid":"B2094654DB6BA3FD419F","title":"祥麟里东街(南门)","lon":"121.47148","lat":"31.25107","category":"47","category_name":"住宅区","address":""},{"poiid":"B2094655D26FA6FA449F","title":"祥麟里东街","lon":"121.47141","lat":"31.25107","category":"47","category_name":"住宅区","address":""},{"poiid":"B2094654D56DA1F4409B","title":"上海铁路公安局上海公安处","lon":"121.47037","lat":"31.25035","category":"248","category_name":"生活娱乐","address":"虬江路1168"},{"poiid":"B2094654DA6FA2FE469C","title":"六桂坊","lon":"121.47489","lat":"31.24666","category":"47","category_name":"住宅区","address":""},{"poiid":"B2094654D56DA1FA4693","title":"中国建设银行上海第六支行","lon":"121.4748","lat":"31.24927","category":"150","category_name":"银行","address":"天目东路228乙"},{"poiid":"B2094655D26DA7FE459C","title":"六桂坊(东门)","lon":"121.47495","lat":"31.2467","category":"47","category_name":"住宅区","address":""},{"poiid":"B2094757D068A2FC439D","title":"移动通信四楼","lon":"121.468711","lat":"31.250228","category":"500","category_name":"未知分类","address":"上海闸北区虬江路1307号"},{"poiid":"B2094655D26DA7FF439E","title":"红花小区(西门)","lon":"121.47126","lat":"31.24539","category":"47","category_name":"住宅区","address":"西藏北路300弄"},{"poiid":"B2094752D16FABFB489D","title":"四川北路公园","lon":"121.47448","lat":"31.249732","category":"250","category_name":"公园户外","address":null},{"poiid":"B2094750D365A5F94593","title":"家","lon":"121.470428","lat":"31.250425","category":"500","category_name":"未知分类","address":null},{"poiid":"B2094757D168A4FC4798","title":"上海铁路客技站","lon":"121.471378138","lat":"31.2457896317","category":"500","category_name":"未知分类","address":"上海地铁宝山站旁"},{"poiid":"B2094757D06BA5F94593","title":"柬埔寨王国驻上海总领事馆","lon":"121.47004824","lat":"31.245467074","category":"500","category_name":"未知分类","address":"天目中路253-267号蓝宝石大厦12层A座"},{"poiid":"B2094654D56DA1FB4592","title":"上海市第十人民医院体检部","lon":"121.47225","lat":"31.25167","category":"162","category_name":"医院","address":"虬江路1057甲"},{"poiid":"B2094655D265AAFB4998","title":"喜士多海峰门市","lon":"121.46954","lat":"31.2457","category":"117","category_name":"便民商店/便利店","address":"天目中路260-1临"},{"poiid":"B2094654DA6FA2FD4598","title":"诚意棋牌室","lon":"121.46986","lat":"31.24795","category":"175","category_name":"棋牌室","address":" 西藏北路489号底楼丁座"},{"poiid":"B2094654DB6BA4F4439E","title":"福康里(东门)","lon":"121.47505","lat":"31.24643","category":"47","category_name":"住宅区","address":""},{"poiid":"B2094757D164A2FC489A","title":"虬江路 民德路","lon":"121.4722851","lat":"31.250975016","category":"500","category_name":"未知分类","address":"上海虬江路 民德路"},{"poiid":"B2094654DB6BA4F44293","title":"观景苑","lon":"121.46799","lat":"31.248043","category":"47","category_name":"住宅区","address":"上海市闸北区新马路258弄"},{"poiid":"B2094654D56CA2FB449B","title":"上海新干通通信设备有限公司","lon":"121.46928","lat":"31.24809","category":"263","category_name":"公司","address":"西藏北路489号鹏信都市工业园11号楼3-4层"},{"poiid":"B2094757D165A7FF409B","title":"河南拉面馆","lon":"121.46851","lat":"31.24949","category":"247","category_name":"餐饮美食","address":"上海闸北区虬江路1292号(近育婴堂路)  "},{"poiid":"B2094654DB6BABFC479C","title":"光明便利No.100","lon":"121.47229","lat":"31.24483","category":"117","category_name":"便民商店/便利店","address":"海宁路1179临"},{"poiid":"B2094654DB6BABFC479D","title":"闽旺火锅楼 海宁店","lon":"121.47556112831","lat":"31.245693898904","category":"86","category_name":"火锅店","address":"虹口区海宁路977号(近浙江北路)"},{"poiid":"B2094654DA6FA6F84798","title":"可的(海宁路)","lon":"121.4734","lat":"31.24499","category":"117","category_name":"便民商店/便利店","address":"虹口区海宁路1127号(近热河路)"},{"poiid":"B2094750D56DA1F44992","title":"思南公馆","lon":"121.469268","lat":"31.251136","category":"500","category_name":"未知分类","address":null},{"poiid":"B2094655D26DAAFE409D","title":"联合新村(北门)","lon":"121.4757","lat":"31.24913","category":"47","category_name":"住宅区","address":""},{"poiid":"B2094655D26FA1FA479E","title":"联和新村","lon":"121.47577","lat":"31.24894","category":"47","category_name":"住宅区","address":""},{"poiid":"B2094654DA6FA2FC4693","title":"中铁上海设计院集团有限公司","lon":"121.46974","lat":"31.24654","category":"263","category_name":"公司","address":"天目中路291"},{"poiid":"B2094757D06AA4F4489E","title":"人人网","lon":"121.471984863","lat":"31.2510738373","category":"500","category_name":"未知分类","address":"上海人人网"},{"poiid":"B2094655D264AAF5449D","title":"中国工商银行上海市虬江路支行","lon":"121.47013","lat":"31.25066","category":"150","category_name":"银行","address":"闸北区虬江路1477号近共和新路(虬江路永兴小马路)"},{"poiid":"B2094654DA6FA2FC4993","title":"上铁院城建设计院","lon":"121.4701","lat":"31.2468","category":"191","category_name":"科研机构","address":"天目中路253-267号蓝宝石大厦14层、15层B"},{"poiid":"B2094757D66DA0FB439C","title":"虬江路","lon":"121.4698051","lat":"31.251297022","category":"500","category_name":"未知分类","address":"上海市闸北区止园路"},{"poiid":"B2094757D069A6F94592","title":"上海铁路国际旅行社","lon":"121.47566","lat":"31.24923","category":"500","category_name":"未知分类","address":"上海闸北区天目东路206号"},{"poiid":"B2094654D56DA1F5479C","title":"众爱商务楼","lon":"121.47358","lat":"31.25205","category":"46","category_name":"楼宇","address":"虬江路1007-1009号"},{"poiid":"B2094757D66CA1FB4792","title":"客技站35KV配电所","lon":"121.471441738","lat":"31.2458866338","category":"263","category_name":"公司","address":"上海天目中路157号"},{"poiid":"B2094654D56DA1FA409A","title":"天目路邮政储蓄","lon":"121.4753","lat":"31.24895","category":"150","category_name":"银行","address":"天目东路215"},{"poiid":"B2094757D06BA5FA4493","title":"移动通信五楼","lon":"121.4686851","lat":"31.250600008","category":"500","category_name":"未知分类","address":"上海市闸北区虬江路1307号"},{"poiid":"B2094655D26CAAFA4592","title":"祥新里(北门)","lon":"121.47605","lat":"31.24733","category":"47","category_name":"住宅区","address":"安庆路487弄"},{"poiid":"B2094654DA6FAAF5409D","title":"潮香茶室","lon":"121.47053","lat":"31.24442","category":"66","category_name":"茶艺馆","address":"海宁路1319"},{"poiid":"B2094757D16CABFD4298","title":"铭德广场闸北区西藏北路558号铭德莱星顿广","lon":"121.470274863","lat":"31.25117043","category":"217","category_name":"旅馆招待所","address":"上海铭德莱星顿广场酒店宴会厅 闸北区西藏北路558号铭德莱星顿广场酒店内(近虬江路)"},{"poiid":"B2094655D26DABFC419A","title":"好德No.010","lon":"121.47058","lat":"31.24444","category":"117","category_name":"便民商店/便利店","address":"海宁路1307、1313"},{"poiid":"B2094757D16BA5F94498","title":"V.ROSE(大悦城店)","lon":"121.46819123","lat":"31.247386165","category":"122","category_name":"个人用品/化妆品店","address":"闸北区西藏北路166号大悦城B1楼(近曲阜路)"},{"poiid":"B2094655D26FA7F5449B","title":"森巽里","lon":"121.47468","lat":"31.25107","category":"47","category_name":"住宅区","address":""},{"poiid":"B2094655D26FA6FC429F","title":"森巽里(南门)","lon":"121.47467","lat":"31.25101","category":"47","category_name":"住宅区","address":""},{"poiid":"B2094654D56DA1FA4698","title":"上海东华地方铁路开发有限公司","lon":"121.47492","lat":"31.24936","category":"263","category_name":"公司","address":"天目东路228甲铁联大厦8层"},{"poiid":"B2094654DA6FA6F8479F","title":"上海休闲职业技能培训中心","lon":"121.4748","lat":"31.24538","category":"54","category_name":"职业技术学校","address":"海宁路999"},{"poiid":"B2094654DA6FA2FC4692","title":"上海铁路城市轨道交通设计研究院","lon":"121.46974","lat":"31.24654","category":"191","category_name":"科研机构","address":"天目中路291"},{"poiid":"B2094757D165A2F8459A","title":"避风塘(中兴路店)","lon":"121.4734497","lat":"31.251144409","category":"500","category_name":"未知分类","address":"上海市闸北区中兴路1118号2楼"},{"poiid":"B2094654DB6AAAFF459E","title":"上海贝尔(西藏北路)","lon":"121.46884","lat":"31.25077","category":"263","category_name":"公司","address":"西藏北路525"},{"poiid":"B2094655D26CAAFA459D","title":"祥新里","lon":"121.47608","lat":"31.24725","category":"47","category_name":"住宅区","address":"安庆路487弄"},{"poiid":"B2094654D56DA1F4459F","title":"会文大楼","lon":"121.47285","lat":"31.252066","category":"47","category_name":"住宅区","address":"会文路48号"},{"poiid":"B2094757D16AA4F54198","title":"上海住房公积金闸北管理局","lon":"121.4729061","lat":"31.252352044","category":"500","category_name":"未知分类","address":"上海市闸北区虬江路1000号"},{"poiid":"B2094757D16AABF5409F","title":"pink mars(大悅城店)","lon":"121.47013906","lat":"31.245550126","category":"500","category_name":"未知分类","address":"上海大悅城2樓"},{"poiid":"B2094654D56CA2FB4599","title":"中国普天上海电话设备厂","lon":"121.46897","lat":"31.25041","category":"263","category_name":"公司","address":"虬江路1307"},{"poiid":"B2094654DA6FA2F84399","title":"杭州光大弹垫仓库","lon":"121.47296","lat":"31.24559","category":"263","category_name":"公司","address":"海宁路1162号"},{"poiid":"B2094655D26FA1F4459B","title":"博园大楼(北门)","lon":"121.47019","lat":"31.25028","category":"48","category_name":"楼宇大门","address":"虬江路1226"},{"poiid":"B2094654DA6FA2FC469A","title":"上海兆林实业有限公司","lon":"121.4695","lat":"31.24628","category":"263","category_name":"公司","address":"天目中路295"},{"poiid":"B2094757D16BAAFF4493","title":"光茂包装","lon":"121.475280738","lat":"31.2470106578","category":"500","category_name":"未知分类","address":"上海市闸北区安庆路523号"},{"poiid":"B2094655D26FA0F54899","title":"会文大楼(西门)","lon":"121.4728","lat":"31.25214","category":"47","category_name":"住宅区","address":"会文路48"},{"poiid":"B2094654D56DA1F4469D","title":"交通里","lon":"121.47489","lat":"31.251348","category":"47","category_name":"住宅区","address":"交通路40号"},{"poiid":"B2094757D66EA1F94099","title":"上海铁路疾病预防控制中心","lon":"121.471859","lat":"31.25152","category":"500","category_name":"未知分类","address":"上海市闸北区虬江路1059号"},{"poiid":"B2094655D265A5FA4792","title":"宁康里(西五门)","lon":"121.4743","lat":"31.24821","category":"656","category_name":"大门","address":""},{"poiid":"B2094655D26FA0F54893","title":"交通里(南门)","lon":"121.47501","lat":"31.25126","category":"47","category_name":"住宅区","address":""},{"poiid":"B2094757D16CAAFB419A","title":"曼昵护肤造型中心","lon":"121.46958327","lat":"31.247641979","category":"260","category_name":"其他","address":"闸北区虬江路1430号(近共和新路)"},{"poiid":"B2094757D16FA5F84492","title":"w closet(大悦城店)","lon":"121.471911071","lat":"31.2444867373","category":"141","category_name":"服装鞋帽皮具店","address":"上海市西藏北路180号大悦城5层"},{"poiid":"B2094654DB6BA4F44392","title":"宁康里(西三门)","lon":"121.47439","lat":"31.248","category":"656","category_name":"大门","address":"浙江北路392弄"},{"poiid":"B2094655D26BABFC4698","title":"宁康里(西四门)","lon":"121.4744","lat":"31.24806","category":"656","category_name":"大门","address":"浙江北路402弄"},{"poiid":"B2094757D06AA5FD4399","title":"铭德商务广场","lon":"121.46965703","lat":"31.251256526","category":"500","category_name":"未知分类","address":"上海西藏北路558号"},{"poiid":"B2094757D16AA7FA449E","title":"948路天目东路晋元路站","lon":"121.475117","lat":"31.246241","category":"500","category_name":"未知分类","address":"上海天目东路晋元路"},{"poiid":"B2094655D26CABFC489C","title":"宁康里(西二门)","lon":"121.47448","lat":"31.24785","category":"656","category_name":"大门","address":"浙江北路382弄"},{"poiid":"B2094757D16FA1FB4692","title":"芷江西123","lon":"121.467870705","lat":"31.2480975229","category":"500","category_name":"未知分类","address":"上海芷江西路123弄"},{"poiid":"B2094757D168A7FF459B","title":"江湖","lon":"121.474627103","lat":"31.2508510134","category":"500","category_name":"未知分类","address":null},{"poiid":"B2094757D66DA6FC469D","title":"海天大厦","lon":"121.475","lat":"31.2507","category":"252","category_name":"楼宇机构","address":"上海市闸北区天目中路1388号"},{"poiid":"B2094655D26CAAF4479E","title":"宁康里(西门)","lon":"121.47464","lat":"31.2476","category":"656","category_name":"大门","address":"浙江北路372弄"},{"poiid":"B2094757D16FA7FE4792","title":"虬江路1078号","lon":"121.474324103","lat":"31.2512610219","category":"500","category_name":"未知分类","address":"上海市闸北区虬江路1078号"},{"poiid":"B2094655D26BA7FA419E","title":"PH7来福士店","lon":"121.4712","lat":"31.24486","category":"248","category_name":"生活娱乐","address":"西藏北路268号来福士广场3层"},{"poiid":"B2094654D56DA1F5469D","title":"上海天宏轴承发展有限公司","lon":"121.47377","lat":"31.25201","category":"123","category_name":"家具建材市场","address":"闸北区虬江路1005号(近会文路)"},{"poiid":"B2094655D26DA6FF409C","title":"北高寿里(北门)","lon":"121.47486","lat":"31.24876","category":"656","category_name":"大门","address":"天目东路245弄"},{"poiid":"B2094752D06CA5FE449D","title":"大悦城星马殿","lon":"121.470118","lat":"31.245344","category":"500","category_name":"未知分类","address":null},{"poiid":"B2094654D56DA1FA449F","title":"上海铁路国际旅游(集团)有限公司出境旅游中心","lon":"121.47584","lat":"31.24969","category":"248","category_name":"生活娱乐","address":"天目东路206"},{"poiid":"B2094655D26CA0F44798","title":"永庆里(北门)","lon":"121.4752","lat":"31.24888","category":"656","category_name":"大门","address":"天目东路223弄"},{"poiid":"B2094654DA6FA2FC459E","title":"中国太平洋人寿保险股份有限公司","lon":"121.46898","lat":"31.24593","category":"219","category_name":"其他","address":"天目中路325号"},{"poiid":"B2094750D269A3FE469A","title":"海宁路热河路","lon":"121.474693","lat":"31.245538","category":"627","category_name":"一般地点标志","address":null},{"poiid":"B2094654DA6FAAF54099","title":"上海大众国际旅行社","lon":"121.47095","lat":"31.24426","category":"248","category_name":"生活娱乐","address":"闸北区西藏北路255号(海宁路西藏北路)"},{"poiid":"B2094655D265ABF5489C","title":"中国太平洋人寿保险人身险营业部","lon":"121.469","lat":"31.24592","category":"219","category_name":"其他","address":"天目中路325号"},{"poiid":"B2094654DB6BA4F4439D","title":"北高寿里(南门)","lon":"121.47557","lat":"31.24736","category":"656","category_name":"大门","address":"安庆路510弄"},{"poiid":"B2094655D26CAAFA4593","title":"南高寿里(北门)","lon":"121.47564","lat":"31.2472","category":"656","category_name":"大门","address":""},{"poiid":"B2094757D06AAAFA409C","title":"霍格沃茨","lon":"121.4743961","lat":"31.251285022","category":"260","category_name":"其他","address":"霍格沃茨"},{"poiid":"B2094655D26DA7FA409F","title":"永庆里(南门)","lon":"121.47607","lat":"31.24749","category":"656","category_name":"大门","address":"安庆路478"}]