[{"poiid":"B2094751D26CA1F84692","title":"上海当代艺术博物馆","lon":"121.498542","lat":"31.200687","category":"500","category_name":"未知分类","address":"西藏南路世博园区"},{"poiid":"B2094750D365ABFA4392","title":"梅赛得斯-奔驰文化中心","lon":"121.493125","lat":"31.189492","category":"500","category_name":"未知分类","address":"世博大道1200号"},{"poiid":"B2094757D06FA0F8439A","title":"宝莱纳餐厅(世博店)","lon":"121.504113332","lat":"31.1982851473","category":"260","category_name":"其他","address":"浦东新区世博大道555号1-2楼(近雪野路)"},{"poiid":"B2094757D068A6F5439B","title":"世博会城市未来馆","lon":"121.49785","lat":"31.20127","category":"500","category_name":"未知分类","address":"上海世博会E片区"},{"poiid":"B2094654DA68A0FC489F","title":"耀江花园","lon":"121.49187","lat":"31.199152","category":"47","category_name":"住宅区","address":"上海西藏南路1739弄"},{"poiid":"B2094757D56CA7F9479D","title":"博古斯学院法国餐厅","lon":"121.49647","lat":"31.20092","category":"247","category_name":"餐饮美食","address":"黄浦区保屯路379号世博会园区法国罗阿大区展馆内(近中山南路)"},{"poiid":"B2094757D06FA4FB409F","title":"世博园二号门","lon":"121.49101012","lat":"31.200848717","category":"260","category_name":"其他","address":"上海世博园二号门西藏南路出入口"},{"poiid":"B2094757D66CA4FE479B","title":"滨江大道-世博段","lon":"121.502270053","lat":"31.1976926018","category":"500","category_name":"未知分类","address":"上海世博大道沿江段"},{"poiid":"B2094750DB6CA6FA409A","title":"上海当代艺术博物馆","lon":"121.498191","lat":"31.200557","category":"248","category_name":"生活娱乐","address":"黄浦区花园港路"},{"poiid":"B2094757D068A3FB4892","title":"云餐厅(世博店)","lon":"121.49891375","lat":"31.200957366","category":"260","category_name":"其他","address":"黄浦区南车站路世博园城市未来馆7-8楼(近半淞园路9月份营业)"},{"poiid":"B2094757D16CABF9469B","title":"黄浦江江面","lon":"121.493064","lat":"31.197621","category":"247","category_name":"餐饮美食","address":"上海黄浦江江面"},{"poiid":"B2094757D16AABFA409E","title":"地铁6号线世纪大道站","lon":"121.495764738","lat":"31.2038677385","category":"500","category_name":"未知分类","address":"上海"},{"poiid":"B2094750DA64ABFE469E","title":"上海当代艺术博物馆","lon":"121.499153","lat":"31.200927","category":"500","category_name":"未知分类","address":null},{"poiid":"B2094753D665AAF84998","title":"上海儿童艺术剧场","lon":"121.494537","lat":"31.19647","category":"500","category_name":"未知分类","address":"上海市 苗江路800号"},{"poiid":"B2094750DB6BA0FA469A","title":"上海当代艺术博物馆","lon":"121.498847","lat":"31.199577","category":"500","category_name":"未知分类","address":"黄浦区花园港路200号上海当代艺术博物馆1楼(近苗江路)"},{"poiid":"B2094655D26CA3FE469C","title":"上外黄浦外国语小学","lon":"121.49461","lat":"31.20074","category":"56","category_name":"小学","address":"黄浦区半淞园路621号(半淞园路望达路)"},{"poiid":"B2094750DB65A2F4499F","title":"上海当代艺术馆","lon":"121.49842","lat":"31.200689","category":"500","category_name":"未知分类","address":null},{"poiid":"B2094655D265AAFB429E","title":"俏江南","lon":"121.49559","lat":"31.19734","category":"71","category_name":"四川菜","address":"上海世博园区"},{"poiid":"B2094654DA68A0FC479B","title":"金中苑商务楼","lon":"121.49163","lat":"31.20221","category":"46","category_name":"楼宇","address":"黄浦区南京东路311号"},{"poiid":"B2094654DA68A0FC489B","title":"白玉兰家园","lon":"121.49213","lat":"31.200241","category":"47","category_name":"住宅区","address":"白玉兰家园位于黄浦西藏南路1717号(近高雄路口)"},{"poiid":"B2094655D36DA7F8479E","title":"中山南路南车站路","lon":"121.49381","lat":"31.20426","category":"38","category_name":"公交车站","address":""},{"poiid":"B2094757D065A5F9499F","title":"Lavazza红磡意大利餐厅","lon":"121.50086773","lat":"31.194968549","category":"500","category_name":"未知分类","address":"浦东新区世博大道690号(近白莲泾公园)"},{"poiid":"B2094757D068A6FA4499","title":"世博会中国船舶馆","lon":"121.49313","lat":"31.19636","category":"260","category_name":"其他","address":"上海世博会E片区"},{"poiid":"B209475DD769A6FA419C","title":"星巴克南车站路店","lon":"121.498313","lat":"31.200071","category":"247","category_name":"餐饮美食","address":"南车站路564号"},{"poiid":"B2094757D068A7FF4292","title":"世博园三号门","lon":"121.49535043","lat":"31.199251784","category":"260","category_name":"其他","address":"上海世博园三号门半淞园路出入口"},{"poiid":"B2094655D36CA0F9469F","title":"江边码头","lon":"121.49444","lat":"31.20002","category":"38","category_name":"公交车站","address":""},{"poiid":"B2094757D06BA3F5499A","title":"世博会L1码头","lon":"121.50177002","lat":"31.195886611","category":"500","category_name":"未知分类","address":"上海世博会L1码头"},{"poiid":"B2094757D06BA1F44992","title":"黄浦区体检站","lon":"121.494562","lat":"31.204399","category":"162","category_name":"医院","address":"黄浦区南车站路501号(近中山南路)"},{"poiid":"B2094757DB69A1FA489E","title":"白莲泾公园","lon":"121.495446","lat":"31.196305","category":"250","category_name":"公园户外","address":"世博大道白莲泾路"},{"poiid":"B209475CD66DA0FA469B","title":"上海老码头","lon":"121.497016","lat":"31.196842","category":"500","category_name":"未知分类","address":"上海市 中山南路"},{"poiid":"B209475DD76AA1FE4599","title":"星巴克 南车站路店","lon":"121.494293","lat":"31.20285","category":"247","category_name":"餐饮美食","address":"上海市 南车站路"},{"poiid":"B2094654DA68A2F84892","title":"上海市大同初级中学","lon":"121.49296","lat":"31.2047","category":"55","category_name":"中学","address":"黄浦区瞿溪路202号(近南车站路)"},{"poiid":"B2094757D66FA1F4449C","title":"广州市环市西路小学","lon":"121.496322632","lat":"31.2007198334","category":"56","category_name":"小学","address":"广州市荔湾区环市西路46号"},{"poiid":"B2094655D265A2F84598","title":"案例联合馆4","lon":"121.49638","lat":"31.20211","category":"183","category_name":"展览馆","address":"上海世博园区"},{"poiid":"B2094750D66EA5F5459F","title":"恒隆广场","lon":"121.49327","lat":"31.198488","category":"249","category_name":"购物服务","address":"南京西路"},{"poiid":"B2094654DA68A0FC4998","title":"淞园大厦","lon":"121.49336","lat":"31.1981","category":"47","category_name":"住宅区","address":"半淞园路698弄2号"},{"poiid":"B2094757D065A3F9419E","title":"南园大厦","lon":"121.494","lat":"31.2022","category":"252","category_name":"楼宇机构","address":"上海市卢湾区龙华东路888号"},{"poiid":"B209475DD66AA7FE429C","title":"Pulupulu主题游戏馆","lon":"121.500289","lat":"31.205091","category":"248","category_name":"生活娱乐","address":"上海市 黄浦区苗江路139号"},{"poiid":"B2094757D16BA6FB4499","title":"上岛咖啡耀江店","lon":"121.49301863","lat":"31.198503324","category":"65","category_name":"咖啡厅","address":"上海半淞园路"},{"poiid":"B2094751D464A0FF4099","title":"当代艺术博物馆","lon":"121.4935019349709","lat":"31.2033344119268","category":"500","category_name":"未知分类","address":"花园港路200号"},{"poiid":"B2094655D26BA1F8439F","title":"南车站路","lon":"121.49553","lat":"31.20316","category":"38","category_name":"公交车站","address":"上海华教大厦"},{"poiid":"B2094752D768A3FA4299","title":"梅赛德斯奔驰文化中心","lon":"121.499401","lat":"31.194805","category":"500","category_name":"未知分类","address":null},{"poiid":"B2094757DB6DABFA4793","title":"莫泰168（上海西藏南路店）—原千岛湖酒店","lon":"121.4901403","lat":"31.19946134","category":"215","category_name":"三星级宾馆","address":"上海市黄浦区西藏南路1735号（近中山南路路口）"},{"poiid":"B2094757D06AA0F84992","title":"世博会万科馆","lon":"121.4945","lat":"31.19823","category":"263","category_name":"公司","address":"上海世博会E片区"},{"poiid":"B2094757D16AABFD4798","title":"苗江路半淞园路","lon":"121.49456024","lat":"31.196464538","category":"500","category_name":"未知分类","address":"上海苗江路半淞园路"},{"poiid":"B2094654DA68A0FD409A","title":"上海市贷款道路建设车辆通行费征收管理办公室第一征稽所","lon":"121.49407","lat":"31.19989","category":"250","category_name":"公园户外","address":"半淞园路589-601号"},{"poiid":"B2094757D569A3FA4799","title":"耀江花园一期","lon":"121.4918669","lat":"31.19915306","category":"47","category_name":"住宅区","address":"上海市黄浦区西藏南路1739号"},{"poiid":"B2094654DA68A0FC4993","title":"上海市公路养路费征收管理办公室第一征稽所","lon":"121.49407","lat":"31.19989","category":"250","category_name":"公园户外","address":"半淞园路589-601号"},{"poiid":"B2094654DA68A0FC479D","title":"金中苑","lon":"121.492","lat":"31.202023","category":"47","category_name":"住宅区","address":"上海中山南路1887弄"},{"poiid":"B2094654DA68A0FC499B","title":"欣和圆宾馆","lon":"121.49346","lat":"31.19823","category":"250","category_name":"公园户外","address":"半淞园路688号"},{"poiid":"B2094751D26CA1F84692","title":"上海当代艺术博物馆","lon":"121.498542","lat":"31.200687","category":"500","category_name":"未知分类","address":"西藏南路世博园区"},{"poiid":"B2094750D365ABFA4392","title":"梅赛得斯-奔驰文化中心","lon":"121.493125","lat":"31.189492","category":"500","category_name":"未知分类","address":"世博大道1200号"},{"poiid":"B2094757D06FA0F8439A","title":"宝莱纳餐厅(世博店)","lon":"121.504113332","lat":"31.1982851473","category":"260","category_name":"其他","address":"浦东新区世博大道555号1-2楼(近雪野路)"},{"poiid":"B2094757D068A6F5439B","title":"世博会城市未来馆","lon":"121.49785","lat":"31.20127","category":"500","category_name":"未知分类","address":"上海世博会E片区"},{"poiid":"B2094654DA68A0FC489F","title":"耀江花园","lon":"121.49187","lat":"31.199152","category":"47","category_name":"住宅区","address":"上海西藏南路1739弄"},{"poiid":"B2094757D56CA7F9479D","title":"博古斯学院法国餐厅","lon":"121.49647","lat":"31.20092","category":"247","category_name":"餐饮美食","address":"黄浦区保屯路379号世博会园区法国罗阿大区展馆内(近中山南路)"},{"poiid":"B2094757D06FA4FB409F","title":"世博园二号门","lon":"121.49101012","lat":"31.200848717","category":"260","category_name":"其他","address":"上海世博园二号门西藏南路出入口"},{"poiid":"B2094757D66CA4FE479B","title":"滨江大道-世博段","lon":"121.502270053","lat":"31.1976926018","category":"500","category_name":"未知分类","address":"上海世博大道沿江段"},{"poiid":"B2094750DB6CA6FA409A","title":"上海当代艺术博物馆","lon":"121.498191","lat":"31.200557","category":"248","category_name":"生活娱乐","address":"黄浦区花园港路"},{"poiid":"B2094757D068A3FB4892","title":"云餐厅(世博店)","lon":"121.49891375","lat":"31.200957366","category":"260","category_name":"其他","address":"黄浦区南车站路世博园城市未来馆7-8楼(近半淞园路9月份营业)"},{"poiid":"B2094757D16CABF9469B","title":"黄浦江江面","lon":"121.493064","lat":"31.197621","category":"247","category_name":"餐饮美食","address":"上海黄浦江江面"},{"poiid":"B2094757D16AABFA409E","title":"地铁6号线世纪大道站","lon":"121.495764738","lat":"31.2038677385","category":"500","category_name":"未知分类","address":"上海"},{"poiid":"B2094750DA64ABFE469E","title":"上海当代艺术博物馆","lon":"121.499153","lat":"31.200927","category":"500","category_name":"未知分类","address":null},{"poiid":"B2094753D665AAF84998","title":"上海儿童艺术剧场","lon":"121.494537","lat":"31.19647","category":"500","category_name":"未知分类","address":"上海市 苗江路800号"},{"poiid":"B2094750DB6BA0FA469A","title":"上海当代艺术博物馆","lon":"121.498847","lat":"31.199577","category":"500","category_name":"未知分类","address":"黄浦区花园港路200号上海当代艺术博物馆1楼(近苗江路)"},{"poiid":"B2094655D26CA3FE469C","title":"上外黄浦外国语小学","lon":"121.49461","lat":"31.20074","category":"56","category_name":"小学","address":"黄浦区半淞园路621号(半淞园路望达路)"},{"poiid":"B2094750DB65A2F4499F","title":"上海当代艺术馆","lon":"121.49842","lat":"31.200689","category":"500","category_name":"未知分类","address":null},{"poiid":"B2094655D265AAFB429E","title":"俏江南","lon":"121.49559","lat":"31.19734","category":"71","category_name":"四川菜","address":"上海世博园区"},{"poiid":"B2094654DA68A0FC479B","title":"金中苑商务楼","lon":"121.49163","lat":"31.20221","category":"46","category_name":"楼宇","address":"黄浦区南京东路311号"},{"poiid":"B2094654DA68A0FC489B","title":"白玉兰家园","lon":"121.49213","lat":"31.200241","category":"47","category_name":"住宅区","address":"白玉兰家园位于黄浦西藏南路1717号(近高雄路口)"},{"poiid":"B2094655D36DA7F8479E","title":"中山南路南车站路","lon":"121.49381","lat":"31.20426","category":"38","category_name":"公交车站","address":""},{"poiid":"B2094757D065A5F9499F","title":"Lavazza红磡意大利餐厅","lon":"121.50086773","lat":"31.194968549","category":"500","category_name":"未知分类","address":"浦东新区世博大道690号(近白莲泾公园)"},{"poiid":"B2094757D068A6FA4499","title":"世博会中国船舶馆","lon":"121.49313","lat":"31.19636","category":"260","category_name":"其他","address":"上海世博会E片区"},{"poiid":"B209475DD769A6FA419C","title":"星巴克南车站路店","lon":"121.498313","lat":"31.200071","category":"247","category_name":"餐饮美食","address":"南车站路564号"},{"poiid":"B2094757D068A7FF4292","title":"世博园三号门","lon":"121.49535043","lat":"31.199251784","category":"260","category_name":"其他","address":"上海世博园三号门半淞园路出入口"},{"poiid":"B2094655D36CA0F9469F","title":"江边码头","lon":"121.49444","lat":"31.20002","category":"38","category_name":"公交车站","address":""},{"poiid":"B2094757D06BA3F5499A","title":"世博会L1码头","lon":"121.50177002","lat":"31.195886611","category":"500","category_name":"未知分类","address":"上海世博会L1码头"},{"poiid":"B2094757D06BA1F44992","title":"黄浦区体检站","lon":"121.494562","lat":"31.204399","category":"162","category_name":"医院","address":"黄浦区南车站路501号(近中山南路)"},{"poiid":"B2094757DB69A1FA489E","title":"白莲泾公园","lon":"121.495446","lat":"31.196305","category":"250","category_name":"公园户外","address":"世博大道白莲泾路"},{"poiid":"B209475CD66DA0FA469B","title":"上海老码头","lon":"121.497016","lat":"31.196842","category":"500","category_name":"未知分类","address":"上海市 中山南路"},{"poiid":"B209475DD76AA1FE4599","title":"星巴克 南车站路店","lon":"121.494293","lat":"31.20285","category":"247","category_name":"餐饮美食","address":"上海市 南车站路"},{"poiid":"B2094654DA68A2F84892","title":"上海市大同初级中学","lon":"121.49296","lat":"31.2047","category":"55","category_name":"中学","address":"黄浦区瞿溪路202号(近南车站路)"},{"poiid":"B2094757D66FA1F4449C","title":"广州市环市西路小学","lon":"121.496322632","lat":"31.2007198334","category":"56","category_name":"小学","address":"广州市荔湾区环市西路46号"},{"poiid":"B2094655D265A2F84598","title":"案例联合馆4","lon":"121.49638","lat":"31.20211","category":"183","category_name":"展览馆","address":"上海世博园区"},{"poiid":"B2094750D66EA5F5459F","title":"恒隆广场","lon":"121.49327","lat":"31.198488","category":"249","category_name":"购物服务","address":"南京西路"},{"poiid":"B2094654DA68A0FC4998","title":"淞园大厦","lon":"121.49336","lat":"31.1981","category":"47","category_name":"住宅区","address":"半淞园路698弄2号"},{"poiid":"B2094757D065A3F9419E","title":"南园大厦","lon":"121.494","lat":"31.2022","category":"252","category_name":"楼宇机构","address":"上海市卢湾区龙华东路888号"},{"poiid":"B209475DD66AA7FE429C","title":"Pulupulu主题游戏馆","lon":"121.500289","lat":"31.205091","category":"248","category_name":"生活娱乐","address":"上海市 黄浦区苗江路139号"},{"poiid":"B2094757D16BA6FB4499","title":"上岛咖啡耀江店","lon":"121.49301863","lat":"31.198503324","category":"65","category_name":"咖啡厅","address":"上海半淞园路"},{"poiid":"B2094751D464A0FF4099","title":"当代艺术博物馆","lon":"121.4935019349709","lat":"31.2033344119268","category":"500","category_name":"未知分类","address":"花园港路200号"},{"poiid":"B2094655D26BA1F8439F","title":"南车站路","lon":"121.49553","lat":"31.20316","category":"38","category_name":"公交车站","address":"上海华教大厦"},{"poiid":"B2094752D768A3FA4299","title":"梅赛德斯奔驰文化中心","lon":"121.499401","lat":"31.194805","category":"500","category_name":"未知分类","address":null},{"poiid":"B2094757DB6DABFA4793","title":"莫泰168（上海西藏南路店）—原千岛湖酒店","lon":"121.4901403","lat":"31.19946134","category":"215","category_name":"三星级宾馆","address":"上海市黄浦区西藏南路1735号（近中山南路路口）"},{"poiid":"B2094757D06AA0F84992","title":"世博会万科馆","lon":"121.4945","lat":"31.19823","category":"263","category_name":"公司","address":"上海世博会E片区"},{"poiid":"B2094757D16AABFD4798","title":"苗江路半淞园路","lon":"121.49456024","lat":"31.196464538","category":"500","category_name":"未知分类","address":"上海苗江路半淞园路"},{"poiid":"B2094654DA68A0FD409A","title":"上海市贷款道路建设车辆通行费征收管理办公室第一征稽所","lon":"121.49407","lat":"31.19989","category":"250","category_name":"公园户外","address":"半淞园路589-601号"},{"poiid":"B2094757D569A3FA4799","title":"耀江花园一期","lon":"121.4918669","lat":"31.19915306","category":"47","category_name":"住宅区","address":"上海市黄浦区西藏南路1739号"},{"poiid":"B2094654DA68A0FC4993","title":"上海市公路养路费征收管理办公室第一征稽所","lon":"121.49407","lat":"31.19989","category":"250","category_name":"公园户外","address":"半淞园路589-601号"},{"poiid":"B2094654DA68A0FC479D","title":"金中苑","lon":"121.492","lat":"31.202023","category":"47","category_name":"住宅区","address":"上海中山南路1887弄"},{"poiid":"B2094654DA68A0FC499B","title":"欣和圆宾馆","lon":"121.49346","lat":"31.19823","category":"250","category_name":"公园户外","address":"半淞园路688号"},{"poiid":"B2094751D26CA1F84692","title":"上海当代艺术博物馆","lon":"121.498542","lat":"31.200687","category":"500","category_name":"未知分类","address":"西藏南路世博园区"},{"poiid":"B2094750D365ABFA4392","title":"梅赛得斯-奔驰文化中心","lon":"121.493125","lat":"31.189492","category":"500","category_name":"未知分类","address":"世博大道1200号"},{"poiid":"B2094757D06FA0F8439A","title":"宝莱纳餐厅(世博店)","lon":"121.504113332","lat":"31.1982851473","category":"260","category_name":"其他","address":"浦东新区世博大道555号1-2楼(近雪野路)"},{"poiid":"B2094757D068A6F5439B","title":"世博会城市未来馆","lon":"121.49785","lat":"31.20127","category":"500","category_name":"未知分类","address":"上海世博会E片区"},{"poiid":"B2094654DA68A0FC489F","title":"耀江花园","lon":"121.49187","lat":"31.199152","category":"47","category_name":"住宅区","address":"上海西藏南路1739弄"},{"poiid":"B2094757D56CA7F9479D","title":"博古斯学院法国餐厅","lon":"121.49647","lat":"31.20092","category":"247","category_name":"餐饮美食","address":"黄浦区保屯路379号世博会园区法国罗阿大区展馆内(近中山南路)"},{"poiid":"B2094757D06FA4FB409F","title":"世博园二号门","lon":"121.49101012","lat":"31.200848717","category":"260","category_name":"其他","address":"上海世博园二号门西藏南路出入口"},{"poiid":"B2094757D66CA4FE479B","title":"滨江大道-世博段","lon":"121.502270053","lat":"31.1976926018","category":"500","category_name":"未知分类","address":"上海世博大道沿江段"},{"poiid":"B2094750DB6CA6FA409A","title":"上海当代艺术博物馆","lon":"121.498191","lat":"31.200557","category":"248","category_name":"生活娱乐","address":"黄浦区花园港路"},{"poiid":"B2094757D068A3FB4892","title":"云餐厅(世博店)","lon":"121.49891375","lat":"31.200957366","category":"260","category_name":"其他","address":"黄浦区南车站路世博园城市未来馆7-8楼(近半淞园路9月份营业)"},{"poiid":"B2094757D16CABF9469B","title":"黄浦江江面","lon":"121.493064","lat":"31.197621","category":"247","category_name":"餐饮美食","address":"上海黄浦江江面"},{"poiid":"B2094757D16AABFA409E","title":"地铁6号线世纪大道站","lon":"121.495764738","lat":"31.2038677385","category":"500","category_name":"未知分类","address":"上海"},{"poiid":"B2094750DA64ABFE469E","title":"上海当代艺术博物馆","lon":"121.499153","lat":"31.200927","category":"500","category_name":"未知分类","address":null},{"poiid":"B2094753D665AAF84998","title":"上海儿童艺术剧场","lon":"121.494537","lat":"31.19647","category":"500","category_name":"未知分类","address":"上海市 苗江路800号"},{"poiid":"B2094750DB6BA0FA469A","title":"上海当代艺术博物馆","lon":"121.498847","lat":"31.199577","category":"500","category_name":"未知分类","address":"黄浦区花园港路200号上海当代艺术博物馆1楼(近苗江路)"},{"poiid":"B2094655D26CA3FE469C","title":"上外黄浦外国语小学","lon":"121.49461","lat":"31.20074","category":"56","category_name":"小学","address":"黄浦区半淞园路621号(半淞园路望达路)"},{"poiid":"B2094750DB65A2F4499F","title":"上海当代艺术馆","lon":"121.49842","lat":"31.200689","category":"500","category_name":"未知分类","address":null},{"poiid":"B2094655D265AAFB429E","title":"俏江南","lon":"121.49559","lat":"31.19734","category":"71","category_name":"四川菜","address":"上海世博园区"},{"poiid":"B2094654DA68A0FC479B","title":"金中苑商务楼","lon":"121.49163","lat":"31.20221","category":"46","category_name":"楼宇","address":"黄浦区南京东路311号"},{"poiid":"B2094654DA68A0FC489B","title":"白玉兰家园","lon":"121.49213","lat":"31.200241","category":"47","category_name":"住宅区","address":"白玉兰家园位于黄浦西藏南路1717号(近高雄路口)"},{"poiid":"B2094655D36DA7F8479E","title":"中山南路南车站路","lon":"121.49381","lat":"31.20426","category":"38","category_name":"公交车站","address":""},{"poiid":"B2094757D065A5F9499F","title":"Lavazza红磡意大利餐厅","lon":"121.50086773","lat":"31.194968549","category":"500","category_name":"未知分类","address":"浦东新区世博大道690号(近白莲泾公园)"},{"poiid":"B2094757D068A6FA4499","title":"世博会中国船舶馆","lon":"121.49313","lat":"31.19636","category":"260","category_name":"其他","address":"上海世博会E片区"},{"poiid":"B209475DD769A6FA419C","title":"星巴克南车站路店","lon":"121.498313","lat":"31.200071","category":"247","category_name":"餐饮美食","address":"南车站路564号"},{"poiid":"B2094757D068A7FF4292","title":"世博园三号门","lon":"121.49535043","lat":"31.199251784","category":"260","category_name":"其他","address":"上海世博园三号门半淞园路出入口"},{"poiid":"B2094655D36CA0F9469F","title":"江边码头","lon":"121.49444","lat":"31.20002","category":"38","category_name":"公交车站","address":""},{"poiid":"B2094757D06BA3F5499A","title":"世博会L1码头","lon":"121.50177002","lat":"31.195886611","category":"500","category_name":"未知分类","address":"上海世博会L1码头"},{"poiid":"B2094757D06BA1F44992","title":"黄浦区体检站","lon":"121.494562","lat":"31.204399","category":"162","category_name":"医院","address":"黄浦区南车站路501号(近中山南路)"},{"poiid":"B2094757DB69A1FA489E","title":"白莲泾公园","lon":"121.495446","lat":"31.196305","category":"250","category_name":"公园户外","address":"世博大道白莲泾路"},{"poiid":"B209475CD66DA0FA469B","title":"上海老码头","lon":"121.497016","lat":"31.196842","category":"500","category_name":"未知分类","address":"上海市 中山南路"},{"poiid":"B209475DD76AA1FE4599","title":"星巴克 南车站路店","lon":"121.494293","lat":"31.20285","category":"247","category_name":"餐饮美食","address":"上海市 南车站路"},{"poiid":"B2094654DA68A2F84892","title":"上海市大同初级中学","lon":"121.49296","lat":"31.2047","category":"55","category_name":"中学","address":"黄浦区瞿溪路202号(近南车站路)"},{"poiid":"B2094757D66FA1F4449C","title":"广州市环市西路小学","lon":"121.496322632","lat":"31.2007198334","category":"56","category_name":"小学","address":"广州市荔湾区环市西路46号"},{"poiid":"B2094655D265A2F84598","title":"案例联合馆4","lon":"121.49638","lat":"31.20211","category":"183","category_name":"展览馆","address":"上海世博园区"},{"poiid":"B2094750D66EA5F5459F","title":"恒隆广场","lon":"121.49327","lat":"31.198488","category":"249","category_name":"购物服务","address":"南京西路"},{"poiid":"B2094654DA68A0FC4998","title":"淞园大厦","lon":"121.49336","lat":"31.1981","category":"47","category_name":"住宅区","address":"半淞园路698弄2号"},{"poiid":"B2094757D065A3F9419E","title":"南园大厦","lon":"121.494","lat":"31.2022","category":"252","category_name":"楼宇机构","address":"上海市卢湾区龙华东路888号"},{"poiid":"B209475DD66AA7FE429C","title":"Pulupulu主题游戏馆","lon":"121.500289","lat":"31.205091","category":"248","category_name":"生活娱乐","address":"上海市 黄浦区苗江路139号"},{"poiid":"B2094757D16BA6FB4499","title":"上岛咖啡耀江店","lon":"121.49301863","lat":"31.198503324","category":"65","category_name":"咖啡厅","address":"上海半淞园路"},{"poiid":"B2094751D464A0FF4099","title":"当代艺术博物馆","lon":"121.4935019349709","lat":"31.2033344119268","category":"500","category_name":"未知分类","address":"花园港路200号"},{"poiid":"B2094655D26BA1F8439F","title":"南车站路","lon":"121.49553","lat":"31.20316","category":"38","category_name":"公交车站","address":"上海华教大厦"},{"poiid":"B2094752D768A3FA4299","title":"梅赛德斯奔驰文化中心","lon":"121.499401","lat":"31.194805","category":"500","category_name":"未知分类","address":null},{"poiid":"B2094757DB6DABFA4793","title":"莫泰168（上海西藏南路店）—原千岛湖酒店","lon":"121.4901403","lat":"31.19946134","category":"215","category_name":"三星级宾馆","address":"上海市黄浦区西藏南路1735号（近中山南路路口）"},{"poiid":"B2094757D06AA0F84992","title":"世博会万科馆","lon":"121.4945","lat":"31.19823","category":"263","category_name":"公司","address":"上海世博会E片区"},{"poiid":"B2094757D16AABFD4798","title":"苗江路半淞园路","lon":"121.49456024","lat":"31.196464538","category":"500","category_name":"未知分类","address":"上海苗江路半淞园路"},{"poiid":"B2094654DA68A0FD409A","title":"上海市贷款道路建设车辆通行费征收管理办公室第一征稽所","lon":"121.49407","lat":"31.19989","category":"250","category_name":"公园户外","address":"半淞园路589-601号"},{"poiid":"B2094757D569A3FA4799","title":"耀江花园一期","lon":"121.4918669","lat":"31.19915306","category":"47","category_name":"住宅区","address":"上海市黄浦区西藏南路1739号"},{"poiid":"B2094654DA68A0FC4993","title":"上海市公路养路费征收管理办公室第一征稽所","lon":"121.49407","lat":"31.19989","category":"250","category_name":"公园户外","address":"半淞园路589-601号"},{"poiid":"B2094654DA68A0FC479D","title":"金中苑","lon":"121.492","lat":"31.202023","category":"47","category_name":"住宅区","address":"上海中山南路1887弄"},{"poiid":"B2094654DA68A0FC499B","title":"欣和圆宾馆","lon":"121.49346","lat":"31.19823","category":"250","category_name":"公园户外","address":"半淞园路688号"},{"poiid":"B2094751D26CA1F84692","title":"上海当代艺术博物馆","lon":"121.498542","lat":"31.200687","category":"500","category_name":"未知分类","address":"西藏南路世博园区"},{"poiid":"B2094750D365ABFA4392","title":"梅赛得斯-奔驰文化中心","lon":"121.493125","lat":"31.189492","category":"500","category_name":"未知分类","address":"世博大道1200号"},{"poiid":"B2094757D06FA0F8439A","title":"宝莱纳餐厅(世博店)","lon":"121.504113332","lat":"31.1982851473","category":"260","category_name":"其他","address":"浦东新区世博大道555号1-2楼(近雪野路)"},{"poiid":"B2094757D068A6F5439B","title":"世博会城市未来馆","lon":"121.49785","lat":"31.20127","category":"500","category_name":"未知分类","address":"上海世博会E片区"},{"poiid":"B2094654DA68A0FC489F","title":"耀江花园","lon":"121.49187","lat":"31.199152","category":"47","category_name":"住宅区","address":"上海西藏南路1739弄"},{"poiid":"B2094757D56CA7F9479D","title":"博古斯学院法国餐厅","lon":"121.49647","lat":"31.20092","category":"247","category_name":"餐饮美食","address":"黄浦区保屯路379号世博会园区法国罗阿大区展馆内(近中山南路)"},{"poiid":"B2094757D06FA4FB409F","title":"世博园二号门","lon":"121.49101012","lat":"31.200848717","category":"260","category_name":"其他","address":"上海世博园二号门西藏南路出入口"},{"poiid":"B2094757D66CA4FE479B","title":"滨江大道-世博段","lon":"121.502270053","lat":"31.1976926018","category":"500","category_name":"未知分类","address":"上海世博大道沿江段"},{"poiid":"B2094750DB6CA6FA409A","title":"上海当代艺术博物馆","lon":"121.498191","lat":"31.200557","category":"248","category_name":"生活娱乐","address":"黄浦区花园港路"},{"poiid":"B2094757D068A3FB4892","title":"云餐厅(世博店)","lon":"121.49891375","lat":"31.200957366","category":"260","category_name":"其他","address":"黄浦区南车站路世博园城市未来馆7-8楼(近半淞园路9月份营业)"},{"poiid":"B2094757D16CABF9469B","title":"黄浦江江面","lon":"121.493064","lat":"31.197621","category":"247","category_name":"餐饮美食","address":"上海黄浦江江面"},{"poiid":"B2094757D16AABFA409E","title":"地铁6号线世纪大道站","lon":"121.495764738","lat":"31.2038677385","category":"500","category_name":"未知分类","address":"上海"},{"poiid":"B2094750DA64ABFE469E","title":"上海当代艺术博物馆","lon":"121.499153","lat":"31.200927","category":"500","category_name":"未知分类","address":null},{"poiid":"B2094753D665AAF84998","title":"上海儿童艺术剧场","lon":"121.494537","lat":"31.19647","category":"500","category_name":"未知分类","address":"上海市 苗江路800号"},{"poiid":"B2094750DB6BA0FA469A","title":"上海当代艺术博物馆","lon":"121.498847","lat":"31.199577","category":"500","category_name":"未知分类","address":"黄浦区花园港路200号上海当代艺术博物馆1楼(近苗江路)"},{"poiid":"B2094655D26CA3FE469C","title":"上外黄浦外国语小学","lon":"121.49461","lat":"31.20074","category":"56","category_name":"小学","address":"黄浦区半淞园路621号(半淞园路望达路)"},{"poiid":"B2094750DB65A2F4499F","title":"上海当代艺术馆","lon":"121.49842","lat":"31.200689","category":"500","category_name":"未知分类","address":null},{"poiid":"B2094655D265AAFB429E","title":"俏江南","lon":"121.49559","lat":"31.19734","category":"71","category_name":"四川菜","address":"上海世博园区"},{"poiid":"B2094654DA68A0FC479B","title":"金中苑商务楼","lon":"121.49163","lat":"31.20221","category":"46","category_name":"楼宇","address":"黄浦区南京东路311号"},{"poiid":"B2094654DA68A0FC489B","title":"白玉兰家园","lon":"121.49213","lat":"31.200241","category":"47","category_name":"住宅区","address":"白玉兰家园位于黄浦西藏南路1717号(近高雄路口)"},{"poiid":"B2094655D36DA7F8479E","title":"中山南路南车站路","lon":"121.49381","lat":"31.20426","category":"38","category_name":"公交车站","address":""},{"poiid":"B2094757D065A5F9499F","title":"Lavazza红磡意大利餐厅","lon":"121.50086773","lat":"31.194968549","category":"500","category_name":"未知分类","address":"浦东新区世博大道690号(近白莲泾公园)"},{"poiid":"B2094757D068A6FA4499","title":"世博会中国船舶馆","lon":"121.49313","lat":"31.19636","category":"260","category_name":"其他","address":"上海世博会E片区"},{"poiid":"B209475DD769A6FA419C","title":"星巴克南车站路店","lon":"121.498313","lat":"31.200071","category":"247","category_name":"餐饮美食","address":"南车站路564号"},{"poiid":"B2094757D068A7FF4292","title":"世博园三号门","lon":"121.49535043","lat":"31.199251784","category":"260","category_name":"其他","address":"上海世博园三号门半淞园路出入口"},{"poiid":"B2094655D36CA0F9469F","title":"江边码头","lon":"121.49444","lat":"31.20002","category":"38","category_name":"公交车站","address":""},{"poiid":"B2094757D06BA3F5499A","title":"世博会L1码头","lon":"121.50177002","lat":"31.195886611","category":"500","category_name":"未知分类","address":"上海世博会L1码头"},{"poiid":"B2094757D06BA1F44992","title":"黄浦区体检站","lon":"121.494562","lat":"31.204399","category":"162","category_name":"医院","address":"黄浦区南车站路501号(近中山南路)"},{"poiid":"B2094757DB69A1FA489E","title":"白莲泾公园","lon":"121.495446","lat":"31.196305","category":"250","category_name":"公园户外","address":"世博大道白莲泾路"},{"poiid":"B209475CD66DA0FA469B","title":"上海老码头","lon":"121.497016","lat":"31.196842","category":"500","category_name":"未知分类","address":"上海市 中山南路"},{"poiid":"B209475DD76AA1FE4599","title":"星巴克 南车站路店","lon":"121.494293","lat":"31.20285","category":"247","category_name":"餐饮美食","address":"上海市 南车站路"},{"poiid":"B2094654DA68A2F84892","title":"上海市大同初级中学","lon":"121.49296","lat":"31.2047","category":"55","category_name":"中学","address":"黄浦区瞿溪路202号(近南车站路)"},{"poiid":"B2094757D66FA1F4449C","title":"广州市环市西路小学","lon":"121.496322632","lat":"31.2007198334","category":"56","category_name":"小学","address":"广州市荔湾区环市西路46号"},{"poiid":"B2094655D265A2F84598","title":"案例联合馆4","lon":"121.49638","lat":"31.20211","category":"183","category_name":"展览馆","address":"上海世博园区"},{"poiid":"B2094750D66EA5F5459F","title":"恒隆广场","lon":"121.49327","lat":"31.198488","category":"249","category_name":"购物服务","address":"南京西路"},{"poiid":"B2094654DA68A0FC4998","title":"淞园大厦","lon":"121.49336","lat":"31.1981","category":"47","category_name":"住宅区","address":"半淞园路698弄2号"},{"poiid":"B2094757D065A3F9419E","title":"南园大厦","lon":"121.494","lat":"31.2022","category":"252","category_name":"楼宇机构","address":"上海市卢湾区龙华东路888号"},{"poiid":"B209475DD66AA7FE429C","title":"Pulupulu主题游戏馆","lon":"121.500289","lat":"31.205091","category":"248","category_name":"生活娱乐","address":"上海市 黄浦区苗江路139号"},{"poiid":"B2094757D16BA6FB4499","title":"上岛咖啡耀江店","lon":"121.49301863","lat":"31.198503324","category":"65","category_name":"咖啡厅","address":"上海半淞园路"},{"poiid":"B2094751D464A0FF4099","title":"当代艺术博物馆","lon":"121.4935019349709","lat":"31.2033344119268","category":"500","category_name":"未知分类","address":"花园港路200号"},{"poiid":"B2094655D26BA1F8439F","title":"南车站路","lon":"121.49553","lat":"31.20316","category":"38","category_name":"公交车站","address":"上海华教大厦"},{"poiid":"B2094752D768A3FA4299","title":"梅赛德斯奔驰文化中心","lon":"121.499401","lat":"31.194805","category":"500","category_name":"未知分类","address":null},{"poiid":"B2094757DB6DABFA4793","title":"莫泰168（上海西藏南路店）—原千岛湖酒店","lon":"121.4901403","lat":"31.19946134","category":"215","category_name":"三星级宾馆","address":"上海市黄浦区西藏南路1735号（近中山南路路口）"},{"poiid":"B2094757D06AA0F84992","title":"世博会万科馆","lon":"121.4945","lat":"31.19823","category":"263","category_name":"公司","address":"上海世博会E片区"},{"poiid":"B2094757D16AABFD4798","title":"苗江路半淞园路","lon":"121.49456024","lat":"31.196464538","category":"500","category_name":"未知分类","address":"上海苗江路半淞园路"},{"poiid":"B2094654DA68A0FD409A","title":"上海市贷款道路建设车辆通行费征收管理办公室第一征稽所","lon":"121.49407","lat":"31.19989","category":"250","category_name":"公园户外","address":"半淞园路589-601号"},{"poiid":"B2094757D569A3FA4799","title":"耀江花园一期","lon":"121.4918669","lat":"31.19915306","category":"47","category_name":"住宅区","address":"上海市黄浦区西藏南路1739号"},{"poiid":"B2094654DA68A0FC4993","title":"上海市公路养路费征收管理办公室第一征稽所","lon":"121.49407","lat":"31.19989","category":"250","category_name":"公园户外","address":"半淞园路589-601号"},{"poiid":"B2094654DA68A0FC479D","title":"金中苑","lon":"121.492","lat":"31.202023","category":"47","category_name":"住宅区","address":"上海中山南路1887弄"},{"poiid":"B2094654DA68A0FC499B","title":"欣和圆宾馆","lon":"121.49346","lat":"31.19823","category":"250","category_name":"公园户外","address":"半淞园路688号"}]