[{"poiid":"B2094757D06EAAFE4398","title":"上海歌城(中兴路店)","lon":"121.46375","lat":"31.25196","category":"170","category_name":"KTV","address":"闸北区中兴路1233号中兴财富广场1幢1-2号(近共和新路)"},{"poiid":"B2094757D06FA4FC4798","title":"申宴酒楼(王子百货店)","lon":"121.46458","lat":"31.25343","category":"76","category_name":"上海菜","address":"闸北区中华新路567号王子百货5楼(近共和新路)"},{"poiid":"B2094757D06FA3FF4593","title":"王子百货","lon":"121.4646","lat":"31.2533","category":"119","category_name":"商场","address":"闸北区中华新路567号(近共和新路)"},{"poiid":"B209475CD564A7F8439E","title":"上海滩中信泰富店","lon":"121.45602","lat":"31.22851","category":"119","category_name":"商场","address":"\"南京西路1168号中信泰富广场，店铺号221.\r\n\""},{"poiid":"B2094654D56CA2F8469A","title":"闸北体育馆","lon":"121.46576","lat":"31.25462","category":"224","category_name":"综合体育馆","address":"中华新路475"},{"poiid":"B2094757D06AA0FC4499","title":"南北高架","lon":"121.46357196","lat":"31.250989706","category":"500","category_name":"未知分类","address":"上海天目西路至中环"},{"poiid":"B2094757D068A2FD469B","title":"共和新路中兴路","lon":"121.463348","lat":"31.251093","category":"500","category_name":"未知分类","address":"上海共和新路中兴路"},{"poiid":"B2094757D06FAAFD4093","title":"泰煌火锅(闸北店)","lon":"121.46591","lat":"31.25375","category":"86","category_name":"火锅店","address":"闸北区中华新路479号(近共和新路)"},{"poiid":"B2094757D06FA4F9429C","title":"青年餐厅(火车站店)","lon":"121.46552","lat":"31.25192","category":"71","category_name":"四川菜","address":"闸北区中兴路1122号2楼(近共和新路)"},{"poiid":"B2094757D069A2FF409A","title":"闸北游泳馆","lon":"121.465370616","lat":"31.2542683436","category":"231","category_name":"游泳馆","address":"闸北区中华新路483号(近共和新路)"},{"poiid":"B2094757D065A3F94093","title":"味千拉面 中华新路店","lon":"121.464265","lat":"31.253818","category":"95","category_name":"日本料理","address":"闸北区共和新路567号(近中华新路)"},{"poiid":"B2094757D068A4F9499D","title":"兴中心创意园 RED PLUS","lon":"121.467529233","lat":"31.252842315","category":"46","category_name":"楼宇","address":"上海西藏北路605"},{"poiid":"B2094750D665A1FD439F","title":"鼎新小馆","lon":"121.466","lat":"31.2527","category":"76","category_name":"上海菜","address":"闸北区中兴路1055号(近共和新路)"},{"poiid":"B2094757D06FA6FB429A","title":"DQ冰雪皇后(王子百货店)","lon":"121.46437","lat":"31.25342","category":"113","category_name":"冷饮店","address":"闸北区中华新路567号王子百货1楼(近共和新路)"},{"poiid":"B2094757D06BA6FD489A","title":"金光大道大酒家(中兴路店)","lon":"121.46483","lat":"31.25215","category":"76","category_name":"上海菜","address":"闸北区中兴路1111号(近共和新路)"},{"poiid":"B2094757D068ABF44092","title":"德笼馆(中兴路店)","lon":"121.46578","lat":"31.25238","category":"247","category_name":"餐饮美食","address":"上海闸北区中兴路1089号(近共和新路)  "},{"poiid":"B2094655D36DA1FB409F","title":"西藏北路","lon":"121.46786","lat":"31.253","category":"38","category_name":"公交车站","address":""},{"poiid":"B2094654D564AAFA449B","title":"汇贡大厦","lon":"121.465","lat":"31.2528","category":"46","category_name":"楼宇","address":"浦东区崂山东路410号"},{"poiid":"B2094655D26EA5FD459B","title":"亚繁风尚商务酒店(上海中兴路店)","lon":"121.46503","lat":"31.25213","category":"250","category_name":"公园户外","address":"上海市闸北区中兴路1122号（近共和新路）"},{"poiid":"B2094654DB6AAAFE4893","title":"上海如来大酒店","lon":"121.46625","lat":"31.25278","category":"250","category_name":"公园户外","address":"闸北区中兴路1055号(近共和新路)"},{"poiid":"B2094655D26AA6F54199","title":"泰煌鸡中华新路店","lon":"121.46564","lat":"31.25402","category":"68","category_name":"快餐厅","address":"闸北区中华新路479号(近共和新路)"},{"poiid":"B2094757D069A7FD4293","title":"圣贤居温泉浴场","lon":"121.46686","lat":"31.25233","category":"149","category_name":"洗浴推拿场所","address":"闸北区中兴路1032号(近西藏北路)"},{"poiid":"B2094757D16FAAFF4198","title":"老北京羊蝎子(中兴店)","lon":"121.466324103","lat":"31.2527600532","category":"86","category_name":"火锅店","address":"闸北区中兴路1041号(近西藏北路)"},{"poiid":"B209475CD169A2F4429C","title":"上海新天地","lon":"121.466247","lat":"31.252174","category":"500","category_name":"未知分类","address":"上海市 上海新天地"},{"poiid":"B2094655D265A2F4479A","title":"村夫烤鱼","lon":"121.46594","lat":"31.25271","category":"87","category_name":"特色／地方风味餐厅","address":"上海市长宁区东诸安浜路"},{"poiid":"B2094654D56CA1FC4199","title":"和记渔村","lon":"121.46476723949","lat":"31.252307982736","category":"76","category_name":"上海菜","address":"闸北区中兴路1098号(近共和新路)"},{"poiid":"B2094757D069A6FF4093","title":"贵州苗家酸汤鱼馆 中兴路店","lon":"121.463040054","lat":"31.252511793","category":"83","category_name":"云贵菜","address":"闸北区中兴路1233号中兴财富广场内(近共和新路)"},{"poiid":"B2094757D06AA0FD499C","title":"闸北区教师进修学院","lon":"121.465089","lat":"31.253687241","category":"253","category_name":"校园生活","address":"上海中华新路482号"},{"poiid":"B2094757D66DAAFF449B","title":"川悦火锅","lon":"121.465468503","lat":"31.2528392549","category":"86","category_name":"火锅店","address":"闸北区中兴路1054号(近共和新路)"},{"poiid":"B2094654D56CA2FD4098","title":"艺菲宠物","lon":"121.46607","lat":"31.25276","category":"162","category_name":"医院","address":"中兴路1055号"},{"poiid":"B2094654DB6AA6FF469C","title":"星程圣贤居酒店","lon":"121.46676","lat":"31.25246","category":"215","category_name":"三星级宾馆","address":"闸北区中兴路1032号(近育婴堂路)"},{"poiid":"B2094757D16DAAF5469D","title":"重庆鸡公煲 中华新路店","lon":"121.464613054","lat":"31.253611793","category":"71","category_name":"四川菜","address":"闸北区中华新路490号(共和新路口)"},{"poiid":"B2094654DB69A0F9409E","title":"芝麻餐馆 中华新路店","lon":"121.466356","lat":"31.254173","category":"76","category_name":"上海菜","address":"闸北区中华新路567号王子百货4楼(近共和新路)"},{"poiid":"B2094750D664A0FA439E","title":"老盛兴苏州汤包馆(中华新路店)","lon":"121.466","lat":"31.2537","category":"68","category_name":"快餐厅","address":"闸北区中华新路482-486号(近泰煌鸡)"},{"poiid":"B2094655D26EA4FD439A","title":"上海新多来咪茶楼","lon":"121.4655","lat":"31.25221","category":"66","category_name":"茶艺馆","address":"闸北区芷江西路街道中兴路1118号"},{"poiid":"B2094655D264A6FC419C","title":"浩记生煎王中兴路店","lon":"121.46629","lat":"31.25235","category":"257","category_name":"中餐厅","address":"闸北区中兴路1066号(永兴小马路中兴路)"},{"poiid":"B2094757D468A6FE489E","title":"阿刚烧烤","lon":"121.464529","lat":"31.253818","category":"68","category_name":"快餐厅","address":"闸北区中华新路489号(共和新路中华新路)"},{"poiid":"B2094654DB64ABFD429A","title":"友谊商务楼","lon":"121.46531","lat":"31.25218","category":"46","category_name":"楼宇","address":"中兴路1122-1132"},{"poiid":"B2094655D26BA5F94292","title":"369川菜馆中兴店","lon":"121.4659","lat":"31.25273","category":"71","category_name":"四川菜","address":"闸北区中兴路1063号(近共和新路)"},{"poiid":"B2094757D169A4FE419F","title":"闸北区中心医院急诊药房","lon":"121.463735103","lat":"31.252413046","category":"500","category_name":"未知分类","address":"上海中华新路619号"},{"poiid":"B2094654D56CA2F5429B","title":"光华坊","lon":"121.46649","lat":"31.25143","category":"47","category_name":"住宅区","address":"上海市闸北区永兴路595弄"},{"poiid":"B2094654D56CA2F84492","title":"香吧岛大龙虾(中华新路)","lon":"121.46481","lat":"31.25374","category":"257","category_name":"中餐厅","address":""},{"poiid":"B2094655D265A2F4479B","title":"小王子美容美体美发造型","lon":"121.46598","lat":"31.25271","category":"148","category_name":"美容美发店","address":""},{"poiid":"B2094654D56CA2FC479E","title":"上海市疾病预防控制中心健康检查站驾驶员健康检查中心站","lon":"121.46508","lat":"31.25272","category":"162","category_name":"医院","address":"中兴路1105"},{"poiid":"B2094655D36DA7F9419D","title":"中兴路共和新路","lon":"121.46479","lat":"31.25234","category":"38","category_name":"公交车站","address":""},{"poiid":"B2094757D469A2FE4492","title":"姐妹麻辣烫小店","lon":"121.464308054","lat":"31.253676793","category":"247","category_name":"餐饮美食","address":"闸北区共和新路中兴路招商银行旁弄堂内(近中华新路)"},{"poiid":"B2094757DB6CA3F84293","title":"上海品薇商务酒店","lon":"121.466426253","lat":"31.253780965","category":"214","category_name":"四星级宾馆","address":"上海市闸北区中华新路482号"},{"poiid":"B2094757D16AABFB499A","title":"时鹰小吃","lon":"121.46606","lat":"31.25381","category":"68","category_name":"快餐厅","address":"闸北区中华新路475号(近共和新路)"},{"poiid":"B2094750DA6BABFC449C","title":"沪上花园私房菜","lon":"121.465812","lat":"31.253963","category":"76","category_name":"上海菜","address":"闸北区中华新路478-488号(近王子百货)"},{"poiid":"B2094654D56CA2FD419A","title":"温州海鲜","lon":"121.4668","lat":"31.25302","category":"88","category_name":"海鲜酒楼","address":"中兴路1021号"},{"poiid":"B2094757D06EAAFE4398","title":"上海歌城(中兴路店)","lon":"121.46375","lat":"31.25196","category":"170","category_name":"KTV","address":"闸北区中兴路1233号中兴财富广场1幢1-2号(近共和新路)"},{"poiid":"B2094757D06FA4FC4798","title":"申宴酒楼(王子百货店)","lon":"121.46458","lat":"31.25343","category":"76","category_name":"上海菜","address":"闸北区中华新路567号王子百货5楼(近共和新路)"},{"poiid":"B2094757D06FA3FF4593","title":"王子百货","lon":"121.4646","lat":"31.2533","category":"119","category_name":"商场","address":"闸北区中华新路567号(近共和新路)"},{"poiid":"B209475CD564A7F8439E","title":"上海滩中信泰富店","lon":"121.45602","lat":"31.22851","category":"119","category_name":"商场","address":"\"南京西路1168号中信泰富广场，店铺号221.\r\n\""},{"poiid":"B2094654D56CA2F8469A","title":"闸北体育馆","lon":"121.46576","lat":"31.25462","category":"224","category_name":"综合体育馆","address":"中华新路475"},{"poiid":"B2094757D06AA0FC4499","title":"南北高架","lon":"121.46357196","lat":"31.250989706","category":"500","category_name":"未知分类","address":"上海天目西路至中环"},{"poiid":"B2094757D068A2FD469B","title":"共和新路中兴路","lon":"121.463348","lat":"31.251093","category":"500","category_name":"未知分类","address":"上海共和新路中兴路"},{"poiid":"B2094757D06FAAFD4093","title":"泰煌火锅(闸北店)","lon":"121.46591","lat":"31.25375","category":"86","category_name":"火锅店","address":"闸北区中华新路479号(近共和新路)"},{"poiid":"B2094757D06FA4F9429C","title":"青年餐厅(火车站店)","lon":"121.46552","lat":"31.25192","category":"71","category_name":"四川菜","address":"闸北区中兴路1122号2楼(近共和新路)"},{"poiid":"B2094757D069A2FF409A","title":"闸北游泳馆","lon":"121.465370616","lat":"31.2542683436","category":"231","category_name":"游泳馆","address":"闸北区中华新路483号(近共和新路)"},{"poiid":"B2094757D065A3F94093","title":"味千拉面 中华新路店","lon":"121.464265","lat":"31.253818","category":"95","category_name":"日本料理","address":"闸北区共和新路567号(近中华新路)"},{"poiid":"B2094757D068A4F9499D","title":"兴中心创意园 RED PLUS","lon":"121.467529233","lat":"31.252842315","category":"46","category_name":"楼宇","address":"上海西藏北路605"},{"poiid":"B2094750D665A1FD439F","title":"鼎新小馆","lon":"121.466","lat":"31.2527","category":"76","category_name":"上海菜","address":"闸北区中兴路1055号(近共和新路)"},{"poiid":"B2094757D06FA6FB429A","title":"DQ冰雪皇后(王子百货店)","lon":"121.46437","lat":"31.25342","category":"113","category_name":"冷饮店","address":"闸北区中华新路567号王子百货1楼(近共和新路)"},{"poiid":"B2094757D06BA6FD489A","title":"金光大道大酒家(中兴路店)","lon":"121.46483","lat":"31.25215","category":"76","category_name":"上海菜","address":"闸北区中兴路1111号(近共和新路)"},{"poiid":"B2094757D068ABF44092","title":"德笼馆(中兴路店)","lon":"121.46578","lat":"31.25238","category":"247","category_name":"餐饮美食","address":"上海闸北区中兴路1089号(近共和新路)  "},{"poiid":"B2094655D36DA1FB409F","title":"西藏北路","lon":"121.46786","lat":"31.253","category":"38","category_name":"公交车站","address":""},{"poiid":"B2094654D564AAFA449B","title":"汇贡大厦","lon":"121.465","lat":"31.2528","category":"46","category_name":"楼宇","address":"浦东区崂山东路410号"},{"poiid":"B2094655D26EA5FD459B","title":"亚繁风尚商务酒店(上海中兴路店)","lon":"121.46503","lat":"31.25213","category":"250","category_name":"公园户外","address":"上海市闸北区中兴路1122号（近共和新路）"},{"poiid":"B2094654DB6AAAFE4893","title":"上海如来大酒店","lon":"121.46625","lat":"31.25278","category":"250","category_name":"公园户外","address":"闸北区中兴路1055号(近共和新路)"},{"poiid":"B2094655D26AA6F54199","title":"泰煌鸡中华新路店","lon":"121.46564","lat":"31.25402","category":"68","category_name":"快餐厅","address":"闸北区中华新路479号(近共和新路)"},{"poiid":"B2094757D069A7FD4293","title":"圣贤居温泉浴场","lon":"121.46686","lat":"31.25233","category":"149","category_name":"洗浴推拿场所","address":"闸北区中兴路1032号(近西藏北路)"},{"poiid":"B2094757D16FAAFF4198","title":"老北京羊蝎子(中兴店)","lon":"121.466324103","lat":"31.2527600532","category":"86","category_name":"火锅店","address":"闸北区中兴路1041号(近西藏北路)"},{"poiid":"B209475CD169A2F4429C","title":"上海新天地","lon":"121.466247","lat":"31.252174","category":"500","category_name":"未知分类","address":"上海市 上海新天地"},{"poiid":"B2094655D265A2F4479A","title":"村夫烤鱼","lon":"121.46594","lat":"31.25271","category":"87","category_name":"特色／地方风味餐厅","address":"上海市长宁区东诸安浜路"},{"poiid":"B2094654D56CA1FC4199","title":"和记渔村","lon":"121.46476723949","lat":"31.252307982736","category":"76","category_name":"上海菜","address":"闸北区中兴路1098号(近共和新路)"},{"poiid":"B2094757D069A6FF4093","title":"贵州苗家酸汤鱼馆 中兴路店","lon":"121.463040054","lat":"31.252511793","category":"83","category_name":"云贵菜","address":"闸北区中兴路1233号中兴财富广场内(近共和新路)"},{"poiid":"B2094757D06AA0FD499C","title":"闸北区教师进修学院","lon":"121.465089","lat":"31.253687241","category":"253","category_name":"校园生活","address":"上海中华新路482号"},{"poiid":"B2094757D66DAAFF449B","title":"川悦火锅","lon":"121.465468503","lat":"31.2528392549","category":"86","category_name":"火锅店","address":"闸北区中兴路1054号(近共和新路)"},{"poiid":"B2094654D56CA2FD4098","title":"艺菲宠物","lon":"121.46607","lat":"31.25276","category":"162","category_name":"医院","address":"中兴路1055号"},{"poiid":"B2094654DB6AA6FF469C","title":"星程圣贤居酒店","lon":"121.46676","lat":"31.25246","category":"215","category_name":"三星级宾馆","address":"闸北区中兴路1032号(近育婴堂路)"},{"poiid":"B2094757D16DAAF5469D","title":"重庆鸡公煲 中华新路店","lon":"121.464613054","lat":"31.253611793","category":"71","category_name":"四川菜","address":"闸北区中华新路490号(共和新路口)"},{"poiid":"B2094654DB69A0F9409E","title":"芝麻餐馆 中华新路店","lon":"121.466356","lat":"31.254173","category":"76","category_name":"上海菜","address":"闸北区中华新路567号王子百货4楼(近共和新路)"},{"poiid":"B2094750D664A0FA439E","title":"老盛兴苏州汤包馆(中华新路店)","lon":"121.466","lat":"31.2537","category":"68","category_name":"快餐厅","address":"闸北区中华新路482-486号(近泰煌鸡)"},{"poiid":"B2094655D26EA4FD439A","title":"上海新多来咪茶楼","lon":"121.4655","lat":"31.25221","category":"66","category_name":"茶艺馆","address":"闸北区芷江西路街道中兴路1118号"},{"poiid":"B2094655D264A6FC419C","title":"浩记生煎王中兴路店","lon":"121.46629","lat":"31.25235","category":"257","category_name":"中餐厅","address":"闸北区中兴路1066号(永兴小马路中兴路)"},{"poiid":"B2094757D468A6FE489E","title":"阿刚烧烤","lon":"121.464529","lat":"31.253818","category":"68","category_name":"快餐厅","address":"闸北区中华新路489号(共和新路中华新路)"},{"poiid":"B2094654DB64ABFD429A","title":"友谊商务楼","lon":"121.46531","lat":"31.25218","category":"46","category_name":"楼宇","address":"中兴路1122-1132"},{"poiid":"B2094655D26BA5F94292","title":"369川菜馆中兴店","lon":"121.4659","lat":"31.25273","category":"71","category_name":"四川菜","address":"闸北区中兴路1063号(近共和新路)"},{"poiid":"B2094757D169A4FE419F","title":"闸北区中心医院急诊药房","lon":"121.463735103","lat":"31.252413046","category":"500","category_name":"未知分类","address":"上海中华新路619号"},{"poiid":"B2094654D56CA2F5429B","title":"光华坊","lon":"121.46649","lat":"31.25143","category":"47","category_name":"住宅区","address":"上海市闸北区永兴路595弄"},{"poiid":"B2094654D56CA2F84492","title":"香吧岛大龙虾(中华新路)","lon":"121.46481","lat":"31.25374","category":"257","category_name":"中餐厅","address":""},{"poiid":"B2094655D265A2F4479B","title":"小王子美容美体美发造型","lon":"121.46598","lat":"31.25271","category":"148","category_name":"美容美发店","address":""},{"poiid":"B2094654D56CA2FC479E","title":"上海市疾病预防控制中心健康检查站驾驶员健康检查中心站","lon":"121.46508","lat":"31.25272","category":"162","category_name":"医院","address":"中兴路1105"},{"poiid":"B2094655D36DA7F9419D","title":"中兴路共和新路","lon":"121.46479","lat":"31.25234","category":"38","category_name":"公交车站","address":""},{"poiid":"B2094757D469A2FE4492","title":"姐妹麻辣烫小店","lon":"121.464308054","lat":"31.253676793","category":"247","category_name":"餐饮美食","address":"闸北区共和新路中兴路招商银行旁弄堂内(近中华新路)"},{"poiid":"B2094757DB6CA3F84293","title":"上海品薇商务酒店","lon":"121.466426253","lat":"31.253780965","category":"214","category_name":"四星级宾馆","address":"上海市闸北区中华新路482号"},{"poiid":"B2094757D16AABFB499A","title":"时鹰小吃","lon":"121.46606","lat":"31.25381","category":"68","category_name":"快餐厅","address":"闸北区中华新路475号(近共和新路)"},{"poiid":"B2094750DA6BABFC449C","title":"沪上花园私房菜","lon":"121.465812","lat":"31.253963","category":"76","category_name":"上海菜","address":"闸北区中华新路478-488号(近王子百货)"},{"poiid":"B2094654D56CA2FD419A","title":"温州海鲜","lon":"121.4668","lat":"31.25302","category":"88","category_name":"海鲜酒楼","address":"中兴路1021号"},{"poiid":"B2094757D06EAAFE4398","title":"上海歌城(中兴路店)","lon":"121.46375","lat":"31.25196","category":"170","category_name":"KTV","address":"闸北区中兴路1233号中兴财富广场1幢1-2号(近共和新路)"},{"poiid":"B2094757D06FA4FC4798","title":"申宴酒楼(王子百货店)","lon":"121.46458","lat":"31.25343","category":"76","category_name":"上海菜","address":"闸北区中华新路567号王子百货5楼(近共和新路)"},{"poiid":"B2094757D06FA3FF4593","title":"王子百货","lon":"121.4646","lat":"31.2533","category":"119","category_name":"商场","address":"闸北区中华新路567号(近共和新路)"},{"poiid":"B209475CD564A7F8439E","title":"上海滩中信泰富店","lon":"121.45602","lat":"31.22851","category":"119","category_name":"商场","address":"\"南京西路1168号中信泰富广场，店铺号221.\r\n\""},{"poiid":"B2094654D56CA2F8469A","title":"闸北体育馆","lon":"121.46576","lat":"31.25462","category":"224","category_name":"综合体育馆","address":"中华新路475"},{"poiid":"B2094757D06AA0FC4499","title":"南北高架","lon":"121.46357196","lat":"31.250989706","category":"500","category_name":"未知分类","address":"上海天目西路至中环"},{"poiid":"B2094757D068A2FD469B","title":"共和新路中兴路","lon":"121.463348","lat":"31.251093","category":"500","category_name":"未知分类","address":"上海共和新路中兴路"},{"poiid":"B2094757D06FAAFD4093","title":"泰煌火锅(闸北店)","lon":"121.46591","lat":"31.25375","category":"86","category_name":"火锅店","address":"闸北区中华新路479号(近共和新路)"},{"poiid":"B2094757D06FA4F9429C","title":"青年餐厅(火车站店)","lon":"121.46552","lat":"31.25192","category":"71","category_name":"四川菜","address":"闸北区中兴路1122号2楼(近共和新路)"},{"poiid":"B2094757D069A2FF409A","title":"闸北游泳馆","lon":"121.465370616","lat":"31.2542683436","category":"231","category_name":"游泳馆","address":"闸北区中华新路483号(近共和新路)"},{"poiid":"B2094757D065A3F94093","title":"味千拉面 中华新路店","lon":"121.464265","lat":"31.253818","category":"95","category_name":"日本料理","address":"闸北区共和新路567号(近中华新路)"},{"poiid":"B2094757D068A4F9499D","title":"兴中心创意园 RED PLUS","lon":"121.467529233","lat":"31.252842315","category":"46","category_name":"楼宇","address":"上海西藏北路605"},{"poiid":"B2094750D665A1FD439F","title":"鼎新小馆","lon":"121.466","lat":"31.2527","category":"76","category_name":"上海菜","address":"闸北区中兴路1055号(近共和新路)"},{"poiid":"B2094757D06FA6FB429A","title":"DQ冰雪皇后(王子百货店)","lon":"121.46437","lat":"31.25342","category":"113","category_name":"冷饮店","address":"闸北区中华新路567号王子百货1楼(近共和新路)"},{"poiid":"B2094757D06BA6FD489A","title":"金光大道大酒家(中兴路店)","lon":"121.46483","lat":"31.25215","category":"76","category_name":"上海菜","address":"闸北区中兴路1111号(近共和新路)"},{"poiid":"B2094757D068ABF44092","title":"德笼馆(中兴路店)","lon":"121.46578","lat":"31.25238","category":"247","category_name":"餐饮美食","address":"上海闸北区中兴路1089号(近共和新路)  "},{"poiid":"B2094655D36DA1FB409F","title":"西藏北路","lon":"121.46786","lat":"31.253","category":"38","category_name":"公交车站","address":""},{"poiid":"B2094654D564AAFA449B","title":"汇贡大厦","lon":"121.465","lat":"31.2528","category":"46","category_name":"楼宇","address":"浦东区崂山东路410号"},{"poiid":"B2094655D26EA5FD459B","title":"亚繁风尚商务酒店(上海中兴路店)","lon":"121.46503","lat":"31.25213","category":"250","category_name":"公园户外","address":"上海市闸北区中兴路1122号（近共和新路）"},{"poiid":"B2094654DB6AAAFE4893","title":"上海如来大酒店","lon":"121.46625","lat":"31.25278","category":"250","category_name":"公园户外","address":"闸北区中兴路1055号(近共和新路)"},{"poiid":"B2094655D26AA6F54199","title":"泰煌鸡中华新路店","lon":"121.46564","lat":"31.25402","category":"68","category_name":"快餐厅","address":"闸北区中华新路479号(近共和新路)"},{"poiid":"B2094757D069A7FD4293","title":"圣贤居温泉浴场","lon":"121.46686","lat":"31.25233","category":"149","category_name":"洗浴推拿场所","address":"闸北区中兴路1032号(近西藏北路)"},{"poiid":"B2094757D16FAAFF4198","title":"老北京羊蝎子(中兴店)","lon":"121.466324103","lat":"31.2527600532","category":"86","category_name":"火锅店","address":"闸北区中兴路1041号(近西藏北路)"},{"poiid":"B209475CD169A2F4429C","title":"上海新天地","lon":"121.466247","lat":"31.252174","category":"500","category_name":"未知分类","address":"上海市 上海新天地"},{"poiid":"B2094655D265A2F4479A","title":"村夫烤鱼","lon":"121.46594","lat":"31.25271","category":"87","category_name":"特色／地方风味餐厅","address":"上海市长宁区东诸安浜路"},{"poiid":"B2094654D56CA1FC4199","title":"和记渔村","lon":"121.46476723949","lat":"31.252307982736","category":"76","category_name":"上海菜","address":"闸北区中兴路1098号(近共和新路)"},{"poiid":"B2094757D069A6FF4093","title":"贵州苗家酸汤鱼馆 中兴路店","lon":"121.463040054","lat":"31.252511793","category":"83","category_name":"云贵菜","address":"闸北区中兴路1233号中兴财富广场内(近共和新路)"},{"poiid":"B2094757D06AA0FD499C","title":"闸北区教师进修学院","lon":"121.465089","lat":"31.253687241","category":"253","category_name":"校园生活","address":"上海中华新路482号"},{"poiid":"B2094757D66DAAFF449B","title":"川悦火锅","lon":"121.465468503","lat":"31.2528392549","category":"86","category_name":"火锅店","address":"闸北区中兴路1054号(近共和新路)"},{"poiid":"B2094654D56CA2FD4098","title":"艺菲宠物","lon":"121.46607","lat":"31.25276","category":"162","category_name":"医院","address":"中兴路1055号"},{"poiid":"B2094654DB6AA6FF469C","title":"星程圣贤居酒店","lon":"121.46676","lat":"31.25246","category":"215","category_name":"三星级宾馆","address":"闸北区中兴路1032号(近育婴堂路)"},{"poiid":"B2094757D16DAAF5469D","title":"重庆鸡公煲 中华新路店","lon":"121.464613054","lat":"31.253611793","category":"71","category_name":"四川菜","address":"闸北区中华新路490号(共和新路口)"},{"poiid":"B2094654DB69A0F9409E","title":"芝麻餐馆 中华新路店","lon":"121.466356","lat":"31.254173","category":"76","category_name":"上海菜","address":"闸北区中华新路567号王子百货4楼(近共和新路)"},{"poiid":"B2094750D664A0FA439E","title":"老盛兴苏州汤包馆(中华新路店)","lon":"121.466","lat":"31.2537","category":"68","category_name":"快餐厅","address":"闸北区中华新路482-486号(近泰煌鸡)"},{"poiid":"B2094655D26EA4FD439A","title":"上海新多来咪茶楼","lon":"121.4655","lat":"31.25221","category":"66","category_name":"茶艺馆","address":"闸北区芷江西路街道中兴路1118号"},{"poiid":"B2094655D264A6FC419C","title":"浩记生煎王中兴路店","lon":"121.46629","lat":"31.25235","category":"257","category_name":"中餐厅","address":"闸北区中兴路1066号(永兴小马路中兴路)"},{"poiid":"B2094757D468A6FE489E","title":"阿刚烧烤","lon":"121.464529","lat":"31.253818","category":"68","category_name":"快餐厅","address":"闸北区中华新路489号(共和新路中华新路)"},{"poiid":"B2094654DB64ABFD429A","title":"友谊商务楼","lon":"121.46531","lat":"31.25218","category":"46","category_name":"楼宇","address":"中兴路1122-1132"},{"poiid":"B2094655D26BA5F94292","title":"369川菜馆中兴店","lon":"121.4659","lat":"31.25273","category":"71","category_name":"四川菜","address":"闸北区中兴路1063号(近共和新路)"},{"poiid":"B2094757D169A4FE419F","title":"闸北区中心医院急诊药房","lon":"121.463735103","lat":"31.252413046","category":"500","category_name":"未知分类","address":"上海中华新路619号"},{"poiid":"B2094654D56CA2F5429B","title":"光华坊","lon":"121.46649","lat":"31.25143","category":"47","category_name":"住宅区","address":"上海市闸北区永兴路595弄"},{"poiid":"B2094654D56CA2F84492","title":"香吧岛大龙虾(中华新路)","lon":"121.46481","lat":"31.25374","category":"257","category_name":"中餐厅","address":""},{"poiid":"B2094655D265A2F4479B","title":"小王子美容美体美发造型","lon":"121.46598","lat":"31.25271","category":"148","category_name":"美容美发店","address":""},{"poiid":"B2094654D56CA2FC479E","title":"上海市疾病预防控制中心健康检查站驾驶员健康检查中心站","lon":"121.46508","lat":"31.25272","category":"162","category_name":"医院","address":"中兴路1105"},{"poiid":"B2094655D36DA7F9419D","title":"中兴路共和新路","lon":"121.46479","lat":"31.25234","category":"38","category_name":"公交车站","address":""},{"poiid":"B2094757D469A2FE4492","title":"姐妹麻辣烫小店","lon":"121.464308054","lat":"31.253676793","category":"247","category_name":"餐饮美食","address":"闸北区共和新路中兴路招商银行旁弄堂内(近中华新路)"},{"poiid":"B2094757DB6CA3F84293","title":"上海品薇商务酒店","lon":"121.466426253","lat":"31.253780965","category":"214","category_name":"四星级宾馆","address":"上海市闸北区中华新路482号"},{"poiid":"B2094757D16AABFB499A","title":"时鹰小吃","lon":"121.46606","lat":"31.25381","category":"68","category_name":"快餐厅","address":"闸北区中华新路475号(近共和新路)"},{"poiid":"B2094750DA6BABFC449C","title":"沪上花园私房菜","lon":"121.465812","lat":"31.253963","category":"76","category_name":"上海菜","address":"闸北区中华新路478-488号(近王子百货)"},{"poiid":"B2094654D56CA2FD419A","title":"温州海鲜","lon":"121.4668","lat":"31.25302","category":"88","category_name":"海鲜酒楼","address":"中兴路1021号"},{"poiid":"B2094757D06EAAFE4398","title":"上海歌城(中兴路店)","lon":"121.46375","lat":"31.25196","category":"170","category_name":"KTV","address":"闸北区中兴路1233号中兴财富广场1幢1-2号(近共和新路)"},{"poiid":"B2094757D06FA4FC4798","title":"申宴酒楼(王子百货店)","lon":"121.46458","lat":"31.25343","category":"76","category_name":"上海菜","address":"闸北区中华新路567号王子百货5楼(近共和新路)"},{"poiid":"B2094757D06FA3FF4593","title":"王子百货","lon":"121.4646","lat":"31.2533","category":"119","category_name":"商场","address":"闸北区中华新路567号(近共和新路)"},{"poiid":"B209475CD564A7F8439E","title":"上海滩中信泰富店","lon":"121.45602","lat":"31.22851","category":"119","category_name":"商场","address":"\"南京西路1168号中信泰富广场，店铺号221.\r\n\""},{"poiid":"B2094654D56CA2F8469A","title":"闸北体育馆","lon":"121.46576","lat":"31.25462","category":"224","category_name":"综合体育馆","address":"中华新路475"},{"poiid":"B2094757D06AA0FC4499","title":"南北高架","lon":"121.46357196","lat":"31.250989706","category":"500","category_name":"未知分类","address":"上海天目西路至中环"},{"poiid":"B2094757D068A2FD469B","title":"共和新路中兴路","lon":"121.463348","lat":"31.251093","category":"500","category_name":"未知分类","address":"上海共和新路中兴路"},{"poiid":"B2094757D06FAAFD4093","title":"泰煌火锅(闸北店)","lon":"121.46591","lat":"31.25375","category":"86","category_name":"火锅店","address":"闸北区中华新路479号(近共和新路)"},{"poiid":"B2094757D06FA4F9429C","title":"青年餐厅(火车站店)","lon":"121.46552","lat":"31.25192","category":"71","category_name":"四川菜","address":"闸北区中兴路1122号2楼(近共和新路)"},{"poiid":"B2094757D069A2FF409A","title":"闸北游泳馆","lon":"121.465370616","lat":"31.2542683436","category":"231","category_name":"游泳馆","address":"闸北区中华新路483号(近共和新路)"},{"poiid":"B2094757D065A3F94093","title":"味千拉面 中华新路店","lon":"121.464265","lat":"31.253818","category":"95","category_name":"日本料理","address":"闸北区共和新路567号(近中华新路)"},{"poiid":"B2094757D068A4F9499D","title":"兴中心创意园 RED PLUS","lon":"121.467529233","lat":"31.252842315","category":"46","category_name":"楼宇","address":"上海西藏北路605"},{"poiid":"B2094750D665A1FD439F","title":"鼎新小馆","lon":"121.466","lat":"31.2527","category":"76","category_name":"上海菜","address":"闸北区中兴路1055号(近共和新路)"},{"poiid":"B2094757D06FA6FB429A","title":"DQ冰雪皇后(王子百货店)","lon":"121.46437","lat":"31.25342","category":"113","category_name":"冷饮店","address":"闸北区中华新路567号王子百货1楼(近共和新路)"},{"poiid":"B2094757D06BA6FD489A","title":"金光大道大酒家(中兴路店)","lon":"121.46483","lat":"31.25215","category":"76","category_name":"上海菜","address":"闸北区中兴路1111号(近共和新路)"},{"poiid":"B2094757D068ABF44092","title":"德笼馆(中兴路店)","lon":"121.46578","lat":"31.25238","category":"247","category_name":"餐饮美食","address":"上海闸北区中兴路1089号(近共和新路)  "},{"poiid":"B2094655D36DA1FB409F","title":"西藏北路","lon":"121.46786","lat":"31.253","category":"38","category_name":"公交车站","address":""},{"poiid":"B2094654D564AAFA449B","title":"汇贡大厦","lon":"121.465","lat":"31.2528","category":"46","category_name":"楼宇","address":"浦东区崂山东路410号"},{"poiid":"B2094655D26EA5FD459B","title":"亚繁风尚商务酒店(上海中兴路店)","lon":"121.46503","lat":"31.25213","category":"250","category_name":"公园户外","address":"上海市闸北区中兴路1122号（近共和新路）"},{"poiid":"B2094654DB6AAAFE4893","title":"上海如来大酒店","lon":"121.46625","lat":"31.25278","category":"250","category_name":"公园户外","address":"闸北区中兴路1055号(近共和新路)"},{"poiid":"B2094655D26AA6F54199","title":"泰煌鸡中华新路店","lon":"121.46564","lat":"31.25402","category":"68","category_name":"快餐厅","address":"闸北区中华新路479号(近共和新路)"},{"poiid":"B2094757D069A7FD4293","title":"圣贤居温泉浴场","lon":"121.46686","lat":"31.25233","category":"149","category_name":"洗浴推拿场所","address":"闸北区中兴路1032号(近西藏北路)"},{"poiid":"B2094757D16FAAFF4198","title":"老北京羊蝎子(中兴店)","lon":"121.466324103","lat":"31.2527600532","category":"86","category_name":"火锅店","address":"闸北区中兴路1041号(近西藏北路)"},{"poiid":"B209475CD169A2F4429C","title":"上海新天地","lon":"121.466247","lat":"31.252174","category":"500","category_name":"未知分类","address":"上海市 上海新天地"},{"poiid":"B2094655D265A2F4479A","title":"村夫烤鱼","lon":"121.46594","lat":"31.25271","category":"87","category_name":"特色／地方风味餐厅","address":"上海市长宁区东诸安浜路"},{"poiid":"B2094654D56CA1FC4199","title":"和记渔村","lon":"121.46476723949","lat":"31.252307982736","category":"76","category_name":"上海菜","address":"闸北区中兴路1098号(近共和新路)"},{"poiid":"B2094757D069A6FF4093","title":"贵州苗家酸汤鱼馆 中兴路店","lon":"121.463040054","lat":"31.252511793","category":"83","category_name":"云贵菜","address":"闸北区中兴路1233号中兴财富广场内(近共和新路)"},{"poiid":"B2094757D06AA0FD499C","title":"闸北区教师进修学院","lon":"121.465089","lat":"31.253687241","category":"253","category_name":"校园生活","address":"上海中华新路482号"},{"poiid":"B2094757D66DAAFF449B","title":"川悦火锅","lon":"121.465468503","lat":"31.2528392549","category":"86","category_name":"火锅店","address":"闸北区中兴路1054号(近共和新路)"},{"poiid":"B2094654D56CA2FD4098","title":"艺菲宠物","lon":"121.46607","lat":"31.25276","category":"162","category_name":"医院","address":"中兴路1055号"},{"poiid":"B2094654DB6AA6FF469C","title":"星程圣贤居酒店","lon":"121.46676","lat":"31.25246","category":"215","category_name":"三星级宾馆","address":"闸北区中兴路1032号(近育婴堂路)"},{"poiid":"B2094757D16DAAF5469D","title":"重庆鸡公煲 中华新路店","lon":"121.464613054","lat":"31.253611793","category":"71","category_name":"四川菜","address":"闸北区中华新路490号(共和新路口)"},{"poiid":"B2094654DB69A0F9409E","title":"芝麻餐馆 中华新路店","lon":"121.466356","lat":"31.254173","category":"76","category_name":"上海菜","address":"闸北区中华新路567号王子百货4楼(近共和新路)"},{"poiid":"B2094750D664A0FA439E","title":"老盛兴苏州汤包馆(中华新路店)","lon":"121.466","lat":"31.2537","category":"68","category_name":"快餐厅","address":"闸北区中华新路482-486号(近泰煌鸡)"},{"poiid":"B2094655D26EA4FD439A","title":"上海新多来咪茶楼","lon":"121.4655","lat":"31.25221","category":"66","category_name":"茶艺馆","address":"闸北区芷江西路街道中兴路1118号"},{"poiid":"B2094655D264A6FC419C","title":"浩记生煎王中兴路店","lon":"121.46629","lat":"31.25235","category":"257","category_name":"中餐厅","address":"闸北区中兴路1066号(永兴小马路中兴路)"},{"poiid":"B2094757D468A6FE489E","title":"阿刚烧烤","lon":"121.464529","lat":"31.253818","category":"68","category_name":"快餐厅","address":"闸北区中华新路489号(共和新路中华新路)"},{"poiid":"B2094654DB64ABFD429A","title":"友谊商务楼","lon":"121.46531","lat":"31.25218","category":"46","category_name":"楼宇","address":"中兴路1122-1132"},{"poiid":"B2094655D26BA5F94292","title":"369川菜馆中兴店","lon":"121.4659","lat":"31.25273","category":"71","category_name":"四川菜","address":"闸北区中兴路1063号(近共和新路)"},{"poiid":"B2094757D169A4FE419F","title":"闸北区中心医院急诊药房","lon":"121.463735103","lat":"31.252413046","category":"500","category_name":"未知分类","address":"上海中华新路619号"},{"poiid":"B2094654D56CA2F5429B","title":"光华坊","lon":"121.46649","lat":"31.25143","category":"47","category_name":"住宅区","address":"上海市闸北区永兴路595弄"},{"poiid":"B2094654D56CA2F84492","title":"香吧岛大龙虾(中华新路)","lon":"121.46481","lat":"31.25374","category":"257","category_name":"中餐厅","address":""},{"poiid":"B2094655D265A2F4479B","title":"小王子美容美体美发造型","lon":"121.46598","lat":"31.25271","category":"148","category_name":"美容美发店","address":""},{"poiid":"B2094654D56CA2FC479E","title":"上海市疾病预防控制中心健康检查站驾驶员健康检查中心站","lon":"121.46508","lat":"31.25272","category":"162","category_name":"医院","address":"中兴路1105"},{"poiid":"B2094655D36DA7F9419D","title":"中兴路共和新路","lon":"121.46479","lat":"31.25234","category":"38","category_name":"公交车站","address":""},{"poiid":"B2094757D469A2FE4492","title":"姐妹麻辣烫小店","lon":"121.464308054","lat":"31.253676793","category":"247","category_name":"餐饮美食","address":"闸北区共和新路中兴路招商银行旁弄堂内(近中华新路)"},{"poiid":"B2094757DB6CA3F84293","title":"上海品薇商务酒店","lon":"121.466426253","lat":"31.253780965","category":"214","category_name":"四星级宾馆","address":"上海市闸北区中华新路482号"},{"poiid":"B2094757D16AABFB499A","title":"时鹰小吃","lon":"121.46606","lat":"31.25381","category":"68","category_name":"快餐厅","address":"闸北区中华新路475号(近共和新路)"},{"poiid":"B2094750DA6BABFC449C","title":"沪上花园私房菜","lon":"121.465812","lat":"31.253963","category":"76","category_name":"上海菜","address":"闸北区中华新路478-488号(近王子百货)"},{"poiid":"B2094654D56CA2FD419A","title":"温州海鲜","lon":"121.4668","lat":"31.25302","category":"88","category_name":"海鲜酒楼","address":"中兴路1021号"}]