[{"poiid":"B2094654DA6AA3FE479D","title":"上海浦东游泳馆","lon":"121.50572","lat":"31.18856","category":"231","category_name":"游泳馆","address":"浦东新区浦东南路3669号"},{"poiid":"B2094757D06FA0F8439A","title":"宝莱纳餐厅(世博店)","lon":"121.504113332","lat":"31.1982851473","category":"260","category_name":"其他","address":"浦东新区世博大道555号1-2楼(近雪野路)"},{"poiid":"B2094757D06FA7FA4093","title":"浦东游泳馆新羽毛球馆","lon":"121.505721806","lat":"31.1885572023","category":"220","category_name":"运动场所","address":"浦东新区浦东南路3669号浦东游泳馆南门内(近沂林路)"},{"poiid":"B2094757D168AAF4469C","title":"上海世博园","lon":"121.506916","lat":"31.193412","category":"500","category_name":"未知分类","address":"中国上海"},{"poiid":"B2094757D06FA5F9429C","title":"多利萝玛(Tony Roma's)","lon":"121.5040196","lat":"31.196038751","category":"94","category_name":"西餐厅","address":"浦东新区世博村B地块雪野路1057号B9-101C室(近沂南路)"},{"poiid":"B2094757D468AAFE419C","title":"蜀府 世博店","lon":"121.50602","lat":"31.19398","category":"71","category_name":"四川菜","address":"浦东新区世博大道1200号梅赛德斯奔驰中心6楼"},{"poiid":"B2094655D26BA2F54492","title":"浦东南路华丰路","lon":"121.50691","lat":"31.19281","category":"38","category_name":"公交车站","address":""},{"poiid":"B2094757D065A0FD4493","title":"Bubba's Texas-style BBQ(世博村店)","lon":"121.504977","lat":"31.196236","category":"94","category_name":"西餐厅","address":"浦东新区雪野路240号(近沂南路)"},{"poiid":"B2094757D069A6FB4698","title":"汉庭快捷浦东南路店(原世博村店)","lon":"121.50672","lat":"31.19234","category":"217","category_name":"旅馆招待所","address":"上海浦东新区浦东南路3500号(近华丰路)  "},{"poiid":"B2094757D66CA4FE479B","title":"滨江大道-世博段","lon":"121.502270053","lat":"31.1976926018","category":"500","category_name":"未知分类","address":"上海世博大道沿江段"},{"poiid":"B2094654DA6AA3F9439C","title":"世博大厦","lon":"121.50595","lat":"31.1911","category":"46","category_name":"楼宇","address":"上海浦东南路3588号"},{"poiid":"B2094654DB65A7FA4298","title":"格林豪泰上海世博园酒店","lon":"121.50691","lat":"31.19341","category":"216","category_name":"经济型连锁酒店","address":"上海市浦东新区浦东南路3500号(近南码头路)"},{"poiid":"B2094757D16DAAF4429E","title":"仙炙轩 世博店 Ambrosia","lon":"121.504652","lat":"31.200724","category":"247","category_name":"餐饮美食","address":"浦东新区世博大道555号4楼(雪野路口)"},{"poiid":"B2094757D068ABFE4999","title":"上海世博东湖公寓酒店","lon":"121.505364591","lat":"31.1967514842","category":"217","category_name":"旅馆招待所","address":"浦东新区雪野路999号"},{"poiid":"B2094753D46CA6F4459C","title":"梅赛德斯奔驰文化中心","lon":"121.507537","lat":"31.193929","category":"500","category_name":"未知分类","address":"上海市 上海世博园"},{"poiid":"B2094750D26EA2FA4093","title":"大悦城","lon":"121.503593","lat":"31.190885","category":"500","category_name":"未知分类","address":"西藏南路曲阜路"},{"poiid":"B2094757D06FA4FB4492","title":"上海世博会事务协调局","lon":"121.50553894","lat":"31.191095352","category":"46","category_name":"楼宇","address":"上海浦东南路3588号"},{"poiid":"B2094655D26FA7FB4299","title":"港机新村","lon":"121.50813","lat":"31.191181","category":"47","category_name":"住宅区","address":"上海浦东南路东方路口"},{"poiid":"B2094757D065A5F9499F","title":"Lavazza红磡意大利餐厅","lon":"121.50086773","lat":"31.194968549","category":"500","category_name":"未知分类","address":"浦东新区世博大道690号(近白莲泾公园)"},{"poiid":"B2094757D069A3FF459A","title":"临沂公园","lon":"121.50754","lat":"31.18913","category":"196","category_name":"公园","address":"浦东新区东方路3683号(近浦东南路)"},{"poiid":"B2094654DA6AA3FE499E","title":"上海乔家栅小吃世界No.10","lon":"121.50607","lat":"31.19061","category":"68","category_name":"快餐厅","address":"浦东新区浦东南路3633号(东方路口)"},{"poiid":"B2094655D26DA7FA4993","title":"华南名苑","lon":"121.5041","lat":"31.18997","category":"47","category_name":"住宅区","address":"上海市浦东新区浦东南路3666号"},{"poiid":"B2094757D06BA3F5499A","title":"世博会L1码头","lon":"121.50177002","lat":"31.195886611","category":"500","category_name":"未知分类","address":"上海世博会L1码头"},{"poiid":"B2094751D268A6FA489A","title":"上海地产集团办公楼","lon":"121.506034","lat":"31.19392","category":"46","category_name":"楼宇","address":"浦东新区雪野路928号"},{"poiid":"B2094757D169A6F9429E","title":"Masala Art(雪野路店)","lon":"121.50549158","lat":"31.195461483","category":"102","category_name":"印度风味","address":"浦东新区世博村雪野路1057号101b(近世博大道)"},{"poiid":"B2094655D36CA3F5489A","title":"中国2010上海世博会纪念品展示厅","lon":"121.50587","lat":"31.19149","category":"183","category_name":"展览馆","address":"上海世博园区"},{"poiid":"B2094751D26BA4F4419A","title":"世博洲际酒店","lon":"121.500463","lat":"31.191658","category":"256","category_name":"外国餐厅","address":"上海市 雪野路"},{"poiid":"B2094655D265A1F9409A","title":"上海世博会参展者服务大厅","lon":"121.50435","lat":"31.1915","category":"183","category_name":"展览馆","address":"上海世博园区"},{"poiid":"B2094757D168A0FB4093","title":"世博治安派出所","lon":"121.50418573","lat":"31.192779502","category":"609","category_name":"警察局","address":"上海雪野路华丰路"},{"poiid":"B2094757D06AA6F54493","title":"世博村","lon":"121.50436693","lat":"31.197464102","category":"47","category_name":"住宅区","address":"上海浦东新区雪野路(近沂南路)"},{"poiid":"B2094757D16EA0FB469A","title":"星巴克 STARBUCKS (嘉年华店)","lon":"121.50054073","lat":"31.191624477","category":"65","category_name":"咖啡厅","address":"上海浦东新区白莲泾路(世博大道与浦东南路间，原世博园4号口)"},{"poiid":"B2094655D265ABF44899","title":"媒体注册中心","lon":"121.50519","lat":"31.19173","category":"185","category_name":"会展中心","address":"上海世博园区"},{"poiid":"B2094757D06AA3FA429C","title":"世博局","lon":"121.504454639","lat":"31.1911469003","category":"500","category_name":"未知分类","address":"上海华丰路"},{"poiid":"B2094654DA6AA3F9429D","title":"江天宾馆","lon":"121.50792","lat":"31.19542","category":"215","category_name":"三星级宾馆","address":"浦东新区浦东南路3456号(近南码头路)"},{"poiid":"B2094655D26BA4F44392","title":"媒体注册中心(南门)","lon":"121.50519","lat":"31.19156","category":"185","category_name":"会展中心","address":"上海世博园区"},{"poiid":"B2094655D36CA7FD419B","title":"华丰路临沂路","lon":"121.50745","lat":"31.19218","category":"38","category_name":"公交车站","address":"上海市浦东新区华丰路"},{"poiid":"B2094655D26BA2F4499D","title":"浦三路","lon":"121.50555","lat":"31.1904","category":"38","category_name":"公交车站","address":""},{"poiid":"B2094757D168A7FF439B","title":"上海市浦东新区土地储备中心","lon":"121.50522073","lat":"31.190175447","category":"46","category_name":"楼宇","address":"上海市浦东新区浦东南路3618号"},{"poiid":"B2094655D265A6FC499E","title":"世博治安派出所","lon":"121.50415","lat":"31.19282","category":"609","category_name":"警察局","address":"雪野路853"},{"poiid":"B2094655D26BA6FA479E","title":"上海世博东湖公寓酒店(北门)","lon":"121.50502","lat":"31.19576","category":"656","category_name":"大门","address":"上海市浦东新区雪野路999号（近世博大道）"},{"poiid":"B2094655D26BA4F4439D","title":"纪念品展示厅","lon":"121.50554","lat":"31.1911","category":"183","category_name":"展览馆","address":"浦东南路3588号世博大厦1层"},{"poiid":"B2094655D36CA3FD4599","title":"规划展厅","lon":"121.50554","lat":"31.19109","category":"183","category_name":"展览馆","address":"浦东南路3588号世博大厦1层"},{"poiid":"B2094753DA6FA5FC439C","title":"世博国际影城","lon":"121.505012","lat":"31.189611","category":"178","category_name":"电影院","address":"上海市 梅赛德斯奔驰"},{"poiid":"B2094752D768A3FA4299","title":"梅赛德斯奔驰文化中心","lon":"121.499401","lat":"31.194805","category":"500","category_name":"未知分类","address":null},{"poiid":"B2094752D669A6FA429D","title":"昌里路夜市","lon":"121.502655","lat":"31.195737","category":"247","category_name":"餐饮美食","address":null},{"poiid":"B2094757D464A7F8459F","title":"CAFE  2009","lon":"121.506331054","lat":"31.192509793","category":"65","category_name":"咖啡厅","address":"浦东新区浦东南路3631号(世博大厦对面)"},{"poiid":"B2094655D36CA7FD419A","title":"华丰路","lon":"121.50477","lat":"31.18903","category":"38","category_name":"公交车站","address":""},{"poiid":"B2094655D26BA3FB449E","title":"久斯台球天地","lon":"121.50573","lat":"31.18856","category":"171","category_name":"台球厅","address":"浦东新区浦东南路3669号浦东游泳馆2楼(近东方路)"},{"poiid":"B2094757D16AA0F8419C","title":"上海建工集团","lon":"121.50479973","lat":"31.191990375","category":"500","category_name":"未知分类","address":"上海东大名路666号"},{"poiid":"B2094757D568A2FB449D","title":"上岛咖啡(世博店)","lon":"121.506687829999","lat":"31.19289686","category":"260","category_name":"其他","address":"浦东新区浦东南路3500号(近世博园区)"},{"poiid":"B2094654DA6AA3FE479D","title":"上海浦东游泳馆","lon":"121.50572","lat":"31.18856","category":"231","category_name":"游泳馆","address":"浦东新区浦东南路3669号"},{"poiid":"B2094757D06FA0F8439A","title":"宝莱纳餐厅(世博店)","lon":"121.504113332","lat":"31.1982851473","category":"260","category_name":"其他","address":"浦东新区世博大道555号1-2楼(近雪野路)"},{"poiid":"B2094757D06FA7FA4093","title":"浦东游泳馆新羽毛球馆","lon":"121.505721806","lat":"31.1885572023","category":"220","category_name":"运动场所","address":"浦东新区浦东南路3669号浦东游泳馆南门内(近沂林路)"},{"poiid":"B2094757D168AAF4469C","title":"上海世博园","lon":"121.506916","lat":"31.193412","category":"500","category_name":"未知分类","address":"中国上海"},{"poiid":"B2094757D06FA5F9429C","title":"多利萝玛(Tony Roma's)","lon":"121.5040196","lat":"31.196038751","category":"94","category_name":"西餐厅","address":"浦东新区世博村B地块雪野路1057号B9-101C室(近沂南路)"},{"poiid":"B2094757D468AAFE419C","title":"蜀府 世博店","lon":"121.50602","lat":"31.19398","category":"71","category_name":"四川菜","address":"浦东新区世博大道1200号梅赛德斯奔驰中心6楼"},{"poiid":"B2094655D26BA2F54492","title":"浦东南路华丰路","lon":"121.50691","lat":"31.19281","category":"38","category_name":"公交车站","address":""},{"poiid":"B2094757D065A0FD4493","title":"Bubba's Texas-style BBQ(世博村店)","lon":"121.504977","lat":"31.196236","category":"94","category_name":"西餐厅","address":"浦东新区雪野路240号(近沂南路)"},{"poiid":"B2094757D069A6FB4698","title":"汉庭快捷浦东南路店(原世博村店)","lon":"121.50672","lat":"31.19234","category":"217","category_name":"旅馆招待所","address":"上海浦东新区浦东南路3500号(近华丰路)  "},{"poiid":"B2094757D66CA4FE479B","title":"滨江大道-世博段","lon":"121.502270053","lat":"31.1976926018","category":"500","category_name":"未知分类","address":"上海世博大道沿江段"},{"poiid":"B2094654DA6AA3F9439C","title":"世博大厦","lon":"121.50595","lat":"31.1911","category":"46","category_name":"楼宇","address":"上海浦东南路3588号"},{"poiid":"B2094654DB65A7FA4298","title":"格林豪泰上海世博园酒店","lon":"121.50691","lat":"31.19341","category":"216","category_name":"经济型连锁酒店","address":"上海市浦东新区浦东南路3500号(近南码头路)"},{"poiid":"B2094757D16DAAF4429E","title":"仙炙轩 世博店 Ambrosia","lon":"121.504652","lat":"31.200724","category":"247","category_name":"餐饮美食","address":"浦东新区世博大道555号4楼(雪野路口)"},{"poiid":"B2094757D068ABFE4999","title":"上海世博东湖公寓酒店","lon":"121.505364591","lat":"31.1967514842","category":"217","category_name":"旅馆招待所","address":"浦东新区雪野路999号"},{"poiid":"B2094753D46CA6F4459C","title":"梅赛德斯奔驰文化中心","lon":"121.507537","lat":"31.193929","category":"500","category_name":"未知分类","address":"上海市 上海世博园"},{"poiid":"B2094750D26EA2FA4093","title":"大悦城","lon":"121.503593","lat":"31.190885","category":"500","category_name":"未知分类","address":"西藏南路曲阜路"},{"poiid":"B2094757D06FA4FB4492","title":"上海世博会事务协调局","lon":"121.50553894","lat":"31.191095352","category":"46","category_name":"楼宇","address":"上海浦东南路3588号"},{"poiid":"B2094655D26FA7FB4299","title":"港机新村","lon":"121.50813","lat":"31.191181","category":"47","category_name":"住宅区","address":"上海浦东南路东方路口"},{"poiid":"B2094757D065A5F9499F","title":"Lavazza红磡意大利餐厅","lon":"121.50086773","lat":"31.194968549","category":"500","category_name":"未知分类","address":"浦东新区世博大道690号(近白莲泾公园)"},{"poiid":"B2094757D069A3FF459A","title":"临沂公园","lon":"121.50754","lat":"31.18913","category":"196","category_name":"公园","address":"浦东新区东方路3683号(近浦东南路)"},{"poiid":"B2094654DA6AA3FE499E","title":"上海乔家栅小吃世界No.10","lon":"121.50607","lat":"31.19061","category":"68","category_name":"快餐厅","address":"浦东新区浦东南路3633号(东方路口)"},{"poiid":"B2094655D26DA7FA4993","title":"华南名苑","lon":"121.5041","lat":"31.18997","category":"47","category_name":"住宅区","address":"上海市浦东新区浦东南路3666号"},{"poiid":"B2094757D06BA3F5499A","title":"世博会L1码头","lon":"121.50177002","lat":"31.195886611","category":"500","category_name":"未知分类","address":"上海世博会L1码头"},{"poiid":"B2094751D268A6FA489A","title":"上海地产集团办公楼","lon":"121.506034","lat":"31.19392","category":"46","category_name":"楼宇","address":"浦东新区雪野路928号"},{"poiid":"B2094757D169A6F9429E","title":"Masala Art(雪野路店)","lon":"121.50549158","lat":"31.195461483","category":"102","category_name":"印度风味","address":"浦东新区世博村雪野路1057号101b(近世博大道)"},{"poiid":"B2094655D36CA3F5489A","title":"中国2010上海世博会纪念品展示厅","lon":"121.50587","lat":"31.19149","category":"183","category_name":"展览馆","address":"上海世博园区"},{"poiid":"B2094751D26BA4F4419A","title":"世博洲际酒店","lon":"121.500463","lat":"31.191658","category":"256","category_name":"外国餐厅","address":"上海市 雪野路"},{"poiid":"B2094655D265A1F9409A","title":"上海世博会参展者服务大厅","lon":"121.50435","lat":"31.1915","category":"183","category_name":"展览馆","address":"上海世博园区"},{"poiid":"B2094757D168A0FB4093","title":"世博治安派出所","lon":"121.50418573","lat":"31.192779502","category":"609","category_name":"警察局","address":"上海雪野路华丰路"},{"poiid":"B2094757D06AA6F54493","title":"世博村","lon":"121.50436693","lat":"31.197464102","category":"47","category_name":"住宅区","address":"上海浦东新区雪野路(近沂南路)"},{"poiid":"B2094757D16EA0FB469A","title":"星巴克 STARBUCKS (嘉年华店)","lon":"121.50054073","lat":"31.191624477","category":"65","category_name":"咖啡厅","address":"上海浦东新区白莲泾路(世博大道与浦东南路间，原世博园4号口)"},{"poiid":"B2094655D265ABF44899","title":"媒体注册中心","lon":"121.50519","lat":"31.19173","category":"185","category_name":"会展中心","address":"上海世博园区"},{"poiid":"B2094757D06AA3FA429C","title":"世博局","lon":"121.504454639","lat":"31.1911469003","category":"500","category_name":"未知分类","address":"上海华丰路"},{"poiid":"B2094654DA6AA3F9429D","title":"江天宾馆","lon":"121.50792","lat":"31.19542","category":"215","category_name":"三星级宾馆","address":"浦东新区浦东南路3456号(近南码头路)"},{"poiid":"B2094655D26BA4F44392","title":"媒体注册中心(南门)","lon":"121.50519","lat":"31.19156","category":"185","category_name":"会展中心","address":"上海世博园区"},{"poiid":"B2094655D36CA7FD419B","title":"华丰路临沂路","lon":"121.50745","lat":"31.19218","category":"38","category_name":"公交车站","address":"上海市浦东新区华丰路"},{"poiid":"B2094655D26BA2F4499D","title":"浦三路","lon":"121.50555","lat":"31.1904","category":"38","category_name":"公交车站","address":""},{"poiid":"B2094757D168A7FF439B","title":"上海市浦东新区土地储备中心","lon":"121.50522073","lat":"31.190175447","category":"46","category_name":"楼宇","address":"上海市浦东新区浦东南路3618号"},{"poiid":"B2094655D265A6FC499E","title":"世博治安派出所","lon":"121.50415","lat":"31.19282","category":"609","category_name":"警察局","address":"雪野路853"},{"poiid":"B2094655D26BA6FA479E","title":"上海世博东湖公寓酒店(北门)","lon":"121.50502","lat":"31.19576","category":"656","category_name":"大门","address":"上海市浦东新区雪野路999号（近世博大道）"},{"poiid":"B2094655D26BA4F4439D","title":"纪念品展示厅","lon":"121.50554","lat":"31.1911","category":"183","category_name":"展览馆","address":"浦东南路3588号世博大厦1层"},{"poiid":"B2094655D36CA3FD4599","title":"规划展厅","lon":"121.50554","lat":"31.19109","category":"183","category_name":"展览馆","address":"浦东南路3588号世博大厦1层"},{"poiid":"B2094753DA6FA5FC439C","title":"世博国际影城","lon":"121.505012","lat":"31.189611","category":"178","category_name":"电影院","address":"上海市 梅赛德斯奔驰"},{"poiid":"B2094752D768A3FA4299","title":"梅赛德斯奔驰文化中心","lon":"121.499401","lat":"31.194805","category":"500","category_name":"未知分类","address":null},{"poiid":"B2094752D669A6FA429D","title":"昌里路夜市","lon":"121.502655","lat":"31.195737","category":"247","category_name":"餐饮美食","address":null},{"poiid":"B2094757D464A7F8459F","title":"CAFE  2009","lon":"121.506331054","lat":"31.192509793","category":"65","category_name":"咖啡厅","address":"浦东新区浦东南路3631号(世博大厦对面)"},{"poiid":"B2094655D36CA7FD419A","title":"华丰路","lon":"121.50477","lat":"31.18903","category":"38","category_name":"公交车站","address":""},{"poiid":"B2094655D26BA3FB449E","title":"久斯台球天地","lon":"121.50573","lat":"31.18856","category":"171","category_name":"台球厅","address":"浦东新区浦东南路3669号浦东游泳馆2楼(近东方路)"},{"poiid":"B2094757D16AA0F8419C","title":"上海建工集团","lon":"121.50479973","lat":"31.191990375","category":"500","category_name":"未知分类","address":"上海东大名路666号"},{"poiid":"B2094757D568A2FB449D","title":"上岛咖啡(世博店)","lon":"121.506687829999","lat":"31.19289686","category":"260","category_name":"其他","address":"浦东新区浦东南路3500号(近世博园区)"},{"poiid":"B2094654DA6AA3FE479D","title":"上海浦东游泳馆","lon":"121.50572","lat":"31.18856","category":"231","category_name":"游泳馆","address":"浦东新区浦东南路3669号"},{"poiid":"B2094757D06FA0F8439A","title":"宝莱纳餐厅(世博店)","lon":"121.504113332","lat":"31.1982851473","category":"260","category_name":"其他","address":"浦东新区世博大道555号1-2楼(近雪野路)"},{"poiid":"B2094757D06FA7FA4093","title":"浦东游泳馆新羽毛球馆","lon":"121.505721806","lat":"31.1885572023","category":"220","category_name":"运动场所","address":"浦东新区浦东南路3669号浦东游泳馆南门内(近沂林路)"},{"poiid":"B2094757D168AAF4469C","title":"上海世博园","lon":"121.506916","lat":"31.193412","category":"500","category_name":"未知分类","address":"中国上海"},{"poiid":"B2094757D06FA5F9429C","title":"多利萝玛(Tony Roma's)","lon":"121.5040196","lat":"31.196038751","category":"94","category_name":"西餐厅","address":"浦东新区世博村B地块雪野路1057号B9-101C室(近沂南路)"},{"poiid":"B2094757D468AAFE419C","title":"蜀府 世博店","lon":"121.50602","lat":"31.19398","category":"71","category_name":"四川菜","address":"浦东新区世博大道1200号梅赛德斯奔驰中心6楼"},{"poiid":"B2094655D26BA2F54492","title":"浦东南路华丰路","lon":"121.50691","lat":"31.19281","category":"38","category_name":"公交车站","address":""},{"poiid":"B2094757D065A0FD4493","title":"Bubba's Texas-style BBQ(世博村店)","lon":"121.504977","lat":"31.196236","category":"94","category_name":"西餐厅","address":"浦东新区雪野路240号(近沂南路)"},{"poiid":"B2094757D069A6FB4698","title":"汉庭快捷浦东南路店(原世博村店)","lon":"121.50672","lat":"31.19234","category":"217","category_name":"旅馆招待所","address":"上海浦东新区浦东南路3500号(近华丰路)  "},{"poiid":"B2094757D66CA4FE479B","title":"滨江大道-世博段","lon":"121.502270053","lat":"31.1976926018","category":"500","category_name":"未知分类","address":"上海世博大道沿江段"},{"poiid":"B2094654DA6AA3F9439C","title":"世博大厦","lon":"121.50595","lat":"31.1911","category":"46","category_name":"楼宇","address":"上海浦东南路3588号"},{"poiid":"B2094654DB65A7FA4298","title":"格林豪泰上海世博园酒店","lon":"121.50691","lat":"31.19341","category":"216","category_name":"经济型连锁酒店","address":"上海市浦东新区浦东南路3500号(近南码头路)"},{"poiid":"B2094757D16DAAF4429E","title":"仙炙轩 世博店 Ambrosia","lon":"121.504652","lat":"31.200724","category":"247","category_name":"餐饮美食","address":"浦东新区世博大道555号4楼(雪野路口)"},{"poiid":"B2094757D068ABFE4999","title":"上海世博东湖公寓酒店","lon":"121.505364591","lat":"31.1967514842","category":"217","category_name":"旅馆招待所","address":"浦东新区雪野路999号"},{"poiid":"B2094753D46CA6F4459C","title":"梅赛德斯奔驰文化中心","lon":"121.507537","lat":"31.193929","category":"500","category_name":"未知分类","address":"上海市 上海世博园"},{"poiid":"B2094750D26EA2FA4093","title":"大悦城","lon":"121.503593","lat":"31.190885","category":"500","category_name":"未知分类","address":"西藏南路曲阜路"},{"poiid":"B2094757D06FA4FB4492","title":"上海世博会事务协调局","lon":"121.50553894","lat":"31.191095352","category":"46","category_name":"楼宇","address":"上海浦东南路3588号"},{"poiid":"B2094655D26FA7FB4299","title":"港机新村","lon":"121.50813","lat":"31.191181","category":"47","category_name":"住宅区","address":"上海浦东南路东方路口"},{"poiid":"B2094757D065A5F9499F","title":"Lavazza红磡意大利餐厅","lon":"121.50086773","lat":"31.194968549","category":"500","category_name":"未知分类","address":"浦东新区世博大道690号(近白莲泾公园)"},{"poiid":"B2094757D069A3FF459A","title":"临沂公园","lon":"121.50754","lat":"31.18913","category":"196","category_name":"公园","address":"浦东新区东方路3683号(近浦东南路)"},{"poiid":"B2094654DA6AA3FE499E","title":"上海乔家栅小吃世界No.10","lon":"121.50607","lat":"31.19061","category":"68","category_name":"快餐厅","address":"浦东新区浦东南路3633号(东方路口)"},{"poiid":"B2094655D26DA7FA4993","title":"华南名苑","lon":"121.5041","lat":"31.18997","category":"47","category_name":"住宅区","address":"上海市浦东新区浦东南路3666号"},{"poiid":"B2094757D06BA3F5499A","title":"世博会L1码头","lon":"121.50177002","lat":"31.195886611","category":"500","category_name":"未知分类","address":"上海世博会L1码头"},{"poiid":"B2094751D268A6FA489A","title":"上海地产集团办公楼","lon":"121.506034","lat":"31.19392","category":"46","category_name":"楼宇","address":"浦东新区雪野路928号"},{"poiid":"B2094757D169A6F9429E","title":"Masala Art(雪野路店)","lon":"121.50549158","lat":"31.195461483","category":"102","category_name":"印度风味","address":"浦东新区世博村雪野路1057号101b(近世博大道)"},{"poiid":"B2094655D36CA3F5489A","title":"中国2010上海世博会纪念品展示厅","lon":"121.50587","lat":"31.19149","category":"183","category_name":"展览馆","address":"上海世博园区"},{"poiid":"B2094751D26BA4F4419A","title":"世博洲际酒店","lon":"121.500463","lat":"31.191658","category":"256","category_name":"外国餐厅","address":"上海市 雪野路"},{"poiid":"B2094655D265A1F9409A","title":"上海世博会参展者服务大厅","lon":"121.50435","lat":"31.1915","category":"183","category_name":"展览馆","address":"上海世博园区"},{"poiid":"B2094757D168A0FB4093","title":"世博治安派出所","lon":"121.50418573","lat":"31.192779502","category":"609","category_name":"警察局","address":"上海雪野路华丰路"},{"poiid":"B2094757D06AA6F54493","title":"世博村","lon":"121.50436693","lat":"31.197464102","category":"47","category_name":"住宅区","address":"上海浦东新区雪野路(近沂南路)"},{"poiid":"B2094757D16EA0FB469A","title":"星巴克 STARBUCKS (嘉年华店)","lon":"121.50054073","lat":"31.191624477","category":"65","category_name":"咖啡厅","address":"上海浦东新区白莲泾路(世博大道与浦东南路间，原世博园4号口)"},{"poiid":"B2094655D265ABF44899","title":"媒体注册中心","lon":"121.50519","lat":"31.19173","category":"185","category_name":"会展中心","address":"上海世博园区"},{"poiid":"B2094757D06AA3FA429C","title":"世博局","lon":"121.504454639","lat":"31.1911469003","category":"500","category_name":"未知分类","address":"上海华丰路"},{"poiid":"B2094654DA6AA3F9429D","title":"江天宾馆","lon":"121.50792","lat":"31.19542","category":"215","category_name":"三星级宾馆","address":"浦东新区浦东南路3456号(近南码头路)"},{"poiid":"B2094655D26BA4F44392","title":"媒体注册中心(南门)","lon":"121.50519","lat":"31.19156","category":"185","category_name":"会展中心","address":"上海世博园区"},{"poiid":"B2094655D36CA7FD419B","title":"华丰路临沂路","lon":"121.50745","lat":"31.19218","category":"38","category_name":"公交车站","address":"上海市浦东新区华丰路"},{"poiid":"B2094655D26BA2F4499D","title":"浦三路","lon":"121.50555","lat":"31.1904","category":"38","category_name":"公交车站","address":""},{"poiid":"B2094757D168A7FF439B","title":"上海市浦东新区土地储备中心","lon":"121.50522073","lat":"31.190175447","category":"46","category_name":"楼宇","address":"上海市浦东新区浦东南路3618号"},{"poiid":"B2094655D265A6FC499E","title":"世博治安派出所","lon":"121.50415","lat":"31.19282","category":"609","category_name":"警察局","address":"雪野路853"},{"poiid":"B2094655D26BA6FA479E","title":"上海世博东湖公寓酒店(北门)","lon":"121.50502","lat":"31.19576","category":"656","category_name":"大门","address":"上海市浦东新区雪野路999号（近世博大道）"},{"poiid":"B2094655D26BA4F4439D","title":"纪念品展示厅","lon":"121.50554","lat":"31.1911","category":"183","category_name":"展览馆","address":"浦东南路3588号世博大厦1层"},{"poiid":"B2094655D36CA3FD4599","title":"规划展厅","lon":"121.50554","lat":"31.19109","category":"183","category_name":"展览馆","address":"浦东南路3588号世博大厦1层"},{"poiid":"B2094753DA6FA5FC439C","title":"世博国际影城","lon":"121.505012","lat":"31.189611","category":"178","category_name":"电影院","address":"上海市 梅赛德斯奔驰"},{"poiid":"B2094752D768A3FA4299","title":"梅赛德斯奔驰文化中心","lon":"121.499401","lat":"31.194805","category":"500","category_name":"未知分类","address":null},{"poiid":"B2094752D669A6FA429D","title":"昌里路夜市","lon":"121.502655","lat":"31.195737","category":"247","category_name":"餐饮美食","address":null},{"poiid":"B2094757D464A7F8459F","title":"CAFE  2009","lon":"121.506331054","lat":"31.192509793","category":"65","category_name":"咖啡厅","address":"浦东新区浦东南路3631号(世博大厦对面)"},{"poiid":"B2094655D36CA7FD419A","title":"华丰路","lon":"121.50477","lat":"31.18903","category":"38","category_name":"公交车站","address":""},{"poiid":"B2094655D26BA3FB449E","title":"久斯台球天地","lon":"121.50573","lat":"31.18856","category":"171","category_name":"台球厅","address":"浦东新区浦东南路3669号浦东游泳馆2楼(近东方路)"},{"poiid":"B2094757D16AA0F8419C","title":"上海建工集团","lon":"121.50479973","lat":"31.191990375","category":"500","category_name":"未知分类","address":"上海东大名路666号"},{"poiid":"B2094757D568A2FB449D","title":"上岛咖啡(世博店)","lon":"121.506687829999","lat":"31.19289686","category":"260","category_name":"其他","address":"浦东新区浦东南路3500号(近世博园区)"},{"poiid":"B2094654DA6AA3FE479D","title":"上海浦东游泳馆","lon":"121.50572","lat":"31.18856","category":"231","category_name":"游泳馆","address":"浦东新区浦东南路3669号"},{"poiid":"B2094757D06FA0F8439A","title":"宝莱纳餐厅(世博店)","lon":"121.504113332","lat":"31.1982851473","category":"260","category_name":"其他","address":"浦东新区世博大道555号1-2楼(近雪野路)"},{"poiid":"B2094757D06FA7FA4093","title":"浦东游泳馆新羽毛球馆","lon":"121.505721806","lat":"31.1885572023","category":"220","category_name":"运动场所","address":"浦东新区浦东南路3669号浦东游泳馆南门内(近沂林路)"},{"poiid":"B2094757D168AAF4469C","title":"上海世博园","lon":"121.506916","lat":"31.193412","category":"500","category_name":"未知分类","address":"中国上海"},{"poiid":"B2094757D06FA5F9429C","title":"多利萝玛(Tony Roma's)","lon":"121.5040196","lat":"31.196038751","category":"94","category_name":"西餐厅","address":"浦东新区世博村B地块雪野路1057号B9-101C室(近沂南路)"},{"poiid":"B2094757D468AAFE419C","title":"蜀府 世博店","lon":"121.50602","lat":"31.19398","category":"71","category_name":"四川菜","address":"浦东新区世博大道1200号梅赛德斯奔驰中心6楼"},{"poiid":"B2094655D26BA2F54492","title":"浦东南路华丰路","lon":"121.50691","lat":"31.19281","category":"38","category_name":"公交车站","address":""},{"poiid":"B2094757D065A0FD4493","title":"Bubba's Texas-style BBQ(世博村店)","lon":"121.504977","lat":"31.196236","category":"94","category_name":"西餐厅","address":"浦东新区雪野路240号(近沂南路)"},{"poiid":"B2094757D069A6FB4698","title":"汉庭快捷浦东南路店(原世博村店)","lon":"121.50672","lat":"31.19234","category":"217","category_name":"旅馆招待所","address":"上海浦东新区浦东南路3500号(近华丰路)  "},{"poiid":"B2094757D66CA4FE479B","title":"滨江大道-世博段","lon":"121.502270053","lat":"31.1976926018","category":"500","category_name":"未知分类","address":"上海世博大道沿江段"},{"poiid":"B2094654DA6AA3F9439C","title":"世博大厦","lon":"121.50595","lat":"31.1911","category":"46","category_name":"楼宇","address":"上海浦东南路3588号"},{"poiid":"B2094654DB65A7FA4298","title":"格林豪泰上海世博园酒店","lon":"121.50691","lat":"31.19341","category":"216","category_name":"经济型连锁酒店","address":"上海市浦东新区浦东南路3500号(近南码头路)"},{"poiid":"B2094757D16DAAF4429E","title":"仙炙轩 世博店 Ambrosia","lon":"121.504652","lat":"31.200724","category":"247","category_name":"餐饮美食","address":"浦东新区世博大道555号4楼(雪野路口)"},{"poiid":"B2094757D068ABFE4999","title":"上海世博东湖公寓酒店","lon":"121.505364591","lat":"31.1967514842","category":"217","category_name":"旅馆招待所","address":"浦东新区雪野路999号"},{"poiid":"B2094753D46CA6F4459C","title":"梅赛德斯奔驰文化中心","lon":"121.507537","lat":"31.193929","category":"500","category_name":"未知分类","address":"上海市 上海世博园"},{"poiid":"B2094750D26EA2FA4093","title":"大悦城","lon":"121.503593","lat":"31.190885","category":"500","category_name":"未知分类","address":"西藏南路曲阜路"},{"poiid":"B2094757D06FA4FB4492","title":"上海世博会事务协调局","lon":"121.50553894","lat":"31.191095352","category":"46","category_name":"楼宇","address":"上海浦东南路3588号"},{"poiid":"B2094655D26FA7FB4299","title":"港机新村","lon":"121.50813","lat":"31.191181","category":"47","category_name":"住宅区","address":"上海浦东南路东方路口"},{"poiid":"B2094757D065A5F9499F","title":"Lavazza红磡意大利餐厅","lon":"121.50086773","lat":"31.194968549","category":"500","category_name":"未知分类","address":"浦东新区世博大道690号(近白莲泾公园)"},{"poiid":"B2094757D069A3FF459A","title":"临沂公园","lon":"121.50754","lat":"31.18913","category":"196","category_name":"公园","address":"浦东新区东方路3683号(近浦东南路)"},{"poiid":"B2094654DA6AA3FE499E","title":"上海乔家栅小吃世界No.10","lon":"121.50607","lat":"31.19061","category":"68","category_name":"快餐厅","address":"浦东新区浦东南路3633号(东方路口)"},{"poiid":"B2094655D26DA7FA4993","title":"华南名苑","lon":"121.5041","lat":"31.18997","category":"47","category_name":"住宅区","address":"上海市浦东新区浦东南路3666号"},{"poiid":"B2094757D06BA3F5499A","title":"世博会L1码头","lon":"121.50177002","lat":"31.195886611","category":"500","category_name":"未知分类","address":"上海世博会L1码头"},{"poiid":"B2094751D268A6FA489A","title":"上海地产集团办公楼","lon":"121.506034","lat":"31.19392","category":"46","category_name":"楼宇","address":"浦东新区雪野路928号"},{"poiid":"B2094757D169A6F9429E","title":"Masala Art(雪野路店)","lon":"121.50549158","lat":"31.195461483","category":"102","category_name":"印度风味","address":"浦东新区世博村雪野路1057号101b(近世博大道)"},{"poiid":"B2094655D36CA3F5489A","title":"中国2010上海世博会纪念品展示厅","lon":"121.50587","lat":"31.19149","category":"183","category_name":"展览馆","address":"上海世博园区"},{"poiid":"B2094751D26BA4F4419A","title":"世博洲际酒店","lon":"121.500463","lat":"31.191658","category":"256","category_name":"外国餐厅","address":"上海市 雪野路"},{"poiid":"B2094655D265A1F9409A","title":"上海世博会参展者服务大厅","lon":"121.50435","lat":"31.1915","category":"183","category_name":"展览馆","address":"上海世博园区"},{"poiid":"B2094757D168A0FB4093","title":"世博治安派出所","lon":"121.50418573","lat":"31.192779502","category":"609","category_name":"警察局","address":"上海雪野路华丰路"},{"poiid":"B2094757D06AA6F54493","title":"世博村","lon":"121.50436693","lat":"31.197464102","category":"47","category_name":"住宅区","address":"上海浦东新区雪野路(近沂南路)"},{"poiid":"B2094757D16EA0FB469A","title":"星巴克 STARBUCKS (嘉年华店)","lon":"121.50054073","lat":"31.191624477","category":"65","category_name":"咖啡厅","address":"上海浦东新区白莲泾路(世博大道与浦东南路间，原世博园4号口)"},{"poiid":"B2094655D265ABF44899","title":"媒体注册中心","lon":"121.50519","lat":"31.19173","category":"185","category_name":"会展中心","address":"上海世博园区"},{"poiid":"B2094757D06AA3FA429C","title":"世博局","lon":"121.504454639","lat":"31.1911469003","category":"500","category_name":"未知分类","address":"上海华丰路"},{"poiid":"B2094654DA6AA3F9429D","title":"江天宾馆","lon":"121.50792","lat":"31.19542","category":"215","category_name":"三星级宾馆","address":"浦东新区浦东南路3456号(近南码头路)"},{"poiid":"B2094655D26BA4F44392","title":"媒体注册中心(南门)","lon":"121.50519","lat":"31.19156","category":"185","category_name":"会展中心","address":"上海世博园区"},{"poiid":"B2094655D36CA7FD419B","title":"华丰路临沂路","lon":"121.50745","lat":"31.19218","category":"38","category_name":"公交车站","address":"上海市浦东新区华丰路"},{"poiid":"B2094655D26BA2F4499D","title":"浦三路","lon":"121.50555","lat":"31.1904","category":"38","category_name":"公交车站","address":""},{"poiid":"B2094757D168A7FF439B","title":"上海市浦东新区土地储备中心","lon":"121.50522073","lat":"31.190175447","category":"46","category_name":"楼宇","address":"上海市浦东新区浦东南路3618号"},{"poiid":"B2094655D265A6FC499E","title":"世博治安派出所","lon":"121.50415","lat":"31.19282","category":"609","category_name":"警察局","address":"雪野路853"},{"poiid":"B2094655D26BA6FA479E","title":"上海世博东湖公寓酒店(北门)","lon":"121.50502","lat":"31.19576","category":"656","category_name":"大门","address":"上海市浦东新区雪野路999号（近世博大道）"},{"poiid":"B2094655D26BA4F4439D","title":"纪念品展示厅","lon":"121.50554","lat":"31.1911","category":"183","category_name":"展览馆","address":"浦东南路3588号世博大厦1层"},{"poiid":"B2094655D36CA3FD4599","title":"规划展厅","lon":"121.50554","lat":"31.19109","category":"183","category_name":"展览馆","address":"浦东南路3588号世博大厦1层"},{"poiid":"B2094753DA6FA5FC439C","title":"世博国际影城","lon":"121.505012","lat":"31.189611","category":"178","category_name":"电影院","address":"上海市 梅赛德斯奔驰"},{"poiid":"B2094752D768A3FA4299","title":"梅赛德斯奔驰文化中心","lon":"121.499401","lat":"31.194805","category":"500","category_name":"未知分类","address":null},{"poiid":"B2094752D669A6FA429D","title":"昌里路夜市","lon":"121.502655","lat":"31.195737","category":"247","category_name":"餐饮美食","address":null},{"poiid":"B2094757D464A7F8459F","title":"CAFE  2009","lon":"121.506331054","lat":"31.192509793","category":"65","category_name":"咖啡厅","address":"浦东新区浦东南路3631号(世博大厦对面)"},{"poiid":"B2094655D36CA7FD419A","title":"华丰路","lon":"121.50477","lat":"31.18903","category":"38","category_name":"公交车站","address":""},{"poiid":"B2094655D26BA3FB449E","title":"久斯台球天地","lon":"121.50573","lat":"31.18856","category":"171","category_name":"台球厅","address":"浦东新区浦东南路3669号浦东游泳馆2楼(近东方路)"},{"poiid":"B2094757D16AA0F8419C","title":"上海建工集团","lon":"121.50479973","lat":"31.191990375","category":"500","category_name":"未知分类","address":"上海东大名路666号"},{"poiid":"B2094757D568A2FB449D","title":"上岛咖啡(世博店)","lon":"121.506687829999","lat":"31.19289686","category":"260","category_name":"其他","address":"浦东新区浦东南路3500号(近世博园区)"}]