[{"poiid":"B2094757D06EAAFB499C","title":"上海火车站地铁站","lon":"121.45871681","lat":"31.249312371","category":"36","category_name":"地铁站","address":"上海轨道交通 一号线 三号线 四号线 轨交上海火车站站 轻轨 1 3 4"},{"poiid":"B2094757D06EAAFE4398","title":"上海歌城(中兴路店)","lon":"121.46375","lat":"31.25196","category":"170","category_name":"KTV","address":"闸北区中兴路1233号中兴财富广场1幢1-2号(近共和新路)"},{"poiid":"B2094757D06EAAFC489B","title":"嘉里不夜城","lon":"121.463","lat":"31.2514","category":"500","category_name":"未知分类","address":"上海市松江区涞坊路599弄"},{"poiid":"B209475CD564A7F8439E","title":"上海滩中信泰富店","lon":"121.45602","lat":"31.22851","category":"119","category_name":"商场","address":"\"南京西路1168号中信泰富广场，店铺号221.\r\n\""},{"poiid":"B2094757D06FA1F84099","title":"城上城","lon":"121.46487666","lat":"31.249323921","category":"47","category_name":"住宅区","address":"上海闸北区虬江路1488弄"},{"poiid":"B2094757D06AA0FC4499","title":"南北高架","lon":"121.46357196","lat":"31.250989706","category":"500","category_name":"未知分类","address":"上海天目西路至中环"},{"poiid":"B2094757D068A2FD469B","title":"共和新路中兴路","lon":"121.463348","lat":"31.251093","category":"500","category_name":"未知分类","address":"上海共和新路中兴路"},{"poiid":"B2094757D06FA4F5409E","title":"一天下大厦","lon":"121.464","lat":"31.2469","category":"46","category_name":"楼宇","address":"行宫位于沈河北站一路41号"},{"poiid":"B2094757DB6FAAFF469B","title":"大悦城","lon":"121.46284","lat":"31.244596","category":"500","category_name":"未知分类","address":"曲阜路"},{"poiid":"B2094757D069A2F84792","title":"闸北区区政府","lon":"121.459831738","lat":"31.246925656","category":"500","category_name":"未知分类","address":"上海市闸北区秣陵路"},{"poiid":"B2094757D06AA0FB439C","title":"闸北区出入境管理局","lon":"121.462799","lat":"31.248908","category":"500","category_name":"未知分类","address":"上海天目中路578号"},{"poiid":"B2094757D06FAAFA419E","title":"汉中广场","lon":"121.465","lat":"31.2486","category":"500","category_name":"未知分类","address":"上海市四川北路1851号"},{"poiid":"B2094655D268A7FF489A","title":"中土大厦","lon":"121.463746","lat":"31.250478","category":"46","category_name":"楼宇","address":"上海市闸北区共和新路666号"},{"poiid":"B2094757D06FA4F9429C","title":"青年餐厅(火车站店)","lon":"121.46552","lat":"31.25192","category":"71","category_name":"四川菜","address":"闸北区中兴路1122号2楼(近共和新路)"},{"poiid":"B2094757D168A5FB439F","title":"上海火车站6号候车室","lon":"121.463178","lat":"31.251041","category":"22","category_name":"火车站","address":"闸北区上海火车站"},{"poiid":"B2094654DB64A6FB419B","title":"如家快捷酒店(上海火车站南广场店)","lon":"121.4616","lat":"31.2476","category":"216","category_name":"经济型连锁酒店","address":"闸北区天目中路749弄57号蕃瓜弄内(近大统路)"},{"poiid":"B2094757D068A2FA449E","title":"静安现代产业大厦","lon":"121.46","lat":"31.2453","category":"46","category_name":"楼宇","address":"闸北区江场西路38号(近共和新路)"},{"poiid":"B2094654D464A2FD4593","title":"宝丰大厦","lon":"121.46269","lat":"31.24882","category":"46","category_name":"楼宇","address":"石景山区阜石路与杨庄东街交叉口西北角"},{"poiid":"B2094750DB6DABFE469A","title":"小天鹅火锅","lon":"121.464471","lat":"31.248126","category":"247","category_name":"餐饮美食","address":"黄浦区南京路2-88号新世界城4楼"},{"poiid":"B2094655D26AA0F9409C","title":"地铁上海火车站站","lon":"121.45874","lat":"31.24933","category":"36","category_name":"地铁站","address":""},{"poiid":"B2094757D16CA7F9449D","title":"轨交4号线 宝山路","lon":"121.461099103","lat":"31.2486559675","category":"500","category_name":"未知分类","address":"上海市闸北区沈家宅路"},{"poiid":"B2094654D56CA2FA409E","title":"沙湾小镇茶餐厅","lon":"121.46447","lat":"31.24968","category":"72","category_name":"广东菜","address":"闸北区虬江路1504号城上城(近共和新路)"},{"poiid":"B2094757D064A5FB439F","title":"天目中路立交","lon":"121.462453468","lat":"31.2451751427","category":"260","category_name":"其他","address":"上海天目中路(近共和新路)"},{"poiid":"B2094757D16EA2FD4799","title":"上海市闸北区民政局","lon":"121.462092738","lat":"31.2474086663","category":"500","category_name":"未知分类","address":"上海市闸北区天目中路749弄71号2楼"},{"poiid":"B2094757D069A6FF4093","title":"贵州苗家酸汤鱼馆 中兴路店","lon":"121.463040054","lat":"31.252511793","category":"83","category_name":"云贵菜","address":"闸北区中兴路1233号中兴财富广场内(近共和新路)"},{"poiid":"B2094654DA6CABFE4493","title":"康吉大厦","lon":"121.462","lat":"31.2518","category":"46","category_name":"楼宇","address":"天目西路290号"},{"poiid":"B2094654D464A2FD4592","title":"上海金卡礼品展示厅","lon":"121.46276","lat":"31.24882","category":"183","category_name":"展览馆","address":"京江路299号宝丰大厦15层1504"},{"poiid":"B2094654D464A2FD469B","title":"凯成苑","lon":"121.46245","lat":"31.248213","category":"47","category_name":"住宅区","address":"共和新路318弄"},{"poiid":"B2094757D06BA6FD489A","title":"金光大道大酒家(中兴路店)","lon":"121.46483","lat":"31.25215","category":"76","category_name":"上海菜","address":"闸北区中兴路1111号(近共和新路)"},{"poiid":"B2094757D66DA2FA4092","title":"O  Hair Salon","lon":"121.463479103","lat":"31.2503690033","category":"500","category_name":"未知分类","address":"上海市闸北区虬江路1452号"},{"poiid":"B2094757D06AA5FE439A","title":"婚姻登记处(闸北区登记处)","lon":"121.46109311","lat":"31.245933452","category":"46","category_name":"楼宇","address":"闸北区天目中路749弄71号二楼(近大统路)查看地图"},{"poiid":"B2094655D268ABFD489C","title":"时代欧洲公寓","lon":"121.46269272439","lat":"31.248422406134","category":"47","category_name":"住宅区","address":"徐家汇花园二期位于徐汇宛平南路233弄"},{"poiid":"B2094750D66DA6FD4792","title":"和源中环企业广场","lon":"121.463673","lat":"31.250031","category":"46","category_name":"楼宇","address":"闸北区共和新路2993号"},{"poiid":"B2094655D26CAAFD409B","title":"卓悦居","lon":"121.463","lat":"31.2516","category":"47","category_name":"住宅区","address":"民立路289弄"},{"poiid":"B2094757D16DA2FD4299","title":"交警总队","lon":"121.463013103","lat":"31.2494749846","category":"500","category_name":"未知分类","address":"上海太阳山路38号"},{"poiid":"B2094757D16AA2FB459B","title":"富泉公寓","lon":"121.46204","lat":"31.249096","category":"252","category_name":"楼宇机构","address":"上海太阳山路78弄1号"},{"poiid":"B2094655D265AAFB4698","title":"鸿昌兴苏州面馆","lon":"121.4641","lat":"31.24979","category":"68","category_name":"快餐厅","address":"闸北区虬江路1518号(近共和新路)"},{"poiid":"B2094757D66CA3FF429E","title":"KFC 火车站北广场店","lon":"121.4632851","lat":"31.250672009","category":"68","category_name":"快餐厅","address":"上海市闸北区大统路"},{"poiid":"B2094655D26FA7FD449B","title":"凯成苑(东门)","lon":"121.46265","lat":"31.24831","category":"47","category_name":"住宅区","address":"共和新路318弄"},{"poiid":"B2094757D66FA7F54998","title":"闸北区","lon":"121.459768047","lat":"31.2471038779","category":"250","category_name":"公园户外","address":"上海闸北区区域"},{"poiid":"B2094654D564AAF94793","title":"蕃瓜弄(天目中路)","lon":"121.46129","lat":"31.24651","category":"47","category_name":"住宅区","address":"天目中路749弄2-72号"},{"poiid":"B2094655D26FA2FD409E","title":"如家酒店(火车站二店)","lon":"121.46318","lat":"31.25103","category":"216","category_name":"经济型连锁酒店","address":"闸北区共和新路452号"},{"poiid":"B2094757D66DA1FA449B","title":"都市宜家","lon":"121.46269","lat":"31.248819","category":"249","category_name":"购物服务","address":"上海虹梅南路1661弄"},{"poiid":"B2094654DB69A0F5409C","title":"蕃瓜弄小学","lon":"121.46076","lat":"31.24762","category":"56","category_name":"小学","address":"闸北区天目中路749弄55号(近大统路)"},{"poiid":"B2094757D065AAF84499","title":"阿湾楼","lon":"121.46389","lat":"31.24839","category":"260","category_name":"其他","address":"上海闸北区京江路229-231号(共和新路)  "},{"poiid":"B2094654DB69AAF8499F","title":"湘土人家","lon":"121.464169054","lat":"31.250009793","category":"77","category_name":"湖南菜","address":"闸北区虬江路1500号(近共和新路)"},{"poiid":"B2094757D66BA4FC409C","title":"大家乐港式茶餐厅","lon":"121.463040054","lat":"31.252511793","category":"257","category_name":"中餐厅","address":"共和新路570号中兴财富休闲广场内近中兴路"},{"poiid":"B2094655D26EA5FD459B","title":"亚繁风尚商务酒店(上海中兴路店)","lon":"121.46503","lat":"31.25213","category":"250","category_name":"公园户外","address":"上海市闸北区中兴路1122号（近共和新路）"},{"poiid":"B2094654D56CA2F4479F","title":"界点桌球俱乐部","lon":"121.46422","lat":"31.2503","category":"171","category_name":"台球厅","address":"凯鹏大厦4层"},{"poiid":"B2094654D56CA2F94998","title":"京江商业街","lon":"121.46443","lat":"31.24856","category":"116","category_name":"特色商业街","address":""},{"poiid":"B2094757D06EAAFB499C","title":"上海火车站地铁站","lon":"121.45871681","lat":"31.249312371","category":"36","category_name":"地铁站","address":"上海轨道交通 一号线 三号线 四号线 轨交上海火车站站 轻轨 1 3 4"},{"poiid":"B2094757D06EAAFE4398","title":"上海歌城(中兴路店)","lon":"121.46375","lat":"31.25196","category":"170","category_name":"KTV","address":"闸北区中兴路1233号中兴财富广场1幢1-2号(近共和新路)"},{"poiid":"B2094757D06EAAFC489B","title":"嘉里不夜城","lon":"121.463","lat":"31.2514","category":"500","category_name":"未知分类","address":"上海市松江区涞坊路599弄"},{"poiid":"B209475CD564A7F8439E","title":"上海滩中信泰富店","lon":"121.45602","lat":"31.22851","category":"119","category_name":"商场","address":"\"南京西路1168号中信泰富广场，店铺号221.\r\n\""},{"poiid":"B2094757D06FA1F84099","title":"城上城","lon":"121.46487666","lat":"31.249323921","category":"47","category_name":"住宅区","address":"上海闸北区虬江路1488弄"},{"poiid":"B2094757D06AA0FC4499","title":"南北高架","lon":"121.46357196","lat":"31.250989706","category":"500","category_name":"未知分类","address":"上海天目西路至中环"},{"poiid":"B2094757D068A2FD469B","title":"共和新路中兴路","lon":"121.463348","lat":"31.251093","category":"500","category_name":"未知分类","address":"上海共和新路中兴路"},{"poiid":"B2094757D06FA4F5409E","title":"一天下大厦","lon":"121.464","lat":"31.2469","category":"46","category_name":"楼宇","address":"行宫位于沈河北站一路41号"},{"poiid":"B2094757DB6FAAFF469B","title":"大悦城","lon":"121.46284","lat":"31.244596","category":"500","category_name":"未知分类","address":"曲阜路"},{"poiid":"B2094757D069A2F84792","title":"闸北区区政府","lon":"121.459831738","lat":"31.246925656","category":"500","category_name":"未知分类","address":"上海市闸北区秣陵路"},{"poiid":"B2094757D06AA0FB439C","title":"闸北区出入境管理局","lon":"121.462799","lat":"31.248908","category":"500","category_name":"未知分类","address":"上海天目中路578号"},{"poiid":"B2094757D06FAAFA419E","title":"汉中广场","lon":"121.465","lat":"31.2486","category":"500","category_name":"未知分类","address":"上海市四川北路1851号"},{"poiid":"B2094655D268A7FF489A","title":"中土大厦","lon":"121.463746","lat":"31.250478","category":"46","category_name":"楼宇","address":"上海市闸北区共和新路666号"},{"poiid":"B2094757D06FA4F9429C","title":"青年餐厅(火车站店)","lon":"121.46552","lat":"31.25192","category":"71","category_name":"四川菜","address":"闸北区中兴路1122号2楼(近共和新路)"},{"poiid":"B2094757D168A5FB439F","title":"上海火车站6号候车室","lon":"121.463178","lat":"31.251041","category":"22","category_name":"火车站","address":"闸北区上海火车站"},{"poiid":"B2094654DB64A6FB419B","title":"如家快捷酒店(上海火车站南广场店)","lon":"121.4616","lat":"31.2476","category":"216","category_name":"经济型连锁酒店","address":"闸北区天目中路749弄57号蕃瓜弄内(近大统路)"},{"poiid":"B2094757D068A2FA449E","title":"静安现代产业大厦","lon":"121.46","lat":"31.2453","category":"46","category_name":"楼宇","address":"闸北区江场西路38号(近共和新路)"},{"poiid":"B2094654D464A2FD4593","title":"宝丰大厦","lon":"121.46269","lat":"31.24882","category":"46","category_name":"楼宇","address":"石景山区阜石路与杨庄东街交叉口西北角"},{"poiid":"B2094750DB6DABFE469A","title":"小天鹅火锅","lon":"121.464471","lat":"31.248126","category":"247","category_name":"餐饮美食","address":"黄浦区南京路2-88号新世界城4楼"},{"poiid":"B2094655D26AA0F9409C","title":"地铁上海火车站站","lon":"121.45874","lat":"31.24933","category":"36","category_name":"地铁站","address":""},{"poiid":"B2094757D16CA7F9449D","title":"轨交4号线 宝山路","lon":"121.461099103","lat":"31.2486559675","category":"500","category_name":"未知分类","address":"上海市闸北区沈家宅路"},{"poiid":"B2094654D56CA2FA409E","title":"沙湾小镇茶餐厅","lon":"121.46447","lat":"31.24968","category":"72","category_name":"广东菜","address":"闸北区虬江路1504号城上城(近共和新路)"},{"poiid":"B2094757D064A5FB439F","title":"天目中路立交","lon":"121.462453468","lat":"31.2451751427","category":"260","category_name":"其他","address":"上海天目中路(近共和新路)"},{"poiid":"B2094757D16EA2FD4799","title":"上海市闸北区民政局","lon":"121.462092738","lat":"31.2474086663","category":"500","category_name":"未知分类","address":"上海市闸北区天目中路749弄71号2楼"},{"poiid":"B2094757D069A6FF4093","title":"贵州苗家酸汤鱼馆 中兴路店","lon":"121.463040054","lat":"31.252511793","category":"83","category_name":"云贵菜","address":"闸北区中兴路1233号中兴财富广场内(近共和新路)"},{"poiid":"B2094654DA6CABFE4493","title":"康吉大厦","lon":"121.462","lat":"31.2518","category":"46","category_name":"楼宇","address":"天目西路290号"},{"poiid":"B2094654D464A2FD4592","title":"上海金卡礼品展示厅","lon":"121.46276","lat":"31.24882","category":"183","category_name":"展览馆","address":"京江路299号宝丰大厦15层1504"},{"poiid":"B2094654D464A2FD469B","title":"凯成苑","lon":"121.46245","lat":"31.248213","category":"47","category_name":"住宅区","address":"共和新路318弄"},{"poiid":"B2094757D06BA6FD489A","title":"金光大道大酒家(中兴路店)","lon":"121.46483","lat":"31.25215","category":"76","category_name":"上海菜","address":"闸北区中兴路1111号(近共和新路)"},{"poiid":"B2094757D66DA2FA4092","title":"O  Hair Salon","lon":"121.463479103","lat":"31.2503690033","category":"500","category_name":"未知分类","address":"上海市闸北区虬江路1452号"},{"poiid":"B2094757D06AA5FE439A","title":"婚姻登记处(闸北区登记处)","lon":"121.46109311","lat":"31.245933452","category":"46","category_name":"楼宇","address":"闸北区天目中路749弄71号二楼(近大统路)查看地图"},{"poiid":"B2094655D268ABFD489C","title":"时代欧洲公寓","lon":"121.46269272439","lat":"31.248422406134","category":"47","category_name":"住宅区","address":"徐家汇花园二期位于徐汇宛平南路233弄"},{"poiid":"B2094750D66DA6FD4792","title":"和源中环企业广场","lon":"121.463673","lat":"31.250031","category":"46","category_name":"楼宇","address":"闸北区共和新路2993号"},{"poiid":"B2094655D26CAAFD409B","title":"卓悦居","lon":"121.463","lat":"31.2516","category":"47","category_name":"住宅区","address":"民立路289弄"},{"poiid":"B2094757D16DA2FD4299","title":"交警总队","lon":"121.463013103","lat":"31.2494749846","category":"500","category_name":"未知分类","address":"上海太阳山路38号"},{"poiid":"B2094757D16AA2FB459B","title":"富泉公寓","lon":"121.46204","lat":"31.249096","category":"252","category_name":"楼宇机构","address":"上海太阳山路78弄1号"},{"poiid":"B2094655D265AAFB4698","title":"鸿昌兴苏州面馆","lon":"121.4641","lat":"31.24979","category":"68","category_name":"快餐厅","address":"闸北区虬江路1518号(近共和新路)"},{"poiid":"B2094757D66CA3FF429E","title":"KFC 火车站北广场店","lon":"121.4632851","lat":"31.250672009","category":"68","category_name":"快餐厅","address":"上海市闸北区大统路"},{"poiid":"B2094655D26FA7FD449B","title":"凯成苑(东门)","lon":"121.46265","lat":"31.24831","category":"47","category_name":"住宅区","address":"共和新路318弄"},{"poiid":"B2094757D66FA7F54998","title":"闸北区","lon":"121.459768047","lat":"31.2471038779","category":"250","category_name":"公园户外","address":"上海闸北区区域"},{"poiid":"B2094654D564AAF94793","title":"蕃瓜弄(天目中路)","lon":"121.46129","lat":"31.24651","category":"47","category_name":"住宅区","address":"天目中路749弄2-72号"},{"poiid":"B2094655D26FA2FD409E","title":"如家酒店(火车站二店)","lon":"121.46318","lat":"31.25103","category":"216","category_name":"经济型连锁酒店","address":"闸北区共和新路452号"},{"poiid":"B2094757D66DA1FA449B","title":"都市宜家","lon":"121.46269","lat":"31.248819","category":"249","category_name":"购物服务","address":"上海虹梅南路1661弄"},{"poiid":"B2094654DB69A0F5409C","title":"蕃瓜弄小学","lon":"121.46076","lat":"31.24762","category":"56","category_name":"小学","address":"闸北区天目中路749弄55号(近大统路)"},{"poiid":"B2094757D065AAF84499","title":"阿湾楼","lon":"121.46389","lat":"31.24839","category":"260","category_name":"其他","address":"上海闸北区京江路229-231号(共和新路)  "},{"poiid":"B2094654DB69AAF8499F","title":"湘土人家","lon":"121.464169054","lat":"31.250009793","category":"77","category_name":"湖南菜","address":"闸北区虬江路1500号(近共和新路)"},{"poiid":"B2094757D66BA4FC409C","title":"大家乐港式茶餐厅","lon":"121.463040054","lat":"31.252511793","category":"257","category_name":"中餐厅","address":"共和新路570号中兴财富休闲广场内近中兴路"},{"poiid":"B2094655D26EA5FD459B","title":"亚繁风尚商务酒店(上海中兴路店)","lon":"121.46503","lat":"31.25213","category":"250","category_name":"公园户外","address":"上海市闸北区中兴路1122号（近共和新路）"},{"poiid":"B2094654D56CA2F4479F","title":"界点桌球俱乐部","lon":"121.46422","lat":"31.2503","category":"171","category_name":"台球厅","address":"凯鹏大厦4层"},{"poiid":"B2094654D56CA2F94998","title":"京江商业街","lon":"121.46443","lat":"31.24856","category":"116","category_name":"特色商业街","address":""},{"poiid":"B2094757D06EAAFB499C","title":"上海火车站地铁站","lon":"121.45871681","lat":"31.249312371","category":"36","category_name":"地铁站","address":"上海轨道交通 一号线 三号线 四号线 轨交上海火车站站 轻轨 1 3 4"},{"poiid":"B2094757D06EAAFE4398","title":"上海歌城(中兴路店)","lon":"121.46375","lat":"31.25196","category":"170","category_name":"KTV","address":"闸北区中兴路1233号中兴财富广场1幢1-2号(近共和新路)"},{"poiid":"B2094757D06EAAFC489B","title":"嘉里不夜城","lon":"121.463","lat":"31.2514","category":"500","category_name":"未知分类","address":"上海市松江区涞坊路599弄"},{"poiid":"B209475CD564A7F8439E","title":"上海滩中信泰富店","lon":"121.45602","lat":"31.22851","category":"119","category_name":"商场","address":"\"南京西路1168号中信泰富广场，店铺号221.\r\n\""},{"poiid":"B2094757D06FA1F84099","title":"城上城","lon":"121.46487666","lat":"31.249323921","category":"47","category_name":"住宅区","address":"上海闸北区虬江路1488弄"},{"poiid":"B2094757D06AA0FC4499","title":"南北高架","lon":"121.46357196","lat":"31.250989706","category":"500","category_name":"未知分类","address":"上海天目西路至中环"},{"poiid":"B2094757D068A2FD469B","title":"共和新路中兴路","lon":"121.463348","lat":"31.251093","category":"500","category_name":"未知分类","address":"上海共和新路中兴路"},{"poiid":"B2094757D06FA4F5409E","title":"一天下大厦","lon":"121.464","lat":"31.2469","category":"46","category_name":"楼宇","address":"行宫位于沈河北站一路41号"},{"poiid":"B2094757DB6FAAFF469B","title":"大悦城","lon":"121.46284","lat":"31.244596","category":"500","category_name":"未知分类","address":"曲阜路"},{"poiid":"B2094757D069A2F84792","title":"闸北区区政府","lon":"121.459831738","lat":"31.246925656","category":"500","category_name":"未知分类","address":"上海市闸北区秣陵路"},{"poiid":"B2094757D06AA0FB439C","title":"闸北区出入境管理局","lon":"121.462799","lat":"31.248908","category":"500","category_name":"未知分类","address":"上海天目中路578号"},{"poiid":"B2094757D06FAAFA419E","title":"汉中广场","lon":"121.465","lat":"31.2486","category":"500","category_name":"未知分类","address":"上海市四川北路1851号"},{"poiid":"B2094655D268A7FF489A","title":"中土大厦","lon":"121.463746","lat":"31.250478","category":"46","category_name":"楼宇","address":"上海市闸北区共和新路666号"},{"poiid":"B2094757D06FA4F9429C","title":"青年餐厅(火车站店)","lon":"121.46552","lat":"31.25192","category":"71","category_name":"四川菜","address":"闸北区中兴路1122号2楼(近共和新路)"},{"poiid":"B2094757D168A5FB439F","title":"上海火车站6号候车室","lon":"121.463178","lat":"31.251041","category":"22","category_name":"火车站","address":"闸北区上海火车站"},{"poiid":"B2094654DB64A6FB419B","title":"如家快捷酒店(上海火车站南广场店)","lon":"121.4616","lat":"31.2476","category":"216","category_name":"经济型连锁酒店","address":"闸北区天目中路749弄57号蕃瓜弄内(近大统路)"},{"poiid":"B2094757D068A2FA449E","title":"静安现代产业大厦","lon":"121.46","lat":"31.2453","category":"46","category_name":"楼宇","address":"闸北区江场西路38号(近共和新路)"},{"poiid":"B2094654D464A2FD4593","title":"宝丰大厦","lon":"121.46269","lat":"31.24882","category":"46","category_name":"楼宇","address":"石景山区阜石路与杨庄东街交叉口西北角"},{"poiid":"B2094750DB6DABFE469A","title":"小天鹅火锅","lon":"121.464471","lat":"31.248126","category":"247","category_name":"餐饮美食","address":"黄浦区南京路2-88号新世界城4楼"},{"poiid":"B2094655D26AA0F9409C","title":"地铁上海火车站站","lon":"121.45874","lat":"31.24933","category":"36","category_name":"地铁站","address":""},{"poiid":"B2094757D16CA7F9449D","title":"轨交4号线 宝山路","lon":"121.461099103","lat":"31.2486559675","category":"500","category_name":"未知分类","address":"上海市闸北区沈家宅路"},{"poiid":"B2094654D56CA2FA409E","title":"沙湾小镇茶餐厅","lon":"121.46447","lat":"31.24968","category":"72","category_name":"广东菜","address":"闸北区虬江路1504号城上城(近共和新路)"},{"poiid":"B2094757D064A5FB439F","title":"天目中路立交","lon":"121.462453468","lat":"31.2451751427","category":"260","category_name":"其他","address":"上海天目中路(近共和新路)"},{"poiid":"B2094757D16EA2FD4799","title":"上海市闸北区民政局","lon":"121.462092738","lat":"31.2474086663","category":"500","category_name":"未知分类","address":"上海市闸北区天目中路749弄71号2楼"},{"poiid":"B2094757D069A6FF4093","title":"贵州苗家酸汤鱼馆 中兴路店","lon":"121.463040054","lat":"31.252511793","category":"83","category_name":"云贵菜","address":"闸北区中兴路1233号中兴财富广场内(近共和新路)"},{"poiid":"B2094654DA6CABFE4493","title":"康吉大厦","lon":"121.462","lat":"31.2518","category":"46","category_name":"楼宇","address":"天目西路290号"},{"poiid":"B2094654D464A2FD4592","title":"上海金卡礼品展示厅","lon":"121.46276","lat":"31.24882","category":"183","category_name":"展览馆","address":"京江路299号宝丰大厦15层1504"},{"poiid":"B2094654D464A2FD469B","title":"凯成苑","lon":"121.46245","lat":"31.248213","category":"47","category_name":"住宅区","address":"共和新路318弄"},{"poiid":"B2094757D06BA6FD489A","title":"金光大道大酒家(中兴路店)","lon":"121.46483","lat":"31.25215","category":"76","category_name":"上海菜","address":"闸北区中兴路1111号(近共和新路)"},{"poiid":"B2094757D66DA2FA4092","title":"O  Hair Salon","lon":"121.463479103","lat":"31.2503690033","category":"500","category_name":"未知分类","address":"上海市闸北区虬江路1452号"},{"poiid":"B2094757D06AA5FE439A","title":"婚姻登记处(闸北区登记处)","lon":"121.46109311","lat":"31.245933452","category":"46","category_name":"楼宇","address":"闸北区天目中路749弄71号二楼(近大统路)查看地图"},{"poiid":"B2094655D268ABFD489C","title":"时代欧洲公寓","lon":"121.46269272439","lat":"31.248422406134","category":"47","category_name":"住宅区","address":"徐家汇花园二期位于徐汇宛平南路233弄"},{"poiid":"B2094750D66DA6FD4792","title":"和源中环企业广场","lon":"121.463673","lat":"31.250031","category":"46","category_name":"楼宇","address":"闸北区共和新路2993号"},{"poiid":"B2094655D26CAAFD409B","title":"卓悦居","lon":"121.463","lat":"31.2516","category":"47","category_name":"住宅区","address":"民立路289弄"},{"poiid":"B2094757D16DA2FD4299","title":"交警总队","lon":"121.463013103","lat":"31.2494749846","category":"500","category_name":"未知分类","address":"上海太阳山路38号"},{"poiid":"B2094757D16AA2FB459B","title":"富泉公寓","lon":"121.46204","lat":"31.249096","category":"252","category_name":"楼宇机构","address":"上海太阳山路78弄1号"},{"poiid":"B2094655D265AAFB4698","title":"鸿昌兴苏州面馆","lon":"121.4641","lat":"31.24979","category":"68","category_name":"快餐厅","address":"闸北区虬江路1518号(近共和新路)"},{"poiid":"B2094757D66CA3FF429E","title":"KFC 火车站北广场店","lon":"121.4632851","lat":"31.250672009","category":"68","category_name":"快餐厅","address":"上海市闸北区大统路"},{"poiid":"B2094655D26FA7FD449B","title":"凯成苑(东门)","lon":"121.46265","lat":"31.24831","category":"47","category_name":"住宅区","address":"共和新路318弄"},{"poiid":"B2094757D66FA7F54998","title":"闸北区","lon":"121.459768047","lat":"31.2471038779","category":"250","category_name":"公园户外","address":"上海闸北区区域"},{"poiid":"B2094654D564AAF94793","title":"蕃瓜弄(天目中路)","lon":"121.46129","lat":"31.24651","category":"47","category_name":"住宅区","address":"天目中路749弄2-72号"},{"poiid":"B2094655D26FA2FD409E","title":"如家酒店(火车站二店)","lon":"121.46318","lat":"31.25103","category":"216","category_name":"经济型连锁酒店","address":"闸北区共和新路452号"},{"poiid":"B2094757D66DA1FA449B","title":"都市宜家","lon":"121.46269","lat":"31.248819","category":"249","category_name":"购物服务","address":"上海虹梅南路1661弄"},{"poiid":"B2094654DB69A0F5409C","title":"蕃瓜弄小学","lon":"121.46076","lat":"31.24762","category":"56","category_name":"小学","address":"闸北区天目中路749弄55号(近大统路)"},{"poiid":"B2094757D065AAF84499","title":"阿湾楼","lon":"121.46389","lat":"31.24839","category":"260","category_name":"其他","address":"上海闸北区京江路229-231号(共和新路)  "},{"poiid":"B2094654DB69AAF8499F","title":"湘土人家","lon":"121.464169054","lat":"31.250009793","category":"77","category_name":"湖南菜","address":"闸北区虬江路1500号(近共和新路)"},{"poiid":"B2094757D66BA4FC409C","title":"大家乐港式茶餐厅","lon":"121.463040054","lat":"31.252511793","category":"257","category_name":"中餐厅","address":"共和新路570号中兴财富休闲广场内近中兴路"},{"poiid":"B2094655D26EA5FD459B","title":"亚繁风尚商务酒店(上海中兴路店)","lon":"121.46503","lat":"31.25213","category":"250","category_name":"公园户外","address":"上海市闸北区中兴路1122号（近共和新路）"},{"poiid":"B2094654D56CA2F4479F","title":"界点桌球俱乐部","lon":"121.46422","lat":"31.2503","category":"171","category_name":"台球厅","address":"凯鹏大厦4层"},{"poiid":"B2094654D56CA2F94998","title":"京江商业街","lon":"121.46443","lat":"31.24856","category":"116","category_name":"特色商业街","address":""},{"poiid":"B2094757D06EAAFB499C","title":"上海火车站地铁站","lon":"121.45871681","lat":"31.249312371","category":"36","category_name":"地铁站","address":"上海轨道交通 一号线 三号线 四号线 轨交上海火车站站 轻轨 1 3 4"},{"poiid":"B2094757D06EAAFE4398","title":"上海歌城(中兴路店)","lon":"121.46375","lat":"31.25196","category":"170","category_name":"KTV","address":"闸北区中兴路1233号中兴财富广场1幢1-2号(近共和新路)"},{"poiid":"B2094757D06EAAFC489B","title":"嘉里不夜城","lon":"121.463","lat":"31.2514","category":"500","category_name":"未知分类","address":"上海市松江区涞坊路599弄"},{"poiid":"B209475CD564A7F8439E","title":"上海滩中信泰富店","lon":"121.45602","lat":"31.22851","category":"119","category_name":"商场","address":"\"南京西路1168号中信泰富广场，店铺号221.\r\n\""},{"poiid":"B2094757D06FA1F84099","title":"城上城","lon":"121.46487666","lat":"31.249323921","category":"47","category_name":"住宅区","address":"上海闸北区虬江路1488弄"},{"poiid":"B2094757D06AA0FC4499","title":"南北高架","lon":"121.46357196","lat":"31.250989706","category":"500","category_name":"未知分类","address":"上海天目西路至中环"},{"poiid":"B2094757D068A2FD469B","title":"共和新路中兴路","lon":"121.463348","lat":"31.251093","category":"500","category_name":"未知分类","address":"上海共和新路中兴路"},{"poiid":"B2094757D06FA4F5409E","title":"一天下大厦","lon":"121.464","lat":"31.2469","category":"46","category_name":"楼宇","address":"行宫位于沈河北站一路41号"},{"poiid":"B2094757DB6FAAFF469B","title":"大悦城","lon":"121.46284","lat":"31.244596","category":"500","category_name":"未知分类","address":"曲阜路"},{"poiid":"B2094757D069A2F84792","title":"闸北区区政府","lon":"121.459831738","lat":"31.246925656","category":"500","category_name":"未知分类","address":"上海市闸北区秣陵路"},{"poiid":"B2094757D06AA0FB439C","title":"闸北区出入境管理局","lon":"121.462799","lat":"31.248908","category":"500","category_name":"未知分类","address":"上海天目中路578号"},{"poiid":"B2094757D06FAAFA419E","title":"汉中广场","lon":"121.465","lat":"31.2486","category":"500","category_name":"未知分类","address":"上海市四川北路1851号"},{"poiid":"B2094655D268A7FF489A","title":"中土大厦","lon":"121.463746","lat":"31.250478","category":"46","category_name":"楼宇","address":"上海市闸北区共和新路666号"},{"poiid":"B2094757D06FA4F9429C","title":"青年餐厅(火车站店)","lon":"121.46552","lat":"31.25192","category":"71","category_name":"四川菜","address":"闸北区中兴路1122号2楼(近共和新路)"},{"poiid":"B2094757D168A5FB439F","title":"上海火车站6号候车室","lon":"121.463178","lat":"31.251041","category":"22","category_name":"火车站","address":"闸北区上海火车站"},{"poiid":"B2094654DB64A6FB419B","title":"如家快捷酒店(上海火车站南广场店)","lon":"121.4616","lat":"31.2476","category":"216","category_name":"经济型连锁酒店","address":"闸北区天目中路749弄57号蕃瓜弄内(近大统路)"},{"poiid":"B2094757D068A2FA449E","title":"静安现代产业大厦","lon":"121.46","lat":"31.2453","category":"46","category_name":"楼宇","address":"闸北区江场西路38号(近共和新路)"},{"poiid":"B2094654D464A2FD4593","title":"宝丰大厦","lon":"121.46269","lat":"31.24882","category":"46","category_name":"楼宇","address":"石景山区阜石路与杨庄东街交叉口西北角"},{"poiid":"B2094750DB6DABFE469A","title":"小天鹅火锅","lon":"121.464471","lat":"31.248126","category":"247","category_name":"餐饮美食","address":"黄浦区南京路2-88号新世界城4楼"},{"poiid":"B2094655D26AA0F9409C","title":"地铁上海火车站站","lon":"121.45874","lat":"31.24933","category":"36","category_name":"地铁站","address":""},{"poiid":"B2094757D16CA7F9449D","title":"轨交4号线 宝山路","lon":"121.461099103","lat":"31.2486559675","category":"500","category_name":"未知分类","address":"上海市闸北区沈家宅路"},{"poiid":"B2094654D56CA2FA409E","title":"沙湾小镇茶餐厅","lon":"121.46447","lat":"31.24968","category":"72","category_name":"广东菜","address":"闸北区虬江路1504号城上城(近共和新路)"},{"poiid":"B2094757D064A5FB439F","title":"天目中路立交","lon":"121.462453468","lat":"31.2451751427","category":"260","category_name":"其他","address":"上海天目中路(近共和新路)"},{"poiid":"B2094757D16EA2FD4799","title":"上海市闸北区民政局","lon":"121.462092738","lat":"31.2474086663","category":"500","category_name":"未知分类","address":"上海市闸北区天目中路749弄71号2楼"},{"poiid":"B2094757D069A6FF4093","title":"贵州苗家酸汤鱼馆 中兴路店","lon":"121.463040054","lat":"31.252511793","category":"83","category_name":"云贵菜","address":"闸北区中兴路1233号中兴财富广场内(近共和新路)"},{"poiid":"B2094654DA6CABFE4493","title":"康吉大厦","lon":"121.462","lat":"31.2518","category":"46","category_name":"楼宇","address":"天目西路290号"},{"poiid":"B2094654D464A2FD4592","title":"上海金卡礼品展示厅","lon":"121.46276","lat":"31.24882","category":"183","category_name":"展览馆","address":"京江路299号宝丰大厦15层1504"},{"poiid":"B2094654D464A2FD469B","title":"凯成苑","lon":"121.46245","lat":"31.248213","category":"47","category_name":"住宅区","address":"共和新路318弄"},{"poiid":"B2094757D06BA6FD489A","title":"金光大道大酒家(中兴路店)","lon":"121.46483","lat":"31.25215","category":"76","category_name":"上海菜","address":"闸北区中兴路1111号(近共和新路)"},{"poiid":"B2094757D66DA2FA4092","title":"O  Hair Salon","lon":"121.463479103","lat":"31.2503690033","category":"500","category_name":"未知分类","address":"上海市闸北区虬江路1452号"},{"poiid":"B2094757D06AA5FE439A","title":"婚姻登记处(闸北区登记处)","lon":"121.46109311","lat":"31.245933452","category":"46","category_name":"楼宇","address":"闸北区天目中路749弄71号二楼(近大统路)查看地图"},{"poiid":"B2094655D268ABFD489C","title":"时代欧洲公寓","lon":"121.46269272439","lat":"31.248422406134","category":"47","category_name":"住宅区","address":"徐家汇花园二期位于徐汇宛平南路233弄"},{"poiid":"B2094750D66DA6FD4792","title":"和源中环企业广场","lon":"121.463673","lat":"31.250031","category":"46","category_name":"楼宇","address":"闸北区共和新路2993号"},{"poiid":"B2094655D26CAAFD409B","title":"卓悦居","lon":"121.463","lat":"31.2516","category":"47","category_name":"住宅区","address":"民立路289弄"},{"poiid":"B2094757D16DA2FD4299","title":"交警总队","lon":"121.463013103","lat":"31.2494749846","category":"500","category_name":"未知分类","address":"上海太阳山路38号"},{"poiid":"B2094757D16AA2FB459B","title":"富泉公寓","lon":"121.46204","lat":"31.249096","category":"252","category_name":"楼宇机构","address":"上海太阳山路78弄1号"},{"poiid":"B2094655D265AAFB4698","title":"鸿昌兴苏州面馆","lon":"121.4641","lat":"31.24979","category":"68","category_name":"快餐厅","address":"闸北区虬江路1518号(近共和新路)"},{"poiid":"B2094757D66CA3FF429E","title":"KFC 火车站北广场店","lon":"121.4632851","lat":"31.250672009","category":"68","category_name":"快餐厅","address":"上海市闸北区大统路"},{"poiid":"B2094655D26FA7FD449B","title":"凯成苑(东门)","lon":"121.46265","lat":"31.24831","category":"47","category_name":"住宅区","address":"共和新路318弄"},{"poiid":"B2094757D66FA7F54998","title":"闸北区","lon":"121.459768047","lat":"31.2471038779","category":"250","category_name":"公园户外","address":"上海闸北区区域"},{"poiid":"B2094654D564AAF94793","title":"蕃瓜弄(天目中路)","lon":"121.46129","lat":"31.24651","category":"47","category_name":"住宅区","address":"天目中路749弄2-72号"},{"poiid":"B2094655D26FA2FD409E","title":"如家酒店(火车站二店)","lon":"121.46318","lat":"31.25103","category":"216","category_name":"经济型连锁酒店","address":"闸北区共和新路452号"},{"poiid":"B2094757D66DA1FA449B","title":"都市宜家","lon":"121.46269","lat":"31.248819","category":"249","category_name":"购物服务","address":"上海虹梅南路1661弄"},{"poiid":"B2094654DB69A0F5409C","title":"蕃瓜弄小学","lon":"121.46076","lat":"31.24762","category":"56","category_name":"小学","address":"闸北区天目中路749弄55号(近大统路)"},{"poiid":"B2094757D065AAF84499","title":"阿湾楼","lon":"121.46389","lat":"31.24839","category":"260","category_name":"其他","address":"上海闸北区京江路229-231号(共和新路)  "},{"poiid":"B2094654DB69AAF8499F","title":"湘土人家","lon":"121.464169054","lat":"31.250009793","category":"77","category_name":"湖南菜","address":"闸北区虬江路1500号(近共和新路)"},{"poiid":"B2094757D66BA4FC409C","title":"大家乐港式茶餐厅","lon":"121.463040054","lat":"31.252511793","category":"257","category_name":"中餐厅","address":"共和新路570号中兴财富休闲广场内近中兴路"},{"poiid":"B2094655D26EA5FD459B","title":"亚繁风尚商务酒店(上海中兴路店)","lon":"121.46503","lat":"31.25213","category":"250","category_name":"公园户外","address":"上海市闸北区中兴路1122号（近共和新路）"},{"poiid":"B2094654D56CA2F4479F","title":"界点桌球俱乐部","lon":"121.46422","lat":"31.2503","category":"171","category_name":"台球厅","address":"凯鹏大厦4层"},{"poiid":"B2094654D56CA2F94998","title":"京江商业街","lon":"121.46443","lat":"31.24856","category":"116","category_name":"特色商业街","address":""}]