[{"poiid":"B2094654DA6AA3FE479D","title":"上海浦东游泳馆","lon":"121.50572","lat":"31.18856","category":"231","category_name":"游泳馆","address":"浦东新区浦东南路3669号"},{"poiid":"B2094757D06FA7FA4093","title":"浦东游泳馆新羽毛球馆","lon":"121.505721806","lat":"31.1885572023","category":"220","category_name":"运动场所","address":"浦东新区浦东南路3669号浦东游泳馆南门内(近沂林路)"},{"poiid":"B2094757D06FA7F44493","title":"浦东新区社会保险事业管理中心","lon":"121.50377231","lat":"31.185200481","category":"260","category_name":"其他","address":"上海浦东南路浦东南路3993号"},{"poiid":"B2094757D06BA0F94599","title":"7号线耀华路","lon":"121.499637738","lat":"31.1832632999","category":"500","category_name":"未知分类","address":"上海地铁七号线"},{"poiid":"B2094757D069A6FB4698","title":"汉庭快捷浦东南路店(原世博村店)","lon":"121.50672","lat":"31.19234","category":"217","category_name":"旅馆招待所","address":"上海浦东新区浦东南路3500号(近华丰路)  "},{"poiid":"B2094654DA6AA3F9439C","title":"世博大厦","lon":"121.50595","lat":"31.1911","category":"46","category_name":"楼宇","address":"上海浦东南路3588号"},{"poiid":"B2094654DA68A6FA4993","title":"浦东长途汽车客运总站","lon":"121.50264","lat":"31.18449","category":"35","category_name":"长途汽车站","address":"浦东新区浦东南路3843号(近莲南路)"},{"poiid":"B2094757D068A7FF4098","title":"一阳轩(高科西路店)","lon":"121.50404073","lat":"31.184218214","category":"72","category_name":"广东菜","address":"浦东新区世博园区高科西路551号6楼(近云莲路)"},{"poiid":"B2094757D06BA5FA439C","title":"高科西路","lon":"121.50241873","lat":"31.183264299","category":"260","category_name":"其他","address":"上海高科西路"},{"poiid":"B2094757D16DA5FA4398","title":"浦东新区社保中心","lon":"121.500264738","lat":"31.1834623041","category":"500","category_name":"未知分类","address":"上海市浦东新区浦东南路云台路"},{"poiid":"B2094757D068ABFD4493","title":"肯德基 KFC (浦东南路店)","lon":"121.502871552","lat":"31.1837174917","category":"68","category_name":"快餐厅","address":"浦东新区浦东南路3843号(高科西路口)"},{"poiid":"B2094757D068A3F94492","title":"世博会阿联酋馆","lon":"121.49784","lat":"31.18622","category":"260","category_name":"其他","address":"上海浦东新区国展路近云台路(原上海世博会A片区)"},{"poiid":"B2094654DA6AA3FE4599","title":"宏博坊海鲜大酒楼","lon":"121.50926","lat":"31.18887","category":"88","category_name":"海鲜酒楼","address":"浦东新区东方路3641号(近临沂路)"},{"poiid":"B2094757D069A3FF459A","title":"临沂公园","lon":"121.50754","lat":"31.18913","category":"196","category_name":"公园","address":"浦东新区东方路3683号(近浦东南路)"},{"poiid":"B2094757D068A3F4409A","title":"西藏南路隧道","lon":"121.50355886","lat":"31.184528366","category":"260","category_name":"其他","address":"上海西藏南路隧道"},{"poiid":"B2094655D26EA5FC4198","title":"星巴克(中融店)","lon":"121.5019","lat":"31.18414","category":"65","category_name":"咖啡厅","address":"浦东新区浦东南路1068号中融国际商城1楼"},{"poiid":"B2094655D26BA2F54599","title":"浦东南路高科西路","lon":"121.5028","lat":"31.18555","category":"38","category_name":"公交车站","address":""},{"poiid":"B2094757D06FA4FB4492","title":"上海世博会事务协调局","lon":"121.50553894","lat":"31.191095352","category":"46","category_name":"楼宇","address":"上海浦东南路3588号"},{"poiid":"B2094750D26EA2FA4093","title":"大悦城","lon":"121.503593","lat":"31.190885","category":"500","category_name":"未知分类","address":"西藏南路曲阜路"},{"poiid":"B2094655D26FA7FB4299","title":"港机新村","lon":"121.50813","lat":"31.191181","category":"47","category_name":"住宅区","address":"上海浦东南路东方路口"},{"poiid":"B2094654DA6AA2F8459C","title":"上南花苑西苑","lon":"121.50429","lat":"31.18305","category":"47","category_name":"住宅区","address":"浦东南路3885弄"},{"poiid":"B2094750D164ABFC4099","title":"三林体育中心","lon":"121.506317","lat":"31.182468","category":"250","category_name":"公园户外","address":"云莲路齐河路"},{"poiid":"B2094655D26BA3FB449E","title":"久斯台球天地","lon":"121.50573","lat":"31.18856","category":"171","category_name":"台球厅","address":"浦东新区浦东南路3669号浦东游泳馆2楼(近东方路)"},{"poiid":"B2094753D665ABF44898","title":"浦南医院","lon":"121.504104","lat":"31.188503","category":"162","category_name":"医院","address":"上海市 浦东南路"},{"poiid":"B2094655D26DA7FA4993","title":"华南名苑","lon":"121.5041","lat":"31.18997","category":"47","category_name":"住宅区","address":"上海市浦东新区浦东南路3666号"},{"poiid":"B2094757D164A3F54793","title":"雪野路","lon":"121.502169562","lat":"31.1870274938","category":"250","category_name":"公园户外","address":"上海浦东新区雪野路"},{"poiid":"B2094655D36CA7FD419A","title":"华丰路","lon":"121.50477","lat":"31.18903","category":"38","category_name":"公交车站","address":""},{"poiid":"B2094655D265A0FD499B","title":"上海歌城中融店","lon":"121.5019","lat":"31.18414","category":"170","category_name":"KTV","address":"浦东南路1078号中融国际商场7层"},{"poiid":"B2094654DA6AA3FE499E","title":"上海乔家栅小吃世界No.10","lon":"121.50607","lat":"31.19061","category":"68","category_name":"快餐厅","address":"浦东新区浦东南路3633号(东方路口)"},{"poiid":"B2094655D26AA7FA469C","title":"G&A健身俱乐部浦东店","lon":"121.50573","lat":"31.18856","category":"247","category_name":"餐饮美食","address":"浦东新区浦东南路3669号浦东游泳馆3楼"},{"poiid":"B2094750D768A7FD4098","title":"喜阁亭","lon":"121.505","lat":"31.1849","category":"76","category_name":"上海菜","address":"浦东新区高科西路611号(近东明路)"},{"poiid":"B2094752D669A5F54993","title":"梅赛德斯奔驰文化中心","lon":"121.499021","lat":"31.186684","category":"500","category_name":"未知分类","address":null},{"poiid":"B2094654DA68A6FA429A","title":"雪野家园","lon":"121.49998","lat":"31.18418","category":"47","category_name":"住宅区","address":"上海浦东新区浦东南路4200-4250弄(近云台路)"},{"poiid":"B2094757D064A0F9499F","title":"瀚锦苑","lon":"121.505","lat":"31.1852","category":"252","category_name":"楼宇机构","address":"上海浦东新区洪山路1889弄"},{"poiid":"B2094753DA6FA5FC439C","title":"世博国际影城","lon":"121.505012","lat":"31.189611","category":"178","category_name":"电影院","address":"上海市 梅赛德斯奔驰"},{"poiid":"B2094750D164A3FB499D","title":"上海浦东世博星程精品金尚酒店","lon":"121.504245140487","lat":"31.1846108567224","category":"214","category_name":"四星级宾馆","address":"上海浦东新区高科西路551号"},{"poiid":"B2094757D16AA0F94599","title":"白菜休息室","lon":"121.50374603","lat":"31.186674118","category":"500","category_name":"未知分类","address":"上海世博会A区"},{"poiid":"B2094757D06BA5F94799","title":"顾惠面馆","lon":"121.50215","lat":"31.18312","category":"68","category_name":"快餐厅","address":"浦东新区浦东南路3903号(近云台路)"},{"poiid":"B2094757D064A0FA409F","title":"白莲泾路浦东南路","lon":"121.50367955","lat":"31.188651119","category":"500","category_name":"未知分类","address":"上海白莲泾路浦东南路"},{"poiid":"B2094655D265A1F5479A","title":"小尾羊(浦东南路店)","lon":"121.50168","lat":"31.18385","category":"86","category_name":"火锅店","address":"浦东南路2100号(塘桥路口)"},{"poiid":"B2094655D26AA0F54093","title":"跆博跆拳道健身俱乐部","lon":"121.50573","lat":"31.18856","category":"247","category_name":"餐饮美食","address":"浦东新区浦东南路3669号浦东游泳馆(浦东南路沂林路)"},{"poiid":"B2094654DA68A6FB409C","title":"上电实业大厦","lon":"121.50438","lat":"31.18473","category":"46","category_name":"楼宇","address":"高科西路551"},{"poiid":"B2094757D064A0FC4893","title":"久斯台球俱乐部(浦东游泳馆店)","lon":"121.50067953","lat":"31.186198112","category":"171","category_name":"台球厅","address":"上海浦东南路浦东游泳馆二楼"},{"poiid":"B2094655D265A1FE469C","title":"钱柜(浦东旗舰店)","lon":"121.50189","lat":"31.18413","category":"170","category_name":"KTV","address":"浦东南路1118号上海湾国际大厦B1层"},{"poiid":"B2094654DA6AA3FE4798","title":"天意洲家园","lon":"121.50825","lat":"31.187544","category":"47","category_name":"住宅区","address":"上海市浦东新区栖山路1876弄"},{"poiid":"B2094757D168A7FF439B","title":"上海市浦东新区土地储备中心","lon":"121.50522073","lat":"31.190175447","category":"46","category_name":"楼宇","address":"上海市浦东新区浦东南路3618号"},{"poiid":"B2094757D168A4FB479A","title":"海逸酒家","lon":"121.497772217","lat":"31.1877937317","category":"247","category_name":"餐饮美食","address":"浦东新区世博大道1200号世博文化中心6楼"},{"poiid":"B2094655D26BA2F4499D","title":"浦三路","lon":"121.50555","lat":"31.1904","category":"38","category_name":"公交车站","address":""},{"poiid":"B2094655D268A1FD479B","title":"浦东南路3649弄小区","lon":"121.5057","lat":"31.18942","category":"47","category_name":"住宅区","address":"浦东南路3649弄"},{"poiid":"B2094655D264A4F8409A","title":"好美家浦南店","lon":"121.50284","lat":"31.18508","category":"123","category_name":"家具建材市场","address":"浦东南路3799号"},{"poiid":"B2094654DA6AA3FE479D","title":"上海浦东游泳馆","lon":"121.50572","lat":"31.18856","category":"231","category_name":"游泳馆","address":"浦东新区浦东南路3669号"},{"poiid":"B2094757D06FA7FA4093","title":"浦东游泳馆新羽毛球馆","lon":"121.505721806","lat":"31.1885572023","category":"220","category_name":"运动场所","address":"浦东新区浦东南路3669号浦东游泳馆南门内(近沂林路)"},{"poiid":"B2094757D06FA7F44493","title":"浦东新区社会保险事业管理中心","lon":"121.50377231","lat":"31.185200481","category":"260","category_name":"其他","address":"上海浦东南路浦东南路3993号"},{"poiid":"B2094757D06BA0F94599","title":"7号线耀华路","lon":"121.499637738","lat":"31.1832632999","category":"500","category_name":"未知分类","address":"上海地铁七号线"},{"poiid":"B2094757D069A6FB4698","title":"汉庭快捷浦东南路店(原世博村店)","lon":"121.50672","lat":"31.19234","category":"217","category_name":"旅馆招待所","address":"上海浦东新区浦东南路3500号(近华丰路)  "},{"poiid":"B2094654DA6AA3F9439C","title":"世博大厦","lon":"121.50595","lat":"31.1911","category":"46","category_name":"楼宇","address":"上海浦东南路3588号"},{"poiid":"B2094654DA68A6FA4993","title":"浦东长途汽车客运总站","lon":"121.50264","lat":"31.18449","category":"35","category_name":"长途汽车站","address":"浦东新区浦东南路3843号(近莲南路)"},{"poiid":"B2094757D068A7FF4098","title":"一阳轩(高科西路店)","lon":"121.50404073","lat":"31.184218214","category":"72","category_name":"广东菜","address":"浦东新区世博园区高科西路551号6楼(近云莲路)"},{"poiid":"B2094757D06BA5FA439C","title":"高科西路","lon":"121.50241873","lat":"31.183264299","category":"260","category_name":"其他","address":"上海高科西路"},{"poiid":"B2094757D16DA5FA4398","title":"浦东新区社保中心","lon":"121.500264738","lat":"31.1834623041","category":"500","category_name":"未知分类","address":"上海市浦东新区浦东南路云台路"},{"poiid":"B2094757D068ABFD4493","title":"肯德基 KFC (浦东南路店)","lon":"121.502871552","lat":"31.1837174917","category":"68","category_name":"快餐厅","address":"浦东新区浦东南路3843号(高科西路口)"},{"poiid":"B2094757D068A3F94492","title":"世博会阿联酋馆","lon":"121.49784","lat":"31.18622","category":"260","category_name":"其他","address":"上海浦东新区国展路近云台路(原上海世博会A片区)"},{"poiid":"B2094654DA6AA3FE4599","title":"宏博坊海鲜大酒楼","lon":"121.50926","lat":"31.18887","category":"88","category_name":"海鲜酒楼","address":"浦东新区东方路3641号(近临沂路)"},{"poiid":"B2094757D069A3FF459A","title":"临沂公园","lon":"121.50754","lat":"31.18913","category":"196","category_name":"公园","address":"浦东新区东方路3683号(近浦东南路)"},{"poiid":"B2094757D068A3F4409A","title":"西藏南路隧道","lon":"121.50355886","lat":"31.184528366","category":"260","category_name":"其他","address":"上海西藏南路隧道"},{"poiid":"B2094655D26EA5FC4198","title":"星巴克(中融店)","lon":"121.5019","lat":"31.18414","category":"65","category_name":"咖啡厅","address":"浦东新区浦东南路1068号中融国际商城1楼"},{"poiid":"B2094655D26BA2F54599","title":"浦东南路高科西路","lon":"121.5028","lat":"31.18555","category":"38","category_name":"公交车站","address":""},{"poiid":"B2094757D06FA4FB4492","title":"上海世博会事务协调局","lon":"121.50553894","lat":"31.191095352","category":"46","category_name":"楼宇","address":"上海浦东南路3588号"},{"poiid":"B2094750D26EA2FA4093","title":"大悦城","lon":"121.503593","lat":"31.190885","category":"500","category_name":"未知分类","address":"西藏南路曲阜路"},{"poiid":"B2094655D26FA7FB4299","title":"港机新村","lon":"121.50813","lat":"31.191181","category":"47","category_name":"住宅区","address":"上海浦东南路东方路口"},{"poiid":"B2094654DA6AA2F8459C","title":"上南花苑西苑","lon":"121.50429","lat":"31.18305","category":"47","category_name":"住宅区","address":"浦东南路3885弄"},{"poiid":"B2094750D164ABFC4099","title":"三林体育中心","lon":"121.506317","lat":"31.182468","category":"250","category_name":"公园户外","address":"云莲路齐河路"},{"poiid":"B2094655D26BA3FB449E","title":"久斯台球天地","lon":"121.50573","lat":"31.18856","category":"171","category_name":"台球厅","address":"浦东新区浦东南路3669号浦东游泳馆2楼(近东方路)"},{"poiid":"B2094753D665ABF44898","title":"浦南医院","lon":"121.504104","lat":"31.188503","category":"162","category_name":"医院","address":"上海市 浦东南路"},{"poiid":"B2094655D26DA7FA4993","title":"华南名苑","lon":"121.5041","lat":"31.18997","category":"47","category_name":"住宅区","address":"上海市浦东新区浦东南路3666号"},{"poiid":"B2094757D164A3F54793","title":"雪野路","lon":"121.502169562","lat":"31.1870274938","category":"250","category_name":"公园户外","address":"上海浦东新区雪野路"},{"poiid":"B2094655D36CA7FD419A","title":"华丰路","lon":"121.50477","lat":"31.18903","category":"38","category_name":"公交车站","address":""},{"poiid":"B2094655D265A0FD499B","title":"上海歌城中融店","lon":"121.5019","lat":"31.18414","category":"170","category_name":"KTV","address":"浦东南路1078号中融国际商场7层"},{"poiid":"B2094654DA6AA3FE499E","title":"上海乔家栅小吃世界No.10","lon":"121.50607","lat":"31.19061","category":"68","category_name":"快餐厅","address":"浦东新区浦东南路3633号(东方路口)"},{"poiid":"B2094655D26AA7FA469C","title":"G&A健身俱乐部浦东店","lon":"121.50573","lat":"31.18856","category":"247","category_name":"餐饮美食","address":"浦东新区浦东南路3669号浦东游泳馆3楼"},{"poiid":"B2094750D768A7FD4098","title":"喜阁亭","lon":"121.505","lat":"31.1849","category":"76","category_name":"上海菜","address":"浦东新区高科西路611号(近东明路)"},{"poiid":"B2094752D669A5F54993","title":"梅赛德斯奔驰文化中心","lon":"121.499021","lat":"31.186684","category":"500","category_name":"未知分类","address":null},{"poiid":"B2094654DA68A6FA429A","title":"雪野家园","lon":"121.49998","lat":"31.18418","category":"47","category_name":"住宅区","address":"上海浦东新区浦东南路4200-4250弄(近云台路)"},{"poiid":"B2094757D064A0F9499F","title":"瀚锦苑","lon":"121.505","lat":"31.1852","category":"252","category_name":"楼宇机构","address":"上海浦东新区洪山路1889弄"},{"poiid":"B2094753DA6FA5FC439C","title":"世博国际影城","lon":"121.505012","lat":"31.189611","category":"178","category_name":"电影院","address":"上海市 梅赛德斯奔驰"},{"poiid":"B2094750D164A3FB499D","title":"上海浦东世博星程精品金尚酒店","lon":"121.504245140487","lat":"31.1846108567224","category":"214","category_name":"四星级宾馆","address":"上海浦东新区高科西路551号"},{"poiid":"B2094757D16AA0F94599","title":"白菜休息室","lon":"121.50374603","lat":"31.186674118","category":"500","category_name":"未知分类","address":"上海世博会A区"},{"poiid":"B2094757D06BA5F94799","title":"顾惠面馆","lon":"121.50215","lat":"31.18312","category":"68","category_name":"快餐厅","address":"浦东新区浦东南路3903号(近云台路)"},{"poiid":"B2094757D064A0FA409F","title":"白莲泾路浦东南路","lon":"121.50367955","lat":"31.188651119","category":"500","category_name":"未知分类","address":"上海白莲泾路浦东南路"},{"poiid":"B2094655D265A1F5479A","title":"小尾羊(浦东南路店)","lon":"121.50168","lat":"31.18385","category":"86","category_name":"火锅店","address":"浦东南路2100号(塘桥路口)"},{"poiid":"B2094655D26AA0F54093","title":"跆博跆拳道健身俱乐部","lon":"121.50573","lat":"31.18856","category":"247","category_name":"餐饮美食","address":"浦东新区浦东南路3669号浦东游泳馆(浦东南路沂林路)"},{"poiid":"B2094654DA68A6FB409C","title":"上电实业大厦","lon":"121.50438","lat":"31.18473","category":"46","category_name":"楼宇","address":"高科西路551"},{"poiid":"B2094757D064A0FC4893","title":"久斯台球俱乐部(浦东游泳馆店)","lon":"121.50067953","lat":"31.186198112","category":"171","category_name":"台球厅","address":"上海浦东南路浦东游泳馆二楼"},{"poiid":"B2094655D265A1FE469C","title":"钱柜(浦东旗舰店)","lon":"121.50189","lat":"31.18413","category":"170","category_name":"KTV","address":"浦东南路1118号上海湾国际大厦B1层"},{"poiid":"B2094654DA6AA3FE4798","title":"天意洲家园","lon":"121.50825","lat":"31.187544","category":"47","category_name":"住宅区","address":"上海市浦东新区栖山路1876弄"},{"poiid":"B2094757D168A7FF439B","title":"上海市浦东新区土地储备中心","lon":"121.50522073","lat":"31.190175447","category":"46","category_name":"楼宇","address":"上海市浦东新区浦东南路3618号"},{"poiid":"B2094757D168A4FB479A","title":"海逸酒家","lon":"121.497772217","lat":"31.1877937317","category":"247","category_name":"餐饮美食","address":"浦东新区世博大道1200号世博文化中心6楼"},{"poiid":"B2094655D26BA2F4499D","title":"浦三路","lon":"121.50555","lat":"31.1904","category":"38","category_name":"公交车站","address":""},{"poiid":"B2094655D268A1FD479B","title":"浦东南路3649弄小区","lon":"121.5057","lat":"31.18942","category":"47","category_name":"住宅区","address":"浦东南路3649弄"},{"poiid":"B2094655D264A4F8409A","title":"好美家浦南店","lon":"121.50284","lat":"31.18508","category":"123","category_name":"家具建材市场","address":"浦东南路3799号"},{"poiid":"B2094654DA6AA3FE479D","title":"上海浦东游泳馆","lon":"121.50572","lat":"31.18856","category":"231","category_name":"游泳馆","address":"浦东新区浦东南路3669号"},{"poiid":"B2094757D06FA7FA4093","title":"浦东游泳馆新羽毛球馆","lon":"121.505721806","lat":"31.1885572023","category":"220","category_name":"运动场所","address":"浦东新区浦东南路3669号浦东游泳馆南门内(近沂林路)"},{"poiid":"B2094757D06FA7F44493","title":"浦东新区社会保险事业管理中心","lon":"121.50377231","lat":"31.185200481","category":"260","category_name":"其他","address":"上海浦东南路浦东南路3993号"},{"poiid":"B2094757D06BA0F94599","title":"7号线耀华路","lon":"121.499637738","lat":"31.1832632999","category":"500","category_name":"未知分类","address":"上海地铁七号线"},{"poiid":"B2094757D069A6FB4698","title":"汉庭快捷浦东南路店(原世博村店)","lon":"121.50672","lat":"31.19234","category":"217","category_name":"旅馆招待所","address":"上海浦东新区浦东南路3500号(近华丰路)  "},{"poiid":"B2094654DA6AA3F9439C","title":"世博大厦","lon":"121.50595","lat":"31.1911","category":"46","category_name":"楼宇","address":"上海浦东南路3588号"},{"poiid":"B2094654DA68A6FA4993","title":"浦东长途汽车客运总站","lon":"121.50264","lat":"31.18449","category":"35","category_name":"长途汽车站","address":"浦东新区浦东南路3843号(近莲南路)"},{"poiid":"B2094757D068A7FF4098","title":"一阳轩(高科西路店)","lon":"121.50404073","lat":"31.184218214","category":"72","category_name":"广东菜","address":"浦东新区世博园区高科西路551号6楼(近云莲路)"},{"poiid":"B2094757D06BA5FA439C","title":"高科西路","lon":"121.50241873","lat":"31.183264299","category":"260","category_name":"其他","address":"上海高科西路"},{"poiid":"B2094757D16DA5FA4398","title":"浦东新区社保中心","lon":"121.500264738","lat":"31.1834623041","category":"500","category_name":"未知分类","address":"上海市浦东新区浦东南路云台路"},{"poiid":"B2094757D068ABFD4493","title":"肯德基 KFC (浦东南路店)","lon":"121.502871552","lat":"31.1837174917","category":"68","category_name":"快餐厅","address":"浦东新区浦东南路3843号(高科西路口)"},{"poiid":"B2094757D068A3F94492","title":"世博会阿联酋馆","lon":"121.49784","lat":"31.18622","category":"260","category_name":"其他","address":"上海浦东新区国展路近云台路(原上海世博会A片区)"},{"poiid":"B2094654DA6AA3FE4599","title":"宏博坊海鲜大酒楼","lon":"121.50926","lat":"31.18887","category":"88","category_name":"海鲜酒楼","address":"浦东新区东方路3641号(近临沂路)"},{"poiid":"B2094757D069A3FF459A","title":"临沂公园","lon":"121.50754","lat":"31.18913","category":"196","category_name":"公园","address":"浦东新区东方路3683号(近浦东南路)"},{"poiid":"B2094757D068A3F4409A","title":"西藏南路隧道","lon":"121.50355886","lat":"31.184528366","category":"260","category_name":"其他","address":"上海西藏南路隧道"},{"poiid":"B2094655D26EA5FC4198","title":"星巴克(中融店)","lon":"121.5019","lat":"31.18414","category":"65","category_name":"咖啡厅","address":"浦东新区浦东南路1068号中融国际商城1楼"},{"poiid":"B2094655D26BA2F54599","title":"浦东南路高科西路","lon":"121.5028","lat":"31.18555","category":"38","category_name":"公交车站","address":""},{"poiid":"B2094757D06FA4FB4492","title":"上海世博会事务协调局","lon":"121.50553894","lat":"31.191095352","category":"46","category_name":"楼宇","address":"上海浦东南路3588号"},{"poiid":"B2094750D26EA2FA4093","title":"大悦城","lon":"121.503593","lat":"31.190885","category":"500","category_name":"未知分类","address":"西藏南路曲阜路"},{"poiid":"B2094655D26FA7FB4299","title":"港机新村","lon":"121.50813","lat":"31.191181","category":"47","category_name":"住宅区","address":"上海浦东南路东方路口"},{"poiid":"B2094654DA6AA2F8459C","title":"上南花苑西苑","lon":"121.50429","lat":"31.18305","category":"47","category_name":"住宅区","address":"浦东南路3885弄"},{"poiid":"B2094750D164ABFC4099","title":"三林体育中心","lon":"121.506317","lat":"31.182468","category":"250","category_name":"公园户外","address":"云莲路齐河路"},{"poiid":"B2094655D26BA3FB449E","title":"久斯台球天地","lon":"121.50573","lat":"31.18856","category":"171","category_name":"台球厅","address":"浦东新区浦东南路3669号浦东游泳馆2楼(近东方路)"},{"poiid":"B2094753D665ABF44898","title":"浦南医院","lon":"121.504104","lat":"31.188503","category":"162","category_name":"医院","address":"上海市 浦东南路"},{"poiid":"B2094655D26DA7FA4993","title":"华南名苑","lon":"121.5041","lat":"31.18997","category":"47","category_name":"住宅区","address":"上海市浦东新区浦东南路3666号"},{"poiid":"B2094757D164A3F54793","title":"雪野路","lon":"121.502169562","lat":"31.1870274938","category":"250","category_name":"公园户外","address":"上海浦东新区雪野路"},{"poiid":"B2094655D36CA7FD419A","title":"华丰路","lon":"121.50477","lat":"31.18903","category":"38","category_name":"公交车站","address":""},{"poiid":"B2094655D265A0FD499B","title":"上海歌城中融店","lon":"121.5019","lat":"31.18414","category":"170","category_name":"KTV","address":"浦东南路1078号中融国际商场7层"},{"poiid":"B2094654DA6AA3FE499E","title":"上海乔家栅小吃世界No.10","lon":"121.50607","lat":"31.19061","category":"68","category_name":"快餐厅","address":"浦东新区浦东南路3633号(东方路口)"},{"poiid":"B2094655D26AA7FA469C","title":"G&A健身俱乐部浦东店","lon":"121.50573","lat":"31.18856","category":"247","category_name":"餐饮美食","address":"浦东新区浦东南路3669号浦东游泳馆3楼"},{"poiid":"B2094750D768A7FD4098","title":"喜阁亭","lon":"121.505","lat":"31.1849","category":"76","category_name":"上海菜","address":"浦东新区高科西路611号(近东明路)"},{"poiid":"B2094752D669A5F54993","title":"梅赛德斯奔驰文化中心","lon":"121.499021","lat":"31.186684","category":"500","category_name":"未知分类","address":null},{"poiid":"B2094654DA68A6FA429A","title":"雪野家园","lon":"121.49998","lat":"31.18418","category":"47","category_name":"住宅区","address":"上海浦东新区浦东南路4200-4250弄(近云台路)"},{"poiid":"B2094757D064A0F9499F","title":"瀚锦苑","lon":"121.505","lat":"31.1852","category":"252","category_name":"楼宇机构","address":"上海浦东新区洪山路1889弄"},{"poiid":"B2094753DA6FA5FC439C","title":"世博国际影城","lon":"121.505012","lat":"31.189611","category":"178","category_name":"电影院","address":"上海市 梅赛德斯奔驰"},{"poiid":"B2094750D164A3FB499D","title":"上海浦东世博星程精品金尚酒店","lon":"121.504245140487","lat":"31.1846108567224","category":"214","category_name":"四星级宾馆","address":"上海浦东新区高科西路551号"},{"poiid":"B2094757D16AA0F94599","title":"白菜休息室","lon":"121.50374603","lat":"31.186674118","category":"500","category_name":"未知分类","address":"上海世博会A区"},{"poiid":"B2094757D06BA5F94799","title":"顾惠面馆","lon":"121.50215","lat":"31.18312","category":"68","category_name":"快餐厅","address":"浦东新区浦东南路3903号(近云台路)"},{"poiid":"B2094757D064A0FA409F","title":"白莲泾路浦东南路","lon":"121.50367955","lat":"31.188651119","category":"500","category_name":"未知分类","address":"上海白莲泾路浦东南路"},{"poiid":"B2094655D265A1F5479A","title":"小尾羊(浦东南路店)","lon":"121.50168","lat":"31.18385","category":"86","category_name":"火锅店","address":"浦东南路2100号(塘桥路口)"},{"poiid":"B2094655D26AA0F54093","title":"跆博跆拳道健身俱乐部","lon":"121.50573","lat":"31.18856","category":"247","category_name":"餐饮美食","address":"浦东新区浦东南路3669号浦东游泳馆(浦东南路沂林路)"},{"poiid":"B2094654DA68A6FB409C","title":"上电实业大厦","lon":"121.50438","lat":"31.18473","category":"46","category_name":"楼宇","address":"高科西路551"},{"poiid":"B2094757D064A0FC4893","title":"久斯台球俱乐部(浦东游泳馆店)","lon":"121.50067953","lat":"31.186198112","category":"171","category_name":"台球厅","address":"上海浦东南路浦东游泳馆二楼"},{"poiid":"B2094655D265A1FE469C","title":"钱柜(浦东旗舰店)","lon":"121.50189","lat":"31.18413","category":"170","category_name":"KTV","address":"浦东南路1118号上海湾国际大厦B1层"},{"poiid":"B2094654DA6AA3FE4798","title":"天意洲家园","lon":"121.50825","lat":"31.187544","category":"47","category_name":"住宅区","address":"上海市浦东新区栖山路1876弄"},{"poiid":"B2094757D168A7FF439B","title":"上海市浦东新区土地储备中心","lon":"121.50522073","lat":"31.190175447","category":"46","category_name":"楼宇","address":"上海市浦东新区浦东南路3618号"},{"poiid":"B2094757D168A4FB479A","title":"海逸酒家","lon":"121.497772217","lat":"31.1877937317","category":"247","category_name":"餐饮美食","address":"浦东新区世博大道1200号世博文化中心6楼"},{"poiid":"B2094655D26BA2F4499D","title":"浦三路","lon":"121.50555","lat":"31.1904","category":"38","category_name":"公交车站","address":""},{"poiid":"B2094655D268A1FD479B","title":"浦东南路3649弄小区","lon":"121.5057","lat":"31.18942","category":"47","category_name":"住宅区","address":"浦东南路3649弄"},{"poiid":"B2094655D264A4F8409A","title":"好美家浦南店","lon":"121.50284","lat":"31.18508","category":"123","category_name":"家具建材市场","address":"浦东南路3799号"},{"poiid":"B2094654DA6AA3FE479D","title":"上海浦东游泳馆","lon":"121.50572","lat":"31.18856","category":"231","category_name":"游泳馆","address":"浦东新区浦东南路3669号"},{"poiid":"B2094757D06FA7FA4093","title":"浦东游泳馆新羽毛球馆","lon":"121.505721806","lat":"31.1885572023","category":"220","category_name":"运动场所","address":"浦东新区浦东南路3669号浦东游泳馆南门内(近沂林路)"},{"poiid":"B2094757D06FA7F44493","title":"浦东新区社会保险事业管理中心","lon":"121.50377231","lat":"31.185200481","category":"260","category_name":"其他","address":"上海浦东南路浦东南路3993号"},{"poiid":"B2094757D06BA0F94599","title":"7号线耀华路","lon":"121.499637738","lat":"31.1832632999","category":"500","category_name":"未知分类","address":"上海地铁七号线"},{"poiid":"B2094757D069A6FB4698","title":"汉庭快捷浦东南路店(原世博村店)","lon":"121.50672","lat":"31.19234","category":"217","category_name":"旅馆招待所","address":"上海浦东新区浦东南路3500号(近华丰路)  "},{"poiid":"B2094654DA6AA3F9439C","title":"世博大厦","lon":"121.50595","lat":"31.1911","category":"46","category_name":"楼宇","address":"上海浦东南路3588号"},{"poiid":"B2094654DA68A6FA4993","title":"浦东长途汽车客运总站","lon":"121.50264","lat":"31.18449","category":"35","category_name":"长途汽车站","address":"浦东新区浦东南路3843号(近莲南路)"},{"poiid":"B2094757D068A7FF4098","title":"一阳轩(高科西路店)","lon":"121.50404073","lat":"31.184218214","category":"72","category_name":"广东菜","address":"浦东新区世博园区高科西路551号6楼(近云莲路)"},{"poiid":"B2094757D06BA5FA439C","title":"高科西路","lon":"121.50241873","lat":"31.183264299","category":"260","category_name":"其他","address":"上海高科西路"},{"poiid":"B2094757D16DA5FA4398","title":"浦东新区社保中心","lon":"121.500264738","lat":"31.1834623041","category":"500","category_name":"未知分类","address":"上海市浦东新区浦东南路云台路"},{"poiid":"B2094757D068ABFD4493","title":"肯德基 KFC (浦东南路店)","lon":"121.502871552","lat":"31.1837174917","category":"68","category_name":"快餐厅","address":"浦东新区浦东南路3843号(高科西路口)"},{"poiid":"B2094757D068A3F94492","title":"世博会阿联酋馆","lon":"121.49784","lat":"31.18622","category":"260","category_name":"其他","address":"上海浦东新区国展路近云台路(原上海世博会A片区)"},{"poiid":"B2094654DA6AA3FE4599","title":"宏博坊海鲜大酒楼","lon":"121.50926","lat":"31.18887","category":"88","category_name":"海鲜酒楼","address":"浦东新区东方路3641号(近临沂路)"},{"poiid":"B2094757D069A3FF459A","title":"临沂公园","lon":"121.50754","lat":"31.18913","category":"196","category_name":"公园","address":"浦东新区东方路3683号(近浦东南路)"},{"poiid":"B2094757D068A3F4409A","title":"西藏南路隧道","lon":"121.50355886","lat":"31.184528366","category":"260","category_name":"其他","address":"上海西藏南路隧道"},{"poiid":"B2094655D26EA5FC4198","title":"星巴克(中融店)","lon":"121.5019","lat":"31.18414","category":"65","category_name":"咖啡厅","address":"浦东新区浦东南路1068号中融国际商城1楼"},{"poiid":"B2094655D26BA2F54599","title":"浦东南路高科西路","lon":"121.5028","lat":"31.18555","category":"38","category_name":"公交车站","address":""},{"poiid":"B2094757D06FA4FB4492","title":"上海世博会事务协调局","lon":"121.50553894","lat":"31.191095352","category":"46","category_name":"楼宇","address":"上海浦东南路3588号"},{"poiid":"B2094750D26EA2FA4093","title":"大悦城","lon":"121.503593","lat":"31.190885","category":"500","category_name":"未知分类","address":"西藏南路曲阜路"},{"poiid":"B2094655D26FA7FB4299","title":"港机新村","lon":"121.50813","lat":"31.191181","category":"47","category_name":"住宅区","address":"上海浦东南路东方路口"},{"poiid":"B2094654DA6AA2F8459C","title":"上南花苑西苑","lon":"121.50429","lat":"31.18305","category":"47","category_name":"住宅区","address":"浦东南路3885弄"},{"poiid":"B2094750D164ABFC4099","title":"三林体育中心","lon":"121.506317","lat":"31.182468","category":"250","category_name":"公园户外","address":"云莲路齐河路"},{"poiid":"B2094655D26BA3FB449E","title":"久斯台球天地","lon":"121.50573","lat":"31.18856","category":"171","category_name":"台球厅","address":"浦东新区浦东南路3669号浦东游泳馆2楼(近东方路)"},{"poiid":"B2094753D665ABF44898","title":"浦南医院","lon":"121.504104","lat":"31.188503","category":"162","category_name":"医院","address":"上海市 浦东南路"},{"poiid":"B2094655D26DA7FA4993","title":"华南名苑","lon":"121.5041","lat":"31.18997","category":"47","category_name":"住宅区","address":"上海市浦东新区浦东南路3666号"},{"poiid":"B2094757D164A3F54793","title":"雪野路","lon":"121.502169562","lat":"31.1870274938","category":"250","category_name":"公园户外","address":"上海浦东新区雪野路"},{"poiid":"B2094655D36CA7FD419A","title":"华丰路","lon":"121.50477","lat":"31.18903","category":"38","category_name":"公交车站","address":""},{"poiid":"B2094655D265A0FD499B","title":"上海歌城中融店","lon":"121.5019","lat":"31.18414","category":"170","category_name":"KTV","address":"浦东南路1078号中融国际商场7层"},{"poiid":"B2094654DA6AA3FE499E","title":"上海乔家栅小吃世界No.10","lon":"121.50607","lat":"31.19061","category":"68","category_name":"快餐厅","address":"浦东新区浦东南路3633号(东方路口)"},{"poiid":"B2094655D26AA7FA469C","title":"G&A健身俱乐部浦东店","lon":"121.50573","lat":"31.18856","category":"247","category_name":"餐饮美食","address":"浦东新区浦东南路3669号浦东游泳馆3楼"},{"poiid":"B2094750D768A7FD4098","title":"喜阁亭","lon":"121.505","lat":"31.1849","category":"76","category_name":"上海菜","address":"浦东新区高科西路611号(近东明路)"},{"poiid":"B2094752D669A5F54993","title":"梅赛德斯奔驰文化中心","lon":"121.499021","lat":"31.186684","category":"500","category_name":"未知分类","address":null},{"poiid":"B2094654DA68A6FA429A","title":"雪野家园","lon":"121.49998","lat":"31.18418","category":"47","category_name":"住宅区","address":"上海浦东新区浦东南路4200-4250弄(近云台路)"},{"poiid":"B2094757D064A0F9499F","title":"瀚锦苑","lon":"121.505","lat":"31.1852","category":"252","category_name":"楼宇机构","address":"上海浦东新区洪山路1889弄"},{"poiid":"B2094753DA6FA5FC439C","title":"世博国际影城","lon":"121.505012","lat":"31.189611","category":"178","category_name":"电影院","address":"上海市 梅赛德斯奔驰"},{"poiid":"B2094750D164A3FB499D","title":"上海浦东世博星程精品金尚酒店","lon":"121.504245140487","lat":"31.1846108567224","category":"214","category_name":"四星级宾馆","address":"上海浦东新区高科西路551号"},{"poiid":"B2094757D16AA0F94599","title":"白菜休息室","lon":"121.50374603","lat":"31.186674118","category":"500","category_name":"未知分类","address":"上海世博会A区"},{"poiid":"B2094757D06BA5F94799","title":"顾惠面馆","lon":"121.50215","lat":"31.18312","category":"68","category_name":"快餐厅","address":"浦东新区浦东南路3903号(近云台路)"},{"poiid":"B2094757D064A0FA409F","title":"白莲泾路浦东南路","lon":"121.50367955","lat":"31.188651119","category":"500","category_name":"未知分类","address":"上海白莲泾路浦东南路"},{"poiid":"B2094655D265A1F5479A","title":"小尾羊(浦东南路店)","lon":"121.50168","lat":"31.18385","category":"86","category_name":"火锅店","address":"浦东南路2100号(塘桥路口)"},{"poiid":"B2094655D26AA0F54093","title":"跆博跆拳道健身俱乐部","lon":"121.50573","lat":"31.18856","category":"247","category_name":"餐饮美食","address":"浦东新区浦东南路3669号浦东游泳馆(浦东南路沂林路)"},{"poiid":"B2094654DA68A6FB409C","title":"上电实业大厦","lon":"121.50438","lat":"31.18473","category":"46","category_name":"楼宇","address":"高科西路551"},{"poiid":"B2094757D064A0FC4893","title":"久斯台球俱乐部(浦东游泳馆店)","lon":"121.50067953","lat":"31.186198112","category":"171","category_name":"台球厅","address":"上海浦东南路浦东游泳馆二楼"},{"poiid":"B2094655D265A1FE469C","title":"钱柜(浦东旗舰店)","lon":"121.50189","lat":"31.18413","category":"170","category_name":"KTV","address":"浦东南路1118号上海湾国际大厦B1层"},{"poiid":"B2094654DA6AA3FE4798","title":"天意洲家园","lon":"121.50825","lat":"31.187544","category":"47","category_name":"住宅区","address":"上海市浦东新区栖山路1876弄"},{"poiid":"B2094757D168A7FF439B","title":"上海市浦东新区土地储备中心","lon":"121.50522073","lat":"31.190175447","category":"46","category_name":"楼宇","address":"上海市浦东新区浦东南路3618号"},{"poiid":"B2094757D168A4FB479A","title":"海逸酒家","lon":"121.497772217","lat":"31.1877937317","category":"247","category_name":"餐饮美食","address":"浦东新区世博大道1200号世博文化中心6楼"},{"poiid":"B2094655D26BA2F4499D","title":"浦三路","lon":"121.50555","lat":"31.1904","category":"38","category_name":"公交车站","address":""},{"poiid":"B2094655D268A1FD479B","title":"浦东南路3649弄小区","lon":"121.5057","lat":"31.18942","category":"47","category_name":"住宅区","address":"浦东南路3649弄"},{"poiid":"B2094655D264A4F8409A","title":"好美家浦南店","lon":"121.50284","lat":"31.18508","category":"123","category_name":"家具建材市场","address":"浦东南路3799号"}]