[{"poiid":"B2094655D36DA6FF499E","title":"上海影城--世博国际影城","lon":"121.48736","lat":"31.18564","category":"178","category_name":"电影院","address":"上海市浦东新区世博大道1200号世博文化中心6楼(梅赛德斯-奔驰文化中心)"},{"poiid":"B2094757D06EAAF4409D","title":"世博公园","lon":"121.48693171","lat":"31.18741865","category":"196","category_name":"公园","address":"浦东新区浦东世博园B片区世博大道北侧"},{"poiid":"B2094750D36BA7FC409B","title":"梅赛德斯-奔驰文化中心 Mercedes-Benz Arena","lon":"121.493168","lat":"31.190006","category":"646","category_name":"文化体育类公司","address":"浦东新区世博大道1200号(近上南路)"},{"poiid":"B2094757D06FA3FB4393","title":"上海世博展览馆 Shanghai World EXPO Exhibition & Convention Center","lon":"121.489975548","lat":"31.1822755304","category":"260","category_name":"其他","address":"上海浦东新区国展路1099号"},{"poiid":"B2094757D06FA3FE4493","title":"上海世博中心","lon":"121.489342559","lat":"31.1860505323","category":"260","category_name":"其他","address":"上海浦东新区世博大道1500号"},{"poiid":"B2094757D06FAAFE419F","title":"后滩公园","lon":"121.4758535","lat":"31.184998305","category":"196","category_name":"公园","address":"上海浦东新区世博会园B片区"},{"poiid":"B2094655D26EA7F84093","title":"卢浦大桥","lon":"121.48255","lat":"31.18603","category":"250","category_name":"公园户外","address":"卢湾区鲁班路909号"},{"poiid":"B2094757D06EABF54893","title":"星巴克 STARBUCKS (世博演艺中心店)","lon":"121.4896985","lat":"31.1858498","category":"260","category_name":"其他","address":"浦东新区世博大道1200号世博演艺中心L111商铺"},{"poiid":"B2094757D06FA3F8479F","title":"世博会意大利馆","lon":"121.47576","lat":"31.1841","category":"260","category_name":"其他","address":"上海浦东新区世博大道上钢路口(原上海世博会C片区)"},{"poiid":"B2094757D06EAAF4449B","title":"长清路地铁站","lon":"121.48647265","lat":"31.174856049","category":"36","category_name":"地铁站","address":"上海轨道交通 七号线 轨交长清路站 7"},{"poiid":"B2094757D06FA5F8499C","title":"宝钢大舞台","lon":"121.484091043","lat":"31.1868936206","category":"260","category_name":"其他","address":"上海浦东新区世博公园"},{"poiid":"B2094655D26CABFD4393","title":"新世纪花苑","lon":"121.48472","lat":"31.17509","category":"47","category_name":"住宅区","address":"上海浦东新区耀华路421弄"},{"poiid":"B2094750D26FA0FE4993","title":"上海世博展览馆","lon":"121.490014","lat":"31.182562","category":"183","category_name":"展览馆","address":"浦东新区国展路1099号(近世博轴西侧)"},{"poiid":"B2094757D06EABF4499A","title":"The Mixing Room&amp;MUSE","lon":"121.4909603","lat":"31.1862715","category":"179","category_name":"音乐厅","address":"上海浦东新区世博大道1200号(梅赛德斯-奔驰文化中心B1层)"},{"poiid":"B2094757D06FAAF4459D","title":"耀華路","lon":"121.48446655","lat":"31.174270629","category":"500","category_name":"未知分类","address":"上海耀華路"},{"poiid":"B2094757D06FA6F54192","title":"上南花城","lon":"121.49073","lat":"31.179022","category":"47","category_name":"住宅区","address":"上海市浦东新区耀华路85-87弄"},{"poiid":"B2094757D06BA1FA409A","title":"绍兴饭店(世博店)","lon":"121.48555","lat":"31.18079","category":"75","category_name":"浙江菜","address":"浦东新区国展路1099号上海世博展览馆2楼"},{"poiid":"B2094757D068A1FF4598","title":"红宝石(昌里路店)","lon":"121.48631391","lat":"31.177169422","category":"67","category_name":"甜品店","address":"浦东新区昌里路347号(近长清路)"},{"poiid":"B2094757D66FA2F94798","title":"世博展览馆1馆","lon":"121.490898738","lat":"31.1825972857","category":"500","category_name":"未知分类","address":"上海国展路1099号"},{"poiid":"B2094757D068A7F5469E","title":"复旦大学附属眼耳鼻喉科医院(浦东分院)","lon":"121.484897","lat":"31.17427","category":"162","category_name":"医院","address":"浦东新区耀华路391号(近长清路)"},{"poiid":"B2094752D26EA5F8479E","title":"世博希腊馆","lon":"121.477208","lat":"31.185743","category":"500","category_name":"未知分类","address":null},{"poiid":"B2094757D06FA4F54299","title":"世博园七号门","lon":"121.484425477","lat":"31.1802093305","category":"680","category_name":"楼宇机构","address":"上海世博园七号门长清北路出入口"},{"poiid":"B2094751DA6BA0F44893","title":"斗牛士（世博轴店）","lon":"121.487263","lat":"31.189611","category":"247","category_name":"餐饮美食","address":"浦东新区世博大道1368号世博源B1楼G09-10号铺(近上南路)"},{"poiid":"B2094757D66BA3F54999","title":"伊诺咖啡 沙特馆店","lon":"121.486153","lat":"31.1839423","category":"260","category_name":"其他","address":"浦东新区博成路1221号沙特馆旁(近中国馆)"},{"poiid":"B2094752D06DA3F9459D","title":"飞行家主题园","lon":"121.475925","lat":"31.180498","category":"250","category_name":"公园户外","address":"上海市浦东新区国展路311号"},{"poiid":"B2094752D365A4FD4993","title":"2062新能源主题公园","lon":"121.480274","lat":"31.182386","category":"250","category_name":"公园户外","address":"世博园C片区"},{"poiid":"B2094750D26DA6FC4498","title":"历城路夜排档","lon":"121.483647","lat":"31.183592","category":"247","category_name":"餐饮美食","address":"历城路昌里路"},{"poiid":"B2094757D16FABF84098","title":"新世纪花苑三期","lon":"121.48117573","lat":"31.175086125","category":"47","category_name":"住宅区","address":"上海市杨浦区杭州路66弄"},{"poiid":"B2094752DB6AA0FB469A","title":"上海海之宝体育运动中心","lon":"121.4775055492","lat":"31.179249091782","category":"230","category_name":"足球场","address":"上海浦东新区国展路410号（近上钢路）"},{"poiid":"B2094757D06FA5F44998","title":"世博会主题馆","lon":"121.4902454","lat":"31.182306354","category":"260","category_name":"其他","address":"上海世博会B片区 世博馆路"},{"poiid":"B2094757D069A3FE4292","title":"龙腾大道南滨江","lon":"121.47991373","lat":"31.180792247","category":"260","category_name":"其他","address":"上海市徐汇区龙腾大道"},{"poiid":"B2094752D76CA3FE449F","title":"中国婚博会","lon":"121.483647","lat":"31.183592","category":"627","category_name":"一般地点标志","address":"上海世博展览馆"},{"poiid":"B2094655D26AA0F94899","title":"地铁世博园站","lon":"121.48543","lat":"31.18239","category":"36","category_name":"地铁站","address":""},{"poiid":"B2094753D768A2FF469F","title":"小辉哥火锅（乐城店）","lon":"121.47583","lat":"31.182259","category":"247","category_name":"餐饮美食","address":"上海市徐汇区中山南二路699号2栋304—305"},{"poiid":"B2094750D06CA3FF419B","title":"仁济医院","lon":"121.489074","lat":"31.182588","category":"162","category_name":"医院","address":"浦建路"},{"poiid":"B2094757D064A5FE419C","title":"世博会欧洲广场","lon":"121.482866685","lat":"31.1816580569","category":"250","category_name":"公园户外","address":"上海浦东新区长清北路近国展路(原上海世博会C片区)"},{"poiid":"B2094752D265A6FB429E","title":"世博源","lon":"121.487263","lat":"31.189585","category":"247","category_name":"餐饮美食","address":"世博大道1368号"},{"poiid":"B2094752D46AA7FA4592","title":"昌里路","lon":"121.483647","lat":"31.183592","category":"500","category_name":"未知分类","address":null},{"poiid":"B2094757D068A6FB459C","title":"世博会墨西哥馆","lon":"121.47791","lat":"31.17884","category":"260","category_name":"其他","address":"上海浦东新区国展路近上钢路(原上海世博会C片区)"},{"poiid":"B2094757D16FA3FD419E","title":"世博会8号门 后滩","lon":"121.483853","lat":"31.179195","category":"500","category_name":"未知分类","address":"上海世博大道近雪野二路"},{"poiid":"B2094757D06BA0FA459C","title":"鼎味鲜苏州汤包馆(昌里店)","lon":"121.484429738","lat":"31.1770331673","category":"247","category_name":"餐饮美食","address":"上海市浦东新区昌里路(长青公园旁)"},{"poiid":"B2094655D265A1FF4699","title":"中心广场(波兰馆东)","lon":"121.48181","lat":"31.18467","category":"201","category_name":"城市广场","address":"上海世博园区"},{"poiid":"B2094757D469A3F94193","title":"心乐蝶舞灵性舞蹈养生餐厅","lon":"121.4909603","lat":"31.1862715","category":"76","category_name":"上海菜","address":"世博大道1515号梅赛德斯奔驰文化中心L601近雪野路"},{"poiid":"B2094752DA6AA5FE469B","title":"银乐迪浦东世博店","lon":"121.487487","lat":"31.185516","category":"500","category_name":"未知分类","address":"上海市 浦东新区世博大道1368号1G3(世博源)"},{"poiid":"B2094757D064A1F5449B","title":"东方体育中心P8观众停车场","lon":"121.48448861","lat":"31.177274622","category":"500","category_name":"未知分类","address":"上海耀体路耀龙路"},{"poiid":"B2094655D26AA0F9469D","title":"地铁长清路站","lon":"121.48751","lat":"31.17543","category":"36","category_name":"地铁站","address":""},{"poiid":"B2094750D365A3FB489B","title":"上海意大利中心","lon":"121.47582388308","lat":"31.183763362212","category":"646","category_name":"文化体育类公司","address":"浦东新区世博大道2095号(近塘子泾路)"},{"poiid":"B2094753D26DA6FC449E","title":"上海梅赛德斯奔驰文化中心","lon":"121.490146","lat":"31.176861","category":"500","category_name":"未知分类","address":"上海市 上海浦东世博大道1200号"},{"poiid":"B2094757D06FA6FD4798","title":"Porterhouse爱尔兰酒吧","lon":"121.482203554","lat":"31.1844455537","category":"172","category_name":"酒吧","address":"上海世博园C区内"},{"poiid":"B2094751D569A5F84693","title":"梅赛德斯奔驰演艺中心","lon":"121.487823","lat":"31.179671","category":"500","category_name":"未知分类","address":null},{"poiid":"B2094655D36DA6FF499E","title":"上海影城--世博国际影城","lon":"121.48736","lat":"31.18564","category":"178","category_name":"电影院","address":"上海市浦东新区世博大道1200号世博文化中心6楼(梅赛德斯-奔驰文化中心)"},{"poiid":"B2094757D06EAAF4409D","title":"世博公园","lon":"121.48693171","lat":"31.18741865","category":"196","category_name":"公园","address":"浦东新区浦东世博园B片区世博大道北侧"},{"poiid":"B2094750D36BA7FC409B","title":"梅赛德斯-奔驰文化中心 Mercedes-Benz Arena","lon":"121.493168","lat":"31.190006","category":"646","category_name":"文化体育类公司","address":"浦东新区世博大道1200号(近上南路)"},{"poiid":"B2094757D06FA3FB4393","title":"上海世博展览馆 Shanghai World EXPO Exhibition & Convention Center","lon":"121.489975548","lat":"31.1822755304","category":"260","category_name":"其他","address":"上海浦东新区国展路1099号"},{"poiid":"B2094757D06FA3FE4493","title":"上海世博中心","lon":"121.489342559","lat":"31.1860505323","category":"260","category_name":"其他","address":"上海浦东新区世博大道1500号"},{"poiid":"B2094757D06FAAFE419F","title":"后滩公园","lon":"121.4758535","lat":"31.184998305","category":"196","category_name":"公园","address":"上海浦东新区世博会园B片区"},{"poiid":"B2094655D26EA7F84093","title":"卢浦大桥","lon":"121.48255","lat":"31.18603","category":"250","category_name":"公园户外","address":"卢湾区鲁班路909号"},{"poiid":"B2094757D06EABF54893","title":"星巴克 STARBUCKS (世博演艺中心店)","lon":"121.4896985","lat":"31.1858498","category":"260","category_name":"其他","address":"浦东新区世博大道1200号世博演艺中心L111商铺"},{"poiid":"B2094757D06FA3F8479F","title":"世博会意大利馆","lon":"121.47576","lat":"31.1841","category":"260","category_name":"其他","address":"上海浦东新区世博大道上钢路口(原上海世博会C片区)"},{"poiid":"B2094757D06EAAF4449B","title":"长清路地铁站","lon":"121.48647265","lat":"31.174856049","category":"36","category_name":"地铁站","address":"上海轨道交通 七号线 轨交长清路站 7"},{"poiid":"B2094757D06FA5F8499C","title":"宝钢大舞台","lon":"121.484091043","lat":"31.1868936206","category":"260","category_name":"其他","address":"上海浦东新区世博公园"},{"poiid":"B2094655D26CABFD4393","title":"新世纪花苑","lon":"121.48472","lat":"31.17509","category":"47","category_name":"住宅区","address":"上海浦东新区耀华路421弄"},{"poiid":"B2094750D26FA0FE4993","title":"上海世博展览馆","lon":"121.490014","lat":"31.182562","category":"183","category_name":"展览馆","address":"浦东新区国展路1099号(近世博轴西侧)"},{"poiid":"B2094757D06EABF4499A","title":"The Mixing Room&amp;MUSE","lon":"121.4909603","lat":"31.1862715","category":"179","category_name":"音乐厅","address":"上海浦东新区世博大道1200号(梅赛德斯-奔驰文化中心B1层)"},{"poiid":"B2094757D06FAAF4459D","title":"耀華路","lon":"121.48446655","lat":"31.174270629","category":"500","category_name":"未知分类","address":"上海耀華路"},{"poiid":"B2094757D06FA6F54192","title":"上南花城","lon":"121.49073","lat":"31.179022","category":"47","category_name":"住宅区","address":"上海市浦东新区耀华路85-87弄"},{"poiid":"B2094757D06BA1FA409A","title":"绍兴饭店(世博店)","lon":"121.48555","lat":"31.18079","category":"75","category_name":"浙江菜","address":"浦东新区国展路1099号上海世博展览馆2楼"},{"poiid":"B2094757D068A1FF4598","title":"红宝石(昌里路店)","lon":"121.48631391","lat":"31.177169422","category":"67","category_name":"甜品店","address":"浦东新区昌里路347号(近长清路)"},{"poiid":"B2094757D66FA2F94798","title":"世博展览馆1馆","lon":"121.490898738","lat":"31.1825972857","category":"500","category_name":"未知分类","address":"上海国展路1099号"},{"poiid":"B2094757D068A7F5469E","title":"复旦大学附属眼耳鼻喉科医院(浦东分院)","lon":"121.484897","lat":"31.17427","category":"162","category_name":"医院","address":"浦东新区耀华路391号(近长清路)"},{"poiid":"B2094752D26EA5F8479E","title":"世博希腊馆","lon":"121.477208","lat":"31.185743","category":"500","category_name":"未知分类","address":null},{"poiid":"B2094757D06FA4F54299","title":"世博园七号门","lon":"121.484425477","lat":"31.1802093305","category":"680","category_name":"楼宇机构","address":"上海世博园七号门长清北路出入口"},{"poiid":"B2094751DA6BA0F44893","title":"斗牛士（世博轴店）","lon":"121.487263","lat":"31.189611","category":"247","category_name":"餐饮美食","address":"浦东新区世博大道1368号世博源B1楼G09-10号铺(近上南路)"},{"poiid":"B2094757D66BA3F54999","title":"伊诺咖啡 沙特馆店","lon":"121.486153","lat":"31.1839423","category":"260","category_name":"其他","address":"浦东新区博成路1221号沙特馆旁(近中国馆)"},{"poiid":"B2094752D06DA3F9459D","title":"飞行家主题园","lon":"121.475925","lat":"31.180498","category":"250","category_name":"公园户外","address":"上海市浦东新区国展路311号"},{"poiid":"B2094752D365A4FD4993","title":"2062新能源主题公园","lon":"121.480274","lat":"31.182386","category":"250","category_name":"公园户外","address":"世博园C片区"},{"poiid":"B2094750D26DA6FC4498","title":"历城路夜排档","lon":"121.483647","lat":"31.183592","category":"247","category_name":"餐饮美食","address":"历城路昌里路"},{"poiid":"B2094757D16FABF84098","title":"新世纪花苑三期","lon":"121.48117573","lat":"31.175086125","category":"47","category_name":"住宅区","address":"上海市杨浦区杭州路66弄"},{"poiid":"B2094752DB6AA0FB469A","title":"上海海之宝体育运动中心","lon":"121.4775055492","lat":"31.179249091782","category":"230","category_name":"足球场","address":"上海浦东新区国展路410号（近上钢路）"},{"poiid":"B2094757D06FA5F44998","title":"世博会主题馆","lon":"121.4902454","lat":"31.182306354","category":"260","category_name":"其他","address":"上海世博会B片区 世博馆路"},{"poiid":"B2094757D069A3FE4292","title":"龙腾大道南滨江","lon":"121.47991373","lat":"31.180792247","category":"260","category_name":"其他","address":"上海市徐汇区龙腾大道"},{"poiid":"B2094752D76CA3FE449F","title":"中国婚博会","lon":"121.483647","lat":"31.183592","category":"627","category_name":"一般地点标志","address":"上海世博展览馆"},{"poiid":"B2094655D26AA0F94899","title":"地铁世博园站","lon":"121.48543","lat":"31.18239","category":"36","category_name":"地铁站","address":""},{"poiid":"B2094753D768A2FF469F","title":"小辉哥火锅（乐城店）","lon":"121.47583","lat":"31.182259","category":"247","category_name":"餐饮美食","address":"上海市徐汇区中山南二路699号2栋304—305"},{"poiid":"B2094750D06CA3FF419B","title":"仁济医院","lon":"121.489074","lat":"31.182588","category":"162","category_name":"医院","address":"浦建路"},{"poiid":"B2094757D064A5FE419C","title":"世博会欧洲广场","lon":"121.482866685","lat":"31.1816580569","category":"250","category_name":"公园户外","address":"上海浦东新区长清北路近国展路(原上海世博会C片区)"},{"poiid":"B2094752D265A6FB429E","title":"世博源","lon":"121.487263","lat":"31.189585","category":"247","category_name":"餐饮美食","address":"世博大道1368号"},{"poiid":"B2094752D46AA7FA4592","title":"昌里路","lon":"121.483647","lat":"31.183592","category":"500","category_name":"未知分类","address":null},{"poiid":"B2094757D068A6FB459C","title":"世博会墨西哥馆","lon":"121.47791","lat":"31.17884","category":"260","category_name":"其他","address":"上海浦东新区国展路近上钢路(原上海世博会C片区)"},{"poiid":"B2094757D16FA3FD419E","title":"世博会8号门 后滩","lon":"121.483853","lat":"31.179195","category":"500","category_name":"未知分类","address":"上海世博大道近雪野二路"},{"poiid":"B2094757D06BA0FA459C","title":"鼎味鲜苏州汤包馆(昌里店)","lon":"121.484429738","lat":"31.1770331673","category":"247","category_name":"餐饮美食","address":"上海市浦东新区昌里路(长青公园旁)"},{"poiid":"B2094655D265A1FF4699","title":"中心广场(波兰馆东)","lon":"121.48181","lat":"31.18467","category":"201","category_name":"城市广场","address":"上海世博园区"},{"poiid":"B2094757D469A3F94193","title":"心乐蝶舞灵性舞蹈养生餐厅","lon":"121.4909603","lat":"31.1862715","category":"76","category_name":"上海菜","address":"世博大道1515号梅赛德斯奔驰文化中心L601近雪野路"},{"poiid":"B2094752DA6AA5FE469B","title":"银乐迪浦东世博店","lon":"121.487487","lat":"31.185516","category":"500","category_name":"未知分类","address":"上海市 浦东新区世博大道1368号1G3(世博源)"},{"poiid":"B2094757D064A1F5449B","title":"东方体育中心P8观众停车场","lon":"121.48448861","lat":"31.177274622","category":"500","category_name":"未知分类","address":"上海耀体路耀龙路"},{"poiid":"B2094655D26AA0F9469D","title":"地铁长清路站","lon":"121.48751","lat":"31.17543","category":"36","category_name":"地铁站","address":""},{"poiid":"B2094750D365A3FB489B","title":"上海意大利中心","lon":"121.47582388308","lat":"31.183763362212","category":"646","category_name":"文化体育类公司","address":"浦东新区世博大道2095号(近塘子泾路)"},{"poiid":"B2094753D26DA6FC449E","title":"上海梅赛德斯奔驰文化中心","lon":"121.490146","lat":"31.176861","category":"500","category_name":"未知分类","address":"上海市 上海浦东世博大道1200号"},{"poiid":"B2094757D06FA6FD4798","title":"Porterhouse爱尔兰酒吧","lon":"121.482203554","lat":"31.1844455537","category":"172","category_name":"酒吧","address":"上海世博园C区内"},{"poiid":"B2094751D569A5F84693","title":"梅赛德斯奔驰演艺中心","lon":"121.487823","lat":"31.179671","category":"500","category_name":"未知分类","address":null},{"poiid":"B2094655D36DA6FF499E","title":"上海影城--世博国际影城","lon":"121.48736","lat":"31.18564","category":"178","category_name":"电影院","address":"上海市浦东新区世博大道1200号世博文化中心6楼(梅赛德斯-奔驰文化中心)"},{"poiid":"B2094757D06EAAF4409D","title":"世博公园","lon":"121.48693171","lat":"31.18741865","category":"196","category_name":"公园","address":"浦东新区浦东世博园B片区世博大道北侧"},{"poiid":"B2094750D36BA7FC409B","title":"梅赛德斯-奔驰文化中心 Mercedes-Benz Arena","lon":"121.493168","lat":"31.190006","category":"646","category_name":"文化体育类公司","address":"浦东新区世博大道1200号(近上南路)"},{"poiid":"B2094757D06FA3FB4393","title":"上海世博展览馆 Shanghai World EXPO Exhibition & Convention Center","lon":"121.489975548","lat":"31.1822755304","category":"260","category_name":"其他","address":"上海浦东新区国展路1099号"},{"poiid":"B2094757D06FA3FE4493","title":"上海世博中心","lon":"121.489342559","lat":"31.1860505323","category":"260","category_name":"其他","address":"上海浦东新区世博大道1500号"},{"poiid":"B2094757D06FAAFE419F","title":"后滩公园","lon":"121.4758535","lat":"31.184998305","category":"196","category_name":"公园","address":"上海浦东新区世博会园B片区"},{"poiid":"B2094655D26EA7F84093","title":"卢浦大桥","lon":"121.48255","lat":"31.18603","category":"250","category_name":"公园户外","address":"卢湾区鲁班路909号"},{"poiid":"B2094757D06EABF54893","title":"星巴克 STARBUCKS (世博演艺中心店)","lon":"121.4896985","lat":"31.1858498","category":"260","category_name":"其他","address":"浦东新区世博大道1200号世博演艺中心L111商铺"},{"poiid":"B2094757D06FA3F8479F","title":"世博会意大利馆","lon":"121.47576","lat":"31.1841","category":"260","category_name":"其他","address":"上海浦东新区世博大道上钢路口(原上海世博会C片区)"},{"poiid":"B2094757D06EAAF4449B","title":"长清路地铁站","lon":"121.48647265","lat":"31.174856049","category":"36","category_name":"地铁站","address":"上海轨道交通 七号线 轨交长清路站 7"},{"poiid":"B2094757D06FA5F8499C","title":"宝钢大舞台","lon":"121.484091043","lat":"31.1868936206","category":"260","category_name":"其他","address":"上海浦东新区世博公园"},{"poiid":"B2094655D26CABFD4393","title":"新世纪花苑","lon":"121.48472","lat":"31.17509","category":"47","category_name":"住宅区","address":"上海浦东新区耀华路421弄"},{"poiid":"B2094750D26FA0FE4993","title":"上海世博展览馆","lon":"121.490014","lat":"31.182562","category":"183","category_name":"展览馆","address":"浦东新区国展路1099号(近世博轴西侧)"},{"poiid":"B2094757D06EABF4499A","title":"The Mixing Room&amp;MUSE","lon":"121.4909603","lat":"31.1862715","category":"179","category_name":"音乐厅","address":"上海浦东新区世博大道1200号(梅赛德斯-奔驰文化中心B1层)"},{"poiid":"B2094757D06FAAF4459D","title":"耀華路","lon":"121.48446655","lat":"31.174270629","category":"500","category_name":"未知分类","address":"上海耀華路"},{"poiid":"B2094757D06FA6F54192","title":"上南花城","lon":"121.49073","lat":"31.179022","category":"47","category_name":"住宅区","address":"上海市浦东新区耀华路85-87弄"},{"poiid":"B2094757D06BA1FA409A","title":"绍兴饭店(世博店)","lon":"121.48555","lat":"31.18079","category":"75","category_name":"浙江菜","address":"浦东新区国展路1099号上海世博展览馆2楼"},{"poiid":"B2094757D068A1FF4598","title":"红宝石(昌里路店)","lon":"121.48631391","lat":"31.177169422","category":"67","category_name":"甜品店","address":"浦东新区昌里路347号(近长清路)"},{"poiid":"B2094757D66FA2F94798","title":"世博展览馆1馆","lon":"121.490898738","lat":"31.1825972857","category":"500","category_name":"未知分类","address":"上海国展路1099号"},{"poiid":"B2094757D068A7F5469E","title":"复旦大学附属眼耳鼻喉科医院(浦东分院)","lon":"121.484897","lat":"31.17427","category":"162","category_name":"医院","address":"浦东新区耀华路391号(近长清路)"},{"poiid":"B2094752D26EA5F8479E","title":"世博希腊馆","lon":"121.477208","lat":"31.185743","category":"500","category_name":"未知分类","address":null},{"poiid":"B2094757D06FA4F54299","title":"世博园七号门","lon":"121.484425477","lat":"31.1802093305","category":"680","category_name":"楼宇机构","address":"上海世博园七号门长清北路出入口"},{"poiid":"B2094751DA6BA0F44893","title":"斗牛士（世博轴店）","lon":"121.487263","lat":"31.189611","category":"247","category_name":"餐饮美食","address":"浦东新区世博大道1368号世博源B1楼G09-10号铺(近上南路)"},{"poiid":"B2094757D66BA3F54999","title":"伊诺咖啡 沙特馆店","lon":"121.486153","lat":"31.1839423","category":"260","category_name":"其他","address":"浦东新区博成路1221号沙特馆旁(近中国馆)"},{"poiid":"B2094752D06DA3F9459D","title":"飞行家主题园","lon":"121.475925","lat":"31.180498","category":"250","category_name":"公园户外","address":"上海市浦东新区国展路311号"},{"poiid":"B2094752D365A4FD4993","title":"2062新能源主题公园","lon":"121.480274","lat":"31.182386","category":"250","category_name":"公园户外","address":"世博园C片区"},{"poiid":"B2094750D26DA6FC4498","title":"历城路夜排档","lon":"121.483647","lat":"31.183592","category":"247","category_name":"餐饮美食","address":"历城路昌里路"},{"poiid":"B2094757D16FABF84098","title":"新世纪花苑三期","lon":"121.48117573","lat":"31.175086125","category":"47","category_name":"住宅区","address":"上海市杨浦区杭州路66弄"},{"poiid":"B2094752DB6AA0FB469A","title":"上海海之宝体育运动中心","lon":"121.4775055492","lat":"31.179249091782","category":"230","category_name":"足球场","address":"上海浦东新区国展路410号（近上钢路）"},{"poiid":"B2094757D06FA5F44998","title":"世博会主题馆","lon":"121.4902454","lat":"31.182306354","category":"260","category_name":"其他","address":"上海世博会B片区 世博馆路"},{"poiid":"B2094757D069A3FE4292","title":"龙腾大道南滨江","lon":"121.47991373","lat":"31.180792247","category":"260","category_name":"其他","address":"上海市徐汇区龙腾大道"},{"poiid":"B2094752D76CA3FE449F","title":"中国婚博会","lon":"121.483647","lat":"31.183592","category":"627","category_name":"一般地点标志","address":"上海世博展览馆"},{"poiid":"B2094655D26AA0F94899","title":"地铁世博园站","lon":"121.48543","lat":"31.18239","category":"36","category_name":"地铁站","address":""},{"poiid":"B2094753D768A2FF469F","title":"小辉哥火锅（乐城店）","lon":"121.47583","lat":"31.182259","category":"247","category_name":"餐饮美食","address":"上海市徐汇区中山南二路699号2栋304—305"},{"poiid":"B2094750D06CA3FF419B","title":"仁济医院","lon":"121.489074","lat":"31.182588","category":"162","category_name":"医院","address":"浦建路"},{"poiid":"B2094757D064A5FE419C","title":"世博会欧洲广场","lon":"121.482866685","lat":"31.1816580569","category":"250","category_name":"公园户外","address":"上海浦东新区长清北路近国展路(原上海世博会C片区)"},{"poiid":"B2094752D265A6FB429E","title":"世博源","lon":"121.487263","lat":"31.189585","category":"247","category_name":"餐饮美食","address":"世博大道1368号"},{"poiid":"B2094752D46AA7FA4592","title":"昌里路","lon":"121.483647","lat":"31.183592","category":"500","category_name":"未知分类","address":null},{"poiid":"B2094757D068A6FB459C","title":"世博会墨西哥馆","lon":"121.47791","lat":"31.17884","category":"260","category_name":"其他","address":"上海浦东新区国展路近上钢路(原上海世博会C片区)"},{"poiid":"B2094757D16FA3FD419E","title":"世博会8号门 后滩","lon":"121.483853","lat":"31.179195","category":"500","category_name":"未知分类","address":"上海世博大道近雪野二路"},{"poiid":"B2094757D06BA0FA459C","title":"鼎味鲜苏州汤包馆(昌里店)","lon":"121.484429738","lat":"31.1770331673","category":"247","category_name":"餐饮美食","address":"上海市浦东新区昌里路(长青公园旁)"},{"poiid":"B2094655D265A1FF4699","title":"中心广场(波兰馆东)","lon":"121.48181","lat":"31.18467","category":"201","category_name":"城市广场","address":"上海世博园区"},{"poiid":"B2094757D469A3F94193","title":"心乐蝶舞灵性舞蹈养生餐厅","lon":"121.4909603","lat":"31.1862715","category":"76","category_name":"上海菜","address":"世博大道1515号梅赛德斯奔驰文化中心L601近雪野路"},{"poiid":"B2094752DA6AA5FE469B","title":"银乐迪浦东世博店","lon":"121.487487","lat":"31.185516","category":"500","category_name":"未知分类","address":"上海市 浦东新区世博大道1368号1G3(世博源)"},{"poiid":"B2094757D064A1F5449B","title":"东方体育中心P8观众停车场","lon":"121.48448861","lat":"31.177274622","category":"500","category_name":"未知分类","address":"上海耀体路耀龙路"},{"poiid":"B2094655D26AA0F9469D","title":"地铁长清路站","lon":"121.48751","lat":"31.17543","category":"36","category_name":"地铁站","address":""},{"poiid":"B2094750D365A3FB489B","title":"上海意大利中心","lon":"121.47582388308","lat":"31.183763362212","category":"646","category_name":"文化体育类公司","address":"浦东新区世博大道2095号(近塘子泾路)"},{"poiid":"B2094753D26DA6FC449E","title":"上海梅赛德斯奔驰文化中心","lon":"121.490146","lat":"31.176861","category":"500","category_name":"未知分类","address":"上海市 上海浦东世博大道1200号"},{"poiid":"B2094757D06FA6FD4798","title":"Porterhouse爱尔兰酒吧","lon":"121.482203554","lat":"31.1844455537","category":"172","category_name":"酒吧","address":"上海世博园C区内"},{"poiid":"B2094751D569A5F84693","title":"梅赛德斯奔驰演艺中心","lon":"121.487823","lat":"31.179671","category":"500","category_name":"未知分类","address":null},{"poiid":"B2094655D36DA6FF499E","title":"上海影城--世博国际影城","lon":"121.48736","lat":"31.18564","category":"178","category_name":"电影院","address":"上海市浦东新区世博大道1200号世博文化中心6楼(梅赛德斯-奔驰文化中心)"},{"poiid":"B2094757D06EAAF4409D","title":"世博公园","lon":"121.48693171","lat":"31.18741865","category":"196","category_name":"公园","address":"浦东新区浦东世博园B片区世博大道北侧"},{"poiid":"B2094750D36BA7FC409B","title":"梅赛德斯-奔驰文化中心 Mercedes-Benz Arena","lon":"121.493168","lat":"31.190006","category":"646","category_name":"文化体育类公司","address":"浦东新区世博大道1200号(近上南路)"},{"poiid":"B2094757D06FA3FB4393","title":"上海世博展览馆 Shanghai World EXPO Exhibition & Convention Center","lon":"121.489975548","lat":"31.1822755304","category":"260","category_name":"其他","address":"上海浦东新区国展路1099号"},{"poiid":"B2094757D06FA3FE4493","title":"上海世博中心","lon":"121.489342559","lat":"31.1860505323","category":"260","category_name":"其他","address":"上海浦东新区世博大道1500号"},{"poiid":"B2094757D06FAAFE419F","title":"后滩公园","lon":"121.4758535","lat":"31.184998305","category":"196","category_name":"公园","address":"上海浦东新区世博会园B片区"},{"poiid":"B2094655D26EA7F84093","title":"卢浦大桥","lon":"121.48255","lat":"31.18603","category":"250","category_name":"公园户外","address":"卢湾区鲁班路909号"},{"poiid":"B2094757D06EABF54893","title":"星巴克 STARBUCKS (世博演艺中心店)","lon":"121.4896985","lat":"31.1858498","category":"260","category_name":"其他","address":"浦东新区世博大道1200号世博演艺中心L111商铺"},{"poiid":"B2094757D06FA3F8479F","title":"世博会意大利馆","lon":"121.47576","lat":"31.1841","category":"260","category_name":"其他","address":"上海浦东新区世博大道上钢路口(原上海世博会C片区)"},{"poiid":"B2094757D06EAAF4449B","title":"长清路地铁站","lon":"121.48647265","lat":"31.174856049","category":"36","category_name":"地铁站","address":"上海轨道交通 七号线 轨交长清路站 7"},{"poiid":"B2094757D06FA5F8499C","title":"宝钢大舞台","lon":"121.484091043","lat":"31.1868936206","category":"260","category_name":"其他","address":"上海浦东新区世博公园"},{"poiid":"B2094655D26CABFD4393","title":"新世纪花苑","lon":"121.48472","lat":"31.17509","category":"47","category_name":"住宅区","address":"上海浦东新区耀华路421弄"},{"poiid":"B2094750D26FA0FE4993","title":"上海世博展览馆","lon":"121.490014","lat":"31.182562","category":"183","category_name":"展览馆","address":"浦东新区国展路1099号(近世博轴西侧)"},{"poiid":"B2094757D06EABF4499A","title":"The Mixing Room&amp;MUSE","lon":"121.4909603","lat":"31.1862715","category":"179","category_name":"音乐厅","address":"上海浦东新区世博大道1200号(梅赛德斯-奔驰文化中心B1层)"},{"poiid":"B2094757D06FAAF4459D","title":"耀華路","lon":"121.48446655","lat":"31.174270629","category":"500","category_name":"未知分类","address":"上海耀華路"},{"poiid":"B2094757D06FA6F54192","title":"上南花城","lon":"121.49073","lat":"31.179022","category":"47","category_name":"住宅区","address":"上海市浦东新区耀华路85-87弄"},{"poiid":"B2094757D06BA1FA409A","title":"绍兴饭店(世博店)","lon":"121.48555","lat":"31.18079","category":"75","category_name":"浙江菜","address":"浦东新区国展路1099号上海世博展览馆2楼"},{"poiid":"B2094757D068A1FF4598","title":"红宝石(昌里路店)","lon":"121.48631391","lat":"31.177169422","category":"67","category_name":"甜品店","address":"浦东新区昌里路347号(近长清路)"},{"poiid":"B2094757D66FA2F94798","title":"世博展览馆1馆","lon":"121.490898738","lat":"31.1825972857","category":"500","category_name":"未知分类","address":"上海国展路1099号"},{"poiid":"B2094757D068A7F5469E","title":"复旦大学附属眼耳鼻喉科医院(浦东分院)","lon":"121.484897","lat":"31.17427","category":"162","category_name":"医院","address":"浦东新区耀华路391号(近长清路)"},{"poiid":"B2094752D26EA5F8479E","title":"世博希腊馆","lon":"121.477208","lat":"31.185743","category":"500","category_name":"未知分类","address":null},{"poiid":"B2094757D06FA4F54299","title":"世博园七号门","lon":"121.484425477","lat":"31.1802093305","category":"680","category_name":"楼宇机构","address":"上海世博园七号门长清北路出入口"},{"poiid":"B2094751DA6BA0F44893","title":"斗牛士（世博轴店）","lon":"121.487263","lat":"31.189611","category":"247","category_name":"餐饮美食","address":"浦东新区世博大道1368号世博源B1楼G09-10号铺(近上南路)"},{"poiid":"B2094757D66BA3F54999","title":"伊诺咖啡 沙特馆店","lon":"121.486153","lat":"31.1839423","category":"260","category_name":"其他","address":"浦东新区博成路1221号沙特馆旁(近中国馆)"},{"poiid":"B2094752D06DA3F9459D","title":"飞行家主题园","lon":"121.475925","lat":"31.180498","category":"250","category_name":"公园户外","address":"上海市浦东新区国展路311号"},{"poiid":"B2094752D365A4FD4993","title":"2062新能源主题公园","lon":"121.480274","lat":"31.182386","category":"250","category_name":"公园户外","address":"世博园C片区"},{"poiid":"B2094750D26DA6FC4498","title":"历城路夜排档","lon":"121.483647","lat":"31.183592","category":"247","category_name":"餐饮美食","address":"历城路昌里路"},{"poiid":"B2094757D16FABF84098","title":"新世纪花苑三期","lon":"121.48117573","lat":"31.175086125","category":"47","category_name":"住宅区","address":"上海市杨浦区杭州路66弄"},{"poiid":"B2094752DB6AA0FB469A","title":"上海海之宝体育运动中心","lon":"121.4775055492","lat":"31.179249091782","category":"230","category_name":"足球场","address":"上海浦东新区国展路410号（近上钢路）"},{"poiid":"B2094757D06FA5F44998","title":"世博会主题馆","lon":"121.4902454","lat":"31.182306354","category":"260","category_name":"其他","address":"上海世博会B片区 世博馆路"},{"poiid":"B2094757D069A3FE4292","title":"龙腾大道南滨江","lon":"121.47991373","lat":"31.180792247","category":"260","category_name":"其他","address":"上海市徐汇区龙腾大道"},{"poiid":"B2094752D76CA3FE449F","title":"中国婚博会","lon":"121.483647","lat":"31.183592","category":"627","category_name":"一般地点标志","address":"上海世博展览馆"},{"poiid":"B2094655D26AA0F94899","title":"地铁世博园站","lon":"121.48543","lat":"31.18239","category":"36","category_name":"地铁站","address":""},{"poiid":"B2094753D768A2FF469F","title":"小辉哥火锅（乐城店）","lon":"121.47583","lat":"31.182259","category":"247","category_name":"餐饮美食","address":"上海市徐汇区中山南二路699号2栋304—305"},{"poiid":"B2094750D06CA3FF419B","title":"仁济医院","lon":"121.489074","lat":"31.182588","category":"162","category_name":"医院","address":"浦建路"},{"poiid":"B2094757D064A5FE419C","title":"世博会欧洲广场","lon":"121.482866685","lat":"31.1816580569","category":"250","category_name":"公园户外","address":"上海浦东新区长清北路近国展路(原上海世博会C片区)"},{"poiid":"B2094752D265A6FB429E","title":"世博源","lon":"121.487263","lat":"31.189585","category":"247","category_name":"餐饮美食","address":"世博大道1368号"},{"poiid":"B2094752D46AA7FA4592","title":"昌里路","lon":"121.483647","lat":"31.183592","category":"500","category_name":"未知分类","address":null},{"poiid":"B2094757D068A6FB459C","title":"世博会墨西哥馆","lon":"121.47791","lat":"31.17884","category":"260","category_name":"其他","address":"上海浦东新区国展路近上钢路(原上海世博会C片区)"},{"poiid":"B2094757D16FA3FD419E","title":"世博会8号门 后滩","lon":"121.483853","lat":"31.179195","category":"500","category_name":"未知分类","address":"上海世博大道近雪野二路"},{"poiid":"B2094757D06BA0FA459C","title":"鼎味鲜苏州汤包馆(昌里店)","lon":"121.484429738","lat":"31.1770331673","category":"247","category_name":"餐饮美食","address":"上海市浦东新区昌里路(长青公园旁)"},{"poiid":"B2094655D265A1FF4699","title":"中心广场(波兰馆东)","lon":"121.48181","lat":"31.18467","category":"201","category_name":"城市广场","address":"上海世博园区"},{"poiid":"B2094757D469A3F94193","title":"心乐蝶舞灵性舞蹈养生餐厅","lon":"121.4909603","lat":"31.1862715","category":"76","category_name":"上海菜","address":"世博大道1515号梅赛德斯奔驰文化中心L601近雪野路"},{"poiid":"B2094752DA6AA5FE469B","title":"银乐迪浦东世博店","lon":"121.487487","lat":"31.185516","category":"500","category_name":"未知分类","address":"上海市 浦东新区世博大道1368号1G3(世博源)"},{"poiid":"B2094757D064A1F5449B","title":"东方体育中心P8观众停车场","lon":"121.48448861","lat":"31.177274622","category":"500","category_name":"未知分类","address":"上海耀体路耀龙路"},{"poiid":"B2094655D26AA0F9469D","title":"地铁长清路站","lon":"121.48751","lat":"31.17543","category":"36","category_name":"地铁站","address":""},{"poiid":"B2094750D365A3FB489B","title":"上海意大利中心","lon":"121.47582388308","lat":"31.183763362212","category":"646","category_name":"文化体育类公司","address":"浦东新区世博大道2095号(近塘子泾路)"},{"poiid":"B2094753D26DA6FC449E","title":"上海梅赛德斯奔驰文化中心","lon":"121.490146","lat":"31.176861","category":"500","category_name":"未知分类","address":"上海市 上海浦东世博大道1200号"},{"poiid":"B2094757D06FA6FD4798","title":"Porterhouse爱尔兰酒吧","lon":"121.482203554","lat":"31.1844455537","category":"172","category_name":"酒吧","address":"上海世博园C区内"},{"poiid":"B2094751D569A5F84693","title":"梅赛德斯奔驰演艺中心","lon":"121.487823","lat":"31.179671","category":"500","category_name":"未知分类","address":null}]