[{"poiid":"B2094757D06FA6FC459D","title":"工艺美术职业学院(嘉定校区)","lon":"121.25334978","lat":"31.408652081","category":"52","category_name":"高等院校","address":"嘉定区嘉行公路851号(昌徐路嘉行公路)"},{"poiid":"B2094757D16DABF94899","title":"农家大员","lon":"121.254029453","lat":"31.4195409338","category":"87","category_name":"特色／地方风味餐厅","address":"嘉定区嘉行公路1188号(新建一路口)"},{"poiid":"B2094757D06AA4FA429F","title":"徐行镇","lon":"121.273446","lat":"31.415216","category":"260","category_name":"其他","address":"上海嘉定区徐行镇"},{"poiid":"B2094750D76CAAFC4899","title":"两季烧烤","lon":"121.258","lat":"31.4053","category":"68","category_name":"快餐厅","address":"嘉定区永靖路827-829号(近胜竹路)"},{"poiid":"B2094750DB6DA4FA419A","title":"捞王猪肚鸡嘉定店","lon":"121.25786","lat":"31.40412","category":"86","category_name":"火锅店","address":"嘉定区永靖路789-791号五月花美食广场内(近胜竹路口)"},{"poiid":"B2094654D469A0F9409D","title":"上海市嘉定一中","lon":"121.25447","lat":"31.4064","category":"55","category_name":"中学","address":"嘉定区嘉行公路701号"},{"poiid":"B2094654D469A0F8429B","title":"嘉定区徐行中学","lon":"121.26937","lat":"31.41437","category":"55","category_name":"中学","address":"上海市嘉定区徐行镇新建一路215号"},{"poiid":"B2094654DB65A6F9449D","title":"上海嘉定武术学校","lon":"121.26786","lat":"31.415","category":"54","category_name":"职业技术学校","address":"徐行镇新建一路258号"},{"poiid":"B2094757D06BABF54398","title":"大石皮","lon":"121.257661653","lat":"31.4198329065","category":"500","category_name":"未知分类","address":"上海市嘉定区嘉行公路"},{"poiid":"B2094757D16BA0FA4292","title":"保利会所","lon":"121.258311653","lat":"31.4055476144","category":"500","category_name":"未知分类","address":"上海市嘉定区永靖路899弄"},{"poiid":"B2094654DB64A6FF489F","title":"中国移动徐行营业厅","lon":"121.26908","lat":"31.41453","category":"151","category_name":"电讯营业厅","address":"嘉定区徐行镇新建一路2218号"},{"poiid":"B2094750D56BA3FA4193","title":"绿洲香格丽花园","lon":"121.274461","lat":"31.417854","category":"47","category_name":"住宅区","address":"上海市嘉定区徐行镇东至启源路，南临新漕河，西至启宁路，北至徐潘公路"},{"poiid":"B2094655D36DA0FF4398","title":"徐行","lon":"121.27404","lat":"31.41675","category":"38","category_name":"公交车站","address":""},{"poiid":"B2094757D16BA0F54193","title":"品海饭店","lon":"121.260511853","lat":"31.407338451","category":"247","category_name":"餐饮美食","address":"上海嘉定区树屏路568号"},{"poiid":"B2094654D469A7F8489D","title":"快客(澄浏公路)","lon":"121.27359","lat":"31.41429","category":"117","category_name":"便民商店/便利店","address":""},{"poiid":"B2094757D168A1FE489F","title":"澄浏公路新建一路","lon":"121.27386863","lat":"31.4148859974","category":"500","category_name":"未知分类","address":"上海澄浏公路新建一路"},{"poiid":"B2094654D469A7F84392","title":"新行商场","lon":"121.27397","lat":"31.41387","category":"119","category_name":"商场","address":""},{"poiid":"B2094654D469A0F8429A","title":"徐行育红学校","lon":"121.27103","lat":"31.41191","category":"55","category_name":"中学","address":""},{"poiid":"B2094757D069A3FA499E","title":"工藝美院原創中心","lon":"121.253326416","lat":"31.40974617","category":"190","category_name":"培训机构","address":"上海嘉定區嘉行公路851號"},{"poiid":"B2094655D36CA5FE499B","title":"澄浏公路四号桥","lon":"121.27568","lat":"31.4235","category":"38","category_name":"公交车站","address":""},{"poiid":"B2094654D468A4F44899","title":"协通度假村","lon":"121.25449","lat":"31.41789","category":"207","category_name":"度假疗养场所","address":"嘉定区嘉行公路1257号(曹新公路嘉行公路)"},{"poiid":"B2094752D36CA1F8449E","title":"八字塘酒店","lon":"121.26052","lat":"31.411218","category":"247","category_name":"餐饮美食","address":null},{"poiid":"B2094654D468A4FF469E","title":"上海嘉定徐行油箱厂","lon":"121.27425","lat":"31.41673","category":"263","category_name":"公司","address":""},{"poiid":"B2094757D16AA2F8409D","title":"嘉定武术培训学校","lon":"121.27625735","lat":"31.420306116","category":"253","category_name":"校园生活","address":"上海近郊嘉定区徐行镇新建一路258号  "},{"poiid":"B2094757D064A6F4419F","title":"徐行镇政府","lon":"121.281295653","lat":"31.4177168632","category":"500","category_name":"未知分类","address":"上海市嘉定区徐行镇"},{"poiid":"B2094753D76DA0FC419C","title":"本素酸菜鱼","lon":"121.271461","lat":"31.407653","category":"247","category_name":"餐饮美食","address":"上海市 五月花美食广场"},{"poiid":"B2094655D264A3FB4792","title":"李家桥","lon":"121.26307","lat":"31.42616","category":"250","category_name":"公园户外","address":""},{"poiid":"B2094654D469A0F94498","title":"中国农村商业银行徐行支行ATM取款机","lon":"121.27267","lat":"31.41434","category":"152","category_name":"ATM","address":"新建一路101号"},{"poiid":"B2094757D66DA1FA4893","title":"今日美食","lon":"121.2559967","lat":"31.419099807","category":"247","category_name":"餐饮美食","address":"上海近郊嘉定区徐行曹新路666号(近石皮村委会)  "},{"poiid":"B2094654D469A0F84893","title":"世纪绿苑","lon":"121.25618","lat":"31.41466","category":"47","category_name":"住宅区","address":"徐行镇"},{"poiid":"B2094654D469A0F84199","title":"上海超拔乐器有限公司","lon":"121.26212","lat":"31.41037","category":"263","category_name":"公司","address":""},{"poiid":"B2094655D36DA0FC4993","title":"新建一路嘉行公路","lon":"121.25481","lat":"31.41349","category":"38","category_name":"公交车站","address":""},{"poiid":"B2094757D16FAAFA409A","title":"工艺美院女生宿舍D楼","lon":"121.25588465","lat":"31.409041685","category":"500","category_name":"未知分类","address":null},{"poiid":"B2094757D16BAAFC4293","title":"预备役高炮四团","lon":"121.25555065","lat":"31.421181934","category":"500","category_name":"未知分类","address":"上海嘉行公路"},{"poiid":"B2094751D565A4F8439E","title":"韩亭苑自助烤肉","lon":"121.260314","lat":"31.407972","category":"247","category_name":"餐饮美食","address":null},{"poiid":"B2094757D168A1F94398","title":"实验幼儿园","lon":"121.27196145","lat":"31.404187886","category":"57","category_name":"幼儿园","address":"嘉定区永新路616号(近胜竹路)"},{"poiid":"B2094654D469A0F8479E","title":"上海远东学校","lon":"121.26065","lat":"31.40346","category":"55","category_name":"中学","address":"胜竹路1630"},{"poiid":"B2094654D469A1FF499A","title":"嘉定颐景园","lon":"121.25810127744","lat":"31.405763055577","category":"47","category_name":"住宅区","address":"棋盘路1385弄22-23号"},{"poiid":"B2094655D36DA1F94799","title":"东流桥","lon":"121.26961","lat":"31.43104","category":"250","category_name":"公园户外","address":""},{"poiid":"B209475DD26BA5FA4399","title":"本素·我家酸菜鱼","lon":"121.258003","lat":"31.404005","category":"247","category_name":"餐饮美食","address":"上海市 上海嘉定区永靖路763-765号"},{"poiid":"B2094655D26BA1F44299","title":"陆家","lon":"121.28477","lat":"31.41778","category":"38","category_name":"公交车站","address":""},{"poiid":"B2094757D064A1FE4499","title":"嘉定区教师进修学院","lon":"121.25404818","lat":"31.404514907","category":"260","category_name":"其他","address":"上海嘉定区嘉行公路601号"},{"poiid":"B2094654D468A4F44998","title":"上海泓阳机械有限公司","lon":"121.27626","lat":"31.428","category":"263","category_name":"公司","address":""},{"poiid":"B209475CD16BA7FA409E","title":"本素我家酸菜鱼","lon":"121.262611","lat":"31.403171","category":"247","category_name":"餐饮美食","address":"上海市 永靖路875"},{"poiid":"B2094654D469A0F9489B","title":"中国科学院上海原子核研究所日环仪器厂","lon":"121.2733","lat":"31.40656","category":"263","category_name":"公司","address":""},{"poiid":"B2094655D36DA0F4459C","title":"永婧路胜竹路","lon":"121.2582","lat":"31.40388","category":"38","category_name":"公交车站","address":""},{"poiid":"B2094757D06BA5FD409C","title":"上海工艺美校(教学楼A)","lon":"121.253325","lat":"31.409747","category":"500","category_name":"未知分类","address":"上海嘉定区嘉行公路851号"},{"poiid":"B2094655D36DA1FA419A","title":"北横河桥","lon":"121.25475","lat":"31.40832","category":"250","category_name":"公园户外","address":""},{"poiid":"B2094654D469A0F9409C","title":"上海市天灵开关厂有限公司","lon":"121.25496","lat":"31.40948","category":"263","category_name":"公司","address":""},{"poiid":"B209475CD66DA0FF4399","title":"本素我家酸菜鱼","lon":"121.262481","lat":"31.402011","category":"247","category_name":"餐饮美食","address":"上海市 上海市嘉定区永靖路763号"},{"poiid":"B2094757D06FA6FC459D","title":"工艺美术职业学院(嘉定校区)","lon":"121.25334978","lat":"31.408652081","category":"52","category_name":"高等院校","address":"嘉定区嘉行公路851号(昌徐路嘉行公路)"},{"poiid":"B2094757D16DABF94899","title":"农家大员","lon":"121.254029453","lat":"31.4195409338","category":"87","category_name":"特色／地方风味餐厅","address":"嘉定区嘉行公路1188号(新建一路口)"},{"poiid":"B2094757D06AA4FA429F","title":"徐行镇","lon":"121.273446","lat":"31.415216","category":"260","category_name":"其他","address":"上海嘉定区徐行镇"},{"poiid":"B2094750D76CAAFC4899","title":"两季烧烤","lon":"121.258","lat":"31.4053","category":"68","category_name":"快餐厅","address":"嘉定区永靖路827-829号(近胜竹路)"},{"poiid":"B2094750DB6DA4FA419A","title":"捞王猪肚鸡嘉定店","lon":"121.25786","lat":"31.40412","category":"86","category_name":"火锅店","address":"嘉定区永靖路789-791号五月花美食广场内(近胜竹路口)"},{"poiid":"B2094654D469A0F9409D","title":"上海市嘉定一中","lon":"121.25447","lat":"31.4064","category":"55","category_name":"中学","address":"嘉定区嘉行公路701号"},{"poiid":"B2094654D469A0F8429B","title":"嘉定区徐行中学","lon":"121.26937","lat":"31.41437","category":"55","category_name":"中学","address":"上海市嘉定区徐行镇新建一路215号"},{"poiid":"B2094654DB65A6F9449D","title":"上海嘉定武术学校","lon":"121.26786","lat":"31.415","category":"54","category_name":"职业技术学校","address":"徐行镇新建一路258号"},{"poiid":"B2094757D06BABF54398","title":"大石皮","lon":"121.257661653","lat":"31.4198329065","category":"500","category_name":"未知分类","address":"上海市嘉定区嘉行公路"},{"poiid":"B2094757D16BA0FA4292","title":"保利会所","lon":"121.258311653","lat":"31.4055476144","category":"500","category_name":"未知分类","address":"上海市嘉定区永靖路899弄"},{"poiid":"B2094654DB64A6FF489F","title":"中国移动徐行营业厅","lon":"121.26908","lat":"31.41453","category":"151","category_name":"电讯营业厅","address":"嘉定区徐行镇新建一路2218号"},{"poiid":"B2094750D56BA3FA4193","title":"绿洲香格丽花园","lon":"121.274461","lat":"31.417854","category":"47","category_name":"住宅区","address":"上海市嘉定区徐行镇东至启源路，南临新漕河，西至启宁路，北至徐潘公路"},{"poiid":"B2094655D36DA0FF4398","title":"徐行","lon":"121.27404","lat":"31.41675","category":"38","category_name":"公交车站","address":""},{"poiid":"B2094757D16BA0F54193","title":"品海饭店","lon":"121.260511853","lat":"31.407338451","category":"247","category_name":"餐饮美食","address":"上海嘉定区树屏路568号"},{"poiid":"B2094654D469A7F8489D","title":"快客(澄浏公路)","lon":"121.27359","lat":"31.41429","category":"117","category_name":"便民商店/便利店","address":""},{"poiid":"B2094757D168A1FE489F","title":"澄浏公路新建一路","lon":"121.27386863","lat":"31.4148859974","category":"500","category_name":"未知分类","address":"上海澄浏公路新建一路"},{"poiid":"B2094654D469A7F84392","title":"新行商场","lon":"121.27397","lat":"31.41387","category":"119","category_name":"商场","address":""},{"poiid":"B2094654D469A0F8429A","title":"徐行育红学校","lon":"121.27103","lat":"31.41191","category":"55","category_name":"中学","address":""},{"poiid":"B2094757D069A3FA499E","title":"工藝美院原創中心","lon":"121.253326416","lat":"31.40974617","category":"190","category_name":"培训机构","address":"上海嘉定區嘉行公路851號"},{"poiid":"B2094655D36CA5FE499B","title":"澄浏公路四号桥","lon":"121.27568","lat":"31.4235","category":"38","category_name":"公交车站","address":""},{"poiid":"B2094654D468A4F44899","title":"协通度假村","lon":"121.25449","lat":"31.41789","category":"207","category_name":"度假疗养场所","address":"嘉定区嘉行公路1257号(曹新公路嘉行公路)"},{"poiid":"B2094752D36CA1F8449E","title":"八字塘酒店","lon":"121.26052","lat":"31.411218","category":"247","category_name":"餐饮美食","address":null},{"poiid":"B2094654D468A4FF469E","title":"上海嘉定徐行油箱厂","lon":"121.27425","lat":"31.41673","category":"263","category_name":"公司","address":""},{"poiid":"B2094757D16AA2F8409D","title":"嘉定武术培训学校","lon":"121.27625735","lat":"31.420306116","category":"253","category_name":"校园生活","address":"上海近郊嘉定区徐行镇新建一路258号  "},{"poiid":"B2094757D064A6F4419F","title":"徐行镇政府","lon":"121.281295653","lat":"31.4177168632","category":"500","category_name":"未知分类","address":"上海市嘉定区徐行镇"},{"poiid":"B2094753D76DA0FC419C","title":"本素酸菜鱼","lon":"121.271461","lat":"31.407653","category":"247","category_name":"餐饮美食","address":"上海市 五月花美食广场"},{"poiid":"B2094655D264A3FB4792","title":"李家桥","lon":"121.26307","lat":"31.42616","category":"250","category_name":"公园户外","address":""},{"poiid":"B2094654D469A0F94498","title":"中国农村商业银行徐行支行ATM取款机","lon":"121.27267","lat":"31.41434","category":"152","category_name":"ATM","address":"新建一路101号"},{"poiid":"B2094757D66DA1FA4893","title":"今日美食","lon":"121.2559967","lat":"31.419099807","category":"247","category_name":"餐饮美食","address":"上海近郊嘉定区徐行曹新路666号(近石皮村委会)  "},{"poiid":"B2094654D469A0F84893","title":"世纪绿苑","lon":"121.25618","lat":"31.41466","category":"47","category_name":"住宅区","address":"徐行镇"},{"poiid":"B2094654D469A0F84199","title":"上海超拔乐器有限公司","lon":"121.26212","lat":"31.41037","category":"263","category_name":"公司","address":""},{"poiid":"B2094655D36DA0FC4993","title":"新建一路嘉行公路","lon":"121.25481","lat":"31.41349","category":"38","category_name":"公交车站","address":""},{"poiid":"B2094757D16FAAFA409A","title":"工艺美院女生宿舍D楼","lon":"121.25588465","lat":"31.409041685","category":"500","category_name":"未知分类","address":null},{"poiid":"B2094757D16BAAFC4293","title":"预备役高炮四团","lon":"121.25555065","lat":"31.421181934","category":"500","category_name":"未知分类","address":"上海嘉行公路"},{"poiid":"B2094751D565A4F8439E","title":"韩亭苑自助烤肉","lon":"121.260314","lat":"31.407972","category":"247","category_name":"餐饮美食","address":null},{"poiid":"B2094757D168A1F94398","title":"实验幼儿园","lon":"121.27196145","lat":"31.404187886","category":"57","category_name":"幼儿园","address":"嘉定区永新路616号(近胜竹路)"},{"poiid":"B2094654D469A0F8479E","title":"上海远东学校","lon":"121.26065","lat":"31.40346","category":"55","category_name":"中学","address":"胜竹路1630"},{"poiid":"B2094654D469A1FF499A","title":"嘉定颐景园","lon":"121.25810127744","lat":"31.405763055577","category":"47","category_name":"住宅区","address":"棋盘路1385弄22-23号"},{"poiid":"B2094655D36DA1F94799","title":"东流桥","lon":"121.26961","lat":"31.43104","category":"250","category_name":"公园户外","address":""},{"poiid":"B209475DD26BA5FA4399","title":"本素·我家酸菜鱼","lon":"121.258003","lat":"31.404005","category":"247","category_name":"餐饮美食","address":"上海市 上海嘉定区永靖路763-765号"},{"poiid":"B2094655D26BA1F44299","title":"陆家","lon":"121.28477","lat":"31.41778","category":"38","category_name":"公交车站","address":""},{"poiid":"B2094757D064A1FE4499","title":"嘉定区教师进修学院","lon":"121.25404818","lat":"31.404514907","category":"260","category_name":"其他","address":"上海嘉定区嘉行公路601号"},{"poiid":"B2094654D468A4F44998","title":"上海泓阳机械有限公司","lon":"121.27626","lat":"31.428","category":"263","category_name":"公司","address":""},{"poiid":"B209475CD16BA7FA409E","title":"本素我家酸菜鱼","lon":"121.262611","lat":"31.403171","category":"247","category_name":"餐饮美食","address":"上海市 永靖路875"},{"poiid":"B2094654D469A0F9489B","title":"中国科学院上海原子核研究所日环仪器厂","lon":"121.2733","lat":"31.40656","category":"263","category_name":"公司","address":""},{"poiid":"B2094655D36DA0F4459C","title":"永婧路胜竹路","lon":"121.2582","lat":"31.40388","category":"38","category_name":"公交车站","address":""},{"poiid":"B2094757D06BA5FD409C","title":"上海工艺美校(教学楼A)","lon":"121.253325","lat":"31.409747","category":"500","category_name":"未知分类","address":"上海嘉定区嘉行公路851号"},{"poiid":"B2094655D36DA1FA419A","title":"北横河桥","lon":"121.25475","lat":"31.40832","category":"250","category_name":"公园户外","address":""},{"poiid":"B2094654D469A0F9409C","title":"上海市天灵开关厂有限公司","lon":"121.25496","lat":"31.40948","category":"263","category_name":"公司","address":""},{"poiid":"B209475CD66DA0FF4399","title":"本素我家酸菜鱼","lon":"121.262481","lat":"31.402011","category":"247","category_name":"餐饮美食","address":"上海市 上海市嘉定区永靖路763号"}]