[{"poiid":"B2094654DB6AA7FB4698","title":"联洋广场","lon":"121.55778","lat":"31.2261","category":"46","category_name":"楼宇","address":"浦东新区芳甸路226号"},{"poiid":"B2094757D06FA2FC4892","title":"避风塘(芳甸路店)","lon":"121.55852","lat":"31.22608","category":"72","category_name":"广东菜","address":"浦东新区芳甸路300号联洋广场(迎春路口)"},{"poiid":"B2094757D06FA1FF439A","title":"苏浙汇(联洋店)","lon":"121.55879","lat":"31.22629","category":"76","category_name":"上海菜","address":"浦东新区芳甸路300号联洋广场C区3楼(近迎春路)"},{"poiid":"B2094757D06FA7FF4798","title":"炉边情谈","lon":"121.559279737","lat":"31.2265295573","category":"96","category_name":"韩国料理","address":"浦东新区芳甸路199弄40号大拇指广场53A号(迎春路口)"},{"poiid":"B2094654DB6AA6FF449F","title":"证大丽笙酒店","lon":"121.56049","lat":"31.22634","category":"213","category_name":"五星级宾馆","address":"浦东新区迎春路1199号(近芳甸路)"},{"poiid":"B2094757D06FA5F4489D","title":"斗牛士(联洋店)","lon":"121.558331925","lat":"31.2258500724","category":"94","category_name":"西餐厅","address":"浦东新区芳甸路199弄300号联洋广场4楼(近大拇指广场)"},{"poiid":"B2094655D265A5FC469B","title":"俏江南(联洋广场店)","lon":"121.55759","lat":"31.22673","category":"71","category_name":"四川菜","address":"浦东新区芳甸路300号联洋广场C座2楼(近迎春路)"},{"poiid":"B2094655D26DA1F94998","title":"世纪公园(四号门)","lon":"121.56079","lat":"31.21623","category":"680","category_name":"楼宇机构","address":"芳甸路858"},{"poiid":"B2094757D66DA0FA499D","title":"上海出入境","lon":"121.559001975","lat":"31.220153825","category":"500","category_name":"未知分类","address":"上海市浦东新区民生路1500号"},{"poiid":"B2094757D068A2FD489E","title":"九间堂","lon":"121.5620138","lat":"31.222304185","category":"500","category_name":"未知分类","address":"浦东新区芳甸路599弄1号(近锦绣路)"},{"poiid":"B2094757D064A1F5499B","title":"龙阳路磁悬浮","lon":"121.560088975","lat":"31.2184807858","category":"500","category_name":"未知分类","address":"上海龙阳路"},{"poiid":"B2094757D069A4F4439D","title":"丰收日(联洋店)","lon":"121.559593975","lat":"31.2257219552","category":"75","category_name":"浙江菜","address":"浦东新区芳甸路300号联洋广场A区4楼(近迎春路)"},{"poiid":"B2094654DA69A1FB419B","title":"世纪公园","lon":"121.55255","lat":"31.21562","category":"196","category_name":"公园","address":"浦东新区锦绣路(1001号1号门，901号2号门，701号3号门)。"},{"poiid":"B2094757D069A0F84892","title":"希腊餐厅(芳甸路店)","lon":"121.559723585","lat":"31.2261000756","category":"94","category_name":"西餐厅","address":"浦东新区芳甸路199弄证大大拇指广场43号1楼41铺(近杨高中路)"},{"poiid":"B2094757D068A3FC4199","title":"韩林炭烤(联洋店)","lon":"121.55924","lat":"31.22601","category":"96","category_name":"韩国料理","address":"上海浦东新区芳甸路199弄证大大拇指广场48号(近杨高中路)  "},{"poiid":"B2094750D268A0F94993","title":"西贝莜面村 联洋店","lon":"121.557597","lat":"31.22674","category":"84","category_name":"西北菜","address":"浦东新区芳甸路300号联洋广场A区4楼401号铺(近丁香路)"},{"poiid":"B2094655D265A2FD429D","title":"联洋营业厅","lon":"121.5592","lat":"31.22576","category":"151","category_name":"电讯营业厅","address":"浦东新区芳甸路285号"},{"poiid":"B2094757D068A1F9439B","title":"老克勒上海菜 芳甸路店","lon":"121.558168054","lat":"31.226980793","category":"76","category_name":"上海菜","address":"浦东新区芳甸路300号联洋广场B区2楼(大拇指广场对面)"},{"poiid":"B2094757D06FABFD429C","title":"蒂梵尼造型设计(联洋广场店)","lon":"121.55922","lat":"31.22583","category":"148","category_name":"美容美发店","address":"浦东新区芳甸路300号联洋广场B区3楼(近大拇指广场)"},{"poiid":"B2094751D469A0F8479C","title":"唐鱼儿麻辣鲜鱼火锅","lon":"121.560104","lat":"31.225509","category":"86","category_name":"火锅店","address":"浦东新区芳甸路199弄40号大拇指广场46号(近迎春路)"},{"poiid":"B2094751D46BABFD469F","title":"义面屋","lon":"121.55899","lat":"31.225021","category":"94","category_name":"西餐厅","address":"浦东新区芳甸路199弄大拇指广场19号(预计12月开业)"},{"poiid":"B2094757D068A6FB4198","title":"许留山 联洋广场店 Hui Lau Shan","lon":"121.55758","lat":"31.22673","category":"67","category_name":"甜品店","address":"浦东新区芳甸路199弄40号联洋广场A座2楼(近迎春路)"},{"poiid":"B2094757D16AA3F94199","title":"二号线上海科技馆站","lon":"121.55862497","lat":"31.220030822","category":"500","category_name":"未知分类","address":"上海市浦东新区长柳路"},{"poiid":"B2094757D06AA2F84793","title":"近江和牛","lon":"121.5593909","lat":"31.226675604","category":"247","category_name":"餐饮美食","address":"上海大拇指广场"},{"poiid":"B2094757D16CA1FB409C","title":"小南国烧烤(大拇指店)","lon":"121.558883975","lat":"31.2262306671","category":"247","category_name":"餐饮美食","address":"上海芳甸路199弄40号大拇指广场一楼"},{"poiid":"B2094750D56DA1FB469F","title":"联洋广场 costa","lon":"121.558197","lat":"31.226411","category":"65","category_name":"咖啡厅","address":"浦东新区芳甸路300号联洋广场B区1楼(近迎春路)"},{"poiid":"B2094655D26EA3FF499C","title":"华丽家族花园","lon":"121.55773","lat":"31.22375","category":"47","category_name":"住宅区","address":"上海市浦东新区锦绣路666号"},{"poiid":"B2094757D065A0F44593","title":"爱尔兰文化餐厅","lon":"121.5593","lat":"31.22628","category":"94","category_name":"西餐厅","address":"浦东新区芳甸路199弄40号大拇指广场20号(迎春路口)"},{"poiid":"B2094751D569AAFE499B","title":"Lapasta 義麵屋","lon":"121.559636","lat":"31.226118","category":"247","category_name":"餐饮美食","address":"浦東新區芳甸路199弄33號2樓"},{"poiid":"B2094757D165A6FA4892","title":"俏江南","lon":"121.55993697","lat":"31.21867379","category":"500","category_name":"未知分类","address":"上海市浦东新区锦绣路"},{"poiid":"B2094757D068A1F9429C","title":"家乐福(大拇指广场店)","lon":"121.55993652","lat":"31.226459503","category":"118","category_name":"超级市场","address":"上海浦东新区芳甸路199弄 大拇指广场地下一层"},{"poiid":"B2094752D16EA1FF4899","title":"竹若金枪鱼","lon":"121.558091","lat":"31.225088","category":"247","category_name":"餐饮美食","address":"芳甸路199弄大拇指广场51号(近丁香路)"},{"poiid":"B2094654DA69A1FF459E","title":"泓叶","lon":"121.55912","lat":"31.22608","category":"76","category_name":"上海菜","address":"浦东新区芳甸路199弄40号大拇指广场内(迎春路口)"},{"poiid":"B2094752DA6CA4F8499C","title":"上海新国际博览中心","lon":"121.558733","lat":"31.220081","category":"500","category_name":"未知分类","address":null},{"poiid":"B2094655D26FABFD4998","title":"世纪公园(北门)","lon":"121.55784","lat":"31.2217","category":"680","category_name":"楼宇机构","address":""},{"poiid":"B2094757D16CA4FE4293","title":"海游吞拿","lon":"121.55948767","lat":"31.225968761","category":"95","category_name":"日本料理","address":"芳甸路199弄大拇指广场2楼近杨高中路"},{"poiid":"B2094750D165A2F84892","title":"深井大叔(大拇指店)","lon":"121.559715","lat":"31.226057","category":"72","category_name":"广东菜","address":"浦东新区芳甸路199弄证大大拇指广场43号1楼"},{"poiid":"B2094750DA6AAAFD489A","title":"必胜客上海大拇指店","lon":"121.559555","lat":"31.222763","category":"500","category_name":"未知分类","address":null},{"poiid":"B2094655D36CA6F9429F","title":"芳甸路锦绣路","lon":"121.55989","lat":"31.22159","category":"38","category_name":"公交车站","address":""},{"poiid":"B2094757D06BA3FD4692","title":"乐柚炭烤(迎春路店)","lon":"121.5552","lat":"31.22429","category":"96","category_name":"韩国料理","address":"浦东新区迎春路813号(近长柳路)"},{"poiid":"B2094655D265AAF8449C","title":"水上餐厅","lon":"121.55983","lat":"31.22096","category":"257","category_name":"中餐厅","address":"芳甸路666号世纪公园2号门附近"},{"poiid":"B2094655D26BA0FB449C","title":"世纪咖啡","lon":"121.55983","lat":"31.22096","category":"65","category_name":"咖啡厅","address":"芳甸路666号世纪公园内"},{"poiid":"B2094654DA69A2F5449C","title":"天安花园","lon":"121.55541","lat":"31.222439","category":"47","category_name":"住宅区","address":"上海市浦东新区锦绣路800号"},{"poiid":"B209475CD16BA7FC4599","title":"平壤高丽饭店","lon":"121.556854","lat":"31.222526","category":"247","category_name":"餐饮美食","address":"上海市 上海市浦东新区长柳路88号"},{"poiid":"B2094752D364A4F5489C","title":"居食屋和民(联洋广场店)","lon":"121.5579","lat":"31.22658","category":"95","category_name":"日本料理","address":"浦东新区芳甸路300号联洋广场4楼"},{"poiid":"B2094757D568A0FF4498","title":"九间堂别墅","lon":"121.5613469","lat":"31.22273611","category":"47","category_name":"住宅区","address":"上海市浦东新区锦安东路88弄"},{"poiid":"B2094757D66CAAFE4993","title":"妯娌老鴨粉絲館","lon":"121.55895453","lat":"31.220151044","category":"247","category_name":"餐饮美食","address":"上海龍陽路"},{"poiid":"B2094757D06AA2FE429A","title":"(友和)东京和食","lon":"121.55797697","lat":"31.226036962","category":"95","category_name":"日本料理","address":"浦东新区芳甸路300号联洋广场B区1楼B105室(近大拇指广场)"},{"poiid":"B2094757D468A4FC409F","title":"德兴第五季港式火锅","lon":"121.557597","lat":"31.22674","category":"86","category_name":"火锅店","address":"浦东新区芳甸路300号联洋广场A区4楼(近丁香路)"},{"poiid":"B2094757D568A5FF489D","title":"近江和牛正传日本料理","lon":"121.55987901","lat":"31.22658773","category":"95","category_name":"日本料理","address":"浦东新区芳甸路199弄大拇指广场2楼(丁香路芳甸路)"},{"poiid":"B2094654DB6AA7FB4698","title":"联洋广场","lon":"121.55778","lat":"31.2261","category":"46","category_name":"楼宇","address":"浦东新区芳甸路226号"},{"poiid":"B2094757D06FA2FC4892","title":"避风塘(芳甸路店)","lon":"121.55852","lat":"31.22608","category":"72","category_name":"广东菜","address":"浦东新区芳甸路300号联洋广场(迎春路口)"},{"poiid":"B2094757D06FA1FF439A","title":"苏浙汇(联洋店)","lon":"121.55879","lat":"31.22629","category":"76","category_name":"上海菜","address":"浦东新区芳甸路300号联洋广场C区3楼(近迎春路)"},{"poiid":"B2094757D06FA7FF4798","title":"炉边情谈","lon":"121.559279737","lat":"31.2265295573","category":"96","category_name":"韩国料理","address":"浦东新区芳甸路199弄40号大拇指广场53A号(迎春路口)"},{"poiid":"B2094654DB6AA6FF449F","title":"证大丽笙酒店","lon":"121.56049","lat":"31.22634","category":"213","category_name":"五星级宾馆","address":"浦东新区迎春路1199号(近芳甸路)"},{"poiid":"B2094757D06FA5F4489D","title":"斗牛士(联洋店)","lon":"121.558331925","lat":"31.2258500724","category":"94","category_name":"西餐厅","address":"浦东新区芳甸路199弄300号联洋广场4楼(近大拇指广场)"},{"poiid":"B2094655D265A5FC469B","title":"俏江南(联洋广场店)","lon":"121.55759","lat":"31.22673","category":"71","category_name":"四川菜","address":"浦东新区芳甸路300号联洋广场C座2楼(近迎春路)"},{"poiid":"B2094655D26DA1F94998","title":"世纪公园(四号门)","lon":"121.56079","lat":"31.21623","category":"680","category_name":"楼宇机构","address":"芳甸路858"},{"poiid":"B2094757D66DA0FA499D","title":"上海出入境","lon":"121.559001975","lat":"31.220153825","category":"500","category_name":"未知分类","address":"上海市浦东新区民生路1500号"},{"poiid":"B2094757D068A2FD489E","title":"九间堂","lon":"121.5620138","lat":"31.222304185","category":"500","category_name":"未知分类","address":"浦东新区芳甸路599弄1号(近锦绣路)"},{"poiid":"B2094757D064A1F5499B","title":"龙阳路磁悬浮","lon":"121.560088975","lat":"31.2184807858","category":"500","category_name":"未知分类","address":"上海龙阳路"},{"poiid":"B2094757D069A4F4439D","title":"丰收日(联洋店)","lon":"121.559593975","lat":"31.2257219552","category":"75","category_name":"浙江菜","address":"浦东新区芳甸路300号联洋广场A区4楼(近迎春路)"},{"poiid":"B2094654DA69A1FB419B","title":"世纪公园","lon":"121.55255","lat":"31.21562","category":"196","category_name":"公园","address":"浦东新区锦绣路(1001号1号门，901号2号门，701号3号门)。"},{"poiid":"B2094757D069A0F84892","title":"希腊餐厅(芳甸路店)","lon":"121.559723585","lat":"31.2261000756","category":"94","category_name":"西餐厅","address":"浦东新区芳甸路199弄证大大拇指广场43号1楼41铺(近杨高中路)"},{"poiid":"B2094757D068A3FC4199","title":"韩林炭烤(联洋店)","lon":"121.55924","lat":"31.22601","category":"96","category_name":"韩国料理","address":"上海浦东新区芳甸路199弄证大大拇指广场48号(近杨高中路)  "},{"poiid":"B2094750D268A0F94993","title":"西贝莜面村 联洋店","lon":"121.557597","lat":"31.22674","category":"84","category_name":"西北菜","address":"浦东新区芳甸路300号联洋广场A区4楼401号铺(近丁香路)"},{"poiid":"B2094655D265A2FD429D","title":"联洋营业厅","lon":"121.5592","lat":"31.22576","category":"151","category_name":"电讯营业厅","address":"浦东新区芳甸路285号"},{"poiid":"B2094757D068A1F9439B","title":"老克勒上海菜 芳甸路店","lon":"121.558168054","lat":"31.226980793","category":"76","category_name":"上海菜","address":"浦东新区芳甸路300号联洋广场B区2楼(大拇指广场对面)"},{"poiid":"B2094757D06FABFD429C","title":"蒂梵尼造型设计(联洋广场店)","lon":"121.55922","lat":"31.22583","category":"148","category_name":"美容美发店","address":"浦东新区芳甸路300号联洋广场B区3楼(近大拇指广场)"},{"poiid":"B2094751D469A0F8479C","title":"唐鱼儿麻辣鲜鱼火锅","lon":"121.560104","lat":"31.225509","category":"86","category_name":"火锅店","address":"浦东新区芳甸路199弄40号大拇指广场46号(近迎春路)"},{"poiid":"B2094751D46BABFD469F","title":"义面屋","lon":"121.55899","lat":"31.225021","category":"94","category_name":"西餐厅","address":"浦东新区芳甸路199弄大拇指广场19号(预计12月开业)"},{"poiid":"B2094757D068A6FB4198","title":"许留山 联洋广场店 Hui Lau Shan","lon":"121.55758","lat":"31.22673","category":"67","category_name":"甜品店","address":"浦东新区芳甸路199弄40号联洋广场A座2楼(近迎春路)"},{"poiid":"B2094757D16AA3F94199","title":"二号线上海科技馆站","lon":"121.55862497","lat":"31.220030822","category":"500","category_name":"未知分类","address":"上海市浦东新区长柳路"},{"poiid":"B2094757D06AA2F84793","title":"近江和牛","lon":"121.5593909","lat":"31.226675604","category":"247","category_name":"餐饮美食","address":"上海大拇指广场"},{"poiid":"B2094757D16CA1FB409C","title":"小南国烧烤(大拇指店)","lon":"121.558883975","lat":"31.2262306671","category":"247","category_name":"餐饮美食","address":"上海芳甸路199弄40号大拇指广场一楼"},{"poiid":"B2094750D56DA1FB469F","title":"联洋广场 costa","lon":"121.558197","lat":"31.226411","category":"65","category_name":"咖啡厅","address":"浦东新区芳甸路300号联洋广场B区1楼(近迎春路)"},{"poiid":"B2094655D26EA3FF499C","title":"华丽家族花园","lon":"121.55773","lat":"31.22375","category":"47","category_name":"住宅区","address":"上海市浦东新区锦绣路666号"},{"poiid":"B2094757D065A0F44593","title":"爱尔兰文化餐厅","lon":"121.5593","lat":"31.22628","category":"94","category_name":"西餐厅","address":"浦东新区芳甸路199弄40号大拇指广场20号(迎春路口)"},{"poiid":"B2094751D569AAFE499B","title":"Lapasta 義麵屋","lon":"121.559636","lat":"31.226118","category":"247","category_name":"餐饮美食","address":"浦東新區芳甸路199弄33號2樓"},{"poiid":"B2094757D165A6FA4892","title":"俏江南","lon":"121.55993697","lat":"31.21867379","category":"500","category_name":"未知分类","address":"上海市浦东新区锦绣路"},{"poiid":"B2094757D068A1F9429C","title":"家乐福(大拇指广场店)","lon":"121.55993652","lat":"31.226459503","category":"118","category_name":"超级市场","address":"上海浦东新区芳甸路199弄 大拇指广场地下一层"},{"poiid":"B2094752D16EA1FF4899","title":"竹若金枪鱼","lon":"121.558091","lat":"31.225088","category":"247","category_name":"餐饮美食","address":"芳甸路199弄大拇指广场51号(近丁香路)"},{"poiid":"B2094654DA69A1FF459E","title":"泓叶","lon":"121.55912","lat":"31.22608","category":"76","category_name":"上海菜","address":"浦东新区芳甸路199弄40号大拇指广场内(迎春路口)"},{"poiid":"B2094752DA6CA4F8499C","title":"上海新国际博览中心","lon":"121.558733","lat":"31.220081","category":"500","category_name":"未知分类","address":null},{"poiid":"B2094655D26FABFD4998","title":"世纪公园(北门)","lon":"121.55784","lat":"31.2217","category":"680","category_name":"楼宇机构","address":""},{"poiid":"B2094757D16CA4FE4293","title":"海游吞拿","lon":"121.55948767","lat":"31.225968761","category":"95","category_name":"日本料理","address":"芳甸路199弄大拇指广场2楼近杨高中路"},{"poiid":"B2094750D165A2F84892","title":"深井大叔(大拇指店)","lon":"121.559715","lat":"31.226057","category":"72","category_name":"广东菜","address":"浦东新区芳甸路199弄证大大拇指广场43号1楼"},{"poiid":"B2094750DA6AAAFD489A","title":"必胜客上海大拇指店","lon":"121.559555","lat":"31.222763","category":"500","category_name":"未知分类","address":null},{"poiid":"B2094655D36CA6F9429F","title":"芳甸路锦绣路","lon":"121.55989","lat":"31.22159","category":"38","category_name":"公交车站","address":""},{"poiid":"B2094757D06BA3FD4692","title":"乐柚炭烤(迎春路店)","lon":"121.5552","lat":"31.22429","category":"96","category_name":"韩国料理","address":"浦东新区迎春路813号(近长柳路)"},{"poiid":"B2094655D265AAF8449C","title":"水上餐厅","lon":"121.55983","lat":"31.22096","category":"257","category_name":"中餐厅","address":"芳甸路666号世纪公园2号门附近"},{"poiid":"B2094655D26BA0FB449C","title":"世纪咖啡","lon":"121.55983","lat":"31.22096","category":"65","category_name":"咖啡厅","address":"芳甸路666号世纪公园内"},{"poiid":"B2094654DA69A2F5449C","title":"天安花园","lon":"121.55541","lat":"31.222439","category":"47","category_name":"住宅区","address":"上海市浦东新区锦绣路800号"},{"poiid":"B209475CD16BA7FC4599","title":"平壤高丽饭店","lon":"121.556854","lat":"31.222526","category":"247","category_name":"餐饮美食","address":"上海市 上海市浦东新区长柳路88号"},{"poiid":"B2094752D364A4F5489C","title":"居食屋和民(联洋广场店)","lon":"121.5579","lat":"31.22658","category":"95","category_name":"日本料理","address":"浦东新区芳甸路300号联洋广场4楼"},{"poiid":"B2094757D568A0FF4498","title":"九间堂别墅","lon":"121.5613469","lat":"31.22273611","category":"47","category_name":"住宅区","address":"上海市浦东新区锦安东路88弄"},{"poiid":"B2094757D66CAAFE4993","title":"妯娌老鴨粉絲館","lon":"121.55895453","lat":"31.220151044","category":"247","category_name":"餐饮美食","address":"上海龍陽路"},{"poiid":"B2094757D06AA2FE429A","title":"(友和)东京和食","lon":"121.55797697","lat":"31.226036962","category":"95","category_name":"日本料理","address":"浦东新区芳甸路300号联洋广场B区1楼B105室(近大拇指广场)"},{"poiid":"B2094757D468A4FC409F","title":"德兴第五季港式火锅","lon":"121.557597","lat":"31.22674","category":"86","category_name":"火锅店","address":"浦东新区芳甸路300号联洋广场A区4楼(近丁香路)"},{"poiid":"B2094757D568A5FF489D","title":"近江和牛正传日本料理","lon":"121.55987901","lat":"31.22658773","category":"95","category_name":"日本料理","address":"浦东新区芳甸路199弄大拇指广场2楼(丁香路芳甸路)"},{"poiid":"B2094654DB6AA7FB4698","title":"联洋广场","lon":"121.55778","lat":"31.2261","category":"46","category_name":"楼宇","address":"浦东新区芳甸路226号"},{"poiid":"B2094757D06FA2FC4892","title":"避风塘(芳甸路店)","lon":"121.55852","lat":"31.22608","category":"72","category_name":"广东菜","address":"浦东新区芳甸路300号联洋广场(迎春路口)"},{"poiid":"B2094757D06FA1FF439A","title":"苏浙汇(联洋店)","lon":"121.55879","lat":"31.22629","category":"76","category_name":"上海菜","address":"浦东新区芳甸路300号联洋广场C区3楼(近迎春路)"},{"poiid":"B2094757D06FA7FF4798","title":"炉边情谈","lon":"121.559279737","lat":"31.2265295573","category":"96","category_name":"韩国料理","address":"浦东新区芳甸路199弄40号大拇指广场53A号(迎春路口)"},{"poiid":"B2094654DB6AA6FF449F","title":"证大丽笙酒店","lon":"121.56049","lat":"31.22634","category":"213","category_name":"五星级宾馆","address":"浦东新区迎春路1199号(近芳甸路)"},{"poiid":"B2094757D06FA5F4489D","title":"斗牛士(联洋店)","lon":"121.558331925","lat":"31.2258500724","category":"94","category_name":"西餐厅","address":"浦东新区芳甸路199弄300号联洋广场4楼(近大拇指广场)"},{"poiid":"B2094655D265A5FC469B","title":"俏江南(联洋广场店)","lon":"121.55759","lat":"31.22673","category":"71","category_name":"四川菜","address":"浦东新区芳甸路300号联洋广场C座2楼(近迎春路)"},{"poiid":"B2094655D26DA1F94998","title":"世纪公园(四号门)","lon":"121.56079","lat":"31.21623","category":"680","category_name":"楼宇机构","address":"芳甸路858"},{"poiid":"B2094757D66DA0FA499D","title":"上海出入境","lon":"121.559001975","lat":"31.220153825","category":"500","category_name":"未知分类","address":"上海市浦东新区民生路1500号"},{"poiid":"B2094757D068A2FD489E","title":"九间堂","lon":"121.5620138","lat":"31.222304185","category":"500","category_name":"未知分类","address":"浦东新区芳甸路599弄1号(近锦绣路)"},{"poiid":"B2094757D064A1F5499B","title":"龙阳路磁悬浮","lon":"121.560088975","lat":"31.2184807858","category":"500","category_name":"未知分类","address":"上海龙阳路"},{"poiid":"B2094757D069A4F4439D","title":"丰收日(联洋店)","lon":"121.559593975","lat":"31.2257219552","category":"75","category_name":"浙江菜","address":"浦东新区芳甸路300号联洋广场A区4楼(近迎春路)"},{"poiid":"B2094654DA69A1FB419B","title":"世纪公园","lon":"121.55255","lat":"31.21562","category":"196","category_name":"公园","address":"浦东新区锦绣路(1001号1号门，901号2号门，701号3号门)。"},{"poiid":"B2094757D069A0F84892","title":"希腊餐厅(芳甸路店)","lon":"121.559723585","lat":"31.2261000756","category":"94","category_name":"西餐厅","address":"浦东新区芳甸路199弄证大大拇指广场43号1楼41铺(近杨高中路)"},{"poiid":"B2094757D068A3FC4199","title":"韩林炭烤(联洋店)","lon":"121.55924","lat":"31.22601","category":"96","category_name":"韩国料理","address":"上海浦东新区芳甸路199弄证大大拇指广场48号(近杨高中路)  "},{"poiid":"B2094750D268A0F94993","title":"西贝莜面村 联洋店","lon":"121.557597","lat":"31.22674","category":"84","category_name":"西北菜","address":"浦东新区芳甸路300号联洋广场A区4楼401号铺(近丁香路)"},{"poiid":"B2094655D265A2FD429D","title":"联洋营业厅","lon":"121.5592","lat":"31.22576","category":"151","category_name":"电讯营业厅","address":"浦东新区芳甸路285号"},{"poiid":"B2094757D068A1F9439B","title":"老克勒上海菜 芳甸路店","lon":"121.558168054","lat":"31.226980793","category":"76","category_name":"上海菜","address":"浦东新区芳甸路300号联洋广场B区2楼(大拇指广场对面)"},{"poiid":"B2094757D06FABFD429C","title":"蒂梵尼造型设计(联洋广场店)","lon":"121.55922","lat":"31.22583","category":"148","category_name":"美容美发店","address":"浦东新区芳甸路300号联洋广场B区3楼(近大拇指广场)"},{"poiid":"B2094751D469A0F8479C","title":"唐鱼儿麻辣鲜鱼火锅","lon":"121.560104","lat":"31.225509","category":"86","category_name":"火锅店","address":"浦东新区芳甸路199弄40号大拇指广场46号(近迎春路)"},{"poiid":"B2094751D46BABFD469F","title":"义面屋","lon":"121.55899","lat":"31.225021","category":"94","category_name":"西餐厅","address":"浦东新区芳甸路199弄大拇指广场19号(预计12月开业)"},{"poiid":"B2094757D068A6FB4198","title":"许留山 联洋广场店 Hui Lau Shan","lon":"121.55758","lat":"31.22673","category":"67","category_name":"甜品店","address":"浦东新区芳甸路199弄40号联洋广场A座2楼(近迎春路)"},{"poiid":"B2094757D16AA3F94199","title":"二号线上海科技馆站","lon":"121.55862497","lat":"31.220030822","category":"500","category_name":"未知分类","address":"上海市浦东新区长柳路"},{"poiid":"B2094757D06AA2F84793","title":"近江和牛","lon":"121.5593909","lat":"31.226675604","category":"247","category_name":"餐饮美食","address":"上海大拇指广场"},{"poiid":"B2094757D16CA1FB409C","title":"小南国烧烤(大拇指店)","lon":"121.558883975","lat":"31.2262306671","category":"247","category_name":"餐饮美食","address":"上海芳甸路199弄40号大拇指广场一楼"},{"poiid":"B2094750D56DA1FB469F","title":"联洋广场 costa","lon":"121.558197","lat":"31.226411","category":"65","category_name":"咖啡厅","address":"浦东新区芳甸路300号联洋广场B区1楼(近迎春路)"},{"poiid":"B2094655D26EA3FF499C","title":"华丽家族花园","lon":"121.55773","lat":"31.22375","category":"47","category_name":"住宅区","address":"上海市浦东新区锦绣路666号"},{"poiid":"B2094757D065A0F44593","title":"爱尔兰文化餐厅","lon":"121.5593","lat":"31.22628","category":"94","category_name":"西餐厅","address":"浦东新区芳甸路199弄40号大拇指广场20号(迎春路口)"},{"poiid":"B2094751D569AAFE499B","title":"Lapasta 義麵屋","lon":"121.559636","lat":"31.226118","category":"247","category_name":"餐饮美食","address":"浦東新區芳甸路199弄33號2樓"},{"poiid":"B2094757D165A6FA4892","title":"俏江南","lon":"121.55993697","lat":"31.21867379","category":"500","category_name":"未知分类","address":"上海市浦东新区锦绣路"},{"poiid":"B2094757D068A1F9429C","title":"家乐福(大拇指广场店)","lon":"121.55993652","lat":"31.226459503","category":"118","category_name":"超级市场","address":"上海浦东新区芳甸路199弄 大拇指广场地下一层"},{"poiid":"B2094752D16EA1FF4899","title":"竹若金枪鱼","lon":"121.558091","lat":"31.225088","category":"247","category_name":"餐饮美食","address":"芳甸路199弄大拇指广场51号(近丁香路)"},{"poiid":"B2094654DA69A1FF459E","title":"泓叶","lon":"121.55912","lat":"31.22608","category":"76","category_name":"上海菜","address":"浦东新区芳甸路199弄40号大拇指广场内(迎春路口)"},{"poiid":"B2094752DA6CA4F8499C","title":"上海新国际博览中心","lon":"121.558733","lat":"31.220081","category":"500","category_name":"未知分类","address":null},{"poiid":"B2094655D26FABFD4998","title":"世纪公园(北门)","lon":"121.55784","lat":"31.2217","category":"680","category_name":"楼宇机构","address":""},{"poiid":"B2094757D16CA4FE4293","title":"海游吞拿","lon":"121.55948767","lat":"31.225968761","category":"95","category_name":"日本料理","address":"芳甸路199弄大拇指广场2楼近杨高中路"},{"poiid":"B2094750D165A2F84892","title":"深井大叔(大拇指店)","lon":"121.559715","lat":"31.226057","category":"72","category_name":"广东菜","address":"浦东新区芳甸路199弄证大大拇指广场43号1楼"},{"poiid":"B2094750DA6AAAFD489A","title":"必胜客上海大拇指店","lon":"121.559555","lat":"31.222763","category":"500","category_name":"未知分类","address":null},{"poiid":"B2094655D36CA6F9429F","title":"芳甸路锦绣路","lon":"121.55989","lat":"31.22159","category":"38","category_name":"公交车站","address":""},{"poiid":"B2094757D06BA3FD4692","title":"乐柚炭烤(迎春路店)","lon":"121.5552","lat":"31.22429","category":"96","category_name":"韩国料理","address":"浦东新区迎春路813号(近长柳路)"},{"poiid":"B2094655D265AAF8449C","title":"水上餐厅","lon":"121.55983","lat":"31.22096","category":"257","category_name":"中餐厅","address":"芳甸路666号世纪公园2号门附近"},{"poiid":"B2094655D26BA0FB449C","title":"世纪咖啡","lon":"121.55983","lat":"31.22096","category":"65","category_name":"咖啡厅","address":"芳甸路666号世纪公园内"},{"poiid":"B2094654DA69A2F5449C","title":"天安花园","lon":"121.55541","lat":"31.222439","category":"47","category_name":"住宅区","address":"上海市浦东新区锦绣路800号"},{"poiid":"B209475CD16BA7FC4599","title":"平壤高丽饭店","lon":"121.556854","lat":"31.222526","category":"247","category_name":"餐饮美食","address":"上海市 上海市浦东新区长柳路88号"},{"poiid":"B2094752D364A4F5489C","title":"居食屋和民(联洋广场店)","lon":"121.5579","lat":"31.22658","category":"95","category_name":"日本料理","address":"浦东新区芳甸路300号联洋广场4楼"},{"poiid":"B2094757D568A0FF4498","title":"九间堂别墅","lon":"121.5613469","lat":"31.22273611","category":"47","category_name":"住宅区","address":"上海市浦东新区锦安东路88弄"},{"poiid":"B2094757D66CAAFE4993","title":"妯娌老鴨粉絲館","lon":"121.55895453","lat":"31.220151044","category":"247","category_name":"餐饮美食","address":"上海龍陽路"},{"poiid":"B2094757D06AA2FE429A","title":"(友和)东京和食","lon":"121.55797697","lat":"31.226036962","category":"95","category_name":"日本料理","address":"浦东新区芳甸路300号联洋广场B区1楼B105室(近大拇指广场)"},{"poiid":"B2094757D468A4FC409F","title":"德兴第五季港式火锅","lon":"121.557597","lat":"31.22674","category":"86","category_name":"火锅店","address":"浦东新区芳甸路300号联洋广场A区4楼(近丁香路)"},{"poiid":"B2094757D568A5FF489D","title":"近江和牛正传日本料理","lon":"121.55987901","lat":"31.22658773","category":"95","category_name":"日本料理","address":"浦东新区芳甸路199弄大拇指广场2楼(丁香路芳甸路)"},{"poiid":"B2094654DB6AA7FB4698","title":"联洋广场","lon":"121.55778","lat":"31.2261","category":"46","category_name":"楼宇","address":"浦东新区芳甸路226号"},{"poiid":"B2094757D06FA2FC4892","title":"避风塘(芳甸路店)","lon":"121.55852","lat":"31.22608","category":"72","category_name":"广东菜","address":"浦东新区芳甸路300号联洋广场(迎春路口)"},{"poiid":"B2094757D06FA1FF439A","title":"苏浙汇(联洋店)","lon":"121.55879","lat":"31.22629","category":"76","category_name":"上海菜","address":"浦东新区芳甸路300号联洋广场C区3楼(近迎春路)"},{"poiid":"B2094757D06FA7FF4798","title":"炉边情谈","lon":"121.559279737","lat":"31.2265295573","category":"96","category_name":"韩国料理","address":"浦东新区芳甸路199弄40号大拇指广场53A号(迎春路口)"},{"poiid":"B2094654DB6AA6FF449F","title":"证大丽笙酒店","lon":"121.56049","lat":"31.22634","category":"213","category_name":"五星级宾馆","address":"浦东新区迎春路1199号(近芳甸路)"},{"poiid":"B2094757D06FA5F4489D","title":"斗牛士(联洋店)","lon":"121.558331925","lat":"31.2258500724","category":"94","category_name":"西餐厅","address":"浦东新区芳甸路199弄300号联洋广场4楼(近大拇指广场)"},{"poiid":"B2094655D265A5FC469B","title":"俏江南(联洋广场店)","lon":"121.55759","lat":"31.22673","category":"71","category_name":"四川菜","address":"浦东新区芳甸路300号联洋广场C座2楼(近迎春路)"},{"poiid":"B2094655D26DA1F94998","title":"世纪公园(四号门)","lon":"121.56079","lat":"31.21623","category":"680","category_name":"楼宇机构","address":"芳甸路858"},{"poiid":"B2094757D66DA0FA499D","title":"上海出入境","lon":"121.559001975","lat":"31.220153825","category":"500","category_name":"未知分类","address":"上海市浦东新区民生路1500号"},{"poiid":"B2094757D068A2FD489E","title":"九间堂","lon":"121.5620138","lat":"31.222304185","category":"500","category_name":"未知分类","address":"浦东新区芳甸路599弄1号(近锦绣路)"},{"poiid":"B2094757D064A1F5499B","title":"龙阳路磁悬浮","lon":"121.560088975","lat":"31.2184807858","category":"500","category_name":"未知分类","address":"上海龙阳路"},{"poiid":"B2094757D069A4F4439D","title":"丰收日(联洋店)","lon":"121.559593975","lat":"31.2257219552","category":"75","category_name":"浙江菜","address":"浦东新区芳甸路300号联洋广场A区4楼(近迎春路)"},{"poiid":"B2094654DA69A1FB419B","title":"世纪公园","lon":"121.55255","lat":"31.21562","category":"196","category_name":"公园","address":"浦东新区锦绣路(1001号1号门，901号2号门，701号3号门)。"},{"poiid":"B2094757D069A0F84892","title":"希腊餐厅(芳甸路店)","lon":"121.559723585","lat":"31.2261000756","category":"94","category_name":"西餐厅","address":"浦东新区芳甸路199弄证大大拇指广场43号1楼41铺(近杨高中路)"},{"poiid":"B2094757D068A3FC4199","title":"韩林炭烤(联洋店)","lon":"121.55924","lat":"31.22601","category":"96","category_name":"韩国料理","address":"上海浦东新区芳甸路199弄证大大拇指广场48号(近杨高中路)  "},{"poiid":"B2094750D268A0F94993","title":"西贝莜面村 联洋店","lon":"121.557597","lat":"31.22674","category":"84","category_name":"西北菜","address":"浦东新区芳甸路300号联洋广场A区4楼401号铺(近丁香路)"},{"poiid":"B2094655D265A2FD429D","title":"联洋营业厅","lon":"121.5592","lat":"31.22576","category":"151","category_name":"电讯营业厅","address":"浦东新区芳甸路285号"},{"poiid":"B2094757D068A1F9439B","title":"老克勒上海菜 芳甸路店","lon":"121.558168054","lat":"31.226980793","category":"76","category_name":"上海菜","address":"浦东新区芳甸路300号联洋广场B区2楼(大拇指广场对面)"},{"poiid":"B2094757D06FABFD429C","title":"蒂梵尼造型设计(联洋广场店)","lon":"121.55922","lat":"31.22583","category":"148","category_name":"美容美发店","address":"浦东新区芳甸路300号联洋广场B区3楼(近大拇指广场)"},{"poiid":"B2094751D469A0F8479C","title":"唐鱼儿麻辣鲜鱼火锅","lon":"121.560104","lat":"31.225509","category":"86","category_name":"火锅店","address":"浦东新区芳甸路199弄40号大拇指广场46号(近迎春路)"},{"poiid":"B2094751D46BABFD469F","title":"义面屋","lon":"121.55899","lat":"31.225021","category":"94","category_name":"西餐厅","address":"浦东新区芳甸路199弄大拇指广场19号(预计12月开业)"},{"poiid":"B2094757D068A6FB4198","title":"许留山 联洋广场店 Hui Lau Shan","lon":"121.55758","lat":"31.22673","category":"67","category_name":"甜品店","address":"浦东新区芳甸路199弄40号联洋广场A座2楼(近迎春路)"},{"poiid":"B2094757D16AA3F94199","title":"二号线上海科技馆站","lon":"121.55862497","lat":"31.220030822","category":"500","category_name":"未知分类","address":"上海市浦东新区长柳路"},{"poiid":"B2094757D06AA2F84793","title":"近江和牛","lon":"121.5593909","lat":"31.226675604","category":"247","category_name":"餐饮美食","address":"上海大拇指广场"},{"poiid":"B2094757D16CA1FB409C","title":"小南国烧烤(大拇指店)","lon":"121.558883975","lat":"31.2262306671","category":"247","category_name":"餐饮美食","address":"上海芳甸路199弄40号大拇指广场一楼"},{"poiid":"B2094750D56DA1FB469F","title":"联洋广场 costa","lon":"121.558197","lat":"31.226411","category":"65","category_name":"咖啡厅","address":"浦东新区芳甸路300号联洋广场B区1楼(近迎春路)"},{"poiid":"B2094655D26EA3FF499C","title":"华丽家族花园","lon":"121.55773","lat":"31.22375","category":"47","category_name":"住宅区","address":"上海市浦东新区锦绣路666号"},{"poiid":"B2094757D065A0F44593","title":"爱尔兰文化餐厅","lon":"121.5593","lat":"31.22628","category":"94","category_name":"西餐厅","address":"浦东新区芳甸路199弄40号大拇指广场20号(迎春路口)"},{"poiid":"B2094751D569AAFE499B","title":"Lapasta 義麵屋","lon":"121.559636","lat":"31.226118","category":"247","category_name":"餐饮美食","address":"浦東新區芳甸路199弄33號2樓"},{"poiid":"B2094757D165A6FA4892","title":"俏江南","lon":"121.55993697","lat":"31.21867379","category":"500","category_name":"未知分类","address":"上海市浦东新区锦绣路"},{"poiid":"B2094757D068A1F9429C","title":"家乐福(大拇指广场店)","lon":"121.55993652","lat":"31.226459503","category":"118","category_name":"超级市场","address":"上海浦东新区芳甸路199弄 大拇指广场地下一层"},{"poiid":"B2094752D16EA1FF4899","title":"竹若金枪鱼","lon":"121.558091","lat":"31.225088","category":"247","category_name":"餐饮美食","address":"芳甸路199弄大拇指广场51号(近丁香路)"},{"poiid":"B2094654DA69A1FF459E","title":"泓叶","lon":"121.55912","lat":"31.22608","category":"76","category_name":"上海菜","address":"浦东新区芳甸路199弄40号大拇指广场内(迎春路口)"},{"poiid":"B2094752DA6CA4F8499C","title":"上海新国际博览中心","lon":"121.558733","lat":"31.220081","category":"500","category_name":"未知分类","address":null},{"poiid":"B2094655D26FABFD4998","title":"世纪公园(北门)","lon":"121.55784","lat":"31.2217","category":"680","category_name":"楼宇机构","address":""},{"poiid":"B2094757D16CA4FE4293","title":"海游吞拿","lon":"121.55948767","lat":"31.225968761","category":"95","category_name":"日本料理","address":"芳甸路199弄大拇指广场2楼近杨高中路"},{"poiid":"B2094750D165A2F84892","title":"深井大叔(大拇指店)","lon":"121.559715","lat":"31.226057","category":"72","category_name":"广东菜","address":"浦东新区芳甸路199弄证大大拇指广场43号1楼"},{"poiid":"B2094750DA6AAAFD489A","title":"必胜客上海大拇指店","lon":"121.559555","lat":"31.222763","category":"500","category_name":"未知分类","address":null},{"poiid":"B2094655D36CA6F9429F","title":"芳甸路锦绣路","lon":"121.55989","lat":"31.22159","category":"38","category_name":"公交车站","address":""},{"poiid":"B2094757D06BA3FD4692","title":"乐柚炭烤(迎春路店)","lon":"121.5552","lat":"31.22429","category":"96","category_name":"韩国料理","address":"浦东新区迎春路813号(近长柳路)"},{"poiid":"B2094655D265AAF8449C","title":"水上餐厅","lon":"121.55983","lat":"31.22096","category":"257","category_name":"中餐厅","address":"芳甸路666号世纪公园2号门附近"},{"poiid":"B2094655D26BA0FB449C","title":"世纪咖啡","lon":"121.55983","lat":"31.22096","category":"65","category_name":"咖啡厅","address":"芳甸路666号世纪公园内"},{"poiid":"B2094654DA69A2F5449C","title":"天安花园","lon":"121.55541","lat":"31.222439","category":"47","category_name":"住宅区","address":"上海市浦东新区锦绣路800号"},{"poiid":"B209475CD16BA7FC4599","title":"平壤高丽饭店","lon":"121.556854","lat":"31.222526","category":"247","category_name":"餐饮美食","address":"上海市 上海市浦东新区长柳路88号"},{"poiid":"B2094752D364A4F5489C","title":"居食屋和民(联洋广场店)","lon":"121.5579","lat":"31.22658","category":"95","category_name":"日本料理","address":"浦东新区芳甸路300号联洋广场4楼"},{"poiid":"B2094757D568A0FF4498","title":"九间堂别墅","lon":"121.5613469","lat":"31.22273611","category":"47","category_name":"住宅区","address":"上海市浦东新区锦安东路88弄"},{"poiid":"B2094757D66CAAFE4993","title":"妯娌老鴨粉絲館","lon":"121.55895453","lat":"31.220151044","category":"247","category_name":"餐饮美食","address":"上海龍陽路"},{"poiid":"B2094757D06AA2FE429A","title":"(友和)东京和食","lon":"121.55797697","lat":"31.226036962","category":"95","category_name":"日本料理","address":"浦东新区芳甸路300号联洋广场B区1楼B105室(近大拇指广场)"},{"poiid":"B2094757D468A4FC409F","title":"德兴第五季港式火锅","lon":"121.557597","lat":"31.22674","category":"86","category_name":"火锅店","address":"浦东新区芳甸路300号联洋广场A区4楼(近丁香路)"},{"poiid":"B2094757D568A5FF489D","title":"近江和牛正传日本料理","lon":"121.55987901","lat":"31.22658773","category":"95","category_name":"日本料理","address":"浦东新区芳甸路199弄大拇指广场2楼(丁香路芳甸路)"},{"poiid":"B2094654DB6AA7FB4698","title":"联洋广场","lon":"121.55778","lat":"31.2261","category":"46","category_name":"楼宇","address":"浦东新区芳甸路226号"},{"poiid":"B2094757D06FA2FC4892","title":"避风塘(芳甸路店)","lon":"121.55852","lat":"31.22608","category":"72","category_name":"广东菜","address":"浦东新区芳甸路300号联洋广场(迎春路口)"},{"poiid":"B2094757D06FA1FF439A","title":"苏浙汇(联洋店)","lon":"121.55879","lat":"31.22629","category":"76","category_name":"上海菜","address":"浦东新区芳甸路300号联洋广场C区3楼(近迎春路)"},{"poiid":"B2094757D06FA7FF4798","title":"炉边情谈","lon":"121.559279737","lat":"31.2265295573","category":"96","category_name":"韩国料理","address":"浦东新区芳甸路199弄40号大拇指广场53A号(迎春路口)"},{"poiid":"B2094654DB6AA6FF449F","title":"证大丽笙酒店","lon":"121.56049","lat":"31.22634","category":"213","category_name":"五星级宾馆","address":"浦东新区迎春路1199号(近芳甸路)"},{"poiid":"B2094757D06FA5F4489D","title":"斗牛士(联洋店)","lon":"121.558331925","lat":"31.2258500724","category":"94","category_name":"西餐厅","address":"浦东新区芳甸路199弄300号联洋广场4楼(近大拇指广场)"},{"poiid":"B2094655D265A5FC469B","title":"俏江南(联洋广场店)","lon":"121.55759","lat":"31.22673","category":"71","category_name":"四川菜","address":"浦东新区芳甸路300号联洋广场C座2楼(近迎春路)"},{"poiid":"B2094655D26DA1F94998","title":"世纪公园(四号门)","lon":"121.56079","lat":"31.21623","category":"680","category_name":"楼宇机构","address":"芳甸路858"},{"poiid":"B2094757D66DA0FA499D","title":"上海出入境","lon":"121.559001975","lat":"31.220153825","category":"500","category_name":"未知分类","address":"上海市浦东新区民生路1500号"},{"poiid":"B2094757D068A2FD489E","title":"九间堂","lon":"121.5620138","lat":"31.222304185","category":"500","category_name":"未知分类","address":"浦东新区芳甸路599弄1号(近锦绣路)"},{"poiid":"B2094757D064A1F5499B","title":"龙阳路磁悬浮","lon":"121.560088975","lat":"31.2184807858","category":"500","category_name":"未知分类","address":"上海龙阳路"},{"poiid":"B2094757D069A4F4439D","title":"丰收日(联洋店)","lon":"121.559593975","lat":"31.2257219552","category":"75","category_name":"浙江菜","address":"浦东新区芳甸路300号联洋广场A区4楼(近迎春路)"},{"poiid":"B2094654DA69A1FB419B","title":"世纪公园","lon":"121.55255","lat":"31.21562","category":"196","category_name":"公园","address":"浦东新区锦绣路(1001号1号门，901号2号门，701号3号门)。"},{"poiid":"B2094757D069A0F84892","title":"希腊餐厅(芳甸路店)","lon":"121.559723585","lat":"31.2261000756","category":"94","category_name":"西餐厅","address":"浦东新区芳甸路199弄证大大拇指广场43号1楼41铺(近杨高中路)"},{"poiid":"B2094757D068A3FC4199","title":"韩林炭烤(联洋店)","lon":"121.55924","lat":"31.22601","category":"96","category_name":"韩国料理","address":"上海浦东新区芳甸路199弄证大大拇指广场48号(近杨高中路)  "},{"poiid":"B2094750D268A0F94993","title":"西贝莜面村 联洋店","lon":"121.557597","lat":"31.22674","category":"84","category_name":"西北菜","address":"浦东新区芳甸路300号联洋广场A区4楼401号铺(近丁香路)"},{"poiid":"B2094655D265A2FD429D","title":"联洋营业厅","lon":"121.5592","lat":"31.22576","category":"151","category_name":"电讯营业厅","address":"浦东新区芳甸路285号"},{"poiid":"B2094757D068A1F9439B","title":"老克勒上海菜 芳甸路店","lon":"121.558168054","lat":"31.226980793","category":"76","category_name":"上海菜","address":"浦东新区芳甸路300号联洋广场B区2楼(大拇指广场对面)"},{"poiid":"B2094757D06FABFD429C","title":"蒂梵尼造型设计(联洋广场店)","lon":"121.55922","lat":"31.22583","category":"148","category_name":"美容美发店","address":"浦东新区芳甸路300号联洋广场B区3楼(近大拇指广场)"},{"poiid":"B2094751D469A0F8479C","title":"唐鱼儿麻辣鲜鱼火锅","lon":"121.560104","lat":"31.225509","category":"86","category_name":"火锅店","address":"浦东新区芳甸路199弄40号大拇指广场46号(近迎春路)"},{"poiid":"B2094751D46BABFD469F","title":"义面屋","lon":"121.55899","lat":"31.225021","category":"94","category_name":"西餐厅","address":"浦东新区芳甸路199弄大拇指广场19号(预计12月开业)"},{"poiid":"B2094757D068A6FB4198","title":"许留山 联洋广场店 Hui Lau Shan","lon":"121.55758","lat":"31.22673","category":"67","category_name":"甜品店","address":"浦东新区芳甸路199弄40号联洋广场A座2楼(近迎春路)"},{"poiid":"B2094757D16AA3F94199","title":"二号线上海科技馆站","lon":"121.55862497","lat":"31.220030822","category":"500","category_name":"未知分类","address":"上海市浦东新区长柳路"},{"poiid":"B2094757D06AA2F84793","title":"近江和牛","lon":"121.5593909","lat":"31.226675604","category":"247","category_name":"餐饮美食","address":"上海大拇指广场"},{"poiid":"B2094757D16CA1FB409C","title":"小南国烧烤(大拇指店)","lon":"121.558883975","lat":"31.2262306671","category":"247","category_name":"餐饮美食","address":"上海芳甸路199弄40号大拇指广场一楼"},{"poiid":"B2094750D56DA1FB469F","title":"联洋广场 costa","lon":"121.558197","lat":"31.226411","category":"65","category_name":"咖啡厅","address":"浦东新区芳甸路300号联洋广场B区1楼(近迎春路)"},{"poiid":"B2094655D26EA3FF499C","title":"华丽家族花园","lon":"121.55773","lat":"31.22375","category":"47","category_name":"住宅区","address":"上海市浦东新区锦绣路666号"},{"poiid":"B2094757D065A0F44593","title":"爱尔兰文化餐厅","lon":"121.5593","lat":"31.22628","category":"94","category_name":"西餐厅","address":"浦东新区芳甸路199弄40号大拇指广场20号(迎春路口)"},{"poiid":"B2094751D569AAFE499B","title":"Lapasta 義麵屋","lon":"121.559636","lat":"31.226118","category":"247","category_name":"餐饮美食","address":"浦東新區芳甸路199弄33號2樓"},{"poiid":"B2094757D165A6FA4892","title":"俏江南","lon":"121.55993697","lat":"31.21867379","category":"500","category_name":"未知分类","address":"上海市浦东新区锦绣路"},{"poiid":"B2094757D068A1F9429C","title":"家乐福(大拇指广场店)","lon":"121.55993652","lat":"31.226459503","category":"118","category_name":"超级市场","address":"上海浦东新区芳甸路199弄 大拇指广场地下一层"},{"poiid":"B2094752D16EA1FF4899","title":"竹若金枪鱼","lon":"121.558091","lat":"31.225088","category":"247","category_name":"餐饮美食","address":"芳甸路199弄大拇指广场51号(近丁香路)"},{"poiid":"B2094654DA69A1FF459E","title":"泓叶","lon":"121.55912","lat":"31.22608","category":"76","category_name":"上海菜","address":"浦东新区芳甸路199弄40号大拇指广场内(迎春路口)"},{"poiid":"B2094752DA6CA4F8499C","title":"上海新国际博览中心","lon":"121.558733","lat":"31.220081","category":"500","category_name":"未知分类","address":null},{"poiid":"B2094655D26FABFD4998","title":"世纪公园(北门)","lon":"121.55784","lat":"31.2217","category":"680","category_name":"楼宇机构","address":""},{"poiid":"B2094757D16CA4FE4293","title":"海游吞拿","lon":"121.55948767","lat":"31.225968761","category":"95","category_name":"日本料理","address":"芳甸路199弄大拇指广场2楼近杨高中路"},{"poiid":"B2094750D165A2F84892","title":"深井大叔(大拇指店)","lon":"121.559715","lat":"31.226057","category":"72","category_name":"广东菜","address":"浦东新区芳甸路199弄证大大拇指广场43号1楼"},{"poiid":"B2094750DA6AAAFD489A","title":"必胜客上海大拇指店","lon":"121.559555","lat":"31.222763","category":"500","category_name":"未知分类","address":null},{"poiid":"B2094655D36CA6F9429F","title":"芳甸路锦绣路","lon":"121.55989","lat":"31.22159","category":"38","category_name":"公交车站","address":""},{"poiid":"B2094757D06BA3FD4692","title":"乐柚炭烤(迎春路店)","lon":"121.5552","lat":"31.22429","category":"96","category_name":"韩国料理","address":"浦东新区迎春路813号(近长柳路)"},{"poiid":"B2094655D265AAF8449C","title":"水上餐厅","lon":"121.55983","lat":"31.22096","category":"257","category_name":"中餐厅","address":"芳甸路666号世纪公园2号门附近"},{"poiid":"B2094655D26BA0FB449C","title":"世纪咖啡","lon":"121.55983","lat":"31.22096","category":"65","category_name":"咖啡厅","address":"芳甸路666号世纪公园内"},{"poiid":"B2094654DA69A2F5449C","title":"天安花园","lon":"121.55541","lat":"31.222439","category":"47","category_name":"住宅区","address":"上海市浦东新区锦绣路800号"},{"poiid":"B209475CD16BA7FC4599","title":"平壤高丽饭店","lon":"121.556854","lat":"31.222526","category":"247","category_name":"餐饮美食","address":"上海市 上海市浦东新区长柳路88号"},{"poiid":"B2094752D364A4F5489C","title":"居食屋和民(联洋广场店)","lon":"121.5579","lat":"31.22658","category":"95","category_name":"日本料理","address":"浦东新区芳甸路300号联洋广场4楼"},{"poiid":"B2094757D568A0FF4498","title":"九间堂别墅","lon":"121.5613469","lat":"31.22273611","category":"47","category_name":"住宅区","address":"上海市浦东新区锦安东路88弄"},{"poiid":"B2094757D66CAAFE4993","title":"妯娌老鴨粉絲館","lon":"121.55895453","lat":"31.220151044","category":"247","category_name":"餐饮美食","address":"上海龍陽路"},{"poiid":"B2094757D06AA2FE429A","title":"(友和)东京和食","lon":"121.55797697","lat":"31.226036962","category":"95","category_name":"日本料理","address":"浦东新区芳甸路300号联洋广场B区1楼B105室(近大拇指广场)"},{"poiid":"B2094757D468A4FC409F","title":"德兴第五季港式火锅","lon":"121.557597","lat":"31.22674","category":"86","category_name":"火锅店","address":"浦东新区芳甸路300号联洋广场A区4楼(近丁香路)"},{"poiid":"B2094757D568A5FF489D","title":"近江和牛正传日本料理","lon":"121.55987901","lat":"31.22658773","category":"95","category_name":"日本料理","address":"浦东新区芳甸路199弄大拇指广场2楼(丁香路芳甸路)"}]