[{"poiid":"B2094757D069A1F4469E","title":"张堰镇","lon":"121.286725719","lat":"30.8097493383","category":"500","category_name":"未知分类","address":"上海金山区张堰镇"},{"poiid":"B2094654DB68AAFD4893","title":"留溪佳园","lon":"121.29293","lat":"30.81114","category":"47","category_name":"住宅区","address":""},{"poiid":"B2094655D26BA1F4439B","title":"鲁堰村","lon":"121.30239","lat":"30.80622","category":"38","category_name":"公交车站","address":""},{"poiid":"B2094757D66DA2F4439A","title":"张堰","lon":"121.290934","lat":"30.804744","category":"500","category_name":"未知分类","address":"上海东贤路"},{"poiid":"B2094655D36DA7FE419E","title":"张埝汽车站","lon":"121.29063","lat":"30.80665","category":"35","category_name":"长途汽车站","address":""},{"poiid":"B2094654DB68AAFE459C","title":"上海嘉乐众诚制衣有限公司","lon":"121.2919","lat":"30.81011","category":"263","category_name":"公司","address":"松金公路2758"},{"poiid":"B2094757DB6DA5FD449C","title":"上海金来源大酒店","lon":"121.289476","lat":"30.803317","category":"260","category_name":"其他","address":"近郊张堰镇松金公路2525号(近张堰镇政府)"},{"poiid":"B2094654DB68AAFE4598","title":"金山区张堰中心小学","lon":"121.29369","lat":"30.80118","category":"56","category_name":"小学","address":""},{"poiid":"B2094655D26BA3F54198","title":"好又多购物中心(张堰店)","lon":"121.28912","lat":"30.80471","category":"118","category_name":"超级市场","address":""},{"poiid":"B2094757D16AA2FA4199","title":"德堰大酒店","lon":"121.29065","lat":"30.80358","category":"76","category_name":"上海菜","address":"上海近郊金山区张堰镇松金公路2539号  "},{"poiid":"B2094750D26BAAFC479E","title":"太阳城音乐广场","lon":"121.292694","lat":"30.804616","category":"248","category_name":"生活娱乐","address":"张堰"},{"poiid":"B2094654DB68AAFD419A","title":"上海龙威造漆厂","lon":"121.30002","lat":"30.82928","category":"263","category_name":"公司","address":""},{"poiid":"B2094655D26FA3F84299","title":"百味林(张堰镇店)","lon":"121.28783","lat":"30.80491","category":"257","category_name":"中餐厅","address":"金山区张堰镇新华东路9-11号"},{"poiid":"B2094654DB68AAFD4392","title":"上海农村商业银行张堰支行","lon":"121.28819","lat":"30.80705","category":"150","category_name":"银行","address":"金张公路198"},{"poiid":"B2094654DB68AAFD4093","title":"中国农业银行金山区张堰支行","lon":"121.28784","lat":"30.80694","category":"150","category_name":"银行","address":"金张公路200"},{"poiid":"B2094757D065A5FB449E","title":"金山区税务局","lon":"121.287446","lat":"30.806809","category":"500","category_name":"未知分类","address":"上海蒙源路111号"},{"poiid":"B2094757D66DA1FE499C","title":"联通张堰营业厅","lon":"121.288478","lat":"30.80492017","category":"150","category_name":"银行","address":"上海金山区张堰新华路65号"},{"poiid":"B2094654DB6AA3F5479E","title":"张堰派出所","lon":"121.2892","lat":"30.80279","category":"609","category_name":"警察局","address":"金山区松金公路2518号"}]