[{"poiid":"B2094757D06FA7FA459E","title":"华东理工大学(奉贤校区)","lon":"121.506258","lat":"30.831053","category":"671","category_name":"高校中心点","address":"近郊海思路999号"},{"poiid":"B2094757D06FA2FA489D","title":"上海应用技术学院(奉贤校区)","lon":"121.5169754","lat":"30.845203399","category":"52","category_name":"高等院校","address":"近郊奉贤区奉炮公路1225号(奉炮公路海阔路)"},{"poiid":"B2094757D06FA2FE499F","title":"上海师范大学(奉贤校区)","lon":"121.52111","lat":"30.83437","category":"52","category_name":"高等院校","address":"上海近郊奉贤区海思路100号"},{"poiid":"B2094757D068A7F44493","title":"上海师范大学(奉贤校区)学生宿舍区","lon":"121.511986339","lat":"30.8360213012","category":"253","category_name":"校园生活","address":"上海市奉贤区海思路500号"},{"poiid":"B2094757D06FA5F54698","title":"上海师范大学(奉贤校区)图书馆","lon":"121.51958704","lat":"30.837477779","category":"181","category_name":"图书馆","address":"近郊奉贤区奉炮公路553号上海师范大学内(近海思路)"},{"poiid":"B2094757D168A7FA489F","title":"上师大女人村","lon":"121.514662387","lat":"30.8320111656","category":"500","category_name":"未知分类","address":"上海师范大学女生宿舍园区"},{"poiid":"B2094757D06FAAF5479E","title":"上海应用技术学院图书馆","lon":"121.51285502","lat":"30.843731089","category":"253","category_name":"校园生活","address":"奉贤区奉炮公路1255号上海应用技术学院内"},{"poiid":"B2094757D165A6F54599","title":"伊卡斯特考试必过圣地","lon":"121.503991187","lat":"30.8333827977","category":"500","category_name":"未知分类","address":"上海奉贤区沿村路"},{"poiid":"B2094757D06FA0FF459E","title":"上海应用技术学院第二教学楼","lon":"121.50916697","lat":"30.84306324","category":"253","category_name":"校园生活","address":"上海市奉贤区奉炮公路1255号"},{"poiid":"B2094757D069A1FE459B","title":"上海旅游高等专科学校(奉贤校区)","lon":"121.513297187","lat":"30.837675898","category":"671","category_name":"高校中心点","address":"上海市奉贤区海思路500号"},{"poiid":"B2094757D068A4FD4099","title":"上海师范大学剧院(奉贤校区)","lon":"121.517351","lat":"30.838204","category":"179","category_name":"音乐厅","address":"上海奉贤区海思路100号上海师范大学内"},{"poiid":"B2094757D06FA6FE4892","title":"上海师范大学三教(奉贤校区)","lon":"121.51912117","lat":"30.839838485","category":"253","category_name":"校园生活","address":"上海市奉贤区海思路100号"},{"poiid":"B2094757D16EAAFC499D","title":"上海师范大学奉贤校区月亮湖畔","lon":"121.51510547","lat":"30.838152913","category":"500","category_name":"未知分类","address":"上海海思路100号"},{"poiid":"B2094757D068AAFB449E","title":"上海师范大学 男人村","lon":"121.51053689","lat":"30.8424930698","category":"500","category_name":"未知分类","address":"上海市奉贤区海思路100号西北角"},{"poiid":"B2094757D06BA2FF429D","title":"上师大第四教学楼","lon":"121.51810746","lat":"30.837016736","category":"253","category_name":"校园生活","address":"上海学海路"},{"poiid":"B2094757D66DA7F94499","title":"海湾路","lon":"121.505868774","lat":"30.8372098431","category":"260","category_name":"其他","address":"上海市奉贤区海湾路"},{"poiid":"B2094757D16FA2FE499A","title":"大学生活动中心","lon":"121.50502973","lat":"30.840630357","category":"500","category_name":"未知分类","address":"上海应用技术学院"},{"poiid":"B2094757D165AAFF449A","title":"华东理工大学图书馆四楼","lon":"121.50529018","lat":"30.830750736","category":"181","category_name":"图书馆","address":"上海市奉贤区海泉路"},{"poiid":"B2094757D16AA6FE4198","title":"上海应用技术学院奉贤校区23号楼","lon":"121.50525418","lat":"30.842318006","category":"500","category_name":"未知分类","address":"上海大学西路"},{"poiid":"B2094750D665A2FB449E","title":"重庆鸡公煲(师范大学奉贤店)","lon":"121.503","lat":"30.8405","category":"71","category_name":"四川菜","address":"近郊奉贤海湾路100号上海师范大学奉贤校区金桂苑2楼"},{"poiid":"B2094757D06AA2FB4192","title":"上师大剧院","lon":"121.51988811","lat":"30.839748446","category":"260","category_name":"其他","address":"上海奉炮公路"},{"poiid":"B2094654DB69A7F9499E","title":"LACALA阳光海岸","lon":"121.50141","lat":"30.84207","category":"47","category_name":"住宅区","address":"奉贤区莘奉公路4588弄"},{"poiid":"B2094757D068ABFB4692","title":"上海师范大学 第五教学楼","lon":"121.52171818","lat":"30.836788877","category":"500","category_name":"未知分类","address":"上海市奉贤区玉兰路"},{"poiid":"B2094757D165A7F44692","title":"妓院14#","lon":"121.50695638","lat":"30.842424409","category":"500","category_name":"未知分类","address":null},{"poiid":"B2094757D069A5F54493","title":"伊卡斯特A区","lon":"121.50644918","lat":"30.832377774","category":"500","category_name":"未知分类","address":"上海海思路999号"},{"poiid":"B2094757D06FA4FE459C","title":"上海师范大学四教（奉贤校区）","lon":"121.520858765","lat":"30.8346538544","category":"253","category_name":"校园生活","address":"上海师范大学（奉贤校区）内"},{"poiid":"B2094757D665A4FA499E","title":"海思路章鱼小丸子","lon":"121.50664","lat":"30.83798","category":"68","category_name":"快餐厅","address":"近郊奉贤区海思路999号华东理工大学北侧门(海泉路海湾路)"},{"poiid":"B2094757D06AA1FE439B","title":"上海应用技术学院奉贤校区11号楼","lon":"121.51121503","lat":"30.845317276","category":"500","category_name":"未知分类","address":"上海近郊奉贤区奉炮公路1225号"},{"poiid":"B2094757D665A4FA489C","title":"大鱼寿司","lon":"121.50801","lat":"30.83916","category":"95","category_name":"日本料理","address":"近郊奉贤区海思路999号华东理工大学北门小吃广场"},{"poiid":"B2094757D16AA6FC4498","title":"华东理工大学大学生活动中心","lon":"121.505068187","lat":"30.8359378574","category":"500","category_name":"未知分类","address":"上海市奉贤区沿村路"},{"poiid":"B2094654DB69A6FD409B","title":"上海棕榈滩海景酒店","lon":"121.50759","lat":"30.84435","category":"214","category_name":"四星级宾馆","address":"奉贤区莘奉公路4999号"},{"poiid":"B2094757D16FA5F54098","title":"上海应用技术学院第三学科楼","lon":"121.509399487","lat":"30.8420138994","category":"253","category_name":"校园生活","address":"上海应用技术学院奉贤校区"},{"poiid":"B2094757D065A7FA4599","title":"华东理工大学食堂","lon":"121.50405118","lat":"30.835025836","category":"500","category_name":"未知分类","address":"上海市奉贤区海思路999号"},{"poiid":"B2094757D06AA6FE479E","title":"上海应用技术学院8号楼","lon":"121.510715187","lat":"30.8456920854","category":"500","category_name":"未知分类","address":"上海市奉贤区奉炮公路1255号"},{"poiid":"B2094757D06AA6FE439B","title":"上海应用技术学院奉贤校区5号楼","lon":"121.506097154","lat":"30.844775864","category":"500","category_name":"未知分类","address":"上海奉炮公路1255号"},{"poiid":"B2094757D16AA4F8439A","title":"上海应用技术学院15号楼","lon":"121.51108388","lat":"30.847100618","category":"500","category_name":"未知分类","address":"上海奉贤区奉炮公路1255号"},{"poiid":"B2094750DB6AA3FA4798","title":"伊卡斯特大学","lon":"121.504547","lat":"30.833803","category":"253","category_name":"校园生活","address":null},{"poiid":"B2094655D36DA0FB449D","title":"应用技术学院","lon":"121.51636","lat":"30.84194","category":"38","category_name":"公交车站","address":""},{"poiid":"B2094757D16CA4F8449E","title":"华东理工大学生活动中心","lon":"121.508282637","lat":"30.8358073043","category":"500","category_name":"未知分类","address":"上海海思路999号华东理工大学奉贤校区近北侧门"},{"poiid":"B2094757D16EA5F54099","title":"匣咔shark","lon":"121.50831418","lat":"30.838286912","category":"500","category_name":"未知分类","address":"上海市奉贤区海湾路1583－1585号"},{"poiid":"B209475CD76CA2FB4593","title":"皇家应用技术学院","lon":"121.507629","lat":"30.843841","category":"500","category_name":"未知分类","address":"上海市 海泉路100号"},{"poiid":"B2094757D168ABFC469F","title":"金巴依新疆饭馆","lon":"121.504437687","lat":"30.8391084315","category":"500","category_name":"未知分类","address":"上海奉贤华东理工"},{"poiid":"B2094757D569A2FF4298","title":"海尚墅林苑","lon":"121.514","lat":"30.8426","category":"47","category_name":"住宅区","address":"奉贤海泉路555号"},{"poiid":"B209475CD669AAFD4598","title":"high歌KTV","lon":"121.503219","lat":"30.836671","category":"170","category_name":"KTV","address":"上海市 华理"},{"poiid":"B2094750DA6EAAF54793","title":"华东理工大学奉贤校区图书馆","lon":"121.504684","lat":"30.831249","category":"253","category_name":"校园生活","address":null},{"poiid":"B2094757D16CABF94899","title":"巴迪乐","lon":"121.510828954","lat":"30.8373395235","category":"68","category_name":"快餐厅","address":"近郊奉贤区海思路100号上海师范大学紫藤苑2楼"},{"poiid":"B2094757DA64A6FB4298","title":"上师大玉兰苑食堂","lon":"121.4958952","lat":"30.8421292","category":"253","category_name":"校园生活","address":"上师大玉兰"},{"poiid":"B2094757D068A0FA469E","title":"上海应用技术学院 九号楼","lon":"121.50982143","lat":"30.845769527","category":"500","category_name":"未知分类","address":"上海奉炮公路1255号"},{"poiid":"B2094757D16DAAFA419E","title":"心情摩天轮","lon":"121.49657278","lat":"30.843334419","category":"500","category_name":"未知分类","address":null},{"poiid":"B2094757D16FABF4479E","title":"伊卡斯特E区","lon":"121.50690388","lat":"30.836877879","category":"500","category_name":"未知分类","address":"上海海思路999号"},{"poiid":"B2094757D06FA7FA459E","title":"华东理工大学(奉贤校区)","lon":"121.506258","lat":"30.831053","category":"671","category_name":"高校中心点","address":"近郊海思路999号"},{"poiid":"B2094757D06FA2FA489D","title":"上海应用技术学院(奉贤校区)","lon":"121.5169754","lat":"30.845203399","category":"52","category_name":"高等院校","address":"近郊奉贤区奉炮公路1225号(奉炮公路海阔路)"},{"poiid":"B2094757D06FA2FE499F","title":"上海师范大学(奉贤校区)","lon":"121.52111","lat":"30.83437","category":"52","category_name":"高等院校","address":"上海近郊奉贤区海思路100号"},{"poiid":"B2094757D068A7F44493","title":"上海师范大学(奉贤校区)学生宿舍区","lon":"121.511986339","lat":"30.8360213012","category":"253","category_name":"校园生活","address":"上海市奉贤区海思路500号"},{"poiid":"B2094757D06FA5F54698","title":"上海师范大学(奉贤校区)图书馆","lon":"121.51958704","lat":"30.837477779","category":"181","category_name":"图书馆","address":"近郊奉贤区奉炮公路553号上海师范大学内(近海思路)"},{"poiid":"B2094757D168A7FA489F","title":"上师大女人村","lon":"121.514662387","lat":"30.8320111656","category":"500","category_name":"未知分类","address":"上海师范大学女生宿舍园区"},{"poiid":"B2094757D06FAAF5479E","title":"上海应用技术学院图书馆","lon":"121.51285502","lat":"30.843731089","category":"253","category_name":"校园生活","address":"奉贤区奉炮公路1255号上海应用技术学院内"},{"poiid":"B2094757D165A6F54599","title":"伊卡斯特考试必过圣地","lon":"121.503991187","lat":"30.8333827977","category":"500","category_name":"未知分类","address":"上海奉贤区沿村路"},{"poiid":"B2094757D06FA0FF459E","title":"上海应用技术学院第二教学楼","lon":"121.50916697","lat":"30.84306324","category":"253","category_name":"校园生活","address":"上海市奉贤区奉炮公路1255号"},{"poiid":"B2094757D069A1FE459B","title":"上海旅游高等专科学校(奉贤校区)","lon":"121.513297187","lat":"30.837675898","category":"671","category_name":"高校中心点","address":"上海市奉贤区海思路500号"},{"poiid":"B2094757D068A4FD4099","title":"上海师范大学剧院(奉贤校区)","lon":"121.517351","lat":"30.838204","category":"179","category_name":"音乐厅","address":"上海奉贤区海思路100号上海师范大学内"},{"poiid":"B2094757D06FA6FE4892","title":"上海师范大学三教(奉贤校区)","lon":"121.51912117","lat":"30.839838485","category":"253","category_name":"校园生活","address":"上海市奉贤区海思路100号"},{"poiid":"B2094757D16EAAFC499D","title":"上海师范大学奉贤校区月亮湖畔","lon":"121.51510547","lat":"30.838152913","category":"500","category_name":"未知分类","address":"上海海思路100号"},{"poiid":"B2094757D068AAFB449E","title":"上海师范大学 男人村","lon":"121.51053689","lat":"30.8424930698","category":"500","category_name":"未知分类","address":"上海市奉贤区海思路100号西北角"},{"poiid":"B2094757D06BA2FF429D","title":"上师大第四教学楼","lon":"121.51810746","lat":"30.837016736","category":"253","category_name":"校园生活","address":"上海学海路"},{"poiid":"B2094757D66DA7F94499","title":"海湾路","lon":"121.505868774","lat":"30.8372098431","category":"260","category_name":"其他","address":"上海市奉贤区海湾路"},{"poiid":"B2094757D16FA2FE499A","title":"大学生活动中心","lon":"121.50502973","lat":"30.840630357","category":"500","category_name":"未知分类","address":"上海应用技术学院"},{"poiid":"B2094757D165AAFF449A","title":"华东理工大学图书馆四楼","lon":"121.50529018","lat":"30.830750736","category":"181","category_name":"图书馆","address":"上海市奉贤区海泉路"},{"poiid":"B2094757D16AA6FE4198","title":"上海应用技术学院奉贤校区23号楼","lon":"121.50525418","lat":"30.842318006","category":"500","category_name":"未知分类","address":"上海大学西路"},{"poiid":"B2094750D665A2FB449E","title":"重庆鸡公煲(师范大学奉贤店)","lon":"121.503","lat":"30.8405","category":"71","category_name":"四川菜","address":"近郊奉贤海湾路100号上海师范大学奉贤校区金桂苑2楼"},{"poiid":"B2094757D06AA2FB4192","title":"上师大剧院","lon":"121.51988811","lat":"30.839748446","category":"260","category_name":"其他","address":"上海奉炮公路"},{"poiid":"B2094654DB69A7F9499E","title":"LACALA阳光海岸","lon":"121.50141","lat":"30.84207","category":"47","category_name":"住宅区","address":"奉贤区莘奉公路4588弄"},{"poiid":"B2094757D068ABFB4692","title":"上海师范大学 第五教学楼","lon":"121.52171818","lat":"30.836788877","category":"500","category_name":"未知分类","address":"上海市奉贤区玉兰路"},{"poiid":"B2094757D165A7F44692","title":"妓院14#","lon":"121.50695638","lat":"30.842424409","category":"500","category_name":"未知分类","address":null},{"poiid":"B2094757D069A5F54493","title":"伊卡斯特A区","lon":"121.50644918","lat":"30.832377774","category":"500","category_name":"未知分类","address":"上海海思路999号"},{"poiid":"B2094757D06FA4FE459C","title":"上海师范大学四教（奉贤校区）","lon":"121.520858765","lat":"30.8346538544","category":"253","category_name":"校园生活","address":"上海师范大学（奉贤校区）内"},{"poiid":"B2094757D665A4FA499E","title":"海思路章鱼小丸子","lon":"121.50664","lat":"30.83798","category":"68","category_name":"快餐厅","address":"近郊奉贤区海思路999号华东理工大学北侧门(海泉路海湾路)"},{"poiid":"B2094757D06AA1FE439B","title":"上海应用技术学院奉贤校区11号楼","lon":"121.51121503","lat":"30.845317276","category":"500","category_name":"未知分类","address":"上海近郊奉贤区奉炮公路1225号"},{"poiid":"B2094757D665A4FA489C","title":"大鱼寿司","lon":"121.50801","lat":"30.83916","category":"95","category_name":"日本料理","address":"近郊奉贤区海思路999号华东理工大学北门小吃广场"},{"poiid":"B2094757D16AA6FC4498","title":"华东理工大学大学生活动中心","lon":"121.505068187","lat":"30.8359378574","category":"500","category_name":"未知分类","address":"上海市奉贤区沿村路"},{"poiid":"B2094654DB69A6FD409B","title":"上海棕榈滩海景酒店","lon":"121.50759","lat":"30.84435","category":"214","category_name":"四星级宾馆","address":"奉贤区莘奉公路4999号"},{"poiid":"B2094757D16FA5F54098","title":"上海应用技术学院第三学科楼","lon":"121.509399487","lat":"30.8420138994","category":"253","category_name":"校园生活","address":"上海应用技术学院奉贤校区"},{"poiid":"B2094757D065A7FA4599","title":"华东理工大学食堂","lon":"121.50405118","lat":"30.835025836","category":"500","category_name":"未知分类","address":"上海市奉贤区海思路999号"},{"poiid":"B2094757D06AA6FE479E","title":"上海应用技术学院8号楼","lon":"121.510715187","lat":"30.8456920854","category":"500","category_name":"未知分类","address":"上海市奉贤区奉炮公路1255号"},{"poiid":"B2094757D06AA6FE439B","title":"上海应用技术学院奉贤校区5号楼","lon":"121.506097154","lat":"30.844775864","category":"500","category_name":"未知分类","address":"上海奉炮公路1255号"},{"poiid":"B2094757D16AA4F8439A","title":"上海应用技术学院15号楼","lon":"121.51108388","lat":"30.847100618","category":"500","category_name":"未知分类","address":"上海奉贤区奉炮公路1255号"},{"poiid":"B2094750DB6AA3FA4798","title":"伊卡斯特大学","lon":"121.504547","lat":"30.833803","category":"253","category_name":"校园生活","address":null},{"poiid":"B2094655D36DA0FB449D","title":"应用技术学院","lon":"121.51636","lat":"30.84194","category":"38","category_name":"公交车站","address":""},{"poiid":"B2094757D16CA4F8449E","title":"华东理工大学生活动中心","lon":"121.508282637","lat":"30.8358073043","category":"500","category_name":"未知分类","address":"上海海思路999号华东理工大学奉贤校区近北侧门"},{"poiid":"B2094757D16EA5F54099","title":"匣咔shark","lon":"121.50831418","lat":"30.838286912","category":"500","category_name":"未知分类","address":"上海市奉贤区海湾路1583－1585号"},{"poiid":"B209475CD76CA2FB4593","title":"皇家应用技术学院","lon":"121.507629","lat":"30.843841","category":"500","category_name":"未知分类","address":"上海市 海泉路100号"},{"poiid":"B2094757D168ABFC469F","title":"金巴依新疆饭馆","lon":"121.504437687","lat":"30.8391084315","category":"500","category_name":"未知分类","address":"上海奉贤华东理工"},{"poiid":"B2094757D569A2FF4298","title":"海尚墅林苑","lon":"121.514","lat":"30.8426","category":"47","category_name":"住宅区","address":"奉贤海泉路555号"},{"poiid":"B209475CD669AAFD4598","title":"high歌KTV","lon":"121.503219","lat":"30.836671","category":"170","category_name":"KTV","address":"上海市 华理"},{"poiid":"B2094750DA6EAAF54793","title":"华东理工大学奉贤校区图书馆","lon":"121.504684","lat":"30.831249","category":"253","category_name":"校园生活","address":null},{"poiid":"B2094757D16CABF94899","title":"巴迪乐","lon":"121.510828954","lat":"30.8373395235","category":"68","category_name":"快餐厅","address":"近郊奉贤区海思路100号上海师范大学紫藤苑2楼"},{"poiid":"B2094757DA64A6FB4298","title":"上师大玉兰苑食堂","lon":"121.4958952","lat":"30.8421292","category":"253","category_name":"校园生活","address":"上师大玉兰"},{"poiid":"B2094757D068A0FA469E","title":"上海应用技术学院 九号楼","lon":"121.50982143","lat":"30.845769527","category":"500","category_name":"未知分类","address":"上海奉炮公路1255号"},{"poiid":"B2094757D16DAAFA419E","title":"心情摩天轮","lon":"121.49657278","lat":"30.843334419","category":"500","category_name":"未知分类","address":null},{"poiid":"B2094757D16FABF4479E","title":"伊卡斯特E区","lon":"121.50690388","lat":"30.836877879","category":"500","category_name":"未知分类","address":"上海海思路999号"},{"poiid":"B2094757D06FA7FA459E","title":"华东理工大学(奉贤校区)","lon":"121.506258","lat":"30.831053","category":"671","category_name":"高校中心点","address":"近郊海思路999号"},{"poiid":"B2094757D06FA2FA489D","title":"上海应用技术学院(奉贤校区)","lon":"121.5169754","lat":"30.845203399","category":"52","category_name":"高等院校","address":"近郊奉贤区奉炮公路1225号(奉炮公路海阔路)"},{"poiid":"B2094757D06FA2FE499F","title":"上海师范大学(奉贤校区)","lon":"121.52111","lat":"30.83437","category":"52","category_name":"高等院校","address":"上海近郊奉贤区海思路100号"},{"poiid":"B2094757D068A7F44493","title":"上海师范大学(奉贤校区)学生宿舍区","lon":"121.511986339","lat":"30.8360213012","category":"253","category_name":"校园生活","address":"上海市奉贤区海思路500号"},{"poiid":"B2094757D06FA5F54698","title":"上海师范大学(奉贤校区)图书馆","lon":"121.51958704","lat":"30.837477779","category":"181","category_name":"图书馆","address":"近郊奉贤区奉炮公路553号上海师范大学内(近海思路)"},{"poiid":"B2094757D168A7FA489F","title":"上师大女人村","lon":"121.514662387","lat":"30.8320111656","category":"500","category_name":"未知分类","address":"上海师范大学女生宿舍园区"},{"poiid":"B2094757D06FAAF5479E","title":"上海应用技术学院图书馆","lon":"121.51285502","lat":"30.843731089","category":"253","category_name":"校园生活","address":"奉贤区奉炮公路1255号上海应用技术学院内"},{"poiid":"B2094757D165A6F54599","title":"伊卡斯特考试必过圣地","lon":"121.503991187","lat":"30.8333827977","category":"500","category_name":"未知分类","address":"上海奉贤区沿村路"},{"poiid":"B2094757D06FA0FF459E","title":"上海应用技术学院第二教学楼","lon":"121.50916697","lat":"30.84306324","category":"253","category_name":"校园生活","address":"上海市奉贤区奉炮公路1255号"},{"poiid":"B2094757D069A1FE459B","title":"上海旅游高等专科学校(奉贤校区)","lon":"121.513297187","lat":"30.837675898","category":"671","category_name":"高校中心点","address":"上海市奉贤区海思路500号"},{"poiid":"B2094757D068A4FD4099","title":"上海师范大学剧院(奉贤校区)","lon":"121.517351","lat":"30.838204","category":"179","category_name":"音乐厅","address":"上海奉贤区海思路100号上海师范大学内"},{"poiid":"B2094757D06FA6FE4892","title":"上海师范大学三教(奉贤校区)","lon":"121.51912117","lat":"30.839838485","category":"253","category_name":"校园生活","address":"上海市奉贤区海思路100号"},{"poiid":"B2094757D16EAAFC499D","title":"上海师范大学奉贤校区月亮湖畔","lon":"121.51510547","lat":"30.838152913","category":"500","category_name":"未知分类","address":"上海海思路100号"},{"poiid":"B2094757D068AAFB449E","title":"上海师范大学 男人村","lon":"121.51053689","lat":"30.8424930698","category":"500","category_name":"未知分类","address":"上海市奉贤区海思路100号西北角"},{"poiid":"B2094757D06BA2FF429D","title":"上师大第四教学楼","lon":"121.51810746","lat":"30.837016736","category":"253","category_name":"校园生活","address":"上海学海路"},{"poiid":"B2094757D66DA7F94499","title":"海湾路","lon":"121.505868774","lat":"30.8372098431","category":"260","category_name":"其他","address":"上海市奉贤区海湾路"},{"poiid":"B2094757D16FA2FE499A","title":"大学生活动中心","lon":"121.50502973","lat":"30.840630357","category":"500","category_name":"未知分类","address":"上海应用技术学院"},{"poiid":"B2094757D165AAFF449A","title":"华东理工大学图书馆四楼","lon":"121.50529018","lat":"30.830750736","category":"181","category_name":"图书馆","address":"上海市奉贤区海泉路"},{"poiid":"B2094757D16AA6FE4198","title":"上海应用技术学院奉贤校区23号楼","lon":"121.50525418","lat":"30.842318006","category":"500","category_name":"未知分类","address":"上海大学西路"},{"poiid":"B2094750D665A2FB449E","title":"重庆鸡公煲(师范大学奉贤店)","lon":"121.503","lat":"30.8405","category":"71","category_name":"四川菜","address":"近郊奉贤海湾路100号上海师范大学奉贤校区金桂苑2楼"},{"poiid":"B2094757D06AA2FB4192","title":"上师大剧院","lon":"121.51988811","lat":"30.839748446","category":"260","category_name":"其他","address":"上海奉炮公路"},{"poiid":"B2094654DB69A7F9499E","title":"LACALA阳光海岸","lon":"121.50141","lat":"30.84207","category":"47","category_name":"住宅区","address":"奉贤区莘奉公路4588弄"},{"poiid":"B2094757D068ABFB4692","title":"上海师范大学 第五教学楼","lon":"121.52171818","lat":"30.836788877","category":"500","category_name":"未知分类","address":"上海市奉贤区玉兰路"},{"poiid":"B2094757D165A7F44692","title":"妓院14#","lon":"121.50695638","lat":"30.842424409","category":"500","category_name":"未知分类","address":null},{"poiid":"B2094757D069A5F54493","title":"伊卡斯特A区","lon":"121.50644918","lat":"30.832377774","category":"500","category_name":"未知分类","address":"上海海思路999号"},{"poiid":"B2094757D06FA4FE459C","title":"上海师范大学四教（奉贤校区）","lon":"121.520858765","lat":"30.8346538544","category":"253","category_name":"校园生活","address":"上海师范大学（奉贤校区）内"},{"poiid":"B2094757D665A4FA499E","title":"海思路章鱼小丸子","lon":"121.50664","lat":"30.83798","category":"68","category_name":"快餐厅","address":"近郊奉贤区海思路999号华东理工大学北侧门(海泉路海湾路)"},{"poiid":"B2094757D06AA1FE439B","title":"上海应用技术学院奉贤校区11号楼","lon":"121.51121503","lat":"30.845317276","category":"500","category_name":"未知分类","address":"上海近郊奉贤区奉炮公路1225号"},{"poiid":"B2094757D665A4FA489C","title":"大鱼寿司","lon":"121.50801","lat":"30.83916","category":"95","category_name":"日本料理","address":"近郊奉贤区海思路999号华东理工大学北门小吃广场"},{"poiid":"B2094757D16AA6FC4498","title":"华东理工大学大学生活动中心","lon":"121.505068187","lat":"30.8359378574","category":"500","category_name":"未知分类","address":"上海市奉贤区沿村路"},{"poiid":"B2094654DB69A6FD409B","title":"上海棕榈滩海景酒店","lon":"121.50759","lat":"30.84435","category":"214","category_name":"四星级宾馆","address":"奉贤区莘奉公路4999号"},{"poiid":"B2094757D16FA5F54098","title":"上海应用技术学院第三学科楼","lon":"121.509399487","lat":"30.8420138994","category":"253","category_name":"校园生活","address":"上海应用技术学院奉贤校区"},{"poiid":"B2094757D065A7FA4599","title":"华东理工大学食堂","lon":"121.50405118","lat":"30.835025836","category":"500","category_name":"未知分类","address":"上海市奉贤区海思路999号"},{"poiid":"B2094757D06AA6FE479E","title":"上海应用技术学院8号楼","lon":"121.510715187","lat":"30.8456920854","category":"500","category_name":"未知分类","address":"上海市奉贤区奉炮公路1255号"},{"poiid":"B2094757D06AA6FE439B","title":"上海应用技术学院奉贤校区5号楼","lon":"121.506097154","lat":"30.844775864","category":"500","category_name":"未知分类","address":"上海奉炮公路1255号"},{"poiid":"B2094757D16AA4F8439A","title":"上海应用技术学院15号楼","lon":"121.51108388","lat":"30.847100618","category":"500","category_name":"未知分类","address":"上海奉贤区奉炮公路1255号"},{"poiid":"B2094750DB6AA3FA4798","title":"伊卡斯特大学","lon":"121.504547","lat":"30.833803","category":"253","category_name":"校园生活","address":null},{"poiid":"B2094655D36DA0FB449D","title":"应用技术学院","lon":"121.51636","lat":"30.84194","category":"38","category_name":"公交车站","address":""},{"poiid":"B2094757D16CA4F8449E","title":"华东理工大学生活动中心","lon":"121.508282637","lat":"30.8358073043","category":"500","category_name":"未知分类","address":"上海海思路999号华东理工大学奉贤校区近北侧门"},{"poiid":"B2094757D16EA5F54099","title":"匣咔shark","lon":"121.50831418","lat":"30.838286912","category":"500","category_name":"未知分类","address":"上海市奉贤区海湾路1583－1585号"},{"poiid":"B209475CD76CA2FB4593","title":"皇家应用技术学院","lon":"121.507629","lat":"30.843841","category":"500","category_name":"未知分类","address":"上海市 海泉路100号"},{"poiid":"B2094757D168ABFC469F","title":"金巴依新疆饭馆","lon":"121.504437687","lat":"30.8391084315","category":"500","category_name":"未知分类","address":"上海奉贤华东理工"},{"poiid":"B2094757D569A2FF4298","title":"海尚墅林苑","lon":"121.514","lat":"30.8426","category":"47","category_name":"住宅区","address":"奉贤海泉路555号"},{"poiid":"B209475CD669AAFD4598","title":"high歌KTV","lon":"121.503219","lat":"30.836671","category":"170","category_name":"KTV","address":"上海市 华理"},{"poiid":"B2094750DA6EAAF54793","title":"华东理工大学奉贤校区图书馆","lon":"121.504684","lat":"30.831249","category":"253","category_name":"校园生活","address":null},{"poiid":"B2094757D16CABF94899","title":"巴迪乐","lon":"121.510828954","lat":"30.8373395235","category":"68","category_name":"快餐厅","address":"近郊奉贤区海思路100号上海师范大学紫藤苑2楼"},{"poiid":"B2094757DA64A6FB4298","title":"上师大玉兰苑食堂","lon":"121.4958952","lat":"30.8421292","category":"253","category_name":"校园生活","address":"上师大玉兰"},{"poiid":"B2094757D068A0FA469E","title":"上海应用技术学院 九号楼","lon":"121.50982143","lat":"30.845769527","category":"500","category_name":"未知分类","address":"上海奉炮公路1255号"},{"poiid":"B2094757D16DAAFA419E","title":"心情摩天轮","lon":"121.49657278","lat":"30.843334419","category":"500","category_name":"未知分类","address":null},{"poiid":"B2094757D16FABF4479E","title":"伊卡斯特E区","lon":"121.50690388","lat":"30.836877879","category":"500","category_name":"未知分类","address":"上海海思路999号"},{"poiid":"B2094757D06FA7FA459E","title":"华东理工大学(奉贤校区)","lon":"121.506258","lat":"30.831053","category":"671","category_name":"高校中心点","address":"近郊海思路999号"},{"poiid":"B2094757D06FA2FA489D","title":"上海应用技术学院(奉贤校区)","lon":"121.5169754","lat":"30.845203399","category":"52","category_name":"高等院校","address":"近郊奉贤区奉炮公路1225号(奉炮公路海阔路)"},{"poiid":"B2094757D06FA2FE499F","title":"上海师范大学(奉贤校区)","lon":"121.52111","lat":"30.83437","category":"52","category_name":"高等院校","address":"上海近郊奉贤区海思路100号"},{"poiid":"B2094757D068A7F44493","title":"上海师范大学(奉贤校区)学生宿舍区","lon":"121.511986339","lat":"30.8360213012","category":"253","category_name":"校园生活","address":"上海市奉贤区海思路500号"},{"poiid":"B2094757D06FA5F54698","title":"上海师范大学(奉贤校区)图书馆","lon":"121.51958704","lat":"30.837477779","category":"181","category_name":"图书馆","address":"近郊奉贤区奉炮公路553号上海师范大学内(近海思路)"},{"poiid":"B2094757D168A7FA489F","title":"上师大女人村","lon":"121.514662387","lat":"30.8320111656","category":"500","category_name":"未知分类","address":"上海师范大学女生宿舍园区"},{"poiid":"B2094757D06FAAF5479E","title":"上海应用技术学院图书馆","lon":"121.51285502","lat":"30.843731089","category":"253","category_name":"校园生活","address":"奉贤区奉炮公路1255号上海应用技术学院内"},{"poiid":"B2094757D165A6F54599","title":"伊卡斯特考试必过圣地","lon":"121.503991187","lat":"30.8333827977","category":"500","category_name":"未知分类","address":"上海奉贤区沿村路"},{"poiid":"B2094757D06FA0FF459E","title":"上海应用技术学院第二教学楼","lon":"121.50916697","lat":"30.84306324","category":"253","category_name":"校园生活","address":"上海市奉贤区奉炮公路1255号"},{"poiid":"B2094757D069A1FE459B","title":"上海旅游高等专科学校(奉贤校区)","lon":"121.513297187","lat":"30.837675898","category":"671","category_name":"高校中心点","address":"上海市奉贤区海思路500号"},{"poiid":"B2094757D068A4FD4099","title":"上海师范大学剧院(奉贤校区)","lon":"121.517351","lat":"30.838204","category":"179","category_name":"音乐厅","address":"上海奉贤区海思路100号上海师范大学内"},{"poiid":"B2094757D06FA6FE4892","title":"上海师范大学三教(奉贤校区)","lon":"121.51912117","lat":"30.839838485","category":"253","category_name":"校园生活","address":"上海市奉贤区海思路100号"},{"poiid":"B2094757D16EAAFC499D","title":"上海师范大学奉贤校区月亮湖畔","lon":"121.51510547","lat":"30.838152913","category":"500","category_name":"未知分类","address":"上海海思路100号"},{"poiid":"B2094757D068AAFB449E","title":"上海师范大学 男人村","lon":"121.51053689","lat":"30.8424930698","category":"500","category_name":"未知分类","address":"上海市奉贤区海思路100号西北角"},{"poiid":"B2094757D06BA2FF429D","title":"上师大第四教学楼","lon":"121.51810746","lat":"30.837016736","category":"253","category_name":"校园生活","address":"上海学海路"},{"poiid":"B2094757D66DA7F94499","title":"海湾路","lon":"121.505868774","lat":"30.8372098431","category":"260","category_name":"其他","address":"上海市奉贤区海湾路"},{"poiid":"B2094757D16FA2FE499A","title":"大学生活动中心","lon":"121.50502973","lat":"30.840630357","category":"500","category_name":"未知分类","address":"上海应用技术学院"},{"poiid":"B2094757D165AAFF449A","title":"华东理工大学图书馆四楼","lon":"121.50529018","lat":"30.830750736","category":"181","category_name":"图书馆","address":"上海市奉贤区海泉路"},{"poiid":"B2094757D16AA6FE4198","title":"上海应用技术学院奉贤校区23号楼","lon":"121.50525418","lat":"30.842318006","category":"500","category_name":"未知分类","address":"上海大学西路"},{"poiid":"B2094750D665A2FB449E","title":"重庆鸡公煲(师范大学奉贤店)","lon":"121.503","lat":"30.8405","category":"71","category_name":"四川菜","address":"近郊奉贤海湾路100号上海师范大学奉贤校区金桂苑2楼"},{"poiid":"B2094757D06AA2FB4192","title":"上师大剧院","lon":"121.51988811","lat":"30.839748446","category":"260","category_name":"其他","address":"上海奉炮公路"},{"poiid":"B2094654DB69A7F9499E","title":"LACALA阳光海岸","lon":"121.50141","lat":"30.84207","category":"47","category_name":"住宅区","address":"奉贤区莘奉公路4588弄"},{"poiid":"B2094757D068ABFB4692","title":"上海师范大学 第五教学楼","lon":"121.52171818","lat":"30.836788877","category":"500","category_name":"未知分类","address":"上海市奉贤区玉兰路"},{"poiid":"B2094757D165A7F44692","title":"妓院14#","lon":"121.50695638","lat":"30.842424409","category":"500","category_name":"未知分类","address":null},{"poiid":"B2094757D069A5F54493","title":"伊卡斯特A区","lon":"121.50644918","lat":"30.832377774","category":"500","category_name":"未知分类","address":"上海海思路999号"},{"poiid":"B2094757D06FA4FE459C","title":"上海师范大学四教（奉贤校区）","lon":"121.520858765","lat":"30.8346538544","category":"253","category_name":"校园生活","address":"上海师范大学（奉贤校区）内"},{"poiid":"B2094757D665A4FA499E","title":"海思路章鱼小丸子","lon":"121.50664","lat":"30.83798","category":"68","category_name":"快餐厅","address":"近郊奉贤区海思路999号华东理工大学北侧门(海泉路海湾路)"},{"poiid":"B2094757D06AA1FE439B","title":"上海应用技术学院奉贤校区11号楼","lon":"121.51121503","lat":"30.845317276","category":"500","category_name":"未知分类","address":"上海近郊奉贤区奉炮公路1225号"},{"poiid":"B2094757D665A4FA489C","title":"大鱼寿司","lon":"121.50801","lat":"30.83916","category":"95","category_name":"日本料理","address":"近郊奉贤区海思路999号华东理工大学北门小吃广场"},{"poiid":"B2094757D16AA6FC4498","title":"华东理工大学大学生活动中心","lon":"121.505068187","lat":"30.8359378574","category":"500","category_name":"未知分类","address":"上海市奉贤区沿村路"},{"poiid":"B2094654DB69A6FD409B","title":"上海棕榈滩海景酒店","lon":"121.50759","lat":"30.84435","category":"214","category_name":"四星级宾馆","address":"奉贤区莘奉公路4999号"},{"poiid":"B2094757D16FA5F54098","title":"上海应用技术学院第三学科楼","lon":"121.509399487","lat":"30.8420138994","category":"253","category_name":"校园生活","address":"上海应用技术学院奉贤校区"},{"poiid":"B2094757D065A7FA4599","title":"华东理工大学食堂","lon":"121.50405118","lat":"30.835025836","category":"500","category_name":"未知分类","address":"上海市奉贤区海思路999号"},{"poiid":"B2094757D06AA6FE479E","title":"上海应用技术学院8号楼","lon":"121.510715187","lat":"30.8456920854","category":"500","category_name":"未知分类","address":"上海市奉贤区奉炮公路1255号"},{"poiid":"B2094757D06AA6FE439B","title":"上海应用技术学院奉贤校区5号楼","lon":"121.506097154","lat":"30.844775864","category":"500","category_name":"未知分类","address":"上海奉炮公路1255号"},{"poiid":"B2094757D16AA4F8439A","title":"上海应用技术学院15号楼","lon":"121.51108388","lat":"30.847100618","category":"500","category_name":"未知分类","address":"上海奉贤区奉炮公路1255号"},{"poiid":"B2094750DB6AA3FA4798","title":"伊卡斯特大学","lon":"121.504547","lat":"30.833803","category":"253","category_name":"校园生活","address":null},{"poiid":"B2094655D36DA0FB449D","title":"应用技术学院","lon":"121.51636","lat":"30.84194","category":"38","category_name":"公交车站","address":""},{"poiid":"B2094757D16CA4F8449E","title":"华东理工大学生活动中心","lon":"121.508282637","lat":"30.8358073043","category":"500","category_name":"未知分类","address":"上海海思路999号华东理工大学奉贤校区近北侧门"},{"poiid":"B2094757D16EA5F54099","title":"匣咔shark","lon":"121.50831418","lat":"30.838286912","category":"500","category_name":"未知分类","address":"上海市奉贤区海湾路1583－1585号"},{"poiid":"B209475CD76CA2FB4593","title":"皇家应用技术学院","lon":"121.507629","lat":"30.843841","category":"500","category_name":"未知分类","address":"上海市 海泉路100号"},{"poiid":"B2094757D168ABFC469F","title":"金巴依新疆饭馆","lon":"121.504437687","lat":"30.8391084315","category":"500","category_name":"未知分类","address":"上海奉贤华东理工"},{"poiid":"B2094757D569A2FF4298","title":"海尚墅林苑","lon":"121.514","lat":"30.8426","category":"47","category_name":"住宅区","address":"奉贤海泉路555号"},{"poiid":"B209475CD669AAFD4598","title":"high歌KTV","lon":"121.503219","lat":"30.836671","category":"170","category_name":"KTV","address":"上海市 华理"},{"poiid":"B2094750DA6EAAF54793","title":"华东理工大学奉贤校区图书馆","lon":"121.504684","lat":"30.831249","category":"253","category_name":"校园生活","address":null},{"poiid":"B2094757D16CABF94899","title":"巴迪乐","lon":"121.510828954","lat":"30.8373395235","category":"68","category_name":"快餐厅","address":"近郊奉贤区海思路100号上海师范大学紫藤苑2楼"},{"poiid":"B2094757DA64A6FB4298","title":"上师大玉兰苑食堂","lon":"121.4958952","lat":"30.8421292","category":"253","category_name":"校园生活","address":"上师大玉兰"},{"poiid":"B2094757D068A0FA469E","title":"上海应用技术学院 九号楼","lon":"121.50982143","lat":"30.845769527","category":"500","category_name":"未知分类","address":"上海奉炮公路1255号"},{"poiid":"B2094757D16DAAFA419E","title":"心情摩天轮","lon":"121.49657278","lat":"30.843334419","category":"500","category_name":"未知分类","address":null},{"poiid":"B2094757D16FABF4479E","title":"伊卡斯特E区","lon":"121.50690388","lat":"30.836877879","category":"500","category_name":"未知分类","address":"上海海思路999号"}]