[{"poiid":"B2094654D56FA6F5489D","title":"黄兴公园","lon":"121.5297","lat":"31.29323","category":"196","category_name":"公园","address":"杨浦区国顺东路369号(近双阳北路)"},{"poiid":"B2094750D36BA6F4479C","title":"上海小南国花园酒店","lon":"121.53347820226","lat":"31.292932530138","category":"217","category_name":"旅馆招待所","address":"杨浦区佳木斯路777号小南国花园酒店5楼(近营口路)"},{"poiid":"B2094757D06FA7FE4793","title":"薇拉宫邸私人婚礼会所(杨浦店)","lon":"121.53268","lat":"31.29639","category":"500","category_name":"未知分类","address":"杨浦区营口路699号(近双阳北路)查看地图"},{"poiid":"B2094757D068A0F54192","title":"上理工医疗器械专科学校","lon":"121.53425","lat":"31.28904","category":"52","category_name":"高等院校","address":"杨浦区营口路101号(近靖宇东路)"},{"poiid":"B2094757DA64AAF54799","title":"五角场","lon":"121.531717","lat":"31.296098","category":"500","category_name":"未知分类","address":"万达广场"},{"poiid":"B2094757D16DA3F5439E","title":"UpGolf仲益黄兴高尔夫教学中心","lon":"121.526417103","lat":"31.2974709877","category":"206","category_name":"高尔夫相关","address":"杨浦区国顺东路318号仲益黄兴体育公园内"},{"poiid":"B2094757D06FA7FB409F","title":"佳龙花园","lon":"121.53535","lat":"31.296806","category":"47","category_name":"住宅区","address":"上海市营口路600弄"},{"poiid":"B2094757D06BA0F44798","title":"八号线 延吉中路站","lon":"121.532200903","lat":"31.2966668709","category":"500","category_name":"未知分类","address":"上海市杨浦区靖宇中路营口路"},{"poiid":"B2094757D06FA0FD459C","title":"控江四村","lon":"121.53195452053","lat":"31.290594187772","category":"47","category_name":"住宅区","address":"上海黄兴路松花江路"},{"poiid":"B2094757D068A3FA489F","title":"控江五村","lon":"121.536","lat":"31.2946","category":"252","category_name":"楼宇机构","address":"上海双阳路靖宇中路口"},{"poiid":"B2094654D56FA5FC429C","title":"黄兴公园(东门)","lon":"121.53286","lat":"31.29486","category":"656","category_name":"大门","address":""},{"poiid":"B2094655D26CA6F94193","title":"延吉五·六村小区","lon":"121.53672","lat":"31.29096","category":"47","category_name":"住宅区","address":""},{"poiid":"B2094655D26AA0FA429A","title":"地铁黄兴公园站","lon":"121.53276","lat":"31.29651","category":"36","category_name":"地铁站","address":""},{"poiid":"B2094655D26DA4FE4499","title":"华夏良子上海旗舰店","lon":"121.53315","lat":"31.29881","category":"149","category_name":"洗浴推拿场所","address":"国顺东路258"},{"poiid":"B2094757D068A3FC469F","title":"意膳舫","lon":"121.53456","lat":"31.29369","category":"75","category_name":"浙江菜","address":"杨浦区营口路578号海尚杰作内(近佳木斯路)"},{"poiid":"B2094751D56BA4FE4399","title":"江南公社","lon":"121.530746","lat":"31.291198","category":"247","category_name":"餐饮美食","address":"杨浦区靖宇中路280号"},{"poiid":"B2094757D66EA5FD449F","title":"仲益黄兴健身游泳瑜伽会所","lon":"121.531677103","lat":"31.2985010093","category":"500","category_name":"未知分类","address":"杨浦区国顺东路318号仲益黄兴体育公园内(近双阳北路)"},{"poiid":"B2094654DB6BA2F4429D","title":"佳泰花园","lon":"121.53121","lat":"31.299124","category":"47","category_name":"住宅区","address":"上海市杨浦区营口路789弄1号(国顺东路口)"},{"poiid":"B2094655D26DA5FE4492","title":"新纪元国际广场","lon":"121.527","lat":"31.2925","category":"46","category_name":"楼宇","address":"上海市杨浦区黄兴路1599号"},{"poiid":"B2094654D56EA4FA459F","title":"怡富商务广场","lon":"121.526","lat":"31.2963","category":"46","category_name":"楼宇","address":"黄兴路1737号"},{"poiid":"B2094757D06FA5F4499E","title":"公园3000","lon":"121.528282","lat":"31.296998","category":"47","category_name":"住宅区","address":"上海杨浦区双阳北路288弄"},{"poiid":"B2094757D069AAFE429F","title":"哈达瑜伽会所(佳木斯路店)","lon":"121.537234491","lat":"31.2958221136","category":"148","category_name":"美容美发店","address":"杨浦区佳木斯路358号2楼(近营口路)"},{"poiid":"B2094757D068A0F9479E","title":"新昌润 长阳店","lon":"121.5345714682","lat":"31.292694241399","category":"247","category_name":"餐饮美食","address":"杨浦区长阳路2467号(近隆昌路)"},{"poiid":"B2094654D56FA6F54892","title":"黄兴公园(西门)","lon":"121.52723","lat":"31.29103","category":"656","category_name":"大门","address":"双阳北路59"},{"poiid":"B2094750DB6CABFE459D","title":"农屋里香","lon":"121.53203","lat":"31.29788","category":"87","category_name":"特色／地方风味餐厅","address":"杨浦区国顺东路318号仲益高尔夫会所内(近黄兴公园)"},{"poiid":"B2094750D768A5F84693","title":"轻松熊主题烘焙","lon":"121.535","lat":"31.2945","category":"112","category_name":"糕饼店","address":"杨浦区营口路578弄海尚杰座1号楼7k(黄兴公园对面)"},{"poiid":"B2094757D069A6F9499D","title":"五角场镇社区卫生服务中心","lon":"121.533872","lat":"31.295202","category":"500","category_name":"未知分类","address":"上海营口路760号"},{"poiid":"B2094757D76EA3FB489C","title":"厨趣 icook","lon":"121.53465","lat":"31.2948","category":"67","category_name":"甜品店","address":"营口路578号海尚杰座1号楼7K座近佳木斯路"},{"poiid":"B2094654DB65A2FF459D","title":"上海理工大学营口校区","lon":"121.53398","lat":"31.28931","category":"52","category_name":"高等院校","address":"杨浦区营口路101"},{"poiid":"B2094750D76EA3F54692","title":"渔乐勝","lon":"121.532","lat":"31.2979","category":"95","category_name":"日本料理","address":"杨浦区国顺东路318号仲益国际高尔夫会所内"},{"poiid":"B2094751D568A5F4479F","title":"东信港大酒店","lon":"121.53445","lat":"31.29461","category":"260","category_name":"其他","address":"杨浦区营口路578号海尚杰作内(近佳木斯路)"},{"poiid":"B2094757D064A3F44493","title":"中和堂茶馆","lon":"121.525752","lat":"31.294305","category":"247","category_name":"餐饮美食","address":"上海国顺东路800号"},{"poiid":"B2094757D16FA4FE4799","title":"聚湘福","lon":"121.53345","lat":"31.29643","category":"77","category_name":"湖南菜","address":"杨浦区营口路776号(近国顺东路)"},{"poiid":"B2094655D36DA0FB459D","title":"营口路佳木斯路","lon":"121.53358","lat":"31.29493","category":"38","category_name":"公交车站","address":""},{"poiid":"B2094757D66EABF8479A","title":"绿地公园广场","lon":"121.534075103","lat":"31.2949059341","category":"196","category_name":"公园","address":"上海顾村公园"},{"poiid":"B2094757D16AA4F44999","title":"营口路佳木斯路站(公交28,522,577,812,813,868)","lon":"121.532926","lat":"31.295918","category":"38","category_name":"公交车站","address":"上海营口路佳木斯路"},{"poiid":"B2094757D069ABFD4193","title":"延吉幼儿园","lon":"121.534091954","lat":"31.2956836147","category":"57","category_name":"幼儿园","address":"杨浦区营口路600弄15号(近佳木斯路)"},{"poiid":"B2094655D26DABF44393","title":"双阳路604弄","lon":"121.535","lat":"31.2929","category":"47","category_name":"住宅区","address":"双阳路604弄"},{"poiid":"B2094655D26BA6FC4093","title":"佳龙大厦","lon":"121.53432","lat":"31.29468","category":"46","category_name":"楼宇","address":"营口路578号"},{"poiid":"B2094757DA69A2FE4498","title":"无限diy烘焙教室","lon":"121.53491253967","lat":"31.294583673563","category":"95","category_name":"日本料理","address":"杨浦区营口路578号海尚杰座1号楼7A座(近黄兴公园)"},{"poiid":"B2094655D265A6F8419E","title":"新昌润量贩式KTV","lon":"121.5342","lat":"31.293","category":"170","category_name":"KTV","address":"营口路617号新昌润大酒店"},{"poiid":"B2094757D168A3F9469B","title":"上海医疗器械高等专科学校图书馆","lon":"121.534163","lat":"31.294674","category":"181","category_name":"图书馆","address":"上海营口路101号"},{"poiid":"B2094654DB65A2F84499","title":"上海医疗器械高等专科学校","lon":"121.53363","lat":"31.28903","category":"671","category_name":"高校中心点","address":"营口路101"},{"poiid":"B2094757D16EAAFE4292","title":"无限DIY蛋糕饼干烘培教室","lon":"121.535574103","lat":"31.2944129238","category":"500","category_name":"未知分类","address":"上海营口路578号海尚杰座1号楼7A座(近黄兴公园)"},{"poiid":"B2094757D169A7FA4899","title":"中国石化加油站黄兴公园门市","lon":"121.533283","lat":"31.296237","category":"196","category_name":"公园","address":"上海营口路770号"},{"poiid":"B2094757D165A3FC449D","title":"修身堂健康美体服务中心(营口路店)","lon":"121.53295","lat":"31.29698","category":"148","category_name":"美容美发店","address":"杨浦区营口路790号(近黄兴公园)"},{"poiid":"B2094655D26CA6F8409A","title":"好辰光量贩式KTV","lon":"121.53421","lat":"31.29299","category":"170","category_name":"KTV","address":"杨浦区营口路617号上新昌润大酒店5楼(近佳木斯路)"},{"poiid":"B2094655D26CA5FB439F","title":"白玉兰环保广场二期","lon":"121.5353","lat":"31.29359","category":"46","category_name":"楼宇","address":"佳木斯路353号"},{"poiid":"B2094655D26AA3FF4292","title":"毅敏游泳馆","lon":"121.53465","lat":"31.2948","category":"247","category_name":"餐饮美食","address":"杨浦区营口路588号海尚杰座2楼(近佳木斯路)"},{"poiid":"B2094757D06BAAFD469F","title":"凯华嘉禾沐浴","lon":"121.53291","lat":"31.2972","category":"149","category_name":"洗浴推拿场所","address":"上海杨浦区营口路788号(近国顺东路)  "},{"poiid":"B2094654D56FA6F5489D","title":"黄兴公园","lon":"121.5297","lat":"31.29323","category":"196","category_name":"公园","address":"杨浦区国顺东路369号(近双阳北路)"},{"poiid":"B2094750D36BA6F4479C","title":"上海小南国花园酒店","lon":"121.53347820226","lat":"31.292932530138","category":"217","category_name":"旅馆招待所","address":"杨浦区佳木斯路777号小南国花园酒店5楼(近营口路)"},{"poiid":"B2094757D06FA7FE4793","title":"薇拉宫邸私人婚礼会所(杨浦店)","lon":"121.53268","lat":"31.29639","category":"500","category_name":"未知分类","address":"杨浦区营口路699号(近双阳北路)查看地图"},{"poiid":"B2094757D068A0F54192","title":"上理工医疗器械专科学校","lon":"121.53425","lat":"31.28904","category":"52","category_name":"高等院校","address":"杨浦区营口路101号(近靖宇东路)"},{"poiid":"B2094757DA64AAF54799","title":"五角场","lon":"121.531717","lat":"31.296098","category":"500","category_name":"未知分类","address":"万达广场"},{"poiid":"B2094757D16DA3F5439E","title":"UpGolf仲益黄兴高尔夫教学中心","lon":"121.526417103","lat":"31.2974709877","category":"206","category_name":"高尔夫相关","address":"杨浦区国顺东路318号仲益黄兴体育公园内"},{"poiid":"B2094757D06FA7FB409F","title":"佳龙花园","lon":"121.53535","lat":"31.296806","category":"47","category_name":"住宅区","address":"上海市营口路600弄"},{"poiid":"B2094757D06BA0F44798","title":"八号线 延吉中路站","lon":"121.532200903","lat":"31.2966668709","category":"500","category_name":"未知分类","address":"上海市杨浦区靖宇中路营口路"},{"poiid":"B2094757D06FA0FD459C","title":"控江四村","lon":"121.53195452053","lat":"31.290594187772","category":"47","category_name":"住宅区","address":"上海黄兴路松花江路"},{"poiid":"B2094757D068A3FA489F","title":"控江五村","lon":"121.536","lat":"31.2946","category":"252","category_name":"楼宇机构","address":"上海双阳路靖宇中路口"},{"poiid":"B2094654D56FA5FC429C","title":"黄兴公园(东门)","lon":"121.53286","lat":"31.29486","category":"656","category_name":"大门","address":""},{"poiid":"B2094655D26CA6F94193","title":"延吉五·六村小区","lon":"121.53672","lat":"31.29096","category":"47","category_name":"住宅区","address":""},{"poiid":"B2094655D26AA0FA429A","title":"地铁黄兴公园站","lon":"121.53276","lat":"31.29651","category":"36","category_name":"地铁站","address":""},{"poiid":"B2094655D26DA4FE4499","title":"华夏良子上海旗舰店","lon":"121.53315","lat":"31.29881","category":"149","category_name":"洗浴推拿场所","address":"国顺东路258"},{"poiid":"B2094757D068A3FC469F","title":"意膳舫","lon":"121.53456","lat":"31.29369","category":"75","category_name":"浙江菜","address":"杨浦区营口路578号海尚杰作内(近佳木斯路)"},{"poiid":"B2094751D56BA4FE4399","title":"江南公社","lon":"121.530746","lat":"31.291198","category":"247","category_name":"餐饮美食","address":"杨浦区靖宇中路280号"},{"poiid":"B2094757D66EA5FD449F","title":"仲益黄兴健身游泳瑜伽会所","lon":"121.531677103","lat":"31.2985010093","category":"500","category_name":"未知分类","address":"杨浦区国顺东路318号仲益黄兴体育公园内(近双阳北路)"},{"poiid":"B2094654DB6BA2F4429D","title":"佳泰花园","lon":"121.53121","lat":"31.299124","category":"47","category_name":"住宅区","address":"上海市杨浦区营口路789弄1号(国顺东路口)"},{"poiid":"B2094655D26DA5FE4492","title":"新纪元国际广场","lon":"121.527","lat":"31.2925","category":"46","category_name":"楼宇","address":"上海市杨浦区黄兴路1599号"},{"poiid":"B2094654D56EA4FA459F","title":"怡富商务广场","lon":"121.526","lat":"31.2963","category":"46","category_name":"楼宇","address":"黄兴路1737号"},{"poiid":"B2094757D06FA5F4499E","title":"公园3000","lon":"121.528282","lat":"31.296998","category":"47","category_name":"住宅区","address":"上海杨浦区双阳北路288弄"},{"poiid":"B2094757D069AAFE429F","title":"哈达瑜伽会所(佳木斯路店)","lon":"121.537234491","lat":"31.2958221136","category":"148","category_name":"美容美发店","address":"杨浦区佳木斯路358号2楼(近营口路)"},{"poiid":"B2094757D068A0F9479E","title":"新昌润 长阳店","lon":"121.5345714682","lat":"31.292694241399","category":"247","category_name":"餐饮美食","address":"杨浦区长阳路2467号(近隆昌路)"},{"poiid":"B2094654D56FA6F54892","title":"黄兴公园(西门)","lon":"121.52723","lat":"31.29103","category":"656","category_name":"大门","address":"双阳北路59"},{"poiid":"B2094750DB6CABFE459D","title":"农屋里香","lon":"121.53203","lat":"31.29788","category":"87","category_name":"特色／地方风味餐厅","address":"杨浦区国顺东路318号仲益高尔夫会所内(近黄兴公园)"},{"poiid":"B2094750D768A5F84693","title":"轻松熊主题烘焙","lon":"121.535","lat":"31.2945","category":"112","category_name":"糕饼店","address":"杨浦区营口路578弄海尚杰座1号楼7k(黄兴公园对面)"},{"poiid":"B2094757D069A6F9499D","title":"五角场镇社区卫生服务中心","lon":"121.533872","lat":"31.295202","category":"500","category_name":"未知分类","address":"上海营口路760号"},{"poiid":"B2094757D76EA3FB489C","title":"厨趣 icook","lon":"121.53465","lat":"31.2948","category":"67","category_name":"甜品店","address":"营口路578号海尚杰座1号楼7K座近佳木斯路"},{"poiid":"B2094654DB65A2FF459D","title":"上海理工大学营口校区","lon":"121.53398","lat":"31.28931","category":"52","category_name":"高等院校","address":"杨浦区营口路101"},{"poiid":"B2094750D76EA3F54692","title":"渔乐勝","lon":"121.532","lat":"31.2979","category":"95","category_name":"日本料理","address":"杨浦区国顺东路318号仲益国际高尔夫会所内"},{"poiid":"B2094751D568A5F4479F","title":"东信港大酒店","lon":"121.53445","lat":"31.29461","category":"260","category_name":"其他","address":"杨浦区营口路578号海尚杰作内(近佳木斯路)"},{"poiid":"B2094757D064A3F44493","title":"中和堂茶馆","lon":"121.525752","lat":"31.294305","category":"247","category_name":"餐饮美食","address":"上海国顺东路800号"},{"poiid":"B2094757D16FA4FE4799","title":"聚湘福","lon":"121.53345","lat":"31.29643","category":"77","category_name":"湖南菜","address":"杨浦区营口路776号(近国顺东路)"},{"poiid":"B2094655D36DA0FB459D","title":"营口路佳木斯路","lon":"121.53358","lat":"31.29493","category":"38","category_name":"公交车站","address":""},{"poiid":"B2094757D66EABF8479A","title":"绿地公园广场","lon":"121.534075103","lat":"31.2949059341","category":"196","category_name":"公园","address":"上海顾村公园"},{"poiid":"B2094757D16AA4F44999","title":"营口路佳木斯路站(公交28,522,577,812,813,868)","lon":"121.532926","lat":"31.295918","category":"38","category_name":"公交车站","address":"上海营口路佳木斯路"},{"poiid":"B2094757D069ABFD4193","title":"延吉幼儿园","lon":"121.534091954","lat":"31.2956836147","category":"57","category_name":"幼儿园","address":"杨浦区营口路600弄15号(近佳木斯路)"},{"poiid":"B2094655D26DABF44393","title":"双阳路604弄","lon":"121.535","lat":"31.2929","category":"47","category_name":"住宅区","address":"双阳路604弄"},{"poiid":"B2094655D26BA6FC4093","title":"佳龙大厦","lon":"121.53432","lat":"31.29468","category":"46","category_name":"楼宇","address":"营口路578号"},{"poiid":"B2094757DA69A2FE4498","title":"无限diy烘焙教室","lon":"121.53491253967","lat":"31.294583673563","category":"95","category_name":"日本料理","address":"杨浦区营口路578号海尚杰座1号楼7A座(近黄兴公园)"},{"poiid":"B2094655D265A6F8419E","title":"新昌润量贩式KTV","lon":"121.5342","lat":"31.293","category":"170","category_name":"KTV","address":"营口路617号新昌润大酒店"},{"poiid":"B2094757D168A3F9469B","title":"上海医疗器械高等专科学校图书馆","lon":"121.534163","lat":"31.294674","category":"181","category_name":"图书馆","address":"上海营口路101号"},{"poiid":"B2094654DB65A2F84499","title":"上海医疗器械高等专科学校","lon":"121.53363","lat":"31.28903","category":"671","category_name":"高校中心点","address":"营口路101"},{"poiid":"B2094757D16EAAFE4292","title":"无限DIY蛋糕饼干烘培教室","lon":"121.535574103","lat":"31.2944129238","category":"500","category_name":"未知分类","address":"上海营口路578号海尚杰座1号楼7A座(近黄兴公园)"},{"poiid":"B2094757D169A7FA4899","title":"中国石化加油站黄兴公园门市","lon":"121.533283","lat":"31.296237","category":"196","category_name":"公园","address":"上海营口路770号"},{"poiid":"B2094757D165A3FC449D","title":"修身堂健康美体服务中心(营口路店)","lon":"121.53295","lat":"31.29698","category":"148","category_name":"美容美发店","address":"杨浦区营口路790号(近黄兴公园)"},{"poiid":"B2094655D26CA6F8409A","title":"好辰光量贩式KTV","lon":"121.53421","lat":"31.29299","category":"170","category_name":"KTV","address":"杨浦区营口路617号上新昌润大酒店5楼(近佳木斯路)"},{"poiid":"B2094655D26CA5FB439F","title":"白玉兰环保广场二期","lon":"121.5353","lat":"31.29359","category":"46","category_name":"楼宇","address":"佳木斯路353号"},{"poiid":"B2094655D26AA3FF4292","title":"毅敏游泳馆","lon":"121.53465","lat":"31.2948","category":"247","category_name":"餐饮美食","address":"杨浦区营口路588号海尚杰座2楼(近佳木斯路)"},{"poiid":"B2094757D06BAAFD469F","title":"凯华嘉禾沐浴","lon":"121.53291","lat":"31.2972","category":"149","category_name":"洗浴推拿场所","address":"上海杨浦区营口路788号(近国顺东路)  "},{"poiid":"B2094654D56FA6F5489D","title":"黄兴公园","lon":"121.5297","lat":"31.29323","category":"196","category_name":"公园","address":"杨浦区国顺东路369号(近双阳北路)"},{"poiid":"B2094750D36BA6F4479C","title":"上海小南国花园酒店","lon":"121.53347820226","lat":"31.292932530138","category":"217","category_name":"旅馆招待所","address":"杨浦区佳木斯路777号小南国花园酒店5楼(近营口路)"},{"poiid":"B2094757D06FA7FE4793","title":"薇拉宫邸私人婚礼会所(杨浦店)","lon":"121.53268","lat":"31.29639","category":"500","category_name":"未知分类","address":"杨浦区营口路699号(近双阳北路)查看地图"},{"poiid":"B2094757D068A0F54192","title":"上理工医疗器械专科学校","lon":"121.53425","lat":"31.28904","category":"52","category_name":"高等院校","address":"杨浦区营口路101号(近靖宇东路)"},{"poiid":"B2094757DA64AAF54799","title":"五角场","lon":"121.531717","lat":"31.296098","category":"500","category_name":"未知分类","address":"万达广场"},{"poiid":"B2094757D16DA3F5439E","title":"UpGolf仲益黄兴高尔夫教学中心","lon":"121.526417103","lat":"31.2974709877","category":"206","category_name":"高尔夫相关","address":"杨浦区国顺东路318号仲益黄兴体育公园内"},{"poiid":"B2094757D06FA7FB409F","title":"佳龙花园","lon":"121.53535","lat":"31.296806","category":"47","category_name":"住宅区","address":"上海市营口路600弄"},{"poiid":"B2094757D06BA0F44798","title":"八号线 延吉中路站","lon":"121.532200903","lat":"31.2966668709","category":"500","category_name":"未知分类","address":"上海市杨浦区靖宇中路营口路"},{"poiid":"B2094757D06FA0FD459C","title":"控江四村","lon":"121.53195452053","lat":"31.290594187772","category":"47","category_name":"住宅区","address":"上海黄兴路松花江路"},{"poiid":"B2094757D068A3FA489F","title":"控江五村","lon":"121.536","lat":"31.2946","category":"252","category_name":"楼宇机构","address":"上海双阳路靖宇中路口"},{"poiid":"B2094654D56FA5FC429C","title":"黄兴公园(东门)","lon":"121.53286","lat":"31.29486","category":"656","category_name":"大门","address":""},{"poiid":"B2094655D26CA6F94193","title":"延吉五·六村小区","lon":"121.53672","lat":"31.29096","category":"47","category_name":"住宅区","address":""},{"poiid":"B2094655D26AA0FA429A","title":"地铁黄兴公园站","lon":"121.53276","lat":"31.29651","category":"36","category_name":"地铁站","address":""},{"poiid":"B2094655D26DA4FE4499","title":"华夏良子上海旗舰店","lon":"121.53315","lat":"31.29881","category":"149","category_name":"洗浴推拿场所","address":"国顺东路258"},{"poiid":"B2094757D068A3FC469F","title":"意膳舫","lon":"121.53456","lat":"31.29369","category":"75","category_name":"浙江菜","address":"杨浦区营口路578号海尚杰作内(近佳木斯路)"},{"poiid":"B2094751D56BA4FE4399","title":"江南公社","lon":"121.530746","lat":"31.291198","category":"247","category_name":"餐饮美食","address":"杨浦区靖宇中路280号"},{"poiid":"B2094757D66EA5FD449F","title":"仲益黄兴健身游泳瑜伽会所","lon":"121.531677103","lat":"31.2985010093","category":"500","category_name":"未知分类","address":"杨浦区国顺东路318号仲益黄兴体育公园内(近双阳北路)"},{"poiid":"B2094654DB6BA2F4429D","title":"佳泰花园","lon":"121.53121","lat":"31.299124","category":"47","category_name":"住宅区","address":"上海市杨浦区营口路789弄1号(国顺东路口)"},{"poiid":"B2094655D26DA5FE4492","title":"新纪元国际广场","lon":"121.527","lat":"31.2925","category":"46","category_name":"楼宇","address":"上海市杨浦区黄兴路1599号"},{"poiid":"B2094654D56EA4FA459F","title":"怡富商务广场","lon":"121.526","lat":"31.2963","category":"46","category_name":"楼宇","address":"黄兴路1737号"},{"poiid":"B2094757D06FA5F4499E","title":"公园3000","lon":"121.528282","lat":"31.296998","category":"47","category_name":"住宅区","address":"上海杨浦区双阳北路288弄"},{"poiid":"B2094757D069AAFE429F","title":"哈达瑜伽会所(佳木斯路店)","lon":"121.537234491","lat":"31.2958221136","category":"148","category_name":"美容美发店","address":"杨浦区佳木斯路358号2楼(近营口路)"},{"poiid":"B2094757D068A0F9479E","title":"新昌润 长阳店","lon":"121.5345714682","lat":"31.292694241399","category":"247","category_name":"餐饮美食","address":"杨浦区长阳路2467号(近隆昌路)"},{"poiid":"B2094654D56FA6F54892","title":"黄兴公园(西门)","lon":"121.52723","lat":"31.29103","category":"656","category_name":"大门","address":"双阳北路59"},{"poiid":"B2094750DB6CABFE459D","title":"农屋里香","lon":"121.53203","lat":"31.29788","category":"87","category_name":"特色／地方风味餐厅","address":"杨浦区国顺东路318号仲益高尔夫会所内(近黄兴公园)"},{"poiid":"B2094750D768A5F84693","title":"轻松熊主题烘焙","lon":"121.535","lat":"31.2945","category":"112","category_name":"糕饼店","address":"杨浦区营口路578弄海尚杰座1号楼7k(黄兴公园对面)"},{"poiid":"B2094757D069A6F9499D","title":"五角场镇社区卫生服务中心","lon":"121.533872","lat":"31.295202","category":"500","category_name":"未知分类","address":"上海营口路760号"},{"poiid":"B2094757D76EA3FB489C","title":"厨趣 icook","lon":"121.53465","lat":"31.2948","category":"67","category_name":"甜品店","address":"营口路578号海尚杰座1号楼7K座近佳木斯路"},{"poiid":"B2094654DB65A2FF459D","title":"上海理工大学营口校区","lon":"121.53398","lat":"31.28931","category":"52","category_name":"高等院校","address":"杨浦区营口路101"},{"poiid":"B2094750D76EA3F54692","title":"渔乐勝","lon":"121.532","lat":"31.2979","category":"95","category_name":"日本料理","address":"杨浦区国顺东路318号仲益国际高尔夫会所内"},{"poiid":"B2094751D568A5F4479F","title":"东信港大酒店","lon":"121.53445","lat":"31.29461","category":"260","category_name":"其他","address":"杨浦区营口路578号海尚杰作内(近佳木斯路)"},{"poiid":"B2094757D064A3F44493","title":"中和堂茶馆","lon":"121.525752","lat":"31.294305","category":"247","category_name":"餐饮美食","address":"上海国顺东路800号"},{"poiid":"B2094757D16FA4FE4799","title":"聚湘福","lon":"121.53345","lat":"31.29643","category":"77","category_name":"湖南菜","address":"杨浦区营口路776号(近国顺东路)"},{"poiid":"B2094655D36DA0FB459D","title":"营口路佳木斯路","lon":"121.53358","lat":"31.29493","category":"38","category_name":"公交车站","address":""},{"poiid":"B2094757D66EABF8479A","title":"绿地公园广场","lon":"121.534075103","lat":"31.2949059341","category":"196","category_name":"公园","address":"上海顾村公园"},{"poiid":"B2094757D16AA4F44999","title":"营口路佳木斯路站(公交28,522,577,812,813,868)","lon":"121.532926","lat":"31.295918","category":"38","category_name":"公交车站","address":"上海营口路佳木斯路"},{"poiid":"B2094757D069ABFD4193","title":"延吉幼儿园","lon":"121.534091954","lat":"31.2956836147","category":"57","category_name":"幼儿园","address":"杨浦区营口路600弄15号(近佳木斯路)"},{"poiid":"B2094655D26DABF44393","title":"双阳路604弄","lon":"121.535","lat":"31.2929","category":"47","category_name":"住宅区","address":"双阳路604弄"},{"poiid":"B2094655D26BA6FC4093","title":"佳龙大厦","lon":"121.53432","lat":"31.29468","category":"46","category_name":"楼宇","address":"营口路578号"},{"poiid":"B2094757DA69A2FE4498","title":"无限diy烘焙教室","lon":"121.53491253967","lat":"31.294583673563","category":"95","category_name":"日本料理","address":"杨浦区营口路578号海尚杰座1号楼7A座(近黄兴公园)"},{"poiid":"B2094655D265A6F8419E","title":"新昌润量贩式KTV","lon":"121.5342","lat":"31.293","category":"170","category_name":"KTV","address":"营口路617号新昌润大酒店"},{"poiid":"B2094757D168A3F9469B","title":"上海医疗器械高等专科学校图书馆","lon":"121.534163","lat":"31.294674","category":"181","category_name":"图书馆","address":"上海营口路101号"},{"poiid":"B2094654DB65A2F84499","title":"上海医疗器械高等专科学校","lon":"121.53363","lat":"31.28903","category":"671","category_name":"高校中心点","address":"营口路101"},{"poiid":"B2094757D16EAAFE4292","title":"无限DIY蛋糕饼干烘培教室","lon":"121.535574103","lat":"31.2944129238","category":"500","category_name":"未知分类","address":"上海营口路578号海尚杰座1号楼7A座(近黄兴公园)"},{"poiid":"B2094757D169A7FA4899","title":"中国石化加油站黄兴公园门市","lon":"121.533283","lat":"31.296237","category":"196","category_name":"公园","address":"上海营口路770号"},{"poiid":"B2094757D165A3FC449D","title":"修身堂健康美体服务中心(营口路店)","lon":"121.53295","lat":"31.29698","category":"148","category_name":"美容美发店","address":"杨浦区营口路790号(近黄兴公园)"},{"poiid":"B2094655D26CA6F8409A","title":"好辰光量贩式KTV","lon":"121.53421","lat":"31.29299","category":"170","category_name":"KTV","address":"杨浦区营口路617号上新昌润大酒店5楼(近佳木斯路)"},{"poiid":"B2094655D26CA5FB439F","title":"白玉兰环保广场二期","lon":"121.5353","lat":"31.29359","category":"46","category_name":"楼宇","address":"佳木斯路353号"},{"poiid":"B2094655D26AA3FF4292","title":"毅敏游泳馆","lon":"121.53465","lat":"31.2948","category":"247","category_name":"餐饮美食","address":"杨浦区营口路588号海尚杰座2楼(近佳木斯路)"},{"poiid":"B2094757D06BAAFD469F","title":"凯华嘉禾沐浴","lon":"121.53291","lat":"31.2972","category":"149","category_name":"洗浴推拿场所","address":"上海杨浦区营口路788号(近国顺东路)  "},{"poiid":"B2094654D56FA6F5489D","title":"黄兴公园","lon":"121.5297","lat":"31.29323","category":"196","category_name":"公园","address":"杨浦区国顺东路369号(近双阳北路)"},{"poiid":"B2094750D36BA6F4479C","title":"上海小南国花园酒店","lon":"121.53347820226","lat":"31.292932530138","category":"217","category_name":"旅馆招待所","address":"杨浦区佳木斯路777号小南国花园酒店5楼(近营口路)"},{"poiid":"B2094757D06FA7FE4793","title":"薇拉宫邸私人婚礼会所(杨浦店)","lon":"121.53268","lat":"31.29639","category":"500","category_name":"未知分类","address":"杨浦区营口路699号(近双阳北路)查看地图"},{"poiid":"B2094757D068A0F54192","title":"上理工医疗器械专科学校","lon":"121.53425","lat":"31.28904","category":"52","category_name":"高等院校","address":"杨浦区营口路101号(近靖宇东路)"},{"poiid":"B2094757DA64AAF54799","title":"五角场","lon":"121.531717","lat":"31.296098","category":"500","category_name":"未知分类","address":"万达广场"},{"poiid":"B2094757D16DA3F5439E","title":"UpGolf仲益黄兴高尔夫教学中心","lon":"121.526417103","lat":"31.2974709877","category":"206","category_name":"高尔夫相关","address":"杨浦区国顺东路318号仲益黄兴体育公园内"},{"poiid":"B2094757D06FA7FB409F","title":"佳龙花园","lon":"121.53535","lat":"31.296806","category":"47","category_name":"住宅区","address":"上海市营口路600弄"},{"poiid":"B2094757D06BA0F44798","title":"八号线 延吉中路站","lon":"121.532200903","lat":"31.2966668709","category":"500","category_name":"未知分类","address":"上海市杨浦区靖宇中路营口路"},{"poiid":"B2094757D06FA0FD459C","title":"控江四村","lon":"121.53195452053","lat":"31.290594187772","category":"47","category_name":"住宅区","address":"上海黄兴路松花江路"},{"poiid":"B2094757D068A3FA489F","title":"控江五村","lon":"121.536","lat":"31.2946","category":"252","category_name":"楼宇机构","address":"上海双阳路靖宇中路口"},{"poiid":"B2094654D56FA5FC429C","title":"黄兴公园(东门)","lon":"121.53286","lat":"31.29486","category":"656","category_name":"大门","address":""},{"poiid":"B2094655D26CA6F94193","title":"延吉五·六村小区","lon":"121.53672","lat":"31.29096","category":"47","category_name":"住宅区","address":""},{"poiid":"B2094655D26AA0FA429A","title":"地铁黄兴公园站","lon":"121.53276","lat":"31.29651","category":"36","category_name":"地铁站","address":""},{"poiid":"B2094655D26DA4FE4499","title":"华夏良子上海旗舰店","lon":"121.53315","lat":"31.29881","category":"149","category_name":"洗浴推拿场所","address":"国顺东路258"},{"poiid":"B2094757D068A3FC469F","title":"意膳舫","lon":"121.53456","lat":"31.29369","category":"75","category_name":"浙江菜","address":"杨浦区营口路578号海尚杰作内(近佳木斯路)"},{"poiid":"B2094751D56BA4FE4399","title":"江南公社","lon":"121.530746","lat":"31.291198","category":"247","category_name":"餐饮美食","address":"杨浦区靖宇中路280号"},{"poiid":"B2094757D66EA5FD449F","title":"仲益黄兴健身游泳瑜伽会所","lon":"121.531677103","lat":"31.2985010093","category":"500","category_name":"未知分类","address":"杨浦区国顺东路318号仲益黄兴体育公园内(近双阳北路)"},{"poiid":"B2094654DB6BA2F4429D","title":"佳泰花园","lon":"121.53121","lat":"31.299124","category":"47","category_name":"住宅区","address":"上海市杨浦区营口路789弄1号(国顺东路口)"},{"poiid":"B2094655D26DA5FE4492","title":"新纪元国际广场","lon":"121.527","lat":"31.2925","category":"46","category_name":"楼宇","address":"上海市杨浦区黄兴路1599号"},{"poiid":"B2094654D56EA4FA459F","title":"怡富商务广场","lon":"121.526","lat":"31.2963","category":"46","category_name":"楼宇","address":"黄兴路1737号"},{"poiid":"B2094757D06FA5F4499E","title":"公园3000","lon":"121.528282","lat":"31.296998","category":"47","category_name":"住宅区","address":"上海杨浦区双阳北路288弄"},{"poiid":"B2094757D069AAFE429F","title":"哈达瑜伽会所(佳木斯路店)","lon":"121.537234491","lat":"31.2958221136","category":"148","category_name":"美容美发店","address":"杨浦区佳木斯路358号2楼(近营口路)"},{"poiid":"B2094757D068A0F9479E","title":"新昌润 长阳店","lon":"121.5345714682","lat":"31.292694241399","category":"247","category_name":"餐饮美食","address":"杨浦区长阳路2467号(近隆昌路)"},{"poiid":"B2094654D56FA6F54892","title":"黄兴公园(西门)","lon":"121.52723","lat":"31.29103","category":"656","category_name":"大门","address":"双阳北路59"},{"poiid":"B2094750DB6CABFE459D","title":"农屋里香","lon":"121.53203","lat":"31.29788","category":"87","category_name":"特色／地方风味餐厅","address":"杨浦区国顺东路318号仲益高尔夫会所内(近黄兴公园)"},{"poiid":"B2094750D768A5F84693","title":"轻松熊主题烘焙","lon":"121.535","lat":"31.2945","category":"112","category_name":"糕饼店","address":"杨浦区营口路578弄海尚杰座1号楼7k(黄兴公园对面)"},{"poiid":"B2094757D069A6F9499D","title":"五角场镇社区卫生服务中心","lon":"121.533872","lat":"31.295202","category":"500","category_name":"未知分类","address":"上海营口路760号"},{"poiid":"B2094757D76EA3FB489C","title":"厨趣 icook","lon":"121.53465","lat":"31.2948","category":"67","category_name":"甜品店","address":"营口路578号海尚杰座1号楼7K座近佳木斯路"},{"poiid":"B2094654DB65A2FF459D","title":"上海理工大学营口校区","lon":"121.53398","lat":"31.28931","category":"52","category_name":"高等院校","address":"杨浦区营口路101"},{"poiid":"B2094750D76EA3F54692","title":"渔乐勝","lon":"121.532","lat":"31.2979","category":"95","category_name":"日本料理","address":"杨浦区国顺东路318号仲益国际高尔夫会所内"},{"poiid":"B2094751D568A5F4479F","title":"东信港大酒店","lon":"121.53445","lat":"31.29461","category":"260","category_name":"其他","address":"杨浦区营口路578号海尚杰作内(近佳木斯路)"},{"poiid":"B2094757D064A3F44493","title":"中和堂茶馆","lon":"121.525752","lat":"31.294305","category":"247","category_name":"餐饮美食","address":"上海国顺东路800号"},{"poiid":"B2094757D16FA4FE4799","title":"聚湘福","lon":"121.53345","lat":"31.29643","category":"77","category_name":"湖南菜","address":"杨浦区营口路776号(近国顺东路)"},{"poiid":"B2094655D36DA0FB459D","title":"营口路佳木斯路","lon":"121.53358","lat":"31.29493","category":"38","category_name":"公交车站","address":""},{"poiid":"B2094757D66EABF8479A","title":"绿地公园广场","lon":"121.534075103","lat":"31.2949059341","category":"196","category_name":"公园","address":"上海顾村公园"},{"poiid":"B2094757D16AA4F44999","title":"营口路佳木斯路站(公交28,522,577,812,813,868)","lon":"121.532926","lat":"31.295918","category":"38","category_name":"公交车站","address":"上海营口路佳木斯路"},{"poiid":"B2094757D069ABFD4193","title":"延吉幼儿园","lon":"121.534091954","lat":"31.2956836147","category":"57","category_name":"幼儿园","address":"杨浦区营口路600弄15号(近佳木斯路)"},{"poiid":"B2094655D26DABF44393","title":"双阳路604弄","lon":"121.535","lat":"31.2929","category":"47","category_name":"住宅区","address":"双阳路604弄"},{"poiid":"B2094655D26BA6FC4093","title":"佳龙大厦","lon":"121.53432","lat":"31.29468","category":"46","category_name":"楼宇","address":"营口路578号"},{"poiid":"B2094757DA69A2FE4498","title":"无限diy烘焙教室","lon":"121.53491253967","lat":"31.294583673563","category":"95","category_name":"日本料理","address":"杨浦区营口路578号海尚杰座1号楼7A座(近黄兴公园)"},{"poiid":"B2094655D265A6F8419E","title":"新昌润量贩式KTV","lon":"121.5342","lat":"31.293","category":"170","category_name":"KTV","address":"营口路617号新昌润大酒店"},{"poiid":"B2094757D168A3F9469B","title":"上海医疗器械高等专科学校图书馆","lon":"121.534163","lat":"31.294674","category":"181","category_name":"图书馆","address":"上海营口路101号"},{"poiid":"B2094654DB65A2F84499","title":"上海医疗器械高等专科学校","lon":"121.53363","lat":"31.28903","category":"671","category_name":"高校中心点","address":"营口路101"},{"poiid":"B2094757D16EAAFE4292","title":"无限DIY蛋糕饼干烘培教室","lon":"121.535574103","lat":"31.2944129238","category":"500","category_name":"未知分类","address":"上海营口路578号海尚杰座1号楼7A座(近黄兴公园)"},{"poiid":"B2094757D169A7FA4899","title":"中国石化加油站黄兴公园门市","lon":"121.533283","lat":"31.296237","category":"196","category_name":"公园","address":"上海营口路770号"},{"poiid":"B2094757D165A3FC449D","title":"修身堂健康美体服务中心(营口路店)","lon":"121.53295","lat":"31.29698","category":"148","category_name":"美容美发店","address":"杨浦区营口路790号(近黄兴公园)"},{"poiid":"B2094655D26CA6F8409A","title":"好辰光量贩式KTV","lon":"121.53421","lat":"31.29299","category":"170","category_name":"KTV","address":"杨浦区营口路617号上新昌润大酒店5楼(近佳木斯路)"},{"poiid":"B2094655D26CA5FB439F","title":"白玉兰环保广场二期","lon":"121.5353","lat":"31.29359","category":"46","category_name":"楼宇","address":"佳木斯路353号"},{"poiid":"B2094655D26AA3FF4292","title":"毅敏游泳馆","lon":"121.53465","lat":"31.2948","category":"247","category_name":"餐饮美食","address":"杨浦区营口路588号海尚杰座2楼(近佳木斯路)"},{"poiid":"B2094757D06BAAFD469F","title":"凯华嘉禾沐浴","lon":"121.53291","lat":"31.2972","category":"149","category_name":"洗浴推拿场所","address":"上海杨浦区营口路788号(近国顺东路)  "}]