[{"poiid":"B2094757D068A6FB4792","title":"东方体育中心","lon":"121.48487573","lat":"31.151827631","category":"224","category_name":"综合体育馆","address":"浦东新区耀体路701号(近世博园区)"},{"poiid":"B2094757D06FA0F5489C","title":"东方体育中心体育馆","lon":"121.48134347","lat":"31.156468556","category":"220","category_name":"运动场所","address":"上海浦东新区泳耀路东育路"},{"poiid":"B2094757D164AAFB479F","title":"东方体育中心海上皇冠","lon":"121.479249738","lat":"31.156806737","category":"500","category_name":"未知分类","address":"上海8号线东方体育中心"},{"poiid":"B2094757D06EAAF94793","title":"东方体育中心地铁站(原济阳路站)","lon":"121.48039507","lat":"31.153498489","category":"36","category_name":"地铁站","address":"上海轨道交通 六号线 八号线 轨交东方体育中心站 济阳路 6 8"},{"poiid":"B2094757D468ABFD409A","title":"海澜湾渔港","lon":"121.4917051","lat":"31.1528042","category":"260","category_name":"其他","address":"浦东新区长清路1200弄森宏购物广场内(高青路囗)"},{"poiid":"B2094757D069A5FE4292","title":"恒大华城","lon":"121.48864865","lat":"31.161270376","category":"500","category_name":"未知分类","address":"上海浦东新区杨新路282弄"},{"poiid":"B2094757D06FAAFB479E","title":"东方体育中心室外跳水池(月亮湾)","lon":"121.47687046","lat":"31.155626569","category":"220","category_name":"运动场所","address":"上海浦东新区泳耀路50号东方体育中心内"},{"poiid":"B2094757D06FA3FA489C","title":"上浦路济阳路","lon":"121.48954772","lat":"31.144712448","category":"260","category_name":"其他","address":"上海浦东新区上浦路济阳路口"},{"poiid":"B2094654DB64A2F8479B","title":"天地苑","lon":"121.48456","lat":"31.16023","category":"47","category_name":"住宅区","address":"西营南路17弄1-69号"},{"poiid":"B2094655D26BA6FD4992","title":"森宏购物广场","lon":"121.49189","lat":"31.14956","category":"119","category_name":"商场","address":"浦东新区长青路1200号(近华夏西路)"},{"poiid":"B2094757D068A6FC489D","title":"康师傅私房牛肉面(杨南店)","lon":"121.49176","lat":"31.1531","category":"247","category_name":"餐饮美食","address":"上海浦东新区长清路1200号大润发1楼(近杨南路)  "},{"poiid":"B2094757D069A1F5449D","title":"卢浦大桥引桥","lon":"121.47853247","lat":"31.151149276","category":"500","category_name":"未知分类","address":"上海耀华路"},{"poiid":"B2094654DB6CA0F8469E","title":"南杨小区(杨思路)","lon":"121.49148","lat":"31.15876","category":"47","category_name":"住宅区","address":"长清路643弄1-42号,693弄1-54号"},{"poiid":"B2094757D068AAFC409C","title":"东方体育大厦","lon":"121.478506075","lat":"31.1553712705","category":"46","category_name":"楼宇","address":"上海市泳耀路300号(近耀龙路)"},{"poiid":"B2094757D06BA4FD499E","title":"京世造型","lon":"121.492232","lat":"31.154662","category":"148","category_name":"美容美发店","address":"上海海阳路店"},{"poiid":"B2094655D26AA0FA429E","title":"地铁济阳路站","lon":"121.48188","lat":"31.14994","category":"36","category_name":"地铁站","address":""},{"poiid":"B2094757D06AA1F94893","title":"济阳路","lon":"121.48357","lat":"31.14722","category":"500","category_name":"未知分类","address":"上海中环济阳路出口"},{"poiid":"B2094757D164A0FB479A","title":"张堰汽车站","lon":"121.47866723","lat":"31.151254018","category":"35","category_name":"长途汽车站","address":"上海松金公路2676"},{"poiid":"B2094757D66EA4F54999","title":"兄弟盱眙龙虾","lon":"121.49267","lat":"31.15462","category":"68","category_name":"快餐厅","address":"浦东新区灵岩南路343号(近海阳路)"},{"poiid":"B2094750DA6BA2FA4998","title":"前滩指挥部","lon":"121.483665","lat":"31.15693","category":"500","category_name":"未知分类","address":"济阳路688号"},{"poiid":"B2094655D36DA0F94292","title":"杨思路西营南路","lon":"121.48596","lat":"31.15713","category":"38","category_name":"公交车站","address":"上海市浦东新区西营南路68弄62号101室"},{"poiid":"B2094757D065A5F5429E","title":"东林苑","lon":"121.48727922","lat":"31.158886081","category":"252","category_name":"楼宇机构","address":"上海西营南路68弄"},{"poiid":"B2094655D264A2FA4799","title":"肯德基宏森广场店","lon":"121.49213","lat":"31.14946","category":"68","category_name":"快餐厅","address":"浦东新区长清路1200号1楼(近杨南路)"},{"poiid":"B2094757D16AA3FE419A","title":"杨思幼儿园","lon":"121.487355","lat":"31.157784","category":"57","category_name":"幼儿园","address":"浦东新区西营南路75号(西营南路杨思路)"},{"poiid":"B2094654DB64A2F8479C","title":"梅山苑","lon":"121.48707","lat":"31.159868","category":"47","category_name":"住宅区","address":"西营南路18弄1-57号"},{"poiid":"B2094757D66EA2FF429E","title":"东方体育中心主新闻中心","lon":"121.478507438","lat":"31.1588350802","category":"500","category_name":"未知分类","address":"上海媒体咨询台"},{"poiid":"B2094757D16BA0F5429E","title":"Amily's home","lon":"121.485677738","lat":"31.15741675","category":"500","category_name":"未知分类","address":null},{"poiid":"B2094753D665A5F8429D","title":"东方体育中心羽毛球馆","lon":"121.47866","lat":"31.158872","category":"500","category_name":"未知分类","address":"上海市 耀体路701"},{"poiid":"B2094655D265A3FD4692","title":"三阳小区","lon":"121.48774","lat":"31.15702","category":"47","category_name":"住宅区","address":""},{"poiid":"B2094654DA65A0FB4698","title":"上海市浦东新区杨思幼儿园(南园)","lon":"121.48645","lat":"31.15806","category":"57","category_name":"幼儿园","address":"西营南路75号"},{"poiid":"B2094757D164A7FF469C","title":"2011金光灿烂徐小凤上海演唱会","lon":"121.480792738","lat":"31.1486621138","category":"500","category_name":"未知分类","address":null},{"poiid":"B2094655D26FAAFC459A","title":"天地苑(南门)","lon":"121.48535","lat":"31.15704","category":"656","category_name":"大门","address":"西营南路67弄1-50号"},{"poiid":"B2094751D564A0F8489E","title":"国泰电影院","lon":"121.486145","lat":"31.159088","category":"178","category_name":"电影院","address":"陕西南路"},{"poiid":"B2094757D168A2FE419E","title":"东体中心跳水馆月亮湾","lon":"121.47618853","lat":"31.157495051","category":"500","category_name":"未知分类","address":"上海济阳路"},{"poiid":"B2094753D469A5F4479C","title":"环球港","lon":"121.475517","lat":"31.158182","category":"500","category_name":"未知分类","address":"上海市 金沙江路站"},{"poiid":"B2094654DA65A0FB469B","title":"天地苑(3号门)","lon":"121.48646","lat":"31.15862","category":"47","category_name":"住宅区","address":"西营南路67弄1-50号"},{"poiid":"B2094654DB64A2F8479E","title":"东林苑(正门)","lon":"121.48694","lat":"31.15872","category":"47","category_name":"住宅区","address":"西营南路68弄1-66号"},{"poiid":"B2094655D36CA5F84999","title":"长清路海阳路","lon":"121.49124","lat":"31.15381","category":"38","category_name":"公交车站","address":""},{"poiid":"B2094757D16BA1FC4399","title":"昌里路长青路","lon":"121.48750763","lat":"31.157882059","category":"500","category_name":"未知分类","address":"上海长青公园附近"},{"poiid":"B2094753D664AAFC4599","title":"泰晤士小镇","lon":"121.47602","lat":"31.158117","category":"500","category_name":"未知分类","address":"上海市 松江区"},{"poiid":"B2094655D26BAAFC4399","title":"好又多","lon":"121.48627","lat":"31.15949","category":"118","category_name":"超级市场","address":"西营南路67弄1号"},{"poiid":"B2094757D66BA4FE459C","title":"热火功夫麻辣烫 大润发店","lon":"121.49137","lat":"31.1537","category":"68","category_name":"快餐厅","address":"浦东新区长清路1200号大润发1楼(长清路海阳路)"},{"poiid":"B2094757D66BA5FB449E","title":"康师傅私房牛肉面 三林店","lon":"121.49149","lat":"31.15337","category":"87","category_name":"特色／地方风味餐厅","address":"浦东新区长清路1200弄1号大润发1楼(近杨南路)"},{"poiid":"B2094753D669A6FF479F","title":"復旦大學","lon":"121.475532","lat":"31.158187","category":"671","category_name":"高校中心点","address":"上海市 邯鄲路"},{"poiid":"B2094752D265A7F4479B","title":"法华学问寺","lon":"121.47398","lat":"31.154162","category":"250","category_name":"公园户外","address":"上海市华夏西路"},{"poiid":"B2094757D16EA0F9439B","title":"世界游泳百年回顾展展厅","lon":"121.47775573","lat":"31.155700713","category":"260","category_name":"其他","address":"上海市浦东新区耀体路 东方体育中心 玉兰桥内"},{"poiid":"B2094655D265A2FB469A","title":"申之春","lon":"121.4864","lat":"31.15903","category":"148","category_name":"美容美发店","address":""},{"poiid":"B2094655D268A1FA4998","title":"牛奶棚 海阳店","lon":"121.490915054","lat":"31.154137793","category":"67","category_name":"甜品店","address":"浦东新区海阳路417-419号(近长青路)"},{"poiid":"B2094654DB64A2F8479F","title":"恒大华城(南门)","lon":"121.48683","lat":"31.15789","category":"48","category_name":"楼宇大门","address":"西营南路"},{"poiid":"B2094757D064A5F8469B","title":"Mira's home~","lon":"121.48602173","lat":"31.158807779","category":"500","category_name":"未知分类","address":"上海天地苑67弄"},{"poiid":"B2094757D068A6FB4792","title":"东方体育中心","lon":"121.48487573","lat":"31.151827631","category":"224","category_name":"综合体育馆","address":"浦东新区耀体路701号(近世博园区)"},{"poiid":"B2094757D06FA0F5489C","title":"东方体育中心体育馆","lon":"121.48134347","lat":"31.156468556","category":"220","category_name":"运动场所","address":"上海浦东新区泳耀路东育路"},{"poiid":"B2094757D164AAFB479F","title":"东方体育中心海上皇冠","lon":"121.479249738","lat":"31.156806737","category":"500","category_name":"未知分类","address":"上海8号线东方体育中心"},{"poiid":"B2094757D06EAAF94793","title":"东方体育中心地铁站(原济阳路站)","lon":"121.48039507","lat":"31.153498489","category":"36","category_name":"地铁站","address":"上海轨道交通 六号线 八号线 轨交东方体育中心站 济阳路 6 8"},{"poiid":"B2094757D468ABFD409A","title":"海澜湾渔港","lon":"121.4917051","lat":"31.1528042","category":"260","category_name":"其他","address":"浦东新区长清路1200弄森宏购物广场内(高青路囗)"},{"poiid":"B2094757D069A5FE4292","title":"恒大华城","lon":"121.48864865","lat":"31.161270376","category":"500","category_name":"未知分类","address":"上海浦东新区杨新路282弄"},{"poiid":"B2094757D06FAAFB479E","title":"东方体育中心室外跳水池(月亮湾)","lon":"121.47687046","lat":"31.155626569","category":"220","category_name":"运动场所","address":"上海浦东新区泳耀路50号东方体育中心内"},{"poiid":"B2094757D06FA3FA489C","title":"上浦路济阳路","lon":"121.48954772","lat":"31.144712448","category":"260","category_name":"其他","address":"上海浦东新区上浦路济阳路口"},{"poiid":"B2094654DB64A2F8479B","title":"天地苑","lon":"121.48456","lat":"31.16023","category":"47","category_name":"住宅区","address":"西营南路17弄1-69号"},{"poiid":"B2094655D26BA6FD4992","title":"森宏购物广场","lon":"121.49189","lat":"31.14956","category":"119","category_name":"商场","address":"浦东新区长青路1200号(近华夏西路)"},{"poiid":"B2094757D068A6FC489D","title":"康师傅私房牛肉面(杨南店)","lon":"121.49176","lat":"31.1531","category":"247","category_name":"餐饮美食","address":"上海浦东新区长清路1200号大润发1楼(近杨南路)  "},{"poiid":"B2094757D069A1F5449D","title":"卢浦大桥引桥","lon":"121.47853247","lat":"31.151149276","category":"500","category_name":"未知分类","address":"上海耀华路"},{"poiid":"B2094654DB6CA0F8469E","title":"南杨小区(杨思路)","lon":"121.49148","lat":"31.15876","category":"47","category_name":"住宅区","address":"长清路643弄1-42号,693弄1-54号"},{"poiid":"B2094757D068AAFC409C","title":"东方体育大厦","lon":"121.478506075","lat":"31.1553712705","category":"46","category_name":"楼宇","address":"上海市泳耀路300号(近耀龙路)"},{"poiid":"B2094757D06BA4FD499E","title":"京世造型","lon":"121.492232","lat":"31.154662","category":"148","category_name":"美容美发店","address":"上海海阳路店"},{"poiid":"B2094655D26AA0FA429E","title":"地铁济阳路站","lon":"121.48188","lat":"31.14994","category":"36","category_name":"地铁站","address":""},{"poiid":"B2094757D06AA1F94893","title":"济阳路","lon":"121.48357","lat":"31.14722","category":"500","category_name":"未知分类","address":"上海中环济阳路出口"},{"poiid":"B2094757D164A0FB479A","title":"张堰汽车站","lon":"121.47866723","lat":"31.151254018","category":"35","category_name":"长途汽车站","address":"上海松金公路2676"},{"poiid":"B2094757D66EA4F54999","title":"兄弟盱眙龙虾","lon":"121.49267","lat":"31.15462","category":"68","category_name":"快餐厅","address":"浦东新区灵岩南路343号(近海阳路)"},{"poiid":"B2094750DA6BA2FA4998","title":"前滩指挥部","lon":"121.483665","lat":"31.15693","category":"500","category_name":"未知分类","address":"济阳路688号"},{"poiid":"B2094655D36DA0F94292","title":"杨思路西营南路","lon":"121.48596","lat":"31.15713","category":"38","category_name":"公交车站","address":"上海市浦东新区西营南路68弄62号101室"},{"poiid":"B2094757D065A5F5429E","title":"东林苑","lon":"121.48727922","lat":"31.158886081","category":"252","category_name":"楼宇机构","address":"上海西营南路68弄"},{"poiid":"B2094655D264A2FA4799","title":"肯德基宏森广场店","lon":"121.49213","lat":"31.14946","category":"68","category_name":"快餐厅","address":"浦东新区长清路1200号1楼(近杨南路)"},{"poiid":"B2094757D16AA3FE419A","title":"杨思幼儿园","lon":"121.487355","lat":"31.157784","category":"57","category_name":"幼儿园","address":"浦东新区西营南路75号(西营南路杨思路)"},{"poiid":"B2094654DB64A2F8479C","title":"梅山苑","lon":"121.48707","lat":"31.159868","category":"47","category_name":"住宅区","address":"西营南路18弄1-57号"},{"poiid":"B2094757D66EA2FF429E","title":"东方体育中心主新闻中心","lon":"121.478507438","lat":"31.1588350802","category":"500","category_name":"未知分类","address":"上海媒体咨询台"},{"poiid":"B2094757D16BA0F5429E","title":"Amily's home","lon":"121.485677738","lat":"31.15741675","category":"500","category_name":"未知分类","address":null},{"poiid":"B2094753D665A5F8429D","title":"东方体育中心羽毛球馆","lon":"121.47866","lat":"31.158872","category":"500","category_name":"未知分类","address":"上海市 耀体路701"},{"poiid":"B2094655D265A3FD4692","title":"三阳小区","lon":"121.48774","lat":"31.15702","category":"47","category_name":"住宅区","address":""},{"poiid":"B2094654DA65A0FB4698","title":"上海市浦东新区杨思幼儿园(南园)","lon":"121.48645","lat":"31.15806","category":"57","category_name":"幼儿园","address":"西营南路75号"},{"poiid":"B2094757D164A7FF469C","title":"2011金光灿烂徐小凤上海演唱会","lon":"121.480792738","lat":"31.1486621138","category":"500","category_name":"未知分类","address":null},{"poiid":"B2094655D26FAAFC459A","title":"天地苑(南门)","lon":"121.48535","lat":"31.15704","category":"656","category_name":"大门","address":"西营南路67弄1-50号"},{"poiid":"B2094751D564A0F8489E","title":"国泰电影院","lon":"121.486145","lat":"31.159088","category":"178","category_name":"电影院","address":"陕西南路"},{"poiid":"B2094757D168A2FE419E","title":"东体中心跳水馆月亮湾","lon":"121.47618853","lat":"31.157495051","category":"500","category_name":"未知分类","address":"上海济阳路"},{"poiid":"B2094753D469A5F4479C","title":"环球港","lon":"121.475517","lat":"31.158182","category":"500","category_name":"未知分类","address":"上海市 金沙江路站"},{"poiid":"B2094654DA65A0FB469B","title":"天地苑(3号门)","lon":"121.48646","lat":"31.15862","category":"47","category_name":"住宅区","address":"西营南路67弄1-50号"},{"poiid":"B2094654DB64A2F8479E","title":"东林苑(正门)","lon":"121.48694","lat":"31.15872","category":"47","category_name":"住宅区","address":"西营南路68弄1-66号"},{"poiid":"B2094655D36CA5F84999","title":"长清路海阳路","lon":"121.49124","lat":"31.15381","category":"38","category_name":"公交车站","address":""},{"poiid":"B2094757D16BA1FC4399","title":"昌里路长青路","lon":"121.48750763","lat":"31.157882059","category":"500","category_name":"未知分类","address":"上海长青公园附近"},{"poiid":"B2094753D664AAFC4599","title":"泰晤士小镇","lon":"121.47602","lat":"31.158117","category":"500","category_name":"未知分类","address":"上海市 松江区"},{"poiid":"B2094655D26BAAFC4399","title":"好又多","lon":"121.48627","lat":"31.15949","category":"118","category_name":"超级市场","address":"西营南路67弄1号"},{"poiid":"B2094757D66BA4FE459C","title":"热火功夫麻辣烫 大润发店","lon":"121.49137","lat":"31.1537","category":"68","category_name":"快餐厅","address":"浦东新区长清路1200号大润发1楼(长清路海阳路)"},{"poiid":"B2094757D66BA5FB449E","title":"康师傅私房牛肉面 三林店","lon":"121.49149","lat":"31.15337","category":"87","category_name":"特色／地方风味餐厅","address":"浦东新区长清路1200弄1号大润发1楼(近杨南路)"},{"poiid":"B2094753D669A6FF479F","title":"復旦大學","lon":"121.475532","lat":"31.158187","category":"671","category_name":"高校中心点","address":"上海市 邯鄲路"},{"poiid":"B2094752D265A7F4479B","title":"法华学问寺","lon":"121.47398","lat":"31.154162","category":"250","category_name":"公园户外","address":"上海市华夏西路"},{"poiid":"B2094757D16EA0F9439B","title":"世界游泳百年回顾展展厅","lon":"121.47775573","lat":"31.155700713","category":"260","category_name":"其他","address":"上海市浦东新区耀体路 东方体育中心 玉兰桥内"},{"poiid":"B2094655D265A2FB469A","title":"申之春","lon":"121.4864","lat":"31.15903","category":"148","category_name":"美容美发店","address":""},{"poiid":"B2094655D268A1FA4998","title":"牛奶棚 海阳店","lon":"121.490915054","lat":"31.154137793","category":"67","category_name":"甜品店","address":"浦东新区海阳路417-419号(近长青路)"},{"poiid":"B2094654DB64A2F8479F","title":"恒大华城(南门)","lon":"121.48683","lat":"31.15789","category":"48","category_name":"楼宇大门","address":"西营南路"},{"poiid":"B2094757D064A5F8469B","title":"Mira's home~","lon":"121.48602173","lat":"31.158807779","category":"500","category_name":"未知分类","address":"上海天地苑67弄"},{"poiid":"B2094757D068A6FB4792","title":"东方体育中心","lon":"121.48487573","lat":"31.151827631","category":"224","category_name":"综合体育馆","address":"浦东新区耀体路701号(近世博园区)"},{"poiid":"B2094757D06FA0F5489C","title":"东方体育中心体育馆","lon":"121.48134347","lat":"31.156468556","category":"220","category_name":"运动场所","address":"上海浦东新区泳耀路东育路"},{"poiid":"B2094757D164AAFB479F","title":"东方体育中心海上皇冠","lon":"121.479249738","lat":"31.156806737","category":"500","category_name":"未知分类","address":"上海8号线东方体育中心"},{"poiid":"B2094757D06EAAF94793","title":"东方体育中心地铁站(原济阳路站)","lon":"121.48039507","lat":"31.153498489","category":"36","category_name":"地铁站","address":"上海轨道交通 六号线 八号线 轨交东方体育中心站 济阳路 6 8"},{"poiid":"B2094757D468ABFD409A","title":"海澜湾渔港","lon":"121.4917051","lat":"31.1528042","category":"260","category_name":"其他","address":"浦东新区长清路1200弄森宏购物广场内(高青路囗)"},{"poiid":"B2094757D069A5FE4292","title":"恒大华城","lon":"121.48864865","lat":"31.161270376","category":"500","category_name":"未知分类","address":"上海浦东新区杨新路282弄"},{"poiid":"B2094757D06FAAFB479E","title":"东方体育中心室外跳水池(月亮湾)","lon":"121.47687046","lat":"31.155626569","category":"220","category_name":"运动场所","address":"上海浦东新区泳耀路50号东方体育中心内"},{"poiid":"B2094757D06FA3FA489C","title":"上浦路济阳路","lon":"121.48954772","lat":"31.144712448","category":"260","category_name":"其他","address":"上海浦东新区上浦路济阳路口"},{"poiid":"B2094654DB64A2F8479B","title":"天地苑","lon":"121.48456","lat":"31.16023","category":"47","category_name":"住宅区","address":"西营南路17弄1-69号"},{"poiid":"B2094655D26BA6FD4992","title":"森宏购物广场","lon":"121.49189","lat":"31.14956","category":"119","category_name":"商场","address":"浦东新区长青路1200号(近华夏西路)"},{"poiid":"B2094757D068A6FC489D","title":"康师傅私房牛肉面(杨南店)","lon":"121.49176","lat":"31.1531","category":"247","category_name":"餐饮美食","address":"上海浦东新区长清路1200号大润发1楼(近杨南路)  "},{"poiid":"B2094757D069A1F5449D","title":"卢浦大桥引桥","lon":"121.47853247","lat":"31.151149276","category":"500","category_name":"未知分类","address":"上海耀华路"},{"poiid":"B2094654DB6CA0F8469E","title":"南杨小区(杨思路)","lon":"121.49148","lat":"31.15876","category":"47","category_name":"住宅区","address":"长清路643弄1-42号,693弄1-54号"},{"poiid":"B2094757D068AAFC409C","title":"东方体育大厦","lon":"121.478506075","lat":"31.1553712705","category":"46","category_name":"楼宇","address":"上海市泳耀路300号(近耀龙路)"},{"poiid":"B2094757D06BA4FD499E","title":"京世造型","lon":"121.492232","lat":"31.154662","category":"148","category_name":"美容美发店","address":"上海海阳路店"},{"poiid":"B2094655D26AA0FA429E","title":"地铁济阳路站","lon":"121.48188","lat":"31.14994","category":"36","category_name":"地铁站","address":""},{"poiid":"B2094757D06AA1F94893","title":"济阳路","lon":"121.48357","lat":"31.14722","category":"500","category_name":"未知分类","address":"上海中环济阳路出口"},{"poiid":"B2094757D164A0FB479A","title":"张堰汽车站","lon":"121.47866723","lat":"31.151254018","category":"35","category_name":"长途汽车站","address":"上海松金公路2676"},{"poiid":"B2094757D66EA4F54999","title":"兄弟盱眙龙虾","lon":"121.49267","lat":"31.15462","category":"68","category_name":"快餐厅","address":"浦东新区灵岩南路343号(近海阳路)"},{"poiid":"B2094750DA6BA2FA4998","title":"前滩指挥部","lon":"121.483665","lat":"31.15693","category":"500","category_name":"未知分类","address":"济阳路688号"},{"poiid":"B2094655D36DA0F94292","title":"杨思路西营南路","lon":"121.48596","lat":"31.15713","category":"38","category_name":"公交车站","address":"上海市浦东新区西营南路68弄62号101室"},{"poiid":"B2094757D065A5F5429E","title":"东林苑","lon":"121.48727922","lat":"31.158886081","category":"252","category_name":"楼宇机构","address":"上海西营南路68弄"},{"poiid":"B2094655D264A2FA4799","title":"肯德基宏森广场店","lon":"121.49213","lat":"31.14946","category":"68","category_name":"快餐厅","address":"浦东新区长清路1200号1楼(近杨南路)"},{"poiid":"B2094757D16AA3FE419A","title":"杨思幼儿园","lon":"121.487355","lat":"31.157784","category":"57","category_name":"幼儿园","address":"浦东新区西营南路75号(西营南路杨思路)"},{"poiid":"B2094654DB64A2F8479C","title":"梅山苑","lon":"121.48707","lat":"31.159868","category":"47","category_name":"住宅区","address":"西营南路18弄1-57号"},{"poiid":"B2094757D66EA2FF429E","title":"东方体育中心主新闻中心","lon":"121.478507438","lat":"31.1588350802","category":"500","category_name":"未知分类","address":"上海媒体咨询台"},{"poiid":"B2094757D16BA0F5429E","title":"Amily's home","lon":"121.485677738","lat":"31.15741675","category":"500","category_name":"未知分类","address":null},{"poiid":"B2094753D665A5F8429D","title":"东方体育中心羽毛球馆","lon":"121.47866","lat":"31.158872","category":"500","category_name":"未知分类","address":"上海市 耀体路701"},{"poiid":"B2094655D265A3FD4692","title":"三阳小区","lon":"121.48774","lat":"31.15702","category":"47","category_name":"住宅区","address":""},{"poiid":"B2094654DA65A0FB4698","title":"上海市浦东新区杨思幼儿园(南园)","lon":"121.48645","lat":"31.15806","category":"57","category_name":"幼儿园","address":"西营南路75号"},{"poiid":"B2094757D164A7FF469C","title":"2011金光灿烂徐小凤上海演唱会","lon":"121.480792738","lat":"31.1486621138","category":"500","category_name":"未知分类","address":null},{"poiid":"B2094655D26FAAFC459A","title":"天地苑(南门)","lon":"121.48535","lat":"31.15704","category":"656","category_name":"大门","address":"西营南路67弄1-50号"},{"poiid":"B2094751D564A0F8489E","title":"国泰电影院","lon":"121.486145","lat":"31.159088","category":"178","category_name":"电影院","address":"陕西南路"},{"poiid":"B2094757D168A2FE419E","title":"东体中心跳水馆月亮湾","lon":"121.47618853","lat":"31.157495051","category":"500","category_name":"未知分类","address":"上海济阳路"},{"poiid":"B2094753D469A5F4479C","title":"环球港","lon":"121.475517","lat":"31.158182","category":"500","category_name":"未知分类","address":"上海市 金沙江路站"},{"poiid":"B2094654DA65A0FB469B","title":"天地苑(3号门)","lon":"121.48646","lat":"31.15862","category":"47","category_name":"住宅区","address":"西营南路67弄1-50号"},{"poiid":"B2094654DB64A2F8479E","title":"东林苑(正门)","lon":"121.48694","lat":"31.15872","category":"47","category_name":"住宅区","address":"西营南路68弄1-66号"},{"poiid":"B2094655D36CA5F84999","title":"长清路海阳路","lon":"121.49124","lat":"31.15381","category":"38","category_name":"公交车站","address":""},{"poiid":"B2094757D16BA1FC4399","title":"昌里路长青路","lon":"121.48750763","lat":"31.157882059","category":"500","category_name":"未知分类","address":"上海长青公园附近"},{"poiid":"B2094753D664AAFC4599","title":"泰晤士小镇","lon":"121.47602","lat":"31.158117","category":"500","category_name":"未知分类","address":"上海市 松江区"},{"poiid":"B2094655D26BAAFC4399","title":"好又多","lon":"121.48627","lat":"31.15949","category":"118","category_name":"超级市场","address":"西营南路67弄1号"},{"poiid":"B2094757D66BA4FE459C","title":"热火功夫麻辣烫 大润发店","lon":"121.49137","lat":"31.1537","category":"68","category_name":"快餐厅","address":"浦东新区长清路1200号大润发1楼(长清路海阳路)"},{"poiid":"B2094757D66BA5FB449E","title":"康师傅私房牛肉面 三林店","lon":"121.49149","lat":"31.15337","category":"87","category_name":"特色／地方风味餐厅","address":"浦东新区长清路1200弄1号大润发1楼(近杨南路)"},{"poiid":"B2094753D669A6FF479F","title":"復旦大學","lon":"121.475532","lat":"31.158187","category":"671","category_name":"高校中心点","address":"上海市 邯鄲路"},{"poiid":"B2094752D265A7F4479B","title":"法华学问寺","lon":"121.47398","lat":"31.154162","category":"250","category_name":"公园户外","address":"上海市华夏西路"},{"poiid":"B2094757D16EA0F9439B","title":"世界游泳百年回顾展展厅","lon":"121.47775573","lat":"31.155700713","category":"260","category_name":"其他","address":"上海市浦东新区耀体路 东方体育中心 玉兰桥内"},{"poiid":"B2094655D265A2FB469A","title":"申之春","lon":"121.4864","lat":"31.15903","category":"148","category_name":"美容美发店","address":""},{"poiid":"B2094655D268A1FA4998","title":"牛奶棚 海阳店","lon":"121.490915054","lat":"31.154137793","category":"67","category_name":"甜品店","address":"浦东新区海阳路417-419号(近长青路)"},{"poiid":"B2094654DB64A2F8479F","title":"恒大华城(南门)","lon":"121.48683","lat":"31.15789","category":"48","category_name":"楼宇大门","address":"西营南路"},{"poiid":"B2094757D064A5F8469B","title":"Mira's home~","lon":"121.48602173","lat":"31.158807779","category":"500","category_name":"未知分类","address":"上海天地苑67弄"}]