[{"poiid":"B2094757D06EAAF44792","title":"美兰湖","lon":"121.3539524","lat":"31.399131614","category":"234","category_name":"海滨浴场","address":"宝山区罗芬路888号"},{"poiid":"B2094654D469A0F8499E","title":"美兰湖国际会议中心","lon":"121.35453","lat":"31.40151","category":"65","category_name":"咖啡厅","address":"宝山区罗店新镇罗芬路888号"},{"poiid":"B2094757D06EAAFF4092","title":"美兰湖地铁站","lon":"121.35040708","lat":"31.4015480232","category":"36","category_name":"地铁站","address":"上海轨道交通 七号线 轨交美兰湖站 7"},{"poiid":"B2094655D26BA1FB459C","title":"罗店","lon":"121.34159","lat":"31.41009","category":"38","category_name":"公交车站","address":""},{"poiid":"B2094757D568A1FF439E","title":"美兰湖高尔夫别墅","lon":"121.347665","lat":"31.40718","category":"47","category_name":"住宅区","address":"上海罗店北欧新镇美丹路8号"},{"poiid":"B2094757D16BABF9419D","title":"世纪联华 美食广场","lon":"121.350432153","lat":"31.4024306507","category":"257","category_name":"中餐厅","address":"上海美兰湖"},{"poiid":"B2094757D069A1F9419F","title":"宝山净寺","lon":"121.34277498","lat":"31.417038888","category":"246","category_name":"回教寺","address":"宝山区罗店镇罗溪路518号(练祁河旁)"},{"poiid":"B2094757D06AA7FD4099","title":"罗店医院","lon":"121.34698","lat":"31.41517","category":"162","category_name":"医院","address":"宝山区罗溪路121号(罗溪路市一路)"},{"poiid":"B2094654D469A5F84693","title":"东方假日田园","lon":"121.3302","lat":"31.39385","category":"250","category_name":"公园户外","address":"宝山区罗店镇张墅村联杨路3888号(近沪太路)"},{"poiid":"B2094757D069ABF8409F","title":"美兰湖岭域","lon":"121.358414","lat":"31.396351","category":"47","category_name":"住宅区","address":"上海宝山区罗芬路98弄"},{"poiid":"B2094757D069ABFE4692","title":"鼎中鼎澳门豆捞(罗芬路店)","lon":"121.35685","lat":"31.39889","category":"86","category_name":"火锅店","address":"宝山区罗芬路55号(近美艾路)"},{"poiid":"B2094757D06AA0F5439C","title":"美兰湖颐景园","lon":"121.3582","lat":"31.398161","category":"47","category_name":"住宅区","address":"上海市宝山区美艾路198弄"},{"poiid":"B2094757D064A5FE4693","title":"肯德基 KFC 美兰湖店","lon":"121.34690175","lat":"31.404148685","category":"500","category_name":"未知分类","address":"上海市宝山区美兰湖世纪联华一楼"},{"poiid":"B2094757D16CA2FC499C","title":"华方大酒店","lon":"121.344705","lat":"31.406938","category":"76","category_name":"上海菜","address":"宝山区沪太路7098号(沪太路月罗公路)"},{"poiid":"B2094654D469A0FB4498","title":"都是客酒店","lon":"121.350095054","lat":"31.409544793","category":"76","category_name":"上海菜","address":"宝山区罗溪路5号(近月罗公路)"},{"poiid":"B2094757D06AA3FD4992","title":"伊诺咖啡 美兰湖店","lon":"121.356827054","lat":"31.401091793","category":"65","category_name":"咖啡厅","address":"宝山区沪太路6655号罗店北欧新镇内罗芬路789号"},{"poiid":"B2094757D068A5F84793","title":"美兰湖奥特莱斯","lon":"121.355615709","lat":"31.3961190725","category":"119","category_name":"商场","address":"宝山区沪太路6655号(美兰湖口)"},{"poiid":"B2094654D469A0FB4899","title":"顺驰美兰湖","lon":"121.35601","lat":"31.405182","category":"47","category_name":"住宅区","address":"宝山区罗店北欧新镇扶远路美丹路路口"},{"poiid":"B2094654D469A0FB4692","title":"上海市罗店中学","lon":"121.33895","lat":"31.4102","category":"55","category_name":"中学","address":"宝山区罗店镇罗新路707号(集贤路罗新路)"},{"poiid":"B2094757D664A2F8459B","title":"品膳房酒楼","lon":"121.35601","lat":"31.40112","category":"76","category_name":"上海菜","address":"宝山区美兰湖罗芬路C区689弄13-14号"},{"poiid":"B2094757D469A6FF429B","title":"美兰湖粗菜馆","lon":"121.35169744492","lat":"31.402659855428","category":"76","category_name":"上海菜","address":"宝山区罗芬路1088号世纪联华4楼(近沪太路)"},{"poiid":"B2094654D468A4F5409C","title":"宝山寺","lon":"121.34278","lat":"31.41703","category":"244","category_name":"寺庙道观","address":"罗店镇"},{"poiid":"B2094757D469A0FA449D","title":"美兰湖高尔夫俱乐部会所餐厅 Lake Malaren Golf Resort","lon":"121.35400661812","lat":"31.397773991695","category":"91","category_name":"台湾菜","address":"沪太路6655号美兰湖高尔夫俱乐部会所1楼近美兰湖路"},{"poiid":"B2094655D26BA1FB439D","title":"罗溪路市一路","lon":"121.347","lat":"31.41561","category":"38","category_name":"公交车站","address":""},{"poiid":"B2094655D26BA3F5439E","title":"朗诗绿岛","lon":"121.34872","lat":"31.405003","category":"47","category_name":"住宅区","address":"罗店新镇罗芬路555弄38号"},{"poiid":"B2094757D165A2F54992","title":"粗菜馆","lon":"121.351094353","lat":"31.4022388468","category":"257","category_name":"中餐厅","address":"上海美兰湖"},{"poiid":"B2094757D164A0F9479E","title":"美兰湖站上行司机休息室","lon":"121.346904253","lat":"31.4040346835","category":"500","category_name":"未知分类","address":null},{"poiid":"B2094757D465A3F9489F","title":"董大师金牌稻香蛙 美兰湖店","lon":"121.35815","lat":"31.39774","category":"71","category_name":"四川菜","address":"宝山区美兰湖大道罗芬路689弄北欧风情街16号(近沪太路)"},{"poiid":"B2094751D565A7FD419B","title":"美兰湖花园","lon":"121.345603","lat":"31.407293","category":"47","category_name":"住宅区","address":"宝山区美丹路18弄"},{"poiid":"B2094655D26AA0F9449F","title":"地铁美兰湖站","lon":"121.35472","lat":"31.3953","category":"36","category_name":"地铁站","address":""},{"poiid":"B2094654D469A7FA4099","title":"上海第三十八机动车安全检测站","lon":"121.35023","lat":"31.40105","category":"250","category_name":"公园户外","address":"沪太路6938"},{"poiid":"B2094654D469A7FE449A","title":"罗店派出所","lon":"121.34399","lat":"31.40806","category":"609","category_name":"警察局","address":"宝山区罗太路232"},{"poiid":"B2094757D16DA4FD4893","title":"世纪联华美兰湖","lon":"121.35188965","lat":"31.394287984","category":"500","category_name":"未知分类","address":"上海美兰湖"},{"poiid":"B2094655D265A0FD499C","title":"美兰湖皇冠假日酒店西餐厅","lon":"121.35575","lat":"31.39544","category":"94","category_name":"西餐厅","address":"宝山区沪太路6655号皇冠假日酒店(美兰湖路口)"},{"poiid":"B2094757D169ABFF449C","title":"罗店汽车站","lon":"121.340383853","lat":"31.411493536","category":"35","category_name":"长途汽车站","address":"上海宝山巴士罗店汽车站"},{"poiid":"B2094757D66FA2F84298","title":"亲亲外婆家","lon":"121.33799635","lat":"31.409445194","category":"247","category_name":"餐饮美食","address":null},{"poiid":"B2094757D16AA0FB479D","title":"品膳房","lon":"121.34981965","lat":"31.401699535","category":"500","category_name":"未知分类","address":"上海宝山区美兰湖"},{"poiid":"B2094757D06BA7FA4492","title":"沪太公路","lon":"121.345886307","lat":"31.4051632524","category":"260","category_name":"其他","address":"上海沪太公路"},{"poiid":"B2094757D16CAAF44793","title":"FLORA in the house","lon":"121.35397865","lat":"31.404620595","category":"500","category_name":"未知分类","address":"上海美兰湖高尔夫别墅"},{"poiid":"B2094654D469A7FE429D","title":"快客(罗太路)","lon":"121.34095","lat":"31.41017","category":"117","category_name":"便民商店/便利店","address":""},{"poiid":"B2094757D16AA0FB4893","title":"美丹路招呼站","lon":"121.35041","lat":"31.401546","category":"500","category_name":"未知分类","address":"上海沪太路美丹路　美兰湖地铁站"},{"poiid":"B2094757D164ABFD4799","title":"爱婴室(美兰湖店)","lon":"121.350534653","lat":"31.4023175484","category":"500","category_name":"未知分类","address":"宝山区罗芬路1088号罗店美兰湖交通枢纽广场4楼A410-412"},{"poiid":"B2094654D469A7FA409F","title":"上海罗南经济发展公司","lon":"121.3503","lat":"31.40127","category":"263","category_name":"公司","address":"沪太路6938"},{"poiid":"B2094454D365A6F44193","title":"星巴克美蘭湖店","lon":"121.355567","lat":"31.400953","category":"247","category_name":"餐饮美食","address":"上海市 上海市寶山區羅芬路1088號世紀聯華1樓"},{"poiid":"B2094757D065A4FE4392","title":"罗溪公园","lon":"121.35075","lat":"31.416","category":"196","category_name":"公园","address":"宝山区罗店市一路150号"},{"poiid":"B2094654D469A7FA4098","title":"上海中集冷藏箱有限公司","lon":"121.35157","lat":"31.39963","category":"263","category_name":"公司","address":"沪太路6888"},{"poiid":"B2094654D469A7FE4393","title":"宝山区外来流动人口管理罗店服务中心","lon":"121.34387","lat":"31.40815","category":"248","category_name":"生活娱乐","address":""},{"poiid":"B2094655D36CA7FE4399","title":"沪太路富张路","lon":"121.35465","lat":"31.39541","category":"38","category_name":"公交车站","address":""},{"poiid":"B2094655D265A1FF4993","title":"华府美墅","lon":"121.35477","lat":"31.40527","category":"47","category_name":"住宅区","address":""},{"poiid":"B2094654DB65A6FC4799","title":"永琪美容美发(罗店店)","lon":"121.3434","lat":"31.41251","category":"148","category_name":"美容美发店","address":"宝山区塘西街52号(近市一路)"},{"poiid":"B2094757D06EAAF44792","title":"美兰湖","lon":"121.3539524","lat":"31.399131614","category":"234","category_name":"海滨浴场","address":"宝山区罗芬路888号"},{"poiid":"B2094654D469A0F8499E","title":"美兰湖国际会议中心","lon":"121.35453","lat":"31.40151","category":"65","category_name":"咖啡厅","address":"宝山区罗店新镇罗芬路888号"},{"poiid":"B2094757D06EAAFF4092","title":"美兰湖地铁站","lon":"121.35040708","lat":"31.4015480232","category":"36","category_name":"地铁站","address":"上海轨道交通 七号线 轨交美兰湖站 7"},{"poiid":"B2094655D26BA1FB459C","title":"罗店","lon":"121.34159","lat":"31.41009","category":"38","category_name":"公交车站","address":""},{"poiid":"B2094757D568A1FF439E","title":"美兰湖高尔夫别墅","lon":"121.347665","lat":"31.40718","category":"47","category_name":"住宅区","address":"上海罗店北欧新镇美丹路8号"},{"poiid":"B2094757D16BABF9419D","title":"世纪联华 美食广场","lon":"121.350432153","lat":"31.4024306507","category":"257","category_name":"中餐厅","address":"上海美兰湖"},{"poiid":"B2094757D069A1F9419F","title":"宝山净寺","lon":"121.34277498","lat":"31.417038888","category":"246","category_name":"回教寺","address":"宝山区罗店镇罗溪路518号(练祁河旁)"},{"poiid":"B2094757D06AA7FD4099","title":"罗店医院","lon":"121.34698","lat":"31.41517","category":"162","category_name":"医院","address":"宝山区罗溪路121号(罗溪路市一路)"},{"poiid":"B2094654D469A5F84693","title":"东方假日田园","lon":"121.3302","lat":"31.39385","category":"250","category_name":"公园户外","address":"宝山区罗店镇张墅村联杨路3888号(近沪太路)"},{"poiid":"B2094757D069ABF8409F","title":"美兰湖岭域","lon":"121.358414","lat":"31.396351","category":"47","category_name":"住宅区","address":"上海宝山区罗芬路98弄"},{"poiid":"B2094757D069ABFE4692","title":"鼎中鼎澳门豆捞(罗芬路店)","lon":"121.35685","lat":"31.39889","category":"86","category_name":"火锅店","address":"宝山区罗芬路55号(近美艾路)"},{"poiid":"B2094757D06AA0F5439C","title":"美兰湖颐景园","lon":"121.3582","lat":"31.398161","category":"47","category_name":"住宅区","address":"上海市宝山区美艾路198弄"},{"poiid":"B2094757D064A5FE4693","title":"肯德基 KFC 美兰湖店","lon":"121.34690175","lat":"31.404148685","category":"500","category_name":"未知分类","address":"上海市宝山区美兰湖世纪联华一楼"},{"poiid":"B2094757D16CA2FC499C","title":"华方大酒店","lon":"121.344705","lat":"31.406938","category":"76","category_name":"上海菜","address":"宝山区沪太路7098号(沪太路月罗公路)"},{"poiid":"B2094654D469A0FB4498","title":"都是客酒店","lon":"121.350095054","lat":"31.409544793","category":"76","category_name":"上海菜","address":"宝山区罗溪路5号(近月罗公路)"},{"poiid":"B2094757D06AA3FD4992","title":"伊诺咖啡 美兰湖店","lon":"121.356827054","lat":"31.401091793","category":"65","category_name":"咖啡厅","address":"宝山区沪太路6655号罗店北欧新镇内罗芬路789号"},{"poiid":"B2094757D068A5F84793","title":"美兰湖奥特莱斯","lon":"121.355615709","lat":"31.3961190725","category":"119","category_name":"商场","address":"宝山区沪太路6655号(美兰湖口)"},{"poiid":"B2094654D469A0FB4899","title":"顺驰美兰湖","lon":"121.35601","lat":"31.405182","category":"47","category_name":"住宅区","address":"宝山区罗店北欧新镇扶远路美丹路路口"},{"poiid":"B2094654D469A0FB4692","title":"上海市罗店中学","lon":"121.33895","lat":"31.4102","category":"55","category_name":"中学","address":"宝山区罗店镇罗新路707号(集贤路罗新路)"},{"poiid":"B2094757D664A2F8459B","title":"品膳房酒楼","lon":"121.35601","lat":"31.40112","category":"76","category_name":"上海菜","address":"宝山区美兰湖罗芬路C区689弄13-14号"},{"poiid":"B2094757D469A6FF429B","title":"美兰湖粗菜馆","lon":"121.35169744492","lat":"31.402659855428","category":"76","category_name":"上海菜","address":"宝山区罗芬路1088号世纪联华4楼(近沪太路)"},{"poiid":"B2094654D468A4F5409C","title":"宝山寺","lon":"121.34278","lat":"31.41703","category":"244","category_name":"寺庙道观","address":"罗店镇"},{"poiid":"B2094757D469A0FA449D","title":"美兰湖高尔夫俱乐部会所餐厅 Lake Malaren Golf Resort","lon":"121.35400661812","lat":"31.397773991695","category":"91","category_name":"台湾菜","address":"沪太路6655号美兰湖高尔夫俱乐部会所1楼近美兰湖路"},{"poiid":"B2094655D26BA1FB439D","title":"罗溪路市一路","lon":"121.347","lat":"31.41561","category":"38","category_name":"公交车站","address":""},{"poiid":"B2094655D26BA3F5439E","title":"朗诗绿岛","lon":"121.34872","lat":"31.405003","category":"47","category_name":"住宅区","address":"罗店新镇罗芬路555弄38号"},{"poiid":"B2094757D165A2F54992","title":"粗菜馆","lon":"121.351094353","lat":"31.4022388468","category":"257","category_name":"中餐厅","address":"上海美兰湖"},{"poiid":"B2094757D164A0F9479E","title":"美兰湖站上行司机休息室","lon":"121.346904253","lat":"31.4040346835","category":"500","category_name":"未知分类","address":null},{"poiid":"B2094757D465A3F9489F","title":"董大师金牌稻香蛙 美兰湖店","lon":"121.35815","lat":"31.39774","category":"71","category_name":"四川菜","address":"宝山区美兰湖大道罗芬路689弄北欧风情街16号(近沪太路)"},{"poiid":"B2094751D565A7FD419B","title":"美兰湖花园","lon":"121.345603","lat":"31.407293","category":"47","category_name":"住宅区","address":"宝山区美丹路18弄"},{"poiid":"B2094655D26AA0F9449F","title":"地铁美兰湖站","lon":"121.35472","lat":"31.3953","category":"36","category_name":"地铁站","address":""},{"poiid":"B2094654D469A7FA4099","title":"上海第三十八机动车安全检测站","lon":"121.35023","lat":"31.40105","category":"250","category_name":"公园户外","address":"沪太路6938"},{"poiid":"B2094654D469A7FE449A","title":"罗店派出所","lon":"121.34399","lat":"31.40806","category":"609","category_name":"警察局","address":"宝山区罗太路232"},{"poiid":"B2094757D16DA4FD4893","title":"世纪联华美兰湖","lon":"121.35188965","lat":"31.394287984","category":"500","category_name":"未知分类","address":"上海美兰湖"},{"poiid":"B2094655D265A0FD499C","title":"美兰湖皇冠假日酒店西餐厅","lon":"121.35575","lat":"31.39544","category":"94","category_name":"西餐厅","address":"宝山区沪太路6655号皇冠假日酒店(美兰湖路口)"},{"poiid":"B2094757D169ABFF449C","title":"罗店汽车站","lon":"121.340383853","lat":"31.411493536","category":"35","category_name":"长途汽车站","address":"上海宝山巴士罗店汽车站"},{"poiid":"B2094757D66FA2F84298","title":"亲亲外婆家","lon":"121.33799635","lat":"31.409445194","category":"247","category_name":"餐饮美食","address":null},{"poiid":"B2094757D16AA0FB479D","title":"品膳房","lon":"121.34981965","lat":"31.401699535","category":"500","category_name":"未知分类","address":"上海宝山区美兰湖"},{"poiid":"B2094757D06BA7FA4492","title":"沪太公路","lon":"121.345886307","lat":"31.4051632524","category":"260","category_name":"其他","address":"上海沪太公路"},{"poiid":"B2094757D16CAAF44793","title":"FLORA in the house","lon":"121.35397865","lat":"31.404620595","category":"500","category_name":"未知分类","address":"上海美兰湖高尔夫别墅"},{"poiid":"B2094654D469A7FE429D","title":"快客(罗太路)","lon":"121.34095","lat":"31.41017","category":"117","category_name":"便民商店/便利店","address":""},{"poiid":"B2094757D16AA0FB4893","title":"美丹路招呼站","lon":"121.35041","lat":"31.401546","category":"500","category_name":"未知分类","address":"上海沪太路美丹路　美兰湖地铁站"},{"poiid":"B2094757D164ABFD4799","title":"爱婴室(美兰湖店)","lon":"121.350534653","lat":"31.4023175484","category":"500","category_name":"未知分类","address":"宝山区罗芬路1088号罗店美兰湖交通枢纽广场4楼A410-412"},{"poiid":"B2094654D469A7FA409F","title":"上海罗南经济发展公司","lon":"121.3503","lat":"31.40127","category":"263","category_name":"公司","address":"沪太路6938"},{"poiid":"B2094454D365A6F44193","title":"星巴克美蘭湖店","lon":"121.355567","lat":"31.400953","category":"247","category_name":"餐饮美食","address":"上海市 上海市寶山區羅芬路1088號世紀聯華1樓"},{"poiid":"B2094757D065A4FE4392","title":"罗溪公园","lon":"121.35075","lat":"31.416","category":"196","category_name":"公园","address":"宝山区罗店市一路150号"},{"poiid":"B2094654D469A7FA4098","title":"上海中集冷藏箱有限公司","lon":"121.35157","lat":"31.39963","category":"263","category_name":"公司","address":"沪太路6888"},{"poiid":"B2094654D469A7FE4393","title":"宝山区外来流动人口管理罗店服务中心","lon":"121.34387","lat":"31.40815","category":"248","category_name":"生活娱乐","address":""},{"poiid":"B2094655D36CA7FE4399","title":"沪太路富张路","lon":"121.35465","lat":"31.39541","category":"38","category_name":"公交车站","address":""},{"poiid":"B2094655D265A1FF4993","title":"华府美墅","lon":"121.35477","lat":"31.40527","category":"47","category_name":"住宅区","address":""},{"poiid":"B2094654DB65A6FC4799","title":"永琪美容美发(罗店店)","lon":"121.3434","lat":"31.41251","category":"148","category_name":"美容美发店","address":"宝山区塘西街52号(近市一路)"},{"poiid":"B2094757D06EAAF44792","title":"美兰湖","lon":"121.3539524","lat":"31.399131614","category":"234","category_name":"海滨浴场","address":"宝山区罗芬路888号"},{"poiid":"B2094654D469A0F8499E","title":"美兰湖国际会议中心","lon":"121.35453","lat":"31.40151","category":"65","category_name":"咖啡厅","address":"宝山区罗店新镇罗芬路888号"},{"poiid":"B2094757D06EAAFF4092","title":"美兰湖地铁站","lon":"121.35040708","lat":"31.4015480232","category":"36","category_name":"地铁站","address":"上海轨道交通 七号线 轨交美兰湖站 7"},{"poiid":"B2094655D26BA1FB459C","title":"罗店","lon":"121.34159","lat":"31.41009","category":"38","category_name":"公交车站","address":""},{"poiid":"B2094757D568A1FF439E","title":"美兰湖高尔夫别墅","lon":"121.347665","lat":"31.40718","category":"47","category_name":"住宅区","address":"上海罗店北欧新镇美丹路8号"},{"poiid":"B2094757D16BABF9419D","title":"世纪联华 美食广场","lon":"121.350432153","lat":"31.4024306507","category":"257","category_name":"中餐厅","address":"上海美兰湖"},{"poiid":"B2094757D069A1F9419F","title":"宝山净寺","lon":"121.34277498","lat":"31.417038888","category":"246","category_name":"回教寺","address":"宝山区罗店镇罗溪路518号(练祁河旁)"},{"poiid":"B2094757D06AA7FD4099","title":"罗店医院","lon":"121.34698","lat":"31.41517","category":"162","category_name":"医院","address":"宝山区罗溪路121号(罗溪路市一路)"},{"poiid":"B2094654D469A5F84693","title":"东方假日田园","lon":"121.3302","lat":"31.39385","category":"250","category_name":"公园户外","address":"宝山区罗店镇张墅村联杨路3888号(近沪太路)"},{"poiid":"B2094757D069ABF8409F","title":"美兰湖岭域","lon":"121.358414","lat":"31.396351","category":"47","category_name":"住宅区","address":"上海宝山区罗芬路98弄"},{"poiid":"B2094757D069ABFE4692","title":"鼎中鼎澳门豆捞(罗芬路店)","lon":"121.35685","lat":"31.39889","category":"86","category_name":"火锅店","address":"宝山区罗芬路55号(近美艾路)"},{"poiid":"B2094757D06AA0F5439C","title":"美兰湖颐景园","lon":"121.3582","lat":"31.398161","category":"47","category_name":"住宅区","address":"上海市宝山区美艾路198弄"},{"poiid":"B2094757D064A5FE4693","title":"肯德基 KFC 美兰湖店","lon":"121.34690175","lat":"31.404148685","category":"500","category_name":"未知分类","address":"上海市宝山区美兰湖世纪联华一楼"},{"poiid":"B2094757D16CA2FC499C","title":"华方大酒店","lon":"121.344705","lat":"31.406938","category":"76","category_name":"上海菜","address":"宝山区沪太路7098号(沪太路月罗公路)"},{"poiid":"B2094654D469A0FB4498","title":"都是客酒店","lon":"121.350095054","lat":"31.409544793","category":"76","category_name":"上海菜","address":"宝山区罗溪路5号(近月罗公路)"},{"poiid":"B2094757D06AA3FD4992","title":"伊诺咖啡 美兰湖店","lon":"121.356827054","lat":"31.401091793","category":"65","category_name":"咖啡厅","address":"宝山区沪太路6655号罗店北欧新镇内罗芬路789号"},{"poiid":"B2094757D068A5F84793","title":"美兰湖奥特莱斯","lon":"121.355615709","lat":"31.3961190725","category":"119","category_name":"商场","address":"宝山区沪太路6655号(美兰湖口)"},{"poiid":"B2094654D469A0FB4899","title":"顺驰美兰湖","lon":"121.35601","lat":"31.405182","category":"47","category_name":"住宅区","address":"宝山区罗店北欧新镇扶远路美丹路路口"},{"poiid":"B2094654D469A0FB4692","title":"上海市罗店中学","lon":"121.33895","lat":"31.4102","category":"55","category_name":"中学","address":"宝山区罗店镇罗新路707号(集贤路罗新路)"},{"poiid":"B2094757D664A2F8459B","title":"品膳房酒楼","lon":"121.35601","lat":"31.40112","category":"76","category_name":"上海菜","address":"宝山区美兰湖罗芬路C区689弄13-14号"},{"poiid":"B2094757D469A6FF429B","title":"美兰湖粗菜馆","lon":"121.35169744492","lat":"31.402659855428","category":"76","category_name":"上海菜","address":"宝山区罗芬路1088号世纪联华4楼(近沪太路)"},{"poiid":"B2094654D468A4F5409C","title":"宝山寺","lon":"121.34278","lat":"31.41703","category":"244","category_name":"寺庙道观","address":"罗店镇"},{"poiid":"B2094757D469A0FA449D","title":"美兰湖高尔夫俱乐部会所餐厅 Lake Malaren Golf Resort","lon":"121.35400661812","lat":"31.397773991695","category":"91","category_name":"台湾菜","address":"沪太路6655号美兰湖高尔夫俱乐部会所1楼近美兰湖路"},{"poiid":"B2094655D26BA1FB439D","title":"罗溪路市一路","lon":"121.347","lat":"31.41561","category":"38","category_name":"公交车站","address":""},{"poiid":"B2094655D26BA3F5439E","title":"朗诗绿岛","lon":"121.34872","lat":"31.405003","category":"47","category_name":"住宅区","address":"罗店新镇罗芬路555弄38号"},{"poiid":"B2094757D165A2F54992","title":"粗菜馆","lon":"121.351094353","lat":"31.4022388468","category":"257","category_name":"中餐厅","address":"上海美兰湖"},{"poiid":"B2094757D164A0F9479E","title":"美兰湖站上行司机休息室","lon":"121.346904253","lat":"31.4040346835","category":"500","category_name":"未知分类","address":null},{"poiid":"B2094757D465A3F9489F","title":"董大师金牌稻香蛙 美兰湖店","lon":"121.35815","lat":"31.39774","category":"71","category_name":"四川菜","address":"宝山区美兰湖大道罗芬路689弄北欧风情街16号(近沪太路)"},{"poiid":"B2094751D565A7FD419B","title":"美兰湖花园","lon":"121.345603","lat":"31.407293","category":"47","category_name":"住宅区","address":"宝山区美丹路18弄"},{"poiid":"B2094655D26AA0F9449F","title":"地铁美兰湖站","lon":"121.35472","lat":"31.3953","category":"36","category_name":"地铁站","address":""},{"poiid":"B2094654D469A7FA4099","title":"上海第三十八机动车安全检测站","lon":"121.35023","lat":"31.40105","category":"250","category_name":"公园户外","address":"沪太路6938"},{"poiid":"B2094654D469A7FE449A","title":"罗店派出所","lon":"121.34399","lat":"31.40806","category":"609","category_name":"警察局","address":"宝山区罗太路232"},{"poiid":"B2094757D16DA4FD4893","title":"世纪联华美兰湖","lon":"121.35188965","lat":"31.394287984","category":"500","category_name":"未知分类","address":"上海美兰湖"},{"poiid":"B2094655D265A0FD499C","title":"美兰湖皇冠假日酒店西餐厅","lon":"121.35575","lat":"31.39544","category":"94","category_name":"西餐厅","address":"宝山区沪太路6655号皇冠假日酒店(美兰湖路口)"},{"poiid":"B2094757D169ABFF449C","title":"罗店汽车站","lon":"121.340383853","lat":"31.411493536","category":"35","category_name":"长途汽车站","address":"上海宝山巴士罗店汽车站"},{"poiid":"B2094757D66FA2F84298","title":"亲亲外婆家","lon":"121.33799635","lat":"31.409445194","category":"247","category_name":"餐饮美食","address":null},{"poiid":"B2094757D16AA0FB479D","title":"品膳房","lon":"121.34981965","lat":"31.401699535","category":"500","category_name":"未知分类","address":"上海宝山区美兰湖"},{"poiid":"B2094757D06BA7FA4492","title":"沪太公路","lon":"121.345886307","lat":"31.4051632524","category":"260","category_name":"其他","address":"上海沪太公路"},{"poiid":"B2094757D16CAAF44793","title":"FLORA in the house","lon":"121.35397865","lat":"31.404620595","category":"500","category_name":"未知分类","address":"上海美兰湖高尔夫别墅"},{"poiid":"B2094654D469A7FE429D","title":"快客(罗太路)","lon":"121.34095","lat":"31.41017","category":"117","category_name":"便民商店/便利店","address":""},{"poiid":"B2094757D16AA0FB4893","title":"美丹路招呼站","lon":"121.35041","lat":"31.401546","category":"500","category_name":"未知分类","address":"上海沪太路美丹路　美兰湖地铁站"},{"poiid":"B2094757D164ABFD4799","title":"爱婴室(美兰湖店)","lon":"121.350534653","lat":"31.4023175484","category":"500","category_name":"未知分类","address":"宝山区罗芬路1088号罗店美兰湖交通枢纽广场4楼A410-412"},{"poiid":"B2094654D469A7FA409F","title":"上海罗南经济发展公司","lon":"121.3503","lat":"31.40127","category":"263","category_name":"公司","address":"沪太路6938"},{"poiid":"B2094454D365A6F44193","title":"星巴克美蘭湖店","lon":"121.355567","lat":"31.400953","category":"247","category_name":"餐饮美食","address":"上海市 上海市寶山區羅芬路1088號世紀聯華1樓"},{"poiid":"B2094757D065A4FE4392","title":"罗溪公园","lon":"121.35075","lat":"31.416","category":"196","category_name":"公园","address":"宝山区罗店市一路150号"},{"poiid":"B2094654D469A7FA4098","title":"上海中集冷藏箱有限公司","lon":"121.35157","lat":"31.39963","category":"263","category_name":"公司","address":"沪太路6888"},{"poiid":"B2094654D469A7FE4393","title":"宝山区外来流动人口管理罗店服务中心","lon":"121.34387","lat":"31.40815","category":"248","category_name":"生活娱乐","address":""},{"poiid":"B2094655D36CA7FE4399","title":"沪太路富张路","lon":"121.35465","lat":"31.39541","category":"38","category_name":"公交车站","address":""},{"poiid":"B2094655D265A1FF4993","title":"华府美墅","lon":"121.35477","lat":"31.40527","category":"47","category_name":"住宅区","address":""},{"poiid":"B2094654DB65A6FC4799","title":"永琪美容美发(罗店店)","lon":"121.3434","lat":"31.41251","category":"148","category_name":"美容美发店","address":"宝山区塘西街52号(近市一路)"}]