[{"poiid":"B2094757D06FA5FC419A","title":"藏珑泰极(大拇指广场店)","lon":"121.56025","lat":"31.22682","category":"99","category_name":"泰国／越南菜品餐厅","address":"浦东新区芳甸路199弄大拇指广场19号3楼(近丁香路)"},{"poiid":"B2094757D06FA5F84992","title":"汉舍中国菜馆(丁香路店)","lon":"121.56411","lat":"31.22915","category":"71","category_name":"四川菜","address":"浦东新区丁香路1399弄30号3楼(近紫槐路)"},{"poiid":"B2094654DB6AA6FF449F","title":"证大丽笙酒店","lon":"121.56049","lat":"31.22634","category":"213","category_name":"五星级宾馆","address":"浦东新区迎春路1199号(近芳甸路)"},{"poiid":"B2094757D06FA7F4479C","title":"仁恒河滨城","lon":"121.5674189","lat":"31.227980431","category":"47","category_name":"住宅区","address":"奉贤区南桥南奉公路8889号"},{"poiid":"B2094757D569A1FD4199","title":"埔里老镇","lon":"121.5603125","lat":"31.22719916","category":"91","category_name":"台湾菜","address":"浦东新区芳甸路199弄大拇指广场19号2楼(近迎春路)"},{"poiid":"B2094757D06BA5F9419F","title":"瑞亚湖滨精品酒店","lon":"121.57144497","lat":"31.224963937","category":"217","category_name":"旅馆招待所","address":"上海市浦东新区罗山路1609号"},{"poiid":"B2094757D068A2FD489E","title":"九间堂","lon":"121.5620138","lat":"31.222304185","category":"500","category_name":"未知分类","address":"浦东新区芳甸路599弄1号(近锦绣路)"},{"poiid":"B2094757D469A3F5429C","title":"瑞亚湖滨酒店多功能厅","lon":"121.570945","lat":"31.226697","category":"76","category_name":"上海菜","address":"罗山路1609号瑞亚湖滨酒店1楼近锦绣路"},{"poiid":"B2094757D069A0F84892","title":"希腊餐厅(芳甸路店)","lon":"121.559723585","lat":"31.2261000756","category":"94","category_name":"西餐厅","address":"浦东新区芳甸路199弄证大大拇指广场43号1楼41铺(近杨高中路)"},{"poiid":"B2094757D068ABFF459F","title":"永达东风日产4s店","lon":"121.570136","lat":"31.226448","category":"158","category_name":"汽车销售","address":"上海罗山路1447号"},{"poiid":"B2094655D36CA0FD459E","title":"锦绣路罗山路","lon":"121.56943","lat":"31.22644","category":"38","category_name":"公交车站","address":""},{"poiid":"B2094655D26EA0FC4492","title":"沃歌斯","lon":"121.55816","lat":"31.23072","category":"94","category_name":"西餐厅","address":"浦东新区芳甸路199弄证大大拇指广场31号(南洋泾路杨高中路)"},{"poiid":"B2094757D569A3FB409D","title":"仁恒河滨城一期","lon":"121.566375","lat":"31.22726806","category":"47","category_name":"住宅区","address":"上海市浦东新区丁香路1599弄"},{"poiid":"B2094757D06AA7F5499E","title":"东风本田汽车冠松4S","lon":"121.571006","lat":"31.226105","category":"158","category_name":"汽车销售","address":"浦东新区罗山路1589号(近锦绣路)"},{"poiid":"B2094654DB64A6FA4292","title":"香啡缤 大拇指广场店 Coffee Bean&Tea Leaf","lon":"121.559246054","lat":"31.227108793","category":"260","category_name":"其他","address":"浦东新区芳甸路199弄证大大拇指广场内(近杨高中路)"},{"poiid":"B2094655D26FA5F84293","title":"御翠园","lon":"121.5723460187","lat":"31.223593222378","category":"47","category_name":"住宅区","address":"上海市浦东新区花木路1883弄"},{"poiid":"B2094654DA69A2FA4399","title":"广洋新景苑","lon":"121.56838","lat":"31.22351","category":"47","category_name":"住宅区","address":"柳杉路99弄1-27号"},{"poiid":"B2094757D06FABFA469F","title":"紫竹国际大厦","lon":"121.56824976597","lat":"31.217863825633","category":"46","category_name":"楼宇","address":"普陀区大渡河路588号"},{"poiid":"B2094654DA69A2FA4699","title":"锦绣小区","lon":"121.56915","lat":"31.225288","category":"47","category_name":"住宅区","address":"罗山路1700弄"},{"poiid":"B2094757D465A5FB479F","title":"东村韩料理","lon":"121.5687457","lat":"31.2261111","category":"96","category_name":"韩国料理","address":"浦东新区锦绣路33号(近罗山路)"},{"poiid":"B2094655D26FA1FD439D","title":"金桂花园","lon":"121.56894","lat":"31.22519","category":"47","category_name":"住宅区","address":""},{"poiid":"B2094751D469A0F8479C","title":"唐鱼儿麻辣鲜鱼火锅","lon":"121.560104","lat":"31.225509","category":"86","category_name":"火锅店","address":"浦东新区芳甸路199弄40号大拇指广场46号(近迎春路)"},{"poiid":"B2094654DA6AA1FA419A","title":"上海瑞东医院(瑞金医院浦东分院)","lon":"121.57312","lat":"31.22623","category":"162","category_name":"医院","address":"浦东新区锦绣东路120"},{"poiid":"B2094654DB6BAAFC449E","title":"花木社区卫生服务中心钦洋服务站","lon":"121.56812","lat":"31.22545","category":"162","category_name":"医院","address":""},{"poiid":"B2094654DA69A2FA469E","title":"金桂家园","lon":"121.56998","lat":"31.224915","category":"47","category_name":"住宅区","address":"罗山路1700弄1-8号"},{"poiid":"B2094757D169AAF84298","title":"东方幼儿园仁恒部","lon":"121.56943897","lat":"31.226610976","category":"253","category_name":"校园生活","address":"浦东新区锦绣路50号(罗山路口)"},{"poiid":"B2094757D16AA4F84093","title":"宠乐道宠物医院柳杉分院","lon":"121.56647197","lat":"31.224570928","category":"162","category_name":"医院","address":"上海市浦东新区柳杉路47号"},{"poiid":"B2094655D26DA7F9419E","title":"金桂家园(南门)","lon":"121.56994","lat":"31.22437","category":"47","category_name":"住宅区","address":"罗山路1700弄1-8号"},{"poiid":"B2094757D064ABFA429C","title":"进才实验小学","lon":"121.562418475","lat":"31.2299315537","category":"56","category_name":"小学","address":"上海丁香路1289号"},{"poiid":"B2094654DA69A2FA439E","title":"克丽缇娜(柳杉路)","lon":"121.567","lat":"31.22391","category":"148","category_name":"美容美发店","address":"柳杉路71"},{"poiid":"B2094655D26DABFC4392","title":"浦东虹桥花园","lon":"121.56442","lat":"31.226006","category":"47","category_name":"住宅区","address":"锦绣路300弄1-37号"},{"poiid":"B2094655D36CA6F44692","title":"丁香路锦绣路","lon":"121.56621","lat":"31.22586","category":"38","category_name":"公交车站","address":""},{"poiid":"B2094654DA69A2FA449F","title":"宝乐宠物医院浦东店","lon":"121.56683","lat":"31.22473","category":"162","category_name":"医院","address":"浦东新区柳杉路25号(近锦绣路)"},{"poiid":"B2094757D06AA3F8419D","title":"仁恒河滨城邻里之家","lon":"121.56327257","lat":"31.228929767","category":"500","category_name":"未知分类","address":"上海浦东丁香路1399弄30号"},{"poiid":"B2094654DB6BAAFD419E","title":"东方幼儿园","lon":"121.56922","lat":"31.22678","category":"57","category_name":"幼儿园","address":"锦绣路50号"},{"poiid":"B2094655D26BA7FB4298","title":"曼都佳人SPA馆联洋2馆","lon":"121.56699","lat":"31.22401","category":"148","category_name":"美容美发店","address":"柳杉路63"},{"poiid":"B2094757D569A7F9429B","title":"钦洋镇图书馆","lon":"121.567461","lat":"31.225471","category":"125","category_name":"书店","address":"黄浦区锦绣路95-101号(丁香路锦绣路)"},{"poiid":"B2094757D16AA6F8449C","title":"中国石化加油站(锦绣路罗山路口)","lon":"121.5705434","lat":"31.226545154","category":"154","category_name":"加油加气站","address":"上海浦东新区锦绣路罗山路口"},{"poiid":"B2094757D469A3F4459E","title":"瑞亚湖滨酒店艾提西餐厅","lon":"121.570934","lat":"31.226669","category":"94","category_name":"西餐厅","address":"罗山路1609号瑞亚湖滨酒店1楼近锦绣路"},{"poiid":"B2094654DA69A2FA4398","title":"小风车广洋新景幼儿园","lon":"121.56747","lat":"31.22271","category":"57","category_name":"幼儿园","address":"浦东新区花四路99弄27号"},{"poiid":"B209475CDB6EA5FF4192","title":"上海开元曼居酒店(原上海瑞亚湖滨酒店)","lon":"121.571706","lat":"31.225285","category":"214","category_name":"四星级宾馆","address":"浦东新区罗山路1609号(新国际博览中心区域,内环高架路旁)"},{"poiid":"B2094750DA68A4F4449A","title":"Blue Marlin","lon":"121.560188","lat":"31.227334","category":"248","category_name":"生活娱乐","address":"浦东新区芳甸路199弄17号大拇指广场"},{"poiid":"B2094757D16EA1FF4699","title":"冠松汽车维修服务有限公司","lon":"121.57004975","lat":"31.226869182","category":"500","category_name":"未知分类","address":"上海市浦东新区罗山路1589号"},{"poiid":"B2094654DA69A2FA4492","title":"金色维也纳","lon":"121.56512","lat":"31.22323","category":"47","category_name":"住宅区","address":"锦绣路333弄1-56号"},{"poiid":"B2094757D069A4FC4598","title":"城市超市(联洋店)","lon":"121.56768","lat":"31.2277","category":"118","category_name":"超级市场","address":"浦东新区丁香路1399弄30号仁恒河滨城邻里之家107室(近芳甸路)"},{"poiid":"B2094757D569A2FC4298","title":"东方明珠花店","lon":"121.5659169","lat":"31.22616694","category":"120","category_name":"小商品市场","address":"浦东新区锦绣路300弄虹桥花园18号1002室(迎春路紫槐路)"},{"poiid":"B2094757D068A1F9429C","title":"家乐福(大拇指广场店)","lon":"121.55993652","lat":"31.226459503","category":"118","category_name":"超级市场","address":"上海浦东新区芳甸路199弄 大拇指广场地下一层"},{"poiid":"B2094655D26DA7F44892","title":"锦绣小区(北门)","lon":"121.5685","lat":"31.22562","category":"656","category_name":"大门","address":""},{"poiid":"B2094655D26DA0FC489B","title":"广洋新景苑(东门)","lon":"121.56997","lat":"31.22418","category":"656","category_name":"大门","address":"柳杉路99弄"},{"poiid":"B2094655D268A1F4499D","title":"锦绣小区(北一门)","lon":"121.56822","lat":"31.2255","category":"656","category_name":"大门","address":""},{"poiid":"B2094757D06FA5FC419A","title":"藏珑泰极(大拇指广场店)","lon":"121.56025","lat":"31.22682","category":"99","category_name":"泰国／越南菜品餐厅","address":"浦东新区芳甸路199弄大拇指广场19号3楼(近丁香路)"},{"poiid":"B2094757D06FA5F84992","title":"汉舍中国菜馆(丁香路店)","lon":"121.56411","lat":"31.22915","category":"71","category_name":"四川菜","address":"浦东新区丁香路1399弄30号3楼(近紫槐路)"},{"poiid":"B2094654DB6AA6FF449F","title":"证大丽笙酒店","lon":"121.56049","lat":"31.22634","category":"213","category_name":"五星级宾馆","address":"浦东新区迎春路1199号(近芳甸路)"},{"poiid":"B2094757D06FA7F4479C","title":"仁恒河滨城","lon":"121.5674189","lat":"31.227980431","category":"47","category_name":"住宅区","address":"奉贤区南桥南奉公路8889号"},{"poiid":"B2094757D569A1FD4199","title":"埔里老镇","lon":"121.5603125","lat":"31.22719916","category":"91","category_name":"台湾菜","address":"浦东新区芳甸路199弄大拇指广场19号2楼(近迎春路)"},{"poiid":"B2094757D06BA5F9419F","title":"瑞亚湖滨精品酒店","lon":"121.57144497","lat":"31.224963937","category":"217","category_name":"旅馆招待所","address":"上海市浦东新区罗山路1609号"},{"poiid":"B2094757D068A2FD489E","title":"九间堂","lon":"121.5620138","lat":"31.222304185","category":"500","category_name":"未知分类","address":"浦东新区芳甸路599弄1号(近锦绣路)"},{"poiid":"B2094757D469A3F5429C","title":"瑞亚湖滨酒店多功能厅","lon":"121.570945","lat":"31.226697","category":"76","category_name":"上海菜","address":"罗山路1609号瑞亚湖滨酒店1楼近锦绣路"},{"poiid":"B2094757D069A0F84892","title":"希腊餐厅(芳甸路店)","lon":"121.559723585","lat":"31.2261000756","category":"94","category_name":"西餐厅","address":"浦东新区芳甸路199弄证大大拇指广场43号1楼41铺(近杨高中路)"},{"poiid":"B2094757D068ABFF459F","title":"永达东风日产4s店","lon":"121.570136","lat":"31.226448","category":"158","category_name":"汽车销售","address":"上海罗山路1447号"},{"poiid":"B2094655D36CA0FD459E","title":"锦绣路罗山路","lon":"121.56943","lat":"31.22644","category":"38","category_name":"公交车站","address":""},{"poiid":"B2094655D26EA0FC4492","title":"沃歌斯","lon":"121.55816","lat":"31.23072","category":"94","category_name":"西餐厅","address":"浦东新区芳甸路199弄证大大拇指广场31号(南洋泾路杨高中路)"},{"poiid":"B2094757D569A3FB409D","title":"仁恒河滨城一期","lon":"121.566375","lat":"31.22726806","category":"47","category_name":"住宅区","address":"上海市浦东新区丁香路1599弄"},{"poiid":"B2094757D06AA7F5499E","title":"东风本田汽车冠松4S","lon":"121.571006","lat":"31.226105","category":"158","category_name":"汽车销售","address":"浦东新区罗山路1589号(近锦绣路)"},{"poiid":"B2094654DB64A6FA4292","title":"香啡缤 大拇指广场店 Coffee Bean&Tea Leaf","lon":"121.559246054","lat":"31.227108793","category":"260","category_name":"其他","address":"浦东新区芳甸路199弄证大大拇指广场内(近杨高中路)"},{"poiid":"B2094655D26FA5F84293","title":"御翠园","lon":"121.5723460187","lat":"31.223593222378","category":"47","category_name":"住宅区","address":"上海市浦东新区花木路1883弄"},{"poiid":"B2094654DA69A2FA4399","title":"广洋新景苑","lon":"121.56838","lat":"31.22351","category":"47","category_name":"住宅区","address":"柳杉路99弄1-27号"},{"poiid":"B2094757D06FABFA469F","title":"紫竹国际大厦","lon":"121.56824976597","lat":"31.217863825633","category":"46","category_name":"楼宇","address":"普陀区大渡河路588号"},{"poiid":"B2094654DA69A2FA4699","title":"锦绣小区","lon":"121.56915","lat":"31.225288","category":"47","category_name":"住宅区","address":"罗山路1700弄"},{"poiid":"B2094757D465A5FB479F","title":"东村韩料理","lon":"121.5687457","lat":"31.2261111","category":"96","category_name":"韩国料理","address":"浦东新区锦绣路33号(近罗山路)"},{"poiid":"B2094655D26FA1FD439D","title":"金桂花园","lon":"121.56894","lat":"31.22519","category":"47","category_name":"住宅区","address":""},{"poiid":"B2094751D469A0F8479C","title":"唐鱼儿麻辣鲜鱼火锅","lon":"121.560104","lat":"31.225509","category":"86","category_name":"火锅店","address":"浦东新区芳甸路199弄40号大拇指广场46号(近迎春路)"},{"poiid":"B2094654DA6AA1FA419A","title":"上海瑞东医院(瑞金医院浦东分院)","lon":"121.57312","lat":"31.22623","category":"162","category_name":"医院","address":"浦东新区锦绣东路120"},{"poiid":"B2094654DB6BAAFC449E","title":"花木社区卫生服务中心钦洋服务站","lon":"121.56812","lat":"31.22545","category":"162","category_name":"医院","address":""},{"poiid":"B2094654DA69A2FA469E","title":"金桂家园","lon":"121.56998","lat":"31.224915","category":"47","category_name":"住宅区","address":"罗山路1700弄1-8号"},{"poiid":"B2094757D169AAF84298","title":"东方幼儿园仁恒部","lon":"121.56943897","lat":"31.226610976","category":"253","category_name":"校园生活","address":"浦东新区锦绣路50号(罗山路口)"},{"poiid":"B2094757D16AA4F84093","title":"宠乐道宠物医院柳杉分院","lon":"121.56647197","lat":"31.224570928","category":"162","category_name":"医院","address":"上海市浦东新区柳杉路47号"},{"poiid":"B2094655D26DA7F9419E","title":"金桂家园(南门)","lon":"121.56994","lat":"31.22437","category":"47","category_name":"住宅区","address":"罗山路1700弄1-8号"},{"poiid":"B2094757D064ABFA429C","title":"进才实验小学","lon":"121.562418475","lat":"31.2299315537","category":"56","category_name":"小学","address":"上海丁香路1289号"},{"poiid":"B2094654DA69A2FA439E","title":"克丽缇娜(柳杉路)","lon":"121.567","lat":"31.22391","category":"148","category_name":"美容美发店","address":"柳杉路71"},{"poiid":"B2094655D26DABFC4392","title":"浦东虹桥花园","lon":"121.56442","lat":"31.226006","category":"47","category_name":"住宅区","address":"锦绣路300弄1-37号"},{"poiid":"B2094655D36CA6F44692","title":"丁香路锦绣路","lon":"121.56621","lat":"31.22586","category":"38","category_name":"公交车站","address":""},{"poiid":"B2094654DA69A2FA449F","title":"宝乐宠物医院浦东店","lon":"121.56683","lat":"31.22473","category":"162","category_name":"医院","address":"浦东新区柳杉路25号(近锦绣路)"},{"poiid":"B2094757D06AA3F8419D","title":"仁恒河滨城邻里之家","lon":"121.56327257","lat":"31.228929767","category":"500","category_name":"未知分类","address":"上海浦东丁香路1399弄30号"},{"poiid":"B2094654DB6BAAFD419E","title":"东方幼儿园","lon":"121.56922","lat":"31.22678","category":"57","category_name":"幼儿园","address":"锦绣路50号"},{"poiid":"B2094655D26BA7FB4298","title":"曼都佳人SPA馆联洋2馆","lon":"121.56699","lat":"31.22401","category":"148","category_name":"美容美发店","address":"柳杉路63"},{"poiid":"B2094757D569A7F9429B","title":"钦洋镇图书馆","lon":"121.567461","lat":"31.225471","category":"125","category_name":"书店","address":"黄浦区锦绣路95-101号(丁香路锦绣路)"},{"poiid":"B2094757D16AA6F8449C","title":"中国石化加油站(锦绣路罗山路口)","lon":"121.5705434","lat":"31.226545154","category":"154","category_name":"加油加气站","address":"上海浦东新区锦绣路罗山路口"},{"poiid":"B2094757D469A3F4459E","title":"瑞亚湖滨酒店艾提西餐厅","lon":"121.570934","lat":"31.226669","category":"94","category_name":"西餐厅","address":"罗山路1609号瑞亚湖滨酒店1楼近锦绣路"},{"poiid":"B2094654DA69A2FA4398","title":"小风车广洋新景幼儿园","lon":"121.56747","lat":"31.22271","category":"57","category_name":"幼儿园","address":"浦东新区花四路99弄27号"},{"poiid":"B209475CDB6EA5FF4192","title":"上海开元曼居酒店(原上海瑞亚湖滨酒店)","lon":"121.571706","lat":"31.225285","category":"214","category_name":"四星级宾馆","address":"浦东新区罗山路1609号(新国际博览中心区域,内环高架路旁)"},{"poiid":"B2094750DA68A4F4449A","title":"Blue Marlin","lon":"121.560188","lat":"31.227334","category":"248","category_name":"生活娱乐","address":"浦东新区芳甸路199弄17号大拇指广场"},{"poiid":"B2094757D16EA1FF4699","title":"冠松汽车维修服务有限公司","lon":"121.57004975","lat":"31.226869182","category":"500","category_name":"未知分类","address":"上海市浦东新区罗山路1589号"},{"poiid":"B2094654DA69A2FA4492","title":"金色维也纳","lon":"121.56512","lat":"31.22323","category":"47","category_name":"住宅区","address":"锦绣路333弄1-56号"},{"poiid":"B2094757D069A4FC4598","title":"城市超市(联洋店)","lon":"121.56768","lat":"31.2277","category":"118","category_name":"超级市场","address":"浦东新区丁香路1399弄30号仁恒河滨城邻里之家107室(近芳甸路)"},{"poiid":"B2094757D569A2FC4298","title":"东方明珠花店","lon":"121.5659169","lat":"31.22616694","category":"120","category_name":"小商品市场","address":"浦东新区锦绣路300弄虹桥花园18号1002室(迎春路紫槐路)"},{"poiid":"B2094757D068A1F9429C","title":"家乐福(大拇指广场店)","lon":"121.55993652","lat":"31.226459503","category":"118","category_name":"超级市场","address":"上海浦东新区芳甸路199弄 大拇指广场地下一层"},{"poiid":"B2094655D26DA7F44892","title":"锦绣小区(北门)","lon":"121.5685","lat":"31.22562","category":"656","category_name":"大门","address":""},{"poiid":"B2094655D26DA0FC489B","title":"广洋新景苑(东门)","lon":"121.56997","lat":"31.22418","category":"656","category_name":"大门","address":"柳杉路99弄"},{"poiid":"B2094655D268A1F4499D","title":"锦绣小区(北一门)","lon":"121.56822","lat":"31.2255","category":"656","category_name":"大门","address":""},{"poiid":"B2094757D06FA5FC419A","title":"藏珑泰极(大拇指广场店)","lon":"121.56025","lat":"31.22682","category":"99","category_name":"泰国／越南菜品餐厅","address":"浦东新区芳甸路199弄大拇指广场19号3楼(近丁香路)"},{"poiid":"B2094757D06FA5F84992","title":"汉舍中国菜馆(丁香路店)","lon":"121.56411","lat":"31.22915","category":"71","category_name":"四川菜","address":"浦东新区丁香路1399弄30号3楼(近紫槐路)"},{"poiid":"B2094654DB6AA6FF449F","title":"证大丽笙酒店","lon":"121.56049","lat":"31.22634","category":"213","category_name":"五星级宾馆","address":"浦东新区迎春路1199号(近芳甸路)"},{"poiid":"B2094757D06FA7F4479C","title":"仁恒河滨城","lon":"121.5674189","lat":"31.227980431","category":"47","category_name":"住宅区","address":"奉贤区南桥南奉公路8889号"},{"poiid":"B2094757D569A1FD4199","title":"埔里老镇","lon":"121.5603125","lat":"31.22719916","category":"91","category_name":"台湾菜","address":"浦东新区芳甸路199弄大拇指广场19号2楼(近迎春路)"},{"poiid":"B2094757D06BA5F9419F","title":"瑞亚湖滨精品酒店","lon":"121.57144497","lat":"31.224963937","category":"217","category_name":"旅馆招待所","address":"上海市浦东新区罗山路1609号"},{"poiid":"B2094757D068A2FD489E","title":"九间堂","lon":"121.5620138","lat":"31.222304185","category":"500","category_name":"未知分类","address":"浦东新区芳甸路599弄1号(近锦绣路)"},{"poiid":"B2094757D469A3F5429C","title":"瑞亚湖滨酒店多功能厅","lon":"121.570945","lat":"31.226697","category":"76","category_name":"上海菜","address":"罗山路1609号瑞亚湖滨酒店1楼近锦绣路"},{"poiid":"B2094757D069A0F84892","title":"希腊餐厅(芳甸路店)","lon":"121.559723585","lat":"31.2261000756","category":"94","category_name":"西餐厅","address":"浦东新区芳甸路199弄证大大拇指广场43号1楼41铺(近杨高中路)"},{"poiid":"B2094757D068ABFF459F","title":"永达东风日产4s店","lon":"121.570136","lat":"31.226448","category":"158","category_name":"汽车销售","address":"上海罗山路1447号"},{"poiid":"B2094655D36CA0FD459E","title":"锦绣路罗山路","lon":"121.56943","lat":"31.22644","category":"38","category_name":"公交车站","address":""},{"poiid":"B2094655D26EA0FC4492","title":"沃歌斯","lon":"121.55816","lat":"31.23072","category":"94","category_name":"西餐厅","address":"浦东新区芳甸路199弄证大大拇指广场31号(南洋泾路杨高中路)"},{"poiid":"B2094757D569A3FB409D","title":"仁恒河滨城一期","lon":"121.566375","lat":"31.22726806","category":"47","category_name":"住宅区","address":"上海市浦东新区丁香路1599弄"},{"poiid":"B2094757D06AA7F5499E","title":"东风本田汽车冠松4S","lon":"121.571006","lat":"31.226105","category":"158","category_name":"汽车销售","address":"浦东新区罗山路1589号(近锦绣路)"},{"poiid":"B2094654DB64A6FA4292","title":"香啡缤 大拇指广场店 Coffee Bean&Tea Leaf","lon":"121.559246054","lat":"31.227108793","category":"260","category_name":"其他","address":"浦东新区芳甸路199弄证大大拇指广场内(近杨高中路)"},{"poiid":"B2094655D26FA5F84293","title":"御翠园","lon":"121.5723460187","lat":"31.223593222378","category":"47","category_name":"住宅区","address":"上海市浦东新区花木路1883弄"},{"poiid":"B2094654DA69A2FA4399","title":"广洋新景苑","lon":"121.56838","lat":"31.22351","category":"47","category_name":"住宅区","address":"柳杉路99弄1-27号"},{"poiid":"B2094757D06FABFA469F","title":"紫竹国际大厦","lon":"121.56824976597","lat":"31.217863825633","category":"46","category_name":"楼宇","address":"普陀区大渡河路588号"},{"poiid":"B2094654DA69A2FA4699","title":"锦绣小区","lon":"121.56915","lat":"31.225288","category":"47","category_name":"住宅区","address":"罗山路1700弄"},{"poiid":"B2094757D465A5FB479F","title":"东村韩料理","lon":"121.5687457","lat":"31.2261111","category":"96","category_name":"韩国料理","address":"浦东新区锦绣路33号(近罗山路)"},{"poiid":"B2094655D26FA1FD439D","title":"金桂花园","lon":"121.56894","lat":"31.22519","category":"47","category_name":"住宅区","address":""},{"poiid":"B2094751D469A0F8479C","title":"唐鱼儿麻辣鲜鱼火锅","lon":"121.560104","lat":"31.225509","category":"86","category_name":"火锅店","address":"浦东新区芳甸路199弄40号大拇指广场46号(近迎春路)"},{"poiid":"B2094654DA6AA1FA419A","title":"上海瑞东医院(瑞金医院浦东分院)","lon":"121.57312","lat":"31.22623","category":"162","category_name":"医院","address":"浦东新区锦绣东路120"},{"poiid":"B2094654DB6BAAFC449E","title":"花木社区卫生服务中心钦洋服务站","lon":"121.56812","lat":"31.22545","category":"162","category_name":"医院","address":""},{"poiid":"B2094654DA69A2FA469E","title":"金桂家园","lon":"121.56998","lat":"31.224915","category":"47","category_name":"住宅区","address":"罗山路1700弄1-8号"},{"poiid":"B2094757D169AAF84298","title":"东方幼儿园仁恒部","lon":"121.56943897","lat":"31.226610976","category":"253","category_name":"校园生活","address":"浦东新区锦绣路50号(罗山路口)"},{"poiid":"B2094757D16AA4F84093","title":"宠乐道宠物医院柳杉分院","lon":"121.56647197","lat":"31.224570928","category":"162","category_name":"医院","address":"上海市浦东新区柳杉路47号"},{"poiid":"B2094655D26DA7F9419E","title":"金桂家园(南门)","lon":"121.56994","lat":"31.22437","category":"47","category_name":"住宅区","address":"罗山路1700弄1-8号"},{"poiid":"B2094757D064ABFA429C","title":"进才实验小学","lon":"121.562418475","lat":"31.2299315537","category":"56","category_name":"小学","address":"上海丁香路1289号"},{"poiid":"B2094654DA69A2FA439E","title":"克丽缇娜(柳杉路)","lon":"121.567","lat":"31.22391","category":"148","category_name":"美容美发店","address":"柳杉路71"},{"poiid":"B2094655D26DABFC4392","title":"浦东虹桥花园","lon":"121.56442","lat":"31.226006","category":"47","category_name":"住宅区","address":"锦绣路300弄1-37号"},{"poiid":"B2094655D36CA6F44692","title":"丁香路锦绣路","lon":"121.56621","lat":"31.22586","category":"38","category_name":"公交车站","address":""},{"poiid":"B2094654DA69A2FA449F","title":"宝乐宠物医院浦东店","lon":"121.56683","lat":"31.22473","category":"162","category_name":"医院","address":"浦东新区柳杉路25号(近锦绣路)"},{"poiid":"B2094757D06AA3F8419D","title":"仁恒河滨城邻里之家","lon":"121.56327257","lat":"31.228929767","category":"500","category_name":"未知分类","address":"上海浦东丁香路1399弄30号"},{"poiid":"B2094654DB6BAAFD419E","title":"东方幼儿园","lon":"121.56922","lat":"31.22678","category":"57","category_name":"幼儿园","address":"锦绣路50号"},{"poiid":"B2094655D26BA7FB4298","title":"曼都佳人SPA馆联洋2馆","lon":"121.56699","lat":"31.22401","category":"148","category_name":"美容美发店","address":"柳杉路63"},{"poiid":"B2094757D569A7F9429B","title":"钦洋镇图书馆","lon":"121.567461","lat":"31.225471","category":"125","category_name":"书店","address":"黄浦区锦绣路95-101号(丁香路锦绣路)"},{"poiid":"B2094757D16AA6F8449C","title":"中国石化加油站(锦绣路罗山路口)","lon":"121.5705434","lat":"31.226545154","category":"154","category_name":"加油加气站","address":"上海浦东新区锦绣路罗山路口"},{"poiid":"B2094757D469A3F4459E","title":"瑞亚湖滨酒店艾提西餐厅","lon":"121.570934","lat":"31.226669","category":"94","category_name":"西餐厅","address":"罗山路1609号瑞亚湖滨酒店1楼近锦绣路"},{"poiid":"B2094654DA69A2FA4398","title":"小风车广洋新景幼儿园","lon":"121.56747","lat":"31.22271","category":"57","category_name":"幼儿园","address":"浦东新区花四路99弄27号"},{"poiid":"B209475CDB6EA5FF4192","title":"上海开元曼居酒店(原上海瑞亚湖滨酒店)","lon":"121.571706","lat":"31.225285","category":"214","category_name":"四星级宾馆","address":"浦东新区罗山路1609号(新国际博览中心区域,内环高架路旁)"},{"poiid":"B2094750DA68A4F4449A","title":"Blue Marlin","lon":"121.560188","lat":"31.227334","category":"248","category_name":"生活娱乐","address":"浦东新区芳甸路199弄17号大拇指广场"},{"poiid":"B2094757D16EA1FF4699","title":"冠松汽车维修服务有限公司","lon":"121.57004975","lat":"31.226869182","category":"500","category_name":"未知分类","address":"上海市浦东新区罗山路1589号"},{"poiid":"B2094654DA69A2FA4492","title":"金色维也纳","lon":"121.56512","lat":"31.22323","category":"47","category_name":"住宅区","address":"锦绣路333弄1-56号"},{"poiid":"B2094757D069A4FC4598","title":"城市超市(联洋店)","lon":"121.56768","lat":"31.2277","category":"118","category_name":"超级市场","address":"浦东新区丁香路1399弄30号仁恒河滨城邻里之家107室(近芳甸路)"},{"poiid":"B2094757D569A2FC4298","title":"东方明珠花店","lon":"121.5659169","lat":"31.22616694","category":"120","category_name":"小商品市场","address":"浦东新区锦绣路300弄虹桥花园18号1002室(迎春路紫槐路)"},{"poiid":"B2094757D068A1F9429C","title":"家乐福(大拇指广场店)","lon":"121.55993652","lat":"31.226459503","category":"118","category_name":"超级市场","address":"上海浦东新区芳甸路199弄 大拇指广场地下一层"},{"poiid":"B2094655D26DA7F44892","title":"锦绣小区(北门)","lon":"121.5685","lat":"31.22562","category":"656","category_name":"大门","address":""},{"poiid":"B2094655D26DA0FC489B","title":"广洋新景苑(东门)","lon":"121.56997","lat":"31.22418","category":"656","category_name":"大门","address":"柳杉路99弄"},{"poiid":"B2094655D268A1F4499D","title":"锦绣小区(北一门)","lon":"121.56822","lat":"31.2255","category":"656","category_name":"大门","address":""},{"poiid":"B2094757D06FA5FC419A","title":"藏珑泰极(大拇指广场店)","lon":"121.56025","lat":"31.22682","category":"99","category_name":"泰国／越南菜品餐厅","address":"浦东新区芳甸路199弄大拇指广场19号3楼(近丁香路)"},{"poiid":"B2094757D06FA5F84992","title":"汉舍中国菜馆(丁香路店)","lon":"121.56411","lat":"31.22915","category":"71","category_name":"四川菜","address":"浦东新区丁香路1399弄30号3楼(近紫槐路)"},{"poiid":"B2094654DB6AA6FF449F","title":"证大丽笙酒店","lon":"121.56049","lat":"31.22634","category":"213","category_name":"五星级宾馆","address":"浦东新区迎春路1199号(近芳甸路)"},{"poiid":"B2094757D06FA7F4479C","title":"仁恒河滨城","lon":"121.5674189","lat":"31.227980431","category":"47","category_name":"住宅区","address":"奉贤区南桥南奉公路8889号"},{"poiid":"B2094757D569A1FD4199","title":"埔里老镇","lon":"121.5603125","lat":"31.22719916","category":"91","category_name":"台湾菜","address":"浦东新区芳甸路199弄大拇指广场19号2楼(近迎春路)"},{"poiid":"B2094757D06BA5F9419F","title":"瑞亚湖滨精品酒店","lon":"121.57144497","lat":"31.224963937","category":"217","category_name":"旅馆招待所","address":"上海市浦东新区罗山路1609号"},{"poiid":"B2094757D068A2FD489E","title":"九间堂","lon":"121.5620138","lat":"31.222304185","category":"500","category_name":"未知分类","address":"浦东新区芳甸路599弄1号(近锦绣路)"},{"poiid":"B2094757D469A3F5429C","title":"瑞亚湖滨酒店多功能厅","lon":"121.570945","lat":"31.226697","category":"76","category_name":"上海菜","address":"罗山路1609号瑞亚湖滨酒店1楼近锦绣路"},{"poiid":"B2094757D069A0F84892","title":"希腊餐厅(芳甸路店)","lon":"121.559723585","lat":"31.2261000756","category":"94","category_name":"西餐厅","address":"浦东新区芳甸路199弄证大大拇指广场43号1楼41铺(近杨高中路)"},{"poiid":"B2094757D068ABFF459F","title":"永达东风日产4s店","lon":"121.570136","lat":"31.226448","category":"158","category_name":"汽车销售","address":"上海罗山路1447号"},{"poiid":"B2094655D36CA0FD459E","title":"锦绣路罗山路","lon":"121.56943","lat":"31.22644","category":"38","category_name":"公交车站","address":""},{"poiid":"B2094655D26EA0FC4492","title":"沃歌斯","lon":"121.55816","lat":"31.23072","category":"94","category_name":"西餐厅","address":"浦东新区芳甸路199弄证大大拇指广场31号(南洋泾路杨高中路)"},{"poiid":"B2094757D569A3FB409D","title":"仁恒河滨城一期","lon":"121.566375","lat":"31.22726806","category":"47","category_name":"住宅区","address":"上海市浦东新区丁香路1599弄"},{"poiid":"B2094757D06AA7F5499E","title":"东风本田汽车冠松4S","lon":"121.571006","lat":"31.226105","category":"158","category_name":"汽车销售","address":"浦东新区罗山路1589号(近锦绣路)"},{"poiid":"B2094654DB64A6FA4292","title":"香啡缤 大拇指广场店 Coffee Bean&Tea Leaf","lon":"121.559246054","lat":"31.227108793","category":"260","category_name":"其他","address":"浦东新区芳甸路199弄证大大拇指广场内(近杨高中路)"},{"poiid":"B2094655D26FA5F84293","title":"御翠园","lon":"121.5723460187","lat":"31.223593222378","category":"47","category_name":"住宅区","address":"上海市浦东新区花木路1883弄"},{"poiid":"B2094654DA69A2FA4399","title":"广洋新景苑","lon":"121.56838","lat":"31.22351","category":"47","category_name":"住宅区","address":"柳杉路99弄1-27号"},{"poiid":"B2094757D06FABFA469F","title":"紫竹国际大厦","lon":"121.56824976597","lat":"31.217863825633","category":"46","category_name":"楼宇","address":"普陀区大渡河路588号"},{"poiid":"B2094654DA69A2FA4699","title":"锦绣小区","lon":"121.56915","lat":"31.225288","category":"47","category_name":"住宅区","address":"罗山路1700弄"},{"poiid":"B2094757D465A5FB479F","title":"东村韩料理","lon":"121.5687457","lat":"31.2261111","category":"96","category_name":"韩国料理","address":"浦东新区锦绣路33号(近罗山路)"},{"poiid":"B2094655D26FA1FD439D","title":"金桂花园","lon":"121.56894","lat":"31.22519","category":"47","category_name":"住宅区","address":""},{"poiid":"B2094751D469A0F8479C","title":"唐鱼儿麻辣鲜鱼火锅","lon":"121.560104","lat":"31.225509","category":"86","category_name":"火锅店","address":"浦东新区芳甸路199弄40号大拇指广场46号(近迎春路)"},{"poiid":"B2094654DA6AA1FA419A","title":"上海瑞东医院(瑞金医院浦东分院)","lon":"121.57312","lat":"31.22623","category":"162","category_name":"医院","address":"浦东新区锦绣东路120"},{"poiid":"B2094654DB6BAAFC449E","title":"花木社区卫生服务中心钦洋服务站","lon":"121.56812","lat":"31.22545","category":"162","category_name":"医院","address":""},{"poiid":"B2094654DA69A2FA469E","title":"金桂家园","lon":"121.56998","lat":"31.224915","category":"47","category_name":"住宅区","address":"罗山路1700弄1-8号"},{"poiid":"B2094757D169AAF84298","title":"东方幼儿园仁恒部","lon":"121.56943897","lat":"31.226610976","category":"253","category_name":"校园生活","address":"浦东新区锦绣路50号(罗山路口)"},{"poiid":"B2094757D16AA4F84093","title":"宠乐道宠物医院柳杉分院","lon":"121.56647197","lat":"31.224570928","category":"162","category_name":"医院","address":"上海市浦东新区柳杉路47号"},{"poiid":"B2094655D26DA7F9419E","title":"金桂家园(南门)","lon":"121.56994","lat":"31.22437","category":"47","category_name":"住宅区","address":"罗山路1700弄1-8号"},{"poiid":"B2094757D064ABFA429C","title":"进才实验小学","lon":"121.562418475","lat":"31.2299315537","category":"56","category_name":"小学","address":"上海丁香路1289号"},{"poiid":"B2094654DA69A2FA439E","title":"克丽缇娜(柳杉路)","lon":"121.567","lat":"31.22391","category":"148","category_name":"美容美发店","address":"柳杉路71"},{"poiid":"B2094655D26DABFC4392","title":"浦东虹桥花园","lon":"121.56442","lat":"31.226006","category":"47","category_name":"住宅区","address":"锦绣路300弄1-37号"},{"poiid":"B2094655D36CA6F44692","title":"丁香路锦绣路","lon":"121.56621","lat":"31.22586","category":"38","category_name":"公交车站","address":""},{"poiid":"B2094654DA69A2FA449F","title":"宝乐宠物医院浦东店","lon":"121.56683","lat":"31.22473","category":"162","category_name":"医院","address":"浦东新区柳杉路25号(近锦绣路)"},{"poiid":"B2094757D06AA3F8419D","title":"仁恒河滨城邻里之家","lon":"121.56327257","lat":"31.228929767","category":"500","category_name":"未知分类","address":"上海浦东丁香路1399弄30号"},{"poiid":"B2094654DB6BAAFD419E","title":"东方幼儿园","lon":"121.56922","lat":"31.22678","category":"57","category_name":"幼儿园","address":"锦绣路50号"},{"poiid":"B2094655D26BA7FB4298","title":"曼都佳人SPA馆联洋2馆","lon":"121.56699","lat":"31.22401","category":"148","category_name":"美容美发店","address":"柳杉路63"},{"poiid":"B2094757D569A7F9429B","title":"钦洋镇图书馆","lon":"121.567461","lat":"31.225471","category":"125","category_name":"书店","address":"黄浦区锦绣路95-101号(丁香路锦绣路)"},{"poiid":"B2094757D16AA6F8449C","title":"中国石化加油站(锦绣路罗山路口)","lon":"121.5705434","lat":"31.226545154","category":"154","category_name":"加油加气站","address":"上海浦东新区锦绣路罗山路口"},{"poiid":"B2094757D469A3F4459E","title":"瑞亚湖滨酒店艾提西餐厅","lon":"121.570934","lat":"31.226669","category":"94","category_name":"西餐厅","address":"罗山路1609号瑞亚湖滨酒店1楼近锦绣路"},{"poiid":"B2094654DA69A2FA4398","title":"小风车广洋新景幼儿园","lon":"121.56747","lat":"31.22271","category":"57","category_name":"幼儿园","address":"浦东新区花四路99弄27号"},{"poiid":"B209475CDB6EA5FF4192","title":"上海开元曼居酒店(原上海瑞亚湖滨酒店)","lon":"121.571706","lat":"31.225285","category":"214","category_name":"四星级宾馆","address":"浦东新区罗山路1609号(新国际博览中心区域,内环高架路旁)"},{"poiid":"B2094750DA68A4F4449A","title":"Blue Marlin","lon":"121.560188","lat":"31.227334","category":"248","category_name":"生活娱乐","address":"浦东新区芳甸路199弄17号大拇指广场"},{"poiid":"B2094757D16EA1FF4699","title":"冠松汽车维修服务有限公司","lon":"121.57004975","lat":"31.226869182","category":"500","category_name":"未知分类","address":"上海市浦东新区罗山路1589号"},{"poiid":"B2094654DA69A2FA4492","title":"金色维也纳","lon":"121.56512","lat":"31.22323","category":"47","category_name":"住宅区","address":"锦绣路333弄1-56号"},{"poiid":"B2094757D069A4FC4598","title":"城市超市(联洋店)","lon":"121.56768","lat":"31.2277","category":"118","category_name":"超级市场","address":"浦东新区丁香路1399弄30号仁恒河滨城邻里之家107室(近芳甸路)"},{"poiid":"B2094757D569A2FC4298","title":"东方明珠花店","lon":"121.5659169","lat":"31.22616694","category":"120","category_name":"小商品市场","address":"浦东新区锦绣路300弄虹桥花园18号1002室(迎春路紫槐路)"},{"poiid":"B2094757D068A1F9429C","title":"家乐福(大拇指广场店)","lon":"121.55993652","lat":"31.226459503","category":"118","category_name":"超级市场","address":"上海浦东新区芳甸路199弄 大拇指广场地下一层"},{"poiid":"B2094655D26DA7F44892","title":"锦绣小区(北门)","lon":"121.5685","lat":"31.22562","category":"656","category_name":"大门","address":""},{"poiid":"B2094655D26DA0FC489B","title":"广洋新景苑(东门)","lon":"121.56997","lat":"31.22418","category":"656","category_name":"大门","address":"柳杉路99弄"},{"poiid":"B2094655D268A1F4499D","title":"锦绣小区(北一门)","lon":"121.56822","lat":"31.2255","category":"656","category_name":"大门","address":""}]