[{"poiid":"B2094654DB6BAAFF479F","title":"辛香汇 浦东店 Spicy-Joint","lon":"121.518751054","lat":"31.228442793","category":"71","category_name":"四川菜","address":"浦东新区张杨路601号浦东国际食品城5楼(近南泉北路)"},{"poiid":"B2094655D26AABF84692","title":"好乐迪量贩式KTV张杨路店","lon":"121.5182","lat":"31.22827","category":"170","category_name":"KTV","address":"浦东新区张杨路579号三鑫大厦3-4楼(近南泉北路)"},{"poiid":"B2094757D06FA1FD409B","title":"和彩日本料理","lon":"121.517798738","lat":"31.2313843247","category":"95","category_name":"日本料理","address":"浦东新区商城路665号1885广场C栋2楼(近南泉北路)"},{"poiid":"B209475CD564A7F84392","title":"上海滩浦东香格里拉店","lon":"121.50058","lat":"31.23634","category":"119","category_name":"商场","address":"浦东富成路33号香格里拉酒店内大堂层"},{"poiid":"B2094750DA6AAAF94193","title":"冰火名家巫山烤全鱼(八佰伴店)","lon":"121.51864311790473","lat":"31.228267629831056","category":"71","category_name":"四川菜","address":"浦东新区张杨路601号浦东国际美食城B-28号铺(近八佰伴)"},{"poiid":"B2094654DB69A6FB4799","title":"豆捞坊火锅(浦东店)","lon":"121.51887","lat":"31.22853","category":"86","category_name":"火锅店","address":"浦东新区张杨路601号浦东国际美食城9楼(近南泉北路)"},{"poiid":"B2094757D06FAAF5459B","title":"俏江南(1885会所店)","lon":"121.51789791","lat":"31.231302387","category":"71","category_name":"四川菜","address":"浦东新区商城路665号A栋(近南泉北路)"},{"poiid":"B2094655D26DA0FD439C","title":"浦东食品城","lon":"121.51888","lat":"31.22852","category":"119","category_name":"商场","address":"浦东新区张杨路601号华城大厦1-5楼(近南泉北路)"},{"poiid":"B2094750D56DABF5409E","title":"美乐点心","lon":"121.517372","lat":"31.229715","category":"72","category_name":"广东菜","address":"浦东新区浦东南路1085号-1(近商城路831开业)"},{"poiid":"B2094757D069A7F5429C","title":"东来顺饭庄(张杨店)","lon":"121.518544","lat":"31.228408","category":"86","category_name":"火锅店","address":"浦东新区张杨路579号第一食品5楼(近南泉北路)"},{"poiid":"B2094757DB6AA6FC499C","title":"古丽仙西域情餐厅 八佰伴店","lon":"121.519174","lat":"31.228538","category":"90","category_name":"清真餐馆","address":"浦东新区张杨路601号浦东食品城3楼(近南泉北路)"},{"poiid":"B2094757D06FA2FF499B","title":"寿司王子(南泉北路店)","lon":"121.51901","lat":"31.22907","category":"95","category_name":"日本料理","address":"浦东新区南泉北路588号新大陆广场1楼(近张杨路)"},{"poiid":"B2094757D06AA2FB4698","title":"丰收日大酒店","lon":"121.517091","lat":"31.229958","category":"75","category_name":"浙江菜","address":"浦东新区商城路518号(南泉北路口)"},{"poiid":"B2094757DA68A6F84798","title":"黄记煌三汁焖锅（第一八佰伴店）","lon":"121.518874168396","lat":"31.22920640271039","category":"247","category_name":"餐饮美食","address":"浦东新区张杨路601号浦东食品城4楼(近百脑汇)"},{"poiid":"B2094757D16FA3F9479E","title":"好乐迪","lon":"121.51806973","lat":"31.228474262","category":"500","category_name":"未知分类","address":"上海市浦东新区浦东南路"},{"poiid":"B2094757D465A3F9489E","title":"神田烧肉 浦东店 Asaka Kanda","lon":"121.518275054","lat":"31.228157793","category":"269","category_name":"烧烤","address":"浦东新区张杨路579号三鑫世界商厦3楼(近南泉北路)"},{"poiid":"B2094757D06AA6FC449A","title":"百脑汇","lon":"121.51918815","lat":"31.228575644","category":"500","category_name":"未知分类","address":"上海张杨路"},{"poiid":"B2094757D06FA0F94193","title":"掌柜的店(八佰伴店)","lon":"121.51844673","lat":"31.228917272","category":"260","category_name":"其他","address":"浦东新区张杨路601号浦东国际美食城3楼(近南泉北路)"},{"poiid":"B2094654DB6BAAFF4792","title":"麦当劳张杨路店","lon":"121.51888","lat":"31.22853","category":"68","category_name":"快餐厅","address":"浦东新区张杨路601号浦东国际美食城1-2楼(近南泉北路)"},{"poiid":"B2094757DA69A0FC469A","title":"家有好面 张杨店","lon":"121.5182","lat":"31.22806","category":"68","category_name":"快餐厅","address":"浦东新区张杨路579号三鑫大厦3楼"},{"poiid":"B2094654DA69ABFB429D","title":"汤臣中心","lon":"121.518409","lat":"31.230626","category":"46","category_name":"楼宇","address":"上海市闵行区莲花南路1500弄"},{"poiid":"B2094757D068A2F5459D","title":"锅德港式极品肥牛海鲜火锅(商城路店)","lon":"121.517326627","lat":"31.2313725467","category":"86","category_name":"火锅店","address":"浦东新区商城路665号B栋1885广场3楼(近南泉北路)"},{"poiid":"B2094757D06FA6FC4493","title":"禾绿寿司(新梅店)","lon":"121.51643","lat":"31.22954","category":"95","category_name":"日本料理","address":"上海浦东新区浦东南路999号新梅联合大厦4楼(近商城路)"},{"poiid":"B2094757D06FA7FF489F","title":"DQ冰雪皇后(华诚店)","lon":"121.51900003","lat":"31.2283833029","category":"113","category_name":"冷饮店","address":"浦东新区张杨路601号浦东国际美食城1楼(近南泉北路)"},{"poiid":"B2094753D468A5FD4093","title":"洞子张老匠火锅","lon":"121.516944","lat":"31.229545","category":"247","category_name":"餐饮美食","address":"上海市 浦东南路1085号华申大厦3楼美食广场内(近新梅广场)"},{"poiid":"B2094757D06FA3FF4992","title":"大渔铁板烧(八佰伴店)","lon":"121.51734173","lat":"31.228948272","category":"95","category_name":"日本料理","address":"浦东新区张杨路501号第一八佰伴9楼(近浦东南路)"},{"poiid":"B2094757D06FA0F54493","title":"海之幸(新梅旗舰店)","lon":"121.51637","lat":"31.22958","category":"95","category_name":"日本料理","address":"浦东新区浦东南路999号新梅联合广场404室(近商城路)"},{"poiid":"B2094757D06FABFD499D","title":"棒约翰比萨(张杨路店)","lon":"121.519131138","lat":"31.2284537615","category":"94","category_name":"西餐厅","address":"浦东新区张杨路601号浦东国际美食城1楼(近南泉北路)"},{"poiid":"B2094654DA69A0F9469E","title":"上海市第一食品股份有限公司","lon":"121.51836","lat":"31.22838","category":"263","category_name":"公司","address":"张杨路579号三鑫世界商厦6层"},{"poiid":"B2094757D06FA7FF499E","title":"东方书城(商城路店)","lon":"121.51874876","lat":"31.2305100689","category":"125","category_name":"书店","address":"浦东新区商城路660号乐凯大厦南广场(近南泉北路)"},{"poiid":"B2094654DB65A4FF419D","title":"新梅万豪行政公寓","lon":"121.51623","lat":"31.2298","category":"268","category_name":"自助","address":"浦东新区商城路506号5楼(近浦东南路)"},{"poiid":"B2094655D26BAAF9439A","title":"正院上海公馆 Shanghai Grand mansion restaurant","lon":"121.51692152023","lat":"31.231756803853","category":"247","category_name":"餐饮美食","address":"浦东新区商城路665号C栋2-4楼(近南泉北路)"},{"poiid":"B2094750D664A2FF4992","title":"V5麻辣香锅","lon":"121.519","lat":"31.2284","category":"71","category_name":"四川菜","address":"浦东新区张杨路601号浦东食品3楼(近世纪大道)"},{"poiid":"B2094757D06FA5FB469E","title":"楚楚园馅饼粥(浦东店)","lon":"121.51867","lat":"31.22839","category":"68","category_name":"快餐厅","address":"张杨路601号浦东国际食品城3楼近南泉北路(原崂山西路)"},{"poiid":"B2094757D069A2FF469F","title":"汉堡王(浦东南路店)","lon":"121.51685868","lat":"31.228531449","category":"68","category_name":"快餐厅","address":"浦东新区浦东南路1085-5号(近张杨路)"},{"poiid":"B2094757D06FA0FC449D","title":"自游玩国动漫体验中心","lon":"121.51687622","lat":"31.22917366","category":"173","category_name":"游戏厅","address":"浦东新区浦东南路1085号华申大厦2楼(近商城路)"},{"poiid":"B2094654DB6BAAFE4293","title":"苏宁电器(浦东第一店)","lon":"121.51723","lat":"31.22891","category":"138","category_name":"家电电子卖场","address":"浦东南路1101号1-3层"},{"poiid":"B2094757D06FA4F8499C","title":"苏宁电器(远东店)","lon":"121.517667","lat":"31.228917","category":"138","category_name":"家电电子卖场","address":"浦东新区南泉北路569号(近第一八佰伴)"},{"poiid":"B209475CD664A0FE4798","title":"江边城外烤全鱼","lon":"121.516685","lat":"31.229349","category":"247","category_name":"餐饮美食","address":"上海市 浦东南路1085号华申大厦3楼(近八佰伴)"},{"poiid":"B2094654DA69A0FE429D","title":"内外联大厦","lon":"121.51708","lat":"31.22996","category":"46","category_name":"楼宇","address":"丰台学城海鹰路1号，3号"},{"poiid":"B2094654DB6BAAFF489C","title":"远东大厦","lon":"121.51739","lat":"31.22911","category":"46","category_name":"楼宇","address":"上海市浦东新区金桥路983号"},{"poiid":"B2094757D06FA5FD4893","title":"大家乐(南泉北路店)","lon":"121.51817","lat":"31.22878","category":"68","category_name":"快餐厅","address":"浦东新区南泉北路588号新大陆广场NL014室(近八佰伴)"},{"poiid":"B209475CD269A4F84192","title":"江边城外巫山烤全鱼","lon":"121.516281","lat":"31.229604","category":"247","category_name":"餐饮美食","address":"上海市 浦东南路1085号3楼"},{"poiid":"B2094757D068A6F44092","title":"大娘水饺(国际美食城店)","lon":"121.51869627","lat":"31.228596032","category":"68","category_name":"快餐厅","address":"浦东新区张杨路601号浦东国际美食城1-2楼(近南泉北路)"},{"poiid":"B2094757D465A4FC459A","title":"虾比蟹大","lon":"121.518751054","lat":"31.228442793","category":"71","category_name":"四川菜","address":"浦东新区张杨路601号浦东国际美食城2楼(近南泉北路)"},{"poiid":"B2094757D16CA3FA469B","title":"浦东国际美食城","lon":"121.517891738","lat":"31.2294662838","category":"247","category_name":"餐饮美食","address":"上海浦东新区张杨路601号"},{"poiid":"B2094654DB69A6F4479F","title":"吉野家  浦东食品城店","lon":"121.518751054","lat":"31.228442793","category":"95","category_name":"日本料理","address":"浦东新区张杨路601号浦东国际美食城1楼(近南泉北路)"},{"poiid":"B2094750D768A2F44193","title":"R&B世界茶饮(新大陆广场店)","lon":"121.518","lat":"31.2293","category":"113","category_name":"冷饮店","address":"浦东新区张杨路588号百脑汇1楼(近八佰伴)"},{"poiid":"B2094757D065A5FF4298","title":"新贝乐","lon":"121.51895973","lat":"31.228736268","category":"249","category_name":"购物服务","address":"上海市浦东新区张杨路601号3F"},{"poiid":"B2094655D265A4FE469D","title":"中国商飞大厦","lon":"121.51630152272","lat":"31.230553292743","category":"46","category_name":"楼宇","address":"张杨路25号"},{"poiid":"B2094654DB6BAAFF479F","title":"辛香汇 浦东店 Spicy-Joint","lon":"121.518751054","lat":"31.228442793","category":"71","category_name":"四川菜","address":"浦东新区张杨路601号浦东国际食品城5楼(近南泉北路)"},{"poiid":"B2094655D26AABF84692","title":"好乐迪量贩式KTV张杨路店","lon":"121.5182","lat":"31.22827","category":"170","category_name":"KTV","address":"浦东新区张杨路579号三鑫大厦3-4楼(近南泉北路)"},{"poiid":"B2094757D06FA1FD409B","title":"和彩日本料理","lon":"121.517798738","lat":"31.2313843247","category":"95","category_name":"日本料理","address":"浦东新区商城路665号1885广场C栋2楼(近南泉北路)"},{"poiid":"B209475CD564A7F84392","title":"上海滩浦东香格里拉店","lon":"121.50058","lat":"31.23634","category":"119","category_name":"商场","address":"浦东富成路33号香格里拉酒店内大堂层"},{"poiid":"B2094750DA6AAAF94193","title":"冰火名家巫山烤全鱼(八佰伴店)","lon":"121.51864311790473","lat":"31.228267629831056","category":"71","category_name":"四川菜","address":"浦东新区张杨路601号浦东国际美食城B-28号铺(近八佰伴)"},{"poiid":"B2094654DB69A6FB4799","title":"豆捞坊火锅(浦东店)","lon":"121.51887","lat":"31.22853","category":"86","category_name":"火锅店","address":"浦东新区张杨路601号浦东国际美食城9楼(近南泉北路)"},{"poiid":"B2094757D06FAAF5459B","title":"俏江南(1885会所店)","lon":"121.51789791","lat":"31.231302387","category":"71","category_name":"四川菜","address":"浦东新区商城路665号A栋(近南泉北路)"},{"poiid":"B2094655D26DA0FD439C","title":"浦东食品城","lon":"121.51888","lat":"31.22852","category":"119","category_name":"商场","address":"浦东新区张杨路601号华城大厦1-5楼(近南泉北路)"},{"poiid":"B2094750D56DABF5409E","title":"美乐点心","lon":"121.517372","lat":"31.229715","category":"72","category_name":"广东菜","address":"浦东新区浦东南路1085号-1(近商城路831开业)"},{"poiid":"B2094757D069A7F5429C","title":"东来顺饭庄(张杨店)","lon":"121.518544","lat":"31.228408","category":"86","category_name":"火锅店","address":"浦东新区张杨路579号第一食品5楼(近南泉北路)"},{"poiid":"B2094757DB6AA6FC499C","title":"古丽仙西域情餐厅 八佰伴店","lon":"121.519174","lat":"31.228538","category":"90","category_name":"清真餐馆","address":"浦东新区张杨路601号浦东食品城3楼(近南泉北路)"},{"poiid":"B2094757D06FA2FF499B","title":"寿司王子(南泉北路店)","lon":"121.51901","lat":"31.22907","category":"95","category_name":"日本料理","address":"浦东新区南泉北路588号新大陆广场1楼(近张杨路)"},{"poiid":"B2094757D06AA2FB4698","title":"丰收日大酒店","lon":"121.517091","lat":"31.229958","category":"75","category_name":"浙江菜","address":"浦东新区商城路518号(南泉北路口)"},{"poiid":"B2094757DA68A6F84798","title":"黄记煌三汁焖锅（第一八佰伴店）","lon":"121.518874168396","lat":"31.22920640271039","category":"247","category_name":"餐饮美食","address":"浦东新区张杨路601号浦东食品城4楼(近百脑汇)"},{"poiid":"B2094757D16FA3F9479E","title":"好乐迪","lon":"121.51806973","lat":"31.228474262","category":"500","category_name":"未知分类","address":"上海市浦东新区浦东南路"},{"poiid":"B2094757D465A3F9489E","title":"神田烧肉 浦东店 Asaka Kanda","lon":"121.518275054","lat":"31.228157793","category":"269","category_name":"烧烤","address":"浦东新区张杨路579号三鑫世界商厦3楼(近南泉北路)"},{"poiid":"B2094757D06AA6FC449A","title":"百脑汇","lon":"121.51918815","lat":"31.228575644","category":"500","category_name":"未知分类","address":"上海张杨路"},{"poiid":"B2094757D06FA0F94193","title":"掌柜的店(八佰伴店)","lon":"121.51844673","lat":"31.228917272","category":"260","category_name":"其他","address":"浦东新区张杨路601号浦东国际美食城3楼(近南泉北路)"},{"poiid":"B2094654DB6BAAFF4792","title":"麦当劳张杨路店","lon":"121.51888","lat":"31.22853","category":"68","category_name":"快餐厅","address":"浦东新区张杨路601号浦东国际美食城1-2楼(近南泉北路)"},{"poiid":"B2094757DA69A0FC469A","title":"家有好面 张杨店","lon":"121.5182","lat":"31.22806","category":"68","category_name":"快餐厅","address":"浦东新区张杨路579号三鑫大厦3楼"},{"poiid":"B2094654DA69ABFB429D","title":"汤臣中心","lon":"121.518409","lat":"31.230626","category":"46","category_name":"楼宇","address":"上海市闵行区莲花南路1500弄"},{"poiid":"B2094757D068A2F5459D","title":"锅德港式极品肥牛海鲜火锅(商城路店)","lon":"121.517326627","lat":"31.2313725467","category":"86","category_name":"火锅店","address":"浦东新区商城路665号B栋1885广场3楼(近南泉北路)"},{"poiid":"B2094757D06FA6FC4493","title":"禾绿寿司(新梅店)","lon":"121.51643","lat":"31.22954","category":"95","category_name":"日本料理","address":"上海浦东新区浦东南路999号新梅联合大厦4楼(近商城路)"},{"poiid":"B2094757D06FA7FF489F","title":"DQ冰雪皇后(华诚店)","lon":"121.51900003","lat":"31.2283833029","category":"113","category_name":"冷饮店","address":"浦东新区张杨路601号浦东国际美食城1楼(近南泉北路)"},{"poiid":"B2094753D468A5FD4093","title":"洞子张老匠火锅","lon":"121.516944","lat":"31.229545","category":"247","category_name":"餐饮美食","address":"上海市 浦东南路1085号华申大厦3楼美食广场内(近新梅广场)"},{"poiid":"B2094757D06FA3FF4992","title":"大渔铁板烧(八佰伴店)","lon":"121.51734173","lat":"31.228948272","category":"95","category_name":"日本料理","address":"浦东新区张杨路501号第一八佰伴9楼(近浦东南路)"},{"poiid":"B2094757D06FA0F54493","title":"海之幸(新梅旗舰店)","lon":"121.51637","lat":"31.22958","category":"95","category_name":"日本料理","address":"浦东新区浦东南路999号新梅联合广场404室(近商城路)"},{"poiid":"B2094757D06FABFD499D","title":"棒约翰比萨(张杨路店)","lon":"121.519131138","lat":"31.2284537615","category":"94","category_name":"西餐厅","address":"浦东新区张杨路601号浦东国际美食城1楼(近南泉北路)"},{"poiid":"B2094654DA69A0F9469E","title":"上海市第一食品股份有限公司","lon":"121.51836","lat":"31.22838","category":"263","category_name":"公司","address":"张杨路579号三鑫世界商厦6层"},{"poiid":"B2094757D06FA7FF499E","title":"东方书城(商城路店)","lon":"121.51874876","lat":"31.2305100689","category":"125","category_name":"书店","address":"浦东新区商城路660号乐凯大厦南广场(近南泉北路)"},{"poiid":"B2094654DB65A4FF419D","title":"新梅万豪行政公寓","lon":"121.51623","lat":"31.2298","category":"268","category_name":"自助","address":"浦东新区商城路506号5楼(近浦东南路)"},{"poiid":"B2094655D26BAAF9439A","title":"正院上海公馆 Shanghai Grand mansion restaurant","lon":"121.51692152023","lat":"31.231756803853","category":"247","category_name":"餐饮美食","address":"浦东新区商城路665号C栋2-4楼(近南泉北路)"},{"poiid":"B2094750D664A2FF4992","title":"V5麻辣香锅","lon":"121.519","lat":"31.2284","category":"71","category_name":"四川菜","address":"浦东新区张杨路601号浦东食品3楼(近世纪大道)"},{"poiid":"B2094757D06FA5FB469E","title":"楚楚园馅饼粥(浦东店)","lon":"121.51867","lat":"31.22839","category":"68","category_name":"快餐厅","address":"张杨路601号浦东国际食品城3楼近南泉北路(原崂山西路)"},{"poiid":"B2094757D069A2FF469F","title":"汉堡王(浦东南路店)","lon":"121.51685868","lat":"31.228531449","category":"68","category_name":"快餐厅","address":"浦东新区浦东南路1085-5号(近张杨路)"},{"poiid":"B2094757D06FA0FC449D","title":"自游玩国动漫体验中心","lon":"121.51687622","lat":"31.22917366","category":"173","category_name":"游戏厅","address":"浦东新区浦东南路1085号华申大厦2楼(近商城路)"},{"poiid":"B2094654DB6BAAFE4293","title":"苏宁电器(浦东第一店)","lon":"121.51723","lat":"31.22891","category":"138","category_name":"家电电子卖场","address":"浦东南路1101号1-3层"},{"poiid":"B2094757D06FA4F8499C","title":"苏宁电器(远东店)","lon":"121.517667","lat":"31.228917","category":"138","category_name":"家电电子卖场","address":"浦东新区南泉北路569号(近第一八佰伴)"},{"poiid":"B209475CD664A0FE4798","title":"江边城外烤全鱼","lon":"121.516685","lat":"31.229349","category":"247","category_name":"餐饮美食","address":"上海市 浦东南路1085号华申大厦3楼(近八佰伴)"},{"poiid":"B2094654DA69A0FE429D","title":"内外联大厦","lon":"121.51708","lat":"31.22996","category":"46","category_name":"楼宇","address":"丰台学城海鹰路1号，3号"},{"poiid":"B2094654DB6BAAFF489C","title":"远东大厦","lon":"121.51739","lat":"31.22911","category":"46","category_name":"楼宇","address":"上海市浦东新区金桥路983号"},{"poiid":"B2094757D06FA5FD4893","title":"大家乐(南泉北路店)","lon":"121.51817","lat":"31.22878","category":"68","category_name":"快餐厅","address":"浦东新区南泉北路588号新大陆广场NL014室(近八佰伴)"},{"poiid":"B209475CD269A4F84192","title":"江边城外巫山烤全鱼","lon":"121.516281","lat":"31.229604","category":"247","category_name":"餐饮美食","address":"上海市 浦东南路1085号3楼"},{"poiid":"B2094757D068A6F44092","title":"大娘水饺(国际美食城店)","lon":"121.51869627","lat":"31.228596032","category":"68","category_name":"快餐厅","address":"浦东新区张杨路601号浦东国际美食城1-2楼(近南泉北路)"},{"poiid":"B2094757D465A4FC459A","title":"虾比蟹大","lon":"121.518751054","lat":"31.228442793","category":"71","category_name":"四川菜","address":"浦东新区张杨路601号浦东国际美食城2楼(近南泉北路)"},{"poiid":"B2094757D16CA3FA469B","title":"浦东国际美食城","lon":"121.517891738","lat":"31.2294662838","category":"247","category_name":"餐饮美食","address":"上海浦东新区张杨路601号"},{"poiid":"B2094654DB69A6F4479F","title":"吉野家  浦东食品城店","lon":"121.518751054","lat":"31.228442793","category":"95","category_name":"日本料理","address":"浦东新区张杨路601号浦东国际美食城1楼(近南泉北路)"},{"poiid":"B2094750D768A2F44193","title":"R&B世界茶饮(新大陆广场店)","lon":"121.518","lat":"31.2293","category":"113","category_name":"冷饮店","address":"浦东新区张杨路588号百脑汇1楼(近八佰伴)"},{"poiid":"B2094757D065A5FF4298","title":"新贝乐","lon":"121.51895973","lat":"31.228736268","category":"249","category_name":"购物服务","address":"上海市浦东新区张杨路601号3F"},{"poiid":"B2094655D265A4FE469D","title":"中国商飞大厦","lon":"121.51630152272","lat":"31.230553292743","category":"46","category_name":"楼宇","address":"张杨路25号"},{"poiid":"B2094654DB6BAAFF479F","title":"辛香汇 浦东店 Spicy-Joint","lon":"121.518751054","lat":"31.228442793","category":"71","category_name":"四川菜","address":"浦东新区张杨路601号浦东国际食品城5楼(近南泉北路)"},{"poiid":"B2094655D26AABF84692","title":"好乐迪量贩式KTV张杨路店","lon":"121.5182","lat":"31.22827","category":"170","category_name":"KTV","address":"浦东新区张杨路579号三鑫大厦3-4楼(近南泉北路)"},{"poiid":"B2094757D06FA1FD409B","title":"和彩日本料理","lon":"121.517798738","lat":"31.2313843247","category":"95","category_name":"日本料理","address":"浦东新区商城路665号1885广场C栋2楼(近南泉北路)"},{"poiid":"B209475CD564A7F84392","title":"上海滩浦东香格里拉店","lon":"121.50058","lat":"31.23634","category":"119","category_name":"商场","address":"浦东富成路33号香格里拉酒店内大堂层"},{"poiid":"B2094750DA6AAAF94193","title":"冰火名家巫山烤全鱼(八佰伴店)","lon":"121.51864311790473","lat":"31.228267629831056","category":"71","category_name":"四川菜","address":"浦东新区张杨路601号浦东国际美食城B-28号铺(近八佰伴)"},{"poiid":"B2094654DB69A6FB4799","title":"豆捞坊火锅(浦东店)","lon":"121.51887","lat":"31.22853","category":"86","category_name":"火锅店","address":"浦东新区张杨路601号浦东国际美食城9楼(近南泉北路)"},{"poiid":"B2094757D06FAAF5459B","title":"俏江南(1885会所店)","lon":"121.51789791","lat":"31.231302387","category":"71","category_name":"四川菜","address":"浦东新区商城路665号A栋(近南泉北路)"},{"poiid":"B2094655D26DA0FD439C","title":"浦东食品城","lon":"121.51888","lat":"31.22852","category":"119","category_name":"商场","address":"浦东新区张杨路601号华城大厦1-5楼(近南泉北路)"},{"poiid":"B2094750D56DABF5409E","title":"美乐点心","lon":"121.517372","lat":"31.229715","category":"72","category_name":"广东菜","address":"浦东新区浦东南路1085号-1(近商城路831开业)"},{"poiid":"B2094757D069A7F5429C","title":"东来顺饭庄(张杨店)","lon":"121.518544","lat":"31.228408","category":"86","category_name":"火锅店","address":"浦东新区张杨路579号第一食品5楼(近南泉北路)"},{"poiid":"B2094757DB6AA6FC499C","title":"古丽仙西域情餐厅 八佰伴店","lon":"121.519174","lat":"31.228538","category":"90","category_name":"清真餐馆","address":"浦东新区张杨路601号浦东食品城3楼(近南泉北路)"},{"poiid":"B2094757D06FA2FF499B","title":"寿司王子(南泉北路店)","lon":"121.51901","lat":"31.22907","category":"95","category_name":"日本料理","address":"浦东新区南泉北路588号新大陆广场1楼(近张杨路)"},{"poiid":"B2094757D06AA2FB4698","title":"丰收日大酒店","lon":"121.517091","lat":"31.229958","category":"75","category_name":"浙江菜","address":"浦东新区商城路518号(南泉北路口)"},{"poiid":"B2094757DA68A6F84798","title":"黄记煌三汁焖锅（第一八佰伴店）","lon":"121.518874168396","lat":"31.22920640271039","category":"247","category_name":"餐饮美食","address":"浦东新区张杨路601号浦东食品城4楼(近百脑汇)"},{"poiid":"B2094757D16FA3F9479E","title":"好乐迪","lon":"121.51806973","lat":"31.228474262","category":"500","category_name":"未知分类","address":"上海市浦东新区浦东南路"},{"poiid":"B2094757D465A3F9489E","title":"神田烧肉 浦东店 Asaka Kanda","lon":"121.518275054","lat":"31.228157793","category":"269","category_name":"烧烤","address":"浦东新区张杨路579号三鑫世界商厦3楼(近南泉北路)"},{"poiid":"B2094757D06AA6FC449A","title":"百脑汇","lon":"121.51918815","lat":"31.228575644","category":"500","category_name":"未知分类","address":"上海张杨路"},{"poiid":"B2094757D06FA0F94193","title":"掌柜的店(八佰伴店)","lon":"121.51844673","lat":"31.228917272","category":"260","category_name":"其他","address":"浦东新区张杨路601号浦东国际美食城3楼(近南泉北路)"},{"poiid":"B2094654DB6BAAFF4792","title":"麦当劳张杨路店","lon":"121.51888","lat":"31.22853","category":"68","category_name":"快餐厅","address":"浦东新区张杨路601号浦东国际美食城1-2楼(近南泉北路)"},{"poiid":"B2094757DA69A0FC469A","title":"家有好面 张杨店","lon":"121.5182","lat":"31.22806","category":"68","category_name":"快餐厅","address":"浦东新区张杨路579号三鑫大厦3楼"},{"poiid":"B2094654DA69ABFB429D","title":"汤臣中心","lon":"121.518409","lat":"31.230626","category":"46","category_name":"楼宇","address":"上海市闵行区莲花南路1500弄"},{"poiid":"B2094757D068A2F5459D","title":"锅德港式极品肥牛海鲜火锅(商城路店)","lon":"121.517326627","lat":"31.2313725467","category":"86","category_name":"火锅店","address":"浦东新区商城路665号B栋1885广场3楼(近南泉北路)"},{"poiid":"B2094757D06FA6FC4493","title":"禾绿寿司(新梅店)","lon":"121.51643","lat":"31.22954","category":"95","category_name":"日本料理","address":"上海浦东新区浦东南路999号新梅联合大厦4楼(近商城路)"},{"poiid":"B2094757D06FA7FF489F","title":"DQ冰雪皇后(华诚店)","lon":"121.51900003","lat":"31.2283833029","category":"113","category_name":"冷饮店","address":"浦东新区张杨路601号浦东国际美食城1楼(近南泉北路)"},{"poiid":"B2094753D468A5FD4093","title":"洞子张老匠火锅","lon":"121.516944","lat":"31.229545","category":"247","category_name":"餐饮美食","address":"上海市 浦东南路1085号华申大厦3楼美食广场内(近新梅广场)"},{"poiid":"B2094757D06FA3FF4992","title":"大渔铁板烧(八佰伴店)","lon":"121.51734173","lat":"31.228948272","category":"95","category_name":"日本料理","address":"浦东新区张杨路501号第一八佰伴9楼(近浦东南路)"},{"poiid":"B2094757D06FA0F54493","title":"海之幸(新梅旗舰店)","lon":"121.51637","lat":"31.22958","category":"95","category_name":"日本料理","address":"浦东新区浦东南路999号新梅联合广场404室(近商城路)"},{"poiid":"B2094757D06FABFD499D","title":"棒约翰比萨(张杨路店)","lon":"121.519131138","lat":"31.2284537615","category":"94","category_name":"西餐厅","address":"浦东新区张杨路601号浦东国际美食城1楼(近南泉北路)"},{"poiid":"B2094654DA69A0F9469E","title":"上海市第一食品股份有限公司","lon":"121.51836","lat":"31.22838","category":"263","category_name":"公司","address":"张杨路579号三鑫世界商厦6层"},{"poiid":"B2094757D06FA7FF499E","title":"东方书城(商城路店)","lon":"121.51874876","lat":"31.2305100689","category":"125","category_name":"书店","address":"浦东新区商城路660号乐凯大厦南广场(近南泉北路)"},{"poiid":"B2094654DB65A4FF419D","title":"新梅万豪行政公寓","lon":"121.51623","lat":"31.2298","category":"268","category_name":"自助","address":"浦东新区商城路506号5楼(近浦东南路)"},{"poiid":"B2094655D26BAAF9439A","title":"正院上海公馆 Shanghai Grand mansion restaurant","lon":"121.51692152023","lat":"31.231756803853","category":"247","category_name":"餐饮美食","address":"浦东新区商城路665号C栋2-4楼(近南泉北路)"},{"poiid":"B2094750D664A2FF4992","title":"V5麻辣香锅","lon":"121.519","lat":"31.2284","category":"71","category_name":"四川菜","address":"浦东新区张杨路601号浦东食品3楼(近世纪大道)"},{"poiid":"B2094757D06FA5FB469E","title":"楚楚园馅饼粥(浦东店)","lon":"121.51867","lat":"31.22839","category":"68","category_name":"快餐厅","address":"张杨路601号浦东国际食品城3楼近南泉北路(原崂山西路)"},{"poiid":"B2094757D069A2FF469F","title":"汉堡王(浦东南路店)","lon":"121.51685868","lat":"31.228531449","category":"68","category_name":"快餐厅","address":"浦东新区浦东南路1085-5号(近张杨路)"},{"poiid":"B2094757D06FA0FC449D","title":"自游玩国动漫体验中心","lon":"121.51687622","lat":"31.22917366","category":"173","category_name":"游戏厅","address":"浦东新区浦东南路1085号华申大厦2楼(近商城路)"},{"poiid":"B2094654DB6BAAFE4293","title":"苏宁电器(浦东第一店)","lon":"121.51723","lat":"31.22891","category":"138","category_name":"家电电子卖场","address":"浦东南路1101号1-3层"},{"poiid":"B2094757D06FA4F8499C","title":"苏宁电器(远东店)","lon":"121.517667","lat":"31.228917","category":"138","category_name":"家电电子卖场","address":"浦东新区南泉北路569号(近第一八佰伴)"},{"poiid":"B209475CD664A0FE4798","title":"江边城外烤全鱼","lon":"121.516685","lat":"31.229349","category":"247","category_name":"餐饮美食","address":"上海市 浦东南路1085号华申大厦3楼(近八佰伴)"},{"poiid":"B2094654DA69A0FE429D","title":"内外联大厦","lon":"121.51708","lat":"31.22996","category":"46","category_name":"楼宇","address":"丰台学城海鹰路1号，3号"},{"poiid":"B2094654DB6BAAFF489C","title":"远东大厦","lon":"121.51739","lat":"31.22911","category":"46","category_name":"楼宇","address":"上海市浦东新区金桥路983号"},{"poiid":"B2094757D06FA5FD4893","title":"大家乐(南泉北路店)","lon":"121.51817","lat":"31.22878","category":"68","category_name":"快餐厅","address":"浦东新区南泉北路588号新大陆广场NL014室(近八佰伴)"},{"poiid":"B209475CD269A4F84192","title":"江边城外巫山烤全鱼","lon":"121.516281","lat":"31.229604","category":"247","category_name":"餐饮美食","address":"上海市 浦东南路1085号3楼"},{"poiid":"B2094757D068A6F44092","title":"大娘水饺(国际美食城店)","lon":"121.51869627","lat":"31.228596032","category":"68","category_name":"快餐厅","address":"浦东新区张杨路601号浦东国际美食城1-2楼(近南泉北路)"},{"poiid":"B2094757D465A4FC459A","title":"虾比蟹大","lon":"121.518751054","lat":"31.228442793","category":"71","category_name":"四川菜","address":"浦东新区张杨路601号浦东国际美食城2楼(近南泉北路)"},{"poiid":"B2094757D16CA3FA469B","title":"浦东国际美食城","lon":"121.517891738","lat":"31.2294662838","category":"247","category_name":"餐饮美食","address":"上海浦东新区张杨路601号"},{"poiid":"B2094654DB69A6F4479F","title":"吉野家  浦东食品城店","lon":"121.518751054","lat":"31.228442793","category":"95","category_name":"日本料理","address":"浦东新区张杨路601号浦东国际美食城1楼(近南泉北路)"},{"poiid":"B2094750D768A2F44193","title":"R&B世界茶饮(新大陆广场店)","lon":"121.518","lat":"31.2293","category":"113","category_name":"冷饮店","address":"浦东新区张杨路588号百脑汇1楼(近八佰伴)"},{"poiid":"B2094757D065A5FF4298","title":"新贝乐","lon":"121.51895973","lat":"31.228736268","category":"249","category_name":"购物服务","address":"上海市浦东新区张杨路601号3F"},{"poiid":"B2094655D265A4FE469D","title":"中国商飞大厦","lon":"121.51630152272","lat":"31.230553292743","category":"46","category_name":"楼宇","address":"张杨路25号"},{"poiid":"B2094654DB6BAAFF479F","title":"辛香汇 浦东店 Spicy-Joint","lon":"121.518751054","lat":"31.228442793","category":"71","category_name":"四川菜","address":"浦东新区张杨路601号浦东国际食品城5楼(近南泉北路)"},{"poiid":"B2094655D26AABF84692","title":"好乐迪量贩式KTV张杨路店","lon":"121.5182","lat":"31.22827","category":"170","category_name":"KTV","address":"浦东新区张杨路579号三鑫大厦3-4楼(近南泉北路)"},{"poiid":"B2094757D06FA1FD409B","title":"和彩日本料理","lon":"121.517798738","lat":"31.2313843247","category":"95","category_name":"日本料理","address":"浦东新区商城路665号1885广场C栋2楼(近南泉北路)"},{"poiid":"B209475CD564A7F84392","title":"上海滩浦东香格里拉店","lon":"121.50058","lat":"31.23634","category":"119","category_name":"商场","address":"浦东富成路33号香格里拉酒店内大堂层"},{"poiid":"B2094750DA6AAAF94193","title":"冰火名家巫山烤全鱼(八佰伴店)","lon":"121.51864311790473","lat":"31.228267629831056","category":"71","category_name":"四川菜","address":"浦东新区张杨路601号浦东国际美食城B-28号铺(近八佰伴)"},{"poiid":"B2094654DB69A6FB4799","title":"豆捞坊火锅(浦东店)","lon":"121.51887","lat":"31.22853","category":"86","category_name":"火锅店","address":"浦东新区张杨路601号浦东国际美食城9楼(近南泉北路)"},{"poiid":"B2094757D06FAAF5459B","title":"俏江南(1885会所店)","lon":"121.51789791","lat":"31.231302387","category":"71","category_name":"四川菜","address":"浦东新区商城路665号A栋(近南泉北路)"},{"poiid":"B2094655D26DA0FD439C","title":"浦东食品城","lon":"121.51888","lat":"31.22852","category":"119","category_name":"商场","address":"浦东新区张杨路601号华城大厦1-5楼(近南泉北路)"},{"poiid":"B2094750D56DABF5409E","title":"美乐点心","lon":"121.517372","lat":"31.229715","category":"72","category_name":"广东菜","address":"浦东新区浦东南路1085号-1(近商城路831开业)"},{"poiid":"B2094757D069A7F5429C","title":"东来顺饭庄(张杨店)","lon":"121.518544","lat":"31.228408","category":"86","category_name":"火锅店","address":"浦东新区张杨路579号第一食品5楼(近南泉北路)"},{"poiid":"B2094757DB6AA6FC499C","title":"古丽仙西域情餐厅 八佰伴店","lon":"121.519174","lat":"31.228538","category":"90","category_name":"清真餐馆","address":"浦东新区张杨路601号浦东食品城3楼(近南泉北路)"},{"poiid":"B2094757D06FA2FF499B","title":"寿司王子(南泉北路店)","lon":"121.51901","lat":"31.22907","category":"95","category_name":"日本料理","address":"浦东新区南泉北路588号新大陆广场1楼(近张杨路)"},{"poiid":"B2094757D06AA2FB4698","title":"丰收日大酒店","lon":"121.517091","lat":"31.229958","category":"75","category_name":"浙江菜","address":"浦东新区商城路518号(南泉北路口)"},{"poiid":"B2094757DA68A6F84798","title":"黄记煌三汁焖锅（第一八佰伴店）","lon":"121.518874168396","lat":"31.22920640271039","category":"247","category_name":"餐饮美食","address":"浦东新区张杨路601号浦东食品城4楼(近百脑汇)"},{"poiid":"B2094757D16FA3F9479E","title":"好乐迪","lon":"121.51806973","lat":"31.228474262","category":"500","category_name":"未知分类","address":"上海市浦东新区浦东南路"},{"poiid":"B2094757D465A3F9489E","title":"神田烧肉 浦东店 Asaka Kanda","lon":"121.518275054","lat":"31.228157793","category":"269","category_name":"烧烤","address":"浦东新区张杨路579号三鑫世界商厦3楼(近南泉北路)"},{"poiid":"B2094757D06AA6FC449A","title":"百脑汇","lon":"121.51918815","lat":"31.228575644","category":"500","category_name":"未知分类","address":"上海张杨路"},{"poiid":"B2094757D06FA0F94193","title":"掌柜的店(八佰伴店)","lon":"121.51844673","lat":"31.228917272","category":"260","category_name":"其他","address":"浦东新区张杨路601号浦东国际美食城3楼(近南泉北路)"},{"poiid":"B2094654DB6BAAFF4792","title":"麦当劳张杨路店","lon":"121.51888","lat":"31.22853","category":"68","category_name":"快餐厅","address":"浦东新区张杨路601号浦东国际美食城1-2楼(近南泉北路)"},{"poiid":"B2094757DA69A0FC469A","title":"家有好面 张杨店","lon":"121.5182","lat":"31.22806","category":"68","category_name":"快餐厅","address":"浦东新区张杨路579号三鑫大厦3楼"},{"poiid":"B2094654DA69ABFB429D","title":"汤臣中心","lon":"121.518409","lat":"31.230626","category":"46","category_name":"楼宇","address":"上海市闵行区莲花南路1500弄"},{"poiid":"B2094757D068A2F5459D","title":"锅德港式极品肥牛海鲜火锅(商城路店)","lon":"121.517326627","lat":"31.2313725467","category":"86","category_name":"火锅店","address":"浦东新区商城路665号B栋1885广场3楼(近南泉北路)"},{"poiid":"B2094757D06FA6FC4493","title":"禾绿寿司(新梅店)","lon":"121.51643","lat":"31.22954","category":"95","category_name":"日本料理","address":"上海浦东新区浦东南路999号新梅联合大厦4楼(近商城路)"},{"poiid":"B2094757D06FA7FF489F","title":"DQ冰雪皇后(华诚店)","lon":"121.51900003","lat":"31.2283833029","category":"113","category_name":"冷饮店","address":"浦东新区张杨路601号浦东国际美食城1楼(近南泉北路)"},{"poiid":"B2094753D468A5FD4093","title":"洞子张老匠火锅","lon":"121.516944","lat":"31.229545","category":"247","category_name":"餐饮美食","address":"上海市 浦东南路1085号华申大厦3楼美食广场内(近新梅广场)"},{"poiid":"B2094757D06FA3FF4992","title":"大渔铁板烧(八佰伴店)","lon":"121.51734173","lat":"31.228948272","category":"95","category_name":"日本料理","address":"浦东新区张杨路501号第一八佰伴9楼(近浦东南路)"},{"poiid":"B2094757D06FA0F54493","title":"海之幸(新梅旗舰店)","lon":"121.51637","lat":"31.22958","category":"95","category_name":"日本料理","address":"浦东新区浦东南路999号新梅联合广场404室(近商城路)"},{"poiid":"B2094757D06FABFD499D","title":"棒约翰比萨(张杨路店)","lon":"121.519131138","lat":"31.2284537615","category":"94","category_name":"西餐厅","address":"浦东新区张杨路601号浦东国际美食城1楼(近南泉北路)"},{"poiid":"B2094654DA69A0F9469E","title":"上海市第一食品股份有限公司","lon":"121.51836","lat":"31.22838","category":"263","category_name":"公司","address":"张杨路579号三鑫世界商厦6层"},{"poiid":"B2094757D06FA7FF499E","title":"东方书城(商城路店)","lon":"121.51874876","lat":"31.2305100689","category":"125","category_name":"书店","address":"浦东新区商城路660号乐凯大厦南广场(近南泉北路)"},{"poiid":"B2094654DB65A4FF419D","title":"新梅万豪行政公寓","lon":"121.51623","lat":"31.2298","category":"268","category_name":"自助","address":"浦东新区商城路506号5楼(近浦东南路)"},{"poiid":"B2094655D26BAAF9439A","title":"正院上海公馆 Shanghai Grand mansion restaurant","lon":"121.51692152023","lat":"31.231756803853","category":"247","category_name":"餐饮美食","address":"浦东新区商城路665号C栋2-4楼(近南泉北路)"},{"poiid":"B2094750D664A2FF4992","title":"V5麻辣香锅","lon":"121.519","lat":"31.2284","category":"71","category_name":"四川菜","address":"浦东新区张杨路601号浦东食品3楼(近世纪大道)"},{"poiid":"B2094757D06FA5FB469E","title":"楚楚园馅饼粥(浦东店)","lon":"121.51867","lat":"31.22839","category":"68","category_name":"快餐厅","address":"张杨路601号浦东国际食品城3楼近南泉北路(原崂山西路)"},{"poiid":"B2094757D069A2FF469F","title":"汉堡王(浦东南路店)","lon":"121.51685868","lat":"31.228531449","category":"68","category_name":"快餐厅","address":"浦东新区浦东南路1085-5号(近张杨路)"},{"poiid":"B2094757D06FA0FC449D","title":"自游玩国动漫体验中心","lon":"121.51687622","lat":"31.22917366","category":"173","category_name":"游戏厅","address":"浦东新区浦东南路1085号华申大厦2楼(近商城路)"},{"poiid":"B2094654DB6BAAFE4293","title":"苏宁电器(浦东第一店)","lon":"121.51723","lat":"31.22891","category":"138","category_name":"家电电子卖场","address":"浦东南路1101号1-3层"},{"poiid":"B2094757D06FA4F8499C","title":"苏宁电器(远东店)","lon":"121.517667","lat":"31.228917","category":"138","category_name":"家电电子卖场","address":"浦东新区南泉北路569号(近第一八佰伴)"},{"poiid":"B209475CD664A0FE4798","title":"江边城外烤全鱼","lon":"121.516685","lat":"31.229349","category":"247","category_name":"餐饮美食","address":"上海市 浦东南路1085号华申大厦3楼(近八佰伴)"},{"poiid":"B2094654DA69A0FE429D","title":"内外联大厦","lon":"121.51708","lat":"31.22996","category":"46","category_name":"楼宇","address":"丰台学城海鹰路1号，3号"},{"poiid":"B2094654DB6BAAFF489C","title":"远东大厦","lon":"121.51739","lat":"31.22911","category":"46","category_name":"楼宇","address":"上海市浦东新区金桥路983号"},{"poiid":"B2094757D06FA5FD4893","title":"大家乐(南泉北路店)","lon":"121.51817","lat":"31.22878","category":"68","category_name":"快餐厅","address":"浦东新区南泉北路588号新大陆广场NL014室(近八佰伴)"},{"poiid":"B209475CD269A4F84192","title":"江边城外巫山烤全鱼","lon":"121.516281","lat":"31.229604","category":"247","category_name":"餐饮美食","address":"上海市 浦东南路1085号3楼"},{"poiid":"B2094757D068A6F44092","title":"大娘水饺(国际美食城店)","lon":"121.51869627","lat":"31.228596032","category":"68","category_name":"快餐厅","address":"浦东新区张杨路601号浦东国际美食城1-2楼(近南泉北路)"},{"poiid":"B2094757D465A4FC459A","title":"虾比蟹大","lon":"121.518751054","lat":"31.228442793","category":"71","category_name":"四川菜","address":"浦东新区张杨路601号浦东国际美食城2楼(近南泉北路)"},{"poiid":"B2094757D16CA3FA469B","title":"浦东国际美食城","lon":"121.517891738","lat":"31.2294662838","category":"247","category_name":"餐饮美食","address":"上海浦东新区张杨路601号"},{"poiid":"B2094654DB69A6F4479F","title":"吉野家  浦东食品城店","lon":"121.518751054","lat":"31.228442793","category":"95","category_name":"日本料理","address":"浦东新区张杨路601号浦东国际美食城1楼(近南泉北路)"},{"poiid":"B2094750D768A2F44193","title":"R&B世界茶饮(新大陆广场店)","lon":"121.518","lat":"31.2293","category":"113","category_name":"冷饮店","address":"浦东新区张杨路588号百脑汇1楼(近八佰伴)"},{"poiid":"B2094757D065A5FF4298","title":"新贝乐","lon":"121.51895973","lat":"31.228736268","category":"249","category_name":"购物服务","address":"上海市浦东新区张杨路601号3F"},{"poiid":"B2094655D265A4FE469D","title":"中国商飞大厦","lon":"121.51630152272","lat":"31.230553292743","category":"46","category_name":"楼宇","address":"张杨路25号"},{"poiid":"B2094654DB6BAAFF479F","title":"辛香汇 浦东店 Spicy-Joint","lon":"121.518751054","lat":"31.228442793","category":"71","category_name":"四川菜","address":"浦东新区张杨路601号浦东国际食品城5楼(近南泉北路)"},{"poiid":"B2094655D26AABF84692","title":"好乐迪量贩式KTV张杨路店","lon":"121.5182","lat":"31.22827","category":"170","category_name":"KTV","address":"浦东新区张杨路579号三鑫大厦3-4楼(近南泉北路)"},{"poiid":"B2094757D06FA1FD409B","title":"和彩日本料理","lon":"121.517798738","lat":"31.2313843247","category":"95","category_name":"日本料理","address":"浦东新区商城路665号1885广场C栋2楼(近南泉北路)"},{"poiid":"B209475CD564A7F84392","title":"上海滩浦东香格里拉店","lon":"121.50058","lat":"31.23634","category":"119","category_name":"商场","address":"浦东富成路33号香格里拉酒店内大堂层"},{"poiid":"B2094750DA6AAAF94193","title":"冰火名家巫山烤全鱼(八佰伴店)","lon":"121.51864311790473","lat":"31.228267629831056","category":"71","category_name":"四川菜","address":"浦东新区张杨路601号浦东国际美食城B-28号铺(近八佰伴)"},{"poiid":"B2094654DB69A6FB4799","title":"豆捞坊火锅(浦东店)","lon":"121.51887","lat":"31.22853","category":"86","category_name":"火锅店","address":"浦东新区张杨路601号浦东国际美食城9楼(近南泉北路)"},{"poiid":"B2094757D06FAAF5459B","title":"俏江南(1885会所店)","lon":"121.51789791","lat":"31.231302387","category":"71","category_name":"四川菜","address":"浦东新区商城路665号A栋(近南泉北路)"},{"poiid":"B2094655D26DA0FD439C","title":"浦东食品城","lon":"121.51888","lat":"31.22852","category":"119","category_name":"商场","address":"浦东新区张杨路601号华城大厦1-5楼(近南泉北路)"},{"poiid":"B2094750D56DABF5409E","title":"美乐点心","lon":"121.517372","lat":"31.229715","category":"72","category_name":"广东菜","address":"浦东新区浦东南路1085号-1(近商城路831开业)"},{"poiid":"B2094757D069A7F5429C","title":"东来顺饭庄(张杨店)","lon":"121.518544","lat":"31.228408","category":"86","category_name":"火锅店","address":"浦东新区张杨路579号第一食品5楼(近南泉北路)"},{"poiid":"B2094757DB6AA6FC499C","title":"古丽仙西域情餐厅 八佰伴店","lon":"121.519174","lat":"31.228538","category":"90","category_name":"清真餐馆","address":"浦东新区张杨路601号浦东食品城3楼(近南泉北路)"},{"poiid":"B2094757D06FA2FF499B","title":"寿司王子(南泉北路店)","lon":"121.51901","lat":"31.22907","category":"95","category_name":"日本料理","address":"浦东新区南泉北路588号新大陆广场1楼(近张杨路)"},{"poiid":"B2094757D06AA2FB4698","title":"丰收日大酒店","lon":"121.517091","lat":"31.229958","category":"75","category_name":"浙江菜","address":"浦东新区商城路518号(南泉北路口)"},{"poiid":"B2094757DA68A6F84798","title":"黄记煌三汁焖锅（第一八佰伴店）","lon":"121.518874168396","lat":"31.22920640271039","category":"247","category_name":"餐饮美食","address":"浦东新区张杨路601号浦东食品城4楼(近百脑汇)"},{"poiid":"B2094757D16FA3F9479E","title":"好乐迪","lon":"121.51806973","lat":"31.228474262","category":"500","category_name":"未知分类","address":"上海市浦东新区浦东南路"},{"poiid":"B2094757D465A3F9489E","title":"神田烧肉 浦东店 Asaka Kanda","lon":"121.518275054","lat":"31.228157793","category":"269","category_name":"烧烤","address":"浦东新区张杨路579号三鑫世界商厦3楼(近南泉北路)"},{"poiid":"B2094757D06AA6FC449A","title":"百脑汇","lon":"121.51918815","lat":"31.228575644","category":"500","category_name":"未知分类","address":"上海张杨路"},{"poiid":"B2094757D06FA0F94193","title":"掌柜的店(八佰伴店)","lon":"121.51844673","lat":"31.228917272","category":"260","category_name":"其他","address":"浦东新区张杨路601号浦东国际美食城3楼(近南泉北路)"},{"poiid":"B2094654DB6BAAFF4792","title":"麦当劳张杨路店","lon":"121.51888","lat":"31.22853","category":"68","category_name":"快餐厅","address":"浦东新区张杨路601号浦东国际美食城1-2楼(近南泉北路)"},{"poiid":"B2094757DA69A0FC469A","title":"家有好面 张杨店","lon":"121.5182","lat":"31.22806","category":"68","category_name":"快餐厅","address":"浦东新区张杨路579号三鑫大厦3楼"},{"poiid":"B2094654DA69ABFB429D","title":"汤臣中心","lon":"121.518409","lat":"31.230626","category":"46","category_name":"楼宇","address":"上海市闵行区莲花南路1500弄"},{"poiid":"B2094757D068A2F5459D","title":"锅德港式极品肥牛海鲜火锅(商城路店)","lon":"121.517326627","lat":"31.2313725467","category":"86","category_name":"火锅店","address":"浦东新区商城路665号B栋1885广场3楼(近南泉北路)"},{"poiid":"B2094757D06FA6FC4493","title":"禾绿寿司(新梅店)","lon":"121.51643","lat":"31.22954","category":"95","category_name":"日本料理","address":"上海浦东新区浦东南路999号新梅联合大厦4楼(近商城路)"},{"poiid":"B2094757D06FA7FF489F","title":"DQ冰雪皇后(华诚店)","lon":"121.51900003","lat":"31.2283833029","category":"113","category_name":"冷饮店","address":"浦东新区张杨路601号浦东国际美食城1楼(近南泉北路)"},{"poiid":"B2094753D468A5FD4093","title":"洞子张老匠火锅","lon":"121.516944","lat":"31.229545","category":"247","category_name":"餐饮美食","address":"上海市 浦东南路1085号华申大厦3楼美食广场内(近新梅广场)"},{"poiid":"B2094757D06FA3FF4992","title":"大渔铁板烧(八佰伴店)","lon":"121.51734173","lat":"31.228948272","category":"95","category_name":"日本料理","address":"浦东新区张杨路501号第一八佰伴9楼(近浦东南路)"},{"poiid":"B2094757D06FA0F54493","title":"海之幸(新梅旗舰店)","lon":"121.51637","lat":"31.22958","category":"95","category_name":"日本料理","address":"浦东新区浦东南路999号新梅联合广场404室(近商城路)"},{"poiid":"B2094757D06FABFD499D","title":"棒约翰比萨(张杨路店)","lon":"121.519131138","lat":"31.2284537615","category":"94","category_name":"西餐厅","address":"浦东新区张杨路601号浦东国际美食城1楼(近南泉北路)"},{"poiid":"B2094654DA69A0F9469E","title":"上海市第一食品股份有限公司","lon":"121.51836","lat":"31.22838","category":"263","category_name":"公司","address":"张杨路579号三鑫世界商厦6层"},{"poiid":"B2094757D06FA7FF499E","title":"东方书城(商城路店)","lon":"121.51874876","lat":"31.2305100689","category":"125","category_name":"书店","address":"浦东新区商城路660号乐凯大厦南广场(近南泉北路)"},{"poiid":"B2094654DB65A4FF419D","title":"新梅万豪行政公寓","lon":"121.51623","lat":"31.2298","category":"268","category_name":"自助","address":"浦东新区商城路506号5楼(近浦东南路)"},{"poiid":"B2094655D26BAAF9439A","title":"正院上海公馆 Shanghai Grand mansion restaurant","lon":"121.51692152023","lat":"31.231756803853","category":"247","category_name":"餐饮美食","address":"浦东新区商城路665号C栋2-4楼(近南泉北路)"},{"poiid":"B2094750D664A2FF4992","title":"V5麻辣香锅","lon":"121.519","lat":"31.2284","category":"71","category_name":"四川菜","address":"浦东新区张杨路601号浦东食品3楼(近世纪大道)"},{"poiid":"B2094757D06FA5FB469E","title":"楚楚园馅饼粥(浦东店)","lon":"121.51867","lat":"31.22839","category":"68","category_name":"快餐厅","address":"张杨路601号浦东国际食品城3楼近南泉北路(原崂山西路)"},{"poiid":"B2094757D069A2FF469F","title":"汉堡王(浦东南路店)","lon":"121.51685868","lat":"31.228531449","category":"68","category_name":"快餐厅","address":"浦东新区浦东南路1085-5号(近张杨路)"},{"poiid":"B2094757D06FA0FC449D","title":"自游玩国动漫体验中心","lon":"121.51687622","lat":"31.22917366","category":"173","category_name":"游戏厅","address":"浦东新区浦东南路1085号华申大厦2楼(近商城路)"},{"poiid":"B2094654DB6BAAFE4293","title":"苏宁电器(浦东第一店)","lon":"121.51723","lat":"31.22891","category":"138","category_name":"家电电子卖场","address":"浦东南路1101号1-3层"},{"poiid":"B2094757D06FA4F8499C","title":"苏宁电器(远东店)","lon":"121.517667","lat":"31.228917","category":"138","category_name":"家电电子卖场","address":"浦东新区南泉北路569号(近第一八佰伴)"},{"poiid":"B209475CD664A0FE4798","title":"江边城外烤全鱼","lon":"121.516685","lat":"31.229349","category":"247","category_name":"餐饮美食","address":"上海市 浦东南路1085号华申大厦3楼(近八佰伴)"},{"poiid":"B2094654DA69A0FE429D","title":"内外联大厦","lon":"121.51708","lat":"31.22996","category":"46","category_name":"楼宇","address":"丰台学城海鹰路1号，3号"},{"poiid":"B2094654DB6BAAFF489C","title":"远东大厦","lon":"121.51739","lat":"31.22911","category":"46","category_name":"楼宇","address":"上海市浦东新区金桥路983号"},{"poiid":"B2094757D06FA5FD4893","title":"大家乐(南泉北路店)","lon":"121.51817","lat":"31.22878","category":"68","category_name":"快餐厅","address":"浦东新区南泉北路588号新大陆广场NL014室(近八佰伴)"},{"poiid":"B209475CD269A4F84192","title":"江边城外巫山烤全鱼","lon":"121.516281","lat":"31.229604","category":"247","category_name":"餐饮美食","address":"上海市 浦东南路1085号3楼"},{"poiid":"B2094757D068A6F44092","title":"大娘水饺(国际美食城店)","lon":"121.51869627","lat":"31.228596032","category":"68","category_name":"快餐厅","address":"浦东新区张杨路601号浦东国际美食城1-2楼(近南泉北路)"},{"poiid":"B2094757D465A4FC459A","title":"虾比蟹大","lon":"121.518751054","lat":"31.228442793","category":"71","category_name":"四川菜","address":"浦东新区张杨路601号浦东国际美食城2楼(近南泉北路)"},{"poiid":"B2094757D16CA3FA469B","title":"浦东国际美食城","lon":"121.517891738","lat":"31.2294662838","category":"247","category_name":"餐饮美食","address":"上海浦东新区张杨路601号"},{"poiid":"B2094654DB69A6F4479F","title":"吉野家  浦东食品城店","lon":"121.518751054","lat":"31.228442793","category":"95","category_name":"日本料理","address":"浦东新区张杨路601号浦东国际美食城1楼(近南泉北路)"},{"poiid":"B2094750D768A2F44193","title":"R&B世界茶饮(新大陆广场店)","lon":"121.518","lat":"31.2293","category":"113","category_name":"冷饮店","address":"浦东新区张杨路588号百脑汇1楼(近八佰伴)"},{"poiid":"B2094757D065A5FF4298","title":"新贝乐","lon":"121.51895973","lat":"31.228736268","category":"249","category_name":"购物服务","address":"上海市浦东新区张杨路601号3F"},{"poiid":"B2094655D265A4FE469D","title":"中国商飞大厦","lon":"121.51630152272","lat":"31.230553292743","category":"46","category_name":"楼宇","address":"张杨路25号"}]