[{"poiid":"B2094757D06EABF5439D","title":"杨思地铁站","lon":"121.49400429","lat":"31.160810371","category":"36","category_name":"地铁站","address":"上海轨道交通 八号线 轨交杨思站 8"},{"poiid":"B2094757D468ABFD409A","title":"海澜湾渔港","lon":"121.4917051","lat":"31.1528042","category":"260","category_name":"其他","address":"浦东新区长清路1200弄森宏购物广场内(高青路囗)"},{"poiid":"B2094757D069A5FE4292","title":"恒大华城","lon":"121.48864865","lat":"31.161270376","category":"500","category_name":"未知分类","address":"上海浦东新区杨新路282弄"},{"poiid":"B2094757D06FA5FD4998","title":"海阳新村","lon":"121.49463","lat":"31.153845","category":"47","category_name":"住宅区","address":"海阳路598,530弄"},{"poiid":"B2094654DB6CA0F8469E","title":"南杨小区(杨思路)","lon":"121.49148","lat":"31.15876","category":"47","category_name":"住宅区","address":"长清路643弄1-42号,693弄1-54号"},{"poiid":"B2094757D66FA1F5439C","title":"杨思路","lon":"121.49491173","lat":"31.158793779","category":"500","category_name":"未知分类","address":"上海杨思"},{"poiid":"B2094757D064ABFC489B","title":"食佳传奇火锅 海阳路店","lon":"121.4968716","lat":"31.1558082","category":"86","category_name":"火锅店","address":"浦东新区海阳路615号(近灵岩南路)"},{"poiid":"B209475CD76BA7F8409C","title":"三林大光明影城","lon":"121.491086","lat":"31.161036","category":"178","category_name":"电影院","address":"上海市浦东新区长清路507号3楼"},{"poiid":"B2094654DB64A1FD439F","title":"锦江之星(世博店)","lon":"121.49393","lat":"31.15753","category":"216","category_name":"经济型连锁酒店","address":"上海浦东新区板泉路300号(近灵岩南路)"},{"poiid":"B2094757D06BA4FD499E","title":"京世造型","lon":"121.492232","lat":"31.154662","category":"148","category_name":"美容美发店","address":"上海海阳路店"},{"poiid":"B2094751D569A7FF479B","title":"南国丰大酒店","lon":"121.49263","lat":"31.162204","category":"247","category_name":"餐饮美食","address":"浦东新区长清路507号2楼(近长清茶叶城)"},{"poiid":"B2094757D068A6FC489D","title":"康师傅私房牛肉面(杨南店)","lon":"121.49176","lat":"31.1531","category":"247","category_name":"餐饮美食","address":"上海浦东新区长清路1200号大润发1楼(近杨南路)  "},{"poiid":"B2094757D66EA4F54999","title":"兄弟盱眙龙虾","lon":"121.49267","lat":"31.15462","category":"68","category_name":"快餐厅","address":"浦东新区灵岩南路343号(近海阳路)"},{"poiid":"B2094654DB6CA0FE4092","title":"三林世博创意园","lon":"121.4963","lat":"31.15673","category":"45","category_name":"产业园区","address":"浦东新区灵岩南路295号(恒大路灵岩南路)"},{"poiid":"B2094752D46AA5FE479B","title":"三林大光明影城","lon":"121.49186","lat":"31.160776","category":"248","category_name":"生活娱乐","address":"长清路507号"},{"poiid":"B2094757D064A2F5419C","title":"八号线杨思站","lon":"121.494143738","lat":"31.1529696554","category":"500","category_name":"未知分类","address":"上海杨思"},{"poiid":"B2094655D26AA0FA409C","title":"地铁杨思站","lon":"121.49404","lat":"31.16079","category":"36","category_name":"地铁站","address":""},{"poiid":"B2094752DA64A2F54798","title":"长清大光明电影院","lon":"121.491151","lat":"31.161025","category":"500","category_name":"未知分类","address":"上海市 长清路杨思路"},{"poiid":"B2094751D569A4FA409F","title":"梅赛德斯奔驰文化中心","lon":"121.496694","lat":"31.158412","category":"500","category_name":"未知分类","address":null},{"poiid":"B2094654DB6CA0F8479C","title":"南杨小区(西门)","lon":"121.49105","lat":"31.15728","category":"47","category_name":"住宅区","address":"长清路643弄1-42号、693弄1-54"},{"poiid":"B2094655D26FA7F4429C","title":"南杨小区(北门)","lon":"121.49232","lat":"31.15687","category":"47","category_name":"住宅区","address":"长清路773弄1-47号、807弄1-35号、837弄1-3号"},{"poiid":"B2094655D26EA2F54693","title":"南杨小区(正门)","lon":"121.49128","lat":"31.15935","category":"47","category_name":"住宅区","address":"长清路643弄1-42号、693弄1-54号"},{"poiid":"B2094757D16FA2FB499E","title":"双叶居火锅","lon":"121.495351738","lat":"31.1550076988","category":"86","category_name":"火锅店","address":"浦东新区海阳路621号(近灵岩南路)"},{"poiid":"B2094654DB64A1FD4298","title":"南国龙苑","lon":"121.494","lat":"31.15543","category":"47","category_name":"住宅区","address":"上海市浦东新区海阳路268号"},{"poiid":"B2094654DB64A1FD4398","title":"良友","lon":"121.49211","lat":"31.15723","category":"117","category_name":"便民商店/便利店","address":"板泉路153识别"},{"poiid":"B2094750D36BA2FA4493","title":"段氏龙虾灵岩南路店","lon":"121.496315","lat":"31.155294","category":"68","category_name":"快餐厅","address":"浦东新区灵岩南路331号(近海阳路)"},{"poiid":"B2094757D069A5FB429D","title":"杨思派出所","lon":"121.493495","lat":"31.157916","category":"609","category_name":"警察局","address":"上海浦东新区板泉路333号(近灵岩南路)"},{"poiid":"B2094757D16AA1FF489A","title":"长清路杨思路","lon":"121.491464","lat":"31.159875","category":"500","category_name":"未知分类","address":"上海长清路595弄"},{"poiid":"B2094654DB6CA0F9409B","title":"Tim salon发型设计","lon":"121.49261","lat":"31.15741","category":"148","category_name":"美容美发店","address":"板泉路181识别"},{"poiid":"B2094654DB6CA0F9409A","title":"黄龙太茶叶烟酒店","lon":"121.49259","lat":"31.1574","category":"117","category_name":"便民商店/便利店","address":"板泉路179识别"},{"poiid":"B2094654DB6CA0F8419A","title":"重庆鸡公煲(海阳路)","lon":"121.49301","lat":"31.15476","category":"71","category_name":"四川菜","address":"浦东新区海阳路400号(长清路海阳路)"},{"poiid":"B2094655D268A1FA4998","title":"牛奶棚 海阳店","lon":"121.490915054","lat":"31.154137793","category":"67","category_name":"甜品店","address":"浦东新区海阳路417-419号(近长青路)"},{"poiid":"B2094757D16DABFF4399","title":"海阳面馆","lon":"121.4954","lat":"31.15731","category":"68","category_name":"快餐厅","address":"浦东新区灵岩南路158号(近杨思路)"},{"poiid":"B2094654DB64A2F84792","title":"华城丽苑","lon":"121.48949","lat":"31.159363","category":"47","category_name":"住宅区","address":"杨思路301弄1-10号"},{"poiid":"B2094757D065A5F5429E","title":"东林苑","lon":"121.48727922","lat":"31.158886081","category":"252","category_name":"楼宇机构","address":"上海西营南路68弄"},{"poiid":"B2094654DB6CA0F9449C","title":"南杨小区(东门)","lon":"121.49317","lat":"31.15821","category":"47","category_name":"住宅区","address":"长清路643弄1-42号、693弄1-54号"},{"poiid":"B2094757D069A5F84599","title":"辽东烤吧","lon":"121.49459","lat":"31.16026","category":"68","category_name":"快餐厅","address":"浦东新区灵岩南路121号(近杨思路)"},{"poiid":"B2094654DB6AA7F54292","title":"海宁阿月煲 海阳路店","lon":"121.49969","lat":"31.15633","category":"260","category_name":"其他","address":"浦东新区灵岩南路330号(近海阳路)"},{"poiid":"B2094655D26FABF9459D","title":"思浦小区(南三门)","lon":"121.49326","lat":"31.15837","category":"656","category_name":"大门","address":"思浦路17弄1-9号"},{"poiid":"B2094757D169A7F54892","title":"南杨小区693弄","lon":"121.49241673","lat":"31.157734756","category":"252","category_name":"楼宇机构","address":"上海市西营南路"},{"poiid":"B2094654DB64ABFD429C","title":"快客No.5128","lon":"121.49387","lat":"31.15754","category":"117","category_name":"便民商店/便利店","address":"板泉路300-1识别"},{"poiid":"B2094757D068A0FB419A","title":"思浦小区","lon":"121.49335","lat":"31.159691","category":"47","category_name":"住宅区","address":"上海浦东新区杨思路430号"},{"poiid":"B2094654DB64A2F8479C","title":"梅山苑","lon":"121.48707","lat":"31.159868","category":"47","category_name":"住宅区","address":"西营南路18弄1-57号"},{"poiid":"B2094757D16AABFB409B","title":"986路公交","lon":"121.48995173","lat":"31.156548031","category":"500","category_name":"未知分类","address":"上海思南路---东泰林路"},{"poiid":"B2094757D06BAAF8489A","title":"乔家栅(板泉路店)","lon":"121.49461","lat":"31.15757","category":"257","category_name":"中餐厅","address":"浦东新区板泉路300号(近灵岩南路)"},{"poiid":"B2094654DA65A0FB4898","title":"华城休闲绿地","lon":"121.49015","lat":"31.15959","category":"196","category_name":"公园","address":""},{"poiid":"B2094655D36CA5F84999","title":"长清路海阳路","lon":"121.49124","lat":"31.15381","category":"38","category_name":"公交车站","address":""},{"poiid":"B2094654DB6CA0F84699","title":"上海市浦东新区大桥小学","lon":"121.49224","lat":"31.15969","category":"56","category_name":"小学","address":"浦东新区杨思路400号(长清路杨思路)"},{"poiid":"B2094757D469A2FF409C","title":"东北人家 灵岩南路店","lon":"121.494445054","lat":"31.160678793","category":"82","category_name":"东北菜","address":"浦东新区灵岩南路119号(近杨思路)"},{"poiid":"B2094654DA65A7FC469E","title":"快客No.6100","lon":"121.49185","lat":"31.15992","category":"117","category_name":"便民商店/便利店","address":"杨思路409"},{"poiid":"B2094757D06EABF5439D","title":"杨思地铁站","lon":"121.49400429","lat":"31.160810371","category":"36","category_name":"地铁站","address":"上海轨道交通 八号线 轨交杨思站 8"},{"poiid":"B2094757D468ABFD409A","title":"海澜湾渔港","lon":"121.4917051","lat":"31.1528042","category":"260","category_name":"其他","address":"浦东新区长清路1200弄森宏购物广场内(高青路囗)"},{"poiid":"B2094757D069A5FE4292","title":"恒大华城","lon":"121.48864865","lat":"31.161270376","category":"500","category_name":"未知分类","address":"上海浦东新区杨新路282弄"},{"poiid":"B2094757D06FA5FD4998","title":"海阳新村","lon":"121.49463","lat":"31.153845","category":"47","category_name":"住宅区","address":"海阳路598,530弄"},{"poiid":"B2094654DB6CA0F8469E","title":"南杨小区(杨思路)","lon":"121.49148","lat":"31.15876","category":"47","category_name":"住宅区","address":"长清路643弄1-42号,693弄1-54号"},{"poiid":"B2094757D66FA1F5439C","title":"杨思路","lon":"121.49491173","lat":"31.158793779","category":"500","category_name":"未知分类","address":"上海杨思"},{"poiid":"B2094757D064ABFC489B","title":"食佳传奇火锅 海阳路店","lon":"121.4968716","lat":"31.1558082","category":"86","category_name":"火锅店","address":"浦东新区海阳路615号(近灵岩南路)"},{"poiid":"B209475CD76BA7F8409C","title":"三林大光明影城","lon":"121.491086","lat":"31.161036","category":"178","category_name":"电影院","address":"上海市浦东新区长清路507号3楼"},{"poiid":"B2094654DB64A1FD439F","title":"锦江之星(世博店)","lon":"121.49393","lat":"31.15753","category":"216","category_name":"经济型连锁酒店","address":"上海浦东新区板泉路300号(近灵岩南路)"},{"poiid":"B2094757D06BA4FD499E","title":"京世造型","lon":"121.492232","lat":"31.154662","category":"148","category_name":"美容美发店","address":"上海海阳路店"},{"poiid":"B2094751D569A7FF479B","title":"南国丰大酒店","lon":"121.49263","lat":"31.162204","category":"247","category_name":"餐饮美食","address":"浦东新区长清路507号2楼(近长清茶叶城)"},{"poiid":"B2094757D068A6FC489D","title":"康师傅私房牛肉面(杨南店)","lon":"121.49176","lat":"31.1531","category":"247","category_name":"餐饮美食","address":"上海浦东新区长清路1200号大润发1楼(近杨南路)  "},{"poiid":"B2094757D66EA4F54999","title":"兄弟盱眙龙虾","lon":"121.49267","lat":"31.15462","category":"68","category_name":"快餐厅","address":"浦东新区灵岩南路343号(近海阳路)"},{"poiid":"B2094654DB6CA0FE4092","title":"三林世博创意园","lon":"121.4963","lat":"31.15673","category":"45","category_name":"产业园区","address":"浦东新区灵岩南路295号(恒大路灵岩南路)"},{"poiid":"B2094752D46AA5FE479B","title":"三林大光明影城","lon":"121.49186","lat":"31.160776","category":"248","category_name":"生活娱乐","address":"长清路507号"},{"poiid":"B2094757D064A2F5419C","title":"八号线杨思站","lon":"121.494143738","lat":"31.1529696554","category":"500","category_name":"未知分类","address":"上海杨思"},{"poiid":"B2094655D26AA0FA409C","title":"地铁杨思站","lon":"121.49404","lat":"31.16079","category":"36","category_name":"地铁站","address":""},{"poiid":"B2094752DA64A2F54798","title":"长清大光明电影院","lon":"121.491151","lat":"31.161025","category":"500","category_name":"未知分类","address":"上海市 长清路杨思路"},{"poiid":"B2094751D569A4FA409F","title":"梅赛德斯奔驰文化中心","lon":"121.496694","lat":"31.158412","category":"500","category_name":"未知分类","address":null},{"poiid":"B2094654DB6CA0F8479C","title":"南杨小区(西门)","lon":"121.49105","lat":"31.15728","category":"47","category_name":"住宅区","address":"长清路643弄1-42号、693弄1-54"},{"poiid":"B2094655D26FA7F4429C","title":"南杨小区(北门)","lon":"121.49232","lat":"31.15687","category":"47","category_name":"住宅区","address":"长清路773弄1-47号、807弄1-35号、837弄1-3号"},{"poiid":"B2094655D26EA2F54693","title":"南杨小区(正门)","lon":"121.49128","lat":"31.15935","category":"47","category_name":"住宅区","address":"长清路643弄1-42号、693弄1-54号"},{"poiid":"B2094757D16FA2FB499E","title":"双叶居火锅","lon":"121.495351738","lat":"31.1550076988","category":"86","category_name":"火锅店","address":"浦东新区海阳路621号(近灵岩南路)"},{"poiid":"B2094654DB64A1FD4298","title":"南国龙苑","lon":"121.494","lat":"31.15543","category":"47","category_name":"住宅区","address":"上海市浦东新区海阳路268号"},{"poiid":"B2094654DB64A1FD4398","title":"良友","lon":"121.49211","lat":"31.15723","category":"117","category_name":"便民商店/便利店","address":"板泉路153识别"},{"poiid":"B2094750D36BA2FA4493","title":"段氏龙虾灵岩南路店","lon":"121.496315","lat":"31.155294","category":"68","category_name":"快餐厅","address":"浦东新区灵岩南路331号(近海阳路)"},{"poiid":"B2094757D069A5FB429D","title":"杨思派出所","lon":"121.493495","lat":"31.157916","category":"609","category_name":"警察局","address":"上海浦东新区板泉路333号(近灵岩南路)"},{"poiid":"B2094757D16AA1FF489A","title":"长清路杨思路","lon":"121.491464","lat":"31.159875","category":"500","category_name":"未知分类","address":"上海长清路595弄"},{"poiid":"B2094654DB6CA0F9409B","title":"Tim salon发型设计","lon":"121.49261","lat":"31.15741","category":"148","category_name":"美容美发店","address":"板泉路181识别"},{"poiid":"B2094654DB6CA0F9409A","title":"黄龙太茶叶烟酒店","lon":"121.49259","lat":"31.1574","category":"117","category_name":"便民商店/便利店","address":"板泉路179识别"},{"poiid":"B2094654DB6CA0F8419A","title":"重庆鸡公煲(海阳路)","lon":"121.49301","lat":"31.15476","category":"71","category_name":"四川菜","address":"浦东新区海阳路400号(长清路海阳路)"},{"poiid":"B2094655D268A1FA4998","title":"牛奶棚 海阳店","lon":"121.490915054","lat":"31.154137793","category":"67","category_name":"甜品店","address":"浦东新区海阳路417-419号(近长青路)"},{"poiid":"B2094757D16DABFF4399","title":"海阳面馆","lon":"121.4954","lat":"31.15731","category":"68","category_name":"快餐厅","address":"浦东新区灵岩南路158号(近杨思路)"},{"poiid":"B2094654DB64A2F84792","title":"华城丽苑","lon":"121.48949","lat":"31.159363","category":"47","category_name":"住宅区","address":"杨思路301弄1-10号"},{"poiid":"B2094757D065A5F5429E","title":"东林苑","lon":"121.48727922","lat":"31.158886081","category":"252","category_name":"楼宇机构","address":"上海西营南路68弄"},{"poiid":"B2094654DB6CA0F9449C","title":"南杨小区(东门)","lon":"121.49317","lat":"31.15821","category":"47","category_name":"住宅区","address":"长清路643弄1-42号、693弄1-54号"},{"poiid":"B2094757D069A5F84599","title":"辽东烤吧","lon":"121.49459","lat":"31.16026","category":"68","category_name":"快餐厅","address":"浦东新区灵岩南路121号(近杨思路)"},{"poiid":"B2094654DB6AA7F54292","title":"海宁阿月煲 海阳路店","lon":"121.49969","lat":"31.15633","category":"260","category_name":"其他","address":"浦东新区灵岩南路330号(近海阳路)"},{"poiid":"B2094655D26FABF9459D","title":"思浦小区(南三门)","lon":"121.49326","lat":"31.15837","category":"656","category_name":"大门","address":"思浦路17弄1-9号"},{"poiid":"B2094757D169A7F54892","title":"南杨小区693弄","lon":"121.49241673","lat":"31.157734756","category":"252","category_name":"楼宇机构","address":"上海市西营南路"},{"poiid":"B2094654DB64ABFD429C","title":"快客No.5128","lon":"121.49387","lat":"31.15754","category":"117","category_name":"便民商店/便利店","address":"板泉路300-1识别"},{"poiid":"B2094757D068A0FB419A","title":"思浦小区","lon":"121.49335","lat":"31.159691","category":"47","category_name":"住宅区","address":"上海浦东新区杨思路430号"},{"poiid":"B2094654DB64A2F8479C","title":"梅山苑","lon":"121.48707","lat":"31.159868","category":"47","category_name":"住宅区","address":"西营南路18弄1-57号"},{"poiid":"B2094757D16AABFB409B","title":"986路公交","lon":"121.48995173","lat":"31.156548031","category":"500","category_name":"未知分类","address":"上海思南路---东泰林路"},{"poiid":"B2094757D06BAAF8489A","title":"乔家栅(板泉路店)","lon":"121.49461","lat":"31.15757","category":"257","category_name":"中餐厅","address":"浦东新区板泉路300号(近灵岩南路)"},{"poiid":"B2094654DA65A0FB4898","title":"华城休闲绿地","lon":"121.49015","lat":"31.15959","category":"196","category_name":"公园","address":""},{"poiid":"B2094655D36CA5F84999","title":"长清路海阳路","lon":"121.49124","lat":"31.15381","category":"38","category_name":"公交车站","address":""},{"poiid":"B2094654DB6CA0F84699","title":"上海市浦东新区大桥小学","lon":"121.49224","lat":"31.15969","category":"56","category_name":"小学","address":"浦东新区杨思路400号(长清路杨思路)"},{"poiid":"B2094757D469A2FF409C","title":"东北人家 灵岩南路店","lon":"121.494445054","lat":"31.160678793","category":"82","category_name":"东北菜","address":"浦东新区灵岩南路119号(近杨思路)"},{"poiid":"B2094654DA65A7FC469E","title":"快客No.6100","lon":"121.49185","lat":"31.15992","category":"117","category_name":"便民商店/便利店","address":"杨思路409"},{"poiid":"B2094757D06EABF5439D","title":"杨思地铁站","lon":"121.49400429","lat":"31.160810371","category":"36","category_name":"地铁站","address":"上海轨道交通 八号线 轨交杨思站 8"},{"poiid":"B2094757D468ABFD409A","title":"海澜湾渔港","lon":"121.4917051","lat":"31.1528042","category":"260","category_name":"其他","address":"浦东新区长清路1200弄森宏购物广场内(高青路囗)"},{"poiid":"B2094757D069A5FE4292","title":"恒大华城","lon":"121.48864865","lat":"31.161270376","category":"500","category_name":"未知分类","address":"上海浦东新区杨新路282弄"},{"poiid":"B2094757D06FA5FD4998","title":"海阳新村","lon":"121.49463","lat":"31.153845","category":"47","category_name":"住宅区","address":"海阳路598,530弄"},{"poiid":"B2094654DB6CA0F8469E","title":"南杨小区(杨思路)","lon":"121.49148","lat":"31.15876","category":"47","category_name":"住宅区","address":"长清路643弄1-42号,693弄1-54号"},{"poiid":"B2094757D66FA1F5439C","title":"杨思路","lon":"121.49491173","lat":"31.158793779","category":"500","category_name":"未知分类","address":"上海杨思"},{"poiid":"B2094757D064ABFC489B","title":"食佳传奇火锅 海阳路店","lon":"121.4968716","lat":"31.1558082","category":"86","category_name":"火锅店","address":"浦东新区海阳路615号(近灵岩南路)"},{"poiid":"B209475CD76BA7F8409C","title":"三林大光明影城","lon":"121.491086","lat":"31.161036","category":"178","category_name":"电影院","address":"上海市浦东新区长清路507号3楼"},{"poiid":"B2094654DB64A1FD439F","title":"锦江之星(世博店)","lon":"121.49393","lat":"31.15753","category":"216","category_name":"经济型连锁酒店","address":"上海浦东新区板泉路300号(近灵岩南路)"},{"poiid":"B2094757D06BA4FD499E","title":"京世造型","lon":"121.492232","lat":"31.154662","category":"148","category_name":"美容美发店","address":"上海海阳路店"},{"poiid":"B2094751D569A7FF479B","title":"南国丰大酒店","lon":"121.49263","lat":"31.162204","category":"247","category_name":"餐饮美食","address":"浦东新区长清路507号2楼(近长清茶叶城)"},{"poiid":"B2094757D068A6FC489D","title":"康师傅私房牛肉面(杨南店)","lon":"121.49176","lat":"31.1531","category":"247","category_name":"餐饮美食","address":"上海浦东新区长清路1200号大润发1楼(近杨南路)  "},{"poiid":"B2094757D66EA4F54999","title":"兄弟盱眙龙虾","lon":"121.49267","lat":"31.15462","category":"68","category_name":"快餐厅","address":"浦东新区灵岩南路343号(近海阳路)"},{"poiid":"B2094654DB6CA0FE4092","title":"三林世博创意园","lon":"121.4963","lat":"31.15673","category":"45","category_name":"产业园区","address":"浦东新区灵岩南路295号(恒大路灵岩南路)"},{"poiid":"B2094752D46AA5FE479B","title":"三林大光明影城","lon":"121.49186","lat":"31.160776","category":"248","category_name":"生活娱乐","address":"长清路507号"},{"poiid":"B2094757D064A2F5419C","title":"八号线杨思站","lon":"121.494143738","lat":"31.1529696554","category":"500","category_name":"未知分类","address":"上海杨思"},{"poiid":"B2094655D26AA0FA409C","title":"地铁杨思站","lon":"121.49404","lat":"31.16079","category":"36","category_name":"地铁站","address":""},{"poiid":"B2094752DA64A2F54798","title":"长清大光明电影院","lon":"121.491151","lat":"31.161025","category":"500","category_name":"未知分类","address":"上海市 长清路杨思路"},{"poiid":"B2094751D569A4FA409F","title":"梅赛德斯奔驰文化中心","lon":"121.496694","lat":"31.158412","category":"500","category_name":"未知分类","address":null},{"poiid":"B2094654DB6CA0F8479C","title":"南杨小区(西门)","lon":"121.49105","lat":"31.15728","category":"47","category_name":"住宅区","address":"长清路643弄1-42号、693弄1-54"},{"poiid":"B2094655D26FA7F4429C","title":"南杨小区(北门)","lon":"121.49232","lat":"31.15687","category":"47","category_name":"住宅区","address":"长清路773弄1-47号、807弄1-35号、837弄1-3号"},{"poiid":"B2094655D26EA2F54693","title":"南杨小区(正门)","lon":"121.49128","lat":"31.15935","category":"47","category_name":"住宅区","address":"长清路643弄1-42号、693弄1-54号"},{"poiid":"B2094757D16FA2FB499E","title":"双叶居火锅","lon":"121.495351738","lat":"31.1550076988","category":"86","category_name":"火锅店","address":"浦东新区海阳路621号(近灵岩南路)"},{"poiid":"B2094654DB64A1FD4298","title":"南国龙苑","lon":"121.494","lat":"31.15543","category":"47","category_name":"住宅区","address":"上海市浦东新区海阳路268号"},{"poiid":"B2094654DB64A1FD4398","title":"良友","lon":"121.49211","lat":"31.15723","category":"117","category_name":"便民商店/便利店","address":"板泉路153识别"},{"poiid":"B2094750D36BA2FA4493","title":"段氏龙虾灵岩南路店","lon":"121.496315","lat":"31.155294","category":"68","category_name":"快餐厅","address":"浦东新区灵岩南路331号(近海阳路)"},{"poiid":"B2094757D069A5FB429D","title":"杨思派出所","lon":"121.493495","lat":"31.157916","category":"609","category_name":"警察局","address":"上海浦东新区板泉路333号(近灵岩南路)"},{"poiid":"B2094757D16AA1FF489A","title":"长清路杨思路","lon":"121.491464","lat":"31.159875","category":"500","category_name":"未知分类","address":"上海长清路595弄"},{"poiid":"B2094654DB6CA0F9409B","title":"Tim salon发型设计","lon":"121.49261","lat":"31.15741","category":"148","category_name":"美容美发店","address":"板泉路181识别"},{"poiid":"B2094654DB6CA0F9409A","title":"黄龙太茶叶烟酒店","lon":"121.49259","lat":"31.1574","category":"117","category_name":"便民商店/便利店","address":"板泉路179识别"},{"poiid":"B2094654DB6CA0F8419A","title":"重庆鸡公煲(海阳路)","lon":"121.49301","lat":"31.15476","category":"71","category_name":"四川菜","address":"浦东新区海阳路400号(长清路海阳路)"},{"poiid":"B2094655D268A1FA4998","title":"牛奶棚 海阳店","lon":"121.490915054","lat":"31.154137793","category":"67","category_name":"甜品店","address":"浦东新区海阳路417-419号(近长青路)"},{"poiid":"B2094757D16DABFF4399","title":"海阳面馆","lon":"121.4954","lat":"31.15731","category":"68","category_name":"快餐厅","address":"浦东新区灵岩南路158号(近杨思路)"},{"poiid":"B2094654DB64A2F84792","title":"华城丽苑","lon":"121.48949","lat":"31.159363","category":"47","category_name":"住宅区","address":"杨思路301弄1-10号"},{"poiid":"B2094757D065A5F5429E","title":"东林苑","lon":"121.48727922","lat":"31.158886081","category":"252","category_name":"楼宇机构","address":"上海西营南路68弄"},{"poiid":"B2094654DB6CA0F9449C","title":"南杨小区(东门)","lon":"121.49317","lat":"31.15821","category":"47","category_name":"住宅区","address":"长清路643弄1-42号、693弄1-54号"},{"poiid":"B2094757D069A5F84599","title":"辽东烤吧","lon":"121.49459","lat":"31.16026","category":"68","category_name":"快餐厅","address":"浦东新区灵岩南路121号(近杨思路)"},{"poiid":"B2094654DB6AA7F54292","title":"海宁阿月煲 海阳路店","lon":"121.49969","lat":"31.15633","category":"260","category_name":"其他","address":"浦东新区灵岩南路330号(近海阳路)"},{"poiid":"B2094655D26FABF9459D","title":"思浦小区(南三门)","lon":"121.49326","lat":"31.15837","category":"656","category_name":"大门","address":"思浦路17弄1-9号"},{"poiid":"B2094757D169A7F54892","title":"南杨小区693弄","lon":"121.49241673","lat":"31.157734756","category":"252","category_name":"楼宇机构","address":"上海市西营南路"},{"poiid":"B2094654DB64ABFD429C","title":"快客No.5128","lon":"121.49387","lat":"31.15754","category":"117","category_name":"便民商店/便利店","address":"板泉路300-1识别"},{"poiid":"B2094757D068A0FB419A","title":"思浦小区","lon":"121.49335","lat":"31.159691","category":"47","category_name":"住宅区","address":"上海浦东新区杨思路430号"},{"poiid":"B2094654DB64A2F8479C","title":"梅山苑","lon":"121.48707","lat":"31.159868","category":"47","category_name":"住宅区","address":"西营南路18弄1-57号"},{"poiid":"B2094757D16AABFB409B","title":"986路公交","lon":"121.48995173","lat":"31.156548031","category":"500","category_name":"未知分类","address":"上海思南路---东泰林路"},{"poiid":"B2094757D06BAAF8489A","title":"乔家栅(板泉路店)","lon":"121.49461","lat":"31.15757","category":"257","category_name":"中餐厅","address":"浦东新区板泉路300号(近灵岩南路)"},{"poiid":"B2094654DA65A0FB4898","title":"华城休闲绿地","lon":"121.49015","lat":"31.15959","category":"196","category_name":"公园","address":""},{"poiid":"B2094655D36CA5F84999","title":"长清路海阳路","lon":"121.49124","lat":"31.15381","category":"38","category_name":"公交车站","address":""},{"poiid":"B2094654DB6CA0F84699","title":"上海市浦东新区大桥小学","lon":"121.49224","lat":"31.15969","category":"56","category_name":"小学","address":"浦东新区杨思路400号(长清路杨思路)"},{"poiid":"B2094757D469A2FF409C","title":"东北人家 灵岩南路店","lon":"121.494445054","lat":"31.160678793","category":"82","category_name":"东北菜","address":"浦东新区灵岩南路119号(近杨思路)"},{"poiid":"B2094654DA65A7FC469E","title":"快客No.6100","lon":"121.49185","lat":"31.15992","category":"117","category_name":"便民商店/便利店","address":"杨思路409"},{"poiid":"B2094757D06EABF5439D","title":"杨思地铁站","lon":"121.49400429","lat":"31.160810371","category":"36","category_name":"地铁站","address":"上海轨道交通 八号线 轨交杨思站 8"},{"poiid":"B2094757D468ABFD409A","title":"海澜湾渔港","lon":"121.4917051","lat":"31.1528042","category":"260","category_name":"其他","address":"浦东新区长清路1200弄森宏购物广场内(高青路囗)"},{"poiid":"B2094757D069A5FE4292","title":"恒大华城","lon":"121.48864865","lat":"31.161270376","category":"500","category_name":"未知分类","address":"上海浦东新区杨新路282弄"},{"poiid":"B2094757D06FA5FD4998","title":"海阳新村","lon":"121.49463","lat":"31.153845","category":"47","category_name":"住宅区","address":"海阳路598,530弄"},{"poiid":"B2094654DB6CA0F8469E","title":"南杨小区(杨思路)","lon":"121.49148","lat":"31.15876","category":"47","category_name":"住宅区","address":"长清路643弄1-42号,693弄1-54号"},{"poiid":"B2094757D66FA1F5439C","title":"杨思路","lon":"121.49491173","lat":"31.158793779","category":"500","category_name":"未知分类","address":"上海杨思"},{"poiid":"B2094757D064ABFC489B","title":"食佳传奇火锅 海阳路店","lon":"121.4968716","lat":"31.1558082","category":"86","category_name":"火锅店","address":"浦东新区海阳路615号(近灵岩南路)"},{"poiid":"B209475CD76BA7F8409C","title":"三林大光明影城","lon":"121.491086","lat":"31.161036","category":"178","category_name":"电影院","address":"上海市浦东新区长清路507号3楼"},{"poiid":"B2094654DB64A1FD439F","title":"锦江之星(世博店)","lon":"121.49393","lat":"31.15753","category":"216","category_name":"经济型连锁酒店","address":"上海浦东新区板泉路300号(近灵岩南路)"},{"poiid":"B2094757D06BA4FD499E","title":"京世造型","lon":"121.492232","lat":"31.154662","category":"148","category_name":"美容美发店","address":"上海海阳路店"},{"poiid":"B2094751D569A7FF479B","title":"南国丰大酒店","lon":"121.49263","lat":"31.162204","category":"247","category_name":"餐饮美食","address":"浦东新区长清路507号2楼(近长清茶叶城)"},{"poiid":"B2094757D068A6FC489D","title":"康师傅私房牛肉面(杨南店)","lon":"121.49176","lat":"31.1531","category":"247","category_name":"餐饮美食","address":"上海浦东新区长清路1200号大润发1楼(近杨南路)  "},{"poiid":"B2094757D66EA4F54999","title":"兄弟盱眙龙虾","lon":"121.49267","lat":"31.15462","category":"68","category_name":"快餐厅","address":"浦东新区灵岩南路343号(近海阳路)"},{"poiid":"B2094654DB6CA0FE4092","title":"三林世博创意园","lon":"121.4963","lat":"31.15673","category":"45","category_name":"产业园区","address":"浦东新区灵岩南路295号(恒大路灵岩南路)"},{"poiid":"B2094752D46AA5FE479B","title":"三林大光明影城","lon":"121.49186","lat":"31.160776","category":"248","category_name":"生活娱乐","address":"长清路507号"},{"poiid":"B2094757D064A2F5419C","title":"八号线杨思站","lon":"121.494143738","lat":"31.1529696554","category":"500","category_name":"未知分类","address":"上海杨思"},{"poiid":"B2094655D26AA0FA409C","title":"地铁杨思站","lon":"121.49404","lat":"31.16079","category":"36","category_name":"地铁站","address":""},{"poiid":"B2094752DA64A2F54798","title":"长清大光明电影院","lon":"121.491151","lat":"31.161025","category":"500","category_name":"未知分类","address":"上海市 长清路杨思路"},{"poiid":"B2094751D569A4FA409F","title":"梅赛德斯奔驰文化中心","lon":"121.496694","lat":"31.158412","category":"500","category_name":"未知分类","address":null},{"poiid":"B2094654DB6CA0F8479C","title":"南杨小区(西门)","lon":"121.49105","lat":"31.15728","category":"47","category_name":"住宅区","address":"长清路643弄1-42号、693弄1-54"},{"poiid":"B2094655D26FA7F4429C","title":"南杨小区(北门)","lon":"121.49232","lat":"31.15687","category":"47","category_name":"住宅区","address":"长清路773弄1-47号、807弄1-35号、837弄1-3号"},{"poiid":"B2094655D26EA2F54693","title":"南杨小区(正门)","lon":"121.49128","lat":"31.15935","category":"47","category_name":"住宅区","address":"长清路643弄1-42号、693弄1-54号"},{"poiid":"B2094757D16FA2FB499E","title":"双叶居火锅","lon":"121.495351738","lat":"31.1550076988","category":"86","category_name":"火锅店","address":"浦东新区海阳路621号(近灵岩南路)"},{"poiid":"B2094654DB64A1FD4298","title":"南国龙苑","lon":"121.494","lat":"31.15543","category":"47","category_name":"住宅区","address":"上海市浦东新区海阳路268号"},{"poiid":"B2094654DB64A1FD4398","title":"良友","lon":"121.49211","lat":"31.15723","category":"117","category_name":"便民商店/便利店","address":"板泉路153识别"},{"poiid":"B2094750D36BA2FA4493","title":"段氏龙虾灵岩南路店","lon":"121.496315","lat":"31.155294","category":"68","category_name":"快餐厅","address":"浦东新区灵岩南路331号(近海阳路)"},{"poiid":"B2094757D069A5FB429D","title":"杨思派出所","lon":"121.493495","lat":"31.157916","category":"609","category_name":"警察局","address":"上海浦东新区板泉路333号(近灵岩南路)"},{"poiid":"B2094757D16AA1FF489A","title":"长清路杨思路","lon":"121.491464","lat":"31.159875","category":"500","category_name":"未知分类","address":"上海长清路595弄"},{"poiid":"B2094654DB6CA0F9409B","title":"Tim salon发型设计","lon":"121.49261","lat":"31.15741","category":"148","category_name":"美容美发店","address":"板泉路181识别"},{"poiid":"B2094654DB6CA0F9409A","title":"黄龙太茶叶烟酒店","lon":"121.49259","lat":"31.1574","category":"117","category_name":"便民商店/便利店","address":"板泉路179识别"},{"poiid":"B2094654DB6CA0F8419A","title":"重庆鸡公煲(海阳路)","lon":"121.49301","lat":"31.15476","category":"71","category_name":"四川菜","address":"浦东新区海阳路400号(长清路海阳路)"},{"poiid":"B2094655D268A1FA4998","title":"牛奶棚 海阳店","lon":"121.490915054","lat":"31.154137793","category":"67","category_name":"甜品店","address":"浦东新区海阳路417-419号(近长青路)"},{"poiid":"B2094757D16DABFF4399","title":"海阳面馆","lon":"121.4954","lat":"31.15731","category":"68","category_name":"快餐厅","address":"浦东新区灵岩南路158号(近杨思路)"},{"poiid":"B2094654DB64A2F84792","title":"华城丽苑","lon":"121.48949","lat":"31.159363","category":"47","category_name":"住宅区","address":"杨思路301弄1-10号"},{"poiid":"B2094757D065A5F5429E","title":"东林苑","lon":"121.48727922","lat":"31.158886081","category":"252","category_name":"楼宇机构","address":"上海西营南路68弄"},{"poiid":"B2094654DB6CA0F9449C","title":"南杨小区(东门)","lon":"121.49317","lat":"31.15821","category":"47","category_name":"住宅区","address":"长清路643弄1-42号、693弄1-54号"},{"poiid":"B2094757D069A5F84599","title":"辽东烤吧","lon":"121.49459","lat":"31.16026","category":"68","category_name":"快餐厅","address":"浦东新区灵岩南路121号(近杨思路)"},{"poiid":"B2094654DB6AA7F54292","title":"海宁阿月煲 海阳路店","lon":"121.49969","lat":"31.15633","category":"260","category_name":"其他","address":"浦东新区灵岩南路330号(近海阳路)"},{"poiid":"B2094655D26FABF9459D","title":"思浦小区(南三门)","lon":"121.49326","lat":"31.15837","category":"656","category_name":"大门","address":"思浦路17弄1-9号"},{"poiid":"B2094757D169A7F54892","title":"南杨小区693弄","lon":"121.49241673","lat":"31.157734756","category":"252","category_name":"楼宇机构","address":"上海市西营南路"},{"poiid":"B2094654DB64ABFD429C","title":"快客No.5128","lon":"121.49387","lat":"31.15754","category":"117","category_name":"便民商店/便利店","address":"板泉路300-1识别"},{"poiid":"B2094757D068A0FB419A","title":"思浦小区","lon":"121.49335","lat":"31.159691","category":"47","category_name":"住宅区","address":"上海浦东新区杨思路430号"},{"poiid":"B2094654DB64A2F8479C","title":"梅山苑","lon":"121.48707","lat":"31.159868","category":"47","category_name":"住宅区","address":"西营南路18弄1-57号"},{"poiid":"B2094757D16AABFB409B","title":"986路公交","lon":"121.48995173","lat":"31.156548031","category":"500","category_name":"未知分类","address":"上海思南路---东泰林路"},{"poiid":"B2094757D06BAAF8489A","title":"乔家栅(板泉路店)","lon":"121.49461","lat":"31.15757","category":"257","category_name":"中餐厅","address":"浦东新区板泉路300号(近灵岩南路)"},{"poiid":"B2094654DA65A0FB4898","title":"华城休闲绿地","lon":"121.49015","lat":"31.15959","category":"196","category_name":"公园","address":""},{"poiid":"B2094655D36CA5F84999","title":"长清路海阳路","lon":"121.49124","lat":"31.15381","category":"38","category_name":"公交车站","address":""},{"poiid":"B2094654DB6CA0F84699","title":"上海市浦东新区大桥小学","lon":"121.49224","lat":"31.15969","category":"56","category_name":"小学","address":"浦东新区杨思路400号(长清路杨思路)"},{"poiid":"B2094757D469A2FF409C","title":"东北人家 灵岩南路店","lon":"121.494445054","lat":"31.160678793","category":"82","category_name":"东北菜","address":"浦东新区灵岩南路119号(近杨思路)"},{"poiid":"B2094654DA65A7FC469E","title":"快客No.6100","lon":"121.49185","lat":"31.15992","category":"117","category_name":"便民商店/便利店","address":"杨思路409"}]