[{"poiid":"B2094655D264A0F9479E","title":"绿地东海岸国际广场","lon":"121.70689043678","lat":"31.19116655616","category":"47","category_name":"住宅区","address":"川沙路锦川路口"},{"poiid":"B2094757D06FA2F8449A","title":"浦东新区人民医院","lon":"121.7036225","lat":"31.188862802","category":"162","category_name":"医院","address":"上海浦东新区川环南路490号"},{"poiid":"B2094757D06FA2FF409E","title":"绿地东海岸","lon":"121.70085","lat":"31.18274","category":"119","category_name":"商场","address":"浦东新区川沙路5558号(近绣川路)"},{"poiid":"B2094757D06FA3FF4792","title":"中影国际影城(川沙店)","lon":"121.70053","lat":"31.184015","category":"248","category_name":"生活娱乐","address":"浦东新区川沙路5558号绿地东海岸国际广场6号楼3楼(近绣川路)"},{"poiid":"B2094757D068A0FC4793","title":"上海皇廷国际大酒店","lon":"121.70615172","lat":"31.1834992075","category":"217","category_name":"旅馆招待所","address":"浦东新区绣川路998号(近华夏二路)"},{"poiid":"B2094757DB6EA6FF409E","title":"浦东绿地铂骊酒店(原绿地东海岸豪生酒店)","lon":"121.6999394","lat":"31.18400335","category":"213","category_name":"五星级宾馆","address":"上海市浦东新区川沙路5500号"},{"poiid":"B2094757D069A3FA469F","title":"川沙公园","lon":"121.70290008","lat":"31.189784193","category":"196","category_name":"公园","address":"上海浦东新区川沙城南路411号"},{"poiid":"B2094757D06BA2FB449A","title":"上海市航空服务学校","lon":"121.7076086","lat":"31.189256901","category":"500","category_name":"未知分类","address":"浦东新区川沙新镇川环南路266号"},{"poiid":"B2094757D068ABFD499B","title":"DQ冰雪皇后(川沙店)","lon":"121.70068","lat":"31.185839","category":"113","category_name":"冷饮店","address":"浦东新区川沙路5558号绿地东海岸国际广场(川沙路绣川路)"},{"poiid":"B2094757D068A2F44592","title":"新川饮食店","lon":"121.704636054","lat":"31.194273793","category":"68","category_name":"快餐厅","address":"浦东新区川黄路22号(近新川路口)"},{"poiid":"B2094654DA6AABF54899","title":"上海电视大学浦东新区分校","lon":"121.7071","lat":"31.18906","category":"52","category_name":"高等院校","address":"浦东新区川沙镇川环南路320号(川环南路川黄路)"},{"poiid":"B2094750D76CA7FB4099","title":"厨观餐厅","lon":"121.701","lat":"31.1835","category":"72","category_name":"广东菜","address":"浦东新区川沙路5558号绿地东海岸国际广场2号202铺(近绣川路)"},{"poiid":"B2094757D469A4F8449B","title":"星巴克 绿地东海岸店 STARBUCKS COFFEE","lon":"121.70043","lat":"31.18328","category":"65","category_name":"咖啡厅","address":"川沙路5558号绿地东海岸国际广场近绣川路"},{"poiid":"B2094757D06BAAF84593","title":"圣地亚歌量贩式KTV","lon":"121.705608785","lat":"31.1894834871","category":"170","category_name":"KTV","address":"上海川黄路271号"},{"poiid":"B2094750DA65A6FB4393","title":"盈田盈粥庄(川沙店)","lon":"121.70041","lat":"31.18345","category":"72","category_name":"广东菜","address":"浦东新区川沙路5558弄绿地东海岸国际广场内(近川环南路)"},{"poiid":"B2094757D16CA3FC4792","title":"香藤缘","lon":"121.71257","lat":"31.18995","category":"76","category_name":"上海菜","address":"浦东新区川沙镇川环南路太平村48号(近太平桥)"},{"poiid":"B2094757D065A7F8449A","title":"九龙锦江大酒店","lon":"121.70547","lat":"31.19045","category":"76","category_name":"上海菜","address":"浦东新区川黄路222号(川黄路川沙南桥路)"},{"poiid":"B2094654DA6BA3FB499E","title":"绿海家园","lon":"121.70656","lat":"31.186697","category":"47","category_name":"住宅区","address":"川周公路8828弄"},{"poiid":"B2094757D16AA6FE4699","title":"鼎鑫名流苑","lon":"121.70965955","lat":"31.185332871","category":"47","category_name":"住宅区","address":"浦东新区川周路8682弄"},{"poiid":"B2094757D068A2FC4093","title":"maxyou歌城","lon":"121.701759","lat":"31.190503","category":"170","category_name":"KTV","address":"上海川沙绿地东海岸"},{"poiid":"B2094655D36CA5FD4693","title":"川沙人民医院","lon":"121.70412","lat":"31.18827","category":"162","category_name":"医院","address":""},{"poiid":"B2094757D069AAF4459E","title":"禾绿回转寿司川沙店","lon":"121.70046867","lat":"31.182932576","category":"95","category_name":"日本料理","address":"浦东新区川沙路5558号绿地东海岸国际广场内(近绣川路)"},{"poiid":"B2094757D069A1F94399","title":"Jepson Bread(绿地东海岸店)","lon":"121.69964466","lat":"31.185806875","category":"67","category_name":"甜品店","address":"浦东新区川沙路5558号绿地东海岸国际广场5号楼1楼105室(近绣川路)"},{"poiid":"B2094750D26FA7FE409F","title":"呀咪咖喱屋 川沙店 Yummie House","lon":"121.7004101","lat":"31.1834596","category":"94","category_name":"西餐厅","address":"浦东新区川沙路5558号绿地东海岸国际广场内"},{"poiid":"B2094655D26BAAFD499E","title":"莫泰168旅店(上海锦川店)","lon":"121.70045","lat":"31.18449","category":"216","category_name":"经济型连锁酒店","address":"上海浦东新区川沙路5533号（近西康路）"},{"poiid":"B2094751D36EA5FC499F","title":"金桂皇朝(川沙店)","lon":"121.70756","lat":"31.18526","category":"72","category_name":"广东菜","address":"浦东新区绣川路998号皇廷国际大酒店1-2楼(近川周路)"},{"poiid":"B2094750D76FAAFF4698","title":"光头烧烤吧(川沙路店)","lon":"121.701","lat":"31.1835","category":"68","category_name":"快餐厅","address":"浦东新区川沙路5558号绿地东海岸国际广场3号楼1楼(近绣川路)"},{"poiid":"B2094752D76AA6F9419A","title":"浦东机场T1航站楼","lon":"121.701664","lat":"31.182811","category":"500","category_name":"未知分类","address":null},{"poiid":"B2094654DB69AAF9439D","title":"紫来轩 九龙锦江店","lon":"121.70542799716","lat":"31.191621841231","category":"76","category_name":"上海菜","address":"浦东新区川沙川黄路222号九龙锦江大酒店11楼"},{"poiid":"B2094757D66AAAFA4392","title":"一番屋","lon":"121.7005879","lat":"31.1830104","category":"95","category_name":"日本料理","address":"浦东新区绣川路998号皇廷国际大酒店1楼(近川沙站)"},{"poiid":"B2094757D16EA2F9429B","title":"川沙地铁站2号出口","lon":"121.701401","lat":"31.187679","category":"36","category_name":"地铁站","address":"上海川环南路"},{"poiid":"B2094655D36CA5FE469E","title":"川环南路川黄路","lon":"121.7068","lat":"31.18874","category":"38","category_name":"公交车站","address":""},{"poiid":"B2094750DA6AAAFF499B","title":"澳门豆捞","lon":"121.707562","lat":"31.18549","category":"86","category_name":"火锅店","address":"浦东新区绣川路998号皇廷国际大酒店"},{"poiid":"B2094757D164A1FA469F","title":"新丽湾","lon":"121.71157","lat":"31.18924","category":"76","category_name":"上海菜","address":"浦东新区川环南路103-107号(近曙光路)"},{"poiid":"B2094757D169ABFC469F","title":"正宗云南过桥米线","lon":"121.70582518","lat":"31.189428385","category":"68","category_name":"快餐厅","address":"浦东新区川沙镇川黄路225号九龙大酒店对面(近南桥路)"},{"poiid":"B2094751D268A7FA499A","title":"草原地火锅","lon":"121.708374","lat":"31.191139","category":"247","category_name":"餐饮美食","address":"川环南路247号"},{"poiid":"B2094655D36CA5FE4593","title":"曙航苑","lon":"121.7103","lat":"31.189768","category":"38","category_name":"公交车站","address":"川环南路148弄"},{"poiid":"B2094654DA6AA4FD489B","title":"观澜小学","lon":"121.70613","lat":"31.19489","category":"56","category_name":"小学","address":"浦东新区新川路171号(东城壕路新川路)"},{"poiid":"B2094753D36FA3FE499A","title":"浦东机场2号航站楼国际出发","lon":"121.70168","lat":"31.191174","category":"500","category_name":"未知分类","address":"上海市 浦东机场2号航站楼"},{"poiid":"B2094654DA6BA3FB499C","title":"快客(川黄路)","lon":"121.70652","lat":"31.1868","category":"117","category_name":"便民商店/便利店","address":""},{"poiid":"B2094654DA6AA5F5419B","title":"绿珠卡拉OK厅","lon":"121.70934","lat":"31.18905","category":"170","category_name":"KTV","address":"川环南路264号"},{"poiid":"B2094654DA6AABF54998","title":"曙光北苑","lon":"121.71003","lat":"31.192335","category":"47","category_name":"住宅区","address":"南桥路86弄"},{"poiid":"B2094654DA6AABF5489A","title":"上海市浦东新区卫生学校","lon":"121.70923","lat":"31.18946","category":"54","category_name":"职业技术学校","address":"川环南路200"},{"poiid":"B2094757D064AAF54493","title":"曙光东苑","lon":"121.71144","lat":"31.19128","category":"47","category_name":"住宅区","address":"上海浦东新区川沙学北路337弄"},{"poiid":"B2094654DA6AABF5489E","title":"上海电视大学浦东新区分校一站式学生支持服务中心","lon":"121.70651","lat":"31.18893","category":"52","category_name":"高等院校","address":""},{"poiid":"B2094757D464AAF5479F","title":"爵鼎鸡 川黄路店","lon":"121.70445","lat":"31.19416","category":"68","category_name":"快餐厅","address":"浦东新区川黄路25号(新川路口)"},{"poiid":"B2094757DB6DA4FD4399","title":"景悦99客栈（上海南桥店）","lon":"121.705089","lat":"31.191002","category":"216","category_name":"经济型连锁酒店","address":"上海浦东新区川沙镇南桥路344号(近新川路)"},{"poiid":"B2094654DA6BA3F44393","title":"好德(川环南路)","lon":"121.70558","lat":"31.18873","category":"117","category_name":"便民商店/便利店","address":""},{"poiid":"B2094654DA6BA3FB489C","title":"九州通大药房(川黄路)","lon":"121.70668","lat":"31.18612","category":"162","category_name":"医院","address":""},{"poiid":"B2094751D564A0F44098","title":"皇庭国际大酒店","lon":"121.706075","lat":"31.185052","category":"500","category_name":"未知分类","address":null},{"poiid":"B2094655D264A0F9479E","title":"绿地东海岸国际广场","lon":"121.70689043678","lat":"31.19116655616","category":"47","category_name":"住宅区","address":"川沙路锦川路口"},{"poiid":"B2094757D06FA2F8449A","title":"浦东新区人民医院","lon":"121.7036225","lat":"31.188862802","category":"162","category_name":"医院","address":"上海浦东新区川环南路490号"},{"poiid":"B2094757D06FA2FF409E","title":"绿地东海岸","lon":"121.70085","lat":"31.18274","category":"119","category_name":"商场","address":"浦东新区川沙路5558号(近绣川路)"},{"poiid":"B2094757D06FA3FF4792","title":"中影国际影城(川沙店)","lon":"121.70053","lat":"31.184015","category":"248","category_name":"生活娱乐","address":"浦东新区川沙路5558号绿地东海岸国际广场6号楼3楼(近绣川路)"},{"poiid":"B2094757D068A0FC4793","title":"上海皇廷国际大酒店","lon":"121.70615172","lat":"31.1834992075","category":"217","category_name":"旅馆招待所","address":"浦东新区绣川路998号(近华夏二路)"},{"poiid":"B2094757DB6EA6FF409E","title":"浦东绿地铂骊酒店(原绿地东海岸豪生酒店)","lon":"121.6999394","lat":"31.18400335","category":"213","category_name":"五星级宾馆","address":"上海市浦东新区川沙路5500号"},{"poiid":"B2094757D069A3FA469F","title":"川沙公园","lon":"121.70290008","lat":"31.189784193","category":"196","category_name":"公园","address":"上海浦东新区川沙城南路411号"},{"poiid":"B2094757D06BA2FB449A","title":"上海市航空服务学校","lon":"121.7076086","lat":"31.189256901","category":"500","category_name":"未知分类","address":"浦东新区川沙新镇川环南路266号"},{"poiid":"B2094757D068ABFD499B","title":"DQ冰雪皇后(川沙店)","lon":"121.70068","lat":"31.185839","category":"113","category_name":"冷饮店","address":"浦东新区川沙路5558号绿地东海岸国际广场(川沙路绣川路)"},{"poiid":"B2094757D068A2F44592","title":"新川饮食店","lon":"121.704636054","lat":"31.194273793","category":"68","category_name":"快餐厅","address":"浦东新区川黄路22号(近新川路口)"},{"poiid":"B2094654DA6AABF54899","title":"上海电视大学浦东新区分校","lon":"121.7071","lat":"31.18906","category":"52","category_name":"高等院校","address":"浦东新区川沙镇川环南路320号(川环南路川黄路)"},{"poiid":"B2094750D76CA7FB4099","title":"厨观餐厅","lon":"121.701","lat":"31.1835","category":"72","category_name":"广东菜","address":"浦东新区川沙路5558号绿地东海岸国际广场2号202铺(近绣川路)"},{"poiid":"B2094757D469A4F8449B","title":"星巴克 绿地东海岸店 STARBUCKS COFFEE","lon":"121.70043","lat":"31.18328","category":"65","category_name":"咖啡厅","address":"川沙路5558号绿地东海岸国际广场近绣川路"},{"poiid":"B2094757D06BAAF84593","title":"圣地亚歌量贩式KTV","lon":"121.705608785","lat":"31.1894834871","category":"170","category_name":"KTV","address":"上海川黄路271号"},{"poiid":"B2094750DA65A6FB4393","title":"盈田盈粥庄(川沙店)","lon":"121.70041","lat":"31.18345","category":"72","category_name":"广东菜","address":"浦东新区川沙路5558弄绿地东海岸国际广场内(近川环南路)"},{"poiid":"B2094757D16CA3FC4792","title":"香藤缘","lon":"121.71257","lat":"31.18995","category":"76","category_name":"上海菜","address":"浦东新区川沙镇川环南路太平村48号(近太平桥)"},{"poiid":"B2094757D065A7F8449A","title":"九龙锦江大酒店","lon":"121.70547","lat":"31.19045","category":"76","category_name":"上海菜","address":"浦东新区川黄路222号(川黄路川沙南桥路)"},{"poiid":"B2094654DA6BA3FB499E","title":"绿海家园","lon":"121.70656","lat":"31.186697","category":"47","category_name":"住宅区","address":"川周公路8828弄"},{"poiid":"B2094757D16AA6FE4699","title":"鼎鑫名流苑","lon":"121.70965955","lat":"31.185332871","category":"47","category_name":"住宅区","address":"浦东新区川周路8682弄"},{"poiid":"B2094757D068A2FC4093","title":"maxyou歌城","lon":"121.701759","lat":"31.190503","category":"170","category_name":"KTV","address":"上海川沙绿地东海岸"},{"poiid":"B2094655D36CA5FD4693","title":"川沙人民医院","lon":"121.70412","lat":"31.18827","category":"162","category_name":"医院","address":""},{"poiid":"B2094757D069AAF4459E","title":"禾绿回转寿司川沙店","lon":"121.70046867","lat":"31.182932576","category":"95","category_name":"日本料理","address":"浦东新区川沙路5558号绿地东海岸国际广场内(近绣川路)"},{"poiid":"B2094757D069A1F94399","title":"Jepson Bread(绿地东海岸店)","lon":"121.69964466","lat":"31.185806875","category":"67","category_name":"甜品店","address":"浦东新区川沙路5558号绿地东海岸国际广场5号楼1楼105室(近绣川路)"},{"poiid":"B2094750D26FA7FE409F","title":"呀咪咖喱屋 川沙店 Yummie House","lon":"121.7004101","lat":"31.1834596","category":"94","category_name":"西餐厅","address":"浦东新区川沙路5558号绿地东海岸国际广场内"},{"poiid":"B2094655D26BAAFD499E","title":"莫泰168旅店(上海锦川店)","lon":"121.70045","lat":"31.18449","category":"216","category_name":"经济型连锁酒店","address":"上海浦东新区川沙路5533号（近西康路）"},{"poiid":"B2094751D36EA5FC499F","title":"金桂皇朝(川沙店)","lon":"121.70756","lat":"31.18526","category":"72","category_name":"广东菜","address":"浦东新区绣川路998号皇廷国际大酒店1-2楼(近川周路)"},{"poiid":"B2094750D76FAAFF4698","title":"光头烧烤吧(川沙路店)","lon":"121.701","lat":"31.1835","category":"68","category_name":"快餐厅","address":"浦东新区川沙路5558号绿地东海岸国际广场3号楼1楼(近绣川路)"},{"poiid":"B2094752D76AA6F9419A","title":"浦东机场T1航站楼","lon":"121.701664","lat":"31.182811","category":"500","category_name":"未知分类","address":null},{"poiid":"B2094654DB69AAF9439D","title":"紫来轩 九龙锦江店","lon":"121.70542799716","lat":"31.191621841231","category":"76","category_name":"上海菜","address":"浦东新区川沙川黄路222号九龙锦江大酒店11楼"},{"poiid":"B2094757D66AAAFA4392","title":"一番屋","lon":"121.7005879","lat":"31.1830104","category":"95","category_name":"日本料理","address":"浦东新区绣川路998号皇廷国际大酒店1楼(近川沙站)"},{"poiid":"B2094757D16EA2F9429B","title":"川沙地铁站2号出口","lon":"121.701401","lat":"31.187679","category":"36","category_name":"地铁站","address":"上海川环南路"},{"poiid":"B2094655D36CA5FE469E","title":"川环南路川黄路","lon":"121.7068","lat":"31.18874","category":"38","category_name":"公交车站","address":""},{"poiid":"B2094750DA6AAAFF499B","title":"澳门豆捞","lon":"121.707562","lat":"31.18549","category":"86","category_name":"火锅店","address":"浦东新区绣川路998号皇廷国际大酒店"},{"poiid":"B2094757D164A1FA469F","title":"新丽湾","lon":"121.71157","lat":"31.18924","category":"76","category_name":"上海菜","address":"浦东新区川环南路103-107号(近曙光路)"},{"poiid":"B2094757D169ABFC469F","title":"正宗云南过桥米线","lon":"121.70582518","lat":"31.189428385","category":"68","category_name":"快餐厅","address":"浦东新区川沙镇川黄路225号九龙大酒店对面(近南桥路)"},{"poiid":"B2094751D268A7FA499A","title":"草原地火锅","lon":"121.708374","lat":"31.191139","category":"247","category_name":"餐饮美食","address":"川环南路247号"},{"poiid":"B2094655D36CA5FE4593","title":"曙航苑","lon":"121.7103","lat":"31.189768","category":"38","category_name":"公交车站","address":"川环南路148弄"},{"poiid":"B2094654DA6AA4FD489B","title":"观澜小学","lon":"121.70613","lat":"31.19489","category":"56","category_name":"小学","address":"浦东新区新川路171号(东城壕路新川路)"},{"poiid":"B2094753D36FA3FE499A","title":"浦东机场2号航站楼国际出发","lon":"121.70168","lat":"31.191174","category":"500","category_name":"未知分类","address":"上海市 浦东机场2号航站楼"},{"poiid":"B2094654DA6BA3FB499C","title":"快客(川黄路)","lon":"121.70652","lat":"31.1868","category":"117","category_name":"便民商店/便利店","address":""},{"poiid":"B2094654DA6AA5F5419B","title":"绿珠卡拉OK厅","lon":"121.70934","lat":"31.18905","category":"170","category_name":"KTV","address":"川环南路264号"},{"poiid":"B2094654DA6AABF54998","title":"曙光北苑","lon":"121.71003","lat":"31.192335","category":"47","category_name":"住宅区","address":"南桥路86弄"},{"poiid":"B2094654DA6AABF5489A","title":"上海市浦东新区卫生学校","lon":"121.70923","lat":"31.18946","category":"54","category_name":"职业技术学校","address":"川环南路200"},{"poiid":"B2094757D064AAF54493","title":"曙光东苑","lon":"121.71144","lat":"31.19128","category":"47","category_name":"住宅区","address":"上海浦东新区川沙学北路337弄"},{"poiid":"B2094654DA6AABF5489E","title":"上海电视大学浦东新区分校一站式学生支持服务中心","lon":"121.70651","lat":"31.18893","category":"52","category_name":"高等院校","address":""},{"poiid":"B2094757D464AAF5479F","title":"爵鼎鸡 川黄路店","lon":"121.70445","lat":"31.19416","category":"68","category_name":"快餐厅","address":"浦东新区川黄路25号(新川路口)"},{"poiid":"B2094757DB6DA4FD4399","title":"景悦99客栈（上海南桥店）","lon":"121.705089","lat":"31.191002","category":"216","category_name":"经济型连锁酒店","address":"上海浦东新区川沙镇南桥路344号(近新川路)"},{"poiid":"B2094654DA6BA3F44393","title":"好德(川环南路)","lon":"121.70558","lat":"31.18873","category":"117","category_name":"便民商店/便利店","address":""},{"poiid":"B2094654DA6BA3FB489C","title":"九州通大药房(川黄路)","lon":"121.70668","lat":"31.18612","category":"162","category_name":"医院","address":""},{"poiid":"B2094751D564A0F44098","title":"皇庭国际大酒店","lon":"121.706075","lat":"31.185052","category":"500","category_name":"未知分类","address":null},{"poiid":"B2094655D264A0F9479E","title":"绿地东海岸国际广场","lon":"121.70689043678","lat":"31.19116655616","category":"47","category_name":"住宅区","address":"川沙路锦川路口"},{"poiid":"B2094757D06FA2F8449A","title":"浦东新区人民医院","lon":"121.7036225","lat":"31.188862802","category":"162","category_name":"医院","address":"上海浦东新区川环南路490号"},{"poiid":"B2094757D06FA2FF409E","title":"绿地东海岸","lon":"121.70085","lat":"31.18274","category":"119","category_name":"商场","address":"浦东新区川沙路5558号(近绣川路)"},{"poiid":"B2094757D06FA3FF4792","title":"中影国际影城(川沙店)","lon":"121.70053","lat":"31.184015","category":"248","category_name":"生活娱乐","address":"浦东新区川沙路5558号绿地东海岸国际广场6号楼3楼(近绣川路)"},{"poiid":"B2094757D068A0FC4793","title":"上海皇廷国际大酒店","lon":"121.70615172","lat":"31.1834992075","category":"217","category_name":"旅馆招待所","address":"浦东新区绣川路998号(近华夏二路)"},{"poiid":"B2094757DB6EA6FF409E","title":"浦东绿地铂骊酒店(原绿地东海岸豪生酒店)","lon":"121.6999394","lat":"31.18400335","category":"213","category_name":"五星级宾馆","address":"上海市浦东新区川沙路5500号"},{"poiid":"B2094757D069A3FA469F","title":"川沙公园","lon":"121.70290008","lat":"31.189784193","category":"196","category_name":"公园","address":"上海浦东新区川沙城南路411号"},{"poiid":"B2094757D06BA2FB449A","title":"上海市航空服务学校","lon":"121.7076086","lat":"31.189256901","category":"500","category_name":"未知分类","address":"浦东新区川沙新镇川环南路266号"},{"poiid":"B2094757D068ABFD499B","title":"DQ冰雪皇后(川沙店)","lon":"121.70068","lat":"31.185839","category":"113","category_name":"冷饮店","address":"浦东新区川沙路5558号绿地东海岸国际广场(川沙路绣川路)"},{"poiid":"B2094757D068A2F44592","title":"新川饮食店","lon":"121.704636054","lat":"31.194273793","category":"68","category_name":"快餐厅","address":"浦东新区川黄路22号(近新川路口)"},{"poiid":"B2094654DA6AABF54899","title":"上海电视大学浦东新区分校","lon":"121.7071","lat":"31.18906","category":"52","category_name":"高等院校","address":"浦东新区川沙镇川环南路320号(川环南路川黄路)"},{"poiid":"B2094750D76CA7FB4099","title":"厨观餐厅","lon":"121.701","lat":"31.1835","category":"72","category_name":"广东菜","address":"浦东新区川沙路5558号绿地东海岸国际广场2号202铺(近绣川路)"},{"poiid":"B2094757D469A4F8449B","title":"星巴克 绿地东海岸店 STARBUCKS COFFEE","lon":"121.70043","lat":"31.18328","category":"65","category_name":"咖啡厅","address":"川沙路5558号绿地东海岸国际广场近绣川路"},{"poiid":"B2094757D06BAAF84593","title":"圣地亚歌量贩式KTV","lon":"121.705608785","lat":"31.1894834871","category":"170","category_name":"KTV","address":"上海川黄路271号"},{"poiid":"B2094750DA65A6FB4393","title":"盈田盈粥庄(川沙店)","lon":"121.70041","lat":"31.18345","category":"72","category_name":"广东菜","address":"浦东新区川沙路5558弄绿地东海岸国际广场内(近川环南路)"},{"poiid":"B2094757D16CA3FC4792","title":"香藤缘","lon":"121.71257","lat":"31.18995","category":"76","category_name":"上海菜","address":"浦东新区川沙镇川环南路太平村48号(近太平桥)"},{"poiid":"B2094757D065A7F8449A","title":"九龙锦江大酒店","lon":"121.70547","lat":"31.19045","category":"76","category_name":"上海菜","address":"浦东新区川黄路222号(川黄路川沙南桥路)"},{"poiid":"B2094654DA6BA3FB499E","title":"绿海家园","lon":"121.70656","lat":"31.186697","category":"47","category_name":"住宅区","address":"川周公路8828弄"},{"poiid":"B2094757D16AA6FE4699","title":"鼎鑫名流苑","lon":"121.70965955","lat":"31.185332871","category":"47","category_name":"住宅区","address":"浦东新区川周路8682弄"},{"poiid":"B2094757D068A2FC4093","title":"maxyou歌城","lon":"121.701759","lat":"31.190503","category":"170","category_name":"KTV","address":"上海川沙绿地东海岸"},{"poiid":"B2094655D36CA5FD4693","title":"川沙人民医院","lon":"121.70412","lat":"31.18827","category":"162","category_name":"医院","address":""},{"poiid":"B2094757D069AAF4459E","title":"禾绿回转寿司川沙店","lon":"121.70046867","lat":"31.182932576","category":"95","category_name":"日本料理","address":"浦东新区川沙路5558号绿地东海岸国际广场内(近绣川路)"},{"poiid":"B2094757D069A1F94399","title":"Jepson Bread(绿地东海岸店)","lon":"121.69964466","lat":"31.185806875","category":"67","category_name":"甜品店","address":"浦东新区川沙路5558号绿地东海岸国际广场5号楼1楼105室(近绣川路)"},{"poiid":"B2094750D26FA7FE409F","title":"呀咪咖喱屋 川沙店 Yummie House","lon":"121.7004101","lat":"31.1834596","category":"94","category_name":"西餐厅","address":"浦东新区川沙路5558号绿地东海岸国际广场内"},{"poiid":"B2094655D26BAAFD499E","title":"莫泰168旅店(上海锦川店)","lon":"121.70045","lat":"31.18449","category":"216","category_name":"经济型连锁酒店","address":"上海浦东新区川沙路5533号（近西康路）"},{"poiid":"B2094751D36EA5FC499F","title":"金桂皇朝(川沙店)","lon":"121.70756","lat":"31.18526","category":"72","category_name":"广东菜","address":"浦东新区绣川路998号皇廷国际大酒店1-2楼(近川周路)"},{"poiid":"B2094750D76FAAFF4698","title":"光头烧烤吧(川沙路店)","lon":"121.701","lat":"31.1835","category":"68","category_name":"快餐厅","address":"浦东新区川沙路5558号绿地东海岸国际广场3号楼1楼(近绣川路)"},{"poiid":"B2094752D76AA6F9419A","title":"浦东机场T1航站楼","lon":"121.701664","lat":"31.182811","category":"500","category_name":"未知分类","address":null},{"poiid":"B2094654DB69AAF9439D","title":"紫来轩 九龙锦江店","lon":"121.70542799716","lat":"31.191621841231","category":"76","category_name":"上海菜","address":"浦东新区川沙川黄路222号九龙锦江大酒店11楼"},{"poiid":"B2094757D66AAAFA4392","title":"一番屋","lon":"121.7005879","lat":"31.1830104","category":"95","category_name":"日本料理","address":"浦东新区绣川路998号皇廷国际大酒店1楼(近川沙站)"},{"poiid":"B2094757D16EA2F9429B","title":"川沙地铁站2号出口","lon":"121.701401","lat":"31.187679","category":"36","category_name":"地铁站","address":"上海川环南路"},{"poiid":"B2094655D36CA5FE469E","title":"川环南路川黄路","lon":"121.7068","lat":"31.18874","category":"38","category_name":"公交车站","address":""},{"poiid":"B2094750DA6AAAFF499B","title":"澳门豆捞","lon":"121.707562","lat":"31.18549","category":"86","category_name":"火锅店","address":"浦东新区绣川路998号皇廷国际大酒店"},{"poiid":"B2094757D164A1FA469F","title":"新丽湾","lon":"121.71157","lat":"31.18924","category":"76","category_name":"上海菜","address":"浦东新区川环南路103-107号(近曙光路)"},{"poiid":"B2094757D169ABFC469F","title":"正宗云南过桥米线","lon":"121.70582518","lat":"31.189428385","category":"68","category_name":"快餐厅","address":"浦东新区川沙镇川黄路225号九龙大酒店对面(近南桥路)"},{"poiid":"B2094751D268A7FA499A","title":"草原地火锅","lon":"121.708374","lat":"31.191139","category":"247","category_name":"餐饮美食","address":"川环南路247号"},{"poiid":"B2094655D36CA5FE4593","title":"曙航苑","lon":"121.7103","lat":"31.189768","category":"38","category_name":"公交车站","address":"川环南路148弄"},{"poiid":"B2094654DA6AA4FD489B","title":"观澜小学","lon":"121.70613","lat":"31.19489","category":"56","category_name":"小学","address":"浦东新区新川路171号(东城壕路新川路)"},{"poiid":"B2094753D36FA3FE499A","title":"浦东机场2号航站楼国际出发","lon":"121.70168","lat":"31.191174","category":"500","category_name":"未知分类","address":"上海市 浦东机场2号航站楼"},{"poiid":"B2094654DA6BA3FB499C","title":"快客(川黄路)","lon":"121.70652","lat":"31.1868","category":"117","category_name":"便民商店/便利店","address":""},{"poiid":"B2094654DA6AA5F5419B","title":"绿珠卡拉OK厅","lon":"121.70934","lat":"31.18905","category":"170","category_name":"KTV","address":"川环南路264号"},{"poiid":"B2094654DA6AABF54998","title":"曙光北苑","lon":"121.71003","lat":"31.192335","category":"47","category_name":"住宅区","address":"南桥路86弄"},{"poiid":"B2094654DA6AABF5489A","title":"上海市浦东新区卫生学校","lon":"121.70923","lat":"31.18946","category":"54","category_name":"职业技术学校","address":"川环南路200"},{"poiid":"B2094757D064AAF54493","title":"曙光东苑","lon":"121.71144","lat":"31.19128","category":"47","category_name":"住宅区","address":"上海浦东新区川沙学北路337弄"},{"poiid":"B2094654DA6AABF5489E","title":"上海电视大学浦东新区分校一站式学生支持服务中心","lon":"121.70651","lat":"31.18893","category":"52","category_name":"高等院校","address":""},{"poiid":"B2094757D464AAF5479F","title":"爵鼎鸡 川黄路店","lon":"121.70445","lat":"31.19416","category":"68","category_name":"快餐厅","address":"浦东新区川黄路25号(新川路口)"},{"poiid":"B2094757DB6DA4FD4399","title":"景悦99客栈（上海南桥店）","lon":"121.705089","lat":"31.191002","category":"216","category_name":"经济型连锁酒店","address":"上海浦东新区川沙镇南桥路344号(近新川路)"},{"poiid":"B2094654DA6BA3F44393","title":"好德(川环南路)","lon":"121.70558","lat":"31.18873","category":"117","category_name":"便民商店/便利店","address":""},{"poiid":"B2094654DA6BA3FB489C","title":"九州通大药房(川黄路)","lon":"121.70668","lat":"31.18612","category":"162","category_name":"医院","address":""},{"poiid":"B2094751D564A0F44098","title":"皇庭国际大酒店","lon":"121.706075","lat":"31.185052","category":"500","category_name":"未知分类","address":null},{"poiid":"B2094655D264A0F9479E","title":"绿地东海岸国际广场","lon":"121.70689043678","lat":"31.19116655616","category":"47","category_name":"住宅区","address":"川沙路锦川路口"},{"poiid":"B2094757D06FA2F8449A","title":"浦东新区人民医院","lon":"121.7036225","lat":"31.188862802","category":"162","category_name":"医院","address":"上海浦东新区川环南路490号"},{"poiid":"B2094757D06FA2FF409E","title":"绿地东海岸","lon":"121.70085","lat":"31.18274","category":"119","category_name":"商场","address":"浦东新区川沙路5558号(近绣川路)"},{"poiid":"B2094757D06FA3FF4792","title":"中影国际影城(川沙店)","lon":"121.70053","lat":"31.184015","category":"248","category_name":"生活娱乐","address":"浦东新区川沙路5558号绿地东海岸国际广场6号楼3楼(近绣川路)"},{"poiid":"B2094757D068A0FC4793","title":"上海皇廷国际大酒店","lon":"121.70615172","lat":"31.1834992075","category":"217","category_name":"旅馆招待所","address":"浦东新区绣川路998号(近华夏二路)"},{"poiid":"B2094757DB6EA6FF409E","title":"浦东绿地铂骊酒店(原绿地东海岸豪生酒店)","lon":"121.6999394","lat":"31.18400335","category":"213","category_name":"五星级宾馆","address":"上海市浦东新区川沙路5500号"},{"poiid":"B2094757D069A3FA469F","title":"川沙公园","lon":"121.70290008","lat":"31.189784193","category":"196","category_name":"公园","address":"上海浦东新区川沙城南路411号"},{"poiid":"B2094757D06BA2FB449A","title":"上海市航空服务学校","lon":"121.7076086","lat":"31.189256901","category":"500","category_name":"未知分类","address":"浦东新区川沙新镇川环南路266号"},{"poiid":"B2094757D068ABFD499B","title":"DQ冰雪皇后(川沙店)","lon":"121.70068","lat":"31.185839","category":"113","category_name":"冷饮店","address":"浦东新区川沙路5558号绿地东海岸国际广场(川沙路绣川路)"},{"poiid":"B2094757D068A2F44592","title":"新川饮食店","lon":"121.704636054","lat":"31.194273793","category":"68","category_name":"快餐厅","address":"浦东新区川黄路22号(近新川路口)"},{"poiid":"B2094654DA6AABF54899","title":"上海电视大学浦东新区分校","lon":"121.7071","lat":"31.18906","category":"52","category_name":"高等院校","address":"浦东新区川沙镇川环南路320号(川环南路川黄路)"},{"poiid":"B2094750D76CA7FB4099","title":"厨观餐厅","lon":"121.701","lat":"31.1835","category":"72","category_name":"广东菜","address":"浦东新区川沙路5558号绿地东海岸国际广场2号202铺(近绣川路)"},{"poiid":"B2094757D469A4F8449B","title":"星巴克 绿地东海岸店 STARBUCKS COFFEE","lon":"121.70043","lat":"31.18328","category":"65","category_name":"咖啡厅","address":"川沙路5558号绿地东海岸国际广场近绣川路"},{"poiid":"B2094757D06BAAF84593","title":"圣地亚歌量贩式KTV","lon":"121.705608785","lat":"31.1894834871","category":"170","category_name":"KTV","address":"上海川黄路271号"},{"poiid":"B2094750DA65A6FB4393","title":"盈田盈粥庄(川沙店)","lon":"121.70041","lat":"31.18345","category":"72","category_name":"广东菜","address":"浦东新区川沙路5558弄绿地东海岸国际广场内(近川环南路)"},{"poiid":"B2094757D16CA3FC4792","title":"香藤缘","lon":"121.71257","lat":"31.18995","category":"76","category_name":"上海菜","address":"浦东新区川沙镇川环南路太平村48号(近太平桥)"},{"poiid":"B2094757D065A7F8449A","title":"九龙锦江大酒店","lon":"121.70547","lat":"31.19045","category":"76","category_name":"上海菜","address":"浦东新区川黄路222号(川黄路川沙南桥路)"},{"poiid":"B2094654DA6BA3FB499E","title":"绿海家园","lon":"121.70656","lat":"31.186697","category":"47","category_name":"住宅区","address":"川周公路8828弄"},{"poiid":"B2094757D16AA6FE4699","title":"鼎鑫名流苑","lon":"121.70965955","lat":"31.185332871","category":"47","category_name":"住宅区","address":"浦东新区川周路8682弄"},{"poiid":"B2094757D068A2FC4093","title":"maxyou歌城","lon":"121.701759","lat":"31.190503","category":"170","category_name":"KTV","address":"上海川沙绿地东海岸"},{"poiid":"B2094655D36CA5FD4693","title":"川沙人民医院","lon":"121.70412","lat":"31.18827","category":"162","category_name":"医院","address":""},{"poiid":"B2094757D069AAF4459E","title":"禾绿回转寿司川沙店","lon":"121.70046867","lat":"31.182932576","category":"95","category_name":"日本料理","address":"浦东新区川沙路5558号绿地东海岸国际广场内(近绣川路)"},{"poiid":"B2094757D069A1F94399","title":"Jepson Bread(绿地东海岸店)","lon":"121.69964466","lat":"31.185806875","category":"67","category_name":"甜品店","address":"浦东新区川沙路5558号绿地东海岸国际广场5号楼1楼105室(近绣川路)"},{"poiid":"B2094750D26FA7FE409F","title":"呀咪咖喱屋 川沙店 Yummie House","lon":"121.7004101","lat":"31.1834596","category":"94","category_name":"西餐厅","address":"浦东新区川沙路5558号绿地东海岸国际广场内"},{"poiid":"B2094655D26BAAFD499E","title":"莫泰168旅店(上海锦川店)","lon":"121.70045","lat":"31.18449","category":"216","category_name":"经济型连锁酒店","address":"上海浦东新区川沙路5533号（近西康路）"},{"poiid":"B2094751D36EA5FC499F","title":"金桂皇朝(川沙店)","lon":"121.70756","lat":"31.18526","category":"72","category_name":"广东菜","address":"浦东新区绣川路998号皇廷国际大酒店1-2楼(近川周路)"},{"poiid":"B2094750D76FAAFF4698","title":"光头烧烤吧(川沙路店)","lon":"121.701","lat":"31.1835","category":"68","category_name":"快餐厅","address":"浦东新区川沙路5558号绿地东海岸国际广场3号楼1楼(近绣川路)"},{"poiid":"B2094752D76AA6F9419A","title":"浦东机场T1航站楼","lon":"121.701664","lat":"31.182811","category":"500","category_name":"未知分类","address":null},{"poiid":"B2094654DB69AAF9439D","title":"紫来轩 九龙锦江店","lon":"121.70542799716","lat":"31.191621841231","category":"76","category_name":"上海菜","address":"浦东新区川沙川黄路222号九龙锦江大酒店11楼"},{"poiid":"B2094757D66AAAFA4392","title":"一番屋","lon":"121.7005879","lat":"31.1830104","category":"95","category_name":"日本料理","address":"浦东新区绣川路998号皇廷国际大酒店1楼(近川沙站)"},{"poiid":"B2094757D16EA2F9429B","title":"川沙地铁站2号出口","lon":"121.701401","lat":"31.187679","category":"36","category_name":"地铁站","address":"上海川环南路"},{"poiid":"B2094655D36CA5FE469E","title":"川环南路川黄路","lon":"121.7068","lat":"31.18874","category":"38","category_name":"公交车站","address":""},{"poiid":"B2094750DA6AAAFF499B","title":"澳门豆捞","lon":"121.707562","lat":"31.18549","category":"86","category_name":"火锅店","address":"浦东新区绣川路998号皇廷国际大酒店"},{"poiid":"B2094757D164A1FA469F","title":"新丽湾","lon":"121.71157","lat":"31.18924","category":"76","category_name":"上海菜","address":"浦东新区川环南路103-107号(近曙光路)"},{"poiid":"B2094757D169ABFC469F","title":"正宗云南过桥米线","lon":"121.70582518","lat":"31.189428385","category":"68","category_name":"快餐厅","address":"浦东新区川沙镇川黄路225号九龙大酒店对面(近南桥路)"},{"poiid":"B2094751D268A7FA499A","title":"草原地火锅","lon":"121.708374","lat":"31.191139","category":"247","category_name":"餐饮美食","address":"川环南路247号"},{"poiid":"B2094655D36CA5FE4593","title":"曙航苑","lon":"121.7103","lat":"31.189768","category":"38","category_name":"公交车站","address":"川环南路148弄"},{"poiid":"B2094654DA6AA4FD489B","title":"观澜小学","lon":"121.70613","lat":"31.19489","category":"56","category_name":"小学","address":"浦东新区新川路171号(东城壕路新川路)"},{"poiid":"B2094753D36FA3FE499A","title":"浦东机场2号航站楼国际出发","lon":"121.70168","lat":"31.191174","category":"500","category_name":"未知分类","address":"上海市 浦东机场2号航站楼"},{"poiid":"B2094654DA6BA3FB499C","title":"快客(川黄路)","lon":"121.70652","lat":"31.1868","category":"117","category_name":"便民商店/便利店","address":""},{"poiid":"B2094654DA6AA5F5419B","title":"绿珠卡拉OK厅","lon":"121.70934","lat":"31.18905","category":"170","category_name":"KTV","address":"川环南路264号"},{"poiid":"B2094654DA6AABF54998","title":"曙光北苑","lon":"121.71003","lat":"31.192335","category":"47","category_name":"住宅区","address":"南桥路86弄"},{"poiid":"B2094654DA6AABF5489A","title":"上海市浦东新区卫生学校","lon":"121.70923","lat":"31.18946","category":"54","category_name":"职业技术学校","address":"川环南路200"},{"poiid":"B2094757D064AAF54493","title":"曙光东苑","lon":"121.71144","lat":"31.19128","category":"47","category_name":"住宅区","address":"上海浦东新区川沙学北路337弄"},{"poiid":"B2094654DA6AABF5489E","title":"上海电视大学浦东新区分校一站式学生支持服务中心","lon":"121.70651","lat":"31.18893","category":"52","category_name":"高等院校","address":""},{"poiid":"B2094757D464AAF5479F","title":"爵鼎鸡 川黄路店","lon":"121.70445","lat":"31.19416","category":"68","category_name":"快餐厅","address":"浦东新区川黄路25号(新川路口)"},{"poiid":"B2094757DB6DA4FD4399","title":"景悦99客栈（上海南桥店）","lon":"121.705089","lat":"31.191002","category":"216","category_name":"经济型连锁酒店","address":"上海浦东新区川沙镇南桥路344号(近新川路)"},{"poiid":"B2094654DA6BA3F44393","title":"好德(川环南路)","lon":"121.70558","lat":"31.18873","category":"117","category_name":"便民商店/便利店","address":""},{"poiid":"B2094654DA6BA3FB489C","title":"九州通大药房(川黄路)","lon":"121.70668","lat":"31.18612","category":"162","category_name":"医院","address":""},{"poiid":"B2094751D564A0F44098","title":"皇庭国际大酒店","lon":"121.706075","lat":"31.185052","category":"500","category_name":"未知分类","address":null}]