[{"poiid":"B2094757D06FA2FD439F","title":"红房子西菜馆","lon":"121.46237","lat":"31.21747","category":"94","category_name":"西餐厅","address":"卢湾区淮海中路845号(近茂名南路)"},{"poiid":"B2094757D06FA3FC409E","title":"瑞福园(茂名店)","lon":"121.46258","lat":"31.21393","category":"76","category_name":"上海菜","address":"卢湾区茂名南路132号乙(近复兴中路)"},{"poiid":"B2094654DB6BA4FE439F","title":"上海文化广场(北门)","lon":"121.46134","lat":"31.21353","category":"202","category_name":"公园广场","address":"复兴中路597"},{"poiid":"B2094753D76FAAFA449C","title":"上海滩国泰旗舰店","lon":"121.466011","lat":"31.216125","category":"249","category_name":"购物服务","address":"淮海中路868号"},{"poiid":"B209475CD564A7F84292","title":"上海滩新天地店","lon":"121.47463","lat":"31.22164","category":"119","category_name":"商场","address":"\"太仓路181弄新天地北里15号\r\n\""},{"poiid":"B209475CD564A7F8439E","title":"上海滩中信泰富店","lon":"121.45602","lat":"31.22851","category":"119","category_name":"商场","address":"\"南京西路1168号中信泰富广场，店铺号221.\r\n\""},{"poiid":"B2094757D06FA2FE419C","title":"意粉屋 Pasta Inn","lon":"121.46229","lat":"31.21471","category":"94","category_name":"西餐厅","address":"卢湾区茂名南路132号(近南昌路)"},{"poiid":"B2094753DB6CA2FE419F","title":"百丽宫影城（环贸iapm 店）","lon":"121.461425","lat":"31.214521","category":"178","category_name":"电影院","address":"淮海中路999号环贸广场"},{"poiid":"B2094654DA6EA1FE499F","title":"竹屋川菜","lon":"121.46006400887","lat":"31.214710755142","category":"71","category_name":"四川菜","address":"卢湾区陕西南路145-3号(南昌路口)"},{"poiid":"B2094757D06FABFE479E","title":"阿大葱油饼","lon":"121.46193","lat":"31.21593","category":"68","category_name":"快餐厅","address":"卢湾区茂名南路159弄2号后门(近南昌路)"},{"poiid":"B2094757D06FA5F94792","title":"陋室设计书吧","lon":"121.46311623809811","lat":"31.217176613800408","category":"260","category_name":"其他","address":"卢湾区南昌路145号乙(近茂名南路)"},{"poiid":"B2094757D06FA7F44393","title":"甜蜜蜜(茂名南路店)","lon":"121.46152","lat":"31.21648","category":"67","category_name":"甜品店","address":"卢湾区茂名南路80号(近南昌路)"},{"poiid":"B2094753D56BA5FF429A","title":"贝克街221B福尔摩斯主题咖啡店","lon":"121.462867","lat":"31.216363","category":"500","category_name":"未知分类","address":"上海市 瑞金二路50号"},{"poiid":"B2094757D06FA4FA419C","title":"永兴餐厅","lon":"121.46444","lat":"31.21441","category":"76","category_name":"上海菜","address":"卢湾区复兴中路626弄1号(茂名路瑞金路间)"},{"poiid":"B2094757D068A2FB459C","title":"仁清 南昌路店 NINSEI JAPANESE DININGBAR","lon":"121.4639582539","lat":"31.217281624639","category":"95","category_name":"日本料理","address":"卢湾区南昌路125号(近瑞金二路)"},{"poiid":"B2094757D068A2FA4099","title":"巨鹿路","lon":"121.46028137","lat":"31.215452194","category":"260","category_name":"其他","address":"上海卢湾区巨鹿路"},{"poiid":"B2094753D56DA3FA4098","title":"鱼酷活鱼现烤","lon":"121.463157","lat":"31.214649","category":"247","category_name":"餐饮美食","address":"上海市 淮海中路988号黄金世界地下1层"},{"poiid":"B2094654DA6EA1FF4692","title":"福瑞园联谊餐室","lon":"121.46203","lat":"31.21497","category":"257","category_name":"中餐厅","address":"茂名南路132号乙"},{"poiid":"B2094654DA6EA1FD4399","title":"iD Hair","lon":"121.46328","lat":"31.21737","category":"148","category_name":"美容美发店","address":"卢湾区南昌路274号"},{"poiid":"B2094753DB6CA4F4439C","title":"環貿iapm","lon":"121.462417","lat":"31.215452","category":"500","category_name":"未知分类","address":"上海市 淮海中路999號"},{"poiid":"B209475CD46CA1FD4099","title":"StayReal Café by GABEE.","lon":"121.458085","lat":"31.214526","category":"247","category_name":"餐饮美食","address":"上海市徐汇区淮海中路999号环贸广场iapm LG2-246号"},{"poiid":"B2094753DB69AAF84892","title":"千两","lon":"121.462593","lat":"31.213531","category":"247","category_name":"餐饮美食","address":"上海市 淮海中路999号环贸广场"},{"poiid":"B209475CD769A1FE449F","title":"Mr.Choi蔡嘉法式甜品","lon":"121.462043","lat":"31.215843","category":"247","category_name":"餐饮美食","address":"上海市 茂名南路112号(南昌路)"},{"poiid":"B2094753D768A3FE4199","title":"上海市徐汇区中心医院","lon":"121.461021","lat":"31.213911","category":"162","category_name":"医院","address":"上海市 淮海路陕西南路"},{"poiid":"B209475CD469A5F8459D","title":"一风堂","lon":"121.461448","lat":"31.214548","category":"500","category_name":"未知分类","address":"上海市 iapm"},{"poiid":"B2094757D06FA5FA479A","title":"吉野家(陕西南路店)","lon":"121.46013","lat":"31.2152","category":"95","category_name":"日本料理","address":"卢湾区陕西南路141号(近南昌路)"},{"poiid":"B209475CD26CA4FC4598","title":"iapm上海环贸广场","lon":"121.46421","lat":"31.215311","category":"500","category_name":"未知分类","address":"上海市 淮海中路999号"},{"poiid":"B209475CD76CA5F8419D","title":"白熊咖喱（iapm环贸购物中心）","lon":"121.462478","lat":"31.213878","category":"500","category_name":"未知分类","address":"上海市 淮海中路999号环贸广场L5-512(近陕西南路)"},{"poiid":"B2094757D069A4FD459B","title":"老锦江饭店夜上海餐厅","lon":"121.463289476","lat":"31.2152020027","category":"76","category_name":"上海菜","address":"上海茂名路"},{"poiid":"B2094655D36CA6FF439C","title":"复兴中路瑞金二路","lon":"121.46427","lat":"31.2147","category":"38","category_name":"公交车站","address":""},{"poiid":"B2094753DB68A2F9499C","title":"老吉士","lon":"121.461433","lat":"31.214521","category":"247","category_name":"餐饮美食","address":"上海市 淮海中路999号环贸iapm商场3楼"},{"poiid":"B209475DD76FA7FB4492","title":"恋暖の初茶","lon":"121.461441","lat":"31.214523","category":"247","category_name":"餐饮美食","address":"上海市 淮海中路999号环贸iapm广场LG2-227号铺"},{"poiid":"B2094757D068A1F44692","title":"1931 Cafe","lon":"121.462","lat":"31.21537","category":"260","category_name":"其他","address":"卢湾区茂名南路114号(南昌路口)"},{"poiid":"B2094757D064A3F9469C","title":"紋兵衛 瑞金店","lon":"121.46328773","lat":"31.213058934","category":"257","category_name":"中餐厅","address":"上海茂名南路205瑞金大厦１ＦA室"},{"poiid":"B2094757D168A4FB4799","title":"瑞金宾馆11号","lon":"121.46414973","lat":"31.213976953","category":"217","category_name":"旅馆招待所","address":"上海市黄浦区瑞金二路118号（近复兴中路）"},{"poiid":"B2094757D068A4FC449D","title":"园梅","lon":"121.46394","lat":"31.21421","category":"149","category_name":"洗浴推拿场所","address":"卢湾区复兴中路614号(近瑞金二路)"},{"poiid":"B209475CD66BA4FE4399","title":"鹿港小镇（环贸广场店）","lon":"121.462371","lat":"31.214084","category":"500","category_name":"未知分类","address":"上海市 淮海中路999号环贸IAPM广场LG1-143（陕西南路）"},{"poiid":"B2094750D464A6F84193","title":"Grace Studio","lon":"121.460456","lat":"31.215869","category":"248","category_name":"生活娱乐","address":"淮海中路927弄淮海坊93号"},{"poiid":"B209475DDA64A7FD4392","title":"KABB(iapm店)","lon":"121.462455","lat":"31.213277","category":"247","category_name":"餐饮美食","address":"上海市 上海市iapm环贸LG1"},{"poiid":"B209475DD468A2FA479C","title":"小小南国","lon":"121.46434","lat":"31.214624","category":"247","category_name":"餐饮美食","address":"上海市 上海市徐汇区淮海中路939号"},{"poiid":"B2094757D465A3F9499B","title":"新吉诃德土菜馆","lon":"121.46006400887","lat":"31.214710755142","category":"76","category_name":"上海菜","address":"卢湾区陕西南路145号(近南昌路)"},{"poiid":"B2094757D16AA1FC439E","title":"民防科普教育馆","lon":"121.46327","lat":"31.21381","category":"179","category_name":"音乐厅","address":"上海卢湾区复兴中路593号民防大厦内(近瑞金二路)  "},{"poiid":"B209475CD66CA4FD419D","title":"一风堂","lon":"121.461013","lat":"31.213504","category":"500","category_name":"未知分类","address":"上海市 apm"},{"poiid":"B209475DD26BA4FB419F","title":"查厘士港式餐厅","lon":"121.463211","lat":"31.213726","category":"247","category_name":"餐饮美食","address":"上海市 徐汇区淮海中路988号3F"},{"poiid":"B2094655D268A6F9429C","title":"瑞金宾馆贵宾楼","lon":"121.46363","lat":"31.21397","category":"213","category_name":"五星级宾馆","address":""},{"poiid":"B2094655D36CA6FF439F","title":"复兴中路茂名南路","lon":"121.46384","lat":"31.21459","category":"38","category_name":"公交车站","address":"上海复兴中路茂名南路"},{"poiid":"B2094757D66BABFD419B","title":"北万新 香山店","lon":"121.464814054","lat":"31.214811793","category":"68","category_name":"快餐厅","address":"卢湾区瑞金二路111号(近复兴中路)"},{"poiid":"B2094757D464A0F4479C","title":"百碗盛","lon":"121.462444054","lat":"31.213329793","category":"68","category_name":"快餐厅","address":"卢湾区茂名南路136号(近复兴中路)"},{"poiid":"B2094654DB69AAF9419E","title":"中国银行卢湾支行","lon":"121.4629","lat":"31.21385","category":"150","category_name":"银行","address":"上海市卢湾区茂名南路205号"},{"poiid":"B209475DDA69A5F4419F","title":"AIME PATISSERIE","lon":"121.460853","lat":"31.214288","category":"247","category_name":"餐饮美食","address":"上海市 上海淮海中路1008号"},{"poiid":"B2094757D06FA2FD439F","title":"红房子西菜馆","lon":"121.46237","lat":"31.21747","category":"94","category_name":"西餐厅","address":"卢湾区淮海中路845号(近茂名南路)"},{"poiid":"B2094757D06FA3FC409E","title":"瑞福园(茂名店)","lon":"121.46258","lat":"31.21393","category":"76","category_name":"上海菜","address":"卢湾区茂名南路132号乙(近复兴中路)"},{"poiid":"B2094654DB6BA4FE439F","title":"上海文化广场(北门)","lon":"121.46134","lat":"31.21353","category":"202","category_name":"公园广场","address":"复兴中路597"},{"poiid":"B2094753D76FAAFA449C","title":"上海滩国泰旗舰店","lon":"121.466011","lat":"31.216125","category":"249","category_name":"购物服务","address":"淮海中路868号"},{"poiid":"B209475CD564A7F84292","title":"上海滩新天地店","lon":"121.47463","lat":"31.22164","category":"119","category_name":"商场","address":"\"太仓路181弄新天地北里15号\r\n\""},{"poiid":"B209475CD564A7F8439E","title":"上海滩中信泰富店","lon":"121.45602","lat":"31.22851","category":"119","category_name":"商场","address":"\"南京西路1168号中信泰富广场，店铺号221.\r\n\""},{"poiid":"B2094757D06FA2FE419C","title":"意粉屋 Pasta Inn","lon":"121.46229","lat":"31.21471","category":"94","category_name":"西餐厅","address":"卢湾区茂名南路132号(近南昌路)"},{"poiid":"B2094753DB6CA2FE419F","title":"百丽宫影城（环贸iapm 店）","lon":"121.461425","lat":"31.214521","category":"178","category_name":"电影院","address":"淮海中路999号环贸广场"},{"poiid":"B2094654DA6EA1FE499F","title":"竹屋川菜","lon":"121.46006400887","lat":"31.214710755142","category":"71","category_name":"四川菜","address":"卢湾区陕西南路145-3号(南昌路口)"},{"poiid":"B2094757D06FABFE479E","title":"阿大葱油饼","lon":"121.46193","lat":"31.21593","category":"68","category_name":"快餐厅","address":"卢湾区茂名南路159弄2号后门(近南昌路)"},{"poiid":"B2094757D06FA5F94792","title":"陋室设计书吧","lon":"121.46311623809811","lat":"31.217176613800408","category":"260","category_name":"其他","address":"卢湾区南昌路145号乙(近茂名南路)"},{"poiid":"B2094757D06FA7F44393","title":"甜蜜蜜(茂名南路店)","lon":"121.46152","lat":"31.21648","category":"67","category_name":"甜品店","address":"卢湾区茂名南路80号(近南昌路)"},{"poiid":"B2094753D56BA5FF429A","title":"贝克街221B福尔摩斯主题咖啡店","lon":"121.462867","lat":"31.216363","category":"500","category_name":"未知分类","address":"上海市 瑞金二路50号"},{"poiid":"B2094757D06FA4FA419C","title":"永兴餐厅","lon":"121.46444","lat":"31.21441","category":"76","category_name":"上海菜","address":"卢湾区复兴中路626弄1号(茂名路瑞金路间)"},{"poiid":"B2094757D068A2FB459C","title":"仁清 南昌路店 NINSEI JAPANESE DININGBAR","lon":"121.4639582539","lat":"31.217281624639","category":"95","category_name":"日本料理","address":"卢湾区南昌路125号(近瑞金二路)"},{"poiid":"B2094757D068A2FA4099","title":"巨鹿路","lon":"121.46028137","lat":"31.215452194","category":"260","category_name":"其他","address":"上海卢湾区巨鹿路"},{"poiid":"B2094753D56DA3FA4098","title":"鱼酷活鱼现烤","lon":"121.463157","lat":"31.214649","category":"247","category_name":"餐饮美食","address":"上海市 淮海中路988号黄金世界地下1层"},{"poiid":"B2094654DA6EA1FF4692","title":"福瑞园联谊餐室","lon":"121.46203","lat":"31.21497","category":"257","category_name":"中餐厅","address":"茂名南路132号乙"},{"poiid":"B2094654DA6EA1FD4399","title":"iD Hair","lon":"121.46328","lat":"31.21737","category":"148","category_name":"美容美发店","address":"卢湾区南昌路274号"},{"poiid":"B2094753DB6CA4F4439C","title":"環貿iapm","lon":"121.462417","lat":"31.215452","category":"500","category_name":"未知分类","address":"上海市 淮海中路999號"},{"poiid":"B209475CD46CA1FD4099","title":"StayReal Café by GABEE.","lon":"121.458085","lat":"31.214526","category":"247","category_name":"餐饮美食","address":"上海市徐汇区淮海中路999号环贸广场iapm LG2-246号"},{"poiid":"B2094753DB69AAF84892","title":"千两","lon":"121.462593","lat":"31.213531","category":"247","category_name":"餐饮美食","address":"上海市 淮海中路999号环贸广场"},{"poiid":"B209475CD769A1FE449F","title":"Mr.Choi蔡嘉法式甜品","lon":"121.462043","lat":"31.215843","category":"247","category_name":"餐饮美食","address":"上海市 茂名南路112号(南昌路)"},{"poiid":"B2094753D768A3FE4199","title":"上海市徐汇区中心医院","lon":"121.461021","lat":"31.213911","category":"162","category_name":"医院","address":"上海市 淮海路陕西南路"},{"poiid":"B209475CD469A5F8459D","title":"一风堂","lon":"121.461448","lat":"31.214548","category":"500","category_name":"未知分类","address":"上海市 iapm"},{"poiid":"B2094757D06FA5FA479A","title":"吉野家(陕西南路店)","lon":"121.46013","lat":"31.2152","category":"95","category_name":"日本料理","address":"卢湾区陕西南路141号(近南昌路)"},{"poiid":"B209475CD26CA4FC4598","title":"iapm上海环贸广场","lon":"121.46421","lat":"31.215311","category":"500","category_name":"未知分类","address":"上海市 淮海中路999号"},{"poiid":"B209475CD76CA5F8419D","title":"白熊咖喱（iapm环贸购物中心）","lon":"121.462478","lat":"31.213878","category":"500","category_name":"未知分类","address":"上海市 淮海中路999号环贸广场L5-512(近陕西南路)"},{"poiid":"B2094757D069A4FD459B","title":"老锦江饭店夜上海餐厅","lon":"121.463289476","lat":"31.2152020027","category":"76","category_name":"上海菜","address":"上海茂名路"},{"poiid":"B2094655D36CA6FF439C","title":"复兴中路瑞金二路","lon":"121.46427","lat":"31.2147","category":"38","category_name":"公交车站","address":""},{"poiid":"B2094753DB68A2F9499C","title":"老吉士","lon":"121.461433","lat":"31.214521","category":"247","category_name":"餐饮美食","address":"上海市 淮海中路999号环贸iapm商场3楼"},{"poiid":"B209475DD76FA7FB4492","title":"恋暖の初茶","lon":"121.461441","lat":"31.214523","category":"247","category_name":"餐饮美食","address":"上海市 淮海中路999号环贸iapm广场LG2-227号铺"},{"poiid":"B2094757D068A1F44692","title":"1931 Cafe","lon":"121.462","lat":"31.21537","category":"260","category_name":"其他","address":"卢湾区茂名南路114号(南昌路口)"},{"poiid":"B2094757D064A3F9469C","title":"紋兵衛 瑞金店","lon":"121.46328773","lat":"31.213058934","category":"257","category_name":"中餐厅","address":"上海茂名南路205瑞金大厦１ＦA室"},{"poiid":"B2094757D168A4FB4799","title":"瑞金宾馆11号","lon":"121.46414973","lat":"31.213976953","category":"217","category_name":"旅馆招待所","address":"上海市黄浦区瑞金二路118号（近复兴中路）"},{"poiid":"B2094757D068A4FC449D","title":"园梅","lon":"121.46394","lat":"31.21421","category":"149","category_name":"洗浴推拿场所","address":"卢湾区复兴中路614号(近瑞金二路)"},{"poiid":"B209475CD66BA4FE4399","title":"鹿港小镇（环贸广场店）","lon":"121.462371","lat":"31.214084","category":"500","category_name":"未知分类","address":"上海市 淮海中路999号环贸IAPM广场LG1-143（陕西南路）"},{"poiid":"B2094750D464A6F84193","title":"Grace Studio","lon":"121.460456","lat":"31.215869","category":"248","category_name":"生活娱乐","address":"淮海中路927弄淮海坊93号"},{"poiid":"B209475DDA64A7FD4392","title":"KABB(iapm店)","lon":"121.462455","lat":"31.213277","category":"247","category_name":"餐饮美食","address":"上海市 上海市iapm环贸LG1"},{"poiid":"B209475DD468A2FA479C","title":"小小南国","lon":"121.46434","lat":"31.214624","category":"247","category_name":"餐饮美食","address":"上海市 上海市徐汇区淮海中路939号"},{"poiid":"B2094757D465A3F9499B","title":"新吉诃德土菜馆","lon":"121.46006400887","lat":"31.214710755142","category":"76","category_name":"上海菜","address":"卢湾区陕西南路145号(近南昌路)"},{"poiid":"B2094757D16AA1FC439E","title":"民防科普教育馆","lon":"121.46327","lat":"31.21381","category":"179","category_name":"音乐厅","address":"上海卢湾区复兴中路593号民防大厦内(近瑞金二路)  "},{"poiid":"B209475CD66CA4FD419D","title":"一风堂","lon":"121.461013","lat":"31.213504","category":"500","category_name":"未知分类","address":"上海市 apm"},{"poiid":"B209475DD26BA4FB419F","title":"查厘士港式餐厅","lon":"121.463211","lat":"31.213726","category":"247","category_name":"餐饮美食","address":"上海市 徐汇区淮海中路988号3F"},{"poiid":"B2094655D268A6F9429C","title":"瑞金宾馆贵宾楼","lon":"121.46363","lat":"31.21397","category":"213","category_name":"五星级宾馆","address":""},{"poiid":"B2094655D36CA6FF439F","title":"复兴中路茂名南路","lon":"121.46384","lat":"31.21459","category":"38","category_name":"公交车站","address":"上海复兴中路茂名南路"},{"poiid":"B2094757D66BABFD419B","title":"北万新 香山店","lon":"121.464814054","lat":"31.214811793","category":"68","category_name":"快餐厅","address":"卢湾区瑞金二路111号(近复兴中路)"},{"poiid":"B2094757D464A0F4479C","title":"百碗盛","lon":"121.462444054","lat":"31.213329793","category":"68","category_name":"快餐厅","address":"卢湾区茂名南路136号(近复兴中路)"},{"poiid":"B2094654DB69AAF9419E","title":"中国银行卢湾支行","lon":"121.4629","lat":"31.21385","category":"150","category_name":"银行","address":"上海市卢湾区茂名南路205号"},{"poiid":"B209475DDA69A5F4419F","title":"AIME PATISSERIE","lon":"121.460853","lat":"31.214288","category":"247","category_name":"餐饮美食","address":"上海市 上海淮海中路1008号"},{"poiid":"B2094757D06FA2FD439F","title":"红房子西菜馆","lon":"121.46237","lat":"31.21747","category":"94","category_name":"西餐厅","address":"卢湾区淮海中路845号(近茂名南路)"},{"poiid":"B2094757D06FA3FC409E","title":"瑞福园(茂名店)","lon":"121.46258","lat":"31.21393","category":"76","category_name":"上海菜","address":"卢湾区茂名南路132号乙(近复兴中路)"},{"poiid":"B2094654DB6BA4FE439F","title":"上海文化广场(北门)","lon":"121.46134","lat":"31.21353","category":"202","category_name":"公园广场","address":"复兴中路597"},{"poiid":"B2094753D76FAAFA449C","title":"上海滩国泰旗舰店","lon":"121.466011","lat":"31.216125","category":"249","category_name":"购物服务","address":"淮海中路868号"},{"poiid":"B209475CD564A7F84292","title":"上海滩新天地店","lon":"121.47463","lat":"31.22164","category":"119","category_name":"商场","address":"\"太仓路181弄新天地北里15号\r\n\""},{"poiid":"B209475CD564A7F8439E","title":"上海滩中信泰富店","lon":"121.45602","lat":"31.22851","category":"119","category_name":"商场","address":"\"南京西路1168号中信泰富广场，店铺号221.\r\n\""},{"poiid":"B2094757D06FA2FE419C","title":"意粉屋 Pasta Inn","lon":"121.46229","lat":"31.21471","category":"94","category_name":"西餐厅","address":"卢湾区茂名南路132号(近南昌路)"},{"poiid":"B2094753DB6CA2FE419F","title":"百丽宫影城（环贸iapm 店）","lon":"121.461425","lat":"31.214521","category":"178","category_name":"电影院","address":"淮海中路999号环贸广场"},{"poiid":"B2094654DA6EA1FE499F","title":"竹屋川菜","lon":"121.46006400887","lat":"31.214710755142","category":"71","category_name":"四川菜","address":"卢湾区陕西南路145-3号(南昌路口)"},{"poiid":"B2094757D06FABFE479E","title":"阿大葱油饼","lon":"121.46193","lat":"31.21593","category":"68","category_name":"快餐厅","address":"卢湾区茂名南路159弄2号后门(近南昌路)"},{"poiid":"B2094757D06FA5F94792","title":"陋室设计书吧","lon":"121.46311623809811","lat":"31.217176613800408","category":"260","category_name":"其他","address":"卢湾区南昌路145号乙(近茂名南路)"},{"poiid":"B2094757D06FA7F44393","title":"甜蜜蜜(茂名南路店)","lon":"121.46152","lat":"31.21648","category":"67","category_name":"甜品店","address":"卢湾区茂名南路80号(近南昌路)"},{"poiid":"B2094753D56BA5FF429A","title":"贝克街221B福尔摩斯主题咖啡店","lon":"121.462867","lat":"31.216363","category":"500","category_name":"未知分类","address":"上海市 瑞金二路50号"},{"poiid":"B2094757D06FA4FA419C","title":"永兴餐厅","lon":"121.46444","lat":"31.21441","category":"76","category_name":"上海菜","address":"卢湾区复兴中路626弄1号(茂名路瑞金路间)"},{"poiid":"B2094757D068A2FB459C","title":"仁清 南昌路店 NINSEI JAPANESE DININGBAR","lon":"121.4639582539","lat":"31.217281624639","category":"95","category_name":"日本料理","address":"卢湾区南昌路125号(近瑞金二路)"},{"poiid":"B2094757D068A2FA4099","title":"巨鹿路","lon":"121.46028137","lat":"31.215452194","category":"260","category_name":"其他","address":"上海卢湾区巨鹿路"},{"poiid":"B2094753D56DA3FA4098","title":"鱼酷活鱼现烤","lon":"121.463157","lat":"31.214649","category":"247","category_name":"餐饮美食","address":"上海市 淮海中路988号黄金世界地下1层"},{"poiid":"B2094654DA6EA1FF4692","title":"福瑞园联谊餐室","lon":"121.46203","lat":"31.21497","category":"257","category_name":"中餐厅","address":"茂名南路132号乙"},{"poiid":"B2094654DA6EA1FD4399","title":"iD Hair","lon":"121.46328","lat":"31.21737","category":"148","category_name":"美容美发店","address":"卢湾区南昌路274号"},{"poiid":"B2094753DB6CA4F4439C","title":"環貿iapm","lon":"121.462417","lat":"31.215452","category":"500","category_name":"未知分类","address":"上海市 淮海中路999號"},{"poiid":"B209475CD46CA1FD4099","title":"StayReal Café by GABEE.","lon":"121.458085","lat":"31.214526","category":"247","category_name":"餐饮美食","address":"上海市徐汇区淮海中路999号环贸广场iapm LG2-246号"},{"poiid":"B2094753DB69AAF84892","title":"千两","lon":"121.462593","lat":"31.213531","category":"247","category_name":"餐饮美食","address":"上海市 淮海中路999号环贸广场"},{"poiid":"B209475CD769A1FE449F","title":"Mr.Choi蔡嘉法式甜品","lon":"121.462043","lat":"31.215843","category":"247","category_name":"餐饮美食","address":"上海市 茂名南路112号(南昌路)"},{"poiid":"B2094753D768A3FE4199","title":"上海市徐汇区中心医院","lon":"121.461021","lat":"31.213911","category":"162","category_name":"医院","address":"上海市 淮海路陕西南路"},{"poiid":"B209475CD469A5F8459D","title":"一风堂","lon":"121.461448","lat":"31.214548","category":"500","category_name":"未知分类","address":"上海市 iapm"},{"poiid":"B2094757D06FA5FA479A","title":"吉野家(陕西南路店)","lon":"121.46013","lat":"31.2152","category":"95","category_name":"日本料理","address":"卢湾区陕西南路141号(近南昌路)"},{"poiid":"B209475CD26CA4FC4598","title":"iapm上海环贸广场","lon":"121.46421","lat":"31.215311","category":"500","category_name":"未知分类","address":"上海市 淮海中路999号"},{"poiid":"B209475CD76CA5F8419D","title":"白熊咖喱（iapm环贸购物中心）","lon":"121.462478","lat":"31.213878","category":"500","category_name":"未知分类","address":"上海市 淮海中路999号环贸广场L5-512(近陕西南路)"},{"poiid":"B2094757D069A4FD459B","title":"老锦江饭店夜上海餐厅","lon":"121.463289476","lat":"31.2152020027","category":"76","category_name":"上海菜","address":"上海茂名路"},{"poiid":"B2094655D36CA6FF439C","title":"复兴中路瑞金二路","lon":"121.46427","lat":"31.2147","category":"38","category_name":"公交车站","address":""},{"poiid":"B2094753DB68A2F9499C","title":"老吉士","lon":"121.461433","lat":"31.214521","category":"247","category_name":"餐饮美食","address":"上海市 淮海中路999号环贸iapm商场3楼"},{"poiid":"B209475DD76FA7FB4492","title":"恋暖の初茶","lon":"121.461441","lat":"31.214523","category":"247","category_name":"餐饮美食","address":"上海市 淮海中路999号环贸iapm广场LG2-227号铺"},{"poiid":"B2094757D068A1F44692","title":"1931 Cafe","lon":"121.462","lat":"31.21537","category":"260","category_name":"其他","address":"卢湾区茂名南路114号(南昌路口)"},{"poiid":"B2094757D064A3F9469C","title":"紋兵衛 瑞金店","lon":"121.46328773","lat":"31.213058934","category":"257","category_name":"中餐厅","address":"上海茂名南路205瑞金大厦１ＦA室"},{"poiid":"B2094757D168A4FB4799","title":"瑞金宾馆11号","lon":"121.46414973","lat":"31.213976953","category":"217","category_name":"旅馆招待所","address":"上海市黄浦区瑞金二路118号（近复兴中路）"},{"poiid":"B2094757D068A4FC449D","title":"园梅","lon":"121.46394","lat":"31.21421","category":"149","category_name":"洗浴推拿场所","address":"卢湾区复兴中路614号(近瑞金二路)"},{"poiid":"B209475CD66BA4FE4399","title":"鹿港小镇（环贸广场店）","lon":"121.462371","lat":"31.214084","category":"500","category_name":"未知分类","address":"上海市 淮海中路999号环贸IAPM广场LG1-143（陕西南路）"},{"poiid":"B2094750D464A6F84193","title":"Grace Studio","lon":"121.460456","lat":"31.215869","category":"248","category_name":"生活娱乐","address":"淮海中路927弄淮海坊93号"},{"poiid":"B209475DDA64A7FD4392","title":"KABB(iapm店)","lon":"121.462455","lat":"31.213277","category":"247","category_name":"餐饮美食","address":"上海市 上海市iapm环贸LG1"},{"poiid":"B209475DD468A2FA479C","title":"小小南国","lon":"121.46434","lat":"31.214624","category":"247","category_name":"餐饮美食","address":"上海市 上海市徐汇区淮海中路939号"},{"poiid":"B2094757D465A3F9499B","title":"新吉诃德土菜馆","lon":"121.46006400887","lat":"31.214710755142","category":"76","category_name":"上海菜","address":"卢湾区陕西南路145号(近南昌路)"},{"poiid":"B2094757D16AA1FC439E","title":"民防科普教育馆","lon":"121.46327","lat":"31.21381","category":"179","category_name":"音乐厅","address":"上海卢湾区复兴中路593号民防大厦内(近瑞金二路)  "},{"poiid":"B209475CD66CA4FD419D","title":"一风堂","lon":"121.461013","lat":"31.213504","category":"500","category_name":"未知分类","address":"上海市 apm"},{"poiid":"B209475DD26BA4FB419F","title":"查厘士港式餐厅","lon":"121.463211","lat":"31.213726","category":"247","category_name":"餐饮美食","address":"上海市 徐汇区淮海中路988号3F"},{"poiid":"B2094655D268A6F9429C","title":"瑞金宾馆贵宾楼","lon":"121.46363","lat":"31.21397","category":"213","category_name":"五星级宾馆","address":""},{"poiid":"B2094655D36CA6FF439F","title":"复兴中路茂名南路","lon":"121.46384","lat":"31.21459","category":"38","category_name":"公交车站","address":"上海复兴中路茂名南路"},{"poiid":"B2094757D66BABFD419B","title":"北万新 香山店","lon":"121.464814054","lat":"31.214811793","category":"68","category_name":"快餐厅","address":"卢湾区瑞金二路111号(近复兴中路)"},{"poiid":"B2094757D464A0F4479C","title":"百碗盛","lon":"121.462444054","lat":"31.213329793","category":"68","category_name":"快餐厅","address":"卢湾区茂名南路136号(近复兴中路)"},{"poiid":"B2094654DB69AAF9419E","title":"中国银行卢湾支行","lon":"121.4629","lat":"31.21385","category":"150","category_name":"银行","address":"上海市卢湾区茂名南路205号"},{"poiid":"B209475DDA69A5F4419F","title":"AIME PATISSERIE","lon":"121.460853","lat":"31.214288","category":"247","category_name":"餐饮美食","address":"上海市 上海淮海中路1008号"},{"poiid":"B2094757D06FA2FD439F","title":"红房子西菜馆","lon":"121.46237","lat":"31.21747","category":"94","category_name":"西餐厅","address":"卢湾区淮海中路845号(近茂名南路)"},{"poiid":"B2094757D06FA3FC409E","title":"瑞福园(茂名店)","lon":"121.46258","lat":"31.21393","category":"76","category_name":"上海菜","address":"卢湾区茂名南路132号乙(近复兴中路)"},{"poiid":"B2094654DB6BA4FE439F","title":"上海文化广场(北门)","lon":"121.46134","lat":"31.21353","category":"202","category_name":"公园广场","address":"复兴中路597"},{"poiid":"B2094753D76FAAFA449C","title":"上海滩国泰旗舰店","lon":"121.466011","lat":"31.216125","category":"249","category_name":"购物服务","address":"淮海中路868号"},{"poiid":"B209475CD564A7F84292","title":"上海滩新天地店","lon":"121.47463","lat":"31.22164","category":"119","category_name":"商场","address":"\"太仓路181弄新天地北里15号\r\n\""},{"poiid":"B209475CD564A7F8439E","title":"上海滩中信泰富店","lon":"121.45602","lat":"31.22851","category":"119","category_name":"商场","address":"\"南京西路1168号中信泰富广场，店铺号221.\r\n\""},{"poiid":"B2094757D06FA2FE419C","title":"意粉屋 Pasta Inn","lon":"121.46229","lat":"31.21471","category":"94","category_name":"西餐厅","address":"卢湾区茂名南路132号(近南昌路)"},{"poiid":"B2094753DB6CA2FE419F","title":"百丽宫影城（环贸iapm 店）","lon":"121.461425","lat":"31.214521","category":"178","category_name":"电影院","address":"淮海中路999号环贸广场"},{"poiid":"B2094654DA6EA1FE499F","title":"竹屋川菜","lon":"121.46006400887","lat":"31.214710755142","category":"71","category_name":"四川菜","address":"卢湾区陕西南路145-3号(南昌路口)"},{"poiid":"B2094757D06FABFE479E","title":"阿大葱油饼","lon":"121.46193","lat":"31.21593","category":"68","category_name":"快餐厅","address":"卢湾区茂名南路159弄2号后门(近南昌路)"},{"poiid":"B2094757D06FA5F94792","title":"陋室设计书吧","lon":"121.46311623809811","lat":"31.217176613800408","category":"260","category_name":"其他","address":"卢湾区南昌路145号乙(近茂名南路)"},{"poiid":"B2094757D06FA7F44393","title":"甜蜜蜜(茂名南路店)","lon":"121.46152","lat":"31.21648","category":"67","category_name":"甜品店","address":"卢湾区茂名南路80号(近南昌路)"},{"poiid":"B2094753D56BA5FF429A","title":"贝克街221B福尔摩斯主题咖啡店","lon":"121.462867","lat":"31.216363","category":"500","category_name":"未知分类","address":"上海市 瑞金二路50号"},{"poiid":"B2094757D06FA4FA419C","title":"永兴餐厅","lon":"121.46444","lat":"31.21441","category":"76","category_name":"上海菜","address":"卢湾区复兴中路626弄1号(茂名路瑞金路间)"},{"poiid":"B2094757D068A2FB459C","title":"仁清 南昌路店 NINSEI JAPANESE DININGBAR","lon":"121.4639582539","lat":"31.217281624639","category":"95","category_name":"日本料理","address":"卢湾区南昌路125号(近瑞金二路)"},{"poiid":"B2094757D068A2FA4099","title":"巨鹿路","lon":"121.46028137","lat":"31.215452194","category":"260","category_name":"其他","address":"上海卢湾区巨鹿路"},{"poiid":"B2094753D56DA3FA4098","title":"鱼酷活鱼现烤","lon":"121.463157","lat":"31.214649","category":"247","category_name":"餐饮美食","address":"上海市 淮海中路988号黄金世界地下1层"},{"poiid":"B2094654DA6EA1FF4692","title":"福瑞园联谊餐室","lon":"121.46203","lat":"31.21497","category":"257","category_name":"中餐厅","address":"茂名南路132号乙"},{"poiid":"B2094654DA6EA1FD4399","title":"iD Hair","lon":"121.46328","lat":"31.21737","category":"148","category_name":"美容美发店","address":"卢湾区南昌路274号"},{"poiid":"B2094753DB6CA4F4439C","title":"環貿iapm","lon":"121.462417","lat":"31.215452","category":"500","category_name":"未知分类","address":"上海市 淮海中路999號"},{"poiid":"B209475CD46CA1FD4099","title":"StayReal Café by GABEE.","lon":"121.458085","lat":"31.214526","category":"247","category_name":"餐饮美食","address":"上海市徐汇区淮海中路999号环贸广场iapm LG2-246号"},{"poiid":"B2094753DB69AAF84892","title":"千两","lon":"121.462593","lat":"31.213531","category":"247","category_name":"餐饮美食","address":"上海市 淮海中路999号环贸广场"},{"poiid":"B209475CD769A1FE449F","title":"Mr.Choi蔡嘉法式甜品","lon":"121.462043","lat":"31.215843","category":"247","category_name":"餐饮美食","address":"上海市 茂名南路112号(南昌路)"},{"poiid":"B2094753D768A3FE4199","title":"上海市徐汇区中心医院","lon":"121.461021","lat":"31.213911","category":"162","category_name":"医院","address":"上海市 淮海路陕西南路"},{"poiid":"B209475CD469A5F8459D","title":"一风堂","lon":"121.461448","lat":"31.214548","category":"500","category_name":"未知分类","address":"上海市 iapm"},{"poiid":"B2094757D06FA5FA479A","title":"吉野家(陕西南路店)","lon":"121.46013","lat":"31.2152","category":"95","category_name":"日本料理","address":"卢湾区陕西南路141号(近南昌路)"},{"poiid":"B209475CD26CA4FC4598","title":"iapm上海环贸广场","lon":"121.46421","lat":"31.215311","category":"500","category_name":"未知分类","address":"上海市 淮海中路999号"},{"poiid":"B209475CD76CA5F8419D","title":"白熊咖喱（iapm环贸购物中心）","lon":"121.462478","lat":"31.213878","category":"500","category_name":"未知分类","address":"上海市 淮海中路999号环贸广场L5-512(近陕西南路)"},{"poiid":"B2094757D069A4FD459B","title":"老锦江饭店夜上海餐厅","lon":"121.463289476","lat":"31.2152020027","category":"76","category_name":"上海菜","address":"上海茂名路"},{"poiid":"B2094655D36CA6FF439C","title":"复兴中路瑞金二路","lon":"121.46427","lat":"31.2147","category":"38","category_name":"公交车站","address":""},{"poiid":"B2094753DB68A2F9499C","title":"老吉士","lon":"121.461433","lat":"31.214521","category":"247","category_name":"餐饮美食","address":"上海市 淮海中路999号环贸iapm商场3楼"},{"poiid":"B209475DD76FA7FB4492","title":"恋暖の初茶","lon":"121.461441","lat":"31.214523","category":"247","category_name":"餐饮美食","address":"上海市 淮海中路999号环贸iapm广场LG2-227号铺"},{"poiid":"B2094757D068A1F44692","title":"1931 Cafe","lon":"121.462","lat":"31.21537","category":"260","category_name":"其他","address":"卢湾区茂名南路114号(南昌路口)"},{"poiid":"B2094757D064A3F9469C","title":"紋兵衛 瑞金店","lon":"121.46328773","lat":"31.213058934","category":"257","category_name":"中餐厅","address":"上海茂名南路205瑞金大厦１ＦA室"},{"poiid":"B2094757D168A4FB4799","title":"瑞金宾馆11号","lon":"121.46414973","lat":"31.213976953","category":"217","category_name":"旅馆招待所","address":"上海市黄浦区瑞金二路118号（近复兴中路）"},{"poiid":"B2094757D068A4FC449D","title":"园梅","lon":"121.46394","lat":"31.21421","category":"149","category_name":"洗浴推拿场所","address":"卢湾区复兴中路614号(近瑞金二路)"},{"poiid":"B209475CD66BA4FE4399","title":"鹿港小镇（环贸广场店）","lon":"121.462371","lat":"31.214084","category":"500","category_name":"未知分类","address":"上海市 淮海中路999号环贸IAPM广场LG1-143（陕西南路）"},{"poiid":"B2094750D464A6F84193","title":"Grace Studio","lon":"121.460456","lat":"31.215869","category":"248","category_name":"生活娱乐","address":"淮海中路927弄淮海坊93号"},{"poiid":"B209475DDA64A7FD4392","title":"KABB(iapm店)","lon":"121.462455","lat":"31.213277","category":"247","category_name":"餐饮美食","address":"上海市 上海市iapm环贸LG1"},{"poiid":"B209475DD468A2FA479C","title":"小小南国","lon":"121.46434","lat":"31.214624","category":"247","category_name":"餐饮美食","address":"上海市 上海市徐汇区淮海中路939号"},{"poiid":"B2094757D465A3F9499B","title":"新吉诃德土菜馆","lon":"121.46006400887","lat":"31.214710755142","category":"76","category_name":"上海菜","address":"卢湾区陕西南路145号(近南昌路)"},{"poiid":"B2094757D16AA1FC439E","title":"民防科普教育馆","lon":"121.46327","lat":"31.21381","category":"179","category_name":"音乐厅","address":"上海卢湾区复兴中路593号民防大厦内(近瑞金二路)  "},{"poiid":"B209475CD66CA4FD419D","title":"一风堂","lon":"121.461013","lat":"31.213504","category":"500","category_name":"未知分类","address":"上海市 apm"},{"poiid":"B209475DD26BA4FB419F","title":"查厘士港式餐厅","lon":"121.463211","lat":"31.213726","category":"247","category_name":"餐饮美食","address":"上海市 徐汇区淮海中路988号3F"},{"poiid":"B2094655D268A6F9429C","title":"瑞金宾馆贵宾楼","lon":"121.46363","lat":"31.21397","category":"213","category_name":"五星级宾馆","address":""},{"poiid":"B2094655D36CA6FF439F","title":"复兴中路茂名南路","lon":"121.46384","lat":"31.21459","category":"38","category_name":"公交车站","address":"上海复兴中路茂名南路"},{"poiid":"B2094757D66BABFD419B","title":"北万新 香山店","lon":"121.464814054","lat":"31.214811793","category":"68","category_name":"快餐厅","address":"卢湾区瑞金二路111号(近复兴中路)"},{"poiid":"B2094757D464A0F4479C","title":"百碗盛","lon":"121.462444054","lat":"31.213329793","category":"68","category_name":"快餐厅","address":"卢湾区茂名南路136号(近复兴中路)"},{"poiid":"B2094654DB69AAF9419E","title":"中国银行卢湾支行","lon":"121.4629","lat":"31.21385","category":"150","category_name":"银行","address":"上海市卢湾区茂名南路205号"},{"poiid":"B209475DDA69A5F4419F","title":"AIME PATISSERIE","lon":"121.460853","lat":"31.214288","category":"247","category_name":"餐饮美食","address":"上海市 上海淮海中路1008号"},{"poiid":"B2094757D06FA2FD439F","title":"红房子西菜馆","lon":"121.46237","lat":"31.21747","category":"94","category_name":"西餐厅","address":"卢湾区淮海中路845号(近茂名南路)"},{"poiid":"B2094757D06FA3FC409E","title":"瑞福园(茂名店)","lon":"121.46258","lat":"31.21393","category":"76","category_name":"上海菜","address":"卢湾区茂名南路132号乙(近复兴中路)"},{"poiid":"B2094654DB6BA4FE439F","title":"上海文化广场(北门)","lon":"121.46134","lat":"31.21353","category":"202","category_name":"公园广场","address":"复兴中路597"},{"poiid":"B2094753D76FAAFA449C","title":"上海滩国泰旗舰店","lon":"121.466011","lat":"31.216125","category":"249","category_name":"购物服务","address":"淮海中路868号"},{"poiid":"B209475CD564A7F84292","title":"上海滩新天地店","lon":"121.47463","lat":"31.22164","category":"119","category_name":"商场","address":"\"太仓路181弄新天地北里15号\r\n\""},{"poiid":"B209475CD564A7F8439E","title":"上海滩中信泰富店","lon":"121.45602","lat":"31.22851","category":"119","category_name":"商场","address":"\"南京西路1168号中信泰富广场，店铺号221.\r\n\""},{"poiid":"B2094757D06FA2FE419C","title":"意粉屋 Pasta Inn","lon":"121.46229","lat":"31.21471","category":"94","category_name":"西餐厅","address":"卢湾区茂名南路132号(近南昌路)"},{"poiid":"B2094753DB6CA2FE419F","title":"百丽宫影城（环贸iapm 店）","lon":"121.461425","lat":"31.214521","category":"178","category_name":"电影院","address":"淮海中路999号环贸广场"},{"poiid":"B2094654DA6EA1FE499F","title":"竹屋川菜","lon":"121.46006400887","lat":"31.214710755142","category":"71","category_name":"四川菜","address":"卢湾区陕西南路145-3号(南昌路口)"},{"poiid":"B2094757D06FABFE479E","title":"阿大葱油饼","lon":"121.46193","lat":"31.21593","category":"68","category_name":"快餐厅","address":"卢湾区茂名南路159弄2号后门(近南昌路)"},{"poiid":"B2094757D06FA5F94792","title":"陋室设计书吧","lon":"121.46311623809811","lat":"31.217176613800408","category":"260","category_name":"其他","address":"卢湾区南昌路145号乙(近茂名南路)"},{"poiid":"B2094757D06FA7F44393","title":"甜蜜蜜(茂名南路店)","lon":"121.46152","lat":"31.21648","category":"67","category_name":"甜品店","address":"卢湾区茂名南路80号(近南昌路)"},{"poiid":"B2094753D56BA5FF429A","title":"贝克街221B福尔摩斯主题咖啡店","lon":"121.462867","lat":"31.216363","category":"500","category_name":"未知分类","address":"上海市 瑞金二路50号"},{"poiid":"B2094757D06FA4FA419C","title":"永兴餐厅","lon":"121.46444","lat":"31.21441","category":"76","category_name":"上海菜","address":"卢湾区复兴中路626弄1号(茂名路瑞金路间)"},{"poiid":"B2094757D068A2FB459C","title":"仁清 南昌路店 NINSEI JAPANESE DININGBAR","lon":"121.4639582539","lat":"31.217281624639","category":"95","category_name":"日本料理","address":"卢湾区南昌路125号(近瑞金二路)"},{"poiid":"B2094757D068A2FA4099","title":"巨鹿路","lon":"121.46028137","lat":"31.215452194","category":"260","category_name":"其他","address":"上海卢湾区巨鹿路"},{"poiid":"B2094753D56DA3FA4098","title":"鱼酷活鱼现烤","lon":"121.463157","lat":"31.214649","category":"247","category_name":"餐饮美食","address":"上海市 淮海中路988号黄金世界地下1层"},{"poiid":"B2094654DA6EA1FF4692","title":"福瑞园联谊餐室","lon":"121.46203","lat":"31.21497","category":"257","category_name":"中餐厅","address":"茂名南路132号乙"},{"poiid":"B2094654DA6EA1FD4399","title":"iD Hair","lon":"121.46328","lat":"31.21737","category":"148","category_name":"美容美发店","address":"卢湾区南昌路274号"},{"poiid":"B2094753DB6CA4F4439C","title":"環貿iapm","lon":"121.462417","lat":"31.215452","category":"500","category_name":"未知分类","address":"上海市 淮海中路999號"},{"poiid":"B209475CD46CA1FD4099","title":"StayReal Café by GABEE.","lon":"121.458085","lat":"31.214526","category":"247","category_name":"餐饮美食","address":"上海市徐汇区淮海中路999号环贸广场iapm LG2-246号"},{"poiid":"B2094753DB69AAF84892","title":"千两","lon":"121.462593","lat":"31.213531","category":"247","category_name":"餐饮美食","address":"上海市 淮海中路999号环贸广场"},{"poiid":"B209475CD769A1FE449F","title":"Mr.Choi蔡嘉法式甜品","lon":"121.462043","lat":"31.215843","category":"247","category_name":"餐饮美食","address":"上海市 茂名南路112号(南昌路)"},{"poiid":"B2094753D768A3FE4199","title":"上海市徐汇区中心医院","lon":"121.461021","lat":"31.213911","category":"162","category_name":"医院","address":"上海市 淮海路陕西南路"},{"poiid":"B209475CD469A5F8459D","title":"一风堂","lon":"121.461448","lat":"31.214548","category":"500","category_name":"未知分类","address":"上海市 iapm"},{"poiid":"B2094757D06FA5FA479A","title":"吉野家(陕西南路店)","lon":"121.46013","lat":"31.2152","category":"95","category_name":"日本料理","address":"卢湾区陕西南路141号(近南昌路)"},{"poiid":"B209475CD26CA4FC4598","title":"iapm上海环贸广场","lon":"121.46421","lat":"31.215311","category":"500","category_name":"未知分类","address":"上海市 淮海中路999号"},{"poiid":"B209475CD76CA5F8419D","title":"白熊咖喱（iapm环贸购物中心）","lon":"121.462478","lat":"31.213878","category":"500","category_name":"未知分类","address":"上海市 淮海中路999号环贸广场L5-512(近陕西南路)"},{"poiid":"B2094757D069A4FD459B","title":"老锦江饭店夜上海餐厅","lon":"121.463289476","lat":"31.2152020027","category":"76","category_name":"上海菜","address":"上海茂名路"},{"poiid":"B2094655D36CA6FF439C","title":"复兴中路瑞金二路","lon":"121.46427","lat":"31.2147","category":"38","category_name":"公交车站","address":""},{"poiid":"B2094753DB68A2F9499C","title":"老吉士","lon":"121.461433","lat":"31.214521","category":"247","category_name":"餐饮美食","address":"上海市 淮海中路999号环贸iapm商场3楼"},{"poiid":"B209475DD76FA7FB4492","title":"恋暖の初茶","lon":"121.461441","lat":"31.214523","category":"247","category_name":"餐饮美食","address":"上海市 淮海中路999号环贸iapm广场LG2-227号铺"},{"poiid":"B2094757D068A1F44692","title":"1931 Cafe","lon":"121.462","lat":"31.21537","category":"260","category_name":"其他","address":"卢湾区茂名南路114号(南昌路口)"},{"poiid":"B2094757D064A3F9469C","title":"紋兵衛 瑞金店","lon":"121.46328773","lat":"31.213058934","category":"257","category_name":"中餐厅","address":"上海茂名南路205瑞金大厦１ＦA室"},{"poiid":"B2094757D168A4FB4799","title":"瑞金宾馆11号","lon":"121.46414973","lat":"31.213976953","category":"217","category_name":"旅馆招待所","address":"上海市黄浦区瑞金二路118号（近复兴中路）"},{"poiid":"B2094757D068A4FC449D","title":"园梅","lon":"121.46394","lat":"31.21421","category":"149","category_name":"洗浴推拿场所","address":"卢湾区复兴中路614号(近瑞金二路)"},{"poiid":"B209475CD66BA4FE4399","title":"鹿港小镇（环贸广场店）","lon":"121.462371","lat":"31.214084","category":"500","category_name":"未知分类","address":"上海市 淮海中路999号环贸IAPM广场LG1-143（陕西南路）"},{"poiid":"B2094750D464A6F84193","title":"Grace Studio","lon":"121.460456","lat":"31.215869","category":"248","category_name":"生活娱乐","address":"淮海中路927弄淮海坊93号"},{"poiid":"B209475DDA64A7FD4392","title":"KABB(iapm店)","lon":"121.462455","lat":"31.213277","category":"247","category_name":"餐饮美食","address":"上海市 上海市iapm环贸LG1"},{"poiid":"B209475DD468A2FA479C","title":"小小南国","lon":"121.46434","lat":"31.214624","category":"247","category_name":"餐饮美食","address":"上海市 上海市徐汇区淮海中路939号"},{"poiid":"B2094757D465A3F9499B","title":"新吉诃德土菜馆","lon":"121.46006400887","lat":"31.214710755142","category":"76","category_name":"上海菜","address":"卢湾区陕西南路145号(近南昌路)"},{"poiid":"B2094757D16AA1FC439E","title":"民防科普教育馆","lon":"121.46327","lat":"31.21381","category":"179","category_name":"音乐厅","address":"上海卢湾区复兴中路593号民防大厦内(近瑞金二路)  "},{"poiid":"B209475CD66CA4FD419D","title":"一风堂","lon":"121.461013","lat":"31.213504","category":"500","category_name":"未知分类","address":"上海市 apm"},{"poiid":"B209475DD26BA4FB419F","title":"查厘士港式餐厅","lon":"121.463211","lat":"31.213726","category":"247","category_name":"餐饮美食","address":"上海市 徐汇区淮海中路988号3F"},{"poiid":"B2094655D268A6F9429C","title":"瑞金宾馆贵宾楼","lon":"121.46363","lat":"31.21397","category":"213","category_name":"五星级宾馆","address":""},{"poiid":"B2094655D36CA6FF439F","title":"复兴中路茂名南路","lon":"121.46384","lat":"31.21459","category":"38","category_name":"公交车站","address":"上海复兴中路茂名南路"},{"poiid":"B2094757D66BABFD419B","title":"北万新 香山店","lon":"121.464814054","lat":"31.214811793","category":"68","category_name":"快餐厅","address":"卢湾区瑞金二路111号(近复兴中路)"},{"poiid":"B2094757D464A0F4479C","title":"百碗盛","lon":"121.462444054","lat":"31.213329793","category":"68","category_name":"快餐厅","address":"卢湾区茂名南路136号(近复兴中路)"},{"poiid":"B2094654DB69AAF9419E","title":"中国银行卢湾支行","lon":"121.4629","lat":"31.21385","category":"150","category_name":"银行","address":"上海市卢湾区茂名南路205号"},{"poiid":"B209475DDA69A5F4419F","title":"AIME PATISSERIE","lon":"121.460853","lat":"31.214288","category":"247","category_name":"餐饮美食","address":"上海市 上海淮海中路1008号"}]