[{"poiid":"B2094757D06FAAFC4393","title":"幸龙餐厅","lon":"121.37771654","lat":"31.120826978","category":"76","category_name":"上海菜","address":"闵行区报春路781号(近水清路)"},{"poiid":"B2094757D06FA7FB4599","title":"新梅花苑","lon":"121.38634","lat":"31.1243","category":"47","category_name":"住宅区","address":"新梅花苑位于闵行报春路488弄"},{"poiid":"B2094655D36CA1FE4993","title":"水清路报春路","lon":"121.37813","lat":"31.12147","category":"38","category_name":"公交车站","address":""},{"poiid":"B2094654DA64A1FF4098","title":"麦盛莉莘庄店","lon":"121.37896","lat":"31.12139","category":"76","category_name":"上海菜","address":"闵行区报春路800号(近水清路)"},{"poiid":"B2094757D06BAAFC499B","title":"闵行区委党校","lon":"121.377752574","lat":"31.1245860977","category":"500","category_name":"未知分类","address":"上海闵行区 疏影路258号"},{"poiid":"B2094757D068AAFB4098","title":"闵行区人民法院","lon":"121.383159757","lat":"31.1156017214","category":"608","category_name":"法院","address":"上海闵行区雅致路99号"},{"poiid":"B2094654DA64A1FE4098","title":"香树丽舍","lon":"121.37424","lat":"31.125828","category":"268","category_name":"自助","address":"闵行区水清路999弄(近秀文路)"},{"poiid":"B2094757D66CA2F44892","title":"百联南方友谊商城","lon":"121.381509857","lat":"31.1225458135","category":"249","category_name":"购物服务","address":"上海市莲花路地铁站对面"},{"poiid":"B2094757D16CA0F94193","title":"报春路龙茗路","lon":"121.38798182","lat":"31.127331009","category":"500","category_name":"未知分类","address":"上海闵行区报春路龙茗路口"},{"poiid":"B2094654DA64A1FE4798","title":"阳明国际花苑(水清路)","lon":"121.37982","lat":"31.11957","category":"47","category_name":"住宅区","address":"水清路588弄"},{"poiid":"B2094655D264A2FD469F","title":"绿茵苑二期","lon":"121.38345","lat":"31.12339","category":"47","category_name":"住宅区","address":"上海市闵行区报春路558弄"},{"poiid":"B2094757D068A7FB4199","title":"迪豪小田园酒店","lon":"121.37732","lat":"31.1229","category":"75","category_name":"浙江菜","address":"闵行区水清路889号(疏影路口)"},{"poiid":"B2094654DB6CA4FE419A","title":"丽华公寓","lon":"121.38165","lat":"31.122587","category":"47","category_name":"住宅区","address":"报春路748弄"},{"poiid":"B2094752D069A6FB4598","title":"Twosome   Coffee","lon":"121.385021","lat":"31.118207","category":"247","category_name":"餐饮美食","address":"上海市 沪闵路7388号南方商城1楼"},{"poiid":"B2094654DA64A1F8449A","title":"星丰苑","lon":"121.37952","lat":"31.128397","category":"47","category_name":"住宅区","address":"上海黎明路155弄"},{"poiid":"B2094654DA65A4F44298","title":"新梅广场(3号门)","lon":"121.38845","lat":"31.12172","category":"47","category_name":"住宅区","address":"沪闵路6666弄"},{"poiid":"B2094655D36CA1FF409B","title":"水清路庙泾路","lon":"121.38098","lat":"31.11555","category":"38","category_name":"公交车站","address":""},{"poiid":"B2094757D06BA2F54192","title":"老顺兴苏州汤包馆(水清路店)","lon":"121.37488","lat":"31.12777","category":"68","category_name":"快餐厅","address":"闵行区水清路1059号(近秀文路)"},{"poiid":"B2094655D265ABFF469C","title":"蜀香村川菜 报春店","lon":"121.388640054","lat":"31.124670793","category":"71","category_name":"四川菜","address":"闵行区报春路400号2楼(新梅花苑大门旁)"},{"poiid":"B2094654DB64A1FF429B","title":"一兆韦德健身","lon":"121.38265","lat":"31.12184","category":"221","category_name":"健身中心","address":"闵行区报春路555号阳明国际花苑内(近山花路)"},{"poiid":"B2094654DB6CA4FA4199","title":"闵行区机关幼儿园丽华分园","lon":"121.3815","lat":"31.12424","category":"57","category_name":"幼儿园","address":"山花路519"},{"poiid":"B2094750D76DA5FA4499","title":"新招鲜本地鸡窝(水清店)","lon":"121.378","lat":"31.1204","category":"86","category_name":"火锅店","address":"闵行区水清路609号(近报春路)"},{"poiid":"B2094654DB64A1FF429A","title":"克莉丝汀 报春路二店","lon":"121.38578","lat":"31.12386","category":"112","category_name":"糕饼店","address":"闵行区报春路555弄101号(近山花路)"},{"poiid":"B2094654DB6CA4FA419B","title":"上海市信宏中学","lon":"121.38129","lat":"31.1246","category":"55","category_name":"中学","address":"山花路555"},{"poiid":"B2094757D66BA5FA4892","title":"重庆三峡烤鱼","lon":"121.377874","lat":"31.121063","category":"71","category_name":"四川菜","address":"闵行区报春路789号(近水清路)"},{"poiid":"B2094654DB65A3FF479F","title":"鸿发家园","lon":"121.38557","lat":"31.130638","category":"47","category_name":"住宅区","address":"古美西路899弄"},{"poiid":"B2094654DB6CA4FA4198","title":"闵行区教师进修学院附属中学","lon":"121.38128","lat":"31.12461","category":"55","category_name":"中学","address":"山花路555"},{"poiid":"B2094757D66DA5F5429D","title":"莘光派出所","lon":"121.38396935","lat":"31.124996762","category":"609","category_name":"警察局","address":"上海报春路"},{"poiid":"B2094757D16FA2F54298","title":"阳明国际花苑四期","lon":"121.385731","lat":"31.125869","category":"47","category_name":"住宅区","address":"上海市闵行区水清路588号"},{"poiid":"B2094654DA64A1F94593","title":"报春三、四村","lon":"121.3757","lat":"31.12046","category":"47","category_name":"住宅区","address":"报春路862弄"},{"poiid":"B2094654DA64A1F84898","title":"水清苑","lon":"121.37822","lat":"31.124073","category":"47","category_name":"住宅区","address":"水清路1000弄"},{"poiid":"B2094750DA68A1FC479A","title":"虹桥火车站","lon":"121.386085","lat":"31.125947","category":"500","category_name":"未知分类","address":null},{"poiid":"B2094757D068A5FF479A","title":"阳明国际花苑五期","lon":"121.39","lat":"31.126","category":"47","category_name":"住宅区","address":"上海山花路108弄"},{"poiid":"B2094757D069A2FE499C","title":"新梅广场","lon":"121.38991","lat":"31.121643","category":"47","category_name":"住宅区","address":"新梅广场三期位于闵行沪闵路6666号"},{"poiid":"B2094757D16FA5F94099","title":"闵行区早教中心","lon":"121.383634857","lat":"31.1216977965","category":"500","category_name":"未知分类","address":"闵行区山花路128号(近报春路)"},{"poiid":"B2094654DA65A4F4479C","title":"孙记面馆","lon":"121.38753","lat":"31.12378","category":"68","category_name":"快餐厅","address":"闵行区报春路439号(虹莘路口)"},{"poiid":"B2094757D06AA7FA409B","title":"大唐别墅","lon":"121.386","lat":"31.1251","category":"47","category_name":"住宅区","address":"上海水清路500弄"},{"poiid":"B2094757D06BA0F5409B","title":"象山海鲜排挡","lon":"121.37806","lat":"31.12164","category":"75","category_name":"浙江菜","address":"闵行区水清路750号(近报春路)"},{"poiid":"B2094757D06AA3FC429F","title":"东苑福邸","lon":"121.377","lat":"31.1251","category":"47","category_name":"住宅区","address":"上海市闵行区群英路88弄"},{"poiid":"B2094757D168A5F4419F","title":"华必和","lon":"121.38741445","lat":"31.124430451","category":"68","category_name":"快餐厅","address":"闵行区报春路400号(近虹莘路)"},{"poiid":"B2094757D06FA7FE419E","title":"水清三村","lon":"121.37881","lat":"31.116762","category":"252","category_name":"楼宇机构","address":"上海市闵行区庙泾路52弄"},{"poiid":"B2094654DA64ABF5419E","title":"银福大厦","lon":"121.379","lat":"31.1263","category":"46","category_name":"楼宇","address":"七莘路750号"},{"poiid":"B2094654DB6CA4F9499C","title":"阳明国际花苑4号门","lon":"121.38311","lat":"31.12032","category":"47","category_name":"住宅区","address":"山花路65弄"},{"poiid":"B2094655D264A7F9449B","title":"阳明国际花苑三期","lon":"121.385758","lat":"31.125877","category":"47","category_name":"住宅区","address":"上海市闵行区水清路588号"},{"poiid":"B2094757D16CA7FB4798","title":"闵行教育培训服务中心体育俱乐部","lon":"121.37766","lat":"31.12226","category":"148","category_name":"美容美发店","address":"上海闵行区水清路769号(近报春路)  "},{"poiid":"B2094654DB6CA4FA4299","title":"小区(永秀路)","lon":"121.38003","lat":"31.12642","category":"47","category_name":"住宅区","address":""},{"poiid":"B2094752D36DA7FE4699","title":"上海火车站候车厅","lon":"121.383975","lat":"31.122741","category":"500","category_name":"未知分类","address":null},{"poiid":"B2094654DB6CABFA4392","title":"上海市莘光学校","lon":"121.38336","lat":"31.11645","category":"55","category_name":"中学","address":"闵行区莘庄镇雅致路18号"},{"poiid":"B2094654DB69A0F4449A","title":"新梅小学","lon":"121.38775","lat":"31.12497","category":"56","category_name":"小学","address":"闵行区报春路388弄48号(近龙茗路)"},{"poiid":"B2094655D26FA3F8439A","title":"春意苑","lon":"121.38541","lat":"31.128122","category":"47","category_name":"住宅区","address":"上海市闵行区虹莘路1518弄"},{"poiid":"B2094757D06FAAFC4393","title":"幸龙餐厅","lon":"121.37771654","lat":"31.120826978","category":"76","category_name":"上海菜","address":"闵行区报春路781号(近水清路)"},{"poiid":"B2094757D06FA7FB4599","title":"新梅花苑","lon":"121.38634","lat":"31.1243","category":"47","category_name":"住宅区","address":"新梅花苑位于闵行报春路488弄"},{"poiid":"B2094655D36CA1FE4993","title":"水清路报春路","lon":"121.37813","lat":"31.12147","category":"38","category_name":"公交车站","address":""},{"poiid":"B2094654DA64A1FF4098","title":"麦盛莉莘庄店","lon":"121.37896","lat":"31.12139","category":"76","category_name":"上海菜","address":"闵行区报春路800号(近水清路)"},{"poiid":"B2094757D06BAAFC499B","title":"闵行区委党校","lon":"121.377752574","lat":"31.1245860977","category":"500","category_name":"未知分类","address":"上海闵行区 疏影路258号"},{"poiid":"B2094757D068AAFB4098","title":"闵行区人民法院","lon":"121.383159757","lat":"31.1156017214","category":"608","category_name":"法院","address":"上海闵行区雅致路99号"},{"poiid":"B2094654DA64A1FE4098","title":"香树丽舍","lon":"121.37424","lat":"31.125828","category":"268","category_name":"自助","address":"闵行区水清路999弄(近秀文路)"},{"poiid":"B2094757D66CA2F44892","title":"百联南方友谊商城","lon":"121.381509857","lat":"31.1225458135","category":"249","category_name":"购物服务","address":"上海市莲花路地铁站对面"},{"poiid":"B2094757D16CA0F94193","title":"报春路龙茗路","lon":"121.38798182","lat":"31.127331009","category":"500","category_name":"未知分类","address":"上海闵行区报春路龙茗路口"},{"poiid":"B2094654DA64A1FE4798","title":"阳明国际花苑(水清路)","lon":"121.37982","lat":"31.11957","category":"47","category_name":"住宅区","address":"水清路588弄"},{"poiid":"B2094655D264A2FD469F","title":"绿茵苑二期","lon":"121.38345","lat":"31.12339","category":"47","category_name":"住宅区","address":"上海市闵行区报春路558弄"},{"poiid":"B2094757D068A7FB4199","title":"迪豪小田园酒店","lon":"121.37732","lat":"31.1229","category":"75","category_name":"浙江菜","address":"闵行区水清路889号(疏影路口)"},{"poiid":"B2094654DB6CA4FE419A","title":"丽华公寓","lon":"121.38165","lat":"31.122587","category":"47","category_name":"住宅区","address":"报春路748弄"},{"poiid":"B2094752D069A6FB4598","title":"Twosome   Coffee","lon":"121.385021","lat":"31.118207","category":"247","category_name":"餐饮美食","address":"上海市 沪闵路7388号南方商城1楼"},{"poiid":"B2094654DA64A1F8449A","title":"星丰苑","lon":"121.37952","lat":"31.128397","category":"47","category_name":"住宅区","address":"上海黎明路155弄"},{"poiid":"B2094654DA65A4F44298","title":"新梅广场(3号门)","lon":"121.38845","lat":"31.12172","category":"47","category_name":"住宅区","address":"沪闵路6666弄"},{"poiid":"B2094655D36CA1FF409B","title":"水清路庙泾路","lon":"121.38098","lat":"31.11555","category":"38","category_name":"公交车站","address":""},{"poiid":"B2094757D06BA2F54192","title":"老顺兴苏州汤包馆(水清路店)","lon":"121.37488","lat":"31.12777","category":"68","category_name":"快餐厅","address":"闵行区水清路1059号(近秀文路)"},{"poiid":"B2094655D265ABFF469C","title":"蜀香村川菜 报春店","lon":"121.388640054","lat":"31.124670793","category":"71","category_name":"四川菜","address":"闵行区报春路400号2楼(新梅花苑大门旁)"},{"poiid":"B2094654DB64A1FF429B","title":"一兆韦德健身","lon":"121.38265","lat":"31.12184","category":"221","category_name":"健身中心","address":"闵行区报春路555号阳明国际花苑内(近山花路)"},{"poiid":"B2094654DB6CA4FA4199","title":"闵行区机关幼儿园丽华分园","lon":"121.3815","lat":"31.12424","category":"57","category_name":"幼儿园","address":"山花路519"},{"poiid":"B2094750D76DA5FA4499","title":"新招鲜本地鸡窝(水清店)","lon":"121.378","lat":"31.1204","category":"86","category_name":"火锅店","address":"闵行区水清路609号(近报春路)"},{"poiid":"B2094654DB64A1FF429A","title":"克莉丝汀 报春路二店","lon":"121.38578","lat":"31.12386","category":"112","category_name":"糕饼店","address":"闵行区报春路555弄101号(近山花路)"},{"poiid":"B2094654DB6CA4FA419B","title":"上海市信宏中学","lon":"121.38129","lat":"31.1246","category":"55","category_name":"中学","address":"山花路555"},{"poiid":"B2094757D66BA5FA4892","title":"重庆三峡烤鱼","lon":"121.377874","lat":"31.121063","category":"71","category_name":"四川菜","address":"闵行区报春路789号(近水清路)"},{"poiid":"B2094654DB65A3FF479F","title":"鸿发家园","lon":"121.38557","lat":"31.130638","category":"47","category_name":"住宅区","address":"古美西路899弄"},{"poiid":"B2094654DB6CA4FA4198","title":"闵行区教师进修学院附属中学","lon":"121.38128","lat":"31.12461","category":"55","category_name":"中学","address":"山花路555"},{"poiid":"B2094757D66DA5F5429D","title":"莘光派出所","lon":"121.38396935","lat":"31.124996762","category":"609","category_name":"警察局","address":"上海报春路"},{"poiid":"B2094757D16FA2F54298","title":"阳明国际花苑四期","lon":"121.385731","lat":"31.125869","category":"47","category_name":"住宅区","address":"上海市闵行区水清路588号"},{"poiid":"B2094654DA64A1F94593","title":"报春三、四村","lon":"121.3757","lat":"31.12046","category":"47","category_name":"住宅区","address":"报春路862弄"},{"poiid":"B2094654DA64A1F84898","title":"水清苑","lon":"121.37822","lat":"31.124073","category":"47","category_name":"住宅区","address":"水清路1000弄"},{"poiid":"B2094750DA68A1FC479A","title":"虹桥火车站","lon":"121.386085","lat":"31.125947","category":"500","category_name":"未知分类","address":null},{"poiid":"B2094757D068A5FF479A","title":"阳明国际花苑五期","lon":"121.39","lat":"31.126","category":"47","category_name":"住宅区","address":"上海山花路108弄"},{"poiid":"B2094757D069A2FE499C","title":"新梅广场","lon":"121.38991","lat":"31.121643","category":"47","category_name":"住宅区","address":"新梅广场三期位于闵行沪闵路6666号"},{"poiid":"B2094757D16FA5F94099","title":"闵行区早教中心","lon":"121.383634857","lat":"31.1216977965","category":"500","category_name":"未知分类","address":"闵行区山花路128号(近报春路)"},{"poiid":"B2094654DA65A4F4479C","title":"孙记面馆","lon":"121.38753","lat":"31.12378","category":"68","category_name":"快餐厅","address":"闵行区报春路439号(虹莘路口)"},{"poiid":"B2094757D06AA7FA409B","title":"大唐别墅","lon":"121.386","lat":"31.1251","category":"47","category_name":"住宅区","address":"上海水清路500弄"},{"poiid":"B2094757D06BA0F5409B","title":"象山海鲜排挡","lon":"121.37806","lat":"31.12164","category":"75","category_name":"浙江菜","address":"闵行区水清路750号(近报春路)"},{"poiid":"B2094757D06AA3FC429F","title":"东苑福邸","lon":"121.377","lat":"31.1251","category":"47","category_name":"住宅区","address":"上海市闵行区群英路88弄"},{"poiid":"B2094757D168A5F4419F","title":"华必和","lon":"121.38741445","lat":"31.124430451","category":"68","category_name":"快餐厅","address":"闵行区报春路400号(近虹莘路)"},{"poiid":"B2094757D06FA7FE419E","title":"水清三村","lon":"121.37881","lat":"31.116762","category":"252","category_name":"楼宇机构","address":"上海市闵行区庙泾路52弄"},{"poiid":"B2094654DA64ABF5419E","title":"银福大厦","lon":"121.379","lat":"31.1263","category":"46","category_name":"楼宇","address":"七莘路750号"},{"poiid":"B2094654DB6CA4F9499C","title":"阳明国际花苑4号门","lon":"121.38311","lat":"31.12032","category":"47","category_name":"住宅区","address":"山花路65弄"},{"poiid":"B2094655D264A7F9449B","title":"阳明国际花苑三期","lon":"121.385758","lat":"31.125877","category":"47","category_name":"住宅区","address":"上海市闵行区水清路588号"},{"poiid":"B2094757D16CA7FB4798","title":"闵行教育培训服务中心体育俱乐部","lon":"121.37766","lat":"31.12226","category":"148","category_name":"美容美发店","address":"上海闵行区水清路769号(近报春路)  "},{"poiid":"B2094654DB6CA4FA4299","title":"小区(永秀路)","lon":"121.38003","lat":"31.12642","category":"47","category_name":"住宅区","address":""},{"poiid":"B2094752D36DA7FE4699","title":"上海火车站候车厅","lon":"121.383975","lat":"31.122741","category":"500","category_name":"未知分类","address":null},{"poiid":"B2094654DB6CABFA4392","title":"上海市莘光学校","lon":"121.38336","lat":"31.11645","category":"55","category_name":"中学","address":"闵行区莘庄镇雅致路18号"},{"poiid":"B2094654DB69A0F4449A","title":"新梅小学","lon":"121.38775","lat":"31.12497","category":"56","category_name":"小学","address":"闵行区报春路388弄48号(近龙茗路)"},{"poiid":"B2094655D26FA3F8439A","title":"春意苑","lon":"121.38541","lat":"31.128122","category":"47","category_name":"住宅区","address":"上海市闵行区虹莘路1518弄"},{"poiid":"B2094757D06FAAFC4393","title":"幸龙餐厅","lon":"121.37771654","lat":"31.120826978","category":"76","category_name":"上海菜","address":"闵行区报春路781号(近水清路)"},{"poiid":"B2094757D06FA7FB4599","title":"新梅花苑","lon":"121.38634","lat":"31.1243","category":"47","category_name":"住宅区","address":"新梅花苑位于闵行报春路488弄"},{"poiid":"B2094655D36CA1FE4993","title":"水清路报春路","lon":"121.37813","lat":"31.12147","category":"38","category_name":"公交车站","address":""},{"poiid":"B2094654DA64A1FF4098","title":"麦盛莉莘庄店","lon":"121.37896","lat":"31.12139","category":"76","category_name":"上海菜","address":"闵行区报春路800号(近水清路)"},{"poiid":"B2094757D06BAAFC499B","title":"闵行区委党校","lon":"121.377752574","lat":"31.1245860977","category":"500","category_name":"未知分类","address":"上海闵行区 疏影路258号"},{"poiid":"B2094757D068AAFB4098","title":"闵行区人民法院","lon":"121.383159757","lat":"31.1156017214","category":"608","category_name":"法院","address":"上海闵行区雅致路99号"},{"poiid":"B2094654DA64A1FE4098","title":"香树丽舍","lon":"121.37424","lat":"31.125828","category":"268","category_name":"自助","address":"闵行区水清路999弄(近秀文路)"},{"poiid":"B2094757D66CA2F44892","title":"百联南方友谊商城","lon":"121.381509857","lat":"31.1225458135","category":"249","category_name":"购物服务","address":"上海市莲花路地铁站对面"},{"poiid":"B2094757D16CA0F94193","title":"报春路龙茗路","lon":"121.38798182","lat":"31.127331009","category":"500","category_name":"未知分类","address":"上海闵行区报春路龙茗路口"},{"poiid":"B2094654DA64A1FE4798","title":"阳明国际花苑(水清路)","lon":"121.37982","lat":"31.11957","category":"47","category_name":"住宅区","address":"水清路588弄"},{"poiid":"B2094655D264A2FD469F","title":"绿茵苑二期","lon":"121.38345","lat":"31.12339","category":"47","category_name":"住宅区","address":"上海市闵行区报春路558弄"},{"poiid":"B2094757D068A7FB4199","title":"迪豪小田园酒店","lon":"121.37732","lat":"31.1229","category":"75","category_name":"浙江菜","address":"闵行区水清路889号(疏影路口)"},{"poiid":"B2094654DB6CA4FE419A","title":"丽华公寓","lon":"121.38165","lat":"31.122587","category":"47","category_name":"住宅区","address":"报春路748弄"},{"poiid":"B2094752D069A6FB4598","title":"Twosome   Coffee","lon":"121.385021","lat":"31.118207","category":"247","category_name":"餐饮美食","address":"上海市 沪闵路7388号南方商城1楼"},{"poiid":"B2094654DA64A1F8449A","title":"星丰苑","lon":"121.37952","lat":"31.128397","category":"47","category_name":"住宅区","address":"上海黎明路155弄"},{"poiid":"B2094654DA65A4F44298","title":"新梅广场(3号门)","lon":"121.38845","lat":"31.12172","category":"47","category_name":"住宅区","address":"沪闵路6666弄"},{"poiid":"B2094655D36CA1FF409B","title":"水清路庙泾路","lon":"121.38098","lat":"31.11555","category":"38","category_name":"公交车站","address":""},{"poiid":"B2094757D06BA2F54192","title":"老顺兴苏州汤包馆(水清路店)","lon":"121.37488","lat":"31.12777","category":"68","category_name":"快餐厅","address":"闵行区水清路1059号(近秀文路)"},{"poiid":"B2094655D265ABFF469C","title":"蜀香村川菜 报春店","lon":"121.388640054","lat":"31.124670793","category":"71","category_name":"四川菜","address":"闵行区报春路400号2楼(新梅花苑大门旁)"},{"poiid":"B2094654DB64A1FF429B","title":"一兆韦德健身","lon":"121.38265","lat":"31.12184","category":"221","category_name":"健身中心","address":"闵行区报春路555号阳明国际花苑内(近山花路)"},{"poiid":"B2094654DB6CA4FA4199","title":"闵行区机关幼儿园丽华分园","lon":"121.3815","lat":"31.12424","category":"57","category_name":"幼儿园","address":"山花路519"},{"poiid":"B2094750D76DA5FA4499","title":"新招鲜本地鸡窝(水清店)","lon":"121.378","lat":"31.1204","category":"86","category_name":"火锅店","address":"闵行区水清路609号(近报春路)"},{"poiid":"B2094654DB64A1FF429A","title":"克莉丝汀 报春路二店","lon":"121.38578","lat":"31.12386","category":"112","category_name":"糕饼店","address":"闵行区报春路555弄101号(近山花路)"},{"poiid":"B2094654DB6CA4FA419B","title":"上海市信宏中学","lon":"121.38129","lat":"31.1246","category":"55","category_name":"中学","address":"山花路555"},{"poiid":"B2094757D66BA5FA4892","title":"重庆三峡烤鱼","lon":"121.377874","lat":"31.121063","category":"71","category_name":"四川菜","address":"闵行区报春路789号(近水清路)"},{"poiid":"B2094654DB65A3FF479F","title":"鸿发家园","lon":"121.38557","lat":"31.130638","category":"47","category_name":"住宅区","address":"古美西路899弄"},{"poiid":"B2094654DB6CA4FA4198","title":"闵行区教师进修学院附属中学","lon":"121.38128","lat":"31.12461","category":"55","category_name":"中学","address":"山花路555"},{"poiid":"B2094757D66DA5F5429D","title":"莘光派出所","lon":"121.38396935","lat":"31.124996762","category":"609","category_name":"警察局","address":"上海报春路"},{"poiid":"B2094757D16FA2F54298","title":"阳明国际花苑四期","lon":"121.385731","lat":"31.125869","category":"47","category_name":"住宅区","address":"上海市闵行区水清路588号"},{"poiid":"B2094654DA64A1F94593","title":"报春三、四村","lon":"121.3757","lat":"31.12046","category":"47","category_name":"住宅区","address":"报春路862弄"},{"poiid":"B2094654DA64A1F84898","title":"水清苑","lon":"121.37822","lat":"31.124073","category":"47","category_name":"住宅区","address":"水清路1000弄"},{"poiid":"B2094750DA68A1FC479A","title":"虹桥火车站","lon":"121.386085","lat":"31.125947","category":"500","category_name":"未知分类","address":null},{"poiid":"B2094757D068A5FF479A","title":"阳明国际花苑五期","lon":"121.39","lat":"31.126","category":"47","category_name":"住宅区","address":"上海山花路108弄"},{"poiid":"B2094757D069A2FE499C","title":"新梅广场","lon":"121.38991","lat":"31.121643","category":"47","category_name":"住宅区","address":"新梅广场三期位于闵行沪闵路6666号"},{"poiid":"B2094757D16FA5F94099","title":"闵行区早教中心","lon":"121.383634857","lat":"31.1216977965","category":"500","category_name":"未知分类","address":"闵行区山花路128号(近报春路)"},{"poiid":"B2094654DA65A4F4479C","title":"孙记面馆","lon":"121.38753","lat":"31.12378","category":"68","category_name":"快餐厅","address":"闵行区报春路439号(虹莘路口)"},{"poiid":"B2094757D06AA7FA409B","title":"大唐别墅","lon":"121.386","lat":"31.1251","category":"47","category_name":"住宅区","address":"上海水清路500弄"},{"poiid":"B2094757D06BA0F5409B","title":"象山海鲜排挡","lon":"121.37806","lat":"31.12164","category":"75","category_name":"浙江菜","address":"闵行区水清路750号(近报春路)"},{"poiid":"B2094757D06AA3FC429F","title":"东苑福邸","lon":"121.377","lat":"31.1251","category":"47","category_name":"住宅区","address":"上海市闵行区群英路88弄"},{"poiid":"B2094757D168A5F4419F","title":"华必和","lon":"121.38741445","lat":"31.124430451","category":"68","category_name":"快餐厅","address":"闵行区报春路400号(近虹莘路)"},{"poiid":"B2094757D06FA7FE419E","title":"水清三村","lon":"121.37881","lat":"31.116762","category":"252","category_name":"楼宇机构","address":"上海市闵行区庙泾路52弄"},{"poiid":"B2094654DA64ABF5419E","title":"银福大厦","lon":"121.379","lat":"31.1263","category":"46","category_name":"楼宇","address":"七莘路750号"},{"poiid":"B2094654DB6CA4F9499C","title":"阳明国际花苑4号门","lon":"121.38311","lat":"31.12032","category":"47","category_name":"住宅区","address":"山花路65弄"},{"poiid":"B2094655D264A7F9449B","title":"阳明国际花苑三期","lon":"121.385758","lat":"31.125877","category":"47","category_name":"住宅区","address":"上海市闵行区水清路588号"},{"poiid":"B2094757D16CA7FB4798","title":"闵行教育培训服务中心体育俱乐部","lon":"121.37766","lat":"31.12226","category":"148","category_name":"美容美发店","address":"上海闵行区水清路769号(近报春路)  "},{"poiid":"B2094654DB6CA4FA4299","title":"小区(永秀路)","lon":"121.38003","lat":"31.12642","category":"47","category_name":"住宅区","address":""},{"poiid":"B2094752D36DA7FE4699","title":"上海火车站候车厅","lon":"121.383975","lat":"31.122741","category":"500","category_name":"未知分类","address":null},{"poiid":"B2094654DB6CABFA4392","title":"上海市莘光学校","lon":"121.38336","lat":"31.11645","category":"55","category_name":"中学","address":"闵行区莘庄镇雅致路18号"},{"poiid":"B2094654DB69A0F4449A","title":"新梅小学","lon":"121.38775","lat":"31.12497","category":"56","category_name":"小学","address":"闵行区报春路388弄48号(近龙茗路)"},{"poiid":"B2094655D26FA3F8439A","title":"春意苑","lon":"121.38541","lat":"31.128122","category":"47","category_name":"住宅区","address":"上海市闵行区虹莘路1518弄"},{"poiid":"B2094757D06FAAFC4393","title":"幸龙餐厅","lon":"121.37771654","lat":"31.120826978","category":"76","category_name":"上海菜","address":"闵行区报春路781号(近水清路)"},{"poiid":"B2094757D06FA7FB4599","title":"新梅花苑","lon":"121.38634","lat":"31.1243","category":"47","category_name":"住宅区","address":"新梅花苑位于闵行报春路488弄"},{"poiid":"B2094655D36CA1FE4993","title":"水清路报春路","lon":"121.37813","lat":"31.12147","category":"38","category_name":"公交车站","address":""},{"poiid":"B2094654DA64A1FF4098","title":"麦盛莉莘庄店","lon":"121.37896","lat":"31.12139","category":"76","category_name":"上海菜","address":"闵行区报春路800号(近水清路)"},{"poiid":"B2094757D06BAAFC499B","title":"闵行区委党校","lon":"121.377752574","lat":"31.1245860977","category":"500","category_name":"未知分类","address":"上海闵行区 疏影路258号"},{"poiid":"B2094757D068AAFB4098","title":"闵行区人民法院","lon":"121.383159757","lat":"31.1156017214","category":"608","category_name":"法院","address":"上海闵行区雅致路99号"},{"poiid":"B2094654DA64A1FE4098","title":"香树丽舍","lon":"121.37424","lat":"31.125828","category":"268","category_name":"自助","address":"闵行区水清路999弄(近秀文路)"},{"poiid":"B2094757D66CA2F44892","title":"百联南方友谊商城","lon":"121.381509857","lat":"31.1225458135","category":"249","category_name":"购物服务","address":"上海市莲花路地铁站对面"},{"poiid":"B2094757D16CA0F94193","title":"报春路龙茗路","lon":"121.38798182","lat":"31.127331009","category":"500","category_name":"未知分类","address":"上海闵行区报春路龙茗路口"},{"poiid":"B2094654DA64A1FE4798","title":"阳明国际花苑(水清路)","lon":"121.37982","lat":"31.11957","category":"47","category_name":"住宅区","address":"水清路588弄"},{"poiid":"B2094655D264A2FD469F","title":"绿茵苑二期","lon":"121.38345","lat":"31.12339","category":"47","category_name":"住宅区","address":"上海市闵行区报春路558弄"},{"poiid":"B2094757D068A7FB4199","title":"迪豪小田园酒店","lon":"121.37732","lat":"31.1229","category":"75","category_name":"浙江菜","address":"闵行区水清路889号(疏影路口)"},{"poiid":"B2094654DB6CA4FE419A","title":"丽华公寓","lon":"121.38165","lat":"31.122587","category":"47","category_name":"住宅区","address":"报春路748弄"},{"poiid":"B2094752D069A6FB4598","title":"Twosome   Coffee","lon":"121.385021","lat":"31.118207","category":"247","category_name":"餐饮美食","address":"上海市 沪闵路7388号南方商城1楼"},{"poiid":"B2094654DA64A1F8449A","title":"星丰苑","lon":"121.37952","lat":"31.128397","category":"47","category_name":"住宅区","address":"上海黎明路155弄"},{"poiid":"B2094654DA65A4F44298","title":"新梅广场(3号门)","lon":"121.38845","lat":"31.12172","category":"47","category_name":"住宅区","address":"沪闵路6666弄"},{"poiid":"B2094655D36CA1FF409B","title":"水清路庙泾路","lon":"121.38098","lat":"31.11555","category":"38","category_name":"公交车站","address":""},{"poiid":"B2094757D06BA2F54192","title":"老顺兴苏州汤包馆(水清路店)","lon":"121.37488","lat":"31.12777","category":"68","category_name":"快餐厅","address":"闵行区水清路1059号(近秀文路)"},{"poiid":"B2094655D265ABFF469C","title":"蜀香村川菜 报春店","lon":"121.388640054","lat":"31.124670793","category":"71","category_name":"四川菜","address":"闵行区报春路400号2楼(新梅花苑大门旁)"},{"poiid":"B2094654DB64A1FF429B","title":"一兆韦德健身","lon":"121.38265","lat":"31.12184","category":"221","category_name":"健身中心","address":"闵行区报春路555号阳明国际花苑内(近山花路)"},{"poiid":"B2094654DB6CA4FA4199","title":"闵行区机关幼儿园丽华分园","lon":"121.3815","lat":"31.12424","category":"57","category_name":"幼儿园","address":"山花路519"},{"poiid":"B2094750D76DA5FA4499","title":"新招鲜本地鸡窝(水清店)","lon":"121.378","lat":"31.1204","category":"86","category_name":"火锅店","address":"闵行区水清路609号(近报春路)"},{"poiid":"B2094654DB64A1FF429A","title":"克莉丝汀 报春路二店","lon":"121.38578","lat":"31.12386","category":"112","category_name":"糕饼店","address":"闵行区报春路555弄101号(近山花路)"},{"poiid":"B2094654DB6CA4FA419B","title":"上海市信宏中学","lon":"121.38129","lat":"31.1246","category":"55","category_name":"中学","address":"山花路555"},{"poiid":"B2094757D66BA5FA4892","title":"重庆三峡烤鱼","lon":"121.377874","lat":"31.121063","category":"71","category_name":"四川菜","address":"闵行区报春路789号(近水清路)"},{"poiid":"B2094654DB65A3FF479F","title":"鸿发家园","lon":"121.38557","lat":"31.130638","category":"47","category_name":"住宅区","address":"古美西路899弄"},{"poiid":"B2094654DB6CA4FA4198","title":"闵行区教师进修学院附属中学","lon":"121.38128","lat":"31.12461","category":"55","category_name":"中学","address":"山花路555"},{"poiid":"B2094757D66DA5F5429D","title":"莘光派出所","lon":"121.38396935","lat":"31.124996762","category":"609","category_name":"警察局","address":"上海报春路"},{"poiid":"B2094757D16FA2F54298","title":"阳明国际花苑四期","lon":"121.385731","lat":"31.125869","category":"47","category_name":"住宅区","address":"上海市闵行区水清路588号"},{"poiid":"B2094654DA64A1F94593","title":"报春三、四村","lon":"121.3757","lat":"31.12046","category":"47","category_name":"住宅区","address":"报春路862弄"},{"poiid":"B2094654DA64A1F84898","title":"水清苑","lon":"121.37822","lat":"31.124073","category":"47","category_name":"住宅区","address":"水清路1000弄"},{"poiid":"B2094750DA68A1FC479A","title":"虹桥火车站","lon":"121.386085","lat":"31.125947","category":"500","category_name":"未知分类","address":null},{"poiid":"B2094757D068A5FF479A","title":"阳明国际花苑五期","lon":"121.39","lat":"31.126","category":"47","category_name":"住宅区","address":"上海山花路108弄"},{"poiid":"B2094757D069A2FE499C","title":"新梅广场","lon":"121.38991","lat":"31.121643","category":"47","category_name":"住宅区","address":"新梅广场三期位于闵行沪闵路6666号"},{"poiid":"B2094757D16FA5F94099","title":"闵行区早教中心","lon":"121.383634857","lat":"31.1216977965","category":"500","category_name":"未知分类","address":"闵行区山花路128号(近报春路)"},{"poiid":"B2094654DA65A4F4479C","title":"孙记面馆","lon":"121.38753","lat":"31.12378","category":"68","category_name":"快餐厅","address":"闵行区报春路439号(虹莘路口)"},{"poiid":"B2094757D06AA7FA409B","title":"大唐别墅","lon":"121.386","lat":"31.1251","category":"47","category_name":"住宅区","address":"上海水清路500弄"},{"poiid":"B2094757D06BA0F5409B","title":"象山海鲜排挡","lon":"121.37806","lat":"31.12164","category":"75","category_name":"浙江菜","address":"闵行区水清路750号(近报春路)"},{"poiid":"B2094757D06AA3FC429F","title":"东苑福邸","lon":"121.377","lat":"31.1251","category":"47","category_name":"住宅区","address":"上海市闵行区群英路88弄"},{"poiid":"B2094757D168A5F4419F","title":"华必和","lon":"121.38741445","lat":"31.124430451","category":"68","category_name":"快餐厅","address":"闵行区报春路400号(近虹莘路)"},{"poiid":"B2094757D06FA7FE419E","title":"水清三村","lon":"121.37881","lat":"31.116762","category":"252","category_name":"楼宇机构","address":"上海市闵行区庙泾路52弄"},{"poiid":"B2094654DA64ABF5419E","title":"银福大厦","lon":"121.379","lat":"31.1263","category":"46","category_name":"楼宇","address":"七莘路750号"},{"poiid":"B2094654DB6CA4F9499C","title":"阳明国际花苑4号门","lon":"121.38311","lat":"31.12032","category":"47","category_name":"住宅区","address":"山花路65弄"},{"poiid":"B2094655D264A7F9449B","title":"阳明国际花苑三期","lon":"121.385758","lat":"31.125877","category":"47","category_name":"住宅区","address":"上海市闵行区水清路588号"},{"poiid":"B2094757D16CA7FB4798","title":"闵行教育培训服务中心体育俱乐部","lon":"121.37766","lat":"31.12226","category":"148","category_name":"美容美发店","address":"上海闵行区水清路769号(近报春路)  "},{"poiid":"B2094654DB6CA4FA4299","title":"小区(永秀路)","lon":"121.38003","lat":"31.12642","category":"47","category_name":"住宅区","address":""},{"poiid":"B2094752D36DA7FE4699","title":"上海火车站候车厅","lon":"121.383975","lat":"31.122741","category":"500","category_name":"未知分类","address":null},{"poiid":"B2094654DB6CABFA4392","title":"上海市莘光学校","lon":"121.38336","lat":"31.11645","category":"55","category_name":"中学","address":"闵行区莘庄镇雅致路18号"},{"poiid":"B2094654DB69A0F4449A","title":"新梅小学","lon":"121.38775","lat":"31.12497","category":"56","category_name":"小学","address":"闵行区报春路388弄48号(近龙茗路)"},{"poiid":"B2094655D26FA3F8439A","title":"春意苑","lon":"121.38541","lat":"31.128122","category":"47","category_name":"住宅区","address":"上海市闵行区虹莘路1518弄"}]