[{"poiid":"B2094757D06EAAF8499F","title":"上海半岛酒店(The Peninsula,Shanghai)","lon":"121.48871485643679","lat":"31.24126498713522","category":"213","category_name":"五星级宾馆","address":"黄浦区中山东一路32号(近北京东路)"},{"poiid":"B2094757D06FA7F84399","title":"上海外滩美术馆","lon":"121.487291","lat":"31.242912","category":"184","category_name":"美术馆","address":"黄浦区虎丘路20号(近北京东路)"},{"poiid":"B2094750D26FA4F94393","title":"MUSE","lon":"121.489089","lat":"31.240596","category":"260","category_name":"其他","address":"黄浦区北京东路99号益丰外滩源5楼(近圆明园路)"},{"poiid":"B209475CD564A7F84292","title":"上海滩新天地店","lon":"121.47463","lat":"31.22164","category":"119","category_name":"商场","address":"\"太仓路181弄新天地北里15号\r\n\""},{"poiid":"B209475CD564A7F84392","title":"上海滩浦东香格里拉店","lon":"121.50058","lat":"31.23634","category":"119","category_name":"商场","address":"浦东富成路33号香格里拉酒店内大堂层"},{"poiid":"B2094757D06FA2F8489D","title":"外滩源","lon":"121.488115","lat":"31.241531","category":"260","category_name":"其他","address":"上海黄浦区中山东一路33号"},{"poiid":"B2094757D06FA2F44992","title":"华盛大厦","lon":"121.489","lat":"31.2411","category":"46","category_name":"楼宇","address":"黄浦区南京东路311号"},{"poiid":"B2094750DA65A3F5489E","title":"御宝轩","lon":"121.489006","lat":"31.24068","category":"72","category_name":"广东菜","address":"黄浦区北京东路99号(近圆明园路)"},{"poiid":"B2094757D06AA2FA4392","title":"香港路","lon":"121.485499","lat":"31.242465","category":"500","category_name":"未知分类","address":"上海香港路"},{"poiid":"B2094757D06FA0FE409C","title":"风波庄(黄浦店)","lon":"121.4865","lat":"31.24275","category":"260","category_name":"其他","address":"黄浦区四川中路670号(近南苏州路)"},{"poiid":"B2094757D569A3F94293","title":"洛克外滩源","lon":"121.48763672","lat":"31.24269775","category":"46","category_name":"楼宇","address":"黄浦苏州河和黄浦江交汇处(上海外滩源头)"},{"poiid":"B2094654DA6FA4F5409B","title":"曼哈顿(外滩)商务酒店","lon":"121.48818","lat":"31.23942","category":"250","category_name":"公园户外","address":"黄浦区滇池路81-85号"},{"poiid":"B2094757D068A0FA489A","title":"圆明园路","lon":"121.488092512","lat":"31.2420983627","category":"260","category_name":"其他","address":"上海黄浦区圆明园路"},{"poiid":"B2094757DB68A5F44399","title":"慧公馆 外滩源店 Maison De L'Hui-waitanyuan","lon":"121.48823","lat":"31.24116","category":"72","category_name":"广东菜","address":"黄浦区圆明园路97号安培大楼3-4楼(近外白渡桥)"},{"poiid":"B2094757D468A4FC4598","title":"艾利爵士餐厅 Sir Elly's Restaurant & Bar","lon":"121.490123054","lat":"31.240919793","category":"97","category_name":"法式菜品餐厅","address":"黄浦区中山东一路32号半岛酒店13楼(近北京东路)"},{"poiid":"B2094750D06EAAFB419A","title":"Muse on The Bund","lon":"121.489181","lat":"31.240453","category":"248","category_name":"生活娱乐","address":"黄浦区北京东路99号益丰外滩源5F"},{"poiid":"B2094753D26AA3F94493","title":"THE LITTLE BLACK JACKET摄影展","lon":"121.487498","lat":"31.241128","category":"183","category_name":"展览馆","address":"上海市 虎丘路14号中实大楼 洛克•外滩源"},{"poiid":"B2094750D165A0FC469E","title":"8 1/2 Otto e Mezzo BOMBANA","lon":"121.488143","lat":"31.242341","category":"94","category_name":"西餐厅","address":"黄浦区圆明园路169号协进大楼6-7楼(近虎丘路)"},{"poiid":"B2094750D26EA2FA419A","title":"辉哥火锅圆明园路店","lon":"121.488487","lat":"31.241041","category":"86","category_name":"火锅店","address":"黄浦区圆明园路115号洛克外滩源(近北京东路)"},{"poiid":"B2094654DA6FA4FB4598","title":"申华金融大厦","lon":"121.48691","lat":"31.23962","category":"46","category_name":"楼宇","address":"浦东临港新城主城区申港大道200号"},{"poiid":"B2094757D76AA1F8469A","title":"半岛茶座","lon":"121.490114054","lat":"31.240935793","category":"99","category_name":"泰国／越南菜品餐厅","address":"黄浦区中山东一路32号半岛酒店2楼(近北京东路)"},{"poiid":"B2094751D364A7FA419F","title":"星巴克外滩店","lon":"121.485804","lat":"31.242252","category":"247","category_name":"餐饮美食","address":"外滩"},{"poiid":"B2094655D264A6FE4299","title":"益丰大厦","lon":"121.48848","lat":"31.24032","category":"46","category_name":"楼宇","address":""},{"poiid":"B2094757D06AA3F4419E","title":"豪享来上海四川中路店","lon":"121.4872","lat":"31.2407","category":"247","category_name":"餐饮美食","address":"上海市黄浦区四川中路470号"},{"poiid":"B209475DD664A4FF439E","title":"Light＆salt","lon":"121.488258","lat":"31.24172","category":"247","category_name":"餐饮美食","address":"上海市 黄浦区圆明园路133号6楼"},{"poiid":"B2094654DA6FA4FF459D","title":"宝龙大酒楼","lon":"121.48596793288","lat":"31.240782833756","category":"72","category_name":"广东菜","address":"黄浦区北京东路230号(近河南中路)"},{"poiid":"B2094654DA6FA0FB469F","title":"汇金大厦","lon":"121.48732391965","lat":"31.240035306526","category":"46","category_name":"楼宇","address":"丰台学城海鹰路1号,3号"},{"poiid":"B2094752D668A3F8459A","title":"Shanghai Rose","lon":"121.48865","lat":"31.243312","category":"248","category_name":"生活娱乐","address":"南苏州路1号"},{"poiid":"B2094757D069A0FE4599","title":"三林塘馄饨店","lon":"121.48568504662","lat":"31.240624646304","category":"68","category_name":"快餐厅","address":"黄浦区江西中路416号(北京东路口)"},{"poiid":"B2094752D565A5F54698","title":"御宝轩","lon":"121.488893","lat":"31.240994","category":"247","category_name":"餐饮美食","address":"上海市黄浦区北京东路99号益丰•外滩源4楼402-403号(近圆明园路)"},{"poiid":"B2094654DA6FA0F8429E","title":"中悦大楼","lon":"121.488","lat":"31.2401","category":"46","category_name":"楼宇","address":"上海市杨浦区国泰路11号"},{"poiid":"B2094757D468A4F5499D","title":"赛百味 外滩店 Subway","lon":"121.490076","lat":"31.242607","category":"76","category_name":"上海菜","address":"黄浦区中山东一路365号(近北京东路)"},{"poiid":"B2094757D064A7FD4293","title":"半岛酒店逸龙阁","lon":"121.48892819","lat":"31.241136882","category":"217","category_name":"旅馆招待所","address":"上海中山东一路32号"},{"poiid":"B2094757D568A5FA4798","title":"锦江之星旅馆(上海外滩滨江店)","lon":"121.486266999998","lat":"31.2424470000003","category":"216","category_name":"经济型连锁酒店","address":"上海市黄浦区四川中路630号(近香港路口)"},{"poiid":"B2094752D764A0FC429C","title":"上海东方明珠塔","lon":"121.489538","lat":"31.243048","category":"500","category_name":"未知分类","address":null},{"poiid":"B2094655D36CA5F5419D","title":"北京东路四川中路","lon":"121.48625","lat":"31.24066","category":"38","category_name":"公交车站","address":"上海北京东路四川中路"},{"poiid":"B209475CD46DA4F94199","title":"微热山丘","lon":"121.488395","lat":"31.241212","category":"500","category_name":"未知分类","address":"上海市 园明园路133号"},{"poiid":"B2094655D26DA5FA479A","title":"英国领事馆及领事官邸","lon":"121.4897","lat":"31.2421","category":"250","category_name":"公园户外","address":"中山东一路33号"},{"poiid":"B2094753D16DA1FA4492","title":"外滩和平饭店","lon":"121.486209","lat":"31.240235","category":"247","category_name":"餐饮美食","address":"上海市 外滩和平饭店"},{"poiid":"B2094654DA6FA4F4419A","title":"浦光中学","lon":"121.4862","lat":"31.24195","category":"55","category_name":"中学","address":"上海黄浦区四川中路599号(近河南拉面馆)"},{"poiid":"B2094757D569A6FB4298","title":"The Lobby","lon":"121.48897976","lat":"31.2412538","category":"94","category_name":"西餐厅","address":"黄浦区中山东一路32号半岛酒店1楼(近北京东路)"},{"poiid":"B2094757DA65A5F4439E","title":"锦江之星（上海外滩滨江店）","lon":"121.486291","lat":"31.242547","category":"216","category_name":"经济型连锁酒店","address":"黄浦区四川中路630号(香港路口)"},{"poiid":"B2094757D16CABFD479B","title":"Sir Elly's","lon":"121.488851838","lat":"31.2415864421","category":"500","category_name":"未知分类","address":"上海中山东一路32号半岛酒店13层"},{"poiid":"B2094757D66BA0FA459D","title":"上味馆南翔小笼 四川中路店","lon":"121.48675","lat":"31.24045","category":"247","category_name":"餐饮美食","address":"黄浦区四川中路504号(近北京东路)"},{"poiid":"B2094757D764A5F8489D","title":"外滩美术馆咖啡厅 RAM CAFE","lon":"121.48739","lat":"31.24281","category":"260","category_name":"其他","address":"黄浦区虎丘路20号外滩美术馆内(近外滩)"},{"poiid":"B2094757D068A7FB4998","title":"协进大楼","lon":"121.488130726","lat":"31.2416575359","category":"260","category_name":"其他","address":"上海圆明园路169号 近北京东路"},{"poiid":"B2094757D66AA4FE459E","title":"凯恩酒家","lon":"121.48556141797","lat":"31.242659854707","category":"76","category_name":"上海菜","address":"黄浦区香港路123号(近四川中路)"},{"poiid":"B2094655D26BA7FE429E","title":"中实大楼","lon":"121.48753","lat":"31.24073","category":"46","category_name":"楼宇","address":"北京东路130号"},{"poiid":"B2094753D76FA6FA419E","title":"壱藏日本料理","lon":"121.489738","lat":"31.24242","category":"500","category_name":"未知分类","address":"上海市 北京东路99号益丰外滩源三楼"},{"poiid":"B2094655D26BA2FB4993","title":"四川中路香港路","lon":"121.48635","lat":"31.24187","category":"38","category_name":"公交车站","address":"上海市闸北区北苏州路"},{"poiid":"B2094757D06EAAF8499F","title":"上海半岛酒店(The Peninsula,Shanghai)","lon":"121.48871485643679","lat":"31.24126498713522","category":"213","category_name":"五星级宾馆","address":"黄浦区中山东一路32号(近北京东路)"},{"poiid":"B2094757D06FA7F84399","title":"上海外滩美术馆","lon":"121.487291","lat":"31.242912","category":"184","category_name":"美术馆","address":"黄浦区虎丘路20号(近北京东路)"},{"poiid":"B2094750D26FA4F94393","title":"MUSE","lon":"121.489089","lat":"31.240596","category":"260","category_name":"其他","address":"黄浦区北京东路99号益丰外滩源5楼(近圆明园路)"},{"poiid":"B209475CD564A7F84292","title":"上海滩新天地店","lon":"121.47463","lat":"31.22164","category":"119","category_name":"商场","address":"\"太仓路181弄新天地北里15号\r\n\""},{"poiid":"B209475CD564A7F84392","title":"上海滩浦东香格里拉店","lon":"121.50058","lat":"31.23634","category":"119","category_name":"商场","address":"浦东富成路33号香格里拉酒店内大堂层"},{"poiid":"B2094757D06FA2F8489D","title":"外滩源","lon":"121.488115","lat":"31.241531","category":"260","category_name":"其他","address":"上海黄浦区中山东一路33号"},{"poiid":"B2094757D06FA2F44992","title":"华盛大厦","lon":"121.489","lat":"31.2411","category":"46","category_name":"楼宇","address":"黄浦区南京东路311号"},{"poiid":"B2094750DA65A3F5489E","title":"御宝轩","lon":"121.489006","lat":"31.24068","category":"72","category_name":"广东菜","address":"黄浦区北京东路99号(近圆明园路)"},{"poiid":"B2094757D06AA2FA4392","title":"香港路","lon":"121.485499","lat":"31.242465","category":"500","category_name":"未知分类","address":"上海香港路"},{"poiid":"B2094757D06FA0FE409C","title":"风波庄(黄浦店)","lon":"121.4865","lat":"31.24275","category":"260","category_name":"其他","address":"黄浦区四川中路670号(近南苏州路)"},{"poiid":"B2094757D569A3F94293","title":"洛克外滩源","lon":"121.48763672","lat":"31.24269775","category":"46","category_name":"楼宇","address":"黄浦苏州河和黄浦江交汇处(上海外滩源头)"},{"poiid":"B2094654DA6FA4F5409B","title":"曼哈顿(外滩)商务酒店","lon":"121.48818","lat":"31.23942","category":"250","category_name":"公园户外","address":"黄浦区滇池路81-85号"},{"poiid":"B2094757D068A0FA489A","title":"圆明园路","lon":"121.488092512","lat":"31.2420983627","category":"260","category_name":"其他","address":"上海黄浦区圆明园路"},{"poiid":"B2094757DB68A5F44399","title":"慧公馆 外滩源店 Maison De L'Hui-waitanyuan","lon":"121.48823","lat":"31.24116","category":"72","category_name":"广东菜","address":"黄浦区圆明园路97号安培大楼3-4楼(近外白渡桥)"},{"poiid":"B2094757D468A4FC4598","title":"艾利爵士餐厅 Sir Elly's Restaurant & Bar","lon":"121.490123054","lat":"31.240919793","category":"97","category_name":"法式菜品餐厅","address":"黄浦区中山东一路32号半岛酒店13楼(近北京东路)"},{"poiid":"B2094750D06EAAFB419A","title":"Muse on The Bund","lon":"121.489181","lat":"31.240453","category":"248","category_name":"生活娱乐","address":"黄浦区北京东路99号益丰外滩源5F"},{"poiid":"B2094753D26AA3F94493","title":"THE LITTLE BLACK JACKET摄影展","lon":"121.487498","lat":"31.241128","category":"183","category_name":"展览馆","address":"上海市 虎丘路14号中实大楼 洛克•外滩源"},{"poiid":"B2094750D165A0FC469E","title":"8 1/2 Otto e Mezzo BOMBANA","lon":"121.488143","lat":"31.242341","category":"94","category_name":"西餐厅","address":"黄浦区圆明园路169号协进大楼6-7楼(近虎丘路)"},{"poiid":"B2094750D26EA2FA419A","title":"辉哥火锅圆明园路店","lon":"121.488487","lat":"31.241041","category":"86","category_name":"火锅店","address":"黄浦区圆明园路115号洛克外滩源(近北京东路)"},{"poiid":"B2094654DA6FA4FB4598","title":"申华金融大厦","lon":"121.48691","lat":"31.23962","category":"46","category_name":"楼宇","address":"浦东临港新城主城区申港大道200号"},{"poiid":"B2094757D76AA1F8469A","title":"半岛茶座","lon":"121.490114054","lat":"31.240935793","category":"99","category_name":"泰国／越南菜品餐厅","address":"黄浦区中山东一路32号半岛酒店2楼(近北京东路)"},{"poiid":"B2094751D364A7FA419F","title":"星巴克外滩店","lon":"121.485804","lat":"31.242252","category":"247","category_name":"餐饮美食","address":"外滩"},{"poiid":"B2094655D264A6FE4299","title":"益丰大厦","lon":"121.48848","lat":"31.24032","category":"46","category_name":"楼宇","address":""},{"poiid":"B2094757D06AA3F4419E","title":"豪享来上海四川中路店","lon":"121.4872","lat":"31.2407","category":"247","category_name":"餐饮美食","address":"上海市黄浦区四川中路470号"},{"poiid":"B209475DD664A4FF439E","title":"Light＆salt","lon":"121.488258","lat":"31.24172","category":"247","category_name":"餐饮美食","address":"上海市 黄浦区圆明园路133号6楼"},{"poiid":"B2094654DA6FA4FF459D","title":"宝龙大酒楼","lon":"121.48596793288","lat":"31.240782833756","category":"72","category_name":"广东菜","address":"黄浦区北京东路230号(近河南中路)"},{"poiid":"B2094654DA6FA0FB469F","title":"汇金大厦","lon":"121.48732391965","lat":"31.240035306526","category":"46","category_name":"楼宇","address":"丰台学城海鹰路1号,3号"},{"poiid":"B2094752D668A3F8459A","title":"Shanghai Rose","lon":"121.48865","lat":"31.243312","category":"248","category_name":"生活娱乐","address":"南苏州路1号"},{"poiid":"B2094757D069A0FE4599","title":"三林塘馄饨店","lon":"121.48568504662","lat":"31.240624646304","category":"68","category_name":"快餐厅","address":"黄浦区江西中路416号(北京东路口)"},{"poiid":"B2094752D565A5F54698","title":"御宝轩","lon":"121.488893","lat":"31.240994","category":"247","category_name":"餐饮美食","address":"上海市黄浦区北京东路99号益丰•外滩源4楼402-403号(近圆明园路)"},{"poiid":"B2094654DA6FA0F8429E","title":"中悦大楼","lon":"121.488","lat":"31.2401","category":"46","category_name":"楼宇","address":"上海市杨浦区国泰路11号"},{"poiid":"B2094757D468A4F5499D","title":"赛百味 外滩店 Subway","lon":"121.490076","lat":"31.242607","category":"76","category_name":"上海菜","address":"黄浦区中山东一路365号(近北京东路)"},{"poiid":"B2094757D064A7FD4293","title":"半岛酒店逸龙阁","lon":"121.48892819","lat":"31.241136882","category":"217","category_name":"旅馆招待所","address":"上海中山东一路32号"},{"poiid":"B2094757D568A5FA4798","title":"锦江之星旅馆(上海外滩滨江店)","lon":"121.486266999998","lat":"31.2424470000003","category":"216","category_name":"经济型连锁酒店","address":"上海市黄浦区四川中路630号(近香港路口)"},{"poiid":"B2094752D764A0FC429C","title":"上海东方明珠塔","lon":"121.489538","lat":"31.243048","category":"500","category_name":"未知分类","address":null},{"poiid":"B2094655D36CA5F5419D","title":"北京东路四川中路","lon":"121.48625","lat":"31.24066","category":"38","category_name":"公交车站","address":"上海北京东路四川中路"},{"poiid":"B209475CD46DA4F94199","title":"微热山丘","lon":"121.488395","lat":"31.241212","category":"500","category_name":"未知分类","address":"上海市 园明园路133号"},{"poiid":"B2094655D26DA5FA479A","title":"英国领事馆及领事官邸","lon":"121.4897","lat":"31.2421","category":"250","category_name":"公园户外","address":"中山东一路33号"},{"poiid":"B2094753D16DA1FA4492","title":"外滩和平饭店","lon":"121.486209","lat":"31.240235","category":"247","category_name":"餐饮美食","address":"上海市 外滩和平饭店"},{"poiid":"B2094654DA6FA4F4419A","title":"浦光中学","lon":"121.4862","lat":"31.24195","category":"55","category_name":"中学","address":"上海黄浦区四川中路599号(近河南拉面馆)"},{"poiid":"B2094757D569A6FB4298","title":"The Lobby","lon":"121.48897976","lat":"31.2412538","category":"94","category_name":"西餐厅","address":"黄浦区中山东一路32号半岛酒店1楼(近北京东路)"},{"poiid":"B2094757DA65A5F4439E","title":"锦江之星（上海外滩滨江店）","lon":"121.486291","lat":"31.242547","category":"216","category_name":"经济型连锁酒店","address":"黄浦区四川中路630号(香港路口)"},{"poiid":"B2094757D16CABFD479B","title":"Sir Elly's","lon":"121.488851838","lat":"31.2415864421","category":"500","category_name":"未知分类","address":"上海中山东一路32号半岛酒店13层"},{"poiid":"B2094757D66BA0FA459D","title":"上味馆南翔小笼 四川中路店","lon":"121.48675","lat":"31.24045","category":"247","category_name":"餐饮美食","address":"黄浦区四川中路504号(近北京东路)"},{"poiid":"B2094757D764A5F8489D","title":"外滩美术馆咖啡厅 RAM CAFE","lon":"121.48739","lat":"31.24281","category":"260","category_name":"其他","address":"黄浦区虎丘路20号外滩美术馆内(近外滩)"},{"poiid":"B2094757D068A7FB4998","title":"协进大楼","lon":"121.488130726","lat":"31.2416575359","category":"260","category_name":"其他","address":"上海圆明园路169号 近北京东路"},{"poiid":"B2094757D66AA4FE459E","title":"凯恩酒家","lon":"121.48556141797","lat":"31.242659854707","category":"76","category_name":"上海菜","address":"黄浦区香港路123号(近四川中路)"},{"poiid":"B2094655D26BA7FE429E","title":"中实大楼","lon":"121.48753","lat":"31.24073","category":"46","category_name":"楼宇","address":"北京东路130号"},{"poiid":"B2094753D76FA6FA419E","title":"壱藏日本料理","lon":"121.489738","lat":"31.24242","category":"500","category_name":"未知分类","address":"上海市 北京东路99号益丰外滩源三楼"},{"poiid":"B2094655D26BA2FB4993","title":"四川中路香港路","lon":"121.48635","lat":"31.24187","category":"38","category_name":"公交车站","address":"上海市闸北区北苏州路"},{"poiid":"B2094757D06EAAF8499F","title":"上海半岛酒店(The Peninsula,Shanghai)","lon":"121.48871485643679","lat":"31.24126498713522","category":"213","category_name":"五星级宾馆","address":"黄浦区中山东一路32号(近北京东路)"},{"poiid":"B2094757D06FA7F84399","title":"上海外滩美术馆","lon":"121.487291","lat":"31.242912","category":"184","category_name":"美术馆","address":"黄浦区虎丘路20号(近北京东路)"},{"poiid":"B2094750D26FA4F94393","title":"MUSE","lon":"121.489089","lat":"31.240596","category":"260","category_name":"其他","address":"黄浦区北京东路99号益丰外滩源5楼(近圆明园路)"},{"poiid":"B209475CD564A7F84292","title":"上海滩新天地店","lon":"121.47463","lat":"31.22164","category":"119","category_name":"商场","address":"\"太仓路181弄新天地北里15号\r\n\""},{"poiid":"B209475CD564A7F84392","title":"上海滩浦东香格里拉店","lon":"121.50058","lat":"31.23634","category":"119","category_name":"商场","address":"浦东富成路33号香格里拉酒店内大堂层"},{"poiid":"B2094757D06FA2F8489D","title":"外滩源","lon":"121.488115","lat":"31.241531","category":"260","category_name":"其他","address":"上海黄浦区中山东一路33号"},{"poiid":"B2094757D06FA2F44992","title":"华盛大厦","lon":"121.489","lat":"31.2411","category":"46","category_name":"楼宇","address":"黄浦区南京东路311号"},{"poiid":"B2094750DA65A3F5489E","title":"御宝轩","lon":"121.489006","lat":"31.24068","category":"72","category_name":"广东菜","address":"黄浦区北京东路99号(近圆明园路)"},{"poiid":"B2094757D06AA2FA4392","title":"香港路","lon":"121.485499","lat":"31.242465","category":"500","category_name":"未知分类","address":"上海香港路"},{"poiid":"B2094757D06FA0FE409C","title":"风波庄(黄浦店)","lon":"121.4865","lat":"31.24275","category":"260","category_name":"其他","address":"黄浦区四川中路670号(近南苏州路)"},{"poiid":"B2094757D569A3F94293","title":"洛克外滩源","lon":"121.48763672","lat":"31.24269775","category":"46","category_name":"楼宇","address":"黄浦苏州河和黄浦江交汇处(上海外滩源头)"},{"poiid":"B2094654DA6FA4F5409B","title":"曼哈顿(外滩)商务酒店","lon":"121.48818","lat":"31.23942","category":"250","category_name":"公园户外","address":"黄浦区滇池路81-85号"},{"poiid":"B2094757D068A0FA489A","title":"圆明园路","lon":"121.488092512","lat":"31.2420983627","category":"260","category_name":"其他","address":"上海黄浦区圆明园路"},{"poiid":"B2094757DB68A5F44399","title":"慧公馆 外滩源店 Maison De L'Hui-waitanyuan","lon":"121.48823","lat":"31.24116","category":"72","category_name":"广东菜","address":"黄浦区圆明园路97号安培大楼3-4楼(近外白渡桥)"},{"poiid":"B2094757D468A4FC4598","title":"艾利爵士餐厅 Sir Elly's Restaurant & Bar","lon":"121.490123054","lat":"31.240919793","category":"97","category_name":"法式菜品餐厅","address":"黄浦区中山东一路32号半岛酒店13楼(近北京东路)"},{"poiid":"B2094750D06EAAFB419A","title":"Muse on The Bund","lon":"121.489181","lat":"31.240453","category":"248","category_name":"生活娱乐","address":"黄浦区北京东路99号益丰外滩源5F"},{"poiid":"B2094753D26AA3F94493","title":"THE LITTLE BLACK JACKET摄影展","lon":"121.487498","lat":"31.241128","category":"183","category_name":"展览馆","address":"上海市 虎丘路14号中实大楼 洛克•外滩源"},{"poiid":"B2094750D165A0FC469E","title":"8 1/2 Otto e Mezzo BOMBANA","lon":"121.488143","lat":"31.242341","category":"94","category_name":"西餐厅","address":"黄浦区圆明园路169号协进大楼6-7楼(近虎丘路)"},{"poiid":"B2094750D26EA2FA419A","title":"辉哥火锅圆明园路店","lon":"121.488487","lat":"31.241041","category":"86","category_name":"火锅店","address":"黄浦区圆明园路115号洛克外滩源(近北京东路)"},{"poiid":"B2094654DA6FA4FB4598","title":"申华金融大厦","lon":"121.48691","lat":"31.23962","category":"46","category_name":"楼宇","address":"浦东临港新城主城区申港大道200号"},{"poiid":"B2094757D76AA1F8469A","title":"半岛茶座","lon":"121.490114054","lat":"31.240935793","category":"99","category_name":"泰国／越南菜品餐厅","address":"黄浦区中山东一路32号半岛酒店2楼(近北京东路)"},{"poiid":"B2094751D364A7FA419F","title":"星巴克外滩店","lon":"121.485804","lat":"31.242252","category":"247","category_name":"餐饮美食","address":"外滩"},{"poiid":"B2094655D264A6FE4299","title":"益丰大厦","lon":"121.48848","lat":"31.24032","category":"46","category_name":"楼宇","address":""},{"poiid":"B2094757D06AA3F4419E","title":"豪享来上海四川中路店","lon":"121.4872","lat":"31.2407","category":"247","category_name":"餐饮美食","address":"上海市黄浦区四川中路470号"},{"poiid":"B209475DD664A4FF439E","title":"Light＆salt","lon":"121.488258","lat":"31.24172","category":"247","category_name":"餐饮美食","address":"上海市 黄浦区圆明园路133号6楼"},{"poiid":"B2094654DA6FA4FF459D","title":"宝龙大酒楼","lon":"121.48596793288","lat":"31.240782833756","category":"72","category_name":"广东菜","address":"黄浦区北京东路230号(近河南中路)"},{"poiid":"B2094654DA6FA0FB469F","title":"汇金大厦","lon":"121.48732391965","lat":"31.240035306526","category":"46","category_name":"楼宇","address":"丰台学城海鹰路1号,3号"},{"poiid":"B2094752D668A3F8459A","title":"Shanghai Rose","lon":"121.48865","lat":"31.243312","category":"248","category_name":"生活娱乐","address":"南苏州路1号"},{"poiid":"B2094757D069A0FE4599","title":"三林塘馄饨店","lon":"121.48568504662","lat":"31.240624646304","category":"68","category_name":"快餐厅","address":"黄浦区江西中路416号(北京东路口)"},{"poiid":"B2094752D565A5F54698","title":"御宝轩","lon":"121.488893","lat":"31.240994","category":"247","category_name":"餐饮美食","address":"上海市黄浦区北京东路99号益丰•外滩源4楼402-403号(近圆明园路)"},{"poiid":"B2094654DA6FA0F8429E","title":"中悦大楼","lon":"121.488","lat":"31.2401","category":"46","category_name":"楼宇","address":"上海市杨浦区国泰路11号"},{"poiid":"B2094757D468A4F5499D","title":"赛百味 外滩店 Subway","lon":"121.490076","lat":"31.242607","category":"76","category_name":"上海菜","address":"黄浦区中山东一路365号(近北京东路)"},{"poiid":"B2094757D064A7FD4293","title":"半岛酒店逸龙阁","lon":"121.48892819","lat":"31.241136882","category":"217","category_name":"旅馆招待所","address":"上海中山东一路32号"},{"poiid":"B2094757D568A5FA4798","title":"锦江之星旅馆(上海外滩滨江店)","lon":"121.486266999998","lat":"31.2424470000003","category":"216","category_name":"经济型连锁酒店","address":"上海市黄浦区四川中路630号(近香港路口)"},{"poiid":"B2094752D764A0FC429C","title":"上海东方明珠塔","lon":"121.489538","lat":"31.243048","category":"500","category_name":"未知分类","address":null},{"poiid":"B2094655D36CA5F5419D","title":"北京东路四川中路","lon":"121.48625","lat":"31.24066","category":"38","category_name":"公交车站","address":"上海北京东路四川中路"},{"poiid":"B209475CD46DA4F94199","title":"微热山丘","lon":"121.488395","lat":"31.241212","category":"500","category_name":"未知分类","address":"上海市 园明园路133号"},{"poiid":"B2094655D26DA5FA479A","title":"英国领事馆及领事官邸","lon":"121.4897","lat":"31.2421","category":"250","category_name":"公园户外","address":"中山东一路33号"},{"poiid":"B2094753D16DA1FA4492","title":"外滩和平饭店","lon":"121.486209","lat":"31.240235","category":"247","category_name":"餐饮美食","address":"上海市 外滩和平饭店"},{"poiid":"B2094654DA6FA4F4419A","title":"浦光中学","lon":"121.4862","lat":"31.24195","category":"55","category_name":"中学","address":"上海黄浦区四川中路599号(近河南拉面馆)"},{"poiid":"B2094757D569A6FB4298","title":"The Lobby","lon":"121.48897976","lat":"31.2412538","category":"94","category_name":"西餐厅","address":"黄浦区中山东一路32号半岛酒店1楼(近北京东路)"},{"poiid":"B2094757DA65A5F4439E","title":"锦江之星（上海外滩滨江店）","lon":"121.486291","lat":"31.242547","category":"216","category_name":"经济型连锁酒店","address":"黄浦区四川中路630号(香港路口)"},{"poiid":"B2094757D16CABFD479B","title":"Sir Elly's","lon":"121.488851838","lat":"31.2415864421","category":"500","category_name":"未知分类","address":"上海中山东一路32号半岛酒店13层"},{"poiid":"B2094757D66BA0FA459D","title":"上味馆南翔小笼 四川中路店","lon":"121.48675","lat":"31.24045","category":"247","category_name":"餐饮美食","address":"黄浦区四川中路504号(近北京东路)"},{"poiid":"B2094757D764A5F8489D","title":"外滩美术馆咖啡厅 RAM CAFE","lon":"121.48739","lat":"31.24281","category":"260","category_name":"其他","address":"黄浦区虎丘路20号外滩美术馆内(近外滩)"},{"poiid":"B2094757D068A7FB4998","title":"协进大楼","lon":"121.488130726","lat":"31.2416575359","category":"260","category_name":"其他","address":"上海圆明园路169号 近北京东路"},{"poiid":"B2094757D66AA4FE459E","title":"凯恩酒家","lon":"121.48556141797","lat":"31.242659854707","category":"76","category_name":"上海菜","address":"黄浦区香港路123号(近四川中路)"},{"poiid":"B2094655D26BA7FE429E","title":"中实大楼","lon":"121.48753","lat":"31.24073","category":"46","category_name":"楼宇","address":"北京东路130号"},{"poiid":"B2094753D76FA6FA419E","title":"壱藏日本料理","lon":"121.489738","lat":"31.24242","category":"500","category_name":"未知分类","address":"上海市 北京东路99号益丰外滩源三楼"},{"poiid":"B2094655D26BA2FB4993","title":"四川中路香港路","lon":"121.48635","lat":"31.24187","category":"38","category_name":"公交车站","address":"上海市闸北区北苏州路"},{"poiid":"B2094757D06EAAF8499F","title":"上海半岛酒店(The Peninsula,Shanghai)","lon":"121.48871485643679","lat":"31.24126498713522","category":"213","category_name":"五星级宾馆","address":"黄浦区中山东一路32号(近北京东路)"},{"poiid":"B2094757D06FA7F84399","title":"上海外滩美术馆","lon":"121.487291","lat":"31.242912","category":"184","category_name":"美术馆","address":"黄浦区虎丘路20号(近北京东路)"},{"poiid":"B2094750D26FA4F94393","title":"MUSE","lon":"121.489089","lat":"31.240596","category":"260","category_name":"其他","address":"黄浦区北京东路99号益丰外滩源5楼(近圆明园路)"},{"poiid":"B209475CD564A7F84292","title":"上海滩新天地店","lon":"121.47463","lat":"31.22164","category":"119","category_name":"商场","address":"\"太仓路181弄新天地北里15号\r\n\""},{"poiid":"B209475CD564A7F84392","title":"上海滩浦东香格里拉店","lon":"121.50058","lat":"31.23634","category":"119","category_name":"商场","address":"浦东富成路33号香格里拉酒店内大堂层"},{"poiid":"B2094757D06FA2F8489D","title":"外滩源","lon":"121.488115","lat":"31.241531","category":"260","category_name":"其他","address":"上海黄浦区中山东一路33号"},{"poiid":"B2094757D06FA2F44992","title":"华盛大厦","lon":"121.489","lat":"31.2411","category":"46","category_name":"楼宇","address":"黄浦区南京东路311号"},{"poiid":"B2094750DA65A3F5489E","title":"御宝轩","lon":"121.489006","lat":"31.24068","category":"72","category_name":"广东菜","address":"黄浦区北京东路99号(近圆明园路)"},{"poiid":"B2094757D06AA2FA4392","title":"香港路","lon":"121.485499","lat":"31.242465","category":"500","category_name":"未知分类","address":"上海香港路"},{"poiid":"B2094757D06FA0FE409C","title":"风波庄(黄浦店)","lon":"121.4865","lat":"31.24275","category":"260","category_name":"其他","address":"黄浦区四川中路670号(近南苏州路)"},{"poiid":"B2094757D569A3F94293","title":"洛克外滩源","lon":"121.48763672","lat":"31.24269775","category":"46","category_name":"楼宇","address":"黄浦苏州河和黄浦江交汇处(上海外滩源头)"},{"poiid":"B2094654DA6FA4F5409B","title":"曼哈顿(外滩)商务酒店","lon":"121.48818","lat":"31.23942","category":"250","category_name":"公园户外","address":"黄浦区滇池路81-85号"},{"poiid":"B2094757D068A0FA489A","title":"圆明园路","lon":"121.488092512","lat":"31.2420983627","category":"260","category_name":"其他","address":"上海黄浦区圆明园路"},{"poiid":"B2094757DB68A5F44399","title":"慧公馆 外滩源店 Maison De L'Hui-waitanyuan","lon":"121.48823","lat":"31.24116","category":"72","category_name":"广东菜","address":"黄浦区圆明园路97号安培大楼3-4楼(近外白渡桥)"},{"poiid":"B2094757D468A4FC4598","title":"艾利爵士餐厅 Sir Elly's Restaurant & Bar","lon":"121.490123054","lat":"31.240919793","category":"97","category_name":"法式菜品餐厅","address":"黄浦区中山东一路32号半岛酒店13楼(近北京东路)"},{"poiid":"B2094750D06EAAFB419A","title":"Muse on The Bund","lon":"121.489181","lat":"31.240453","category":"248","category_name":"生活娱乐","address":"黄浦区北京东路99号益丰外滩源5F"},{"poiid":"B2094753D26AA3F94493","title":"THE LITTLE BLACK JACKET摄影展","lon":"121.487498","lat":"31.241128","category":"183","category_name":"展览馆","address":"上海市 虎丘路14号中实大楼 洛克•外滩源"},{"poiid":"B2094750D165A0FC469E","title":"8 1/2 Otto e Mezzo BOMBANA","lon":"121.488143","lat":"31.242341","category":"94","category_name":"西餐厅","address":"黄浦区圆明园路169号协进大楼6-7楼(近虎丘路)"},{"poiid":"B2094750D26EA2FA419A","title":"辉哥火锅圆明园路店","lon":"121.488487","lat":"31.241041","category":"86","category_name":"火锅店","address":"黄浦区圆明园路115号洛克外滩源(近北京东路)"},{"poiid":"B2094654DA6FA4FB4598","title":"申华金融大厦","lon":"121.48691","lat":"31.23962","category":"46","category_name":"楼宇","address":"浦东临港新城主城区申港大道200号"},{"poiid":"B2094757D76AA1F8469A","title":"半岛茶座","lon":"121.490114054","lat":"31.240935793","category":"99","category_name":"泰国／越南菜品餐厅","address":"黄浦区中山东一路32号半岛酒店2楼(近北京东路)"},{"poiid":"B2094751D364A7FA419F","title":"星巴克外滩店","lon":"121.485804","lat":"31.242252","category":"247","category_name":"餐饮美食","address":"外滩"},{"poiid":"B2094655D264A6FE4299","title":"益丰大厦","lon":"121.48848","lat":"31.24032","category":"46","category_name":"楼宇","address":""},{"poiid":"B2094757D06AA3F4419E","title":"豪享来上海四川中路店","lon":"121.4872","lat":"31.2407","category":"247","category_name":"餐饮美食","address":"上海市黄浦区四川中路470号"},{"poiid":"B209475DD664A4FF439E","title":"Light＆salt","lon":"121.488258","lat":"31.24172","category":"247","category_name":"餐饮美食","address":"上海市 黄浦区圆明园路133号6楼"},{"poiid":"B2094654DA6FA4FF459D","title":"宝龙大酒楼","lon":"121.48596793288","lat":"31.240782833756","category":"72","category_name":"广东菜","address":"黄浦区北京东路230号(近河南中路)"},{"poiid":"B2094654DA6FA0FB469F","title":"汇金大厦","lon":"121.48732391965","lat":"31.240035306526","category":"46","category_name":"楼宇","address":"丰台学城海鹰路1号,3号"},{"poiid":"B2094752D668A3F8459A","title":"Shanghai Rose","lon":"121.48865","lat":"31.243312","category":"248","category_name":"生活娱乐","address":"南苏州路1号"},{"poiid":"B2094757D069A0FE4599","title":"三林塘馄饨店","lon":"121.48568504662","lat":"31.240624646304","category":"68","category_name":"快餐厅","address":"黄浦区江西中路416号(北京东路口)"},{"poiid":"B2094752D565A5F54698","title":"御宝轩","lon":"121.488893","lat":"31.240994","category":"247","category_name":"餐饮美食","address":"上海市黄浦区北京东路99号益丰•外滩源4楼402-403号(近圆明园路)"},{"poiid":"B2094654DA6FA0F8429E","title":"中悦大楼","lon":"121.488","lat":"31.2401","category":"46","category_name":"楼宇","address":"上海市杨浦区国泰路11号"},{"poiid":"B2094757D468A4F5499D","title":"赛百味 外滩店 Subway","lon":"121.490076","lat":"31.242607","category":"76","category_name":"上海菜","address":"黄浦区中山东一路365号(近北京东路)"},{"poiid":"B2094757D064A7FD4293","title":"半岛酒店逸龙阁","lon":"121.48892819","lat":"31.241136882","category":"217","category_name":"旅馆招待所","address":"上海中山东一路32号"},{"poiid":"B2094757D568A5FA4798","title":"锦江之星旅馆(上海外滩滨江店)","lon":"121.486266999998","lat":"31.2424470000003","category":"216","category_name":"经济型连锁酒店","address":"上海市黄浦区四川中路630号(近香港路口)"},{"poiid":"B2094752D764A0FC429C","title":"上海东方明珠塔","lon":"121.489538","lat":"31.243048","category":"500","category_name":"未知分类","address":null},{"poiid":"B2094655D36CA5F5419D","title":"北京东路四川中路","lon":"121.48625","lat":"31.24066","category":"38","category_name":"公交车站","address":"上海北京东路四川中路"},{"poiid":"B209475CD46DA4F94199","title":"微热山丘","lon":"121.488395","lat":"31.241212","category":"500","category_name":"未知分类","address":"上海市 园明园路133号"},{"poiid":"B2094655D26DA5FA479A","title":"英国领事馆及领事官邸","lon":"121.4897","lat":"31.2421","category":"250","category_name":"公园户外","address":"中山东一路33号"},{"poiid":"B2094753D16DA1FA4492","title":"外滩和平饭店","lon":"121.486209","lat":"31.240235","category":"247","category_name":"餐饮美食","address":"上海市 外滩和平饭店"},{"poiid":"B2094654DA6FA4F4419A","title":"浦光中学","lon":"121.4862","lat":"31.24195","category":"55","category_name":"中学","address":"上海黄浦区四川中路599号(近河南拉面馆)"},{"poiid":"B2094757D569A6FB4298","title":"The Lobby","lon":"121.48897976","lat":"31.2412538","category":"94","category_name":"西餐厅","address":"黄浦区中山东一路32号半岛酒店1楼(近北京东路)"},{"poiid":"B2094757DA65A5F4439E","title":"锦江之星（上海外滩滨江店）","lon":"121.486291","lat":"31.242547","category":"216","category_name":"经济型连锁酒店","address":"黄浦区四川中路630号(香港路口)"},{"poiid":"B2094757D16CABFD479B","title":"Sir Elly's","lon":"121.488851838","lat":"31.2415864421","category":"500","category_name":"未知分类","address":"上海中山东一路32号半岛酒店13层"},{"poiid":"B2094757D66BA0FA459D","title":"上味馆南翔小笼 四川中路店","lon":"121.48675","lat":"31.24045","category":"247","category_name":"餐饮美食","address":"黄浦区四川中路504号(近北京东路)"},{"poiid":"B2094757D764A5F8489D","title":"外滩美术馆咖啡厅 RAM CAFE","lon":"121.48739","lat":"31.24281","category":"260","category_name":"其他","address":"黄浦区虎丘路20号外滩美术馆内(近外滩)"},{"poiid":"B2094757D068A7FB4998","title":"协进大楼","lon":"121.488130726","lat":"31.2416575359","category":"260","category_name":"其他","address":"上海圆明园路169号 近北京东路"},{"poiid":"B2094757D66AA4FE459E","title":"凯恩酒家","lon":"121.48556141797","lat":"31.242659854707","category":"76","category_name":"上海菜","address":"黄浦区香港路123号(近四川中路)"},{"poiid":"B2094655D26BA7FE429E","title":"中实大楼","lon":"121.48753","lat":"31.24073","category":"46","category_name":"楼宇","address":"北京东路130号"},{"poiid":"B2094753D76FA6FA419E","title":"壱藏日本料理","lon":"121.489738","lat":"31.24242","category":"500","category_name":"未知分类","address":"上海市 北京东路99号益丰外滩源三楼"},{"poiid":"B2094655D26BA2FB4993","title":"四川中路香港路","lon":"121.48635","lat":"31.24187","category":"38","category_name":"公交车站","address":"上海市闸北区北苏州路"}]