[{"poiid":"B2094757D06FA3FD439E","title":"杨浦区市东医院","lon":"121.53765445","lat":"31.321043171","category":"162","category_name":"医院","address":"上海杨浦区市光路999号(近包头路)"},{"poiid":"B2094757D06FA7F9479C","title":"德林火锅(包头路店)","lon":"121.53897","lat":"31.31732","category":"86","category_name":"火锅店","address":"杨浦区包头路436号(近国和路)"},{"poiid":"B2094757D06FA2FE4093","title":"市光二村","lon":"121.54085","lat":"31.31772","category":"47","category_name":"住宅区","address":"上海国和路包头路"},{"poiid":"B2094757D068A3FE4993","title":"中原体育场羽毛球馆","lon":"121.53905","lat":"31.31502","category":"220","category_name":"运动场所","address":"杨浦区包头路380号(近嫩江路)"},{"poiid":"B2094757D06FA2F8419A","title":"市光三村","lon":"121.538493","lat":"31.322494","category":"47","category_name":"住宅区","address":"上海杨浦区,市光三村"},{"poiid":"B2094757D06FA1F9409C","title":"市光四村","lon":"121.53497","lat":"31.320517","category":"47","category_name":"住宅区","address":"上海杨浦区国和路市光路中原路"},{"poiid":"B2094757D068A6F8429C","title":"包头路麻辣烫","lon":"121.539040054","lat":"31.315891793","category":"68","category_name":"快餐厅","address":"闸北区汶水路886号(近卜蜂莲花)"},{"poiid":"B2094757D469A1FC4393","title":"嫩江路麻辣烫","lon":"121.53875","lat":"31.3153","category":"87","category_name":"特色／地方风味餐厅","address":"包头路386号近嫩江路"},{"poiid":"B2094757D064ABFC409A","title":"民欣大酒店","lon":"121.53879","lat":"31.31318","category":"76","category_name":"上海菜","address":"杨浦区包头路280号"},{"poiid":"B2094654DB6AA2FC4592","title":"重庆鸡公煲 包头路店","lon":"121.538462054","lat":"31.317228793","category":"71","category_name":"四川菜","address":"杨浦区包头路371号(近国和路)"},{"poiid":"B2094757D068AAFA4193","title":"民星公园","lon":"121.534809593","lat":"31.3140266479","category":"196","category_name":"公园","address":"杨浦区嫩江路1111号(近中原路)"},{"poiid":"B2094757D06BA1FD469D","title":"山夫烧烤","lon":"121.53872","lat":"31.31762","category":"68","category_name":"快餐厅","address":"杨浦区国和路(包头路口)"},{"poiid":"B2094757D068A6F94498","title":"民星住宅小区","lon":"121.53957","lat":"31.313667","category":"47","category_name":"住宅区","address":"上海包头路300弄"},{"poiid":"B2094654DB6AA3FF479B","title":"东北饭店","lon":"121.53884","lat":"31.31779","category":"82","category_name":"东北菜","address":"杨浦区国和路1203号(近包头路)"},{"poiid":"B2094654D56FA7FE4292","title":"中原大厦","lon":"121.539","lat":"31.3186","category":"46","category_name":"楼宇","address":"中原路60弄1号"},{"poiid":"B2094757D66EA0FB499D","title":"老崇明餐厅","lon":"121.53918259","lat":"31.319068239","category":"76","category_name":"上海菜","address":"杨浦区国和路(近包头路)"},{"poiid":"B2094757D068A2FD409E","title":"苏州汤包馆","lon":"121.5391","lat":"31.31714","category":"247","category_name":"餐饮美食","address":"上海杨浦区包头路440号(近国和路)  "},{"poiid":"B2094757D46BA1FE4499","title":"来伊份 包头路二店","lon":"121.53833","lat":"31.31708","category":"68","category_name":"快餐厅","address":"杨浦区包头路371号(近国和路)"},{"poiid":"B2094654D56FA7FD479F","title":"中国银行上海市包头路支行","lon":"121.53881","lat":"31.31896","category":"150","category_name":"银行","address":"杨浦区包头路490-494号(包头路国和路)"},{"poiid":"B2094655D26CA7FD489E","title":"民星路600弄小区","lon":"121.539","lat":"31.3178","category":"47","category_name":"住宅区","address":"民星路600弄"},{"poiid":"B2094757D169A1FC429B","title":"殷行社区文化活动中心","lon":"121.538726103","lat":"31.3191254408","category":"500","category_name":"未知分类","address":"上海杨浦区市光三村164号"},{"poiid":"B2094757D068AAF44498","title":"永琪美容美发(包头二店)","lon":"121.538451195","lat":"31.3153118921","category":"148","category_name":"美容美发店","address":"杨浦区包头路307号(近嫩江路)"},{"poiid":"B2094751D568AAFA4893","title":"虹口凯德龙之梦","lon":"121.537964","lat":"31.319962","category":"249","category_name":"购物服务","address":"西江湾路388号"},{"poiid":"B2094654DB6BA2FF499A","title":"市光三村(南二号门)","lon":"121.54148","lat":"31.31825","category":"47","category_name":"住宅区","address":""},{"poiid":"B2094757D06BA6F44793","title":"星源佳园","lon":"121.53895","lat":"31.321993","category":"47","category_name":"住宅区","address":"工农四村83-104号"},{"poiid":"B2094654D56FAAFE459B","title":"惠元新天地","lon":"121.539","lat":"31.3164","category":"47","category_name":"住宅区","address":"上海市杨浦区中原路38号"},{"poiid":"B2094655D36CA7F44099","title":"国和路包头路","lon":"121.53695","lat":"31.31816","category":"38","category_name":"公交车站","address":""},{"poiid":"B2094757D16EA0F5489E","title":"包头路烧烤","lon":"121.5388","lat":"31.31898","category":"247","category_name":"餐饮美食","address":"上海杨浦区包头路(嫩江路口)  "},{"poiid":"B2094757D568A7FF439C","title":"优兰酒吧KTV","lon":"121.5383392","lat":"31.31708167","category":"170","category_name":"KTV","address":"杨浦区包头路371号"},{"poiid":"B2094654DB6BA2FF489D","title":"市光二村(西二号门)","lon":"121.53884","lat":"31.3167","category":"47","category_name":"住宅区","address":"包头路418"},{"poiid":"B2094757D16CAAF9459E","title":"张记汤馆","lon":"121.54159","lat":"31.31441","category":"68","category_name":"快餐厅","address":"杨浦区嫩江路938号(近包头路)"},{"poiid":"B2094654DB6BA2F8429B","title":"市光四村(南二号门)","lon":"121.53656","lat":"31.31839","category":"47","category_name":"住宅区","address":"市光四村1-68号"},{"poiid":"B2094752D364A4F94292","title":"永顺和苏州汤包馆","lon":"121.53872","lat":"31.31762","category":"68","category_name":"快餐厅","address":"杨浦区包头路440号(近国和路)"},{"poiid":"B2094655D26AA4FD449E","title":"乡乡苑土菜馆","lon":"121.53832","lat":"31.31439","category":"76","category_name":"上海菜","address":"杨浦区嫩江路881号(近包头路)"},{"poiid":"B2094654DB6BA2FF479F","title":"市东医院(北二号门)","lon":"121.53653","lat":"31.32139","category":"162","category_name":"医院","address":""},{"poiid":"B2094654D56FA7F9409B","title":"好德No.669","lon":"121.53832","lat":"31.31939","category":"117","category_name":"便民商店/便利店","address":"包头路555"},{"poiid":"B2094655D26CA7F84493","title":"市光二村(北三号门)","lon":"121.54014","lat":"31.31791","category":"47","category_name":"住宅区","address":""},{"poiid":"B2094655D26DA5FD4593","title":"克莉丝汀 包头路店","lon":"121.538617054","lat":"31.315398793","category":"112","category_name":"糕饼店","address":"杨浦区包头路370号(近国和路)"},{"poiid":"B2094757D66FA0F44798","title":"市光三村社区卫生服务站","lon":"121.5391067","lat":"31.319054039","category":"162","category_name":"医院","address":"上海市光三村164号"},{"poiid":"B2094655D26FA0FB489A","title":"市光四村(东门)","lon":"121.53817","lat":"31.31922","category":"656","category_name":"大门","address":""},{"poiid":"B2094655D26CA6F8459A","title":"民星住宅小区(北二号门)","lon":"121.53914","lat":"31.31447","category":"47","category_name":"住宅区","address":"嫩江路857-867号"},{"poiid":"B2094654D56FA7F9429C","title":"飞短留长形象设计","lon":"121.53802","lat":"31.31685","category":"148","category_name":"美容美发店","address":"市光一村93-1临"},{"poiid":"B2094757D568A5FD469A","title":"跃民理发店","lon":"121.53743842","lat":"31.31834256","category":"148","category_name":"美容美发店","address":"国和路1306-4"},{"poiid":"B2094757D66CA2FE469F","title":"新奥九环加气加油站","lon":"121.5389513","lat":"31.318994638","category":"154","category_name":"加油加气站","address":"上海国和路民约路"},{"poiid":"B2094757D66BA4FF469C","title":"小北京热气羊肉涮锅","lon":"121.53904062362","lat":"31.314462104804","category":"86","category_name":"火锅店","address":"杨浦区包头路296号(近嫩江路)"},{"poiid":"B2094654D56FA7FA439B","title":"市光一村小区","lon":"121.53577","lat":"31.31577","category":"47","category_name":"住宅区","address":"殷行"},{"poiid":"B2094654D56FA7FD4899","title":"中国工商银行上海市国和路支行","lon":"121.53974","lat":"31.31828","category":"150","category_name":"银行","address":"杨浦区国和路1350号近包头路(包头路国和路)"},{"poiid":"B2094751DA6DA0FA409D","title":"新天地","lon":"121.537612","lat":"31.318379","category":"500","category_name":"未知分类","address":null},{"poiid":"B2094757D16EA2FA4993","title":"黑山路长海路","lon":"121.539134","lat":"31.319050039","category":"500","category_name":"未知分类","address":"上海黑山路花鸟市场"},{"poiid":"B2094757D569A3FE4092","title":"中原土灶王","lon":"121.53894233","lat":"31.31830051","category":"260","category_name":"其他","address":"杨浦区包头路472号(国和路口)"},{"poiid":"B2094757D06FA3FD439E","title":"杨浦区市东医院","lon":"121.53765445","lat":"31.321043171","category":"162","category_name":"医院","address":"上海杨浦区市光路999号(近包头路)"},{"poiid":"B2094757D06FA7F9479C","title":"德林火锅(包头路店)","lon":"121.53897","lat":"31.31732","category":"86","category_name":"火锅店","address":"杨浦区包头路436号(近国和路)"},{"poiid":"B2094757D06FA2FE4093","title":"市光二村","lon":"121.54085","lat":"31.31772","category":"47","category_name":"住宅区","address":"上海国和路包头路"},{"poiid":"B2094757D068A3FE4993","title":"中原体育场羽毛球馆","lon":"121.53905","lat":"31.31502","category":"220","category_name":"运动场所","address":"杨浦区包头路380号(近嫩江路)"},{"poiid":"B2094757D06FA2F8419A","title":"市光三村","lon":"121.538493","lat":"31.322494","category":"47","category_name":"住宅区","address":"上海杨浦区,市光三村"},{"poiid":"B2094757D06FA1F9409C","title":"市光四村","lon":"121.53497","lat":"31.320517","category":"47","category_name":"住宅区","address":"上海杨浦区国和路市光路中原路"},{"poiid":"B2094757D068A6F8429C","title":"包头路麻辣烫","lon":"121.539040054","lat":"31.315891793","category":"68","category_name":"快餐厅","address":"闸北区汶水路886号(近卜蜂莲花)"},{"poiid":"B2094757D469A1FC4393","title":"嫩江路麻辣烫","lon":"121.53875","lat":"31.3153","category":"87","category_name":"特色／地方风味餐厅","address":"包头路386号近嫩江路"},{"poiid":"B2094757D064ABFC409A","title":"民欣大酒店","lon":"121.53879","lat":"31.31318","category":"76","category_name":"上海菜","address":"杨浦区包头路280号"},{"poiid":"B2094654DB6AA2FC4592","title":"重庆鸡公煲 包头路店","lon":"121.538462054","lat":"31.317228793","category":"71","category_name":"四川菜","address":"杨浦区包头路371号(近国和路)"},{"poiid":"B2094757D068AAFA4193","title":"民星公园","lon":"121.534809593","lat":"31.3140266479","category":"196","category_name":"公园","address":"杨浦区嫩江路1111号(近中原路)"},{"poiid":"B2094757D06BA1FD469D","title":"山夫烧烤","lon":"121.53872","lat":"31.31762","category":"68","category_name":"快餐厅","address":"杨浦区国和路(包头路口)"},{"poiid":"B2094757D068A6F94498","title":"民星住宅小区","lon":"121.53957","lat":"31.313667","category":"47","category_name":"住宅区","address":"上海包头路300弄"},{"poiid":"B2094654DB6AA3FF479B","title":"东北饭店","lon":"121.53884","lat":"31.31779","category":"82","category_name":"东北菜","address":"杨浦区国和路1203号(近包头路)"},{"poiid":"B2094654D56FA7FE4292","title":"中原大厦","lon":"121.539","lat":"31.3186","category":"46","category_name":"楼宇","address":"中原路60弄1号"},{"poiid":"B2094757D66EA0FB499D","title":"老崇明餐厅","lon":"121.53918259","lat":"31.319068239","category":"76","category_name":"上海菜","address":"杨浦区国和路(近包头路)"},{"poiid":"B2094757D068A2FD409E","title":"苏州汤包馆","lon":"121.5391","lat":"31.31714","category":"247","category_name":"餐饮美食","address":"上海杨浦区包头路440号(近国和路)  "},{"poiid":"B2094757D46BA1FE4499","title":"来伊份 包头路二店","lon":"121.53833","lat":"31.31708","category":"68","category_name":"快餐厅","address":"杨浦区包头路371号(近国和路)"},{"poiid":"B2094654D56FA7FD479F","title":"中国银行上海市包头路支行","lon":"121.53881","lat":"31.31896","category":"150","category_name":"银行","address":"杨浦区包头路490-494号(包头路国和路)"},{"poiid":"B2094655D26CA7FD489E","title":"民星路600弄小区","lon":"121.539","lat":"31.3178","category":"47","category_name":"住宅区","address":"民星路600弄"},{"poiid":"B2094757D169A1FC429B","title":"殷行社区文化活动中心","lon":"121.538726103","lat":"31.3191254408","category":"500","category_name":"未知分类","address":"上海杨浦区市光三村164号"},{"poiid":"B2094757D068AAF44498","title":"永琪美容美发(包头二店)","lon":"121.538451195","lat":"31.3153118921","category":"148","category_name":"美容美发店","address":"杨浦区包头路307号(近嫩江路)"},{"poiid":"B2094751D568AAFA4893","title":"虹口凯德龙之梦","lon":"121.537964","lat":"31.319962","category":"249","category_name":"购物服务","address":"西江湾路388号"},{"poiid":"B2094654DB6BA2FF499A","title":"市光三村(南二号门)","lon":"121.54148","lat":"31.31825","category":"47","category_name":"住宅区","address":""},{"poiid":"B2094757D06BA6F44793","title":"星源佳园","lon":"121.53895","lat":"31.321993","category":"47","category_name":"住宅区","address":"工农四村83-104号"},{"poiid":"B2094654D56FAAFE459B","title":"惠元新天地","lon":"121.539","lat":"31.3164","category":"47","category_name":"住宅区","address":"上海市杨浦区中原路38号"},{"poiid":"B2094655D36CA7F44099","title":"国和路包头路","lon":"121.53695","lat":"31.31816","category":"38","category_name":"公交车站","address":""},{"poiid":"B2094757D16EA0F5489E","title":"包头路烧烤","lon":"121.5388","lat":"31.31898","category":"247","category_name":"餐饮美食","address":"上海杨浦区包头路(嫩江路口)  "},{"poiid":"B2094757D568A7FF439C","title":"优兰酒吧KTV","lon":"121.5383392","lat":"31.31708167","category":"170","category_name":"KTV","address":"杨浦区包头路371号"},{"poiid":"B2094654DB6BA2FF489D","title":"市光二村(西二号门)","lon":"121.53884","lat":"31.3167","category":"47","category_name":"住宅区","address":"包头路418"},{"poiid":"B2094757D16CAAF9459E","title":"张记汤馆","lon":"121.54159","lat":"31.31441","category":"68","category_name":"快餐厅","address":"杨浦区嫩江路938号(近包头路)"},{"poiid":"B2094654DB6BA2F8429B","title":"市光四村(南二号门)","lon":"121.53656","lat":"31.31839","category":"47","category_name":"住宅区","address":"市光四村1-68号"},{"poiid":"B2094752D364A4F94292","title":"永顺和苏州汤包馆","lon":"121.53872","lat":"31.31762","category":"68","category_name":"快餐厅","address":"杨浦区包头路440号(近国和路)"},{"poiid":"B2094655D26AA4FD449E","title":"乡乡苑土菜馆","lon":"121.53832","lat":"31.31439","category":"76","category_name":"上海菜","address":"杨浦区嫩江路881号(近包头路)"},{"poiid":"B2094654DB6BA2FF479F","title":"市东医院(北二号门)","lon":"121.53653","lat":"31.32139","category":"162","category_name":"医院","address":""},{"poiid":"B2094654D56FA7F9409B","title":"好德No.669","lon":"121.53832","lat":"31.31939","category":"117","category_name":"便民商店/便利店","address":"包头路555"},{"poiid":"B2094655D26CA7F84493","title":"市光二村(北三号门)","lon":"121.54014","lat":"31.31791","category":"47","category_name":"住宅区","address":""},{"poiid":"B2094655D26DA5FD4593","title":"克莉丝汀 包头路店","lon":"121.538617054","lat":"31.315398793","category":"112","category_name":"糕饼店","address":"杨浦区包头路370号(近国和路)"},{"poiid":"B2094757D66FA0F44798","title":"市光三村社区卫生服务站","lon":"121.5391067","lat":"31.319054039","category":"162","category_name":"医院","address":"上海市光三村164号"},{"poiid":"B2094655D26FA0FB489A","title":"市光四村(东门)","lon":"121.53817","lat":"31.31922","category":"656","category_name":"大门","address":""},{"poiid":"B2094655D26CA6F8459A","title":"民星住宅小区(北二号门)","lon":"121.53914","lat":"31.31447","category":"47","category_name":"住宅区","address":"嫩江路857-867号"},{"poiid":"B2094654D56FA7F9429C","title":"飞短留长形象设计","lon":"121.53802","lat":"31.31685","category":"148","category_name":"美容美发店","address":"市光一村93-1临"},{"poiid":"B2094757D568A5FD469A","title":"跃民理发店","lon":"121.53743842","lat":"31.31834256","category":"148","category_name":"美容美发店","address":"国和路1306-4"},{"poiid":"B2094757D66CA2FE469F","title":"新奥九环加气加油站","lon":"121.5389513","lat":"31.318994638","category":"154","category_name":"加油加气站","address":"上海国和路民约路"},{"poiid":"B2094757D66BA4FF469C","title":"小北京热气羊肉涮锅","lon":"121.53904062362","lat":"31.314462104804","category":"86","category_name":"火锅店","address":"杨浦区包头路296号(近嫩江路)"},{"poiid":"B2094654D56FA7FA439B","title":"市光一村小区","lon":"121.53577","lat":"31.31577","category":"47","category_name":"住宅区","address":"殷行"},{"poiid":"B2094654D56FA7FD4899","title":"中国工商银行上海市国和路支行","lon":"121.53974","lat":"31.31828","category":"150","category_name":"银行","address":"杨浦区国和路1350号近包头路(包头路国和路)"},{"poiid":"B2094751DA6DA0FA409D","title":"新天地","lon":"121.537612","lat":"31.318379","category":"500","category_name":"未知分类","address":null},{"poiid":"B2094757D16EA2FA4993","title":"黑山路长海路","lon":"121.539134","lat":"31.319050039","category":"500","category_name":"未知分类","address":"上海黑山路花鸟市场"},{"poiid":"B2094757D569A3FE4092","title":"中原土灶王","lon":"121.53894233","lat":"31.31830051","category":"260","category_name":"其他","address":"杨浦区包头路472号(国和路口)"},{"poiid":"B2094757D06FA3FD439E","title":"杨浦区市东医院","lon":"121.53765445","lat":"31.321043171","category":"162","category_name":"医院","address":"上海杨浦区市光路999号(近包头路)"},{"poiid":"B2094757D06FA7F9479C","title":"德林火锅(包头路店)","lon":"121.53897","lat":"31.31732","category":"86","category_name":"火锅店","address":"杨浦区包头路436号(近国和路)"},{"poiid":"B2094757D06FA2FE4093","title":"市光二村","lon":"121.54085","lat":"31.31772","category":"47","category_name":"住宅区","address":"上海国和路包头路"},{"poiid":"B2094757D068A3FE4993","title":"中原体育场羽毛球馆","lon":"121.53905","lat":"31.31502","category":"220","category_name":"运动场所","address":"杨浦区包头路380号(近嫩江路)"},{"poiid":"B2094757D06FA2F8419A","title":"市光三村","lon":"121.538493","lat":"31.322494","category":"47","category_name":"住宅区","address":"上海杨浦区,市光三村"},{"poiid":"B2094757D06FA1F9409C","title":"市光四村","lon":"121.53497","lat":"31.320517","category":"47","category_name":"住宅区","address":"上海杨浦区国和路市光路中原路"},{"poiid":"B2094757D068A6F8429C","title":"包头路麻辣烫","lon":"121.539040054","lat":"31.315891793","category":"68","category_name":"快餐厅","address":"闸北区汶水路886号(近卜蜂莲花)"},{"poiid":"B2094757D469A1FC4393","title":"嫩江路麻辣烫","lon":"121.53875","lat":"31.3153","category":"87","category_name":"特色／地方风味餐厅","address":"包头路386号近嫩江路"},{"poiid":"B2094757D064ABFC409A","title":"民欣大酒店","lon":"121.53879","lat":"31.31318","category":"76","category_name":"上海菜","address":"杨浦区包头路280号"},{"poiid":"B2094654DB6AA2FC4592","title":"重庆鸡公煲 包头路店","lon":"121.538462054","lat":"31.317228793","category":"71","category_name":"四川菜","address":"杨浦区包头路371号(近国和路)"},{"poiid":"B2094757D068AAFA4193","title":"民星公园","lon":"121.534809593","lat":"31.3140266479","category":"196","category_name":"公园","address":"杨浦区嫩江路1111号(近中原路)"},{"poiid":"B2094757D06BA1FD469D","title":"山夫烧烤","lon":"121.53872","lat":"31.31762","category":"68","category_name":"快餐厅","address":"杨浦区国和路(包头路口)"},{"poiid":"B2094757D068A6F94498","title":"民星住宅小区","lon":"121.53957","lat":"31.313667","category":"47","category_name":"住宅区","address":"上海包头路300弄"},{"poiid":"B2094654DB6AA3FF479B","title":"东北饭店","lon":"121.53884","lat":"31.31779","category":"82","category_name":"东北菜","address":"杨浦区国和路1203号(近包头路)"},{"poiid":"B2094654D56FA7FE4292","title":"中原大厦","lon":"121.539","lat":"31.3186","category":"46","category_name":"楼宇","address":"中原路60弄1号"},{"poiid":"B2094757D66EA0FB499D","title":"老崇明餐厅","lon":"121.53918259","lat":"31.319068239","category":"76","category_name":"上海菜","address":"杨浦区国和路(近包头路)"},{"poiid":"B2094757D068A2FD409E","title":"苏州汤包馆","lon":"121.5391","lat":"31.31714","category":"247","category_name":"餐饮美食","address":"上海杨浦区包头路440号(近国和路)  "},{"poiid":"B2094757D46BA1FE4499","title":"来伊份 包头路二店","lon":"121.53833","lat":"31.31708","category":"68","category_name":"快餐厅","address":"杨浦区包头路371号(近国和路)"},{"poiid":"B2094654D56FA7FD479F","title":"中国银行上海市包头路支行","lon":"121.53881","lat":"31.31896","category":"150","category_name":"银行","address":"杨浦区包头路490-494号(包头路国和路)"},{"poiid":"B2094655D26CA7FD489E","title":"民星路600弄小区","lon":"121.539","lat":"31.3178","category":"47","category_name":"住宅区","address":"民星路600弄"},{"poiid":"B2094757D169A1FC429B","title":"殷行社区文化活动中心","lon":"121.538726103","lat":"31.3191254408","category":"500","category_name":"未知分类","address":"上海杨浦区市光三村164号"},{"poiid":"B2094757D068AAF44498","title":"永琪美容美发(包头二店)","lon":"121.538451195","lat":"31.3153118921","category":"148","category_name":"美容美发店","address":"杨浦区包头路307号(近嫩江路)"},{"poiid":"B2094751D568AAFA4893","title":"虹口凯德龙之梦","lon":"121.537964","lat":"31.319962","category":"249","category_name":"购物服务","address":"西江湾路388号"},{"poiid":"B2094654DB6BA2FF499A","title":"市光三村(南二号门)","lon":"121.54148","lat":"31.31825","category":"47","category_name":"住宅区","address":""},{"poiid":"B2094757D06BA6F44793","title":"星源佳园","lon":"121.53895","lat":"31.321993","category":"47","category_name":"住宅区","address":"工农四村83-104号"},{"poiid":"B2094654D56FAAFE459B","title":"惠元新天地","lon":"121.539","lat":"31.3164","category":"47","category_name":"住宅区","address":"上海市杨浦区中原路38号"},{"poiid":"B2094655D36CA7F44099","title":"国和路包头路","lon":"121.53695","lat":"31.31816","category":"38","category_name":"公交车站","address":""},{"poiid":"B2094757D16EA0F5489E","title":"包头路烧烤","lon":"121.5388","lat":"31.31898","category":"247","category_name":"餐饮美食","address":"上海杨浦区包头路(嫩江路口)  "},{"poiid":"B2094757D568A7FF439C","title":"优兰酒吧KTV","lon":"121.5383392","lat":"31.31708167","category":"170","category_name":"KTV","address":"杨浦区包头路371号"},{"poiid":"B2094654DB6BA2FF489D","title":"市光二村(西二号门)","lon":"121.53884","lat":"31.3167","category":"47","category_name":"住宅区","address":"包头路418"},{"poiid":"B2094757D16CAAF9459E","title":"张记汤馆","lon":"121.54159","lat":"31.31441","category":"68","category_name":"快餐厅","address":"杨浦区嫩江路938号(近包头路)"},{"poiid":"B2094654DB6BA2F8429B","title":"市光四村(南二号门)","lon":"121.53656","lat":"31.31839","category":"47","category_name":"住宅区","address":"市光四村1-68号"},{"poiid":"B2094752D364A4F94292","title":"永顺和苏州汤包馆","lon":"121.53872","lat":"31.31762","category":"68","category_name":"快餐厅","address":"杨浦区包头路440号(近国和路)"},{"poiid":"B2094655D26AA4FD449E","title":"乡乡苑土菜馆","lon":"121.53832","lat":"31.31439","category":"76","category_name":"上海菜","address":"杨浦区嫩江路881号(近包头路)"},{"poiid":"B2094654DB6BA2FF479F","title":"市东医院(北二号门)","lon":"121.53653","lat":"31.32139","category":"162","category_name":"医院","address":""},{"poiid":"B2094654D56FA7F9409B","title":"好德No.669","lon":"121.53832","lat":"31.31939","category":"117","category_name":"便民商店/便利店","address":"包头路555"},{"poiid":"B2094655D26CA7F84493","title":"市光二村(北三号门)","lon":"121.54014","lat":"31.31791","category":"47","category_name":"住宅区","address":""},{"poiid":"B2094655D26DA5FD4593","title":"克莉丝汀 包头路店","lon":"121.538617054","lat":"31.315398793","category":"112","category_name":"糕饼店","address":"杨浦区包头路370号(近国和路)"},{"poiid":"B2094757D66FA0F44798","title":"市光三村社区卫生服务站","lon":"121.5391067","lat":"31.319054039","category":"162","category_name":"医院","address":"上海市光三村164号"},{"poiid":"B2094655D26FA0FB489A","title":"市光四村(东门)","lon":"121.53817","lat":"31.31922","category":"656","category_name":"大门","address":""},{"poiid":"B2094655D26CA6F8459A","title":"民星住宅小区(北二号门)","lon":"121.53914","lat":"31.31447","category":"47","category_name":"住宅区","address":"嫩江路857-867号"},{"poiid":"B2094654D56FA7F9429C","title":"飞短留长形象设计","lon":"121.53802","lat":"31.31685","category":"148","category_name":"美容美发店","address":"市光一村93-1临"},{"poiid":"B2094757D568A5FD469A","title":"跃民理发店","lon":"121.53743842","lat":"31.31834256","category":"148","category_name":"美容美发店","address":"国和路1306-4"},{"poiid":"B2094757D66CA2FE469F","title":"新奥九环加气加油站","lon":"121.5389513","lat":"31.318994638","category":"154","category_name":"加油加气站","address":"上海国和路民约路"},{"poiid":"B2094757D66BA4FF469C","title":"小北京热气羊肉涮锅","lon":"121.53904062362","lat":"31.314462104804","category":"86","category_name":"火锅店","address":"杨浦区包头路296号(近嫩江路)"},{"poiid":"B2094654D56FA7FA439B","title":"市光一村小区","lon":"121.53577","lat":"31.31577","category":"47","category_name":"住宅区","address":"殷行"},{"poiid":"B2094654D56FA7FD4899","title":"中国工商银行上海市国和路支行","lon":"121.53974","lat":"31.31828","category":"150","category_name":"银行","address":"杨浦区国和路1350号近包头路(包头路国和路)"},{"poiid":"B2094751DA6DA0FA409D","title":"新天地","lon":"121.537612","lat":"31.318379","category":"500","category_name":"未知分类","address":null},{"poiid":"B2094757D16EA2FA4993","title":"黑山路长海路","lon":"121.539134","lat":"31.319050039","category":"500","category_name":"未知分类","address":"上海黑山路花鸟市场"},{"poiid":"B2094757D569A3FE4092","title":"中原土灶王","lon":"121.53894233","lat":"31.31830051","category":"260","category_name":"其他","address":"杨浦区包头路472号(国和路口)"},{"poiid":"B2094757D06FA3FD439E","title":"杨浦区市东医院","lon":"121.53765445","lat":"31.321043171","category":"162","category_name":"医院","address":"上海杨浦区市光路999号(近包头路)"},{"poiid":"B2094757D06FA7F9479C","title":"德林火锅(包头路店)","lon":"121.53897","lat":"31.31732","category":"86","category_name":"火锅店","address":"杨浦区包头路436号(近国和路)"},{"poiid":"B2094757D06FA2FE4093","title":"市光二村","lon":"121.54085","lat":"31.31772","category":"47","category_name":"住宅区","address":"上海国和路包头路"},{"poiid":"B2094757D068A3FE4993","title":"中原体育场羽毛球馆","lon":"121.53905","lat":"31.31502","category":"220","category_name":"运动场所","address":"杨浦区包头路380号(近嫩江路)"},{"poiid":"B2094757D06FA2F8419A","title":"市光三村","lon":"121.538493","lat":"31.322494","category":"47","category_name":"住宅区","address":"上海杨浦区,市光三村"},{"poiid":"B2094757D06FA1F9409C","title":"市光四村","lon":"121.53497","lat":"31.320517","category":"47","category_name":"住宅区","address":"上海杨浦区国和路市光路中原路"},{"poiid":"B2094757D068A6F8429C","title":"包头路麻辣烫","lon":"121.539040054","lat":"31.315891793","category":"68","category_name":"快餐厅","address":"闸北区汶水路886号(近卜蜂莲花)"},{"poiid":"B2094757D469A1FC4393","title":"嫩江路麻辣烫","lon":"121.53875","lat":"31.3153","category":"87","category_name":"特色／地方风味餐厅","address":"包头路386号近嫩江路"},{"poiid":"B2094757D064ABFC409A","title":"民欣大酒店","lon":"121.53879","lat":"31.31318","category":"76","category_name":"上海菜","address":"杨浦区包头路280号"},{"poiid":"B2094654DB6AA2FC4592","title":"重庆鸡公煲 包头路店","lon":"121.538462054","lat":"31.317228793","category":"71","category_name":"四川菜","address":"杨浦区包头路371号(近国和路)"},{"poiid":"B2094757D068AAFA4193","title":"民星公园","lon":"121.534809593","lat":"31.3140266479","category":"196","category_name":"公园","address":"杨浦区嫩江路1111号(近中原路)"},{"poiid":"B2094757D06BA1FD469D","title":"山夫烧烤","lon":"121.53872","lat":"31.31762","category":"68","category_name":"快餐厅","address":"杨浦区国和路(包头路口)"},{"poiid":"B2094757D068A6F94498","title":"民星住宅小区","lon":"121.53957","lat":"31.313667","category":"47","category_name":"住宅区","address":"上海包头路300弄"},{"poiid":"B2094654DB6AA3FF479B","title":"东北饭店","lon":"121.53884","lat":"31.31779","category":"82","category_name":"东北菜","address":"杨浦区国和路1203号(近包头路)"},{"poiid":"B2094654D56FA7FE4292","title":"中原大厦","lon":"121.539","lat":"31.3186","category":"46","category_name":"楼宇","address":"中原路60弄1号"},{"poiid":"B2094757D66EA0FB499D","title":"老崇明餐厅","lon":"121.53918259","lat":"31.319068239","category":"76","category_name":"上海菜","address":"杨浦区国和路(近包头路)"},{"poiid":"B2094757D068A2FD409E","title":"苏州汤包馆","lon":"121.5391","lat":"31.31714","category":"247","category_name":"餐饮美食","address":"上海杨浦区包头路440号(近国和路)  "},{"poiid":"B2094757D46BA1FE4499","title":"来伊份 包头路二店","lon":"121.53833","lat":"31.31708","category":"68","category_name":"快餐厅","address":"杨浦区包头路371号(近国和路)"},{"poiid":"B2094654D56FA7FD479F","title":"中国银行上海市包头路支行","lon":"121.53881","lat":"31.31896","category":"150","category_name":"银行","address":"杨浦区包头路490-494号(包头路国和路)"},{"poiid":"B2094655D26CA7FD489E","title":"民星路600弄小区","lon":"121.539","lat":"31.3178","category":"47","category_name":"住宅区","address":"民星路600弄"},{"poiid":"B2094757D169A1FC429B","title":"殷行社区文化活动中心","lon":"121.538726103","lat":"31.3191254408","category":"500","category_name":"未知分类","address":"上海杨浦区市光三村164号"},{"poiid":"B2094757D068AAF44498","title":"永琪美容美发(包头二店)","lon":"121.538451195","lat":"31.3153118921","category":"148","category_name":"美容美发店","address":"杨浦区包头路307号(近嫩江路)"},{"poiid":"B2094751D568AAFA4893","title":"虹口凯德龙之梦","lon":"121.537964","lat":"31.319962","category":"249","category_name":"购物服务","address":"西江湾路388号"},{"poiid":"B2094654DB6BA2FF499A","title":"市光三村(南二号门)","lon":"121.54148","lat":"31.31825","category":"47","category_name":"住宅区","address":""},{"poiid":"B2094757D06BA6F44793","title":"星源佳园","lon":"121.53895","lat":"31.321993","category":"47","category_name":"住宅区","address":"工农四村83-104号"},{"poiid":"B2094654D56FAAFE459B","title":"惠元新天地","lon":"121.539","lat":"31.3164","category":"47","category_name":"住宅区","address":"上海市杨浦区中原路38号"},{"poiid":"B2094655D36CA7F44099","title":"国和路包头路","lon":"121.53695","lat":"31.31816","category":"38","category_name":"公交车站","address":""},{"poiid":"B2094757D16EA0F5489E","title":"包头路烧烤","lon":"121.5388","lat":"31.31898","category":"247","category_name":"餐饮美食","address":"上海杨浦区包头路(嫩江路口)  "},{"poiid":"B2094757D568A7FF439C","title":"优兰酒吧KTV","lon":"121.5383392","lat":"31.31708167","category":"170","category_name":"KTV","address":"杨浦区包头路371号"},{"poiid":"B2094654DB6BA2FF489D","title":"市光二村(西二号门)","lon":"121.53884","lat":"31.3167","category":"47","category_name":"住宅区","address":"包头路418"},{"poiid":"B2094757D16CAAF9459E","title":"张记汤馆","lon":"121.54159","lat":"31.31441","category":"68","category_name":"快餐厅","address":"杨浦区嫩江路938号(近包头路)"},{"poiid":"B2094654DB6BA2F8429B","title":"市光四村(南二号门)","lon":"121.53656","lat":"31.31839","category":"47","category_name":"住宅区","address":"市光四村1-68号"},{"poiid":"B2094752D364A4F94292","title":"永顺和苏州汤包馆","lon":"121.53872","lat":"31.31762","category":"68","category_name":"快餐厅","address":"杨浦区包头路440号(近国和路)"},{"poiid":"B2094655D26AA4FD449E","title":"乡乡苑土菜馆","lon":"121.53832","lat":"31.31439","category":"76","category_name":"上海菜","address":"杨浦区嫩江路881号(近包头路)"},{"poiid":"B2094654DB6BA2FF479F","title":"市东医院(北二号门)","lon":"121.53653","lat":"31.32139","category":"162","category_name":"医院","address":""},{"poiid":"B2094654D56FA7F9409B","title":"好德No.669","lon":"121.53832","lat":"31.31939","category":"117","category_name":"便民商店/便利店","address":"包头路555"},{"poiid":"B2094655D26CA7F84493","title":"市光二村(北三号门)","lon":"121.54014","lat":"31.31791","category":"47","category_name":"住宅区","address":""},{"poiid":"B2094655D26DA5FD4593","title":"克莉丝汀 包头路店","lon":"121.538617054","lat":"31.315398793","category":"112","category_name":"糕饼店","address":"杨浦区包头路370号(近国和路)"},{"poiid":"B2094757D66FA0F44798","title":"市光三村社区卫生服务站","lon":"121.5391067","lat":"31.319054039","category":"162","category_name":"医院","address":"上海市光三村164号"},{"poiid":"B2094655D26FA0FB489A","title":"市光四村(东门)","lon":"121.53817","lat":"31.31922","category":"656","category_name":"大门","address":""},{"poiid":"B2094655D26CA6F8459A","title":"民星住宅小区(北二号门)","lon":"121.53914","lat":"31.31447","category":"47","category_name":"住宅区","address":"嫩江路857-867号"},{"poiid":"B2094654D56FA7F9429C","title":"飞短留长形象设计","lon":"121.53802","lat":"31.31685","category":"148","category_name":"美容美发店","address":"市光一村93-1临"},{"poiid":"B2094757D568A5FD469A","title":"跃民理发店","lon":"121.53743842","lat":"31.31834256","category":"148","category_name":"美容美发店","address":"国和路1306-4"},{"poiid":"B2094757D66CA2FE469F","title":"新奥九环加气加油站","lon":"121.5389513","lat":"31.318994638","category":"154","category_name":"加油加气站","address":"上海国和路民约路"},{"poiid":"B2094757D66BA4FF469C","title":"小北京热气羊肉涮锅","lon":"121.53904062362","lat":"31.314462104804","category":"86","category_name":"火锅店","address":"杨浦区包头路296号(近嫩江路)"},{"poiid":"B2094654D56FA7FA439B","title":"市光一村小区","lon":"121.53577","lat":"31.31577","category":"47","category_name":"住宅区","address":"殷行"},{"poiid":"B2094654D56FA7FD4899","title":"中国工商银行上海市国和路支行","lon":"121.53974","lat":"31.31828","category":"150","category_name":"银行","address":"杨浦区国和路1350号近包头路(包头路国和路)"},{"poiid":"B2094751DA6DA0FA409D","title":"新天地","lon":"121.537612","lat":"31.318379","category":"500","category_name":"未知分类","address":null},{"poiid":"B2094757D16EA2FA4993","title":"黑山路长海路","lon":"121.539134","lat":"31.319050039","category":"500","category_name":"未知分类","address":"上海黑山路花鸟市场"},{"poiid":"B2094757D569A3FE4092","title":"中原土灶王","lon":"121.53894233","lat":"31.31830051","category":"260","category_name":"其他","address":"杨浦区包头路472号(国和路口)"}]