[{"poiid":"B2094751D26CA1F84692","title":"上海当代艺术博物馆","lon":"121.498542","lat":"31.200687","category":"500","category_name":"未知分类","address":"西藏南路世博园区"},{"poiid":"B2094655D26BA0FD479D","title":"世博洲际酒店","lon":"121.50538","lat":"31.19933","category":"213","category_name":"五星级宾馆","address":"浦东新区雪野路1188号(近南码头路)"},{"poiid":"B2094757D06FA0F8439A","title":"宝莱纳餐厅(世博店)","lon":"121.504113332","lat":"31.1982851473","category":"260","category_name":"其他","address":"浦东新区世博大道555号1-2楼(近雪野路)"},{"poiid":"B2094750D365ABFA4392","title":"梅赛得斯-奔驰文化中心","lon":"121.493125","lat":"31.189492","category":"500","category_name":"未知分类","address":"世博大道1200号"},{"poiid":"B2094757D068A6F5439B","title":"世博会城市未来馆","lon":"121.49785","lat":"31.20127","category":"500","category_name":"未知分类","address":"上海世博会E片区"},{"poiid":"B2094757D06FA1F94793","title":"南码头轮渡","lon":"121.50582772","lat":"31.202802396","category":"260","category_name":"其他","address":"上海浦东新区南码头路1号摆渡口"},{"poiid":"B2094757D06FA5F9429C","title":"多利萝玛(Tony Roma's)","lon":"121.5040196","lat":"31.196038751","category":"94","category_name":"西餐厅","address":"浦东新区世博村B地块雪野路1057号B9-101C室(近沂南路)"},{"poiid":"B2094757D66CA4FE479B","title":"滨江大道-世博段","lon":"121.502270053","lat":"31.1976926018","category":"500","category_name":"未知分类","address":"上海世博大道沿江段"},{"poiid":"B2094654DA68A0FC489F","title":"耀江花园","lon":"121.49187","lat":"31.199152","category":"47","category_name":"住宅区","address":"上海西藏南路1739弄"},{"poiid":"B2094757D065A0FD4493","title":"Bubba's Texas-style BBQ(世博村店)","lon":"121.504977","lat":"31.196236","category":"94","category_name":"西餐厅","address":"浦东新区雪野路240号(近沂南路)"},{"poiid":"B2094757D56CA7F9479D","title":"博古斯学院法国餐厅","lon":"121.49647","lat":"31.20092","category":"247","category_name":"餐饮美食","address":"黄浦区保屯路379号世博会园区法国罗阿大区展馆内(近中山南路)"},{"poiid":"B2094757D06FA4FB409F","title":"世博园二号门","lon":"121.49101012","lat":"31.200848717","category":"260","category_name":"其他","address":"上海世博园二号门西藏南路出入口"},{"poiid":"B2094757D068A3FB4892","title":"云餐厅(世博店)","lon":"121.49891375","lat":"31.200957366","category":"260","category_name":"其他","address":"黄浦区南车站路世博园城市未来馆7-8楼(近半淞园路9月份营业)"},{"poiid":"B2094750DB6CA6FA409A","title":"上海当代艺术博物馆","lon":"121.498191","lat":"31.200557","category":"248","category_name":"生活娱乐","address":"黄浦区花园港路"},{"poiid":"B2094757D16DAAF4429E","title":"仙炙轩 世博店 Ambrosia","lon":"121.504652","lat":"31.200724","category":"247","category_name":"餐饮美食","address":"浦东新区世博大道555号4楼(雪野路口)"},{"poiid":"B2094750DB69A3FD4993","title":"镭战大联盟","lon":"121.501408","lat":"31.204725","category":"248","category_name":"生活娱乐","address":"黄浦区外马路1353号(近南浦大桥)"},{"poiid":"B2094757D16CABF9469B","title":"黄浦江江面","lon":"121.493064","lat":"31.197621","category":"247","category_name":"餐饮美食","address":"上海黄浦江江面"},{"poiid":"B2094757D068ABFE4999","title":"上海世博东湖公寓酒店","lon":"121.505364591","lat":"31.1967514842","category":"217","category_name":"旅馆招待所","address":"浦东新区雪野路999号"},{"poiid":"B2094750DA64ABFE469E","title":"上海当代艺术博物馆","lon":"121.499153","lat":"31.200927","category":"500","category_name":"未知分类","address":null},{"poiid":"B2094757D16AABFA409E","title":"地铁6号线世纪大道站","lon":"121.495764738","lat":"31.2038677385","category":"500","category_name":"未知分类","address":"上海"},{"poiid":"B2094750DB6BA0FA469A","title":"上海当代艺术博物馆","lon":"121.498847","lat":"31.199577","category":"500","category_name":"未知分类","address":"黄浦区花园港路200号上海当代艺术博物馆1楼(近苗江路)"},{"poiid":"B2094753D665AAF84998","title":"上海儿童艺术剧场","lon":"121.494537","lat":"31.19647","category":"500","category_name":"未知分类","address":"上海市 苗江路800号"},{"poiid":"B2094750DB65A2F4499F","title":"上海当代艺术馆","lon":"121.49842","lat":"31.200689","category":"500","category_name":"未知分类","address":null},{"poiid":"B2094655D26CA3FE469C","title":"上外黄浦外国语小学","lon":"121.49461","lat":"31.20074","category":"56","category_name":"小学","address":"黄浦区半淞园路621号(半淞园路望达路)"},{"poiid":"B2094757D065A5F9499F","title":"Lavazza红磡意大利餐厅","lon":"121.50086773","lat":"31.194968549","category":"500","category_name":"未知分类","address":"浦东新区世博大道690号(近白莲泾公园)"},{"poiid":"B2094757D06AA6F54493","title":"世博村","lon":"121.50436693","lat":"31.197464102","category":"47","category_name":"住宅区","address":"上海浦东新区雪野路(近沂南路)"},{"poiid":"B2094757D06BA3F5499A","title":"世博会L1码头","lon":"121.50177002","lat":"31.195886611","category":"500","category_name":"未知分类","address":"上海世博会L1码头"},{"poiid":"B2094757D064A0F8459B","title":"一一八八 Cafe 1188","lon":"121.505704","lat":"31.2001","category":"247","category_name":"餐饮美食","address":"雪野路1188号世博洲际酒店1楼内近南码头路"},{"poiid":"B209475CD768A0FF4499","title":"pulupulu主题游戏馆","lon":"121.504699","lat":"31.203042","category":"500","category_name":"未知分类","address":"上海市 苗江路139号"},{"poiid":"B2094655D36DA7F8479E","title":"中山南路南车站路","lon":"121.49381","lat":"31.20426","category":"38","category_name":"公交车站","address":""},{"poiid":"B2094654DA68A0FC479B","title":"金中苑商务楼","lon":"121.49163","lat":"31.20221","category":"46","category_name":"楼宇","address":"黄浦区南京东路311号"},{"poiid":"B209475DD769A6FA419C","title":"星巴克南车站路店","lon":"121.498313","lat":"31.200071","category":"247","category_name":"餐饮美食","address":"南车站路564号"},{"poiid":"B2094655D265AAFB429E","title":"俏江南","lon":"121.49559","lat":"31.19734","category":"71","category_name":"四川菜","address":"上海世博园区"},{"poiid":"B209475DD66AA7FE429C","title":"Pulupulu主题游戏馆","lon":"121.500289","lat":"31.205091","category":"248","category_name":"生活娱乐","address":"上海市 黄浦区苗江路139号"},{"poiid":"B2094757D06BA1F44992","title":"黄浦区体检站","lon":"121.494562","lat":"31.204399","category":"162","category_name":"医院","address":"黄浦区南车站路501号(近中山南路)"},{"poiid":"B2094654DA68A0FC489B","title":"白玉兰家园","lon":"121.49213","lat":"31.200241","category":"47","category_name":"住宅区","address":"白玉兰家园位于黄浦西藏南路1717号(近高雄路口)"},{"poiid":"B2094752D768A3FA4299","title":"梅赛德斯奔驰文化中心","lon":"121.499401","lat":"31.194805","category":"500","category_name":"未知分类","address":null},{"poiid":"B2094757D76DA0F4439B","title":"巴赛丽意大利餐厅 Basilico","lon":"121.505704","lat":"31.20014","category":"94","category_name":"西餐厅","address":"浦东新区雪野路1188号世博洲际酒店内(近世博大道)"},{"poiid":"B2094757D068A6FA4499","title":"世博会中国船舶馆","lon":"121.49313","lat":"31.19636","category":"260","category_name":"其他","address":"上海世博会E片区"},{"poiid":"B209475DD76AA1FE4599","title":"星巴克 南车站路店","lon":"121.494293","lat":"31.20285","category":"247","category_name":"餐饮美食","address":"上海市 南车站路"},{"poiid":"B2094655D265A2F84598","title":"案例联合馆4","lon":"121.49638","lat":"31.20211","category":"183","category_name":"展览馆","address":"上海世博园区"},{"poiid":"B2094654DB6AA6FF419F","title":"南码头渡口","lon":"121.50591","lat":"31.20227","category":"34","category_name":"港口码头","address":""},{"poiid":"B209475CD66DA0FA469B","title":"上海老码头","lon":"121.497016","lat":"31.196842","category":"500","category_name":"未知分类","address":"上海市 中山南路"},{"poiid":"B2094757D169A6F9429E","title":"Masala Art(雪野路店)","lon":"121.50549158","lat":"31.195461483","category":"102","category_name":"印度风味","address":"浦东新区世博村雪野路1057号101b(近世博大道)"},{"poiid":"B2094757DB69A1FA489E","title":"白莲泾公园","lon":"121.495446","lat":"31.196305","category":"250","category_name":"公园户外","address":"世博大道白莲泾路"},{"poiid":"B2094757D66FA1F4449C","title":"广州市环市西路小学","lon":"121.496322632","lat":"31.2007198334","category":"56","category_name":"小学","address":"广州市荔湾区环市西路46号"},{"poiid":"B2094655D36CA0F9469F","title":"江边码头","lon":"121.49444","lat":"31.20002","category":"38","category_name":"公交车站","address":""},{"poiid":"B2094757D065A3F9419E","title":"南园大厦","lon":"121.494","lat":"31.2022","category":"252","category_name":"楼宇机构","address":"上海市卢湾区龙华东路888号"},{"poiid":"B2094750D16BA1FD409D","title":"虹口足球场","lon":"121.5032644966952","lat":"31.20336783101407","category":"220","category_name":"运动场所","address":null},{"poiid":"B2094655D26BA1F8439F","title":"南车站路","lon":"121.49553","lat":"31.20316","category":"38","category_name":"公交车站","address":"上海华教大厦"},{"poiid":"B2094751D26CA1F84692","title":"上海当代艺术博物馆","lon":"121.498542","lat":"31.200687","category":"500","category_name":"未知分类","address":"西藏南路世博园区"},{"poiid":"B2094655D26BA0FD479D","title":"世博洲际酒店","lon":"121.50538","lat":"31.19933","category":"213","category_name":"五星级宾馆","address":"浦东新区雪野路1188号(近南码头路)"},{"poiid":"B2094757D06FA0F8439A","title":"宝莱纳餐厅(世博店)","lon":"121.504113332","lat":"31.1982851473","category":"260","category_name":"其他","address":"浦东新区世博大道555号1-2楼(近雪野路)"},{"poiid":"B2094750D365ABFA4392","title":"梅赛得斯-奔驰文化中心","lon":"121.493125","lat":"31.189492","category":"500","category_name":"未知分类","address":"世博大道1200号"},{"poiid":"B2094757D068A6F5439B","title":"世博会城市未来馆","lon":"121.49785","lat":"31.20127","category":"500","category_name":"未知分类","address":"上海世博会E片区"},{"poiid":"B2094757D06FA1F94793","title":"南码头轮渡","lon":"121.50582772","lat":"31.202802396","category":"260","category_name":"其他","address":"上海浦东新区南码头路1号摆渡口"},{"poiid":"B2094757D06FA5F9429C","title":"多利萝玛(Tony Roma's)","lon":"121.5040196","lat":"31.196038751","category":"94","category_name":"西餐厅","address":"浦东新区世博村B地块雪野路1057号B9-101C室(近沂南路)"},{"poiid":"B2094757D66CA4FE479B","title":"滨江大道-世博段","lon":"121.502270053","lat":"31.1976926018","category":"500","category_name":"未知分类","address":"上海世博大道沿江段"},{"poiid":"B2094654DA68A0FC489F","title":"耀江花园","lon":"121.49187","lat":"31.199152","category":"47","category_name":"住宅区","address":"上海西藏南路1739弄"},{"poiid":"B2094757D065A0FD4493","title":"Bubba's Texas-style BBQ(世博村店)","lon":"121.504977","lat":"31.196236","category":"94","category_name":"西餐厅","address":"浦东新区雪野路240号(近沂南路)"},{"poiid":"B2094757D56CA7F9479D","title":"博古斯学院法国餐厅","lon":"121.49647","lat":"31.20092","category":"247","category_name":"餐饮美食","address":"黄浦区保屯路379号世博会园区法国罗阿大区展馆内(近中山南路)"},{"poiid":"B2094757D06FA4FB409F","title":"世博园二号门","lon":"121.49101012","lat":"31.200848717","category":"260","category_name":"其他","address":"上海世博园二号门西藏南路出入口"},{"poiid":"B2094757D068A3FB4892","title":"云餐厅(世博店)","lon":"121.49891375","lat":"31.200957366","category":"260","category_name":"其他","address":"黄浦区南车站路世博园城市未来馆7-8楼(近半淞园路9月份营业)"},{"poiid":"B2094750DB6CA6FA409A","title":"上海当代艺术博物馆","lon":"121.498191","lat":"31.200557","category":"248","category_name":"生活娱乐","address":"黄浦区花园港路"},{"poiid":"B2094757D16DAAF4429E","title":"仙炙轩 世博店 Ambrosia","lon":"121.504652","lat":"31.200724","category":"247","category_name":"餐饮美食","address":"浦东新区世博大道555号4楼(雪野路口)"},{"poiid":"B2094750DB69A3FD4993","title":"镭战大联盟","lon":"121.501408","lat":"31.204725","category":"248","category_name":"生活娱乐","address":"黄浦区外马路1353号(近南浦大桥)"},{"poiid":"B2094757D16CABF9469B","title":"黄浦江江面","lon":"121.493064","lat":"31.197621","category":"247","category_name":"餐饮美食","address":"上海黄浦江江面"},{"poiid":"B2094757D068ABFE4999","title":"上海世博东湖公寓酒店","lon":"121.505364591","lat":"31.1967514842","category":"217","category_name":"旅馆招待所","address":"浦东新区雪野路999号"},{"poiid":"B2094750DA64ABFE469E","title":"上海当代艺术博物馆","lon":"121.499153","lat":"31.200927","category":"500","category_name":"未知分类","address":null},{"poiid":"B2094757D16AABFA409E","title":"地铁6号线世纪大道站","lon":"121.495764738","lat":"31.2038677385","category":"500","category_name":"未知分类","address":"上海"},{"poiid":"B2094750DB6BA0FA469A","title":"上海当代艺术博物馆","lon":"121.498847","lat":"31.199577","category":"500","category_name":"未知分类","address":"黄浦区花园港路200号上海当代艺术博物馆1楼(近苗江路)"},{"poiid":"B2094753D665AAF84998","title":"上海儿童艺术剧场","lon":"121.494537","lat":"31.19647","category":"500","category_name":"未知分类","address":"上海市 苗江路800号"},{"poiid":"B2094750DB65A2F4499F","title":"上海当代艺术馆","lon":"121.49842","lat":"31.200689","category":"500","category_name":"未知分类","address":null},{"poiid":"B2094655D26CA3FE469C","title":"上外黄浦外国语小学","lon":"121.49461","lat":"31.20074","category":"56","category_name":"小学","address":"黄浦区半淞园路621号(半淞园路望达路)"},{"poiid":"B2094757D065A5F9499F","title":"Lavazza红磡意大利餐厅","lon":"121.50086773","lat":"31.194968549","category":"500","category_name":"未知分类","address":"浦东新区世博大道690号(近白莲泾公园)"},{"poiid":"B2094757D06AA6F54493","title":"世博村","lon":"121.50436693","lat":"31.197464102","category":"47","category_name":"住宅区","address":"上海浦东新区雪野路(近沂南路)"},{"poiid":"B2094757D06BA3F5499A","title":"世博会L1码头","lon":"121.50177002","lat":"31.195886611","category":"500","category_name":"未知分类","address":"上海世博会L1码头"},{"poiid":"B2094757D064A0F8459B","title":"一一八八 Cafe 1188","lon":"121.505704","lat":"31.2001","category":"247","category_name":"餐饮美食","address":"雪野路1188号世博洲际酒店1楼内近南码头路"},{"poiid":"B209475CD768A0FF4499","title":"pulupulu主题游戏馆","lon":"121.504699","lat":"31.203042","category":"500","category_name":"未知分类","address":"上海市 苗江路139号"},{"poiid":"B2094655D36DA7F8479E","title":"中山南路南车站路","lon":"121.49381","lat":"31.20426","category":"38","category_name":"公交车站","address":""},{"poiid":"B2094654DA68A0FC479B","title":"金中苑商务楼","lon":"121.49163","lat":"31.20221","category":"46","category_name":"楼宇","address":"黄浦区南京东路311号"},{"poiid":"B209475DD769A6FA419C","title":"星巴克南车站路店","lon":"121.498313","lat":"31.200071","category":"247","category_name":"餐饮美食","address":"南车站路564号"},{"poiid":"B2094655D265AAFB429E","title":"俏江南","lon":"121.49559","lat":"31.19734","category":"71","category_name":"四川菜","address":"上海世博园区"},{"poiid":"B209475DD66AA7FE429C","title":"Pulupulu主题游戏馆","lon":"121.500289","lat":"31.205091","category":"248","category_name":"生活娱乐","address":"上海市 黄浦区苗江路139号"},{"poiid":"B2094757D06BA1F44992","title":"黄浦区体检站","lon":"121.494562","lat":"31.204399","category":"162","category_name":"医院","address":"黄浦区南车站路501号(近中山南路)"},{"poiid":"B2094654DA68A0FC489B","title":"白玉兰家园","lon":"121.49213","lat":"31.200241","category":"47","category_name":"住宅区","address":"白玉兰家园位于黄浦西藏南路1717号(近高雄路口)"},{"poiid":"B2094752D768A3FA4299","title":"梅赛德斯奔驰文化中心","lon":"121.499401","lat":"31.194805","category":"500","category_name":"未知分类","address":null},{"poiid":"B2094757D76DA0F4439B","title":"巴赛丽意大利餐厅 Basilico","lon":"121.505704","lat":"31.20014","category":"94","category_name":"西餐厅","address":"浦东新区雪野路1188号世博洲际酒店内(近世博大道)"},{"poiid":"B2094757D068A6FA4499","title":"世博会中国船舶馆","lon":"121.49313","lat":"31.19636","category":"260","category_name":"其他","address":"上海世博会E片区"},{"poiid":"B209475DD76AA1FE4599","title":"星巴克 南车站路店","lon":"121.494293","lat":"31.20285","category":"247","category_name":"餐饮美食","address":"上海市 南车站路"},{"poiid":"B2094655D265A2F84598","title":"案例联合馆4","lon":"121.49638","lat":"31.20211","category":"183","category_name":"展览馆","address":"上海世博园区"},{"poiid":"B2094654DB6AA6FF419F","title":"南码头渡口","lon":"121.50591","lat":"31.20227","category":"34","category_name":"港口码头","address":""},{"poiid":"B209475CD66DA0FA469B","title":"上海老码头","lon":"121.497016","lat":"31.196842","category":"500","category_name":"未知分类","address":"上海市 中山南路"},{"poiid":"B2094757D169A6F9429E","title":"Masala Art(雪野路店)","lon":"121.50549158","lat":"31.195461483","category":"102","category_name":"印度风味","address":"浦东新区世博村雪野路1057号101b(近世博大道)"},{"poiid":"B2094757DB69A1FA489E","title":"白莲泾公园","lon":"121.495446","lat":"31.196305","category":"250","category_name":"公园户外","address":"世博大道白莲泾路"},{"poiid":"B2094757D66FA1F4449C","title":"广州市环市西路小学","lon":"121.496322632","lat":"31.2007198334","category":"56","category_name":"小学","address":"广州市荔湾区环市西路46号"},{"poiid":"B2094655D36CA0F9469F","title":"江边码头","lon":"121.49444","lat":"31.20002","category":"38","category_name":"公交车站","address":""},{"poiid":"B2094757D065A3F9419E","title":"南园大厦","lon":"121.494","lat":"31.2022","category":"252","category_name":"楼宇机构","address":"上海市卢湾区龙华东路888号"},{"poiid":"B2094750D16BA1FD409D","title":"虹口足球场","lon":"121.5032644966952","lat":"31.20336783101407","category":"220","category_name":"运动场所","address":null},{"poiid":"B2094655D26BA1F8439F","title":"南车站路","lon":"121.49553","lat":"31.20316","category":"38","category_name":"公交车站","address":"上海华教大厦"},{"poiid":"B2094751D26CA1F84692","title":"上海当代艺术博物馆","lon":"121.498542","lat":"31.200687","category":"500","category_name":"未知分类","address":"西藏南路世博园区"},{"poiid":"B2094655D26BA0FD479D","title":"世博洲际酒店","lon":"121.50538","lat":"31.19933","category":"213","category_name":"五星级宾馆","address":"浦东新区雪野路1188号(近南码头路)"},{"poiid":"B2094757D06FA0F8439A","title":"宝莱纳餐厅(世博店)","lon":"121.504113332","lat":"31.1982851473","category":"260","category_name":"其他","address":"浦东新区世博大道555号1-2楼(近雪野路)"},{"poiid":"B2094750D365ABFA4392","title":"梅赛得斯-奔驰文化中心","lon":"121.493125","lat":"31.189492","category":"500","category_name":"未知分类","address":"世博大道1200号"},{"poiid":"B2094757D068A6F5439B","title":"世博会城市未来馆","lon":"121.49785","lat":"31.20127","category":"500","category_name":"未知分类","address":"上海世博会E片区"},{"poiid":"B2094757D06FA1F94793","title":"南码头轮渡","lon":"121.50582772","lat":"31.202802396","category":"260","category_name":"其他","address":"上海浦东新区南码头路1号摆渡口"},{"poiid":"B2094757D06FA5F9429C","title":"多利萝玛(Tony Roma's)","lon":"121.5040196","lat":"31.196038751","category":"94","category_name":"西餐厅","address":"浦东新区世博村B地块雪野路1057号B9-101C室(近沂南路)"},{"poiid":"B2094757D66CA4FE479B","title":"滨江大道-世博段","lon":"121.502270053","lat":"31.1976926018","category":"500","category_name":"未知分类","address":"上海世博大道沿江段"},{"poiid":"B2094654DA68A0FC489F","title":"耀江花园","lon":"121.49187","lat":"31.199152","category":"47","category_name":"住宅区","address":"上海西藏南路1739弄"},{"poiid":"B2094757D065A0FD4493","title":"Bubba's Texas-style BBQ(世博村店)","lon":"121.504977","lat":"31.196236","category":"94","category_name":"西餐厅","address":"浦东新区雪野路240号(近沂南路)"},{"poiid":"B2094757D56CA7F9479D","title":"博古斯学院法国餐厅","lon":"121.49647","lat":"31.20092","category":"247","category_name":"餐饮美食","address":"黄浦区保屯路379号世博会园区法国罗阿大区展馆内(近中山南路)"},{"poiid":"B2094757D06FA4FB409F","title":"世博园二号门","lon":"121.49101012","lat":"31.200848717","category":"260","category_name":"其他","address":"上海世博园二号门西藏南路出入口"},{"poiid":"B2094757D068A3FB4892","title":"云餐厅(世博店)","lon":"121.49891375","lat":"31.200957366","category":"260","category_name":"其他","address":"黄浦区南车站路世博园城市未来馆7-8楼(近半淞园路9月份营业)"},{"poiid":"B2094750DB6CA6FA409A","title":"上海当代艺术博物馆","lon":"121.498191","lat":"31.200557","category":"248","category_name":"生活娱乐","address":"黄浦区花园港路"},{"poiid":"B2094757D16DAAF4429E","title":"仙炙轩 世博店 Ambrosia","lon":"121.504652","lat":"31.200724","category":"247","category_name":"餐饮美食","address":"浦东新区世博大道555号4楼(雪野路口)"},{"poiid":"B2094750DB69A3FD4993","title":"镭战大联盟","lon":"121.501408","lat":"31.204725","category":"248","category_name":"生活娱乐","address":"黄浦区外马路1353号(近南浦大桥)"},{"poiid":"B2094757D16CABF9469B","title":"黄浦江江面","lon":"121.493064","lat":"31.197621","category":"247","category_name":"餐饮美食","address":"上海黄浦江江面"},{"poiid":"B2094757D068ABFE4999","title":"上海世博东湖公寓酒店","lon":"121.505364591","lat":"31.1967514842","category":"217","category_name":"旅馆招待所","address":"浦东新区雪野路999号"},{"poiid":"B2094750DA64ABFE469E","title":"上海当代艺术博物馆","lon":"121.499153","lat":"31.200927","category":"500","category_name":"未知分类","address":null},{"poiid":"B2094757D16AABFA409E","title":"地铁6号线世纪大道站","lon":"121.495764738","lat":"31.2038677385","category":"500","category_name":"未知分类","address":"上海"},{"poiid":"B2094750DB6BA0FA469A","title":"上海当代艺术博物馆","lon":"121.498847","lat":"31.199577","category":"500","category_name":"未知分类","address":"黄浦区花园港路200号上海当代艺术博物馆1楼(近苗江路)"},{"poiid":"B2094753D665AAF84998","title":"上海儿童艺术剧场","lon":"121.494537","lat":"31.19647","category":"500","category_name":"未知分类","address":"上海市 苗江路800号"},{"poiid":"B2094750DB65A2F4499F","title":"上海当代艺术馆","lon":"121.49842","lat":"31.200689","category":"500","category_name":"未知分类","address":null},{"poiid":"B2094655D26CA3FE469C","title":"上外黄浦外国语小学","lon":"121.49461","lat":"31.20074","category":"56","category_name":"小学","address":"黄浦区半淞园路621号(半淞园路望达路)"},{"poiid":"B2094757D065A5F9499F","title":"Lavazza红磡意大利餐厅","lon":"121.50086773","lat":"31.194968549","category":"500","category_name":"未知分类","address":"浦东新区世博大道690号(近白莲泾公园)"},{"poiid":"B2094757D06AA6F54493","title":"世博村","lon":"121.50436693","lat":"31.197464102","category":"47","category_name":"住宅区","address":"上海浦东新区雪野路(近沂南路)"},{"poiid":"B2094757D06BA3F5499A","title":"世博会L1码头","lon":"121.50177002","lat":"31.195886611","category":"500","category_name":"未知分类","address":"上海世博会L1码头"},{"poiid":"B2094757D064A0F8459B","title":"一一八八 Cafe 1188","lon":"121.505704","lat":"31.2001","category":"247","category_name":"餐饮美食","address":"雪野路1188号世博洲际酒店1楼内近南码头路"},{"poiid":"B209475CD768A0FF4499","title":"pulupulu主题游戏馆","lon":"121.504699","lat":"31.203042","category":"500","category_name":"未知分类","address":"上海市 苗江路139号"},{"poiid":"B2094655D36DA7F8479E","title":"中山南路南车站路","lon":"121.49381","lat":"31.20426","category":"38","category_name":"公交车站","address":""},{"poiid":"B2094654DA68A0FC479B","title":"金中苑商务楼","lon":"121.49163","lat":"31.20221","category":"46","category_name":"楼宇","address":"黄浦区南京东路311号"},{"poiid":"B209475DD769A6FA419C","title":"星巴克南车站路店","lon":"121.498313","lat":"31.200071","category":"247","category_name":"餐饮美食","address":"南车站路564号"},{"poiid":"B2094655D265AAFB429E","title":"俏江南","lon":"121.49559","lat":"31.19734","category":"71","category_name":"四川菜","address":"上海世博园区"},{"poiid":"B209475DD66AA7FE429C","title":"Pulupulu主题游戏馆","lon":"121.500289","lat":"31.205091","category":"248","category_name":"生活娱乐","address":"上海市 黄浦区苗江路139号"},{"poiid":"B2094757D06BA1F44992","title":"黄浦区体检站","lon":"121.494562","lat":"31.204399","category":"162","category_name":"医院","address":"黄浦区南车站路501号(近中山南路)"},{"poiid":"B2094654DA68A0FC489B","title":"白玉兰家园","lon":"121.49213","lat":"31.200241","category":"47","category_name":"住宅区","address":"白玉兰家园位于黄浦西藏南路1717号(近高雄路口)"},{"poiid":"B2094752D768A3FA4299","title":"梅赛德斯奔驰文化中心","lon":"121.499401","lat":"31.194805","category":"500","category_name":"未知分类","address":null},{"poiid":"B2094757D76DA0F4439B","title":"巴赛丽意大利餐厅 Basilico","lon":"121.505704","lat":"31.20014","category":"94","category_name":"西餐厅","address":"浦东新区雪野路1188号世博洲际酒店内(近世博大道)"},{"poiid":"B2094757D068A6FA4499","title":"世博会中国船舶馆","lon":"121.49313","lat":"31.19636","category":"260","category_name":"其他","address":"上海世博会E片区"},{"poiid":"B209475DD76AA1FE4599","title":"星巴克 南车站路店","lon":"121.494293","lat":"31.20285","category":"247","category_name":"餐饮美食","address":"上海市 南车站路"},{"poiid":"B2094655D265A2F84598","title":"案例联合馆4","lon":"121.49638","lat":"31.20211","category":"183","category_name":"展览馆","address":"上海世博园区"},{"poiid":"B2094654DB6AA6FF419F","title":"南码头渡口","lon":"121.50591","lat":"31.20227","category":"34","category_name":"港口码头","address":""},{"poiid":"B209475CD66DA0FA469B","title":"上海老码头","lon":"121.497016","lat":"31.196842","category":"500","category_name":"未知分类","address":"上海市 中山南路"},{"poiid":"B2094757D169A6F9429E","title":"Masala Art(雪野路店)","lon":"121.50549158","lat":"31.195461483","category":"102","category_name":"印度风味","address":"浦东新区世博村雪野路1057号101b(近世博大道)"},{"poiid":"B2094757DB69A1FA489E","title":"白莲泾公园","lon":"121.495446","lat":"31.196305","category":"250","category_name":"公园户外","address":"世博大道白莲泾路"},{"poiid":"B2094757D66FA1F4449C","title":"广州市环市西路小学","lon":"121.496322632","lat":"31.2007198334","category":"56","category_name":"小学","address":"广州市荔湾区环市西路46号"},{"poiid":"B2094655D36CA0F9469F","title":"江边码头","lon":"121.49444","lat":"31.20002","category":"38","category_name":"公交车站","address":""},{"poiid":"B2094757D065A3F9419E","title":"南园大厦","lon":"121.494","lat":"31.2022","category":"252","category_name":"楼宇机构","address":"上海市卢湾区龙华东路888号"},{"poiid":"B2094750D16BA1FD409D","title":"虹口足球场","lon":"121.5032644966952","lat":"31.20336783101407","category":"220","category_name":"运动场所","address":null},{"poiid":"B2094655D26BA1F8439F","title":"南车站路","lon":"121.49553","lat":"31.20316","category":"38","category_name":"公交车站","address":"上海华教大厦"},{"poiid":"B2094751D26CA1F84692","title":"上海当代艺术博物馆","lon":"121.498542","lat":"31.200687","category":"500","category_name":"未知分类","address":"西藏南路世博园区"},{"poiid":"B2094655D26BA0FD479D","title":"世博洲际酒店","lon":"121.50538","lat":"31.19933","category":"213","category_name":"五星级宾馆","address":"浦东新区雪野路1188号(近南码头路)"},{"poiid":"B2094757D06FA0F8439A","title":"宝莱纳餐厅(世博店)","lon":"121.504113332","lat":"31.1982851473","category":"260","category_name":"其他","address":"浦东新区世博大道555号1-2楼(近雪野路)"},{"poiid":"B2094750D365ABFA4392","title":"梅赛得斯-奔驰文化中心","lon":"121.493125","lat":"31.189492","category":"500","category_name":"未知分类","address":"世博大道1200号"},{"poiid":"B2094757D068A6F5439B","title":"世博会城市未来馆","lon":"121.49785","lat":"31.20127","category":"500","category_name":"未知分类","address":"上海世博会E片区"},{"poiid":"B2094757D06FA1F94793","title":"南码头轮渡","lon":"121.50582772","lat":"31.202802396","category":"260","category_name":"其他","address":"上海浦东新区南码头路1号摆渡口"},{"poiid":"B2094757D06FA5F9429C","title":"多利萝玛(Tony Roma's)","lon":"121.5040196","lat":"31.196038751","category":"94","category_name":"西餐厅","address":"浦东新区世博村B地块雪野路1057号B9-101C室(近沂南路)"},{"poiid":"B2094757D66CA4FE479B","title":"滨江大道-世博段","lon":"121.502270053","lat":"31.1976926018","category":"500","category_name":"未知分类","address":"上海世博大道沿江段"},{"poiid":"B2094654DA68A0FC489F","title":"耀江花园","lon":"121.49187","lat":"31.199152","category":"47","category_name":"住宅区","address":"上海西藏南路1739弄"},{"poiid":"B2094757D065A0FD4493","title":"Bubba's Texas-style BBQ(世博村店)","lon":"121.504977","lat":"31.196236","category":"94","category_name":"西餐厅","address":"浦东新区雪野路240号(近沂南路)"},{"poiid":"B2094757D56CA7F9479D","title":"博古斯学院法国餐厅","lon":"121.49647","lat":"31.20092","category":"247","category_name":"餐饮美食","address":"黄浦区保屯路379号世博会园区法国罗阿大区展馆内(近中山南路)"},{"poiid":"B2094757D06FA4FB409F","title":"世博园二号门","lon":"121.49101012","lat":"31.200848717","category":"260","category_name":"其他","address":"上海世博园二号门西藏南路出入口"},{"poiid":"B2094757D068A3FB4892","title":"云餐厅(世博店)","lon":"121.49891375","lat":"31.200957366","category":"260","category_name":"其他","address":"黄浦区南车站路世博园城市未来馆7-8楼(近半淞园路9月份营业)"},{"poiid":"B2094750DB6CA6FA409A","title":"上海当代艺术博物馆","lon":"121.498191","lat":"31.200557","category":"248","category_name":"生活娱乐","address":"黄浦区花园港路"},{"poiid":"B2094757D16DAAF4429E","title":"仙炙轩 世博店 Ambrosia","lon":"121.504652","lat":"31.200724","category":"247","category_name":"餐饮美食","address":"浦东新区世博大道555号4楼(雪野路口)"},{"poiid":"B2094750DB69A3FD4993","title":"镭战大联盟","lon":"121.501408","lat":"31.204725","category":"248","category_name":"生活娱乐","address":"黄浦区外马路1353号(近南浦大桥)"},{"poiid":"B2094757D16CABF9469B","title":"黄浦江江面","lon":"121.493064","lat":"31.197621","category":"247","category_name":"餐饮美食","address":"上海黄浦江江面"},{"poiid":"B2094757D068ABFE4999","title":"上海世博东湖公寓酒店","lon":"121.505364591","lat":"31.1967514842","category":"217","category_name":"旅馆招待所","address":"浦东新区雪野路999号"},{"poiid":"B2094750DA64ABFE469E","title":"上海当代艺术博物馆","lon":"121.499153","lat":"31.200927","category":"500","category_name":"未知分类","address":null},{"poiid":"B2094757D16AABFA409E","title":"地铁6号线世纪大道站","lon":"121.495764738","lat":"31.2038677385","category":"500","category_name":"未知分类","address":"上海"},{"poiid":"B2094750DB6BA0FA469A","title":"上海当代艺术博物馆","lon":"121.498847","lat":"31.199577","category":"500","category_name":"未知分类","address":"黄浦区花园港路200号上海当代艺术博物馆1楼(近苗江路)"},{"poiid":"B2094753D665AAF84998","title":"上海儿童艺术剧场","lon":"121.494537","lat":"31.19647","category":"500","category_name":"未知分类","address":"上海市 苗江路800号"},{"poiid":"B2094750DB65A2F4499F","title":"上海当代艺术馆","lon":"121.49842","lat":"31.200689","category":"500","category_name":"未知分类","address":null},{"poiid":"B2094655D26CA3FE469C","title":"上外黄浦外国语小学","lon":"121.49461","lat":"31.20074","category":"56","category_name":"小学","address":"黄浦区半淞园路621号(半淞园路望达路)"},{"poiid":"B2094757D065A5F9499F","title":"Lavazza红磡意大利餐厅","lon":"121.50086773","lat":"31.194968549","category":"500","category_name":"未知分类","address":"浦东新区世博大道690号(近白莲泾公园)"},{"poiid":"B2094757D06AA6F54493","title":"世博村","lon":"121.50436693","lat":"31.197464102","category":"47","category_name":"住宅区","address":"上海浦东新区雪野路(近沂南路)"},{"poiid":"B2094757D06BA3F5499A","title":"世博会L1码头","lon":"121.50177002","lat":"31.195886611","category":"500","category_name":"未知分类","address":"上海世博会L1码头"},{"poiid":"B2094757D064A0F8459B","title":"一一八八 Cafe 1188","lon":"121.505704","lat":"31.2001","category":"247","category_name":"餐饮美食","address":"雪野路1188号世博洲际酒店1楼内近南码头路"},{"poiid":"B209475CD768A0FF4499","title":"pulupulu主题游戏馆","lon":"121.504699","lat":"31.203042","category":"500","category_name":"未知分类","address":"上海市 苗江路139号"},{"poiid":"B2094655D36DA7F8479E","title":"中山南路南车站路","lon":"121.49381","lat":"31.20426","category":"38","category_name":"公交车站","address":""},{"poiid":"B2094654DA68A0FC479B","title":"金中苑商务楼","lon":"121.49163","lat":"31.20221","category":"46","category_name":"楼宇","address":"黄浦区南京东路311号"},{"poiid":"B209475DD769A6FA419C","title":"星巴克南车站路店","lon":"121.498313","lat":"31.200071","category":"247","category_name":"餐饮美食","address":"南车站路564号"},{"poiid":"B2094655D265AAFB429E","title":"俏江南","lon":"121.49559","lat":"31.19734","category":"71","category_name":"四川菜","address":"上海世博园区"},{"poiid":"B209475DD66AA7FE429C","title":"Pulupulu主题游戏馆","lon":"121.500289","lat":"31.205091","category":"248","category_name":"生活娱乐","address":"上海市 黄浦区苗江路139号"},{"poiid":"B2094757D06BA1F44992","title":"黄浦区体检站","lon":"121.494562","lat":"31.204399","category":"162","category_name":"医院","address":"黄浦区南车站路501号(近中山南路)"},{"poiid":"B2094654DA68A0FC489B","title":"白玉兰家园","lon":"121.49213","lat":"31.200241","category":"47","category_name":"住宅区","address":"白玉兰家园位于黄浦西藏南路1717号(近高雄路口)"},{"poiid":"B2094752D768A3FA4299","title":"梅赛德斯奔驰文化中心","lon":"121.499401","lat":"31.194805","category":"500","category_name":"未知分类","address":null},{"poiid":"B2094757D76DA0F4439B","title":"巴赛丽意大利餐厅 Basilico","lon":"121.505704","lat":"31.20014","category":"94","category_name":"西餐厅","address":"浦东新区雪野路1188号世博洲际酒店内(近世博大道)"},{"poiid":"B2094757D068A6FA4499","title":"世博会中国船舶馆","lon":"121.49313","lat":"31.19636","category":"260","category_name":"其他","address":"上海世博会E片区"},{"poiid":"B209475DD76AA1FE4599","title":"星巴克 南车站路店","lon":"121.494293","lat":"31.20285","category":"247","category_name":"餐饮美食","address":"上海市 南车站路"},{"poiid":"B2094655D265A2F84598","title":"案例联合馆4","lon":"121.49638","lat":"31.20211","category":"183","category_name":"展览馆","address":"上海世博园区"},{"poiid":"B2094654DB6AA6FF419F","title":"南码头渡口","lon":"121.50591","lat":"31.20227","category":"34","category_name":"港口码头","address":""},{"poiid":"B209475CD66DA0FA469B","title":"上海老码头","lon":"121.497016","lat":"31.196842","category":"500","category_name":"未知分类","address":"上海市 中山南路"},{"poiid":"B2094757D169A6F9429E","title":"Masala Art(雪野路店)","lon":"121.50549158","lat":"31.195461483","category":"102","category_name":"印度风味","address":"浦东新区世博村雪野路1057号101b(近世博大道)"},{"poiid":"B2094757DB69A1FA489E","title":"白莲泾公园","lon":"121.495446","lat":"31.196305","category":"250","category_name":"公园户外","address":"世博大道白莲泾路"},{"poiid":"B2094757D66FA1F4449C","title":"广州市环市西路小学","lon":"121.496322632","lat":"31.2007198334","category":"56","category_name":"小学","address":"广州市荔湾区环市西路46号"},{"poiid":"B2094655D36CA0F9469F","title":"江边码头","lon":"121.49444","lat":"31.20002","category":"38","category_name":"公交车站","address":""},{"poiid":"B2094757D065A3F9419E","title":"南园大厦","lon":"121.494","lat":"31.2022","category":"252","category_name":"楼宇机构","address":"上海市卢湾区龙华东路888号"},{"poiid":"B2094750D16BA1FD409D","title":"虹口足球场","lon":"121.5032644966952","lat":"31.20336783101407","category":"220","category_name":"运动场所","address":null},{"poiid":"B2094655D26BA1F8439F","title":"南车站路","lon":"121.49553","lat":"31.20316","category":"38","category_name":"公交车站","address":"上海华教大厦"}]