[{"poiid":"B2094655D268A3FF4498","title":"世博园区中国馆","lon":"121.49475","lat":"31.18453","category":"183","category_name":"展览馆","address":""},{"poiid":"B2094655D36DA6FF489D","title":"上海梅赛德斯-奔驰文化中心（上海世博文化中心）","lon":"121.49779","lat":"31.1796","category":"248","category_name":"生活娱乐","address":"上海市浦东新区世博大道1200号 （毗邻中国馆与世博轴，西沿上南路，东临高科西路 ）"},{"poiid":"B2094750D365A4F5489C","title":"中华艺术宫","lon":"121.494338","lat":"31.183723","category":"248","category_name":"生活娱乐","address":"国展路云台路口（原中国国家馆）"},{"poiid":"B2094757D06EAAF9409C","title":"世博会中国国家馆","lon":"121.494923671","lat":"31.184639805","category":"260","category_name":"其他","address":"上海浦东新区国展路云台路口(原上海世博会A片区)"},{"poiid":"B2094757D06EAAF44099","title":"云台路地铁站","lon":"121.50042159","lat":"31.182326472","category":"36","category_name":"地铁站","address":"上海轨道交通 七号线 轨交云台路站 7"},{"poiid":"B2094757D06BA0F94599","title":"7号线耀华路","lon":"121.499637738","lat":"31.1832632999","category":"500","category_name":"未知分类","address":"上海地铁七号线"},{"poiid":"B2094757D16DA5FA4398","title":"浦东新区社保中心","lon":"121.500264738","lat":"31.1834623041","category":"500","category_name":"未知分类","address":"上海市浦东新区浦东南路云台路"},{"poiid":"B2094757D06BA5FA439C","title":"高科西路","lon":"121.50241873","lat":"31.183264299","category":"260","category_name":"其他","address":"上海高科西路"},{"poiid":"B2094654DA68A6FA4993","title":"浦东长途汽车客运总站","lon":"121.50264","lat":"31.18449","category":"35","category_name":"长途汽车站","address":"浦东新区浦东南路3843号(近莲南路)"},{"poiid":"B2094757D068A3F94492","title":"世博会阿联酋馆","lon":"121.49784","lat":"31.18622","category":"260","category_name":"其他","address":"上海浦东新区国展路近云台路(原上海世博会A片区)"},{"poiid":"B2094757D06FABF4499F","title":"上南花苑","lon":"121.50368","lat":"31.180952","category":"47","category_name":"住宅区","address":"上海浦东新区齐河路257-259弄"},{"poiid":"B2094757D068A7FF4098","title":"一阳轩(高科西路店)","lon":"121.50404073","lat":"31.184218214","category":"72","category_name":"广东菜","address":"浦东新区世博园区高科西路551号6楼(近云莲路)"},{"poiid":"B2094454D26EABF9479C","title":"炉鱼","lon":"121.497749","lat":"31.178005","category":"247","category_name":"餐饮美食","address":"上海市 世博源"},{"poiid":"B2094757D068ABFD4493","title":"肯德基 KFC (浦东南路店)","lon":"121.502871552","lat":"31.1837174917","category":"68","category_name":"快餐厅","address":"浦东新区浦东南路3843号(高科西路口)"},{"poiid":"B2094757D068A1FC429A","title":"上南五村","lon":"121.49947","lat":"31.178671","category":"47","category_name":"住宅区","address":"上海浦东南路洪山路"},{"poiid":"B2094757D065A5FD4698","title":"上海协和双语学校(浦东校区) Shanghai United Bilingual School Pudong Campus","lon":"121.49784038","lat":"31.18314481","category":"55","category_name":"中学","address":"浦东新区雪野路48号(近云台路)"},{"poiid":"B2094757D068A5FD409B","title":"雪野二村","lon":"121.49775","lat":"31.182205","category":"47","category_name":"住宅区","address":"上海浦东新区浦东南路4800弄(雪野路34弄)"},{"poiid":"B2094757D16EA2FB439E","title":"浦东南路云台路路口","lon":"121.50020073","lat":"31.181478261","category":"500","category_name":"未知分类","address":"上海市浦东新区浦东南路"},{"poiid":"B2094757D068A5FE409B","title":"京世造型(齐河路店)","lon":"121.50303073","lat":"31.179385217","category":"148","category_name":"美容美发店","address":"上海浦东新区齐河路258号沃尔玛超市1楼(近云台路)"},{"poiid":"B2094751DA69A0F44198","title":"第一八佰伴","lon":"121.4987051559967","lat":"31.18380815258452","category":"247","category_name":"餐饮美食","address":"上海浦东张扬路501号第一八佰伴9楼"},{"poiid":"B2094654DA68A6FA429A","title":"雪野家园","lon":"121.49998","lat":"31.18418","category":"47","category_name":"住宅区","address":"上海浦东新区浦东南路4200-4250弄(近云台路)"},{"poiid":"B2094757D069A7F9429B","title":"世博大道","lon":"121.49357258","lat":"31.183651909","category":"260","category_name":"其他","address":"上海世博园"},{"poiid":"B2094654DB69A4F4409A","title":"重庆鸡公煲 云台路店","lon":"121.500251054","lat":"31.181813793","category":"71","category_name":"四川菜","address":"浦东新区云台路118号临(近浦东南路)"},{"poiid":"B2094655D26EA5FC4198","title":"星巴克(中融店)","lon":"121.5019","lat":"31.18414","category":"65","category_name":"咖啡厅","address":"浦东新区浦东南路1068号中融国际商城1楼"},{"poiid":"B2094757D465A7FC419F","title":"六角亭饭店","lon":"121.498037","lat":"31.179202","category":"76","category_name":"上海菜","address":"浦东新区浦东南路4959号(近洪山路)"},{"poiid":"B2094750DB6BA4FB4192","title":"大山猫原生态餐厅","lon":"121.499717","lat":"31.182865","category":"87","category_name":"特色／地方风味餐厅","address":"浦东新区浏河路19号(近云台路)"},{"poiid":"B2094751D565A2FE4493","title":"新石器烤肉NEOLITHIC  BARBECUE","lon":"121.497584","lat":"31.18285","category":"247","category_name":"餐饮美食","address":"上海浦东新区齐河路258号"},{"poiid":"B2094757D16FAAFE419D","title":"清明上河图","lon":"121.49883549","lat":"31.182473539","category":"500","category_name":"未知分类","address":"上海世博会中国馆"},{"poiid":"B2094757D468A4F84498","title":"来亿锅羊蝎子火锅 洪山路店","lon":"121.497333","lat":"31.180673","category":"86","category_name":"火锅店","address":"浦东新区洪山路91号(近浦东南路)"},{"poiid":"B2094655D26AA0F94693","title":"地铁云台路站","lon":"121.50043","lat":"31.18236","category":"36","category_name":"地铁站","address":""},{"poiid":"B2094655D268A3FF4499","title":"中国2010年上海世界博览会AB片区外国自建馆办公区","lon":"121.49754","lat":"31.18379","category":"46","category_name":"楼宇","address":""},{"poiid":"B2094757D16EA5FD439B","title":"上南一村","lon":"121.4976","lat":"31.178314","category":"252","category_name":"楼宇机构","address":"上海市浦东新上南一村"},{"poiid":"B2094757D06BA5F94799","title":"顾惠面馆","lon":"121.50215","lat":"31.18312","category":"68","category_name":"快餐厅","address":"浦东新区浦东南路3903号(近云台路)"},{"poiid":"B2094750DA6FAAF5489D","title":"中国馆","lon":"121.499389","lat":"31.180908","category":"247","category_name":"餐饮美食","address":null},{"poiid":"B2094655D265A0FD499B","title":"上海歌城中融店","lon":"121.5019","lat":"31.18414","category":"170","category_name":"KTV","address":"浦东南路1078号中融国际商场7层"},{"poiid":"B2094655D26EA3FC469A","title":"云台小区","lon":"121.49923","lat":"31.18224","category":"47","category_name":"住宅区","address":"云台路98"},{"poiid":"B2094655D36DA6FF4199","title":"云台路","lon":"121.50043","lat":"31.18236","category":"38","category_name":"公交车站","address":""},{"poiid":"B2094655D265A1F5479A","title":"小尾羊(浦东南路店)","lon":"121.50168","lat":"31.18385","category":"86","category_name":"火锅店","address":"浦东南路2100号(塘桥路口)"},{"poiid":"B2094757D068A3FE429F","title":"7-ELEVEN(雪野家园店)","lon":"121.500969045","lat":"31.1833401229","category":"117","category_name":"便民商店/便利店","address":"浦东新区浦东南路4190号(近云台路地铁站)"},{"poiid":"B2094757D068A3F4409A","title":"西藏南路隧道","lon":"121.50355886","lat":"31.184528366","category":"260","category_name":"其他","address":"上海西藏南路隧道"},{"poiid":"B2094757D168A1F9499B","title":"上海世博会浦东新区高科西路洪山路入口","lon":"121.4989798","lat":"31.181047018","category":"500","category_name":"未知分类","address":"上海高科西路"},{"poiid":"B2094753D469A1FD4393","title":"浦東機場2號航站樓","lon":"121.500297","lat":"31.183256","category":"500","category_name":"未知分类","address":"上海市 浦東機場"},{"poiid":"B2094757D064A4FB449D","title":"COCO奶茶","lon":"121.50050263","lat":"31.182935292","category":"247","category_name":"餐饮美食","address":"上海卜蜂莲花店"},{"poiid":"B2094655D265A1FE469C","title":"钱柜(浦东旗舰店)","lon":"121.50189","lat":"31.18413","category":"170","category_name":"KTV","address":"浦东南路1118号上海湾国际大厦B1层"},{"poiid":"B2094757D169A0F9419F","title":"吉乐小龙虾","lon":"121.50054573","lat":"31.181530263","category":"247","category_name":"餐饮美食","address":"上海市黄浦区人民路寿宁路口"},{"poiid":"B2094654DB64AAF5429C","title":"光明便利No.611","lon":"121.50044","lat":"31.18164","category":"117","category_name":"便民商店/便利店","address":"浦东南路4385"},{"poiid":"B2094757D06AA1FD409D","title":"浦东新区劳动就业促进中心","lon":"121.501239","lat":"31.182419","category":"500","category_name":"未知分类","address":"上海浦东南路3995号"},{"poiid":"B2094752D669A5F54993","title":"梅赛德斯奔驰文化中心","lon":"121.499021","lat":"31.186684","category":"500","category_name":"未知分类","address":null},{"poiid":"B2094655D26DA7F8439C","title":"雪野家园(南门)","lon":"121.50086","lat":"31.18306","category":"47","category_name":"住宅区","address":"浦东南路4200弄"},{"poiid":"B2094655D26BA2F5449D","title":"浦东南路洪山路","lon":"121.49867","lat":"31.1802","category":"38","category_name":"公交车站","address":"上海市浦东新区"},{"poiid":"B2094655D268A3FF4498","title":"世博园区中国馆","lon":"121.49475","lat":"31.18453","category":"183","category_name":"展览馆","address":""},{"poiid":"B2094655D36DA6FF489D","title":"上海梅赛德斯-奔驰文化中心（上海世博文化中心）","lon":"121.49779","lat":"31.1796","category":"248","category_name":"生活娱乐","address":"上海市浦东新区世博大道1200号 （毗邻中国馆与世博轴，西沿上南路，东临高科西路 ）"},{"poiid":"B2094750D365A4F5489C","title":"中华艺术宫","lon":"121.494338","lat":"31.183723","category":"248","category_name":"生活娱乐","address":"国展路云台路口（原中国国家馆）"},{"poiid":"B2094757D06EAAF9409C","title":"世博会中国国家馆","lon":"121.494923671","lat":"31.184639805","category":"260","category_name":"其他","address":"上海浦东新区国展路云台路口(原上海世博会A片区)"},{"poiid":"B2094757D06EAAF44099","title":"云台路地铁站","lon":"121.50042159","lat":"31.182326472","category":"36","category_name":"地铁站","address":"上海轨道交通 七号线 轨交云台路站 7"},{"poiid":"B2094757D06BA0F94599","title":"7号线耀华路","lon":"121.499637738","lat":"31.1832632999","category":"500","category_name":"未知分类","address":"上海地铁七号线"},{"poiid":"B2094757D16DA5FA4398","title":"浦东新区社保中心","lon":"121.500264738","lat":"31.1834623041","category":"500","category_name":"未知分类","address":"上海市浦东新区浦东南路云台路"},{"poiid":"B2094757D06BA5FA439C","title":"高科西路","lon":"121.50241873","lat":"31.183264299","category":"260","category_name":"其他","address":"上海高科西路"},{"poiid":"B2094654DA68A6FA4993","title":"浦东长途汽车客运总站","lon":"121.50264","lat":"31.18449","category":"35","category_name":"长途汽车站","address":"浦东新区浦东南路3843号(近莲南路)"},{"poiid":"B2094757D068A3F94492","title":"世博会阿联酋馆","lon":"121.49784","lat":"31.18622","category":"260","category_name":"其他","address":"上海浦东新区国展路近云台路(原上海世博会A片区)"},{"poiid":"B2094757D06FABF4499F","title":"上南花苑","lon":"121.50368","lat":"31.180952","category":"47","category_name":"住宅区","address":"上海浦东新区齐河路257-259弄"},{"poiid":"B2094757D068A7FF4098","title":"一阳轩(高科西路店)","lon":"121.50404073","lat":"31.184218214","category":"72","category_name":"广东菜","address":"浦东新区世博园区高科西路551号6楼(近云莲路)"},{"poiid":"B2094454D26EABF9479C","title":"炉鱼","lon":"121.497749","lat":"31.178005","category":"247","category_name":"餐饮美食","address":"上海市 世博源"},{"poiid":"B2094757D068ABFD4493","title":"肯德基 KFC (浦东南路店)","lon":"121.502871552","lat":"31.1837174917","category":"68","category_name":"快餐厅","address":"浦东新区浦东南路3843号(高科西路口)"},{"poiid":"B2094757D068A1FC429A","title":"上南五村","lon":"121.49947","lat":"31.178671","category":"47","category_name":"住宅区","address":"上海浦东南路洪山路"},{"poiid":"B2094757D065A5FD4698","title":"上海协和双语学校(浦东校区) Shanghai United Bilingual School Pudong Campus","lon":"121.49784038","lat":"31.18314481","category":"55","category_name":"中学","address":"浦东新区雪野路48号(近云台路)"},{"poiid":"B2094757D068A5FD409B","title":"雪野二村","lon":"121.49775","lat":"31.182205","category":"47","category_name":"住宅区","address":"上海浦东新区浦东南路4800弄(雪野路34弄)"},{"poiid":"B2094757D16EA2FB439E","title":"浦东南路云台路路口","lon":"121.50020073","lat":"31.181478261","category":"500","category_name":"未知分类","address":"上海市浦东新区浦东南路"},{"poiid":"B2094757D068A5FE409B","title":"京世造型(齐河路店)","lon":"121.50303073","lat":"31.179385217","category":"148","category_name":"美容美发店","address":"上海浦东新区齐河路258号沃尔玛超市1楼(近云台路)"},{"poiid":"B2094751DA69A0F44198","title":"第一八佰伴","lon":"121.4987051559967","lat":"31.18380815258452","category":"247","category_name":"餐饮美食","address":"上海浦东张扬路501号第一八佰伴9楼"},{"poiid":"B2094654DA68A6FA429A","title":"雪野家园","lon":"121.49998","lat":"31.18418","category":"47","category_name":"住宅区","address":"上海浦东新区浦东南路4200-4250弄(近云台路)"},{"poiid":"B2094757D069A7F9429B","title":"世博大道","lon":"121.49357258","lat":"31.183651909","category":"260","category_name":"其他","address":"上海世博园"},{"poiid":"B2094654DB69A4F4409A","title":"重庆鸡公煲 云台路店","lon":"121.500251054","lat":"31.181813793","category":"71","category_name":"四川菜","address":"浦东新区云台路118号临(近浦东南路)"},{"poiid":"B2094655D26EA5FC4198","title":"星巴克(中融店)","lon":"121.5019","lat":"31.18414","category":"65","category_name":"咖啡厅","address":"浦东新区浦东南路1068号中融国际商城1楼"},{"poiid":"B2094757D465A7FC419F","title":"六角亭饭店","lon":"121.498037","lat":"31.179202","category":"76","category_name":"上海菜","address":"浦东新区浦东南路4959号(近洪山路)"},{"poiid":"B2094750DB6BA4FB4192","title":"大山猫原生态餐厅","lon":"121.499717","lat":"31.182865","category":"87","category_name":"特色／地方风味餐厅","address":"浦东新区浏河路19号(近云台路)"},{"poiid":"B2094751D565A2FE4493","title":"新石器烤肉NEOLITHIC  BARBECUE","lon":"121.497584","lat":"31.18285","category":"247","category_name":"餐饮美食","address":"上海浦东新区齐河路258号"},{"poiid":"B2094757D16FAAFE419D","title":"清明上河图","lon":"121.49883549","lat":"31.182473539","category":"500","category_name":"未知分类","address":"上海世博会中国馆"},{"poiid":"B2094757D468A4F84498","title":"来亿锅羊蝎子火锅 洪山路店","lon":"121.497333","lat":"31.180673","category":"86","category_name":"火锅店","address":"浦东新区洪山路91号(近浦东南路)"},{"poiid":"B2094655D26AA0F94693","title":"地铁云台路站","lon":"121.50043","lat":"31.18236","category":"36","category_name":"地铁站","address":""},{"poiid":"B2094655D268A3FF4499","title":"中国2010年上海世界博览会AB片区外国自建馆办公区","lon":"121.49754","lat":"31.18379","category":"46","category_name":"楼宇","address":""},{"poiid":"B2094757D16EA5FD439B","title":"上南一村","lon":"121.4976","lat":"31.178314","category":"252","category_name":"楼宇机构","address":"上海市浦东新上南一村"},{"poiid":"B2094757D06BA5F94799","title":"顾惠面馆","lon":"121.50215","lat":"31.18312","category":"68","category_name":"快餐厅","address":"浦东新区浦东南路3903号(近云台路)"},{"poiid":"B2094750DA6FAAF5489D","title":"中国馆","lon":"121.499389","lat":"31.180908","category":"247","category_name":"餐饮美食","address":null},{"poiid":"B2094655D265A0FD499B","title":"上海歌城中融店","lon":"121.5019","lat":"31.18414","category":"170","category_name":"KTV","address":"浦东南路1078号中融国际商场7层"},{"poiid":"B2094655D26EA3FC469A","title":"云台小区","lon":"121.49923","lat":"31.18224","category":"47","category_name":"住宅区","address":"云台路98"},{"poiid":"B2094655D36DA6FF4199","title":"云台路","lon":"121.50043","lat":"31.18236","category":"38","category_name":"公交车站","address":""},{"poiid":"B2094655D265A1F5479A","title":"小尾羊(浦东南路店)","lon":"121.50168","lat":"31.18385","category":"86","category_name":"火锅店","address":"浦东南路2100号(塘桥路口)"},{"poiid":"B2094757D068A3FE429F","title":"7-ELEVEN(雪野家园店)","lon":"121.500969045","lat":"31.1833401229","category":"117","category_name":"便民商店/便利店","address":"浦东新区浦东南路4190号(近云台路地铁站)"},{"poiid":"B2094757D068A3F4409A","title":"西藏南路隧道","lon":"121.50355886","lat":"31.184528366","category":"260","category_name":"其他","address":"上海西藏南路隧道"},{"poiid":"B2094757D168A1F9499B","title":"上海世博会浦东新区高科西路洪山路入口","lon":"121.4989798","lat":"31.181047018","category":"500","category_name":"未知分类","address":"上海高科西路"},{"poiid":"B2094753D469A1FD4393","title":"浦東機場2號航站樓","lon":"121.500297","lat":"31.183256","category":"500","category_name":"未知分类","address":"上海市 浦東機場"},{"poiid":"B2094757D064A4FB449D","title":"COCO奶茶","lon":"121.50050263","lat":"31.182935292","category":"247","category_name":"餐饮美食","address":"上海卜蜂莲花店"},{"poiid":"B2094655D265A1FE469C","title":"钱柜(浦东旗舰店)","lon":"121.50189","lat":"31.18413","category":"170","category_name":"KTV","address":"浦东南路1118号上海湾国际大厦B1层"},{"poiid":"B2094757D169A0F9419F","title":"吉乐小龙虾","lon":"121.50054573","lat":"31.181530263","category":"247","category_name":"餐饮美食","address":"上海市黄浦区人民路寿宁路口"},{"poiid":"B2094654DB64AAF5429C","title":"光明便利No.611","lon":"121.50044","lat":"31.18164","category":"117","category_name":"便民商店/便利店","address":"浦东南路4385"},{"poiid":"B2094757D06AA1FD409D","title":"浦东新区劳动就业促进中心","lon":"121.501239","lat":"31.182419","category":"500","category_name":"未知分类","address":"上海浦东南路3995号"},{"poiid":"B2094752D669A5F54993","title":"梅赛德斯奔驰文化中心","lon":"121.499021","lat":"31.186684","category":"500","category_name":"未知分类","address":null},{"poiid":"B2094655D26DA7F8439C","title":"雪野家园(南门)","lon":"121.50086","lat":"31.18306","category":"47","category_name":"住宅区","address":"浦东南路4200弄"},{"poiid":"B2094655D26BA2F5449D","title":"浦东南路洪山路","lon":"121.49867","lat":"31.1802","category":"38","category_name":"公交车站","address":"上海市浦东新区"},{"poiid":"B2094655D268A3FF4498","title":"世博园区中国馆","lon":"121.49475","lat":"31.18453","category":"183","category_name":"展览馆","address":""},{"poiid":"B2094655D36DA6FF489D","title":"上海梅赛德斯-奔驰文化中心（上海世博文化中心）","lon":"121.49779","lat":"31.1796","category":"248","category_name":"生活娱乐","address":"上海市浦东新区世博大道1200号 （毗邻中国馆与世博轴，西沿上南路，东临高科西路 ）"},{"poiid":"B2094750D365A4F5489C","title":"中华艺术宫","lon":"121.494338","lat":"31.183723","category":"248","category_name":"生活娱乐","address":"国展路云台路口（原中国国家馆）"},{"poiid":"B2094757D06EAAF9409C","title":"世博会中国国家馆","lon":"121.494923671","lat":"31.184639805","category":"260","category_name":"其他","address":"上海浦东新区国展路云台路口(原上海世博会A片区)"},{"poiid":"B2094757D06EAAF44099","title":"云台路地铁站","lon":"121.50042159","lat":"31.182326472","category":"36","category_name":"地铁站","address":"上海轨道交通 七号线 轨交云台路站 7"},{"poiid":"B2094757D06BA0F94599","title":"7号线耀华路","lon":"121.499637738","lat":"31.1832632999","category":"500","category_name":"未知分类","address":"上海地铁七号线"},{"poiid":"B2094757D16DA5FA4398","title":"浦东新区社保中心","lon":"121.500264738","lat":"31.1834623041","category":"500","category_name":"未知分类","address":"上海市浦东新区浦东南路云台路"},{"poiid":"B2094757D06BA5FA439C","title":"高科西路","lon":"121.50241873","lat":"31.183264299","category":"260","category_name":"其他","address":"上海高科西路"},{"poiid":"B2094654DA68A6FA4993","title":"浦东长途汽车客运总站","lon":"121.50264","lat":"31.18449","category":"35","category_name":"长途汽车站","address":"浦东新区浦东南路3843号(近莲南路)"},{"poiid":"B2094757D068A3F94492","title":"世博会阿联酋馆","lon":"121.49784","lat":"31.18622","category":"260","category_name":"其他","address":"上海浦东新区国展路近云台路(原上海世博会A片区)"},{"poiid":"B2094757D06FABF4499F","title":"上南花苑","lon":"121.50368","lat":"31.180952","category":"47","category_name":"住宅区","address":"上海浦东新区齐河路257-259弄"},{"poiid":"B2094757D068A7FF4098","title":"一阳轩(高科西路店)","lon":"121.50404073","lat":"31.184218214","category":"72","category_name":"广东菜","address":"浦东新区世博园区高科西路551号6楼(近云莲路)"},{"poiid":"B2094454D26EABF9479C","title":"炉鱼","lon":"121.497749","lat":"31.178005","category":"247","category_name":"餐饮美食","address":"上海市 世博源"},{"poiid":"B2094757D068ABFD4493","title":"肯德基 KFC (浦东南路店)","lon":"121.502871552","lat":"31.1837174917","category":"68","category_name":"快餐厅","address":"浦东新区浦东南路3843号(高科西路口)"},{"poiid":"B2094757D068A1FC429A","title":"上南五村","lon":"121.49947","lat":"31.178671","category":"47","category_name":"住宅区","address":"上海浦东南路洪山路"},{"poiid":"B2094757D065A5FD4698","title":"上海协和双语学校(浦东校区) Shanghai United Bilingual School Pudong Campus","lon":"121.49784038","lat":"31.18314481","category":"55","category_name":"中学","address":"浦东新区雪野路48号(近云台路)"},{"poiid":"B2094757D068A5FD409B","title":"雪野二村","lon":"121.49775","lat":"31.182205","category":"47","category_name":"住宅区","address":"上海浦东新区浦东南路4800弄(雪野路34弄)"},{"poiid":"B2094757D16EA2FB439E","title":"浦东南路云台路路口","lon":"121.50020073","lat":"31.181478261","category":"500","category_name":"未知分类","address":"上海市浦东新区浦东南路"},{"poiid":"B2094757D068A5FE409B","title":"京世造型(齐河路店)","lon":"121.50303073","lat":"31.179385217","category":"148","category_name":"美容美发店","address":"上海浦东新区齐河路258号沃尔玛超市1楼(近云台路)"},{"poiid":"B2094751DA69A0F44198","title":"第一八佰伴","lon":"121.4987051559967","lat":"31.18380815258452","category":"247","category_name":"餐饮美食","address":"上海浦东张扬路501号第一八佰伴9楼"},{"poiid":"B2094654DA68A6FA429A","title":"雪野家园","lon":"121.49998","lat":"31.18418","category":"47","category_name":"住宅区","address":"上海浦东新区浦东南路4200-4250弄(近云台路)"},{"poiid":"B2094757D069A7F9429B","title":"世博大道","lon":"121.49357258","lat":"31.183651909","category":"260","category_name":"其他","address":"上海世博园"},{"poiid":"B2094654DB69A4F4409A","title":"重庆鸡公煲 云台路店","lon":"121.500251054","lat":"31.181813793","category":"71","category_name":"四川菜","address":"浦东新区云台路118号临(近浦东南路)"},{"poiid":"B2094655D26EA5FC4198","title":"星巴克(中融店)","lon":"121.5019","lat":"31.18414","category":"65","category_name":"咖啡厅","address":"浦东新区浦东南路1068号中融国际商城1楼"},{"poiid":"B2094757D465A7FC419F","title":"六角亭饭店","lon":"121.498037","lat":"31.179202","category":"76","category_name":"上海菜","address":"浦东新区浦东南路4959号(近洪山路)"},{"poiid":"B2094750DB6BA4FB4192","title":"大山猫原生态餐厅","lon":"121.499717","lat":"31.182865","category":"87","category_name":"特色／地方风味餐厅","address":"浦东新区浏河路19号(近云台路)"},{"poiid":"B2094751D565A2FE4493","title":"新石器烤肉NEOLITHIC  BARBECUE","lon":"121.497584","lat":"31.18285","category":"247","category_name":"餐饮美食","address":"上海浦东新区齐河路258号"},{"poiid":"B2094757D16FAAFE419D","title":"清明上河图","lon":"121.49883549","lat":"31.182473539","category":"500","category_name":"未知分类","address":"上海世博会中国馆"},{"poiid":"B2094757D468A4F84498","title":"来亿锅羊蝎子火锅 洪山路店","lon":"121.497333","lat":"31.180673","category":"86","category_name":"火锅店","address":"浦东新区洪山路91号(近浦东南路)"},{"poiid":"B2094655D26AA0F94693","title":"地铁云台路站","lon":"121.50043","lat":"31.18236","category":"36","category_name":"地铁站","address":""},{"poiid":"B2094655D268A3FF4499","title":"中国2010年上海世界博览会AB片区外国自建馆办公区","lon":"121.49754","lat":"31.18379","category":"46","category_name":"楼宇","address":""},{"poiid":"B2094757D16EA5FD439B","title":"上南一村","lon":"121.4976","lat":"31.178314","category":"252","category_name":"楼宇机构","address":"上海市浦东新上南一村"},{"poiid":"B2094757D06BA5F94799","title":"顾惠面馆","lon":"121.50215","lat":"31.18312","category":"68","category_name":"快餐厅","address":"浦东新区浦东南路3903号(近云台路)"},{"poiid":"B2094750DA6FAAF5489D","title":"中国馆","lon":"121.499389","lat":"31.180908","category":"247","category_name":"餐饮美食","address":null},{"poiid":"B2094655D265A0FD499B","title":"上海歌城中融店","lon":"121.5019","lat":"31.18414","category":"170","category_name":"KTV","address":"浦东南路1078号中融国际商场7层"},{"poiid":"B2094655D26EA3FC469A","title":"云台小区","lon":"121.49923","lat":"31.18224","category":"47","category_name":"住宅区","address":"云台路98"},{"poiid":"B2094655D36DA6FF4199","title":"云台路","lon":"121.50043","lat":"31.18236","category":"38","category_name":"公交车站","address":""},{"poiid":"B2094655D265A1F5479A","title":"小尾羊(浦东南路店)","lon":"121.50168","lat":"31.18385","category":"86","category_name":"火锅店","address":"浦东南路2100号(塘桥路口)"},{"poiid":"B2094757D068A3FE429F","title":"7-ELEVEN(雪野家园店)","lon":"121.500969045","lat":"31.1833401229","category":"117","category_name":"便民商店/便利店","address":"浦东新区浦东南路4190号(近云台路地铁站)"},{"poiid":"B2094757D068A3F4409A","title":"西藏南路隧道","lon":"121.50355886","lat":"31.184528366","category":"260","category_name":"其他","address":"上海西藏南路隧道"},{"poiid":"B2094757D168A1F9499B","title":"上海世博会浦东新区高科西路洪山路入口","lon":"121.4989798","lat":"31.181047018","category":"500","category_name":"未知分类","address":"上海高科西路"},{"poiid":"B2094753D469A1FD4393","title":"浦東機場2號航站樓","lon":"121.500297","lat":"31.183256","category":"500","category_name":"未知分类","address":"上海市 浦東機場"},{"poiid":"B2094757D064A4FB449D","title":"COCO奶茶","lon":"121.50050263","lat":"31.182935292","category":"247","category_name":"餐饮美食","address":"上海卜蜂莲花店"},{"poiid":"B2094655D265A1FE469C","title":"钱柜(浦东旗舰店)","lon":"121.50189","lat":"31.18413","category":"170","category_name":"KTV","address":"浦东南路1118号上海湾国际大厦B1层"},{"poiid":"B2094757D169A0F9419F","title":"吉乐小龙虾","lon":"121.50054573","lat":"31.181530263","category":"247","category_name":"餐饮美食","address":"上海市黄浦区人民路寿宁路口"},{"poiid":"B2094654DB64AAF5429C","title":"光明便利No.611","lon":"121.50044","lat":"31.18164","category":"117","category_name":"便民商店/便利店","address":"浦东南路4385"},{"poiid":"B2094757D06AA1FD409D","title":"浦东新区劳动就业促进中心","lon":"121.501239","lat":"31.182419","category":"500","category_name":"未知分类","address":"上海浦东南路3995号"},{"poiid":"B2094752D669A5F54993","title":"梅赛德斯奔驰文化中心","lon":"121.499021","lat":"31.186684","category":"500","category_name":"未知分类","address":null},{"poiid":"B2094655D26DA7F8439C","title":"雪野家园(南门)","lon":"121.50086","lat":"31.18306","category":"47","category_name":"住宅区","address":"浦东南路4200弄"},{"poiid":"B2094655D26BA2F5449D","title":"浦东南路洪山路","lon":"121.49867","lat":"31.1802","category":"38","category_name":"公交车站","address":"上海市浦东新区"},{"poiid":"B2094655D268A3FF4498","title":"世博园区中国馆","lon":"121.49475","lat":"31.18453","category":"183","category_name":"展览馆","address":""},{"poiid":"B2094655D36DA6FF489D","title":"上海梅赛德斯-奔驰文化中心（上海世博文化中心）","lon":"121.49779","lat":"31.1796","category":"248","category_name":"生活娱乐","address":"上海市浦东新区世博大道1200号 （毗邻中国馆与世博轴，西沿上南路，东临高科西路 ）"},{"poiid":"B2094750D365A4F5489C","title":"中华艺术宫","lon":"121.494338","lat":"31.183723","category":"248","category_name":"生活娱乐","address":"国展路云台路口（原中国国家馆）"},{"poiid":"B2094757D06EAAF9409C","title":"世博会中国国家馆","lon":"121.494923671","lat":"31.184639805","category":"260","category_name":"其他","address":"上海浦东新区国展路云台路口(原上海世博会A片区)"},{"poiid":"B2094757D06EAAF44099","title":"云台路地铁站","lon":"121.50042159","lat":"31.182326472","category":"36","category_name":"地铁站","address":"上海轨道交通 七号线 轨交云台路站 7"},{"poiid":"B2094757D06BA0F94599","title":"7号线耀华路","lon":"121.499637738","lat":"31.1832632999","category":"500","category_name":"未知分类","address":"上海地铁七号线"},{"poiid":"B2094757D16DA5FA4398","title":"浦东新区社保中心","lon":"121.500264738","lat":"31.1834623041","category":"500","category_name":"未知分类","address":"上海市浦东新区浦东南路云台路"},{"poiid":"B2094757D06BA5FA439C","title":"高科西路","lon":"121.50241873","lat":"31.183264299","category":"260","category_name":"其他","address":"上海高科西路"},{"poiid":"B2094654DA68A6FA4993","title":"浦东长途汽车客运总站","lon":"121.50264","lat":"31.18449","category":"35","category_name":"长途汽车站","address":"浦东新区浦东南路3843号(近莲南路)"},{"poiid":"B2094757D068A3F94492","title":"世博会阿联酋馆","lon":"121.49784","lat":"31.18622","category":"260","category_name":"其他","address":"上海浦东新区国展路近云台路(原上海世博会A片区)"},{"poiid":"B2094757D06FABF4499F","title":"上南花苑","lon":"121.50368","lat":"31.180952","category":"47","category_name":"住宅区","address":"上海浦东新区齐河路257-259弄"},{"poiid":"B2094757D068A7FF4098","title":"一阳轩(高科西路店)","lon":"121.50404073","lat":"31.184218214","category":"72","category_name":"广东菜","address":"浦东新区世博园区高科西路551号6楼(近云莲路)"},{"poiid":"B2094454D26EABF9479C","title":"炉鱼","lon":"121.497749","lat":"31.178005","category":"247","category_name":"餐饮美食","address":"上海市 世博源"},{"poiid":"B2094757D068ABFD4493","title":"肯德基 KFC (浦东南路店)","lon":"121.502871552","lat":"31.1837174917","category":"68","category_name":"快餐厅","address":"浦东新区浦东南路3843号(高科西路口)"},{"poiid":"B2094757D068A1FC429A","title":"上南五村","lon":"121.49947","lat":"31.178671","category":"47","category_name":"住宅区","address":"上海浦东南路洪山路"},{"poiid":"B2094757D065A5FD4698","title":"上海协和双语学校(浦东校区) Shanghai United Bilingual School Pudong Campus","lon":"121.49784038","lat":"31.18314481","category":"55","category_name":"中学","address":"浦东新区雪野路48号(近云台路)"},{"poiid":"B2094757D068A5FD409B","title":"雪野二村","lon":"121.49775","lat":"31.182205","category":"47","category_name":"住宅区","address":"上海浦东新区浦东南路4800弄(雪野路34弄)"},{"poiid":"B2094757D16EA2FB439E","title":"浦东南路云台路路口","lon":"121.50020073","lat":"31.181478261","category":"500","category_name":"未知分类","address":"上海市浦东新区浦东南路"},{"poiid":"B2094757D068A5FE409B","title":"京世造型(齐河路店)","lon":"121.50303073","lat":"31.179385217","category":"148","category_name":"美容美发店","address":"上海浦东新区齐河路258号沃尔玛超市1楼(近云台路)"},{"poiid":"B2094751DA69A0F44198","title":"第一八佰伴","lon":"121.4987051559967","lat":"31.18380815258452","category":"247","category_name":"餐饮美食","address":"上海浦东张扬路501号第一八佰伴9楼"},{"poiid":"B2094654DA68A6FA429A","title":"雪野家园","lon":"121.49998","lat":"31.18418","category":"47","category_name":"住宅区","address":"上海浦东新区浦东南路4200-4250弄(近云台路)"},{"poiid":"B2094757D069A7F9429B","title":"世博大道","lon":"121.49357258","lat":"31.183651909","category":"260","category_name":"其他","address":"上海世博园"},{"poiid":"B2094654DB69A4F4409A","title":"重庆鸡公煲 云台路店","lon":"121.500251054","lat":"31.181813793","category":"71","category_name":"四川菜","address":"浦东新区云台路118号临(近浦东南路)"},{"poiid":"B2094655D26EA5FC4198","title":"星巴克(中融店)","lon":"121.5019","lat":"31.18414","category":"65","category_name":"咖啡厅","address":"浦东新区浦东南路1068号中融国际商城1楼"},{"poiid":"B2094757D465A7FC419F","title":"六角亭饭店","lon":"121.498037","lat":"31.179202","category":"76","category_name":"上海菜","address":"浦东新区浦东南路4959号(近洪山路)"},{"poiid":"B2094750DB6BA4FB4192","title":"大山猫原生态餐厅","lon":"121.499717","lat":"31.182865","category":"87","category_name":"特色／地方风味餐厅","address":"浦东新区浏河路19号(近云台路)"},{"poiid":"B2094751D565A2FE4493","title":"新石器烤肉NEOLITHIC  BARBECUE","lon":"121.497584","lat":"31.18285","category":"247","category_name":"餐饮美食","address":"上海浦东新区齐河路258号"},{"poiid":"B2094757D16FAAFE419D","title":"清明上河图","lon":"121.49883549","lat":"31.182473539","category":"500","category_name":"未知分类","address":"上海世博会中国馆"},{"poiid":"B2094757D468A4F84498","title":"来亿锅羊蝎子火锅 洪山路店","lon":"121.497333","lat":"31.180673","category":"86","category_name":"火锅店","address":"浦东新区洪山路91号(近浦东南路)"},{"poiid":"B2094655D26AA0F94693","title":"地铁云台路站","lon":"121.50043","lat":"31.18236","category":"36","category_name":"地铁站","address":""},{"poiid":"B2094655D268A3FF4499","title":"中国2010年上海世界博览会AB片区外国自建馆办公区","lon":"121.49754","lat":"31.18379","category":"46","category_name":"楼宇","address":""},{"poiid":"B2094757D16EA5FD439B","title":"上南一村","lon":"121.4976","lat":"31.178314","category":"252","category_name":"楼宇机构","address":"上海市浦东新上南一村"},{"poiid":"B2094757D06BA5F94799","title":"顾惠面馆","lon":"121.50215","lat":"31.18312","category":"68","category_name":"快餐厅","address":"浦东新区浦东南路3903号(近云台路)"},{"poiid":"B2094750DA6FAAF5489D","title":"中国馆","lon":"121.499389","lat":"31.180908","category":"247","category_name":"餐饮美食","address":null},{"poiid":"B2094655D265A0FD499B","title":"上海歌城中融店","lon":"121.5019","lat":"31.18414","category":"170","category_name":"KTV","address":"浦东南路1078号中融国际商场7层"},{"poiid":"B2094655D26EA3FC469A","title":"云台小区","lon":"121.49923","lat":"31.18224","category":"47","category_name":"住宅区","address":"云台路98"},{"poiid":"B2094655D36DA6FF4199","title":"云台路","lon":"121.50043","lat":"31.18236","category":"38","category_name":"公交车站","address":""},{"poiid":"B2094655D265A1F5479A","title":"小尾羊(浦东南路店)","lon":"121.50168","lat":"31.18385","category":"86","category_name":"火锅店","address":"浦东南路2100号(塘桥路口)"},{"poiid":"B2094757D068A3FE429F","title":"7-ELEVEN(雪野家园店)","lon":"121.500969045","lat":"31.1833401229","category":"117","category_name":"便民商店/便利店","address":"浦东新区浦东南路4190号(近云台路地铁站)"},{"poiid":"B2094757D068A3F4409A","title":"西藏南路隧道","lon":"121.50355886","lat":"31.184528366","category":"260","category_name":"其他","address":"上海西藏南路隧道"},{"poiid":"B2094757D168A1F9499B","title":"上海世博会浦东新区高科西路洪山路入口","lon":"121.4989798","lat":"31.181047018","category":"500","category_name":"未知分类","address":"上海高科西路"},{"poiid":"B2094753D469A1FD4393","title":"浦東機場2號航站樓","lon":"121.500297","lat":"31.183256","category":"500","category_name":"未知分类","address":"上海市 浦東機場"},{"poiid":"B2094757D064A4FB449D","title":"COCO奶茶","lon":"121.50050263","lat":"31.182935292","category":"247","category_name":"餐饮美食","address":"上海卜蜂莲花店"},{"poiid":"B2094655D265A1FE469C","title":"钱柜(浦东旗舰店)","lon":"121.50189","lat":"31.18413","category":"170","category_name":"KTV","address":"浦东南路1118号上海湾国际大厦B1层"},{"poiid":"B2094757D169A0F9419F","title":"吉乐小龙虾","lon":"121.50054573","lat":"31.181530263","category":"247","category_name":"餐饮美食","address":"上海市黄浦区人民路寿宁路口"},{"poiid":"B2094654DB64AAF5429C","title":"光明便利No.611","lon":"121.50044","lat":"31.18164","category":"117","category_name":"便民商店/便利店","address":"浦东南路4385"},{"poiid":"B2094757D06AA1FD409D","title":"浦东新区劳动就业促进中心","lon":"121.501239","lat":"31.182419","category":"500","category_name":"未知分类","address":"上海浦东南路3995号"},{"poiid":"B2094752D669A5F54993","title":"梅赛德斯奔驰文化中心","lon":"121.499021","lat":"31.186684","category":"500","category_name":"未知分类","address":null},{"poiid":"B2094655D26DA7F8439C","title":"雪野家园(南门)","lon":"121.50086","lat":"31.18306","category":"47","category_name":"住宅区","address":"浦东南路4200弄"},{"poiid":"B2094655D26BA2F5449D","title":"浦东南路洪山路","lon":"121.49867","lat":"31.1802","category":"38","category_name":"公交车站","address":"上海市浦东新区"}]