[{"poiid":"B2094757D06EAAFF409F","title":"希望小学堂 “80”后主题餐厅","lon":"121.48657982","lat":"31.249435447","category":"75","category_name":"浙江菜","address":"上海虹口区昆山路214号"},{"poiid":"B2094757D064A5FE4499","title":"百嘉乐量贩ktv","lon":"121.485280738","lat":"31.2470456585","category":"500","category_name":"未知分类","address":"虹口区四川北路520号(近武昌路)"},{"poiid":"B2094757D06FA7F44193","title":"王朝大酒店(虹口店)","lon":"121.487015366","lat":"31.2500422888","category":"76","category_name":"上海菜","address":"虹口区乍浦路324号(海宁路口)"},{"poiid":"B209475CD564A7F84392","title":"上海滩浦东香格里拉店","lon":"121.50058","lat":"31.23634","category":"119","category_name":"商场","address":"浦东富成路33号香格里拉酒店内大堂层"},{"poiid":"B2094757D06FA3FD439D","title":"玛格萝妮比萨屋(昆山店)","lon":"121.48835125","lat":"31.249665167","category":"94","category_name":"西餐厅","address":"虹口区昆山路122号(近乍浦路)"},{"poiid":"B2094654DA6FA6FE4299","title":"恒升半岛国际酒店","lon":"121.48945","lat":"31.24747","category":"214","category_name":"四星级宾馆","address":"虹口区吴淞路205号恒升半岛国际酒店内(近武昌路)"},{"poiid":"B2094751D36EA0FB4499","title":"鼓浪屿的风Amoy Restaurant","lon":"121.48813","lat":"31.24963","category":"247","category_name":"餐饮美食","address":"虹口区昆山路128号(近吴淞路)"},{"poiid":"B2094757D06FABFB4898","title":"金米箩大酒店(虹口店)","lon":"121.487483791","lat":"31.2466599519","category":"76","category_name":"上海菜","address":"虹口区乍浦路125号(近武昌路)"},{"poiid":"B2094757D068A6FE419D","title":"宝御酒店 (Hotel Pravo Shanghai)","lon":"121.489273","lat":"31.248918","category":"217","category_name":"旅馆招待所","address":"上海虹口区吴淞路299号"},{"poiid":"B2094757D06FAAFF429D","title":"海王大酒店","lon":"121.48797","lat":"31.24649","category":"76","category_name":"上海菜","address":"虹口区乍浦路130-138号(近武昌路)"},{"poiid":"B2094757D06FA3FE459A","title":"上海财经大学成人教育学院","lon":"121.48796","lat":"31.24937","category":"253","category_name":"校园生活","address":"虹口区昆山路146号(近乍浦路)"},{"poiid":"B2094757D068A3FE4799","title":"景灵堂","lon":"121.48806","lat":"31.24935","category":"245","category_name":"教堂","address":"虹口区昆山路135号(近乍浦路)"},{"poiid":"B2094753DB6BABF54792","title":"中信广场1F zoo coffee","lon":"121.485023","lat":"31.24842","category":"500","category_name":"未知分类","address":"上海市 四川北路853号中信广场1F（近海宁路）"},{"poiid":"B2094654DB69AAFD489B","title":"吴记老锅底上海飘鹰店","lon":"121.48759","lat":"31.24573","category":"247","category_name":"餐饮美食","address":"虹口区乍浦路71号(近天潼路)"},{"poiid":"B2094750DA6FA1FE449F","title":"百嘉乐(四川北路店)","lon":"121.48531","lat":"31.24735","category":"248","category_name":"生活娱乐","address":"上海市虹口区四川北路(武昌路)520-686号5层"},{"poiid":"B2094757D068AAFD499A","title":"胖阿姨正宗朝鲜冷面(乍浦路店)","lon":"121.48764","lat":"31.2461","category":"96","category_name":"韩国料理","address":"虹口区乍浦路99号(近天潼路)"},{"poiid":"B2094757D064A6FF4793","title":"好孃孃净素坊","lon":"121.487745686","lat":"31.2463521158","category":"89","category_name":"中式素餐馆","address":"虹口区乍浦路108号(天潼路与武昌路之间)"},{"poiid":"B2094655D265A4FF469B","title":"联富商业广场","lon":"121.488","lat":"31.2496","category":"46","category_name":"楼宇","address":"河南北路99号"},{"poiid":"B2094757D068A6F8479F","title":"财大继续教育学院昆山路校区","lon":"121.487709288","lat":"31.2495277949","category":"253","category_name":"校园生活","address":"上海昆山路146号"},{"poiid":"B2094654DB65A5FC469C","title":"上海春天百货商城","lon":"121.48513","lat":"31.24678","category":"119","category_name":"商场","address":"上海虹口区四川北路521号(近武昌路)"},{"poiid":"B2094757D16FA5F8459B","title":"乍浦路武昌路","lon":"121.48768374","lat":"31.246402537","category":"500","category_name":"未知分类","address":"上海乍浦路"},{"poiid":"B2094757D06AA5F4439C","title":"东泰大厦","lon":"121.4890747","lat":"31.24793624","category":"46","category_name":"楼宇","address":"东泰大厦位于虹口上海市外滩塘沽路309号"},{"poiid":"B2094757D068A6FC439A","title":"老盛昌苏州汤包馆(乍浦路店)","lon":"121.48744","lat":"31.24909","category":"68","category_name":"快餐厅","address":"虹口区乍浦路175号(近塘沽路)"},{"poiid":"B2094751D36FA7FC4992","title":"北外滩之夜酒吧","lon":"121.4895","lat":"31.24745","category":"247","category_name":"餐饮美食","address":"虹口区吴淞路205号恒升半岛国际酒店26楼B(近武昌路)"},{"poiid":"B2094751DB6CA6F84399","title":"上海大厦","lon":"121.48577","lat":"31.245945","category":"247","category_name":"餐饮美食","address":"北苏州路20号"},{"poiid":"B2094750D16AA3FA4192","title":"地铁10号线","lon":"121.485404","lat":"31.245986","category":"500","category_name":"未知分类","address":null},{"poiid":"B2094654D56EA1FC419E","title":"上海财经大学继续教育学院","lon":"121.48764","lat":"31.25005","category":"53","category_name":"成人教育","address":"昆山路146"},{"poiid":"B2094757D06AA6FF4093","title":"肯德基 KFC (东华店)","lon":"121.485086","lat":"31.248464","category":"500","category_name":"未知分类","address":"虹口区四川北路838号(近武昌路)"},{"poiid":"B2094757DA6AABFA4692","title":"香港福记茶餐厅","lon":"121.48796","lat":"31.24937","category":"72","category_name":"广东菜","address":"虹口区昆山路177号(近乍浦路)"},{"poiid":"B2094750D664AAFA499E","title":"御园中餐厅","lon":"121.489","lat":"31.2489","category":"72","category_name":"广东菜","address":"虹口区吴淞路299号宝御酒店3楼(近塘沽路)"},{"poiid":"B2094757D06AAAFA499C","title":"全家便利(四川北路店)","lon":"121.485242654","lat":"31.2461920216","category":"117","category_name":"便民商店/便利店","address":"上海虹口区四川北路479号(近武昌路)"},{"poiid":"B2094757D16CA2F9419D","title":"东之杰","lon":"121.4879","lat":"31.24642","category":"76","category_name":"上海菜","address":"虹口区乍浦路88号(近天潼路)"},{"poiid":"B2094654D56EA1FD409A","title":"东北饺子馆(乍浦路)","lon":"121.488","lat":"31.2463","category":"82","category_name":"东北菜","address":"虹口区乍浦路106号(近海宁路)"},{"poiid":"B2094757D065AAFB479D","title":"丁香饭店","lon":"121.48778","lat":"31.24677","category":"76","category_name":"上海菜","address":"虹口区乍浦路78号(近天潼路)"},{"poiid":"B2094655D265ABFC4798","title":"河滨豪园","lon":"121.487","lat":"31.2469","category":"47","category_name":"住宅区","address":"上海市闸北区北苏州路668号"},{"poiid":"B2094757D06AAAFB479E","title":"记子老鸭粉丝汤馆","lon":"121.48499","lat":"31.24681","category":"68","category_name":"快餐厅","address":"虹口区武昌路556号(近四川北路)"},{"poiid":"B2094757D16BA4F8429E","title":"昆山路","lon":"121.486617103","lat":"31.2496669886","category":"500","category_name":"未知分类","address":"上海昆山路214号"},{"poiid":"B2094753D26CA5F4409A","title":"江边城外烤鱼","lon":"121.487529","lat":"31.247777","category":"247","category_name":"餐饮美食","address":"上海市 五角场百联又一城"},{"poiid":"B2094757D56EA2FB419E","title":"辉煌海鲜捞","lon":"121.48825564213","lat":"31.247010228679","category":"247","category_name":"餐饮美食","address":"虹口区黄浦路128号"},{"poiid":"B2094757DB6CA3F9489B","title":"如家快捷酒店（上海外滩外白渡桥四川北路店）","lon":"121.485381424","lat":"31.248119475","category":"216","category_name":"经济型连锁酒店","address":"上海市虹口区四川北路818号"},{"poiid":"B2094757D66AABFF409B","title":"红郎阁烤肉店 乍浦路店","lon":"121.4868","lat":"31.24971","category":"68","category_name":"快餐厅","address":"虹口区乍浦路321号(近昆山路)"},{"poiid":"B2094654DB6BABFC4692","title":"屈臣氏","lon":"121.48538","lat":"31.24752","category":"118","category_name":"超级市场","address":"虹口区四川北路810号(塘沽路口)"},{"poiid":"B2094654DA6FA6FE489E","title":"重庆鸡公煲乍浦店","lon":"121.4875","lat":"31.24655","category":"71","category_name":"四川菜","address":"虹口区北海宁路64号104室(近乍浦路)"},{"poiid":"B2094751D26BA6F9409C","title":"地铁4号线大连路","lon":"121.4894929276499","lat":"31.24837257002929","category":"500","category_name":"未知分类","address":null},{"poiid":"B2094757D16AA3FF429E","title":"金米萝","lon":"121.48757173","lat":"31.24666965","category":"500","category_name":"未知分类","address":"上海虹口区乍浦路"},{"poiid":"B2094655D26FA0FA469E","title":"上海市海南中学","lon":"121.48606","lat":"31.24855","category":"55","category_name":"中学","address":"塘沽路484号"},{"poiid":"B2094757D165A1F4469E","title":"肯德基KFC 虹桥火车站店","lon":"121.488975403","lat":"31.2485611655","category":"500","category_name":"未知分类","address":"上海虹桥火车站B1"},{"poiid":"B2094757D068A1FC4799","title":"上海市中心图书馆虹口分馆","lon":"121.48756","lat":"31.24863","category":"181","category_name":"图书馆","address":"上海虹口区乍浦路245号(近昆山路)"},{"poiid":"B2094757D469A7FE489D","title":"真味馆","lon":"121.487735","lat":"31.249721","category":"68","category_name":"快餐厅","address":"虹口区昆山路181号(近乍浦路)"},{"poiid":"B2094655D26BA2F4409E","title":"四川北路武昌路","lon":"121.48536","lat":"31.24678","category":"38","category_name":"公交车站","address":""},{"poiid":"B2094757D06EAAFF409F","title":"希望小学堂 “80”后主题餐厅","lon":"121.48657982","lat":"31.249435447","category":"75","category_name":"浙江菜","address":"上海虹口区昆山路214号"},{"poiid":"B2094757D064A5FE4499","title":"百嘉乐量贩ktv","lon":"121.485280738","lat":"31.2470456585","category":"500","category_name":"未知分类","address":"虹口区四川北路520号(近武昌路)"},{"poiid":"B2094757D06FA7F44193","title":"王朝大酒店(虹口店)","lon":"121.487015366","lat":"31.2500422888","category":"76","category_name":"上海菜","address":"虹口区乍浦路324号(海宁路口)"},{"poiid":"B209475CD564A7F84392","title":"上海滩浦东香格里拉店","lon":"121.50058","lat":"31.23634","category":"119","category_name":"商场","address":"浦东富成路33号香格里拉酒店内大堂层"},{"poiid":"B2094757D06FA3FD439D","title":"玛格萝妮比萨屋(昆山店)","lon":"121.48835125","lat":"31.249665167","category":"94","category_name":"西餐厅","address":"虹口区昆山路122号(近乍浦路)"},{"poiid":"B2094654DA6FA6FE4299","title":"恒升半岛国际酒店","lon":"121.48945","lat":"31.24747","category":"214","category_name":"四星级宾馆","address":"虹口区吴淞路205号恒升半岛国际酒店内(近武昌路)"},{"poiid":"B2094751D36EA0FB4499","title":"鼓浪屿的风Amoy Restaurant","lon":"121.48813","lat":"31.24963","category":"247","category_name":"餐饮美食","address":"虹口区昆山路128号(近吴淞路)"},{"poiid":"B2094757D06FABFB4898","title":"金米箩大酒店(虹口店)","lon":"121.487483791","lat":"31.2466599519","category":"76","category_name":"上海菜","address":"虹口区乍浦路125号(近武昌路)"},{"poiid":"B2094757D068A6FE419D","title":"宝御酒店 (Hotel Pravo Shanghai)","lon":"121.489273","lat":"31.248918","category":"217","category_name":"旅馆招待所","address":"上海虹口区吴淞路299号"},{"poiid":"B2094757D06FAAFF429D","title":"海王大酒店","lon":"121.48797","lat":"31.24649","category":"76","category_name":"上海菜","address":"虹口区乍浦路130-138号(近武昌路)"},{"poiid":"B2094757D06FA3FE459A","title":"上海财经大学成人教育学院","lon":"121.48796","lat":"31.24937","category":"253","category_name":"校园生活","address":"虹口区昆山路146号(近乍浦路)"},{"poiid":"B2094757D068A3FE4799","title":"景灵堂","lon":"121.48806","lat":"31.24935","category":"245","category_name":"教堂","address":"虹口区昆山路135号(近乍浦路)"},{"poiid":"B2094753DB6BABF54792","title":"中信广场1F zoo coffee","lon":"121.485023","lat":"31.24842","category":"500","category_name":"未知分类","address":"上海市 四川北路853号中信广场1F（近海宁路）"},{"poiid":"B2094654DB69AAFD489B","title":"吴记老锅底上海飘鹰店","lon":"121.48759","lat":"31.24573","category":"247","category_name":"餐饮美食","address":"虹口区乍浦路71号(近天潼路)"},{"poiid":"B2094750DA6FA1FE449F","title":"百嘉乐(四川北路店)","lon":"121.48531","lat":"31.24735","category":"248","category_name":"生活娱乐","address":"上海市虹口区四川北路(武昌路)520-686号5层"},{"poiid":"B2094757D068AAFD499A","title":"胖阿姨正宗朝鲜冷面(乍浦路店)","lon":"121.48764","lat":"31.2461","category":"96","category_name":"韩国料理","address":"虹口区乍浦路99号(近天潼路)"},{"poiid":"B2094757D064A6FF4793","title":"好孃孃净素坊","lon":"121.487745686","lat":"31.2463521158","category":"89","category_name":"中式素餐馆","address":"虹口区乍浦路108号(天潼路与武昌路之间)"},{"poiid":"B2094655D265A4FF469B","title":"联富商业广场","lon":"121.488","lat":"31.2496","category":"46","category_name":"楼宇","address":"河南北路99号"},{"poiid":"B2094757D068A6F8479F","title":"财大继续教育学院昆山路校区","lon":"121.487709288","lat":"31.2495277949","category":"253","category_name":"校园生活","address":"上海昆山路146号"},{"poiid":"B2094654DB65A5FC469C","title":"上海春天百货商城","lon":"121.48513","lat":"31.24678","category":"119","category_name":"商场","address":"上海虹口区四川北路521号(近武昌路)"},{"poiid":"B2094757D16FA5F8459B","title":"乍浦路武昌路","lon":"121.48768374","lat":"31.246402537","category":"500","category_name":"未知分类","address":"上海乍浦路"},{"poiid":"B2094757D06AA5F4439C","title":"东泰大厦","lon":"121.4890747","lat":"31.24793624","category":"46","category_name":"楼宇","address":"东泰大厦位于虹口上海市外滩塘沽路309号"},{"poiid":"B2094757D068A6FC439A","title":"老盛昌苏州汤包馆(乍浦路店)","lon":"121.48744","lat":"31.24909","category":"68","category_name":"快餐厅","address":"虹口区乍浦路175号(近塘沽路)"},{"poiid":"B2094751D36FA7FC4992","title":"北外滩之夜酒吧","lon":"121.4895","lat":"31.24745","category":"247","category_name":"餐饮美食","address":"虹口区吴淞路205号恒升半岛国际酒店26楼B(近武昌路)"},{"poiid":"B2094751DB6CA6F84399","title":"上海大厦","lon":"121.48577","lat":"31.245945","category":"247","category_name":"餐饮美食","address":"北苏州路20号"},{"poiid":"B2094750D16AA3FA4192","title":"地铁10号线","lon":"121.485404","lat":"31.245986","category":"500","category_name":"未知分类","address":null},{"poiid":"B2094654D56EA1FC419E","title":"上海财经大学继续教育学院","lon":"121.48764","lat":"31.25005","category":"53","category_name":"成人教育","address":"昆山路146"},{"poiid":"B2094757D06AA6FF4093","title":"肯德基 KFC (东华店)","lon":"121.485086","lat":"31.248464","category":"500","category_name":"未知分类","address":"虹口区四川北路838号(近武昌路)"},{"poiid":"B2094757DA6AABFA4692","title":"香港福记茶餐厅","lon":"121.48796","lat":"31.24937","category":"72","category_name":"广东菜","address":"虹口区昆山路177号(近乍浦路)"},{"poiid":"B2094750D664AAFA499E","title":"御园中餐厅","lon":"121.489","lat":"31.2489","category":"72","category_name":"广东菜","address":"虹口区吴淞路299号宝御酒店3楼(近塘沽路)"},{"poiid":"B2094757D06AAAFA499C","title":"全家便利(四川北路店)","lon":"121.485242654","lat":"31.2461920216","category":"117","category_name":"便民商店/便利店","address":"上海虹口区四川北路479号(近武昌路)"},{"poiid":"B2094757D16CA2F9419D","title":"东之杰","lon":"121.4879","lat":"31.24642","category":"76","category_name":"上海菜","address":"虹口区乍浦路88号(近天潼路)"},{"poiid":"B2094654D56EA1FD409A","title":"东北饺子馆(乍浦路)","lon":"121.488","lat":"31.2463","category":"82","category_name":"东北菜","address":"虹口区乍浦路106号(近海宁路)"},{"poiid":"B2094757D065AAFB479D","title":"丁香饭店","lon":"121.48778","lat":"31.24677","category":"76","category_name":"上海菜","address":"虹口区乍浦路78号(近天潼路)"},{"poiid":"B2094655D265ABFC4798","title":"河滨豪园","lon":"121.487","lat":"31.2469","category":"47","category_name":"住宅区","address":"上海市闸北区北苏州路668号"},{"poiid":"B2094757D06AAAFB479E","title":"记子老鸭粉丝汤馆","lon":"121.48499","lat":"31.24681","category":"68","category_name":"快餐厅","address":"虹口区武昌路556号(近四川北路)"},{"poiid":"B2094757D16BA4F8429E","title":"昆山路","lon":"121.486617103","lat":"31.2496669886","category":"500","category_name":"未知分类","address":"上海昆山路214号"},{"poiid":"B2094753D26CA5F4409A","title":"江边城外烤鱼","lon":"121.487529","lat":"31.247777","category":"247","category_name":"餐饮美食","address":"上海市 五角场百联又一城"},{"poiid":"B2094757D56EA2FB419E","title":"辉煌海鲜捞","lon":"121.48825564213","lat":"31.247010228679","category":"247","category_name":"餐饮美食","address":"虹口区黄浦路128号"},{"poiid":"B2094757DB6CA3F9489B","title":"如家快捷酒店（上海外滩外白渡桥四川北路店）","lon":"121.485381424","lat":"31.248119475","category":"216","category_name":"经济型连锁酒店","address":"上海市虹口区四川北路818号"},{"poiid":"B2094757D66AABFF409B","title":"红郎阁烤肉店 乍浦路店","lon":"121.4868","lat":"31.24971","category":"68","category_name":"快餐厅","address":"虹口区乍浦路321号(近昆山路)"},{"poiid":"B2094654DB6BABFC4692","title":"屈臣氏","lon":"121.48538","lat":"31.24752","category":"118","category_name":"超级市场","address":"虹口区四川北路810号(塘沽路口)"},{"poiid":"B2094654DA6FA6FE489E","title":"重庆鸡公煲乍浦店","lon":"121.4875","lat":"31.24655","category":"71","category_name":"四川菜","address":"虹口区北海宁路64号104室(近乍浦路)"},{"poiid":"B2094751D26BA6F9409C","title":"地铁4号线大连路","lon":"121.4894929276499","lat":"31.24837257002929","category":"500","category_name":"未知分类","address":null},{"poiid":"B2094757D16AA3FF429E","title":"金米萝","lon":"121.48757173","lat":"31.24666965","category":"500","category_name":"未知分类","address":"上海虹口区乍浦路"},{"poiid":"B2094655D26FA0FA469E","title":"上海市海南中学","lon":"121.48606","lat":"31.24855","category":"55","category_name":"中学","address":"塘沽路484号"},{"poiid":"B2094757D165A1F4469E","title":"肯德基KFC 虹桥火车站店","lon":"121.488975403","lat":"31.2485611655","category":"500","category_name":"未知分类","address":"上海虹桥火车站B1"},{"poiid":"B2094757D068A1FC4799","title":"上海市中心图书馆虹口分馆","lon":"121.48756","lat":"31.24863","category":"181","category_name":"图书馆","address":"上海虹口区乍浦路245号(近昆山路)"},{"poiid":"B2094757D469A7FE489D","title":"真味馆","lon":"121.487735","lat":"31.249721","category":"68","category_name":"快餐厅","address":"虹口区昆山路181号(近乍浦路)"},{"poiid":"B2094655D26BA2F4409E","title":"四川北路武昌路","lon":"121.48536","lat":"31.24678","category":"38","category_name":"公交车站","address":""},{"poiid":"B2094757D06EAAFF409F","title":"希望小学堂 “80”后主题餐厅","lon":"121.48657982","lat":"31.249435447","category":"75","category_name":"浙江菜","address":"上海虹口区昆山路214号"},{"poiid":"B2094757D064A5FE4499","title":"百嘉乐量贩ktv","lon":"121.485280738","lat":"31.2470456585","category":"500","category_name":"未知分类","address":"虹口区四川北路520号(近武昌路)"},{"poiid":"B2094757D06FA7F44193","title":"王朝大酒店(虹口店)","lon":"121.487015366","lat":"31.2500422888","category":"76","category_name":"上海菜","address":"虹口区乍浦路324号(海宁路口)"},{"poiid":"B209475CD564A7F84392","title":"上海滩浦东香格里拉店","lon":"121.50058","lat":"31.23634","category":"119","category_name":"商场","address":"浦东富成路33号香格里拉酒店内大堂层"},{"poiid":"B2094757D06FA3FD439D","title":"玛格萝妮比萨屋(昆山店)","lon":"121.48835125","lat":"31.249665167","category":"94","category_name":"西餐厅","address":"虹口区昆山路122号(近乍浦路)"},{"poiid":"B2094654DA6FA6FE4299","title":"恒升半岛国际酒店","lon":"121.48945","lat":"31.24747","category":"214","category_name":"四星级宾馆","address":"虹口区吴淞路205号恒升半岛国际酒店内(近武昌路)"},{"poiid":"B2094751D36EA0FB4499","title":"鼓浪屿的风Amoy Restaurant","lon":"121.48813","lat":"31.24963","category":"247","category_name":"餐饮美食","address":"虹口区昆山路128号(近吴淞路)"},{"poiid":"B2094757D06FABFB4898","title":"金米箩大酒店(虹口店)","lon":"121.487483791","lat":"31.2466599519","category":"76","category_name":"上海菜","address":"虹口区乍浦路125号(近武昌路)"},{"poiid":"B2094757D068A6FE419D","title":"宝御酒店 (Hotel Pravo Shanghai)","lon":"121.489273","lat":"31.248918","category":"217","category_name":"旅馆招待所","address":"上海虹口区吴淞路299号"},{"poiid":"B2094757D06FAAFF429D","title":"海王大酒店","lon":"121.48797","lat":"31.24649","category":"76","category_name":"上海菜","address":"虹口区乍浦路130-138号(近武昌路)"},{"poiid":"B2094757D06FA3FE459A","title":"上海财经大学成人教育学院","lon":"121.48796","lat":"31.24937","category":"253","category_name":"校园生活","address":"虹口区昆山路146号(近乍浦路)"},{"poiid":"B2094757D068A3FE4799","title":"景灵堂","lon":"121.48806","lat":"31.24935","category":"245","category_name":"教堂","address":"虹口区昆山路135号(近乍浦路)"},{"poiid":"B2094753DB6BABF54792","title":"中信广场1F zoo coffee","lon":"121.485023","lat":"31.24842","category":"500","category_name":"未知分类","address":"上海市 四川北路853号中信广场1F（近海宁路）"},{"poiid":"B2094654DB69AAFD489B","title":"吴记老锅底上海飘鹰店","lon":"121.48759","lat":"31.24573","category":"247","category_name":"餐饮美食","address":"虹口区乍浦路71号(近天潼路)"},{"poiid":"B2094750DA6FA1FE449F","title":"百嘉乐(四川北路店)","lon":"121.48531","lat":"31.24735","category":"248","category_name":"生活娱乐","address":"上海市虹口区四川北路(武昌路)520-686号5层"},{"poiid":"B2094757D068AAFD499A","title":"胖阿姨正宗朝鲜冷面(乍浦路店)","lon":"121.48764","lat":"31.2461","category":"96","category_name":"韩国料理","address":"虹口区乍浦路99号(近天潼路)"},{"poiid":"B2094757D064A6FF4793","title":"好孃孃净素坊","lon":"121.487745686","lat":"31.2463521158","category":"89","category_name":"中式素餐馆","address":"虹口区乍浦路108号(天潼路与武昌路之间)"},{"poiid":"B2094655D265A4FF469B","title":"联富商业广场","lon":"121.488","lat":"31.2496","category":"46","category_name":"楼宇","address":"河南北路99号"},{"poiid":"B2094757D068A6F8479F","title":"财大继续教育学院昆山路校区","lon":"121.487709288","lat":"31.2495277949","category":"253","category_name":"校园生活","address":"上海昆山路146号"},{"poiid":"B2094654DB65A5FC469C","title":"上海春天百货商城","lon":"121.48513","lat":"31.24678","category":"119","category_name":"商场","address":"上海虹口区四川北路521号(近武昌路)"},{"poiid":"B2094757D16FA5F8459B","title":"乍浦路武昌路","lon":"121.48768374","lat":"31.246402537","category":"500","category_name":"未知分类","address":"上海乍浦路"},{"poiid":"B2094757D06AA5F4439C","title":"东泰大厦","lon":"121.4890747","lat":"31.24793624","category":"46","category_name":"楼宇","address":"东泰大厦位于虹口上海市外滩塘沽路309号"},{"poiid":"B2094757D068A6FC439A","title":"老盛昌苏州汤包馆(乍浦路店)","lon":"121.48744","lat":"31.24909","category":"68","category_name":"快餐厅","address":"虹口区乍浦路175号(近塘沽路)"},{"poiid":"B2094751D36FA7FC4992","title":"北外滩之夜酒吧","lon":"121.4895","lat":"31.24745","category":"247","category_name":"餐饮美食","address":"虹口区吴淞路205号恒升半岛国际酒店26楼B(近武昌路)"},{"poiid":"B2094751DB6CA6F84399","title":"上海大厦","lon":"121.48577","lat":"31.245945","category":"247","category_name":"餐饮美食","address":"北苏州路20号"},{"poiid":"B2094750D16AA3FA4192","title":"地铁10号线","lon":"121.485404","lat":"31.245986","category":"500","category_name":"未知分类","address":null},{"poiid":"B2094654D56EA1FC419E","title":"上海财经大学继续教育学院","lon":"121.48764","lat":"31.25005","category":"53","category_name":"成人教育","address":"昆山路146"},{"poiid":"B2094757D06AA6FF4093","title":"肯德基 KFC (东华店)","lon":"121.485086","lat":"31.248464","category":"500","category_name":"未知分类","address":"虹口区四川北路838号(近武昌路)"},{"poiid":"B2094757DA6AABFA4692","title":"香港福记茶餐厅","lon":"121.48796","lat":"31.24937","category":"72","category_name":"广东菜","address":"虹口区昆山路177号(近乍浦路)"},{"poiid":"B2094750D664AAFA499E","title":"御园中餐厅","lon":"121.489","lat":"31.2489","category":"72","category_name":"广东菜","address":"虹口区吴淞路299号宝御酒店3楼(近塘沽路)"},{"poiid":"B2094757D06AAAFA499C","title":"全家便利(四川北路店)","lon":"121.485242654","lat":"31.2461920216","category":"117","category_name":"便民商店/便利店","address":"上海虹口区四川北路479号(近武昌路)"},{"poiid":"B2094757D16CA2F9419D","title":"东之杰","lon":"121.4879","lat":"31.24642","category":"76","category_name":"上海菜","address":"虹口区乍浦路88号(近天潼路)"},{"poiid":"B2094654D56EA1FD409A","title":"东北饺子馆(乍浦路)","lon":"121.488","lat":"31.2463","category":"82","category_name":"东北菜","address":"虹口区乍浦路106号(近海宁路)"},{"poiid":"B2094757D065AAFB479D","title":"丁香饭店","lon":"121.48778","lat":"31.24677","category":"76","category_name":"上海菜","address":"虹口区乍浦路78号(近天潼路)"},{"poiid":"B2094655D265ABFC4798","title":"河滨豪园","lon":"121.487","lat":"31.2469","category":"47","category_name":"住宅区","address":"上海市闸北区北苏州路668号"},{"poiid":"B2094757D06AAAFB479E","title":"记子老鸭粉丝汤馆","lon":"121.48499","lat":"31.24681","category":"68","category_name":"快餐厅","address":"虹口区武昌路556号(近四川北路)"},{"poiid":"B2094757D16BA4F8429E","title":"昆山路","lon":"121.486617103","lat":"31.2496669886","category":"500","category_name":"未知分类","address":"上海昆山路214号"},{"poiid":"B2094753D26CA5F4409A","title":"江边城外烤鱼","lon":"121.487529","lat":"31.247777","category":"247","category_name":"餐饮美食","address":"上海市 五角场百联又一城"},{"poiid":"B2094757D56EA2FB419E","title":"辉煌海鲜捞","lon":"121.48825564213","lat":"31.247010228679","category":"247","category_name":"餐饮美食","address":"虹口区黄浦路128号"},{"poiid":"B2094757DB6CA3F9489B","title":"如家快捷酒店（上海外滩外白渡桥四川北路店）","lon":"121.485381424","lat":"31.248119475","category":"216","category_name":"经济型连锁酒店","address":"上海市虹口区四川北路818号"},{"poiid":"B2094757D66AABFF409B","title":"红郎阁烤肉店 乍浦路店","lon":"121.4868","lat":"31.24971","category":"68","category_name":"快餐厅","address":"虹口区乍浦路321号(近昆山路)"},{"poiid":"B2094654DB6BABFC4692","title":"屈臣氏","lon":"121.48538","lat":"31.24752","category":"118","category_name":"超级市场","address":"虹口区四川北路810号(塘沽路口)"},{"poiid":"B2094654DA6FA6FE489E","title":"重庆鸡公煲乍浦店","lon":"121.4875","lat":"31.24655","category":"71","category_name":"四川菜","address":"虹口区北海宁路64号104室(近乍浦路)"},{"poiid":"B2094751D26BA6F9409C","title":"地铁4号线大连路","lon":"121.4894929276499","lat":"31.24837257002929","category":"500","category_name":"未知分类","address":null},{"poiid":"B2094757D16AA3FF429E","title":"金米萝","lon":"121.48757173","lat":"31.24666965","category":"500","category_name":"未知分类","address":"上海虹口区乍浦路"},{"poiid":"B2094655D26FA0FA469E","title":"上海市海南中学","lon":"121.48606","lat":"31.24855","category":"55","category_name":"中学","address":"塘沽路484号"},{"poiid":"B2094757D165A1F4469E","title":"肯德基KFC 虹桥火车站店","lon":"121.488975403","lat":"31.2485611655","category":"500","category_name":"未知分类","address":"上海虹桥火车站B1"},{"poiid":"B2094757D068A1FC4799","title":"上海市中心图书馆虹口分馆","lon":"121.48756","lat":"31.24863","category":"181","category_name":"图书馆","address":"上海虹口区乍浦路245号(近昆山路)"},{"poiid":"B2094757D469A7FE489D","title":"真味馆","lon":"121.487735","lat":"31.249721","category":"68","category_name":"快餐厅","address":"虹口区昆山路181号(近乍浦路)"},{"poiid":"B2094655D26BA2F4409E","title":"四川北路武昌路","lon":"121.48536","lat":"31.24678","category":"38","category_name":"公交车站","address":""},{"poiid":"B2094757D06EAAFF409F","title":"希望小学堂 “80”后主题餐厅","lon":"121.48657982","lat":"31.249435447","category":"75","category_name":"浙江菜","address":"上海虹口区昆山路214号"},{"poiid":"B2094757D064A5FE4499","title":"百嘉乐量贩ktv","lon":"121.485280738","lat":"31.2470456585","category":"500","category_name":"未知分类","address":"虹口区四川北路520号(近武昌路)"},{"poiid":"B2094757D06FA7F44193","title":"王朝大酒店(虹口店)","lon":"121.487015366","lat":"31.2500422888","category":"76","category_name":"上海菜","address":"虹口区乍浦路324号(海宁路口)"},{"poiid":"B209475CD564A7F84392","title":"上海滩浦东香格里拉店","lon":"121.50058","lat":"31.23634","category":"119","category_name":"商场","address":"浦东富成路33号香格里拉酒店内大堂层"},{"poiid":"B2094757D06FA3FD439D","title":"玛格萝妮比萨屋(昆山店)","lon":"121.48835125","lat":"31.249665167","category":"94","category_name":"西餐厅","address":"虹口区昆山路122号(近乍浦路)"},{"poiid":"B2094654DA6FA6FE4299","title":"恒升半岛国际酒店","lon":"121.48945","lat":"31.24747","category":"214","category_name":"四星级宾馆","address":"虹口区吴淞路205号恒升半岛国际酒店内(近武昌路)"},{"poiid":"B2094751D36EA0FB4499","title":"鼓浪屿的风Amoy Restaurant","lon":"121.48813","lat":"31.24963","category":"247","category_name":"餐饮美食","address":"虹口区昆山路128号(近吴淞路)"},{"poiid":"B2094757D06FABFB4898","title":"金米箩大酒店(虹口店)","lon":"121.487483791","lat":"31.2466599519","category":"76","category_name":"上海菜","address":"虹口区乍浦路125号(近武昌路)"},{"poiid":"B2094757D068A6FE419D","title":"宝御酒店 (Hotel Pravo Shanghai)","lon":"121.489273","lat":"31.248918","category":"217","category_name":"旅馆招待所","address":"上海虹口区吴淞路299号"},{"poiid":"B2094757D06FAAFF429D","title":"海王大酒店","lon":"121.48797","lat":"31.24649","category":"76","category_name":"上海菜","address":"虹口区乍浦路130-138号(近武昌路)"},{"poiid":"B2094757D06FA3FE459A","title":"上海财经大学成人教育学院","lon":"121.48796","lat":"31.24937","category":"253","category_name":"校园生活","address":"虹口区昆山路146号(近乍浦路)"},{"poiid":"B2094757D068A3FE4799","title":"景灵堂","lon":"121.48806","lat":"31.24935","category":"245","category_name":"教堂","address":"虹口区昆山路135号(近乍浦路)"},{"poiid":"B2094753DB6BABF54792","title":"中信广场1F zoo coffee","lon":"121.485023","lat":"31.24842","category":"500","category_name":"未知分类","address":"上海市 四川北路853号中信广场1F（近海宁路）"},{"poiid":"B2094654DB69AAFD489B","title":"吴记老锅底上海飘鹰店","lon":"121.48759","lat":"31.24573","category":"247","category_name":"餐饮美食","address":"虹口区乍浦路71号(近天潼路)"},{"poiid":"B2094750DA6FA1FE449F","title":"百嘉乐(四川北路店)","lon":"121.48531","lat":"31.24735","category":"248","category_name":"生活娱乐","address":"上海市虹口区四川北路(武昌路)520-686号5层"},{"poiid":"B2094757D068AAFD499A","title":"胖阿姨正宗朝鲜冷面(乍浦路店)","lon":"121.48764","lat":"31.2461","category":"96","category_name":"韩国料理","address":"虹口区乍浦路99号(近天潼路)"},{"poiid":"B2094757D064A6FF4793","title":"好孃孃净素坊","lon":"121.487745686","lat":"31.2463521158","category":"89","category_name":"中式素餐馆","address":"虹口区乍浦路108号(天潼路与武昌路之间)"},{"poiid":"B2094655D265A4FF469B","title":"联富商业广场","lon":"121.488","lat":"31.2496","category":"46","category_name":"楼宇","address":"河南北路99号"},{"poiid":"B2094757D068A6F8479F","title":"财大继续教育学院昆山路校区","lon":"121.487709288","lat":"31.2495277949","category":"253","category_name":"校园生活","address":"上海昆山路146号"},{"poiid":"B2094654DB65A5FC469C","title":"上海春天百货商城","lon":"121.48513","lat":"31.24678","category":"119","category_name":"商场","address":"上海虹口区四川北路521号(近武昌路)"},{"poiid":"B2094757D16FA5F8459B","title":"乍浦路武昌路","lon":"121.48768374","lat":"31.246402537","category":"500","category_name":"未知分类","address":"上海乍浦路"},{"poiid":"B2094757D06AA5F4439C","title":"东泰大厦","lon":"121.4890747","lat":"31.24793624","category":"46","category_name":"楼宇","address":"东泰大厦位于虹口上海市外滩塘沽路309号"},{"poiid":"B2094757D068A6FC439A","title":"老盛昌苏州汤包馆(乍浦路店)","lon":"121.48744","lat":"31.24909","category":"68","category_name":"快餐厅","address":"虹口区乍浦路175号(近塘沽路)"},{"poiid":"B2094751D36FA7FC4992","title":"北外滩之夜酒吧","lon":"121.4895","lat":"31.24745","category":"247","category_name":"餐饮美食","address":"虹口区吴淞路205号恒升半岛国际酒店26楼B(近武昌路)"},{"poiid":"B2094751DB6CA6F84399","title":"上海大厦","lon":"121.48577","lat":"31.245945","category":"247","category_name":"餐饮美食","address":"北苏州路20号"},{"poiid":"B2094750D16AA3FA4192","title":"地铁10号线","lon":"121.485404","lat":"31.245986","category":"500","category_name":"未知分类","address":null},{"poiid":"B2094654D56EA1FC419E","title":"上海财经大学继续教育学院","lon":"121.48764","lat":"31.25005","category":"53","category_name":"成人教育","address":"昆山路146"},{"poiid":"B2094757D06AA6FF4093","title":"肯德基 KFC (东华店)","lon":"121.485086","lat":"31.248464","category":"500","category_name":"未知分类","address":"虹口区四川北路838号(近武昌路)"},{"poiid":"B2094757DA6AABFA4692","title":"香港福记茶餐厅","lon":"121.48796","lat":"31.24937","category":"72","category_name":"广东菜","address":"虹口区昆山路177号(近乍浦路)"},{"poiid":"B2094750D664AAFA499E","title":"御园中餐厅","lon":"121.489","lat":"31.2489","category":"72","category_name":"广东菜","address":"虹口区吴淞路299号宝御酒店3楼(近塘沽路)"},{"poiid":"B2094757D06AAAFA499C","title":"全家便利(四川北路店)","lon":"121.485242654","lat":"31.2461920216","category":"117","category_name":"便民商店/便利店","address":"上海虹口区四川北路479号(近武昌路)"},{"poiid":"B2094757D16CA2F9419D","title":"东之杰","lon":"121.4879","lat":"31.24642","category":"76","category_name":"上海菜","address":"虹口区乍浦路88号(近天潼路)"},{"poiid":"B2094654D56EA1FD409A","title":"东北饺子馆(乍浦路)","lon":"121.488","lat":"31.2463","category":"82","category_name":"东北菜","address":"虹口区乍浦路106号(近海宁路)"},{"poiid":"B2094757D065AAFB479D","title":"丁香饭店","lon":"121.48778","lat":"31.24677","category":"76","category_name":"上海菜","address":"虹口区乍浦路78号(近天潼路)"},{"poiid":"B2094655D265ABFC4798","title":"河滨豪园","lon":"121.487","lat":"31.2469","category":"47","category_name":"住宅区","address":"上海市闸北区北苏州路668号"},{"poiid":"B2094757D06AAAFB479E","title":"记子老鸭粉丝汤馆","lon":"121.48499","lat":"31.24681","category":"68","category_name":"快餐厅","address":"虹口区武昌路556号(近四川北路)"},{"poiid":"B2094757D16BA4F8429E","title":"昆山路","lon":"121.486617103","lat":"31.2496669886","category":"500","category_name":"未知分类","address":"上海昆山路214号"},{"poiid":"B2094753D26CA5F4409A","title":"江边城外烤鱼","lon":"121.487529","lat":"31.247777","category":"247","category_name":"餐饮美食","address":"上海市 五角场百联又一城"},{"poiid":"B2094757D56EA2FB419E","title":"辉煌海鲜捞","lon":"121.48825564213","lat":"31.247010228679","category":"247","category_name":"餐饮美食","address":"虹口区黄浦路128号"},{"poiid":"B2094757DB6CA3F9489B","title":"如家快捷酒店（上海外滩外白渡桥四川北路店）","lon":"121.485381424","lat":"31.248119475","category":"216","category_name":"经济型连锁酒店","address":"上海市虹口区四川北路818号"},{"poiid":"B2094757D66AABFF409B","title":"红郎阁烤肉店 乍浦路店","lon":"121.4868","lat":"31.24971","category":"68","category_name":"快餐厅","address":"虹口区乍浦路321号(近昆山路)"},{"poiid":"B2094654DB6BABFC4692","title":"屈臣氏","lon":"121.48538","lat":"31.24752","category":"118","category_name":"超级市场","address":"虹口区四川北路810号(塘沽路口)"},{"poiid":"B2094654DA6FA6FE489E","title":"重庆鸡公煲乍浦店","lon":"121.4875","lat":"31.24655","category":"71","category_name":"四川菜","address":"虹口区北海宁路64号104室(近乍浦路)"},{"poiid":"B2094751D26BA6F9409C","title":"地铁4号线大连路","lon":"121.4894929276499","lat":"31.24837257002929","category":"500","category_name":"未知分类","address":null},{"poiid":"B2094757D16AA3FF429E","title":"金米萝","lon":"121.48757173","lat":"31.24666965","category":"500","category_name":"未知分类","address":"上海虹口区乍浦路"},{"poiid":"B2094655D26FA0FA469E","title":"上海市海南中学","lon":"121.48606","lat":"31.24855","category":"55","category_name":"中学","address":"塘沽路484号"},{"poiid":"B2094757D165A1F4469E","title":"肯德基KFC 虹桥火车站店","lon":"121.488975403","lat":"31.2485611655","category":"500","category_name":"未知分类","address":"上海虹桥火车站B1"},{"poiid":"B2094757D068A1FC4799","title":"上海市中心图书馆虹口分馆","lon":"121.48756","lat":"31.24863","category":"181","category_name":"图书馆","address":"上海虹口区乍浦路245号(近昆山路)"},{"poiid":"B2094757D469A7FE489D","title":"真味馆","lon":"121.487735","lat":"31.249721","category":"68","category_name":"快餐厅","address":"虹口区昆山路181号(近乍浦路)"},{"poiid":"B2094655D26BA2F4409E","title":"四川北路武昌路","lon":"121.48536","lat":"31.24678","category":"38","category_name":"公交车站","address":""}]