[{"poiid":"B2094757D06FA3F84792","title":"上海第一家香吧岛龙虾(寿宁路总店)","lon":"121.48265","lat":"31.22375","category":"68","category_name":"快餐厅","address":"卢湾区寿宁路20-24号(近西藏南路)"},{"poiid":"B2094757D66FA6FB429F","title":"长寿面馆乡吧岛香辣小龙虾(寿宁路分店)","lon":"121.48253","lat":"31.22377","category":"257","category_name":"中餐厅","address":"卢湾区寿宁路23号、35号(近西藏南路)"},{"poiid":"B2094757D069AAF8499C","title":"城皇庙九曲桥","lon":"121.48767571","lat":"31.22413437","category":"250","category_name":"公园户外","address":"上海城皇庙内"},{"poiid":"B2094753D76FAAFA449C","title":"上海滩国泰旗舰店","lon":"121.466011","lat":"31.216125","category":"249","category_name":"购物服务","address":"淮海中路868号"},{"poiid":"B209475CD564A7F84292","title":"上海滩新天地店","lon":"121.47463","lat":"31.22164","category":"119","category_name":"商场","address":"\"太仓路181弄新天地北里15号\r\n\""},{"poiid":"B209475CD564A7F8439E","title":"上海滩中信泰富店","lon":"121.45602","lat":"31.22851","category":"119","category_name":"商场","address":"\"南京西路1168号中信泰富广场，店铺号221.\r\n\""},{"poiid":"B209475CD564A7F84392","title":"上海滩浦东香格里拉店","lon":"121.50058","lat":"31.23634","category":"119","category_name":"商场","address":"浦东富成路33号香格里拉酒店内大堂层"},{"poiid":"B2094750DA6FA1FC469C","title":"上海虹桥火车站","lon":"121.486068","lat":"31.225217","category":"500","category_name":"未知分类","address":null},{"poiid":"B2094757D068ABFF4592","title":"白云观","lon":"121.4838714","lat":"31.2246919829","category":"246","category_name":"回教寺","address":"黄浦区大境路239号(近青莲街)"},{"poiid":"B2094757D068A2FB409F","title":"寿宁路烧烤摊","lon":"121.48309","lat":"31.22394","category":"68","category_name":"快餐厅","address":"黄浦区寿宁路(人民路口)"},{"poiid":"B2094757D06FA3FE499D","title":"松屋 西藏南路店","lon":"121.481204","lat":"31.224029","category":"95","category_name":"日本料理","address":"黄浦区西藏南路279号弘基西门町(近淮海中路)"},{"poiid":"B2094655D26FA1FE479A","title":"太阳都市花园","lon":"121.4887","lat":"31.22276","category":"47","category_name":"住宅区","address":"河南南路398弄1-4号"},{"poiid":"B2094757D164A0FB4199","title":"南外滩","lon":"121.487013338","lat":"31.2261241126","category":"500","category_name":"未知分类","address":"上海中山东路"},{"poiid":"B2094753D76DA0FA4292","title":"K歌之王","lon":"121.487571","lat":"31.223407","category":"247","category_name":"餐饮美食","address":"上海市 金陵东路569号5楼"},{"poiid":"B2094757D068A3FA4692","title":"申能国际大厦","lon":"121.489","lat":"31.2239","category":"46","category_name":"楼宇","address":"丰台学城海鹰路1号,3号"},{"poiid":"B2094757D06FAAF9439A","title":"GUCCI(时代广场店)","lon":"121.484517","lat":"31.225729","category":"141","category_name":"服装鞋帽皮具店","address":"卢湾区淮海中路99号大上海时代广场大上海时代广场"},{"poiid":"B2094757D16CABFD469A","title":"自由港淮海店","lon":"121.482952738","lat":"31.2253571962","category":"500","category_name":"未知分类","address":"上海淮海路"},{"poiid":"B2094757D465A4F44798","title":"华哥龙虾烤鱼坊","lon":"121.482833054","lat":"31.224111793","category":"247","category_name":"餐饮美食","address":"寿宁路12号近人民路"},{"poiid":"B2094757D069A3F9429D","title":"人民路","lon":"121.483271","lat":"31.225704","category":"500","category_name":"未知分类","address":"上海人民路"},{"poiid":"B209475CD26BA2FC4998","title":"80后烤吧","lon":"121.484519","lat":"31.224714","category":"247","category_name":"餐饮美食","address":"上海市 亚龙广场"},{"poiid":"B2094757D06AAAFD409F","title":"方浜路夜排档","lon":"121.48544973","lat":"31.223300152","category":"247","category_name":"餐饮美食","address":"上海市人民路方浜路"},{"poiid":"B2094757D06FA2FF449B","title":"元利香辣蟹(亚龙广场店)","lon":"121.47998","lat":"31.22672","category":"71","category_name":"四川菜","address":"黄浦区金陵东路500号亚龙国际广场3楼301号商铺(近西藏南路)"},{"poiid":"B209475CD565A5FA429A","title":"80后烤吧","lon":"121.484397","lat":"31.224946","category":"247","category_name":"餐饮美食","address":"上海市 金陵中路500号亚龙国际广场3楼"},{"poiid":"B2094752D06EA2FC429F","title":"新天地时尚","lon":"121.485703","lat":"31.223812","category":"248","category_name":"生活娱乐","address":"新天地"},{"poiid":"B2094750DA64A5FF449F","title":"上海东方艺术中心","lon":"121.487915","lat":"31.222635","category":"500","category_name":"未知分类","address":null},{"poiid":"B2094753D665A6F4409A","title":"星怡會","lon":"121.48281","lat":"31.223274","category":"500","category_name":"未知分类","address":"上海市 上海無限度廣場2樓"},{"poiid":"B2094654DA6EA5FC479B","title":"老广东菜馆 寿宁店","lon":"121.48290379018","lat":"31.223858586579","category":"76","category_name":"上海菜","address":"黄浦区人民路924号(寿宁路口)"},{"poiid":"B2094750DA6BA4F5459E","title":"老西门","lon":"121.483703","lat":"31.224035","category":"627","category_name":"一般地点标志","address":"地铁老西门站"},{"poiid":"B2094750DB6EA6F54999","title":"美罗城","lon":"121.486221","lat":"31.223758","category":"249","category_name":"购物服务","address":"徐汇区肇嘉浜路1111号"},{"poiid":"B2094757D169A5FF489C","title":"重庆小天鹅火锅","lon":"121.48479673","lat":"31.22649922","category":"500","category_name":"未知分类","address":"上海市黄浦区云南南路"},{"poiid":"B2094654DB69A6F94893","title":"翠湖天地雅苑","lon":"121.48524103756","lat":"31.224243032072","category":"47","category_name":"住宅区","address":"卢湾区自忠路263号"},{"poiid":"B2094757D468A6FC4999","title":"西北郎烧烤 寿宁路店","lon":"121.482659054","lat":"31.223880793","category":"68","category_name":"快餐厅","address":"卢湾区寿宁路5号(近云南路)"},{"poiid":"B2094753D26CABFB4398","title":"金茂大厦","lon":"121.485226","lat":"31.224728","category":"252","category_name":"楼宇机构","address":"上海市 上海"},{"poiid":"B2094655D26FA5FF4399","title":"佳日公寓","lon":"121.48738","lat":"31.224913","category":"47","category_name":"住宅区","address":"上海市黄浦区河南南路260号(近大境路)"},{"poiid":"B209475DD668A2FC4792","title":"上尚签成都特色料理","lon":"121.486267","lat":"31.223712","category":"247","category_name":"餐饮美食","address":"淮海东路99号（新尚数码广场507）"},{"poiid":"B209475CD56EA1F4499F","title":"连卡佛LaneCrawford","lon":"121.482719","lat":"31.223199","category":"249","category_name":"购物服务","address":"上海市 淮海中路93号"},{"poiid":"B209475DD16EA7FD459A","title":"很久以前只是家串店","lon":"121.485862","lat":"31.224849","category":"247","category_name":"餐饮美食","address":"上海市 云南南路180号"},{"poiid":"B2094654DB6BA4F94092","title":"光明新鲜屋(露香园路)","lon":"121.48567","lat":"31.22451","category":"117","category_name":"便民商店/便利店","address":""},{"poiid":"B2094454D264A4FD469C","title":"很久以前只是家串店","lon":"121.485931","lat":"31.224838","category":"247","category_name":"餐饮美食","address":"上海市 云南南路184号"},{"poiid":"B2094757D16DA7FC459A","title":"壽寧路18號自家小龍蝦店","lon":"121.48472573","lat":"31.225216193","category":"500","category_name":"未知分类","address":"上海黄浦区壽寧路18號"},{"poiid":"B2094750D76EA0F8499E","title":"日式碳火烧烤","lon":"121.487","lat":"31.2234","category":"68","category_name":"快餐厅","address":"黄浦区河南南路松雪街66弄(近太阳都市花园)"},{"poiid":"B2094750D26FA5FC449E","title":"寿宁路龙虾街","lon":"121.483604","lat":"31.225391","category":"247","category_name":"餐饮美食","address":"黄浦区寿宁路9号"},{"poiid":"B2094757D568ABFC449F","title":"神牛广场","lon":"121.4850269","lat":"31.22373778","category":"46","category_name":"楼宇","address":"河南南路398弄3号"},{"poiid":"B2094753D569ABFC419E","title":"99渡巫山烤全鱼","lon":"121.485588","lat":"31.223115","category":"247","category_name":"餐饮美食","address":"上海市 黄浦区淮海东路99号"},{"poiid":"B209475CDB6FA7F94499","title":"梅賽德斯奔馳文化中心","lon":"121.485687","lat":"31.223163","category":"500","category_name":"未知分类","address":"上海市 世博園區"},{"poiid":"B2094757D16EA0F4429C","title":"彭浦第一炸(寿宁路店)","lon":"121.483581738","lat":"31.2253271956","category":"68","category_name":"快餐厅","address":"黄浦区寿宁路13号(近西藏南路)"},{"poiid":"B2094753DB65ABFC4199","title":"k歌之王","lon":"121.484115","lat":"31.224708","category":"247","category_name":"餐饮美食","address":"上海市 西藏南路金陵路(近淮海路)"},{"poiid":"B2094757D16CABFD409D","title":"上海市实验小学","lon":"121.48602","lat":"31.22351","category":"500","category_name":"未知分类","address":"黄浦区露香园路242号(露香园路万竹街)"},{"poiid":"B2094753D668A4FE499E","title":"CLUB S2","lon":"121.483741","lat":"31.225388","category":"500","category_name":"未知分类","address":"上海市 淮海路1号柳林大厦6楼"},{"poiid":"B2094757D16AA1FB449F","title":"味千拉面淮海东路店","lon":"121.48451995","lat":"31.223451614","category":"500","category_name":"未知分类","address":"上海淮海东路99号"},{"poiid":"B2094757D06FA3F84792","title":"上海第一家香吧岛龙虾(寿宁路总店)","lon":"121.48265","lat":"31.22375","category":"68","category_name":"快餐厅","address":"卢湾区寿宁路20-24号(近西藏南路)"},{"poiid":"B2094757D66FA6FB429F","title":"长寿面馆乡吧岛香辣小龙虾(寿宁路分店)","lon":"121.48253","lat":"31.22377","category":"257","category_name":"中餐厅","address":"卢湾区寿宁路23号、35号(近西藏南路)"},{"poiid":"B2094757D069AAF8499C","title":"城皇庙九曲桥","lon":"121.48767571","lat":"31.22413437","category":"250","category_name":"公园户外","address":"上海城皇庙内"},{"poiid":"B2094753D76FAAFA449C","title":"上海滩国泰旗舰店","lon":"121.466011","lat":"31.216125","category":"249","category_name":"购物服务","address":"淮海中路868号"},{"poiid":"B209475CD564A7F84292","title":"上海滩新天地店","lon":"121.47463","lat":"31.22164","category":"119","category_name":"商场","address":"\"太仓路181弄新天地北里15号\r\n\""},{"poiid":"B209475CD564A7F8439E","title":"上海滩中信泰富店","lon":"121.45602","lat":"31.22851","category":"119","category_name":"商场","address":"\"南京西路1168号中信泰富广场，店铺号221.\r\n\""},{"poiid":"B209475CD564A7F84392","title":"上海滩浦东香格里拉店","lon":"121.50058","lat":"31.23634","category":"119","category_name":"商场","address":"浦东富成路33号香格里拉酒店内大堂层"},{"poiid":"B2094750DA6FA1FC469C","title":"上海虹桥火车站","lon":"121.486068","lat":"31.225217","category":"500","category_name":"未知分类","address":null},{"poiid":"B2094757D068ABFF4592","title":"白云观","lon":"121.4838714","lat":"31.2246919829","category":"246","category_name":"回教寺","address":"黄浦区大境路239号(近青莲街)"},{"poiid":"B2094757D068A2FB409F","title":"寿宁路烧烤摊","lon":"121.48309","lat":"31.22394","category":"68","category_name":"快餐厅","address":"黄浦区寿宁路(人民路口)"},{"poiid":"B2094757D06FA3FE499D","title":"松屋 西藏南路店","lon":"121.481204","lat":"31.224029","category":"95","category_name":"日本料理","address":"黄浦区西藏南路279号弘基西门町(近淮海中路)"},{"poiid":"B2094655D26FA1FE479A","title":"太阳都市花园","lon":"121.4887","lat":"31.22276","category":"47","category_name":"住宅区","address":"河南南路398弄1-4号"},{"poiid":"B2094757D164A0FB4199","title":"南外滩","lon":"121.487013338","lat":"31.2261241126","category":"500","category_name":"未知分类","address":"上海中山东路"},{"poiid":"B2094753D76DA0FA4292","title":"K歌之王","lon":"121.487571","lat":"31.223407","category":"247","category_name":"餐饮美食","address":"上海市 金陵东路569号5楼"},{"poiid":"B2094757D068A3FA4692","title":"申能国际大厦","lon":"121.489","lat":"31.2239","category":"46","category_name":"楼宇","address":"丰台学城海鹰路1号,3号"},{"poiid":"B2094757D06FAAF9439A","title":"GUCCI(时代广场店)","lon":"121.484517","lat":"31.225729","category":"141","category_name":"服装鞋帽皮具店","address":"卢湾区淮海中路99号大上海时代广场大上海时代广场"},{"poiid":"B2094757D16CABFD469A","title":"自由港淮海店","lon":"121.482952738","lat":"31.2253571962","category":"500","category_name":"未知分类","address":"上海淮海路"},{"poiid":"B2094757D465A4F44798","title":"华哥龙虾烤鱼坊","lon":"121.482833054","lat":"31.224111793","category":"247","category_name":"餐饮美食","address":"寿宁路12号近人民路"},{"poiid":"B2094757D069A3F9429D","title":"人民路","lon":"121.483271","lat":"31.225704","category":"500","category_name":"未知分类","address":"上海人民路"},{"poiid":"B209475CD26BA2FC4998","title":"80后烤吧","lon":"121.484519","lat":"31.224714","category":"247","category_name":"餐饮美食","address":"上海市 亚龙广场"},{"poiid":"B2094757D06AAAFD409F","title":"方浜路夜排档","lon":"121.48544973","lat":"31.223300152","category":"247","category_name":"餐饮美食","address":"上海市人民路方浜路"},{"poiid":"B2094757D06FA2FF449B","title":"元利香辣蟹(亚龙广场店)","lon":"121.47998","lat":"31.22672","category":"71","category_name":"四川菜","address":"黄浦区金陵东路500号亚龙国际广场3楼301号商铺(近西藏南路)"},{"poiid":"B209475CD565A5FA429A","title":"80后烤吧","lon":"121.484397","lat":"31.224946","category":"247","category_name":"餐饮美食","address":"上海市 金陵中路500号亚龙国际广场3楼"},{"poiid":"B2094752D06EA2FC429F","title":"新天地时尚","lon":"121.485703","lat":"31.223812","category":"248","category_name":"生活娱乐","address":"新天地"},{"poiid":"B2094750DA64A5FF449F","title":"上海东方艺术中心","lon":"121.487915","lat":"31.222635","category":"500","category_name":"未知分类","address":null},{"poiid":"B2094753D665A6F4409A","title":"星怡會","lon":"121.48281","lat":"31.223274","category":"500","category_name":"未知分类","address":"上海市 上海無限度廣場2樓"},{"poiid":"B2094654DA6EA5FC479B","title":"老广东菜馆 寿宁店","lon":"121.48290379018","lat":"31.223858586579","category":"76","category_name":"上海菜","address":"黄浦区人民路924号(寿宁路口)"},{"poiid":"B2094750DA6BA4F5459E","title":"老西门","lon":"121.483703","lat":"31.224035","category":"627","category_name":"一般地点标志","address":"地铁老西门站"},{"poiid":"B2094750DB6EA6F54999","title":"美罗城","lon":"121.486221","lat":"31.223758","category":"249","category_name":"购物服务","address":"徐汇区肇嘉浜路1111号"},{"poiid":"B2094757D169A5FF489C","title":"重庆小天鹅火锅","lon":"121.48479673","lat":"31.22649922","category":"500","category_name":"未知分类","address":"上海市黄浦区云南南路"},{"poiid":"B2094654DB69A6F94893","title":"翠湖天地雅苑","lon":"121.48524103756","lat":"31.224243032072","category":"47","category_name":"住宅区","address":"卢湾区自忠路263号"},{"poiid":"B2094757D468A6FC4999","title":"西北郎烧烤 寿宁路店","lon":"121.482659054","lat":"31.223880793","category":"68","category_name":"快餐厅","address":"卢湾区寿宁路5号(近云南路)"},{"poiid":"B2094753D26CABFB4398","title":"金茂大厦","lon":"121.485226","lat":"31.224728","category":"252","category_name":"楼宇机构","address":"上海市 上海"},{"poiid":"B2094655D26FA5FF4399","title":"佳日公寓","lon":"121.48738","lat":"31.224913","category":"47","category_name":"住宅区","address":"上海市黄浦区河南南路260号(近大境路)"},{"poiid":"B209475DD668A2FC4792","title":"上尚签成都特色料理","lon":"121.486267","lat":"31.223712","category":"247","category_name":"餐饮美食","address":"淮海东路99号（新尚数码广场507）"},{"poiid":"B209475CD56EA1F4499F","title":"连卡佛LaneCrawford","lon":"121.482719","lat":"31.223199","category":"249","category_name":"购物服务","address":"上海市 淮海中路93号"},{"poiid":"B209475DD16EA7FD459A","title":"很久以前只是家串店","lon":"121.485862","lat":"31.224849","category":"247","category_name":"餐饮美食","address":"上海市 云南南路180号"},{"poiid":"B2094654DB6BA4F94092","title":"光明新鲜屋(露香园路)","lon":"121.48567","lat":"31.22451","category":"117","category_name":"便民商店/便利店","address":""},{"poiid":"B2094454D264A4FD469C","title":"很久以前只是家串店","lon":"121.485931","lat":"31.224838","category":"247","category_name":"餐饮美食","address":"上海市 云南南路184号"},{"poiid":"B2094757D16DA7FC459A","title":"壽寧路18號自家小龍蝦店","lon":"121.48472573","lat":"31.225216193","category":"500","category_name":"未知分类","address":"上海黄浦区壽寧路18號"},{"poiid":"B2094750D76EA0F8499E","title":"日式碳火烧烤","lon":"121.487","lat":"31.2234","category":"68","category_name":"快餐厅","address":"黄浦区河南南路松雪街66弄(近太阳都市花园)"},{"poiid":"B2094750D26FA5FC449E","title":"寿宁路龙虾街","lon":"121.483604","lat":"31.225391","category":"247","category_name":"餐饮美食","address":"黄浦区寿宁路9号"},{"poiid":"B2094757D568ABFC449F","title":"神牛广场","lon":"121.4850269","lat":"31.22373778","category":"46","category_name":"楼宇","address":"河南南路398弄3号"},{"poiid":"B2094753D569ABFC419E","title":"99渡巫山烤全鱼","lon":"121.485588","lat":"31.223115","category":"247","category_name":"餐饮美食","address":"上海市 黄浦区淮海东路99号"},{"poiid":"B209475CDB6FA7F94499","title":"梅賽德斯奔馳文化中心","lon":"121.485687","lat":"31.223163","category":"500","category_name":"未知分类","address":"上海市 世博園區"},{"poiid":"B2094757D16EA0F4429C","title":"彭浦第一炸(寿宁路店)","lon":"121.483581738","lat":"31.2253271956","category":"68","category_name":"快餐厅","address":"黄浦区寿宁路13号(近西藏南路)"},{"poiid":"B2094753DB65ABFC4199","title":"k歌之王","lon":"121.484115","lat":"31.224708","category":"247","category_name":"餐饮美食","address":"上海市 西藏南路金陵路(近淮海路)"},{"poiid":"B2094757D16CABFD409D","title":"上海市实验小学","lon":"121.48602","lat":"31.22351","category":"500","category_name":"未知分类","address":"黄浦区露香园路242号(露香园路万竹街)"},{"poiid":"B2094753D668A4FE499E","title":"CLUB S2","lon":"121.483741","lat":"31.225388","category":"500","category_name":"未知分类","address":"上海市 淮海路1号柳林大厦6楼"},{"poiid":"B2094757D16AA1FB449F","title":"味千拉面淮海东路店","lon":"121.48451995","lat":"31.223451614","category":"500","category_name":"未知分类","address":"上海淮海东路99号"},{"poiid":"B2094757D06FA3F84792","title":"上海第一家香吧岛龙虾(寿宁路总店)","lon":"121.48265","lat":"31.22375","category":"68","category_name":"快餐厅","address":"卢湾区寿宁路20-24号(近西藏南路)"},{"poiid":"B2094757D66FA6FB429F","title":"长寿面馆乡吧岛香辣小龙虾(寿宁路分店)","lon":"121.48253","lat":"31.22377","category":"257","category_name":"中餐厅","address":"卢湾区寿宁路23号、35号(近西藏南路)"},{"poiid":"B2094757D069AAF8499C","title":"城皇庙九曲桥","lon":"121.48767571","lat":"31.22413437","category":"250","category_name":"公园户外","address":"上海城皇庙内"},{"poiid":"B2094753D76FAAFA449C","title":"上海滩国泰旗舰店","lon":"121.466011","lat":"31.216125","category":"249","category_name":"购物服务","address":"淮海中路868号"},{"poiid":"B209475CD564A7F84292","title":"上海滩新天地店","lon":"121.47463","lat":"31.22164","category":"119","category_name":"商场","address":"\"太仓路181弄新天地北里15号\r\n\""},{"poiid":"B209475CD564A7F8439E","title":"上海滩中信泰富店","lon":"121.45602","lat":"31.22851","category":"119","category_name":"商场","address":"\"南京西路1168号中信泰富广场，店铺号221.\r\n\""},{"poiid":"B209475CD564A7F84392","title":"上海滩浦东香格里拉店","lon":"121.50058","lat":"31.23634","category":"119","category_name":"商场","address":"浦东富成路33号香格里拉酒店内大堂层"},{"poiid":"B2094750DA6FA1FC469C","title":"上海虹桥火车站","lon":"121.486068","lat":"31.225217","category":"500","category_name":"未知分类","address":null},{"poiid":"B2094757D068ABFF4592","title":"白云观","lon":"121.4838714","lat":"31.2246919829","category":"246","category_name":"回教寺","address":"黄浦区大境路239号(近青莲街)"},{"poiid":"B2094757D068A2FB409F","title":"寿宁路烧烤摊","lon":"121.48309","lat":"31.22394","category":"68","category_name":"快餐厅","address":"黄浦区寿宁路(人民路口)"},{"poiid":"B2094757D06FA3FE499D","title":"松屋 西藏南路店","lon":"121.481204","lat":"31.224029","category":"95","category_name":"日本料理","address":"黄浦区西藏南路279号弘基西门町(近淮海中路)"},{"poiid":"B2094655D26FA1FE479A","title":"太阳都市花园","lon":"121.4887","lat":"31.22276","category":"47","category_name":"住宅区","address":"河南南路398弄1-4号"},{"poiid":"B2094757D164A0FB4199","title":"南外滩","lon":"121.487013338","lat":"31.2261241126","category":"500","category_name":"未知分类","address":"上海中山东路"},{"poiid":"B2094753D76DA0FA4292","title":"K歌之王","lon":"121.487571","lat":"31.223407","category":"247","category_name":"餐饮美食","address":"上海市 金陵东路569号5楼"},{"poiid":"B2094757D068A3FA4692","title":"申能国际大厦","lon":"121.489","lat":"31.2239","category":"46","category_name":"楼宇","address":"丰台学城海鹰路1号,3号"},{"poiid":"B2094757D06FAAF9439A","title":"GUCCI(时代广场店)","lon":"121.484517","lat":"31.225729","category":"141","category_name":"服装鞋帽皮具店","address":"卢湾区淮海中路99号大上海时代广场大上海时代广场"},{"poiid":"B2094757D16CABFD469A","title":"自由港淮海店","lon":"121.482952738","lat":"31.2253571962","category":"500","category_name":"未知分类","address":"上海淮海路"},{"poiid":"B2094757D465A4F44798","title":"华哥龙虾烤鱼坊","lon":"121.482833054","lat":"31.224111793","category":"247","category_name":"餐饮美食","address":"寿宁路12号近人民路"},{"poiid":"B2094757D069A3F9429D","title":"人民路","lon":"121.483271","lat":"31.225704","category":"500","category_name":"未知分类","address":"上海人民路"},{"poiid":"B209475CD26BA2FC4998","title":"80后烤吧","lon":"121.484519","lat":"31.224714","category":"247","category_name":"餐饮美食","address":"上海市 亚龙广场"},{"poiid":"B2094757D06AAAFD409F","title":"方浜路夜排档","lon":"121.48544973","lat":"31.223300152","category":"247","category_name":"餐饮美食","address":"上海市人民路方浜路"},{"poiid":"B2094757D06FA2FF449B","title":"元利香辣蟹(亚龙广场店)","lon":"121.47998","lat":"31.22672","category":"71","category_name":"四川菜","address":"黄浦区金陵东路500号亚龙国际广场3楼301号商铺(近西藏南路)"},{"poiid":"B209475CD565A5FA429A","title":"80后烤吧","lon":"121.484397","lat":"31.224946","category":"247","category_name":"餐饮美食","address":"上海市 金陵中路500号亚龙国际广场3楼"},{"poiid":"B2094752D06EA2FC429F","title":"新天地时尚","lon":"121.485703","lat":"31.223812","category":"248","category_name":"生活娱乐","address":"新天地"},{"poiid":"B2094750DA64A5FF449F","title":"上海东方艺术中心","lon":"121.487915","lat":"31.222635","category":"500","category_name":"未知分类","address":null},{"poiid":"B2094753D665A6F4409A","title":"星怡會","lon":"121.48281","lat":"31.223274","category":"500","category_name":"未知分类","address":"上海市 上海無限度廣場2樓"},{"poiid":"B2094654DA6EA5FC479B","title":"老广东菜馆 寿宁店","lon":"121.48290379018","lat":"31.223858586579","category":"76","category_name":"上海菜","address":"黄浦区人民路924号(寿宁路口)"},{"poiid":"B2094750DA6BA4F5459E","title":"老西门","lon":"121.483703","lat":"31.224035","category":"627","category_name":"一般地点标志","address":"地铁老西门站"},{"poiid":"B2094750DB6EA6F54999","title":"美罗城","lon":"121.486221","lat":"31.223758","category":"249","category_name":"购物服务","address":"徐汇区肇嘉浜路1111号"},{"poiid":"B2094757D169A5FF489C","title":"重庆小天鹅火锅","lon":"121.48479673","lat":"31.22649922","category":"500","category_name":"未知分类","address":"上海市黄浦区云南南路"},{"poiid":"B2094654DB69A6F94893","title":"翠湖天地雅苑","lon":"121.48524103756","lat":"31.224243032072","category":"47","category_name":"住宅区","address":"卢湾区自忠路263号"},{"poiid":"B2094757D468A6FC4999","title":"西北郎烧烤 寿宁路店","lon":"121.482659054","lat":"31.223880793","category":"68","category_name":"快餐厅","address":"卢湾区寿宁路5号(近云南路)"},{"poiid":"B2094753D26CABFB4398","title":"金茂大厦","lon":"121.485226","lat":"31.224728","category":"252","category_name":"楼宇机构","address":"上海市 上海"},{"poiid":"B2094655D26FA5FF4399","title":"佳日公寓","lon":"121.48738","lat":"31.224913","category":"47","category_name":"住宅区","address":"上海市黄浦区河南南路260号(近大境路)"},{"poiid":"B209475DD668A2FC4792","title":"上尚签成都特色料理","lon":"121.486267","lat":"31.223712","category":"247","category_name":"餐饮美食","address":"淮海东路99号（新尚数码广场507）"},{"poiid":"B209475CD56EA1F4499F","title":"连卡佛LaneCrawford","lon":"121.482719","lat":"31.223199","category":"249","category_name":"购物服务","address":"上海市 淮海中路93号"},{"poiid":"B209475DD16EA7FD459A","title":"很久以前只是家串店","lon":"121.485862","lat":"31.224849","category":"247","category_name":"餐饮美食","address":"上海市 云南南路180号"},{"poiid":"B2094654DB6BA4F94092","title":"光明新鲜屋(露香园路)","lon":"121.48567","lat":"31.22451","category":"117","category_name":"便民商店/便利店","address":""},{"poiid":"B2094454D264A4FD469C","title":"很久以前只是家串店","lon":"121.485931","lat":"31.224838","category":"247","category_name":"餐饮美食","address":"上海市 云南南路184号"},{"poiid":"B2094757D16DA7FC459A","title":"壽寧路18號自家小龍蝦店","lon":"121.48472573","lat":"31.225216193","category":"500","category_name":"未知分类","address":"上海黄浦区壽寧路18號"},{"poiid":"B2094750D76EA0F8499E","title":"日式碳火烧烤","lon":"121.487","lat":"31.2234","category":"68","category_name":"快餐厅","address":"黄浦区河南南路松雪街66弄(近太阳都市花园)"},{"poiid":"B2094750D26FA5FC449E","title":"寿宁路龙虾街","lon":"121.483604","lat":"31.225391","category":"247","category_name":"餐饮美食","address":"黄浦区寿宁路9号"},{"poiid":"B2094757D568ABFC449F","title":"神牛广场","lon":"121.4850269","lat":"31.22373778","category":"46","category_name":"楼宇","address":"河南南路398弄3号"},{"poiid":"B2094753D569ABFC419E","title":"99渡巫山烤全鱼","lon":"121.485588","lat":"31.223115","category":"247","category_name":"餐饮美食","address":"上海市 黄浦区淮海东路99号"},{"poiid":"B209475CDB6FA7F94499","title":"梅賽德斯奔馳文化中心","lon":"121.485687","lat":"31.223163","category":"500","category_name":"未知分类","address":"上海市 世博園區"},{"poiid":"B2094757D16EA0F4429C","title":"彭浦第一炸(寿宁路店)","lon":"121.483581738","lat":"31.2253271956","category":"68","category_name":"快餐厅","address":"黄浦区寿宁路13号(近西藏南路)"},{"poiid":"B2094753DB65ABFC4199","title":"k歌之王","lon":"121.484115","lat":"31.224708","category":"247","category_name":"餐饮美食","address":"上海市 西藏南路金陵路(近淮海路)"},{"poiid":"B2094757D16CABFD409D","title":"上海市实验小学","lon":"121.48602","lat":"31.22351","category":"500","category_name":"未知分类","address":"黄浦区露香园路242号(露香园路万竹街)"},{"poiid":"B2094753D668A4FE499E","title":"CLUB S2","lon":"121.483741","lat":"31.225388","category":"500","category_name":"未知分类","address":"上海市 淮海路1号柳林大厦6楼"},{"poiid":"B2094757D16AA1FB449F","title":"味千拉面淮海东路店","lon":"121.48451995","lat":"31.223451614","category":"500","category_name":"未知分类","address":"上海淮海东路99号"},{"poiid":"B2094757D06FA3F84792","title":"上海第一家香吧岛龙虾(寿宁路总店)","lon":"121.48265","lat":"31.22375","category":"68","category_name":"快餐厅","address":"卢湾区寿宁路20-24号(近西藏南路)"},{"poiid":"B2094757D66FA6FB429F","title":"长寿面馆乡吧岛香辣小龙虾(寿宁路分店)","lon":"121.48253","lat":"31.22377","category":"257","category_name":"中餐厅","address":"卢湾区寿宁路23号、35号(近西藏南路)"},{"poiid":"B2094757D069AAF8499C","title":"城皇庙九曲桥","lon":"121.48767571","lat":"31.22413437","category":"250","category_name":"公园户外","address":"上海城皇庙内"},{"poiid":"B2094753D76FAAFA449C","title":"上海滩国泰旗舰店","lon":"121.466011","lat":"31.216125","category":"249","category_name":"购物服务","address":"淮海中路868号"},{"poiid":"B209475CD564A7F84292","title":"上海滩新天地店","lon":"121.47463","lat":"31.22164","category":"119","category_name":"商场","address":"\"太仓路181弄新天地北里15号\r\n\""},{"poiid":"B209475CD564A7F8439E","title":"上海滩中信泰富店","lon":"121.45602","lat":"31.22851","category":"119","category_name":"商场","address":"\"南京西路1168号中信泰富广场，店铺号221.\r\n\""},{"poiid":"B209475CD564A7F84392","title":"上海滩浦东香格里拉店","lon":"121.50058","lat":"31.23634","category":"119","category_name":"商场","address":"浦东富成路33号香格里拉酒店内大堂层"},{"poiid":"B2094750DA6FA1FC469C","title":"上海虹桥火车站","lon":"121.486068","lat":"31.225217","category":"500","category_name":"未知分类","address":null},{"poiid":"B2094757D068ABFF4592","title":"白云观","lon":"121.4838714","lat":"31.2246919829","category":"246","category_name":"回教寺","address":"黄浦区大境路239号(近青莲街)"},{"poiid":"B2094757D068A2FB409F","title":"寿宁路烧烤摊","lon":"121.48309","lat":"31.22394","category":"68","category_name":"快餐厅","address":"黄浦区寿宁路(人民路口)"},{"poiid":"B2094757D06FA3FE499D","title":"松屋 西藏南路店","lon":"121.481204","lat":"31.224029","category":"95","category_name":"日本料理","address":"黄浦区西藏南路279号弘基西门町(近淮海中路)"},{"poiid":"B2094655D26FA1FE479A","title":"太阳都市花园","lon":"121.4887","lat":"31.22276","category":"47","category_name":"住宅区","address":"河南南路398弄1-4号"},{"poiid":"B2094757D164A0FB4199","title":"南外滩","lon":"121.487013338","lat":"31.2261241126","category":"500","category_name":"未知分类","address":"上海中山东路"},{"poiid":"B2094753D76DA0FA4292","title":"K歌之王","lon":"121.487571","lat":"31.223407","category":"247","category_name":"餐饮美食","address":"上海市 金陵东路569号5楼"},{"poiid":"B2094757D068A3FA4692","title":"申能国际大厦","lon":"121.489","lat":"31.2239","category":"46","category_name":"楼宇","address":"丰台学城海鹰路1号,3号"},{"poiid":"B2094757D06FAAF9439A","title":"GUCCI(时代广场店)","lon":"121.484517","lat":"31.225729","category":"141","category_name":"服装鞋帽皮具店","address":"卢湾区淮海中路99号大上海时代广场大上海时代广场"},{"poiid":"B2094757D16CABFD469A","title":"自由港淮海店","lon":"121.482952738","lat":"31.2253571962","category":"500","category_name":"未知分类","address":"上海淮海路"},{"poiid":"B2094757D465A4F44798","title":"华哥龙虾烤鱼坊","lon":"121.482833054","lat":"31.224111793","category":"247","category_name":"餐饮美食","address":"寿宁路12号近人民路"},{"poiid":"B2094757D069A3F9429D","title":"人民路","lon":"121.483271","lat":"31.225704","category":"500","category_name":"未知分类","address":"上海人民路"},{"poiid":"B209475CD26BA2FC4998","title":"80后烤吧","lon":"121.484519","lat":"31.224714","category":"247","category_name":"餐饮美食","address":"上海市 亚龙广场"},{"poiid":"B2094757D06AAAFD409F","title":"方浜路夜排档","lon":"121.48544973","lat":"31.223300152","category":"247","category_name":"餐饮美食","address":"上海市人民路方浜路"},{"poiid":"B2094757D06FA2FF449B","title":"元利香辣蟹(亚龙广场店)","lon":"121.47998","lat":"31.22672","category":"71","category_name":"四川菜","address":"黄浦区金陵东路500号亚龙国际广场3楼301号商铺(近西藏南路)"},{"poiid":"B209475CD565A5FA429A","title":"80后烤吧","lon":"121.484397","lat":"31.224946","category":"247","category_name":"餐饮美食","address":"上海市 金陵中路500号亚龙国际广场3楼"},{"poiid":"B2094752D06EA2FC429F","title":"新天地时尚","lon":"121.485703","lat":"31.223812","category":"248","category_name":"生活娱乐","address":"新天地"},{"poiid":"B2094750DA64A5FF449F","title":"上海东方艺术中心","lon":"121.487915","lat":"31.222635","category":"500","category_name":"未知分类","address":null},{"poiid":"B2094753D665A6F4409A","title":"星怡會","lon":"121.48281","lat":"31.223274","category":"500","category_name":"未知分类","address":"上海市 上海無限度廣場2樓"},{"poiid":"B2094654DA6EA5FC479B","title":"老广东菜馆 寿宁店","lon":"121.48290379018","lat":"31.223858586579","category":"76","category_name":"上海菜","address":"黄浦区人民路924号(寿宁路口)"},{"poiid":"B2094750DA6BA4F5459E","title":"老西门","lon":"121.483703","lat":"31.224035","category":"627","category_name":"一般地点标志","address":"地铁老西门站"},{"poiid":"B2094750DB6EA6F54999","title":"美罗城","lon":"121.486221","lat":"31.223758","category":"249","category_name":"购物服务","address":"徐汇区肇嘉浜路1111号"},{"poiid":"B2094757D169A5FF489C","title":"重庆小天鹅火锅","lon":"121.48479673","lat":"31.22649922","category":"500","category_name":"未知分类","address":"上海市黄浦区云南南路"},{"poiid":"B2094654DB69A6F94893","title":"翠湖天地雅苑","lon":"121.48524103756","lat":"31.224243032072","category":"47","category_name":"住宅区","address":"卢湾区自忠路263号"},{"poiid":"B2094757D468A6FC4999","title":"西北郎烧烤 寿宁路店","lon":"121.482659054","lat":"31.223880793","category":"68","category_name":"快餐厅","address":"卢湾区寿宁路5号(近云南路)"},{"poiid":"B2094753D26CABFB4398","title":"金茂大厦","lon":"121.485226","lat":"31.224728","category":"252","category_name":"楼宇机构","address":"上海市 上海"},{"poiid":"B2094655D26FA5FF4399","title":"佳日公寓","lon":"121.48738","lat":"31.224913","category":"47","category_name":"住宅区","address":"上海市黄浦区河南南路260号(近大境路)"},{"poiid":"B209475DD668A2FC4792","title":"上尚签成都特色料理","lon":"121.486267","lat":"31.223712","category":"247","category_name":"餐饮美食","address":"淮海东路99号（新尚数码广场507）"},{"poiid":"B209475CD56EA1F4499F","title":"连卡佛LaneCrawford","lon":"121.482719","lat":"31.223199","category":"249","category_name":"购物服务","address":"上海市 淮海中路93号"},{"poiid":"B209475DD16EA7FD459A","title":"很久以前只是家串店","lon":"121.485862","lat":"31.224849","category":"247","category_name":"餐饮美食","address":"上海市 云南南路180号"},{"poiid":"B2094654DB6BA4F94092","title":"光明新鲜屋(露香园路)","lon":"121.48567","lat":"31.22451","category":"117","category_name":"便民商店/便利店","address":""},{"poiid":"B2094454D264A4FD469C","title":"很久以前只是家串店","lon":"121.485931","lat":"31.224838","category":"247","category_name":"餐饮美食","address":"上海市 云南南路184号"},{"poiid":"B2094757D16DA7FC459A","title":"壽寧路18號自家小龍蝦店","lon":"121.48472573","lat":"31.225216193","category":"500","category_name":"未知分类","address":"上海黄浦区壽寧路18號"},{"poiid":"B2094750D76EA0F8499E","title":"日式碳火烧烤","lon":"121.487","lat":"31.2234","category":"68","category_name":"快餐厅","address":"黄浦区河南南路松雪街66弄(近太阳都市花园)"},{"poiid":"B2094750D26FA5FC449E","title":"寿宁路龙虾街","lon":"121.483604","lat":"31.225391","category":"247","category_name":"餐饮美食","address":"黄浦区寿宁路9号"},{"poiid":"B2094757D568ABFC449F","title":"神牛广场","lon":"121.4850269","lat":"31.22373778","category":"46","category_name":"楼宇","address":"河南南路398弄3号"},{"poiid":"B2094753D569ABFC419E","title":"99渡巫山烤全鱼","lon":"121.485588","lat":"31.223115","category":"247","category_name":"餐饮美食","address":"上海市 黄浦区淮海东路99号"},{"poiid":"B209475CDB6FA7F94499","title":"梅賽德斯奔馳文化中心","lon":"121.485687","lat":"31.223163","category":"500","category_name":"未知分类","address":"上海市 世博園區"},{"poiid":"B2094757D16EA0F4429C","title":"彭浦第一炸(寿宁路店)","lon":"121.483581738","lat":"31.2253271956","category":"68","category_name":"快餐厅","address":"黄浦区寿宁路13号(近西藏南路)"},{"poiid":"B2094753DB65ABFC4199","title":"k歌之王","lon":"121.484115","lat":"31.224708","category":"247","category_name":"餐饮美食","address":"上海市 西藏南路金陵路(近淮海路)"},{"poiid":"B2094757D16CABFD409D","title":"上海市实验小学","lon":"121.48602","lat":"31.22351","category":"500","category_name":"未知分类","address":"黄浦区露香园路242号(露香园路万竹街)"},{"poiid":"B2094753D668A4FE499E","title":"CLUB S2","lon":"121.483741","lat":"31.225388","category":"500","category_name":"未知分类","address":"上海市 淮海路1号柳林大厦6楼"},{"poiid":"B2094757D16AA1FB449F","title":"味千拉面淮海东路店","lon":"121.48451995","lat":"31.223451614","category":"500","category_name":"未知分类","address":"上海淮海东路99号"}]