[{"poiid":"B2094654D56EA3FB469A","title":"海泰时代大厦","lon":"121.492","lat":"31.2576","category":"46","category_name":"楼宇","address":"丰台学城海鹰路1号,3号"},{"poiid":"B2094757D06FA3F8409E","title":"森林湾大厦","lon":"121.494","lat":"31.2562","category":"46","category_name":"楼宇","address":"铁西卫工南街8―5号"},{"poiid":"B2094757D06FA5FE4793","title":"周家嘴路新建路","lon":"121.496022","lat":"31.255533","category":"260","category_name":"其他","address":"上海周家嘴路新建路,海伦路"},{"poiid":"B209475CD564A7F84392","title":"上海滩浦东香格里拉店","lon":"121.50058","lat":"31.23634","category":"119","category_name":"商场","address":"浦东富成路33号香格里拉酒店内大堂层"},{"poiid":"B2094757D06FA6F5449F","title":"香港丽园","lon":"121.49673","lat":"31.257858","category":"500","category_name":"未知分类","address":"虹口区通州路188号香港丽园4号楼2楼(近物美)"},{"poiid":"B2094757D068A1FE499B","title":"浦江名邸","lon":"121.49659","lat":"31.255047","category":"47","category_name":"住宅区","address":"广西北路246号百米香榭商业街南区260"},{"poiid":"B2094757D06FA7FF469C","title":"耀江国际广场","lon":"121.497","lat":"31.2555","category":"46","category_name":"楼宇","address":"上海市松江区镇横港路633号"},{"poiid":"B2094655D26DA6FA4993","title":"继光中学","lon":"121.49786","lat":"31.25904","category":"55","category_name":"中学","address":"虹口区高阳路690号(近临平路)"},{"poiid":"B2094757D068A5FE4992","title":"邵福楼(物华路店)","lon":"121.4967","lat":"31.259759","category":"76","category_name":"上海菜","address":"虹口区物华路73号渡边物华园附楼(近海拉尔路)"},{"poiid":"B2094757D065A2F54992","title":"木子麻雀","lon":"121.495811103","lat":"31.2608422221","category":"500","category_name":"未知分类","address":"上海市虹口区物化路"},{"poiid":"B2094654DB6BA3F8469F","title":"物美大卖场虹口店","lon":"121.49566","lat":"31.25851","category":"118","category_name":"超级市场","address":"海拉尔路289"},{"poiid":"B2094752D36DA5F94793","title":"上海星美国际影城(虹口国际店)","lon":"121.49265","lat":"31.25661","category":"178","category_name":"电影院","address":"上海市虹口区海宁路330号"},{"poiid":"B2094757D069A0FD429D","title":"德笼馆 物华店","lon":"121.497431054","lat":"31.258773793","category":"68","category_name":"快餐厅","address":"虹口区物华路73号(海拉尔路口)"},{"poiid":"B2094454D36BA3FE449F","title":"zoo coffee","lon":"121.493743","lat":"31.258939","category":"247","category_name":"餐饮美食","address":"上海市 四平路150号"},{"poiid":"B2094757D06BA2FA419E","title":"唐恩都乐 瑞虹广场店 Dunkin Donuts","lon":"121.49935","lat":"31.26114","category":"67","category_name":"甜品店","address":"虹口区临平路133弄瑞虹生活广场B1楼05-06号(近飞虹路)"},{"poiid":"B2094655D36CA7FB4293","title":"海拉尔路通州路","lon":"121.496","lat":"31.2583","category":"38","category_name":"公交车站","address":""},{"poiid":"B2094757D66CA0FC419F","title":"小绍兴","lon":"121.496257103","lat":"31.2596081963","category":"68","category_name":"快餐厅","address":"虹口区物华路73号(近海拉尔路)"},{"poiid":"B2094757D069AAF8429F","title":"虹口现代公寓","lon":"121.49509","lat":"31.261597","category":"500","category_name":"未知分类","address":"上海市虹口区天宝路66弄"},{"poiid":"B2094654D56DABFA409A","title":"上海市民办瑞虹高级中学","lon":"121.495","lat":"31.25785","category":"55","category_name":"中学","address":"虹口区通州路355号(近海拉尔路)"},{"poiid":"B2094752D464A4FC4893","title":"新天地","lon":"121.495771","lat":"31.257599","category":"500","category_name":"未知分类","address":"中国 上海市 黄陂南路 338号"},{"poiid":"B2094752D764AAFE499B","title":"瑞虹生活广场","lon":"121.495979","lat":"31.258615","category":"247","category_name":"餐饮美食","address":"临平路123号"},{"poiid":"B2094757D568A1F94492","title":"巴黎三城物美超市店","lon":"121.495315","lat":"31.25843389","category":"118","category_name":"超级市场","address":"通州路300号物美超市1层"},{"poiid":"B2094757D069ABFC4799","title":"四海游龙 物华路店 OVERSEAS DRAGON","lon":"121.497493054","lat":"31.258761793","category":"68","category_name":"快餐厅","address":"虹口区物华路73号(近海拉尔路)"},{"poiid":"B2094654D56EA1FD4199","title":"爱思大厦","lon":"121.494","lat":"31.2564","category":"46","category_name":"楼宇","address":"上海海宁路307号"},{"poiid":"B2094654D56DAAFF419B","title":"通海小区","lon":"121.49505","lat":"31.258995","category":"47","category_name":"住宅区","address":"通州区392弄1-16号"},{"poiid":"B2094654D56DAAFE409F","title":"海伦大厦","lon":"121.49566","lat":"31.255604","category":"47","category_name":"住宅区","address":"普陀中山北路2550号"},{"poiid":"B2094750D66CA4FC4293","title":"虹桥火车站","lon":"121.494056","lat":"31.258127","category":"500","category_name":"未知分类","address":null},{"poiid":"B2094757D568ABF8459A","title":"香港丽园一期","lon":"121.4964289","lat":"31.25775306","category":"47","category_name":"住宅区","address":"香港丽园一期位于虹口通州路188号(近周家嘴路口)"},{"poiid":"B2094757D16DA2FF459A","title":"晨林花苑","lon":"121.49493","lat":"31.259647","category":"252","category_name":"楼宇机构","address":"上海市虹口区物华路98弄"},{"poiid":"B2094654D56DABF94998","title":"物华大楼","lon":"121.49623","lat":"31.25965","category":"46","category_name":"楼宇","address":"上海物华路58号"},{"poiid":"B2094757D568A5F9499C","title":"蜂星电讯物美通州店","lon":"121.4953225","lat":"31.25843281","category":"138","category_name":"家电电子卖场","address":"通州路300号"},{"poiid":"B2094757D16EA3F94098","title":"嘉兴路派出所","lon":"121.496934","lat":"31.258691","category":"609","category_name":"警察局","address":"上海虹口区高阳路701号"},{"poiid":"B2094654D56DABF9469E","title":"永琪美容美发(海拉尔路)","lon":"121.49559","lat":"31.25747","category":"148","category_name":"美容美发店","address":"虹口区海拉尔路182号(近通州路)"},{"poiid":"B2094757D16CA7FA4199","title":"中国农业银行(通州支行)","lon":"121.49605","lat":"31.25792","category":"150","category_name":"银行","address":"虹口区通州路300号物美商场内(近海拉尔路)"},{"poiid":"B2094654DB6BA3F94093","title":"快客通州路店","lon":"121.49445","lat":"31.25876","category":"117","category_name":"便民商店/便利店","address":"通州路398"},{"poiid":"B2094655D26DA4FD479C","title":"宝丽园(西门)","lon":"121.4962","lat":"31.25827","category":"47","category_name":"住宅区","address":""},{"poiid":"B2094757D16CA0FD4798","title":"和洋日式餐厅","lon":"121.496388103","lat":"31.2598522014","category":"500","category_name":"未知分类","address":"虹口区物华路73号(近香港丽园)"},{"poiid":"B2094654D56DAAF84993","title":"宏飞大楼","lon":"121.495","lat":"31.2593","category":"46","category_name":"楼宇","address":"武进路88号"},{"poiid":"B209475CD26AA0FB459D","title":"稻香","lon":"121.494842","lat":"31.259649","category":"247","category_name":"餐饮美食","address":"上海市 上海淮海中路999号环贸iapm商场3楼301号铺(近陕西南路)"},{"poiid":"B2094654D56DABFB4192","title":"渡边物华园(物华路)","lon":"121.49663","lat":"31.25981","category":"47","category_name":"住宅区","address":"物华路73"},{"poiid":"B2094654DB6BA3F8469D","title":"上海市虹口区第二中心小学","lon":"121.49611","lat":"31.25942","category":"56","category_name":"小学","address":"虹口区高阳路640号(近周家嘴路)"},{"poiid":"B2094654D56DABFB429B","title":"胖子面馆","lon":"121.49729","lat":"31.25938","category":"68","category_name":"快餐厅","address":"虹口区物华路73号渡边商务楼附近(近海拉尔路)"},{"poiid":"B2094757D66AAAFA409C","title":"东北年三十饺子","lon":"121.496706","lat":"31.259744","category":"82","category_name":"东北菜","address":"虹口区物华路75号(近海拉尔路)"},{"poiid":"B2094655D26CA1F44592","title":"宝丽园","lon":"121.49632","lat":"31.25804","category":"47","category_name":"住宅区","address":""},{"poiid":"B2094654DB64A7F4419C","title":"上海市虹口区嘉兴地段医院","lon":"121.49328","lat":"31.25865","category":"162","category_name":"医院","address":"虹口区胡家木桥路41号(近通州路)"},{"poiid":"B2094757D16CA3FA459C","title":"垦业小区","lon":"121.49364","lat":"31.258234","category":"47","category_name":"住宅区","address":"上海虹口区通州路415弄"},{"poiid":"B2094757D065ABFC449A","title":"重庆鸡公煲(天宝店)","lon":"121.49589","lat":"31.26045","category":"71","category_name":"四川菜","address":"虹口区天宝路7号(近物华路)"},{"poiid":"B2094654DB6BA3F8499A","title":"春草堂足道","lon":"121.49593","lat":"31.26154","category":"149","category_name":"洗浴推拿场所","address":""},{"poiid":"B2094655D26CA1F8459C","title":"垦业小区(北门)","lon":"121.49397","lat":"31.25862","category":"47","category_name":"住宅区","address":"通州路419弄1-7号"},{"poiid":"B2094757D16DA6FF409D","title":"临平路天宝路口","lon":"121.495831103","lat":"31.261654239","category":"500","category_name":"未知分类","address":"上海市虹口区临平北路"},{"poiid":"B2094654D56EA3FB469A","title":"海泰时代大厦","lon":"121.492","lat":"31.2576","category":"46","category_name":"楼宇","address":"丰台学城海鹰路1号,3号"},{"poiid":"B2094757D06FA3F8409E","title":"森林湾大厦","lon":"121.494","lat":"31.2562","category":"46","category_name":"楼宇","address":"铁西卫工南街8―5号"},{"poiid":"B2094757D06FA5FE4793","title":"周家嘴路新建路","lon":"121.496022","lat":"31.255533","category":"260","category_name":"其他","address":"上海周家嘴路新建路,海伦路"},{"poiid":"B209475CD564A7F84392","title":"上海滩浦东香格里拉店","lon":"121.50058","lat":"31.23634","category":"119","category_name":"商场","address":"浦东富成路33号香格里拉酒店内大堂层"},{"poiid":"B2094757D06FA6F5449F","title":"香港丽园","lon":"121.49673","lat":"31.257858","category":"500","category_name":"未知分类","address":"虹口区通州路188号香港丽园4号楼2楼(近物美)"},{"poiid":"B2094757D068A1FE499B","title":"浦江名邸","lon":"121.49659","lat":"31.255047","category":"47","category_name":"住宅区","address":"广西北路246号百米香榭商业街南区260"},{"poiid":"B2094757D06FA7FF469C","title":"耀江国际广场","lon":"121.497","lat":"31.2555","category":"46","category_name":"楼宇","address":"上海市松江区镇横港路633号"},{"poiid":"B2094655D26DA6FA4993","title":"继光中学","lon":"121.49786","lat":"31.25904","category":"55","category_name":"中学","address":"虹口区高阳路690号(近临平路)"},{"poiid":"B2094757D068A5FE4992","title":"邵福楼(物华路店)","lon":"121.4967","lat":"31.259759","category":"76","category_name":"上海菜","address":"虹口区物华路73号渡边物华园附楼(近海拉尔路)"},{"poiid":"B2094757D065A2F54992","title":"木子麻雀","lon":"121.495811103","lat":"31.2608422221","category":"500","category_name":"未知分类","address":"上海市虹口区物化路"},{"poiid":"B2094654DB6BA3F8469F","title":"物美大卖场虹口店","lon":"121.49566","lat":"31.25851","category":"118","category_name":"超级市场","address":"海拉尔路289"},{"poiid":"B2094752D36DA5F94793","title":"上海星美国际影城(虹口国际店)","lon":"121.49265","lat":"31.25661","category":"178","category_name":"电影院","address":"上海市虹口区海宁路330号"},{"poiid":"B2094757D069A0FD429D","title":"德笼馆 物华店","lon":"121.497431054","lat":"31.258773793","category":"68","category_name":"快餐厅","address":"虹口区物华路73号(海拉尔路口)"},{"poiid":"B2094454D36BA3FE449F","title":"zoo coffee","lon":"121.493743","lat":"31.258939","category":"247","category_name":"餐饮美食","address":"上海市 四平路150号"},{"poiid":"B2094757D06BA2FA419E","title":"唐恩都乐 瑞虹广场店 Dunkin Donuts","lon":"121.49935","lat":"31.26114","category":"67","category_name":"甜品店","address":"虹口区临平路133弄瑞虹生活广场B1楼05-06号(近飞虹路)"},{"poiid":"B2094655D36CA7FB4293","title":"海拉尔路通州路","lon":"121.496","lat":"31.2583","category":"38","category_name":"公交车站","address":""},{"poiid":"B2094757D66CA0FC419F","title":"小绍兴","lon":"121.496257103","lat":"31.2596081963","category":"68","category_name":"快餐厅","address":"虹口区物华路73号(近海拉尔路)"},{"poiid":"B2094757D069AAF8429F","title":"虹口现代公寓","lon":"121.49509","lat":"31.261597","category":"500","category_name":"未知分类","address":"上海市虹口区天宝路66弄"},{"poiid":"B2094654D56DABFA409A","title":"上海市民办瑞虹高级中学","lon":"121.495","lat":"31.25785","category":"55","category_name":"中学","address":"虹口区通州路355号(近海拉尔路)"},{"poiid":"B2094752D464A4FC4893","title":"新天地","lon":"121.495771","lat":"31.257599","category":"500","category_name":"未知分类","address":"中国 上海市 黄陂南路 338号"},{"poiid":"B2094752D764AAFE499B","title":"瑞虹生活广场","lon":"121.495979","lat":"31.258615","category":"247","category_name":"餐饮美食","address":"临平路123号"},{"poiid":"B2094757D568A1F94492","title":"巴黎三城物美超市店","lon":"121.495315","lat":"31.25843389","category":"118","category_name":"超级市场","address":"通州路300号物美超市1层"},{"poiid":"B2094757D069ABFC4799","title":"四海游龙 物华路店 OVERSEAS DRAGON","lon":"121.497493054","lat":"31.258761793","category":"68","category_name":"快餐厅","address":"虹口区物华路73号(近海拉尔路)"},{"poiid":"B2094654D56EA1FD4199","title":"爱思大厦","lon":"121.494","lat":"31.2564","category":"46","category_name":"楼宇","address":"上海海宁路307号"},{"poiid":"B2094654D56DAAFF419B","title":"通海小区","lon":"121.49505","lat":"31.258995","category":"47","category_name":"住宅区","address":"通州区392弄1-16号"},{"poiid":"B2094654D56DAAFE409F","title":"海伦大厦","lon":"121.49566","lat":"31.255604","category":"47","category_name":"住宅区","address":"普陀中山北路2550号"},{"poiid":"B2094750D66CA4FC4293","title":"虹桥火车站","lon":"121.494056","lat":"31.258127","category":"500","category_name":"未知分类","address":null},{"poiid":"B2094757D568ABF8459A","title":"香港丽园一期","lon":"121.4964289","lat":"31.25775306","category":"47","category_name":"住宅区","address":"香港丽园一期位于虹口通州路188号(近周家嘴路口)"},{"poiid":"B2094757D16DA2FF459A","title":"晨林花苑","lon":"121.49493","lat":"31.259647","category":"252","category_name":"楼宇机构","address":"上海市虹口区物华路98弄"},{"poiid":"B2094654D56DABF94998","title":"物华大楼","lon":"121.49623","lat":"31.25965","category":"46","category_name":"楼宇","address":"上海物华路58号"},{"poiid":"B2094757D568A5F9499C","title":"蜂星电讯物美通州店","lon":"121.4953225","lat":"31.25843281","category":"138","category_name":"家电电子卖场","address":"通州路300号"},{"poiid":"B2094757D16EA3F94098","title":"嘉兴路派出所","lon":"121.496934","lat":"31.258691","category":"609","category_name":"警察局","address":"上海虹口区高阳路701号"},{"poiid":"B2094654D56DABF9469E","title":"永琪美容美发(海拉尔路)","lon":"121.49559","lat":"31.25747","category":"148","category_name":"美容美发店","address":"虹口区海拉尔路182号(近通州路)"},{"poiid":"B2094757D16CA7FA4199","title":"中国农业银行(通州支行)","lon":"121.49605","lat":"31.25792","category":"150","category_name":"银行","address":"虹口区通州路300号物美商场内(近海拉尔路)"},{"poiid":"B2094654DB6BA3F94093","title":"快客通州路店","lon":"121.49445","lat":"31.25876","category":"117","category_name":"便民商店/便利店","address":"通州路398"},{"poiid":"B2094655D26DA4FD479C","title":"宝丽园(西门)","lon":"121.4962","lat":"31.25827","category":"47","category_name":"住宅区","address":""},{"poiid":"B2094757D16CA0FD4798","title":"和洋日式餐厅","lon":"121.496388103","lat":"31.2598522014","category":"500","category_name":"未知分类","address":"虹口区物华路73号(近香港丽园)"},{"poiid":"B2094654D56DAAF84993","title":"宏飞大楼","lon":"121.495","lat":"31.2593","category":"46","category_name":"楼宇","address":"武进路88号"},{"poiid":"B209475CD26AA0FB459D","title":"稻香","lon":"121.494842","lat":"31.259649","category":"247","category_name":"餐饮美食","address":"上海市 上海淮海中路999号环贸iapm商场3楼301号铺(近陕西南路)"},{"poiid":"B2094654D56DABFB4192","title":"渡边物华园(物华路)","lon":"121.49663","lat":"31.25981","category":"47","category_name":"住宅区","address":"物华路73"},{"poiid":"B2094654DB6BA3F8469D","title":"上海市虹口区第二中心小学","lon":"121.49611","lat":"31.25942","category":"56","category_name":"小学","address":"虹口区高阳路640号(近周家嘴路)"},{"poiid":"B2094654D56DABFB429B","title":"胖子面馆","lon":"121.49729","lat":"31.25938","category":"68","category_name":"快餐厅","address":"虹口区物华路73号渡边商务楼附近(近海拉尔路)"},{"poiid":"B2094757D66AAAFA409C","title":"东北年三十饺子","lon":"121.496706","lat":"31.259744","category":"82","category_name":"东北菜","address":"虹口区物华路75号(近海拉尔路)"},{"poiid":"B2094655D26CA1F44592","title":"宝丽园","lon":"121.49632","lat":"31.25804","category":"47","category_name":"住宅区","address":""},{"poiid":"B2094654DB64A7F4419C","title":"上海市虹口区嘉兴地段医院","lon":"121.49328","lat":"31.25865","category":"162","category_name":"医院","address":"虹口区胡家木桥路41号(近通州路)"},{"poiid":"B2094757D16CA3FA459C","title":"垦业小区","lon":"121.49364","lat":"31.258234","category":"47","category_name":"住宅区","address":"上海虹口区通州路415弄"},{"poiid":"B2094757D065ABFC449A","title":"重庆鸡公煲(天宝店)","lon":"121.49589","lat":"31.26045","category":"71","category_name":"四川菜","address":"虹口区天宝路7号(近物华路)"},{"poiid":"B2094654DB6BA3F8499A","title":"春草堂足道","lon":"121.49593","lat":"31.26154","category":"149","category_name":"洗浴推拿场所","address":""},{"poiid":"B2094655D26CA1F8459C","title":"垦业小区(北门)","lon":"121.49397","lat":"31.25862","category":"47","category_name":"住宅区","address":"通州路419弄1-7号"},{"poiid":"B2094757D16DA6FF409D","title":"临平路天宝路口","lon":"121.495831103","lat":"31.261654239","category":"500","category_name":"未知分类","address":"上海市虹口区临平北路"},{"poiid":"B2094654D56EA3FB469A","title":"海泰时代大厦","lon":"121.492","lat":"31.2576","category":"46","category_name":"楼宇","address":"丰台学城海鹰路1号,3号"},{"poiid":"B2094757D06FA3F8409E","title":"森林湾大厦","lon":"121.494","lat":"31.2562","category":"46","category_name":"楼宇","address":"铁西卫工南街8―5号"},{"poiid":"B2094757D06FA5FE4793","title":"周家嘴路新建路","lon":"121.496022","lat":"31.255533","category":"260","category_name":"其他","address":"上海周家嘴路新建路,海伦路"},{"poiid":"B209475CD564A7F84392","title":"上海滩浦东香格里拉店","lon":"121.50058","lat":"31.23634","category":"119","category_name":"商场","address":"浦东富成路33号香格里拉酒店内大堂层"},{"poiid":"B2094757D06FA6F5449F","title":"香港丽园","lon":"121.49673","lat":"31.257858","category":"500","category_name":"未知分类","address":"虹口区通州路188号香港丽园4号楼2楼(近物美)"},{"poiid":"B2094757D068A1FE499B","title":"浦江名邸","lon":"121.49659","lat":"31.255047","category":"47","category_name":"住宅区","address":"广西北路246号百米香榭商业街南区260"},{"poiid":"B2094757D06FA7FF469C","title":"耀江国际广场","lon":"121.497","lat":"31.2555","category":"46","category_name":"楼宇","address":"上海市松江区镇横港路633号"},{"poiid":"B2094655D26DA6FA4993","title":"继光中学","lon":"121.49786","lat":"31.25904","category":"55","category_name":"中学","address":"虹口区高阳路690号(近临平路)"},{"poiid":"B2094757D068A5FE4992","title":"邵福楼(物华路店)","lon":"121.4967","lat":"31.259759","category":"76","category_name":"上海菜","address":"虹口区物华路73号渡边物华园附楼(近海拉尔路)"},{"poiid":"B2094757D065A2F54992","title":"木子麻雀","lon":"121.495811103","lat":"31.2608422221","category":"500","category_name":"未知分类","address":"上海市虹口区物化路"},{"poiid":"B2094654DB6BA3F8469F","title":"物美大卖场虹口店","lon":"121.49566","lat":"31.25851","category":"118","category_name":"超级市场","address":"海拉尔路289"},{"poiid":"B2094752D36DA5F94793","title":"上海星美国际影城(虹口国际店)","lon":"121.49265","lat":"31.25661","category":"178","category_name":"电影院","address":"上海市虹口区海宁路330号"},{"poiid":"B2094757D069A0FD429D","title":"德笼馆 物华店","lon":"121.497431054","lat":"31.258773793","category":"68","category_name":"快餐厅","address":"虹口区物华路73号(海拉尔路口)"},{"poiid":"B2094454D36BA3FE449F","title":"zoo coffee","lon":"121.493743","lat":"31.258939","category":"247","category_name":"餐饮美食","address":"上海市 四平路150号"},{"poiid":"B2094757D06BA2FA419E","title":"唐恩都乐 瑞虹广场店 Dunkin Donuts","lon":"121.49935","lat":"31.26114","category":"67","category_name":"甜品店","address":"虹口区临平路133弄瑞虹生活广场B1楼05-06号(近飞虹路)"},{"poiid":"B2094655D36CA7FB4293","title":"海拉尔路通州路","lon":"121.496","lat":"31.2583","category":"38","category_name":"公交车站","address":""},{"poiid":"B2094757D66CA0FC419F","title":"小绍兴","lon":"121.496257103","lat":"31.2596081963","category":"68","category_name":"快餐厅","address":"虹口区物华路73号(近海拉尔路)"},{"poiid":"B2094757D069AAF8429F","title":"虹口现代公寓","lon":"121.49509","lat":"31.261597","category":"500","category_name":"未知分类","address":"上海市虹口区天宝路66弄"},{"poiid":"B2094654D56DABFA409A","title":"上海市民办瑞虹高级中学","lon":"121.495","lat":"31.25785","category":"55","category_name":"中学","address":"虹口区通州路355号(近海拉尔路)"},{"poiid":"B2094752D464A4FC4893","title":"新天地","lon":"121.495771","lat":"31.257599","category":"500","category_name":"未知分类","address":"中国 上海市 黄陂南路 338号"},{"poiid":"B2094752D764AAFE499B","title":"瑞虹生活广场","lon":"121.495979","lat":"31.258615","category":"247","category_name":"餐饮美食","address":"临平路123号"},{"poiid":"B2094757D568A1F94492","title":"巴黎三城物美超市店","lon":"121.495315","lat":"31.25843389","category":"118","category_name":"超级市场","address":"通州路300号物美超市1层"},{"poiid":"B2094757D069ABFC4799","title":"四海游龙 物华路店 OVERSEAS DRAGON","lon":"121.497493054","lat":"31.258761793","category":"68","category_name":"快餐厅","address":"虹口区物华路73号(近海拉尔路)"},{"poiid":"B2094654D56EA1FD4199","title":"爱思大厦","lon":"121.494","lat":"31.2564","category":"46","category_name":"楼宇","address":"上海海宁路307号"},{"poiid":"B2094654D56DAAFF419B","title":"通海小区","lon":"121.49505","lat":"31.258995","category":"47","category_name":"住宅区","address":"通州区392弄1-16号"},{"poiid":"B2094654D56DAAFE409F","title":"海伦大厦","lon":"121.49566","lat":"31.255604","category":"47","category_name":"住宅区","address":"普陀中山北路2550号"},{"poiid":"B2094750D66CA4FC4293","title":"虹桥火车站","lon":"121.494056","lat":"31.258127","category":"500","category_name":"未知分类","address":null},{"poiid":"B2094757D568ABF8459A","title":"香港丽园一期","lon":"121.4964289","lat":"31.25775306","category":"47","category_name":"住宅区","address":"香港丽园一期位于虹口通州路188号(近周家嘴路口)"},{"poiid":"B2094757D16DA2FF459A","title":"晨林花苑","lon":"121.49493","lat":"31.259647","category":"252","category_name":"楼宇机构","address":"上海市虹口区物华路98弄"},{"poiid":"B2094654D56DABF94998","title":"物华大楼","lon":"121.49623","lat":"31.25965","category":"46","category_name":"楼宇","address":"上海物华路58号"},{"poiid":"B2094757D568A5F9499C","title":"蜂星电讯物美通州店","lon":"121.4953225","lat":"31.25843281","category":"138","category_name":"家电电子卖场","address":"通州路300号"},{"poiid":"B2094757D16EA3F94098","title":"嘉兴路派出所","lon":"121.496934","lat":"31.258691","category":"609","category_name":"警察局","address":"上海虹口区高阳路701号"},{"poiid":"B2094654D56DABF9469E","title":"永琪美容美发(海拉尔路)","lon":"121.49559","lat":"31.25747","category":"148","category_name":"美容美发店","address":"虹口区海拉尔路182号(近通州路)"},{"poiid":"B2094757D16CA7FA4199","title":"中国农业银行(通州支行)","lon":"121.49605","lat":"31.25792","category":"150","category_name":"银行","address":"虹口区通州路300号物美商场内(近海拉尔路)"},{"poiid":"B2094654DB6BA3F94093","title":"快客通州路店","lon":"121.49445","lat":"31.25876","category":"117","category_name":"便民商店/便利店","address":"通州路398"},{"poiid":"B2094655D26DA4FD479C","title":"宝丽园(西门)","lon":"121.4962","lat":"31.25827","category":"47","category_name":"住宅区","address":""},{"poiid":"B2094757D16CA0FD4798","title":"和洋日式餐厅","lon":"121.496388103","lat":"31.2598522014","category":"500","category_name":"未知分类","address":"虹口区物华路73号(近香港丽园)"},{"poiid":"B2094654D56DAAF84993","title":"宏飞大楼","lon":"121.495","lat":"31.2593","category":"46","category_name":"楼宇","address":"武进路88号"},{"poiid":"B209475CD26AA0FB459D","title":"稻香","lon":"121.494842","lat":"31.259649","category":"247","category_name":"餐饮美食","address":"上海市 上海淮海中路999号环贸iapm商场3楼301号铺(近陕西南路)"},{"poiid":"B2094654D56DABFB4192","title":"渡边物华园(物华路)","lon":"121.49663","lat":"31.25981","category":"47","category_name":"住宅区","address":"物华路73"},{"poiid":"B2094654DB6BA3F8469D","title":"上海市虹口区第二中心小学","lon":"121.49611","lat":"31.25942","category":"56","category_name":"小学","address":"虹口区高阳路640号(近周家嘴路)"},{"poiid":"B2094654D56DABFB429B","title":"胖子面馆","lon":"121.49729","lat":"31.25938","category":"68","category_name":"快餐厅","address":"虹口区物华路73号渡边商务楼附近(近海拉尔路)"},{"poiid":"B2094757D66AAAFA409C","title":"东北年三十饺子","lon":"121.496706","lat":"31.259744","category":"82","category_name":"东北菜","address":"虹口区物华路75号(近海拉尔路)"},{"poiid":"B2094655D26CA1F44592","title":"宝丽园","lon":"121.49632","lat":"31.25804","category":"47","category_name":"住宅区","address":""},{"poiid":"B2094654DB64A7F4419C","title":"上海市虹口区嘉兴地段医院","lon":"121.49328","lat":"31.25865","category":"162","category_name":"医院","address":"虹口区胡家木桥路41号(近通州路)"},{"poiid":"B2094757D16CA3FA459C","title":"垦业小区","lon":"121.49364","lat":"31.258234","category":"47","category_name":"住宅区","address":"上海虹口区通州路415弄"},{"poiid":"B2094757D065ABFC449A","title":"重庆鸡公煲(天宝店)","lon":"121.49589","lat":"31.26045","category":"71","category_name":"四川菜","address":"虹口区天宝路7号(近物华路)"},{"poiid":"B2094654DB6BA3F8499A","title":"春草堂足道","lon":"121.49593","lat":"31.26154","category":"149","category_name":"洗浴推拿场所","address":""},{"poiid":"B2094655D26CA1F8459C","title":"垦业小区(北门)","lon":"121.49397","lat":"31.25862","category":"47","category_name":"住宅区","address":"通州路419弄1-7号"},{"poiid":"B2094757D16DA6FF409D","title":"临平路天宝路口","lon":"121.495831103","lat":"31.261654239","category":"500","category_name":"未知分类","address":"上海市虹口区临平北路"},{"poiid":"B2094654D56EA3FB469A","title":"海泰时代大厦","lon":"121.492","lat":"31.2576","category":"46","category_name":"楼宇","address":"丰台学城海鹰路1号,3号"},{"poiid":"B2094757D06FA3F8409E","title":"森林湾大厦","lon":"121.494","lat":"31.2562","category":"46","category_name":"楼宇","address":"铁西卫工南街8―5号"},{"poiid":"B2094757D06FA5FE4793","title":"周家嘴路新建路","lon":"121.496022","lat":"31.255533","category":"260","category_name":"其他","address":"上海周家嘴路新建路,海伦路"},{"poiid":"B209475CD564A7F84392","title":"上海滩浦东香格里拉店","lon":"121.50058","lat":"31.23634","category":"119","category_name":"商场","address":"浦东富成路33号香格里拉酒店内大堂层"},{"poiid":"B2094757D06FA6F5449F","title":"香港丽园","lon":"121.49673","lat":"31.257858","category":"500","category_name":"未知分类","address":"虹口区通州路188号香港丽园4号楼2楼(近物美)"},{"poiid":"B2094757D068A1FE499B","title":"浦江名邸","lon":"121.49659","lat":"31.255047","category":"47","category_name":"住宅区","address":"广西北路246号百米香榭商业街南区260"},{"poiid":"B2094757D06FA7FF469C","title":"耀江国际广场","lon":"121.497","lat":"31.2555","category":"46","category_name":"楼宇","address":"上海市松江区镇横港路633号"},{"poiid":"B2094655D26DA6FA4993","title":"继光中学","lon":"121.49786","lat":"31.25904","category":"55","category_name":"中学","address":"虹口区高阳路690号(近临平路)"},{"poiid":"B2094757D068A5FE4992","title":"邵福楼(物华路店)","lon":"121.4967","lat":"31.259759","category":"76","category_name":"上海菜","address":"虹口区物华路73号渡边物华园附楼(近海拉尔路)"},{"poiid":"B2094757D065A2F54992","title":"木子麻雀","lon":"121.495811103","lat":"31.2608422221","category":"500","category_name":"未知分类","address":"上海市虹口区物化路"},{"poiid":"B2094654DB6BA3F8469F","title":"物美大卖场虹口店","lon":"121.49566","lat":"31.25851","category":"118","category_name":"超级市场","address":"海拉尔路289"},{"poiid":"B2094752D36DA5F94793","title":"上海星美国际影城(虹口国际店)","lon":"121.49265","lat":"31.25661","category":"178","category_name":"电影院","address":"上海市虹口区海宁路330号"},{"poiid":"B2094757D069A0FD429D","title":"德笼馆 物华店","lon":"121.497431054","lat":"31.258773793","category":"68","category_name":"快餐厅","address":"虹口区物华路73号(海拉尔路口)"},{"poiid":"B2094454D36BA3FE449F","title":"zoo coffee","lon":"121.493743","lat":"31.258939","category":"247","category_name":"餐饮美食","address":"上海市 四平路150号"},{"poiid":"B2094757D06BA2FA419E","title":"唐恩都乐 瑞虹广场店 Dunkin Donuts","lon":"121.49935","lat":"31.26114","category":"67","category_name":"甜品店","address":"虹口区临平路133弄瑞虹生活广场B1楼05-06号(近飞虹路)"},{"poiid":"B2094655D36CA7FB4293","title":"海拉尔路通州路","lon":"121.496","lat":"31.2583","category":"38","category_name":"公交车站","address":""},{"poiid":"B2094757D66CA0FC419F","title":"小绍兴","lon":"121.496257103","lat":"31.2596081963","category":"68","category_name":"快餐厅","address":"虹口区物华路73号(近海拉尔路)"},{"poiid":"B2094757D069AAF8429F","title":"虹口现代公寓","lon":"121.49509","lat":"31.261597","category":"500","category_name":"未知分类","address":"上海市虹口区天宝路66弄"},{"poiid":"B2094654D56DABFA409A","title":"上海市民办瑞虹高级中学","lon":"121.495","lat":"31.25785","category":"55","category_name":"中学","address":"虹口区通州路355号(近海拉尔路)"},{"poiid":"B2094752D464A4FC4893","title":"新天地","lon":"121.495771","lat":"31.257599","category":"500","category_name":"未知分类","address":"中国 上海市 黄陂南路 338号"},{"poiid":"B2094752D764AAFE499B","title":"瑞虹生活广场","lon":"121.495979","lat":"31.258615","category":"247","category_name":"餐饮美食","address":"临平路123号"},{"poiid":"B2094757D568A1F94492","title":"巴黎三城物美超市店","lon":"121.495315","lat":"31.25843389","category":"118","category_name":"超级市场","address":"通州路300号物美超市1层"},{"poiid":"B2094757D069ABFC4799","title":"四海游龙 物华路店 OVERSEAS DRAGON","lon":"121.497493054","lat":"31.258761793","category":"68","category_name":"快餐厅","address":"虹口区物华路73号(近海拉尔路)"},{"poiid":"B2094654D56EA1FD4199","title":"爱思大厦","lon":"121.494","lat":"31.2564","category":"46","category_name":"楼宇","address":"上海海宁路307号"},{"poiid":"B2094654D56DAAFF419B","title":"通海小区","lon":"121.49505","lat":"31.258995","category":"47","category_name":"住宅区","address":"通州区392弄1-16号"},{"poiid":"B2094654D56DAAFE409F","title":"海伦大厦","lon":"121.49566","lat":"31.255604","category":"47","category_name":"住宅区","address":"普陀中山北路2550号"},{"poiid":"B2094750D66CA4FC4293","title":"虹桥火车站","lon":"121.494056","lat":"31.258127","category":"500","category_name":"未知分类","address":null},{"poiid":"B2094757D568ABF8459A","title":"香港丽园一期","lon":"121.4964289","lat":"31.25775306","category":"47","category_name":"住宅区","address":"香港丽园一期位于虹口通州路188号(近周家嘴路口)"},{"poiid":"B2094757D16DA2FF459A","title":"晨林花苑","lon":"121.49493","lat":"31.259647","category":"252","category_name":"楼宇机构","address":"上海市虹口区物华路98弄"},{"poiid":"B2094654D56DABF94998","title":"物华大楼","lon":"121.49623","lat":"31.25965","category":"46","category_name":"楼宇","address":"上海物华路58号"},{"poiid":"B2094757D568A5F9499C","title":"蜂星电讯物美通州店","lon":"121.4953225","lat":"31.25843281","category":"138","category_name":"家电电子卖场","address":"通州路300号"},{"poiid":"B2094757D16EA3F94098","title":"嘉兴路派出所","lon":"121.496934","lat":"31.258691","category":"609","category_name":"警察局","address":"上海虹口区高阳路701号"},{"poiid":"B2094654D56DABF9469E","title":"永琪美容美发(海拉尔路)","lon":"121.49559","lat":"31.25747","category":"148","category_name":"美容美发店","address":"虹口区海拉尔路182号(近通州路)"},{"poiid":"B2094757D16CA7FA4199","title":"中国农业银行(通州支行)","lon":"121.49605","lat":"31.25792","category":"150","category_name":"银行","address":"虹口区通州路300号物美商场内(近海拉尔路)"},{"poiid":"B2094654DB6BA3F94093","title":"快客通州路店","lon":"121.49445","lat":"31.25876","category":"117","category_name":"便民商店/便利店","address":"通州路398"},{"poiid":"B2094655D26DA4FD479C","title":"宝丽园(西门)","lon":"121.4962","lat":"31.25827","category":"47","category_name":"住宅区","address":""},{"poiid":"B2094757D16CA0FD4798","title":"和洋日式餐厅","lon":"121.496388103","lat":"31.2598522014","category":"500","category_name":"未知分类","address":"虹口区物华路73号(近香港丽园)"},{"poiid":"B2094654D56DAAF84993","title":"宏飞大楼","lon":"121.495","lat":"31.2593","category":"46","category_name":"楼宇","address":"武进路88号"},{"poiid":"B209475CD26AA0FB459D","title":"稻香","lon":"121.494842","lat":"31.259649","category":"247","category_name":"餐饮美食","address":"上海市 上海淮海中路999号环贸iapm商场3楼301号铺(近陕西南路)"},{"poiid":"B2094654D56DABFB4192","title":"渡边物华园(物华路)","lon":"121.49663","lat":"31.25981","category":"47","category_name":"住宅区","address":"物华路73"},{"poiid":"B2094654DB6BA3F8469D","title":"上海市虹口区第二中心小学","lon":"121.49611","lat":"31.25942","category":"56","category_name":"小学","address":"虹口区高阳路640号(近周家嘴路)"},{"poiid":"B2094654D56DABFB429B","title":"胖子面馆","lon":"121.49729","lat":"31.25938","category":"68","category_name":"快餐厅","address":"虹口区物华路73号渡边商务楼附近(近海拉尔路)"},{"poiid":"B2094757D66AAAFA409C","title":"东北年三十饺子","lon":"121.496706","lat":"31.259744","category":"82","category_name":"东北菜","address":"虹口区物华路75号(近海拉尔路)"},{"poiid":"B2094655D26CA1F44592","title":"宝丽园","lon":"121.49632","lat":"31.25804","category":"47","category_name":"住宅区","address":""},{"poiid":"B2094654DB64A7F4419C","title":"上海市虹口区嘉兴地段医院","lon":"121.49328","lat":"31.25865","category":"162","category_name":"医院","address":"虹口区胡家木桥路41号(近通州路)"},{"poiid":"B2094757D16CA3FA459C","title":"垦业小区","lon":"121.49364","lat":"31.258234","category":"47","category_name":"住宅区","address":"上海虹口区通州路415弄"},{"poiid":"B2094757D065ABFC449A","title":"重庆鸡公煲(天宝店)","lon":"121.49589","lat":"31.26045","category":"71","category_name":"四川菜","address":"虹口区天宝路7号(近物华路)"},{"poiid":"B2094654DB6BA3F8499A","title":"春草堂足道","lon":"121.49593","lat":"31.26154","category":"149","category_name":"洗浴推拿场所","address":""},{"poiid":"B2094655D26CA1F8459C","title":"垦业小区(北门)","lon":"121.49397","lat":"31.25862","category":"47","category_name":"住宅区","address":"通州路419弄1-7号"},{"poiid":"B2094757D16DA6FF409D","title":"临平路天宝路口","lon":"121.495831103","lat":"31.261654239","category":"500","category_name":"未知分类","address":"上海市虹口区临平北路"}]