[{"poiid":"B2094654D564AAFD4699","title":"花园饭店","lon":"121.45981","lat":"31.21981","category":"213","category_name":"五星级宾馆","address":"卢湾区茂名南路58号(近淮海中路)"},{"poiid":"B2094654D564AAFD4492","title":"新锦江大酒店","lon":"121.46285","lat":"31.22076","category":"213","category_name":"五星级宾馆","address":"卢湾区长乐路161号(近瑞金一路)"},{"poiid":"B2094654D564AAF9439B","title":"兰心大戏院","lon":"121.46051","lat":"31.2209","category":"180","category_name":"剧场","address":"卢湾区茂名南路57(近长乐路口)"},{"poiid":"B2094753D76FAAFA449C","title":"上海滩国泰旗舰店","lon":"121.466011","lat":"31.216125","category":"249","category_name":"购物服务","address":"淮海中路868号"},{"poiid":"B209475CD564A7F84292","title":"上海滩新天地店","lon":"121.47463","lat":"31.22164","category":"119","category_name":"商场","address":"\"太仓路181弄新天地北里15号\r\n\""},{"poiid":"B209475CD564A7F8439E","title":"上海滩中信泰富店","lon":"121.45602","lat":"31.22851","category":"119","category_name":"商场","address":"\"南京西路1168号中信泰富广场，店铺号221.\r\n\""},{"poiid":"B2094757D06FA3FC4998","title":"锦江饭店","lon":"121.46181369957924","lat":"31.21876480002918","category":"214","category_name":"四星级宾馆","address":"卢湾区茂名南路59号(近长乐路)"},{"poiid":"B2094757D06EAAFF439D","title":"新旺茶餐厅(长乐店)","lon":"121.4619","lat":"31.22067","category":"72","category_name":"广东菜","address":"卢湾区长乐路175号(茂名南路瑞金一路间)"},{"poiid":"B2094757D06EABF54593","title":"十面埋伏 Seafood Noodle","lon":"121.46235","lat":"31.22113","category":"75","category_name":"浙江菜","address":"卢湾区长乐路352号(近瑞金一路)"},{"poiid":"B2094757D06FA2F9469A","title":"兰心餐厅","lon":"121.45978","lat":"31.22135","category":"76","category_name":"上海菜","address":"卢湾区进贤路130号(近茂名南路)"},{"poiid":"B2094757DB68AAFF4792","title":"丽江驿 MONSOON","lon":"121.460094","lat":"31.221228","category":"99","category_name":"泰国／越南菜品餐厅","address":"卢湾区茂名南路56号56食尚谷内(近长乐路)"},{"poiid":"B2094757D464A7FE459F","title":"唐宫1号 锦江迪生店","lon":"121.459768054","lat":"31.220746793","category":"247","category_name":"餐饮美食","address":"卢湾区长乐路400号锦江迪生3-4楼(近茂名南路)"},{"poiid":"B2094757D06FA2F94693","title":"淮海中路","lon":"121.463470459","lat":"31.2209300995","category":"36","category_name":"地铁站","address":"卢湾区淮海中路"},{"poiid":"B2094655D26AA1FF429C","title":"避风塘长乐店","lon":"121.46154","lat":"31.22081","category":"66","category_name":"茶艺馆","address":"卢湾区长乐路175号(近茂名南路)"},{"poiid":"B2094757D06FA6FE489E","title":"王品台塑牛排(长乐店)","lon":"121.45989","lat":"31.22049","category":"94","category_name":"西餐厅","address":"卢湾区长乐路400号锦江迪生商厦2楼(近茂名南路)"},{"poiid":"B2094654DB64A5FD409D","title":"苏浙汇","lon":"121.46125","lat":"31.21837","category":"76","category_name":"上海菜","address":"卢湾区茂名南路127号(近淮海路)"},{"poiid":"B2094757D06FA1F9419F","title":"滴水洞(茂名南路店)","lon":"121.4601","lat":"31.22061","category":"77","category_name":"湖南菜","address":"卢湾区茂名南路56号2楼(近长乐路)"},{"poiid":"B2094757D06FA7F44099","title":"锦江小礼堂","lon":"121.46134988","lat":"31.220052989","category":"217","category_name":"旅馆招待所","address":"卢湾区茂名南路59号"},{"poiid":"B2094757D069A0F9479A","title":"天都里印度餐厅","lon":"121.461","lat":"31.22016","category":"102","category_name":"印度风味","address":"卢湾区茂名南路59号锦江饭店南楼大堂(近长乐路)"},{"poiid":"B2094655D26BA3FB4792","title":"晶采轩新锦江店","lon":"121.46284","lat":"31.22075","category":"72","category_name":"广东菜","address":"卢湾区长乐路161号新锦江大酒店3楼(近瑞金一路)"},{"poiid":"B2094757D66FA1F5419A","title":"新锦江","lon":"121.463139738","lat":"31.2208961012","category":"500","category_name":"未知分类","address":"上海市卢湾区茂名南路"},{"poiid":"B2094757D06FA0FC439E","title":"锦江迪生商厦","lon":"121.45968873","lat":"31.221020103","category":"119","category_name":"商场","address":"卢湾区长乐路400号(近茂名南路)"},{"poiid":"B2094757D06FA0FF439B","title":"宝寿司(瑞金一路店)","lon":"121.46346173","lat":"31.219720076","category":"95","category_name":"日本料理","address":"卢湾区瑞金一路159号(近淮海中路)"},{"poiid":"B2094757D06FA0F9419F","title":"清迈天堂","lon":"121.46022","lat":"31.2212","category":"99","category_name":"泰国／越南菜品餐厅","address":"卢湾区进贤路145号(近茂名南路)"},{"poiid":"B2094750D068A2FA449C","title":"Tikka","lon":"121.46011","lat":"31.22115","category":"102","category_name":"印度风味","address":"卢湾区茂名南路56号(近长乐路)"},{"poiid":"B2094757D06FAAF9489A","title":"向明中学","lon":"121.4638","lat":"31.22031","category":"55","category_name":"中学","address":"上海卢湾区瑞金一路151号(近长乐路)  "},{"poiid":"B2094757D06FAAFE4392","title":"万藏(长乐路店)","lon":"121.46223","lat":"31.22084","category":"95","category_name":"日本料理","address":"卢湾区长乐路344号1楼(近瑞金一路)"},{"poiid":"B2094757D068A6F4469F","title":"Jimmy's Kitchen","lon":"121.46307273","lat":"31.220327089","category":"94","category_name":"西餐厅","address":"卢湾区茂名南路59号锦北楼1楼(长乐路)"},{"poiid":"B2094757D66BABF84899","title":"美丽岛 Isola Bella","lon":"121.46196456535","lat":"31.218356786131","category":"47","category_name":"住宅区","address":"淮海中路864号2楼近茂名南路"},{"poiid":"B2094757D06FABFE439B","title":"粋寿司","lon":"121.46058308","lat":"31.220771748","category":"95","category_name":"日本料理","address":"卢湾区长乐路175-2号(近茂名南路)"},{"poiid":"B2094654DB64A5F54099","title":"松阪烤肉","lon":"121.46118","lat":"31.21912","category":"87","category_name":"特色／地方风味餐厅","address":"卢湾区茂名南路59号锦江宾馆美食街(近长乐路)"},{"poiid":"B2094757D068A7F8459F","title":"净心轩","lon":"121.46047","lat":"31.22114","category":"89","category_name":"中式素餐馆","address":"卢湾区茂名南路56号56食尚谷D区1号(近长乐路)"},{"poiid":"B2094757D068A0FF4893","title":"锦庐 The Chinoise Story","lon":"121.46073413098","lat":"31.220246592787","category":"247","category_name":"餐饮美食","address":"卢湾区茂名南路59号锦江饭店锦北楼(近长乐路)"},{"poiid":"B2094757D068A5FD4498","title":"小南国烧烤(卢湾店)","lon":"121.46287","lat":"31.22073","category":"269","category_name":"烧烤","address":"卢湾区长乐路161号新锦江大酒店3楼(近瑞金一路)"},{"poiid":"B2094654DB64A6FC469F","title":"老夜上海","lon":"121.46046","lat":"31.22045","category":"76","category_name":"上海菜","address":"卢湾区茂名南路59号老锦江饭店北楼11-12楼(近长乐路)"},{"poiid":"B2094757DA69A3F4419B","title":"福得德","lon":"121.46017423652","lat":"31.221155993403","category":"76","category_name":"上海菜","address":"卢湾区茂名南路56号B区1楼(近进贤路)"},{"poiid":"B209475DDA68A2FA429E","title":"万岛日本料理铁板烧（锦江迪生店）","lon":"121.460075","lat":"31.220945","category":"247","category_name":"餐饮美食","address":"上海市 长乐路400号(近茂名南路)"},{"poiid":"B2094757D068A0FC409C","title":"梅园村锦梅食府","lon":"121.460920662","lat":"31.2202856175","category":"74","category_name":"江苏菜","address":"卢湾区茂名南路59号老锦江食街内(近长乐路)"},{"poiid":"B2094654D564AAFF459C","title":"春餐厅","lon":"121.46014540629","lat":"31.22205986488","category":"76","category_name":"上海菜","address":"卢湾区进贤路124号(茂名南路口)"},{"poiid":"B2094757D069ABFC479C","title":"进贤路","lon":"121.459985","lat":"31.221497","category":"500","category_name":"未知分类","address":"上海市静安区延安中路"},{"poiid":"B2094757D16AABFF449E","title":"陕西南路","lon":"121.46115673","lat":"31.221008103","category":"500","category_name":"未知分类","address":"上海市静安区陕西南路"},{"poiid":"B2094750D565AAFA489A","title":"江南","lon":"121.462814","lat":"31.220983","category":"260","category_name":"其他","address":"卢湾区长乐路348号(近瑞金一路)"},{"poiid":"B2094655D265AAFB459F","title":"锦江北楼","lon":"121.46145","lat":"31.22079","category":"46","category_name":"楼宇","address":"长乐路175"},{"poiid":"B2094757D168A6F9449A","title":"屋企汤馆","lon":"121.460766738","lat":"31.2209171016","category":"72","category_name":"广东菜","address":"卢湾区长乐路175号(近兰心大戏院)"},{"poiid":"B2094757DB6FA6FC4693","title":"EL CAMINO","lon":"121.4614093391706","lat":"31.22114830377862","category":"500","category_name":"未知分类","address":"卢湾区成都南路105号(近淮海路)"},{"poiid":"B2094654DB64A7F9479B","title":"山里","lon":"121.459704054","lat":"31.220028793","category":"95","category_name":"日本料理","address":"卢湾区茂名南路58号花园饭店2楼(近淮海中路)"},{"poiid":"B2094757D068ABFB439A","title":"鹿港小镇家常菜","lon":"121.46185","lat":"31.22081","category":"76","category_name":"上海菜","address":"卢湾区长乐路350号(近瑞金一路)"},{"poiid":"B2094757D068A0FA419C","title":"赛美蓉(Semillon Cafe&amp;Lounge)","lon":"121.46311","lat":"31.22048","category":"247","category_name":"餐饮美食","address":"上海卢湾区长乐路161号新锦江大酒店1楼(近瑞金一路)"},{"poiid":"B2094655D26BA0FA4192","title":"LOMOGRAPHY","lon":"121.46004","lat":"31.22172","category":"255","category_name":"专卖店","address":"卢湾区进贤路126号(近茂名南路)"},{"poiid":"B2094752D76CA3FD4393","title":"tap coffee","lon":"121.461437","lat":"31.21855","category":"247","category_name":"餐饮美食","address":"南昌路150号"},{"poiid":"B2094654D564AAFD4699","title":"花园饭店","lon":"121.45981","lat":"31.21981","category":"213","category_name":"五星级宾馆","address":"卢湾区茂名南路58号(近淮海中路)"},{"poiid":"B2094654D564AAFD4492","title":"新锦江大酒店","lon":"121.46285","lat":"31.22076","category":"213","category_name":"五星级宾馆","address":"卢湾区长乐路161号(近瑞金一路)"},{"poiid":"B2094654D564AAF9439B","title":"兰心大戏院","lon":"121.46051","lat":"31.2209","category":"180","category_name":"剧场","address":"卢湾区茂名南路57(近长乐路口)"},{"poiid":"B2094753D76FAAFA449C","title":"上海滩国泰旗舰店","lon":"121.466011","lat":"31.216125","category":"249","category_name":"购物服务","address":"淮海中路868号"},{"poiid":"B209475CD564A7F84292","title":"上海滩新天地店","lon":"121.47463","lat":"31.22164","category":"119","category_name":"商场","address":"\"太仓路181弄新天地北里15号\r\n\""},{"poiid":"B209475CD564A7F8439E","title":"上海滩中信泰富店","lon":"121.45602","lat":"31.22851","category":"119","category_name":"商场","address":"\"南京西路1168号中信泰富广场，店铺号221.\r\n\""},{"poiid":"B2094757D06FA3FC4998","title":"锦江饭店","lon":"121.46181369957924","lat":"31.21876480002918","category":"214","category_name":"四星级宾馆","address":"卢湾区茂名南路59号(近长乐路)"},{"poiid":"B2094757D06EAAFF439D","title":"新旺茶餐厅(长乐店)","lon":"121.4619","lat":"31.22067","category":"72","category_name":"广东菜","address":"卢湾区长乐路175号(茂名南路瑞金一路间)"},{"poiid":"B2094757D06EABF54593","title":"十面埋伏 Seafood Noodle","lon":"121.46235","lat":"31.22113","category":"75","category_name":"浙江菜","address":"卢湾区长乐路352号(近瑞金一路)"},{"poiid":"B2094757D06FA2F9469A","title":"兰心餐厅","lon":"121.45978","lat":"31.22135","category":"76","category_name":"上海菜","address":"卢湾区进贤路130号(近茂名南路)"},{"poiid":"B2094757DB68AAFF4792","title":"丽江驿 MONSOON","lon":"121.460094","lat":"31.221228","category":"99","category_name":"泰国／越南菜品餐厅","address":"卢湾区茂名南路56号56食尚谷内(近长乐路)"},{"poiid":"B2094757D464A7FE459F","title":"唐宫1号 锦江迪生店","lon":"121.459768054","lat":"31.220746793","category":"247","category_name":"餐饮美食","address":"卢湾区长乐路400号锦江迪生3-4楼(近茂名南路)"},{"poiid":"B2094757D06FA2F94693","title":"淮海中路","lon":"121.463470459","lat":"31.2209300995","category":"36","category_name":"地铁站","address":"卢湾区淮海中路"},{"poiid":"B2094655D26AA1FF429C","title":"避风塘长乐店","lon":"121.46154","lat":"31.22081","category":"66","category_name":"茶艺馆","address":"卢湾区长乐路175号(近茂名南路)"},{"poiid":"B2094757D06FA6FE489E","title":"王品台塑牛排(长乐店)","lon":"121.45989","lat":"31.22049","category":"94","category_name":"西餐厅","address":"卢湾区长乐路400号锦江迪生商厦2楼(近茂名南路)"},{"poiid":"B2094654DB64A5FD409D","title":"苏浙汇","lon":"121.46125","lat":"31.21837","category":"76","category_name":"上海菜","address":"卢湾区茂名南路127号(近淮海路)"},{"poiid":"B2094757D06FA1F9419F","title":"滴水洞(茂名南路店)","lon":"121.4601","lat":"31.22061","category":"77","category_name":"湖南菜","address":"卢湾区茂名南路56号2楼(近长乐路)"},{"poiid":"B2094757D06FA7F44099","title":"锦江小礼堂","lon":"121.46134988","lat":"31.220052989","category":"217","category_name":"旅馆招待所","address":"卢湾区茂名南路59号"},{"poiid":"B2094757D069A0F9479A","title":"天都里印度餐厅","lon":"121.461","lat":"31.22016","category":"102","category_name":"印度风味","address":"卢湾区茂名南路59号锦江饭店南楼大堂(近长乐路)"},{"poiid":"B2094655D26BA3FB4792","title":"晶采轩新锦江店","lon":"121.46284","lat":"31.22075","category":"72","category_name":"广东菜","address":"卢湾区长乐路161号新锦江大酒店3楼(近瑞金一路)"},{"poiid":"B2094757D66FA1F5419A","title":"新锦江","lon":"121.463139738","lat":"31.2208961012","category":"500","category_name":"未知分类","address":"上海市卢湾区茂名南路"},{"poiid":"B2094757D06FA0FC439E","title":"锦江迪生商厦","lon":"121.45968873","lat":"31.221020103","category":"119","category_name":"商场","address":"卢湾区长乐路400号(近茂名南路)"},{"poiid":"B2094757D06FA0FF439B","title":"宝寿司(瑞金一路店)","lon":"121.46346173","lat":"31.219720076","category":"95","category_name":"日本料理","address":"卢湾区瑞金一路159号(近淮海中路)"},{"poiid":"B2094757D06FA0F9419F","title":"清迈天堂","lon":"121.46022","lat":"31.2212","category":"99","category_name":"泰国／越南菜品餐厅","address":"卢湾区进贤路145号(近茂名南路)"},{"poiid":"B2094750D068A2FA449C","title":"Tikka","lon":"121.46011","lat":"31.22115","category":"102","category_name":"印度风味","address":"卢湾区茂名南路56号(近长乐路)"},{"poiid":"B2094757D06FAAF9489A","title":"向明中学","lon":"121.4638","lat":"31.22031","category":"55","category_name":"中学","address":"上海卢湾区瑞金一路151号(近长乐路)  "},{"poiid":"B2094757D06FAAFE4392","title":"万藏(长乐路店)","lon":"121.46223","lat":"31.22084","category":"95","category_name":"日本料理","address":"卢湾区长乐路344号1楼(近瑞金一路)"},{"poiid":"B2094757D068A6F4469F","title":"Jimmy's Kitchen","lon":"121.46307273","lat":"31.220327089","category":"94","category_name":"西餐厅","address":"卢湾区茂名南路59号锦北楼1楼(长乐路)"},{"poiid":"B2094757D66BABF84899","title":"美丽岛 Isola Bella","lon":"121.46196456535","lat":"31.218356786131","category":"47","category_name":"住宅区","address":"淮海中路864号2楼近茂名南路"},{"poiid":"B2094757D06FABFE439B","title":"粋寿司","lon":"121.46058308","lat":"31.220771748","category":"95","category_name":"日本料理","address":"卢湾区长乐路175-2号(近茂名南路)"},{"poiid":"B2094654DB64A5F54099","title":"松阪烤肉","lon":"121.46118","lat":"31.21912","category":"87","category_name":"特色／地方风味餐厅","address":"卢湾区茂名南路59号锦江宾馆美食街(近长乐路)"},{"poiid":"B2094757D068A7F8459F","title":"净心轩","lon":"121.46047","lat":"31.22114","category":"89","category_name":"中式素餐馆","address":"卢湾区茂名南路56号56食尚谷D区1号(近长乐路)"},{"poiid":"B2094757D068A0FF4893","title":"锦庐 The Chinoise Story","lon":"121.46073413098","lat":"31.220246592787","category":"247","category_name":"餐饮美食","address":"卢湾区茂名南路59号锦江饭店锦北楼(近长乐路)"},{"poiid":"B2094757D068A5FD4498","title":"小南国烧烤(卢湾店)","lon":"121.46287","lat":"31.22073","category":"269","category_name":"烧烤","address":"卢湾区长乐路161号新锦江大酒店3楼(近瑞金一路)"},{"poiid":"B2094654DB64A6FC469F","title":"老夜上海","lon":"121.46046","lat":"31.22045","category":"76","category_name":"上海菜","address":"卢湾区茂名南路59号老锦江饭店北楼11-12楼(近长乐路)"},{"poiid":"B2094757DA69A3F4419B","title":"福得德","lon":"121.46017423652","lat":"31.221155993403","category":"76","category_name":"上海菜","address":"卢湾区茂名南路56号B区1楼(近进贤路)"},{"poiid":"B209475DDA68A2FA429E","title":"万岛日本料理铁板烧（锦江迪生店）","lon":"121.460075","lat":"31.220945","category":"247","category_name":"餐饮美食","address":"上海市 长乐路400号(近茂名南路)"},{"poiid":"B2094757D068A0FC409C","title":"梅园村锦梅食府","lon":"121.460920662","lat":"31.2202856175","category":"74","category_name":"江苏菜","address":"卢湾区茂名南路59号老锦江食街内(近长乐路)"},{"poiid":"B2094654D564AAFF459C","title":"春餐厅","lon":"121.46014540629","lat":"31.22205986488","category":"76","category_name":"上海菜","address":"卢湾区进贤路124号(茂名南路口)"},{"poiid":"B2094757D069ABFC479C","title":"进贤路","lon":"121.459985","lat":"31.221497","category":"500","category_name":"未知分类","address":"上海市静安区延安中路"},{"poiid":"B2094757D16AABFF449E","title":"陕西南路","lon":"121.46115673","lat":"31.221008103","category":"500","category_name":"未知分类","address":"上海市静安区陕西南路"},{"poiid":"B2094750D565AAFA489A","title":"江南","lon":"121.462814","lat":"31.220983","category":"260","category_name":"其他","address":"卢湾区长乐路348号(近瑞金一路)"},{"poiid":"B2094655D265AAFB459F","title":"锦江北楼","lon":"121.46145","lat":"31.22079","category":"46","category_name":"楼宇","address":"长乐路175"},{"poiid":"B2094757D168A6F9449A","title":"屋企汤馆","lon":"121.460766738","lat":"31.2209171016","category":"72","category_name":"广东菜","address":"卢湾区长乐路175号(近兰心大戏院)"},{"poiid":"B2094757DB6FA6FC4693","title":"EL CAMINO","lon":"121.4614093391706","lat":"31.22114830377862","category":"500","category_name":"未知分类","address":"卢湾区成都南路105号(近淮海路)"},{"poiid":"B2094654DB64A7F9479B","title":"山里","lon":"121.459704054","lat":"31.220028793","category":"95","category_name":"日本料理","address":"卢湾区茂名南路58号花园饭店2楼(近淮海中路)"},{"poiid":"B2094757D068ABFB439A","title":"鹿港小镇家常菜","lon":"121.46185","lat":"31.22081","category":"76","category_name":"上海菜","address":"卢湾区长乐路350号(近瑞金一路)"},{"poiid":"B2094757D068A0FA419C","title":"赛美蓉(Semillon Cafe&amp;Lounge)","lon":"121.46311","lat":"31.22048","category":"247","category_name":"餐饮美食","address":"上海卢湾区长乐路161号新锦江大酒店1楼(近瑞金一路)"},{"poiid":"B2094655D26BA0FA4192","title":"LOMOGRAPHY","lon":"121.46004","lat":"31.22172","category":"255","category_name":"专卖店","address":"卢湾区进贤路126号(近茂名南路)"},{"poiid":"B2094752D76CA3FD4393","title":"tap coffee","lon":"121.461437","lat":"31.21855","category":"247","category_name":"餐饮美食","address":"南昌路150号"},{"poiid":"B2094654D564AAFD4699","title":"花园饭店","lon":"121.45981","lat":"31.21981","category":"213","category_name":"五星级宾馆","address":"卢湾区茂名南路58号(近淮海中路)"},{"poiid":"B2094654D564AAFD4492","title":"新锦江大酒店","lon":"121.46285","lat":"31.22076","category":"213","category_name":"五星级宾馆","address":"卢湾区长乐路161号(近瑞金一路)"},{"poiid":"B2094654D564AAF9439B","title":"兰心大戏院","lon":"121.46051","lat":"31.2209","category":"180","category_name":"剧场","address":"卢湾区茂名南路57(近长乐路口)"},{"poiid":"B2094753D76FAAFA449C","title":"上海滩国泰旗舰店","lon":"121.466011","lat":"31.216125","category":"249","category_name":"购物服务","address":"淮海中路868号"},{"poiid":"B209475CD564A7F84292","title":"上海滩新天地店","lon":"121.47463","lat":"31.22164","category":"119","category_name":"商场","address":"\"太仓路181弄新天地北里15号\r\n\""},{"poiid":"B209475CD564A7F8439E","title":"上海滩中信泰富店","lon":"121.45602","lat":"31.22851","category":"119","category_name":"商场","address":"\"南京西路1168号中信泰富广场，店铺号221.\r\n\""},{"poiid":"B2094757D06FA3FC4998","title":"锦江饭店","lon":"121.46181369957924","lat":"31.21876480002918","category":"214","category_name":"四星级宾馆","address":"卢湾区茂名南路59号(近长乐路)"},{"poiid":"B2094757D06EAAFF439D","title":"新旺茶餐厅(长乐店)","lon":"121.4619","lat":"31.22067","category":"72","category_name":"广东菜","address":"卢湾区长乐路175号(茂名南路瑞金一路间)"},{"poiid":"B2094757D06EABF54593","title":"十面埋伏 Seafood Noodle","lon":"121.46235","lat":"31.22113","category":"75","category_name":"浙江菜","address":"卢湾区长乐路352号(近瑞金一路)"},{"poiid":"B2094757D06FA2F9469A","title":"兰心餐厅","lon":"121.45978","lat":"31.22135","category":"76","category_name":"上海菜","address":"卢湾区进贤路130号(近茂名南路)"},{"poiid":"B2094757DB68AAFF4792","title":"丽江驿 MONSOON","lon":"121.460094","lat":"31.221228","category":"99","category_name":"泰国／越南菜品餐厅","address":"卢湾区茂名南路56号56食尚谷内(近长乐路)"},{"poiid":"B2094757D464A7FE459F","title":"唐宫1号 锦江迪生店","lon":"121.459768054","lat":"31.220746793","category":"247","category_name":"餐饮美食","address":"卢湾区长乐路400号锦江迪生3-4楼(近茂名南路)"},{"poiid":"B2094757D06FA2F94693","title":"淮海中路","lon":"121.463470459","lat":"31.2209300995","category":"36","category_name":"地铁站","address":"卢湾区淮海中路"},{"poiid":"B2094655D26AA1FF429C","title":"避风塘长乐店","lon":"121.46154","lat":"31.22081","category":"66","category_name":"茶艺馆","address":"卢湾区长乐路175号(近茂名南路)"},{"poiid":"B2094757D06FA6FE489E","title":"王品台塑牛排(长乐店)","lon":"121.45989","lat":"31.22049","category":"94","category_name":"西餐厅","address":"卢湾区长乐路400号锦江迪生商厦2楼(近茂名南路)"},{"poiid":"B2094654DB64A5FD409D","title":"苏浙汇","lon":"121.46125","lat":"31.21837","category":"76","category_name":"上海菜","address":"卢湾区茂名南路127号(近淮海路)"},{"poiid":"B2094757D06FA1F9419F","title":"滴水洞(茂名南路店)","lon":"121.4601","lat":"31.22061","category":"77","category_name":"湖南菜","address":"卢湾区茂名南路56号2楼(近长乐路)"},{"poiid":"B2094757D06FA7F44099","title":"锦江小礼堂","lon":"121.46134988","lat":"31.220052989","category":"217","category_name":"旅馆招待所","address":"卢湾区茂名南路59号"},{"poiid":"B2094757D069A0F9479A","title":"天都里印度餐厅","lon":"121.461","lat":"31.22016","category":"102","category_name":"印度风味","address":"卢湾区茂名南路59号锦江饭店南楼大堂(近长乐路)"},{"poiid":"B2094655D26BA3FB4792","title":"晶采轩新锦江店","lon":"121.46284","lat":"31.22075","category":"72","category_name":"广东菜","address":"卢湾区长乐路161号新锦江大酒店3楼(近瑞金一路)"},{"poiid":"B2094757D66FA1F5419A","title":"新锦江","lon":"121.463139738","lat":"31.2208961012","category":"500","category_name":"未知分类","address":"上海市卢湾区茂名南路"},{"poiid":"B2094757D06FA0FC439E","title":"锦江迪生商厦","lon":"121.45968873","lat":"31.221020103","category":"119","category_name":"商场","address":"卢湾区长乐路400号(近茂名南路)"},{"poiid":"B2094757D06FA0FF439B","title":"宝寿司(瑞金一路店)","lon":"121.46346173","lat":"31.219720076","category":"95","category_name":"日本料理","address":"卢湾区瑞金一路159号(近淮海中路)"},{"poiid":"B2094757D06FA0F9419F","title":"清迈天堂","lon":"121.46022","lat":"31.2212","category":"99","category_name":"泰国／越南菜品餐厅","address":"卢湾区进贤路145号(近茂名南路)"},{"poiid":"B2094750D068A2FA449C","title":"Tikka","lon":"121.46011","lat":"31.22115","category":"102","category_name":"印度风味","address":"卢湾区茂名南路56号(近长乐路)"},{"poiid":"B2094757D06FAAF9489A","title":"向明中学","lon":"121.4638","lat":"31.22031","category":"55","category_name":"中学","address":"上海卢湾区瑞金一路151号(近长乐路)  "},{"poiid":"B2094757D06FAAFE4392","title":"万藏(长乐路店)","lon":"121.46223","lat":"31.22084","category":"95","category_name":"日本料理","address":"卢湾区长乐路344号1楼(近瑞金一路)"},{"poiid":"B2094757D068A6F4469F","title":"Jimmy's Kitchen","lon":"121.46307273","lat":"31.220327089","category":"94","category_name":"西餐厅","address":"卢湾区茂名南路59号锦北楼1楼(长乐路)"},{"poiid":"B2094757D66BABF84899","title":"美丽岛 Isola Bella","lon":"121.46196456535","lat":"31.218356786131","category":"47","category_name":"住宅区","address":"淮海中路864号2楼近茂名南路"},{"poiid":"B2094757D06FABFE439B","title":"粋寿司","lon":"121.46058308","lat":"31.220771748","category":"95","category_name":"日本料理","address":"卢湾区长乐路175-2号(近茂名南路)"},{"poiid":"B2094654DB64A5F54099","title":"松阪烤肉","lon":"121.46118","lat":"31.21912","category":"87","category_name":"特色／地方风味餐厅","address":"卢湾区茂名南路59号锦江宾馆美食街(近长乐路)"},{"poiid":"B2094757D068A7F8459F","title":"净心轩","lon":"121.46047","lat":"31.22114","category":"89","category_name":"中式素餐馆","address":"卢湾区茂名南路56号56食尚谷D区1号(近长乐路)"},{"poiid":"B2094757D068A0FF4893","title":"锦庐 The Chinoise Story","lon":"121.46073413098","lat":"31.220246592787","category":"247","category_name":"餐饮美食","address":"卢湾区茂名南路59号锦江饭店锦北楼(近长乐路)"},{"poiid":"B2094757D068A5FD4498","title":"小南国烧烤(卢湾店)","lon":"121.46287","lat":"31.22073","category":"269","category_name":"烧烤","address":"卢湾区长乐路161号新锦江大酒店3楼(近瑞金一路)"},{"poiid":"B2094654DB64A6FC469F","title":"老夜上海","lon":"121.46046","lat":"31.22045","category":"76","category_name":"上海菜","address":"卢湾区茂名南路59号老锦江饭店北楼11-12楼(近长乐路)"},{"poiid":"B2094757DA69A3F4419B","title":"福得德","lon":"121.46017423652","lat":"31.221155993403","category":"76","category_name":"上海菜","address":"卢湾区茂名南路56号B区1楼(近进贤路)"},{"poiid":"B209475DDA68A2FA429E","title":"万岛日本料理铁板烧（锦江迪生店）","lon":"121.460075","lat":"31.220945","category":"247","category_name":"餐饮美食","address":"上海市 长乐路400号(近茂名南路)"},{"poiid":"B2094757D068A0FC409C","title":"梅园村锦梅食府","lon":"121.460920662","lat":"31.2202856175","category":"74","category_name":"江苏菜","address":"卢湾区茂名南路59号老锦江食街内(近长乐路)"},{"poiid":"B2094654D564AAFF459C","title":"春餐厅","lon":"121.46014540629","lat":"31.22205986488","category":"76","category_name":"上海菜","address":"卢湾区进贤路124号(茂名南路口)"},{"poiid":"B2094757D069ABFC479C","title":"进贤路","lon":"121.459985","lat":"31.221497","category":"500","category_name":"未知分类","address":"上海市静安区延安中路"},{"poiid":"B2094757D16AABFF449E","title":"陕西南路","lon":"121.46115673","lat":"31.221008103","category":"500","category_name":"未知分类","address":"上海市静安区陕西南路"},{"poiid":"B2094750D565AAFA489A","title":"江南","lon":"121.462814","lat":"31.220983","category":"260","category_name":"其他","address":"卢湾区长乐路348号(近瑞金一路)"},{"poiid":"B2094655D265AAFB459F","title":"锦江北楼","lon":"121.46145","lat":"31.22079","category":"46","category_name":"楼宇","address":"长乐路175"},{"poiid":"B2094757D168A6F9449A","title":"屋企汤馆","lon":"121.460766738","lat":"31.2209171016","category":"72","category_name":"广东菜","address":"卢湾区长乐路175号(近兰心大戏院)"},{"poiid":"B2094757DB6FA6FC4693","title":"EL CAMINO","lon":"121.4614093391706","lat":"31.22114830377862","category":"500","category_name":"未知分类","address":"卢湾区成都南路105号(近淮海路)"},{"poiid":"B2094654DB64A7F9479B","title":"山里","lon":"121.459704054","lat":"31.220028793","category":"95","category_name":"日本料理","address":"卢湾区茂名南路58号花园饭店2楼(近淮海中路)"},{"poiid":"B2094757D068ABFB439A","title":"鹿港小镇家常菜","lon":"121.46185","lat":"31.22081","category":"76","category_name":"上海菜","address":"卢湾区长乐路350号(近瑞金一路)"},{"poiid":"B2094757D068A0FA419C","title":"赛美蓉(Semillon Cafe&amp;Lounge)","lon":"121.46311","lat":"31.22048","category":"247","category_name":"餐饮美食","address":"上海卢湾区长乐路161号新锦江大酒店1楼(近瑞金一路)"},{"poiid":"B2094655D26BA0FA4192","title":"LOMOGRAPHY","lon":"121.46004","lat":"31.22172","category":"255","category_name":"专卖店","address":"卢湾区进贤路126号(近茂名南路)"},{"poiid":"B2094752D76CA3FD4393","title":"tap coffee","lon":"121.461437","lat":"31.21855","category":"247","category_name":"餐饮美食","address":"南昌路150号"},{"poiid":"B2094654D564AAFD4699","title":"花园饭店","lon":"121.45981","lat":"31.21981","category":"213","category_name":"五星级宾馆","address":"卢湾区茂名南路58号(近淮海中路)"},{"poiid":"B2094654D564AAFD4492","title":"新锦江大酒店","lon":"121.46285","lat":"31.22076","category":"213","category_name":"五星级宾馆","address":"卢湾区长乐路161号(近瑞金一路)"},{"poiid":"B2094654D564AAF9439B","title":"兰心大戏院","lon":"121.46051","lat":"31.2209","category":"180","category_name":"剧场","address":"卢湾区茂名南路57(近长乐路口)"},{"poiid":"B2094753D76FAAFA449C","title":"上海滩国泰旗舰店","lon":"121.466011","lat":"31.216125","category":"249","category_name":"购物服务","address":"淮海中路868号"},{"poiid":"B209475CD564A7F84292","title":"上海滩新天地店","lon":"121.47463","lat":"31.22164","category":"119","category_name":"商场","address":"\"太仓路181弄新天地北里15号\r\n\""},{"poiid":"B209475CD564A7F8439E","title":"上海滩中信泰富店","lon":"121.45602","lat":"31.22851","category":"119","category_name":"商场","address":"\"南京西路1168号中信泰富广场，店铺号221.\r\n\""},{"poiid":"B2094757D06FA3FC4998","title":"锦江饭店","lon":"121.46181369957924","lat":"31.21876480002918","category":"214","category_name":"四星级宾馆","address":"卢湾区茂名南路59号(近长乐路)"},{"poiid":"B2094757D06EAAFF439D","title":"新旺茶餐厅(长乐店)","lon":"121.4619","lat":"31.22067","category":"72","category_name":"广东菜","address":"卢湾区长乐路175号(茂名南路瑞金一路间)"},{"poiid":"B2094757D06EABF54593","title":"十面埋伏 Seafood Noodle","lon":"121.46235","lat":"31.22113","category":"75","category_name":"浙江菜","address":"卢湾区长乐路352号(近瑞金一路)"},{"poiid":"B2094757D06FA2F9469A","title":"兰心餐厅","lon":"121.45978","lat":"31.22135","category":"76","category_name":"上海菜","address":"卢湾区进贤路130号(近茂名南路)"},{"poiid":"B2094757DB68AAFF4792","title":"丽江驿 MONSOON","lon":"121.460094","lat":"31.221228","category":"99","category_name":"泰国／越南菜品餐厅","address":"卢湾区茂名南路56号56食尚谷内(近长乐路)"},{"poiid":"B2094757D464A7FE459F","title":"唐宫1号 锦江迪生店","lon":"121.459768054","lat":"31.220746793","category":"247","category_name":"餐饮美食","address":"卢湾区长乐路400号锦江迪生3-4楼(近茂名南路)"},{"poiid":"B2094757D06FA2F94693","title":"淮海中路","lon":"121.463470459","lat":"31.2209300995","category":"36","category_name":"地铁站","address":"卢湾区淮海中路"},{"poiid":"B2094655D26AA1FF429C","title":"避风塘长乐店","lon":"121.46154","lat":"31.22081","category":"66","category_name":"茶艺馆","address":"卢湾区长乐路175号(近茂名南路)"},{"poiid":"B2094757D06FA6FE489E","title":"王品台塑牛排(长乐店)","lon":"121.45989","lat":"31.22049","category":"94","category_name":"西餐厅","address":"卢湾区长乐路400号锦江迪生商厦2楼(近茂名南路)"},{"poiid":"B2094654DB64A5FD409D","title":"苏浙汇","lon":"121.46125","lat":"31.21837","category":"76","category_name":"上海菜","address":"卢湾区茂名南路127号(近淮海路)"},{"poiid":"B2094757D06FA1F9419F","title":"滴水洞(茂名南路店)","lon":"121.4601","lat":"31.22061","category":"77","category_name":"湖南菜","address":"卢湾区茂名南路56号2楼(近长乐路)"},{"poiid":"B2094757D06FA7F44099","title":"锦江小礼堂","lon":"121.46134988","lat":"31.220052989","category":"217","category_name":"旅馆招待所","address":"卢湾区茂名南路59号"},{"poiid":"B2094757D069A0F9479A","title":"天都里印度餐厅","lon":"121.461","lat":"31.22016","category":"102","category_name":"印度风味","address":"卢湾区茂名南路59号锦江饭店南楼大堂(近长乐路)"},{"poiid":"B2094655D26BA3FB4792","title":"晶采轩新锦江店","lon":"121.46284","lat":"31.22075","category":"72","category_name":"广东菜","address":"卢湾区长乐路161号新锦江大酒店3楼(近瑞金一路)"},{"poiid":"B2094757D66FA1F5419A","title":"新锦江","lon":"121.463139738","lat":"31.2208961012","category":"500","category_name":"未知分类","address":"上海市卢湾区茂名南路"},{"poiid":"B2094757D06FA0FC439E","title":"锦江迪生商厦","lon":"121.45968873","lat":"31.221020103","category":"119","category_name":"商场","address":"卢湾区长乐路400号(近茂名南路)"},{"poiid":"B2094757D06FA0FF439B","title":"宝寿司(瑞金一路店)","lon":"121.46346173","lat":"31.219720076","category":"95","category_name":"日本料理","address":"卢湾区瑞金一路159号(近淮海中路)"},{"poiid":"B2094757D06FA0F9419F","title":"清迈天堂","lon":"121.46022","lat":"31.2212","category":"99","category_name":"泰国／越南菜品餐厅","address":"卢湾区进贤路145号(近茂名南路)"},{"poiid":"B2094750D068A2FA449C","title":"Tikka","lon":"121.46011","lat":"31.22115","category":"102","category_name":"印度风味","address":"卢湾区茂名南路56号(近长乐路)"},{"poiid":"B2094757D06FAAF9489A","title":"向明中学","lon":"121.4638","lat":"31.22031","category":"55","category_name":"中学","address":"上海卢湾区瑞金一路151号(近长乐路)  "},{"poiid":"B2094757D06FAAFE4392","title":"万藏(长乐路店)","lon":"121.46223","lat":"31.22084","category":"95","category_name":"日本料理","address":"卢湾区长乐路344号1楼(近瑞金一路)"},{"poiid":"B2094757D068A6F4469F","title":"Jimmy's Kitchen","lon":"121.46307273","lat":"31.220327089","category":"94","category_name":"西餐厅","address":"卢湾区茂名南路59号锦北楼1楼(长乐路)"},{"poiid":"B2094757D66BABF84899","title":"美丽岛 Isola Bella","lon":"121.46196456535","lat":"31.218356786131","category":"47","category_name":"住宅区","address":"淮海中路864号2楼近茂名南路"},{"poiid":"B2094757D06FABFE439B","title":"粋寿司","lon":"121.46058308","lat":"31.220771748","category":"95","category_name":"日本料理","address":"卢湾区长乐路175-2号(近茂名南路)"},{"poiid":"B2094654DB64A5F54099","title":"松阪烤肉","lon":"121.46118","lat":"31.21912","category":"87","category_name":"特色／地方风味餐厅","address":"卢湾区茂名南路59号锦江宾馆美食街(近长乐路)"},{"poiid":"B2094757D068A7F8459F","title":"净心轩","lon":"121.46047","lat":"31.22114","category":"89","category_name":"中式素餐馆","address":"卢湾区茂名南路56号56食尚谷D区1号(近长乐路)"},{"poiid":"B2094757D068A0FF4893","title":"锦庐 The Chinoise Story","lon":"121.46073413098","lat":"31.220246592787","category":"247","category_name":"餐饮美食","address":"卢湾区茂名南路59号锦江饭店锦北楼(近长乐路)"},{"poiid":"B2094757D068A5FD4498","title":"小南国烧烤(卢湾店)","lon":"121.46287","lat":"31.22073","category":"269","category_name":"烧烤","address":"卢湾区长乐路161号新锦江大酒店3楼(近瑞金一路)"},{"poiid":"B2094654DB64A6FC469F","title":"老夜上海","lon":"121.46046","lat":"31.22045","category":"76","category_name":"上海菜","address":"卢湾区茂名南路59号老锦江饭店北楼11-12楼(近长乐路)"},{"poiid":"B2094757DA69A3F4419B","title":"福得德","lon":"121.46017423652","lat":"31.221155993403","category":"76","category_name":"上海菜","address":"卢湾区茂名南路56号B区1楼(近进贤路)"},{"poiid":"B209475DDA68A2FA429E","title":"万岛日本料理铁板烧（锦江迪生店）","lon":"121.460075","lat":"31.220945","category":"247","category_name":"餐饮美食","address":"上海市 长乐路400号(近茂名南路)"},{"poiid":"B2094757D068A0FC409C","title":"梅园村锦梅食府","lon":"121.460920662","lat":"31.2202856175","category":"74","category_name":"江苏菜","address":"卢湾区茂名南路59号老锦江食街内(近长乐路)"},{"poiid":"B2094654D564AAFF459C","title":"春餐厅","lon":"121.46014540629","lat":"31.22205986488","category":"76","category_name":"上海菜","address":"卢湾区进贤路124号(茂名南路口)"},{"poiid":"B2094757D069ABFC479C","title":"进贤路","lon":"121.459985","lat":"31.221497","category":"500","category_name":"未知分类","address":"上海市静安区延安中路"},{"poiid":"B2094757D16AABFF449E","title":"陕西南路","lon":"121.46115673","lat":"31.221008103","category":"500","category_name":"未知分类","address":"上海市静安区陕西南路"},{"poiid":"B2094750D565AAFA489A","title":"江南","lon":"121.462814","lat":"31.220983","category":"260","category_name":"其他","address":"卢湾区长乐路348号(近瑞金一路)"},{"poiid":"B2094655D265AAFB459F","title":"锦江北楼","lon":"121.46145","lat":"31.22079","category":"46","category_name":"楼宇","address":"长乐路175"},{"poiid":"B2094757D168A6F9449A","title":"屋企汤馆","lon":"121.460766738","lat":"31.2209171016","category":"72","category_name":"广东菜","address":"卢湾区长乐路175号(近兰心大戏院)"},{"poiid":"B2094757DB6FA6FC4693","title":"EL CAMINO","lon":"121.4614093391706","lat":"31.22114830377862","category":"500","category_name":"未知分类","address":"卢湾区成都南路105号(近淮海路)"},{"poiid":"B2094654DB64A7F9479B","title":"山里","lon":"121.459704054","lat":"31.220028793","category":"95","category_name":"日本料理","address":"卢湾区茂名南路58号花园饭店2楼(近淮海中路)"},{"poiid":"B2094757D068ABFB439A","title":"鹿港小镇家常菜","lon":"121.46185","lat":"31.22081","category":"76","category_name":"上海菜","address":"卢湾区长乐路350号(近瑞金一路)"},{"poiid":"B2094757D068A0FA419C","title":"赛美蓉(Semillon Cafe&amp;Lounge)","lon":"121.46311","lat":"31.22048","category":"247","category_name":"餐饮美食","address":"上海卢湾区长乐路161号新锦江大酒店1楼(近瑞金一路)"},{"poiid":"B2094655D26BA0FA4192","title":"LOMOGRAPHY","lon":"121.46004","lat":"31.22172","category":"255","category_name":"专卖店","address":"卢湾区进贤路126号(近茂名南路)"},{"poiid":"B2094752D76CA3FD4393","title":"tap coffee","lon":"121.461437","lat":"31.21855","category":"247","category_name":"餐饮美食","address":"南昌路150号"},{"poiid":"B2094654D564AAFD4699","title":"花园饭店","lon":"121.45981","lat":"31.21981","category":"213","category_name":"五星级宾馆","address":"卢湾区茂名南路58号(近淮海中路)"},{"poiid":"B2094654D564AAFD4492","title":"新锦江大酒店","lon":"121.46285","lat":"31.22076","category":"213","category_name":"五星级宾馆","address":"卢湾区长乐路161号(近瑞金一路)"},{"poiid":"B2094654D564AAF9439B","title":"兰心大戏院","lon":"121.46051","lat":"31.2209","category":"180","category_name":"剧场","address":"卢湾区茂名南路57(近长乐路口)"},{"poiid":"B2094753D76FAAFA449C","title":"上海滩国泰旗舰店","lon":"121.466011","lat":"31.216125","category":"249","category_name":"购物服务","address":"淮海中路868号"},{"poiid":"B209475CD564A7F84292","title":"上海滩新天地店","lon":"121.47463","lat":"31.22164","category":"119","category_name":"商场","address":"\"太仓路181弄新天地北里15号\r\n\""},{"poiid":"B209475CD564A7F8439E","title":"上海滩中信泰富店","lon":"121.45602","lat":"31.22851","category":"119","category_name":"商场","address":"\"南京西路1168号中信泰富广场，店铺号221.\r\n\""},{"poiid":"B2094757D06FA3FC4998","title":"锦江饭店","lon":"121.46181369957924","lat":"31.21876480002918","category":"214","category_name":"四星级宾馆","address":"卢湾区茂名南路59号(近长乐路)"},{"poiid":"B2094757D06EAAFF439D","title":"新旺茶餐厅(长乐店)","lon":"121.4619","lat":"31.22067","category":"72","category_name":"广东菜","address":"卢湾区长乐路175号(茂名南路瑞金一路间)"},{"poiid":"B2094757D06EABF54593","title":"十面埋伏 Seafood Noodle","lon":"121.46235","lat":"31.22113","category":"75","category_name":"浙江菜","address":"卢湾区长乐路352号(近瑞金一路)"},{"poiid":"B2094757D06FA2F9469A","title":"兰心餐厅","lon":"121.45978","lat":"31.22135","category":"76","category_name":"上海菜","address":"卢湾区进贤路130号(近茂名南路)"},{"poiid":"B2094757DB68AAFF4792","title":"丽江驿 MONSOON","lon":"121.460094","lat":"31.221228","category":"99","category_name":"泰国／越南菜品餐厅","address":"卢湾区茂名南路56号56食尚谷内(近长乐路)"},{"poiid":"B2094757D464A7FE459F","title":"唐宫1号 锦江迪生店","lon":"121.459768054","lat":"31.220746793","category":"247","category_name":"餐饮美食","address":"卢湾区长乐路400号锦江迪生3-4楼(近茂名南路)"},{"poiid":"B2094757D06FA2F94693","title":"淮海中路","lon":"121.463470459","lat":"31.2209300995","category":"36","category_name":"地铁站","address":"卢湾区淮海中路"},{"poiid":"B2094655D26AA1FF429C","title":"避风塘长乐店","lon":"121.46154","lat":"31.22081","category":"66","category_name":"茶艺馆","address":"卢湾区长乐路175号(近茂名南路)"},{"poiid":"B2094757D06FA6FE489E","title":"王品台塑牛排(长乐店)","lon":"121.45989","lat":"31.22049","category":"94","category_name":"西餐厅","address":"卢湾区长乐路400号锦江迪生商厦2楼(近茂名南路)"},{"poiid":"B2094654DB64A5FD409D","title":"苏浙汇","lon":"121.46125","lat":"31.21837","category":"76","category_name":"上海菜","address":"卢湾区茂名南路127号(近淮海路)"},{"poiid":"B2094757D06FA1F9419F","title":"滴水洞(茂名南路店)","lon":"121.4601","lat":"31.22061","category":"77","category_name":"湖南菜","address":"卢湾区茂名南路56号2楼(近长乐路)"},{"poiid":"B2094757D06FA7F44099","title":"锦江小礼堂","lon":"121.46134988","lat":"31.220052989","category":"217","category_name":"旅馆招待所","address":"卢湾区茂名南路59号"},{"poiid":"B2094757D069A0F9479A","title":"天都里印度餐厅","lon":"121.461","lat":"31.22016","category":"102","category_name":"印度风味","address":"卢湾区茂名南路59号锦江饭店南楼大堂(近长乐路)"},{"poiid":"B2094655D26BA3FB4792","title":"晶采轩新锦江店","lon":"121.46284","lat":"31.22075","category":"72","category_name":"广东菜","address":"卢湾区长乐路161号新锦江大酒店3楼(近瑞金一路)"},{"poiid":"B2094757D66FA1F5419A","title":"新锦江","lon":"121.463139738","lat":"31.2208961012","category":"500","category_name":"未知分类","address":"上海市卢湾区茂名南路"},{"poiid":"B2094757D06FA0FC439E","title":"锦江迪生商厦","lon":"121.45968873","lat":"31.221020103","category":"119","category_name":"商场","address":"卢湾区长乐路400号(近茂名南路)"},{"poiid":"B2094757D06FA0FF439B","title":"宝寿司(瑞金一路店)","lon":"121.46346173","lat":"31.219720076","category":"95","category_name":"日本料理","address":"卢湾区瑞金一路159号(近淮海中路)"},{"poiid":"B2094757D06FA0F9419F","title":"清迈天堂","lon":"121.46022","lat":"31.2212","category":"99","category_name":"泰国／越南菜品餐厅","address":"卢湾区进贤路145号(近茂名南路)"},{"poiid":"B2094750D068A2FA449C","title":"Tikka","lon":"121.46011","lat":"31.22115","category":"102","category_name":"印度风味","address":"卢湾区茂名南路56号(近长乐路)"},{"poiid":"B2094757D06FAAF9489A","title":"向明中学","lon":"121.4638","lat":"31.22031","category":"55","category_name":"中学","address":"上海卢湾区瑞金一路151号(近长乐路)  "},{"poiid":"B2094757D06FAAFE4392","title":"万藏(长乐路店)","lon":"121.46223","lat":"31.22084","category":"95","category_name":"日本料理","address":"卢湾区长乐路344号1楼(近瑞金一路)"},{"poiid":"B2094757D068A6F4469F","title":"Jimmy's Kitchen","lon":"121.46307273","lat":"31.220327089","category":"94","category_name":"西餐厅","address":"卢湾区茂名南路59号锦北楼1楼(长乐路)"},{"poiid":"B2094757D66BABF84899","title":"美丽岛 Isola Bella","lon":"121.46196456535","lat":"31.218356786131","category":"47","category_name":"住宅区","address":"淮海中路864号2楼近茂名南路"},{"poiid":"B2094757D06FABFE439B","title":"粋寿司","lon":"121.46058308","lat":"31.220771748","category":"95","category_name":"日本料理","address":"卢湾区长乐路175-2号(近茂名南路)"},{"poiid":"B2094654DB64A5F54099","title":"松阪烤肉","lon":"121.46118","lat":"31.21912","category":"87","category_name":"特色／地方风味餐厅","address":"卢湾区茂名南路59号锦江宾馆美食街(近长乐路)"},{"poiid":"B2094757D068A7F8459F","title":"净心轩","lon":"121.46047","lat":"31.22114","category":"89","category_name":"中式素餐馆","address":"卢湾区茂名南路56号56食尚谷D区1号(近长乐路)"},{"poiid":"B2094757D068A0FF4893","title":"锦庐 The Chinoise Story","lon":"121.46073413098","lat":"31.220246592787","category":"247","category_name":"餐饮美食","address":"卢湾区茂名南路59号锦江饭店锦北楼(近长乐路)"},{"poiid":"B2094757D068A5FD4498","title":"小南国烧烤(卢湾店)","lon":"121.46287","lat":"31.22073","category":"269","category_name":"烧烤","address":"卢湾区长乐路161号新锦江大酒店3楼(近瑞金一路)"},{"poiid":"B2094654DB64A6FC469F","title":"老夜上海","lon":"121.46046","lat":"31.22045","category":"76","category_name":"上海菜","address":"卢湾区茂名南路59号老锦江饭店北楼11-12楼(近长乐路)"},{"poiid":"B2094757DA69A3F4419B","title":"福得德","lon":"121.46017423652","lat":"31.221155993403","category":"76","category_name":"上海菜","address":"卢湾区茂名南路56号B区1楼(近进贤路)"},{"poiid":"B209475DDA68A2FA429E","title":"万岛日本料理铁板烧（锦江迪生店）","lon":"121.460075","lat":"31.220945","category":"247","category_name":"餐饮美食","address":"上海市 长乐路400号(近茂名南路)"},{"poiid":"B2094757D068A0FC409C","title":"梅园村锦梅食府","lon":"121.460920662","lat":"31.2202856175","category":"74","category_name":"江苏菜","address":"卢湾区茂名南路59号老锦江食街内(近长乐路)"},{"poiid":"B2094654D564AAFF459C","title":"春餐厅","lon":"121.46014540629","lat":"31.22205986488","category":"76","category_name":"上海菜","address":"卢湾区进贤路124号(茂名南路口)"},{"poiid":"B2094757D069ABFC479C","title":"进贤路","lon":"121.459985","lat":"31.221497","category":"500","category_name":"未知分类","address":"上海市静安区延安中路"},{"poiid":"B2094757D16AABFF449E","title":"陕西南路","lon":"121.46115673","lat":"31.221008103","category":"500","category_name":"未知分类","address":"上海市静安区陕西南路"},{"poiid":"B2094750D565AAFA489A","title":"江南","lon":"121.462814","lat":"31.220983","category":"260","category_name":"其他","address":"卢湾区长乐路348号(近瑞金一路)"},{"poiid":"B2094655D265AAFB459F","title":"锦江北楼","lon":"121.46145","lat":"31.22079","category":"46","category_name":"楼宇","address":"长乐路175"},{"poiid":"B2094757D168A6F9449A","title":"屋企汤馆","lon":"121.460766738","lat":"31.2209171016","category":"72","category_name":"广东菜","address":"卢湾区长乐路175号(近兰心大戏院)"},{"poiid":"B2094757DB6FA6FC4693","title":"EL CAMINO","lon":"121.4614093391706","lat":"31.22114830377862","category":"500","category_name":"未知分类","address":"卢湾区成都南路105号(近淮海路)"},{"poiid":"B2094654DB64A7F9479B","title":"山里","lon":"121.459704054","lat":"31.220028793","category":"95","category_name":"日本料理","address":"卢湾区茂名南路58号花园饭店2楼(近淮海中路)"},{"poiid":"B2094757D068ABFB439A","title":"鹿港小镇家常菜","lon":"121.46185","lat":"31.22081","category":"76","category_name":"上海菜","address":"卢湾区长乐路350号(近瑞金一路)"},{"poiid":"B2094757D068A0FA419C","title":"赛美蓉(Semillon Cafe&amp;Lounge)","lon":"121.46311","lat":"31.22048","category":"247","category_name":"餐饮美食","address":"上海卢湾区长乐路161号新锦江大酒店1楼(近瑞金一路)"},{"poiid":"B2094655D26BA0FA4192","title":"LOMOGRAPHY","lon":"121.46004","lat":"31.22172","category":"255","category_name":"专卖店","address":"卢湾区进贤路126号(近茂名南路)"},{"poiid":"B2094752D76CA3FD4393","title":"tap coffee","lon":"121.461437","lat":"31.21855","category":"247","category_name":"餐饮美食","address":"南昌路150号"}]