[{"poiid":"B2094757D06EAAFD4893","title":"海伦路地铁站","lon":"121.48851616","lat":"31.259517259","category":"36","category_name":"地铁站","address":"上海轨道交通 四号线 十号线 轨交海伦路站 轻轨 4 10"},{"poiid":"B2094757D06EAAF94099","title":"上海虹口三至喜来登酒店 (Sheraton Shanghai Hongkou Hotel)","lon":"121.487931474","lat":"31.2578795296","category":"217","category_name":"旅馆招待所","address":"上海市虹口区四平路59号(近海伦路)"},{"poiid":"B2094757D06FA7F9409F","title":"上汽培训中心","lon":"121.491014","lat":"31.258986","category":"253","category_name":"校园生活","address":"上海同嘉路79号"},{"poiid":"B209475CD564A7F84392","title":"上海滩浦东香格里拉店","lon":"121.50058","lat":"31.23634","category":"119","category_name":"商场","address":"浦东富成路33号香格里拉酒店内大堂层"},{"poiid":"B2094654D56EA3FB469A","title":"海泰时代大厦","lon":"121.492","lat":"31.2576","category":"46","category_name":"楼宇","address":"丰台学城海鹰路1号,3号"},{"poiid":"B2094757D06FA3FB419C","title":"玛格萝妮比萨屋(物华店)","lon":"121.49097189","lat":"31.26244171","category":"94","category_name":"西餐厅","address":"上海虹口区四平路188号(近物华路)"},{"poiid":"B209475CD769A7F94093","title":"王子公主奇遇记主题KTV","lon":"121.488833","lat":"31.261971","category":"170","category_name":"KTV","address":"上海市虹口区四平路257号1-3楼(近溧阳路)"},{"poiid":"B2094654DB6AAAF84898","title":"美林阁 四平路店 MeiLinGe","lon":"121.489139054","lat":"31.262070793","category":"76","category_name":"上海菜","address":"虹口区四平路257号虹口世纪酒店1-2楼(近溧阳路)"},{"poiid":"B2094757D06EAAF9429B","title":"麦当劳(四平路店)","lon":"121.48855","lat":"31.26093","category":"68","category_name":"快餐厅","address":"虹口区溧阳路1114号(近四平路)"},{"poiid":"B2094757D06BA7FB4298","title":"海伦路","lon":"121.488512","lat":"31.259589","category":"500","category_name":"未知分类","address":"上海海伦路"},{"poiid":"B2094752D26BABFC419F","title":"星梦剧场（SNH48专属剧场）","lon":"121.490448","lat":"31.256707","category":"180","category_name":"剧场","address":"上海市 嘉兴路267号近哈尔滨路"},{"poiid":"B2094757D069A3F5489C","title":"上海汽车工业(集团)总公司培训中心","lon":"121.491016723","lat":"31.25898445","category":"46","category_name":"楼宇","address":"上海虹口区同嘉路79号"},{"poiid":"B2094655D26AA0F9409E","title":"地铁海伦路站","lon":"121.48851233539108","lat":"31.259587013563777","category":"36","category_name":"地铁站","address":"上海轨道交通 四号线 轨交海伦路站 4"},{"poiid":"B2094655D26FA6FB4098","title":"上海虹口世纪大酒店(东门)","lon":"121.4895","lat":"31.26183","category":"214","category_name":"四星级宾馆","address":"上海市虹口区溧阳路1111号（近四平路）"},{"poiid":"B2094757D16DA5FE419A","title":"四平路","lon":"121.4897721","lat":"31.261685239","category":"500","category_name":"未知分类","address":"上海四平路"},{"poiid":"B2094757D065A0FE429E","title":"10号线四平路站","lon":"121.492128103","lat":"31.2614232342","category":"500","category_name":"未知分类","address":"上海四平路"},{"poiid":"B2094752DA6AABFF4393","title":"红麻辣料理","lon":"121.4919952653603","lat":"31.26094885039997","category":"247","category_name":"餐饮美食","address":"上海市 物华路海拉尔路"},{"poiid":"B2094757D068A2F44199","title":"四平路海伦路","lon":"121.488717","lat":"31.257259","category":"260","category_name":"其他","address":"上海四平路海伦路嘉兴路"},{"poiid":"B2094753DA6AA6FA4393","title":"SNH48星梦剧院","lon":"121.490242","lat":"31.258754","category":"500","category_name":"未知分类","address":"上海市 嘉兴路267号"},{"poiid":"B2094757D06FAAFB479B","title":"圆缘园(四平路店)","lon":"121.48934","lat":"31.26007","category":"260","category_name":"其他","address":"虹口区四平路150号(近溧阳路)"},{"poiid":"B2094654D56EA3FB4399","title":"虹口商城","lon":"121.48992784665","lat":"31.260299724248","category":"46","category_name":"楼宇","address":"上海市虹口区四川路1457号"},{"poiid":"B2094757D06BA4FA4899","title":"湘汇轩(四平路店)","lon":"121.48959","lat":"31.26003","category":"77","category_name":"湖南菜","address":"虹口区四平路148号(天水路邢家桥北路)"},{"poiid":"B2094750D66EA5F5479E","title":"COSTA COFFEE","lon":"121.49328","lat":"31.26153","category":"65","category_name":"咖啡厅","address":"虹口区物华路212号(近香烟桥路)"},{"poiid":"B2094757D06BA0FE449C","title":"西安美食阁 四平路店","lon":"121.489280054","lat":"31.260448793","category":"84","category_name":"西北菜","address":"虹口区四平路156号(近溧阳路)"},{"poiid":"B2094654D56DABF5469E","title":"盛泰国际大厦","lon":"121.49125","lat":"31.26289","category":"46","category_name":"楼宇","address":"上海市虹口区四平路200号"},{"poiid":"B2094757D06EAAFF4798","title":"新世界电影城","lon":"121.48867321","lat":"31.2608388428","category":"178","category_name":"电影院","address":"上海南京西路2～68号新世界城12楼"},{"poiid":"B2094757D069A3F54993","title":"伊加伊(四平店)","lon":"121.49006","lat":"31.26121","category":"68","category_name":"快餐厅","address":"虹口区四平路146号(近天水路)"},{"poiid":"B2094757D069AAF94892","title":"大桶大足浴(物华店)","lon":"121.49236","lat":"31.26168","category":"149","category_name":"洗浴推拿场所","address":"虹口区物华路276号(近四平路)"},{"poiid":"B2094654D56DABFA499A","title":"爱家豪庭","lon":"121.49217","lat":"31.26136","category":"47","category_name":"住宅区","address":"物华路246弄1-6号"},{"poiid":"B2094757D068A2F94998","title":"国际商厦","lon":"121.49205205017","lat":"31.256364309751","category":"46","category_name":"楼宇","address":"虹口区海宁路,吴淞路口"},{"poiid":"B2094757D16CA3F54998","title":"地铁十号线四平路站","lon":"121.488674803","lat":"31.2585712746","category":"500","category_name":"未知分类","address":"上海四平路"},{"poiid":"B2094655D26AA7FC4999","title":"上服假日酒店天水路店","lon":"121.49137","lat":"31.25928","category":"247","category_name":"餐饮美食","address":"虹口区天水路90号(近同嘉路)"},{"poiid":"B2094753DB68A3F9439F","title":"19叁3（老场坊）","lon":"121.489547","lat":"31.258874","category":"500","category_name":"未知分类","address":"上海市 上海虹口区溧阳路611号1933老场坊1-305室"},{"poiid":"B2094454D36BA3FE449F","title":"zoo coffee","lon":"121.493743","lat":"31.258939","category":"247","category_name":"餐饮美食","address":"上海市 四平路150号"},{"poiid":"B2094751D264A1FB4993","title":"上汽集团培训中心","lon":"121.490775","lat":"31.259761","category":"190","category_name":"培训机构","address":"虹口区同嘉路79号"},{"poiid":"B2094757D06BABFF429C","title":"淳寿司","lon":"121.488793103","lat":"31.2584651724","category":"95","category_name":"日本料理","address":"虹口区四平路156号(近地铁四号线海伦路站)"},{"poiid":"B2094757D068A6FF4392","title":"锦鑫桌球俱乐部","lon":"121.49018","lat":"31.26254","category":"171","category_name":"台球厅","address":"虹口区四平路277号2楼(近物华路)"},{"poiid":"B2094655D26BA2FB4899","title":"四平路溧阳路","lon":"121.48868","lat":"31.2596","category":"38","category_name":"公交车站","address":""},{"poiid":"B2094751D26AA2FF469E","title":"芋美人","lon":"121.48939","lat":"31.26035","category":"67","category_name":"甜品店","address":"虹口区四平路146号(近地铁10号线海伦路站7号出口)"},{"poiid":"B2094655D26CA0F84593","title":"快客No.5161","lon":"121.4896","lat":"31.26015","category":"117","category_name":"便民商店/便利店","address":"天水路193"},{"poiid":"B2094750D76FA1FE419F","title":"潮汕砂煲粥","lon":"121.491","lat":"31.2621","category":"72","category_name":"广东菜","address":"虹口区四平路188号(近贯中路)"},{"poiid":"B2094757D16EA0F94493","title":"老北京羊肉涮锅","lon":"121.49101","lat":"31.26231","category":"86","category_name":"火锅店","address":"虹口区天宝路61号(近临平路)"},{"poiid":"B2094654D56DABFA459A","title":"同嘉建材","lon":"121.4911","lat":"31.25971","category":"123","category_name":"家具建材市场","address":"天水路109号"},{"poiid":"B2094654D56DABF8479D","title":"悦来拉面","lon":"121.49036","lat":"31.25769","category":"68","category_name":"快餐厅","address":"虹口区海伦路379号(近四平路)"},{"poiid":"B2094757D164A7FB469C","title":"sheraton hongkou","lon":"121.489497","lat":"31.258659","category":"500","category_name":"未知分类","address":"上海海伦路四平路"},{"poiid":"B2094757D16AA4F4499D","title":"L.j' dota训练基地","lon":"121.490924603","lat":"31.259402592","category":"500","category_name":"未知分类","address":null},{"poiid":"B2094750D76DA4FD439F","title":"之会所","lon":"121.492","lat":"31.2567","category":"72","category_name":"广东菜","address":"虹口区辽宁路46号D座国家音乐产业基地内(近1933老场坊)"},{"poiid":"B209475CDB6AA7F8449C","title":"上海汉庭酒店(海伦路店)","lon":"121.4912903","lat":"31.25929308","category":"217","category_name":"旅馆招待所","address":"虹口区天水路90号(地铁4,10号线海伦路站旁)"},{"poiid":"B2094655D26CA0FE4593","title":"上海汽车工业培训中心","lon":"121.49101","lat":"31.25898","category":"190","category_name":"培训机构","address":"同嘉路79"},{"poiid":"B2094757D66EAAFA4392","title":"中信证券","lon":"121.4901741","lat":"31.259039184","category":"150","category_name":"银行","address":"上海溧阳路"},{"poiid":"B2094757D06EAAFD4893","title":"海伦路地铁站","lon":"121.48851616","lat":"31.259517259","category":"36","category_name":"地铁站","address":"上海轨道交通 四号线 十号线 轨交海伦路站 轻轨 4 10"},{"poiid":"B2094757D06EAAF94099","title":"上海虹口三至喜来登酒店 (Sheraton Shanghai Hongkou Hotel)","lon":"121.487931474","lat":"31.2578795296","category":"217","category_name":"旅馆招待所","address":"上海市虹口区四平路59号(近海伦路)"},{"poiid":"B2094757D06FA7F9409F","title":"上汽培训中心","lon":"121.491014","lat":"31.258986","category":"253","category_name":"校园生活","address":"上海同嘉路79号"},{"poiid":"B209475CD564A7F84392","title":"上海滩浦东香格里拉店","lon":"121.50058","lat":"31.23634","category":"119","category_name":"商场","address":"浦东富成路33号香格里拉酒店内大堂层"},{"poiid":"B2094654D56EA3FB469A","title":"海泰时代大厦","lon":"121.492","lat":"31.2576","category":"46","category_name":"楼宇","address":"丰台学城海鹰路1号,3号"},{"poiid":"B2094757D06FA3FB419C","title":"玛格萝妮比萨屋(物华店)","lon":"121.49097189","lat":"31.26244171","category":"94","category_name":"西餐厅","address":"上海虹口区四平路188号(近物华路)"},{"poiid":"B209475CD769A7F94093","title":"王子公主奇遇记主题KTV","lon":"121.488833","lat":"31.261971","category":"170","category_name":"KTV","address":"上海市虹口区四平路257号1-3楼(近溧阳路)"},{"poiid":"B2094654DB6AAAF84898","title":"美林阁 四平路店 MeiLinGe","lon":"121.489139054","lat":"31.262070793","category":"76","category_name":"上海菜","address":"虹口区四平路257号虹口世纪酒店1-2楼(近溧阳路)"},{"poiid":"B2094757D06EAAF9429B","title":"麦当劳(四平路店)","lon":"121.48855","lat":"31.26093","category":"68","category_name":"快餐厅","address":"虹口区溧阳路1114号(近四平路)"},{"poiid":"B2094757D06BA7FB4298","title":"海伦路","lon":"121.488512","lat":"31.259589","category":"500","category_name":"未知分类","address":"上海海伦路"},{"poiid":"B2094752D26BABFC419F","title":"星梦剧场（SNH48专属剧场）","lon":"121.490448","lat":"31.256707","category":"180","category_name":"剧场","address":"上海市 嘉兴路267号近哈尔滨路"},{"poiid":"B2094757D069A3F5489C","title":"上海汽车工业(集团)总公司培训中心","lon":"121.491016723","lat":"31.25898445","category":"46","category_name":"楼宇","address":"上海虹口区同嘉路79号"},{"poiid":"B2094655D26AA0F9409E","title":"地铁海伦路站","lon":"121.48851233539108","lat":"31.259587013563777","category":"36","category_name":"地铁站","address":"上海轨道交通 四号线 轨交海伦路站 4"},{"poiid":"B2094655D26FA6FB4098","title":"上海虹口世纪大酒店(东门)","lon":"121.4895","lat":"31.26183","category":"214","category_name":"四星级宾馆","address":"上海市虹口区溧阳路1111号（近四平路）"},{"poiid":"B2094757D16DA5FE419A","title":"四平路","lon":"121.4897721","lat":"31.261685239","category":"500","category_name":"未知分类","address":"上海四平路"},{"poiid":"B2094757D065A0FE429E","title":"10号线四平路站","lon":"121.492128103","lat":"31.2614232342","category":"500","category_name":"未知分类","address":"上海四平路"},{"poiid":"B2094752DA6AABFF4393","title":"红麻辣料理","lon":"121.4919952653603","lat":"31.26094885039997","category":"247","category_name":"餐饮美食","address":"上海市 物华路海拉尔路"},{"poiid":"B2094757D068A2F44199","title":"四平路海伦路","lon":"121.488717","lat":"31.257259","category":"260","category_name":"其他","address":"上海四平路海伦路嘉兴路"},{"poiid":"B2094753DA6AA6FA4393","title":"SNH48星梦剧院","lon":"121.490242","lat":"31.258754","category":"500","category_name":"未知分类","address":"上海市 嘉兴路267号"},{"poiid":"B2094757D06FAAFB479B","title":"圆缘园(四平路店)","lon":"121.48934","lat":"31.26007","category":"260","category_name":"其他","address":"虹口区四平路150号(近溧阳路)"},{"poiid":"B2094654D56EA3FB4399","title":"虹口商城","lon":"121.48992784665","lat":"31.260299724248","category":"46","category_name":"楼宇","address":"上海市虹口区四川路1457号"},{"poiid":"B2094757D06BA4FA4899","title":"湘汇轩(四平路店)","lon":"121.48959","lat":"31.26003","category":"77","category_name":"湖南菜","address":"虹口区四平路148号(天水路邢家桥北路)"},{"poiid":"B2094750D66EA5F5479E","title":"COSTA COFFEE","lon":"121.49328","lat":"31.26153","category":"65","category_name":"咖啡厅","address":"虹口区物华路212号(近香烟桥路)"},{"poiid":"B2094757D06BA0FE449C","title":"西安美食阁 四平路店","lon":"121.489280054","lat":"31.260448793","category":"84","category_name":"西北菜","address":"虹口区四平路156号(近溧阳路)"},{"poiid":"B2094654D56DABF5469E","title":"盛泰国际大厦","lon":"121.49125","lat":"31.26289","category":"46","category_name":"楼宇","address":"上海市虹口区四平路200号"},{"poiid":"B2094757D06EAAFF4798","title":"新世界电影城","lon":"121.48867321","lat":"31.2608388428","category":"178","category_name":"电影院","address":"上海南京西路2～68号新世界城12楼"},{"poiid":"B2094757D069A3F54993","title":"伊加伊(四平店)","lon":"121.49006","lat":"31.26121","category":"68","category_name":"快餐厅","address":"虹口区四平路146号(近天水路)"},{"poiid":"B2094757D069AAF94892","title":"大桶大足浴(物华店)","lon":"121.49236","lat":"31.26168","category":"149","category_name":"洗浴推拿场所","address":"虹口区物华路276号(近四平路)"},{"poiid":"B2094654D56DABFA499A","title":"爱家豪庭","lon":"121.49217","lat":"31.26136","category":"47","category_name":"住宅区","address":"物华路246弄1-6号"},{"poiid":"B2094757D068A2F94998","title":"国际商厦","lon":"121.49205205017","lat":"31.256364309751","category":"46","category_name":"楼宇","address":"虹口区海宁路,吴淞路口"},{"poiid":"B2094757D16CA3F54998","title":"地铁十号线四平路站","lon":"121.488674803","lat":"31.2585712746","category":"500","category_name":"未知分类","address":"上海四平路"},{"poiid":"B2094655D26AA7FC4999","title":"上服假日酒店天水路店","lon":"121.49137","lat":"31.25928","category":"247","category_name":"餐饮美食","address":"虹口区天水路90号(近同嘉路)"},{"poiid":"B2094753DB68A3F9439F","title":"19叁3（老场坊）","lon":"121.489547","lat":"31.258874","category":"500","category_name":"未知分类","address":"上海市 上海虹口区溧阳路611号1933老场坊1-305室"},{"poiid":"B2094454D36BA3FE449F","title":"zoo coffee","lon":"121.493743","lat":"31.258939","category":"247","category_name":"餐饮美食","address":"上海市 四平路150号"},{"poiid":"B2094751D264A1FB4993","title":"上汽集团培训中心","lon":"121.490775","lat":"31.259761","category":"190","category_name":"培训机构","address":"虹口区同嘉路79号"},{"poiid":"B2094757D06BABFF429C","title":"淳寿司","lon":"121.488793103","lat":"31.2584651724","category":"95","category_name":"日本料理","address":"虹口区四平路156号(近地铁四号线海伦路站)"},{"poiid":"B2094757D068A6FF4392","title":"锦鑫桌球俱乐部","lon":"121.49018","lat":"31.26254","category":"171","category_name":"台球厅","address":"虹口区四平路277号2楼(近物华路)"},{"poiid":"B2094655D26BA2FB4899","title":"四平路溧阳路","lon":"121.48868","lat":"31.2596","category":"38","category_name":"公交车站","address":""},{"poiid":"B2094751D26AA2FF469E","title":"芋美人","lon":"121.48939","lat":"31.26035","category":"67","category_name":"甜品店","address":"虹口区四平路146号(近地铁10号线海伦路站7号出口)"},{"poiid":"B2094655D26CA0F84593","title":"快客No.5161","lon":"121.4896","lat":"31.26015","category":"117","category_name":"便民商店/便利店","address":"天水路193"},{"poiid":"B2094750D76FA1FE419F","title":"潮汕砂煲粥","lon":"121.491","lat":"31.2621","category":"72","category_name":"广东菜","address":"虹口区四平路188号(近贯中路)"},{"poiid":"B2094757D16EA0F94493","title":"老北京羊肉涮锅","lon":"121.49101","lat":"31.26231","category":"86","category_name":"火锅店","address":"虹口区天宝路61号(近临平路)"},{"poiid":"B2094654D56DABFA459A","title":"同嘉建材","lon":"121.4911","lat":"31.25971","category":"123","category_name":"家具建材市场","address":"天水路109号"},{"poiid":"B2094654D56DABF8479D","title":"悦来拉面","lon":"121.49036","lat":"31.25769","category":"68","category_name":"快餐厅","address":"虹口区海伦路379号(近四平路)"},{"poiid":"B2094757D164A7FB469C","title":"sheraton hongkou","lon":"121.489497","lat":"31.258659","category":"500","category_name":"未知分类","address":"上海海伦路四平路"},{"poiid":"B2094757D16AA4F4499D","title":"L.j' dota训练基地","lon":"121.490924603","lat":"31.259402592","category":"500","category_name":"未知分类","address":null},{"poiid":"B2094750D76DA4FD439F","title":"之会所","lon":"121.492","lat":"31.2567","category":"72","category_name":"广东菜","address":"虹口区辽宁路46号D座国家音乐产业基地内(近1933老场坊)"},{"poiid":"B209475CDB6AA7F8449C","title":"上海汉庭酒店(海伦路店)","lon":"121.4912903","lat":"31.25929308","category":"217","category_name":"旅馆招待所","address":"虹口区天水路90号(地铁4,10号线海伦路站旁)"},{"poiid":"B2094655D26CA0FE4593","title":"上海汽车工业培训中心","lon":"121.49101","lat":"31.25898","category":"190","category_name":"培训机构","address":"同嘉路79"},{"poiid":"B2094757D66EAAFA4392","title":"中信证券","lon":"121.4901741","lat":"31.259039184","category":"150","category_name":"银行","address":"上海溧阳路"},{"poiid":"B2094757D06EAAFD4893","title":"海伦路地铁站","lon":"121.48851616","lat":"31.259517259","category":"36","category_name":"地铁站","address":"上海轨道交通 四号线 十号线 轨交海伦路站 轻轨 4 10"},{"poiid":"B2094757D06EAAF94099","title":"上海虹口三至喜来登酒店 (Sheraton Shanghai Hongkou Hotel)","lon":"121.487931474","lat":"31.2578795296","category":"217","category_name":"旅馆招待所","address":"上海市虹口区四平路59号(近海伦路)"},{"poiid":"B2094757D06FA7F9409F","title":"上汽培训中心","lon":"121.491014","lat":"31.258986","category":"253","category_name":"校园生活","address":"上海同嘉路79号"},{"poiid":"B209475CD564A7F84392","title":"上海滩浦东香格里拉店","lon":"121.50058","lat":"31.23634","category":"119","category_name":"商场","address":"浦东富成路33号香格里拉酒店内大堂层"},{"poiid":"B2094654D56EA3FB469A","title":"海泰时代大厦","lon":"121.492","lat":"31.2576","category":"46","category_name":"楼宇","address":"丰台学城海鹰路1号,3号"},{"poiid":"B2094757D06FA3FB419C","title":"玛格萝妮比萨屋(物华店)","lon":"121.49097189","lat":"31.26244171","category":"94","category_name":"西餐厅","address":"上海虹口区四平路188号(近物华路)"},{"poiid":"B209475CD769A7F94093","title":"王子公主奇遇记主题KTV","lon":"121.488833","lat":"31.261971","category":"170","category_name":"KTV","address":"上海市虹口区四平路257号1-3楼(近溧阳路)"},{"poiid":"B2094654DB6AAAF84898","title":"美林阁 四平路店 MeiLinGe","lon":"121.489139054","lat":"31.262070793","category":"76","category_name":"上海菜","address":"虹口区四平路257号虹口世纪酒店1-2楼(近溧阳路)"},{"poiid":"B2094757D06EAAF9429B","title":"麦当劳(四平路店)","lon":"121.48855","lat":"31.26093","category":"68","category_name":"快餐厅","address":"虹口区溧阳路1114号(近四平路)"},{"poiid":"B2094757D06BA7FB4298","title":"海伦路","lon":"121.488512","lat":"31.259589","category":"500","category_name":"未知分类","address":"上海海伦路"},{"poiid":"B2094752D26BABFC419F","title":"星梦剧场（SNH48专属剧场）","lon":"121.490448","lat":"31.256707","category":"180","category_name":"剧场","address":"上海市 嘉兴路267号近哈尔滨路"},{"poiid":"B2094757D069A3F5489C","title":"上海汽车工业(集团)总公司培训中心","lon":"121.491016723","lat":"31.25898445","category":"46","category_name":"楼宇","address":"上海虹口区同嘉路79号"},{"poiid":"B2094655D26AA0F9409E","title":"地铁海伦路站","lon":"121.48851233539108","lat":"31.259587013563777","category":"36","category_name":"地铁站","address":"上海轨道交通 四号线 轨交海伦路站 4"},{"poiid":"B2094655D26FA6FB4098","title":"上海虹口世纪大酒店(东门)","lon":"121.4895","lat":"31.26183","category":"214","category_name":"四星级宾馆","address":"上海市虹口区溧阳路1111号（近四平路）"},{"poiid":"B2094757D16DA5FE419A","title":"四平路","lon":"121.4897721","lat":"31.261685239","category":"500","category_name":"未知分类","address":"上海四平路"},{"poiid":"B2094757D065A0FE429E","title":"10号线四平路站","lon":"121.492128103","lat":"31.2614232342","category":"500","category_name":"未知分类","address":"上海四平路"},{"poiid":"B2094752DA6AABFF4393","title":"红麻辣料理","lon":"121.4919952653603","lat":"31.26094885039997","category":"247","category_name":"餐饮美食","address":"上海市 物华路海拉尔路"},{"poiid":"B2094757D068A2F44199","title":"四平路海伦路","lon":"121.488717","lat":"31.257259","category":"260","category_name":"其他","address":"上海四平路海伦路嘉兴路"},{"poiid":"B2094753DA6AA6FA4393","title":"SNH48星梦剧院","lon":"121.490242","lat":"31.258754","category":"500","category_name":"未知分类","address":"上海市 嘉兴路267号"},{"poiid":"B2094757D06FAAFB479B","title":"圆缘园(四平路店)","lon":"121.48934","lat":"31.26007","category":"260","category_name":"其他","address":"虹口区四平路150号(近溧阳路)"},{"poiid":"B2094654D56EA3FB4399","title":"虹口商城","lon":"121.48992784665","lat":"31.260299724248","category":"46","category_name":"楼宇","address":"上海市虹口区四川路1457号"},{"poiid":"B2094757D06BA4FA4899","title":"湘汇轩(四平路店)","lon":"121.48959","lat":"31.26003","category":"77","category_name":"湖南菜","address":"虹口区四平路148号(天水路邢家桥北路)"},{"poiid":"B2094750D66EA5F5479E","title":"COSTA COFFEE","lon":"121.49328","lat":"31.26153","category":"65","category_name":"咖啡厅","address":"虹口区物华路212号(近香烟桥路)"},{"poiid":"B2094757D06BA0FE449C","title":"西安美食阁 四平路店","lon":"121.489280054","lat":"31.260448793","category":"84","category_name":"西北菜","address":"虹口区四平路156号(近溧阳路)"},{"poiid":"B2094654D56DABF5469E","title":"盛泰国际大厦","lon":"121.49125","lat":"31.26289","category":"46","category_name":"楼宇","address":"上海市虹口区四平路200号"},{"poiid":"B2094757D06EAAFF4798","title":"新世界电影城","lon":"121.48867321","lat":"31.2608388428","category":"178","category_name":"电影院","address":"上海南京西路2～68号新世界城12楼"},{"poiid":"B2094757D069A3F54993","title":"伊加伊(四平店)","lon":"121.49006","lat":"31.26121","category":"68","category_name":"快餐厅","address":"虹口区四平路146号(近天水路)"},{"poiid":"B2094757D069AAF94892","title":"大桶大足浴(物华店)","lon":"121.49236","lat":"31.26168","category":"149","category_name":"洗浴推拿场所","address":"虹口区物华路276号(近四平路)"},{"poiid":"B2094654D56DABFA499A","title":"爱家豪庭","lon":"121.49217","lat":"31.26136","category":"47","category_name":"住宅区","address":"物华路246弄1-6号"},{"poiid":"B2094757D068A2F94998","title":"国际商厦","lon":"121.49205205017","lat":"31.256364309751","category":"46","category_name":"楼宇","address":"虹口区海宁路,吴淞路口"},{"poiid":"B2094757D16CA3F54998","title":"地铁十号线四平路站","lon":"121.488674803","lat":"31.2585712746","category":"500","category_name":"未知分类","address":"上海四平路"},{"poiid":"B2094655D26AA7FC4999","title":"上服假日酒店天水路店","lon":"121.49137","lat":"31.25928","category":"247","category_name":"餐饮美食","address":"虹口区天水路90号(近同嘉路)"},{"poiid":"B2094753DB68A3F9439F","title":"19叁3（老场坊）","lon":"121.489547","lat":"31.258874","category":"500","category_name":"未知分类","address":"上海市 上海虹口区溧阳路611号1933老场坊1-305室"},{"poiid":"B2094454D36BA3FE449F","title":"zoo coffee","lon":"121.493743","lat":"31.258939","category":"247","category_name":"餐饮美食","address":"上海市 四平路150号"},{"poiid":"B2094751D264A1FB4993","title":"上汽集团培训中心","lon":"121.490775","lat":"31.259761","category":"190","category_name":"培训机构","address":"虹口区同嘉路79号"},{"poiid":"B2094757D06BABFF429C","title":"淳寿司","lon":"121.488793103","lat":"31.2584651724","category":"95","category_name":"日本料理","address":"虹口区四平路156号(近地铁四号线海伦路站)"},{"poiid":"B2094757D068A6FF4392","title":"锦鑫桌球俱乐部","lon":"121.49018","lat":"31.26254","category":"171","category_name":"台球厅","address":"虹口区四平路277号2楼(近物华路)"},{"poiid":"B2094655D26BA2FB4899","title":"四平路溧阳路","lon":"121.48868","lat":"31.2596","category":"38","category_name":"公交车站","address":""},{"poiid":"B2094751D26AA2FF469E","title":"芋美人","lon":"121.48939","lat":"31.26035","category":"67","category_name":"甜品店","address":"虹口区四平路146号(近地铁10号线海伦路站7号出口)"},{"poiid":"B2094655D26CA0F84593","title":"快客No.5161","lon":"121.4896","lat":"31.26015","category":"117","category_name":"便民商店/便利店","address":"天水路193"},{"poiid":"B2094750D76FA1FE419F","title":"潮汕砂煲粥","lon":"121.491","lat":"31.2621","category":"72","category_name":"广东菜","address":"虹口区四平路188号(近贯中路)"},{"poiid":"B2094757D16EA0F94493","title":"老北京羊肉涮锅","lon":"121.49101","lat":"31.26231","category":"86","category_name":"火锅店","address":"虹口区天宝路61号(近临平路)"},{"poiid":"B2094654D56DABFA459A","title":"同嘉建材","lon":"121.4911","lat":"31.25971","category":"123","category_name":"家具建材市场","address":"天水路109号"},{"poiid":"B2094654D56DABF8479D","title":"悦来拉面","lon":"121.49036","lat":"31.25769","category":"68","category_name":"快餐厅","address":"虹口区海伦路379号(近四平路)"},{"poiid":"B2094757D164A7FB469C","title":"sheraton hongkou","lon":"121.489497","lat":"31.258659","category":"500","category_name":"未知分类","address":"上海海伦路四平路"},{"poiid":"B2094757D16AA4F4499D","title":"L.j' dota训练基地","lon":"121.490924603","lat":"31.259402592","category":"500","category_name":"未知分类","address":null},{"poiid":"B2094750D76DA4FD439F","title":"之会所","lon":"121.492","lat":"31.2567","category":"72","category_name":"广东菜","address":"虹口区辽宁路46号D座国家音乐产业基地内(近1933老场坊)"},{"poiid":"B209475CDB6AA7F8449C","title":"上海汉庭酒店(海伦路店)","lon":"121.4912903","lat":"31.25929308","category":"217","category_name":"旅馆招待所","address":"虹口区天水路90号(地铁4,10号线海伦路站旁)"},{"poiid":"B2094655D26CA0FE4593","title":"上海汽车工业培训中心","lon":"121.49101","lat":"31.25898","category":"190","category_name":"培训机构","address":"同嘉路79"},{"poiid":"B2094757D66EAAFA4392","title":"中信证券","lon":"121.4901741","lat":"31.259039184","category":"150","category_name":"银行","address":"上海溧阳路"},{"poiid":"B2094757D06EAAFD4893","title":"海伦路地铁站","lon":"121.48851616","lat":"31.259517259","category":"36","category_name":"地铁站","address":"上海轨道交通 四号线 十号线 轨交海伦路站 轻轨 4 10"},{"poiid":"B2094757D06EAAF94099","title":"上海虹口三至喜来登酒店 (Sheraton Shanghai Hongkou Hotel)","lon":"121.487931474","lat":"31.2578795296","category":"217","category_name":"旅馆招待所","address":"上海市虹口区四平路59号(近海伦路)"},{"poiid":"B2094757D06FA7F9409F","title":"上汽培训中心","lon":"121.491014","lat":"31.258986","category":"253","category_name":"校园生活","address":"上海同嘉路79号"},{"poiid":"B209475CD564A7F84392","title":"上海滩浦东香格里拉店","lon":"121.50058","lat":"31.23634","category":"119","category_name":"商场","address":"浦东富成路33号香格里拉酒店内大堂层"},{"poiid":"B2094654D56EA3FB469A","title":"海泰时代大厦","lon":"121.492","lat":"31.2576","category":"46","category_name":"楼宇","address":"丰台学城海鹰路1号,3号"},{"poiid":"B2094757D06FA3FB419C","title":"玛格萝妮比萨屋(物华店)","lon":"121.49097189","lat":"31.26244171","category":"94","category_name":"西餐厅","address":"上海虹口区四平路188号(近物华路)"},{"poiid":"B209475CD769A7F94093","title":"王子公主奇遇记主题KTV","lon":"121.488833","lat":"31.261971","category":"170","category_name":"KTV","address":"上海市虹口区四平路257号1-3楼(近溧阳路)"},{"poiid":"B2094654DB6AAAF84898","title":"美林阁 四平路店 MeiLinGe","lon":"121.489139054","lat":"31.262070793","category":"76","category_name":"上海菜","address":"虹口区四平路257号虹口世纪酒店1-2楼(近溧阳路)"},{"poiid":"B2094757D06EAAF9429B","title":"麦当劳(四平路店)","lon":"121.48855","lat":"31.26093","category":"68","category_name":"快餐厅","address":"虹口区溧阳路1114号(近四平路)"},{"poiid":"B2094757D06BA7FB4298","title":"海伦路","lon":"121.488512","lat":"31.259589","category":"500","category_name":"未知分类","address":"上海海伦路"},{"poiid":"B2094752D26BABFC419F","title":"星梦剧场（SNH48专属剧场）","lon":"121.490448","lat":"31.256707","category":"180","category_name":"剧场","address":"上海市 嘉兴路267号近哈尔滨路"},{"poiid":"B2094757D069A3F5489C","title":"上海汽车工业(集团)总公司培训中心","lon":"121.491016723","lat":"31.25898445","category":"46","category_name":"楼宇","address":"上海虹口区同嘉路79号"},{"poiid":"B2094655D26AA0F9409E","title":"地铁海伦路站","lon":"121.48851233539108","lat":"31.259587013563777","category":"36","category_name":"地铁站","address":"上海轨道交通 四号线 轨交海伦路站 4"},{"poiid":"B2094655D26FA6FB4098","title":"上海虹口世纪大酒店(东门)","lon":"121.4895","lat":"31.26183","category":"214","category_name":"四星级宾馆","address":"上海市虹口区溧阳路1111号（近四平路）"},{"poiid":"B2094757D16DA5FE419A","title":"四平路","lon":"121.4897721","lat":"31.261685239","category":"500","category_name":"未知分类","address":"上海四平路"},{"poiid":"B2094757D065A0FE429E","title":"10号线四平路站","lon":"121.492128103","lat":"31.2614232342","category":"500","category_name":"未知分类","address":"上海四平路"},{"poiid":"B2094752DA6AABFF4393","title":"红麻辣料理","lon":"121.4919952653603","lat":"31.26094885039997","category":"247","category_name":"餐饮美食","address":"上海市 物华路海拉尔路"},{"poiid":"B2094757D068A2F44199","title":"四平路海伦路","lon":"121.488717","lat":"31.257259","category":"260","category_name":"其他","address":"上海四平路海伦路嘉兴路"},{"poiid":"B2094753DA6AA6FA4393","title":"SNH48星梦剧院","lon":"121.490242","lat":"31.258754","category":"500","category_name":"未知分类","address":"上海市 嘉兴路267号"},{"poiid":"B2094757D06FAAFB479B","title":"圆缘园(四平路店)","lon":"121.48934","lat":"31.26007","category":"260","category_name":"其他","address":"虹口区四平路150号(近溧阳路)"},{"poiid":"B2094654D56EA3FB4399","title":"虹口商城","lon":"121.48992784665","lat":"31.260299724248","category":"46","category_name":"楼宇","address":"上海市虹口区四川路1457号"},{"poiid":"B2094757D06BA4FA4899","title":"湘汇轩(四平路店)","lon":"121.48959","lat":"31.26003","category":"77","category_name":"湖南菜","address":"虹口区四平路148号(天水路邢家桥北路)"},{"poiid":"B2094750D66EA5F5479E","title":"COSTA COFFEE","lon":"121.49328","lat":"31.26153","category":"65","category_name":"咖啡厅","address":"虹口区物华路212号(近香烟桥路)"},{"poiid":"B2094757D06BA0FE449C","title":"西安美食阁 四平路店","lon":"121.489280054","lat":"31.260448793","category":"84","category_name":"西北菜","address":"虹口区四平路156号(近溧阳路)"},{"poiid":"B2094654D56DABF5469E","title":"盛泰国际大厦","lon":"121.49125","lat":"31.26289","category":"46","category_name":"楼宇","address":"上海市虹口区四平路200号"},{"poiid":"B2094757D06EAAFF4798","title":"新世界电影城","lon":"121.48867321","lat":"31.2608388428","category":"178","category_name":"电影院","address":"上海南京西路2～68号新世界城12楼"},{"poiid":"B2094757D069A3F54993","title":"伊加伊(四平店)","lon":"121.49006","lat":"31.26121","category":"68","category_name":"快餐厅","address":"虹口区四平路146号(近天水路)"},{"poiid":"B2094757D069AAF94892","title":"大桶大足浴(物华店)","lon":"121.49236","lat":"31.26168","category":"149","category_name":"洗浴推拿场所","address":"虹口区物华路276号(近四平路)"},{"poiid":"B2094654D56DABFA499A","title":"爱家豪庭","lon":"121.49217","lat":"31.26136","category":"47","category_name":"住宅区","address":"物华路246弄1-6号"},{"poiid":"B2094757D068A2F94998","title":"国际商厦","lon":"121.49205205017","lat":"31.256364309751","category":"46","category_name":"楼宇","address":"虹口区海宁路,吴淞路口"},{"poiid":"B2094757D16CA3F54998","title":"地铁十号线四平路站","lon":"121.488674803","lat":"31.2585712746","category":"500","category_name":"未知分类","address":"上海四平路"},{"poiid":"B2094655D26AA7FC4999","title":"上服假日酒店天水路店","lon":"121.49137","lat":"31.25928","category":"247","category_name":"餐饮美食","address":"虹口区天水路90号(近同嘉路)"},{"poiid":"B2094753DB68A3F9439F","title":"19叁3（老场坊）","lon":"121.489547","lat":"31.258874","category":"500","category_name":"未知分类","address":"上海市 上海虹口区溧阳路611号1933老场坊1-305室"},{"poiid":"B2094454D36BA3FE449F","title":"zoo coffee","lon":"121.493743","lat":"31.258939","category":"247","category_name":"餐饮美食","address":"上海市 四平路150号"},{"poiid":"B2094751D264A1FB4993","title":"上汽集团培训中心","lon":"121.490775","lat":"31.259761","category":"190","category_name":"培训机构","address":"虹口区同嘉路79号"},{"poiid":"B2094757D06BABFF429C","title":"淳寿司","lon":"121.488793103","lat":"31.2584651724","category":"95","category_name":"日本料理","address":"虹口区四平路156号(近地铁四号线海伦路站)"},{"poiid":"B2094757D068A6FF4392","title":"锦鑫桌球俱乐部","lon":"121.49018","lat":"31.26254","category":"171","category_name":"台球厅","address":"虹口区四平路277号2楼(近物华路)"},{"poiid":"B2094655D26BA2FB4899","title":"四平路溧阳路","lon":"121.48868","lat":"31.2596","category":"38","category_name":"公交车站","address":""},{"poiid":"B2094751D26AA2FF469E","title":"芋美人","lon":"121.48939","lat":"31.26035","category":"67","category_name":"甜品店","address":"虹口区四平路146号(近地铁10号线海伦路站7号出口)"},{"poiid":"B2094655D26CA0F84593","title":"快客No.5161","lon":"121.4896","lat":"31.26015","category":"117","category_name":"便民商店/便利店","address":"天水路193"},{"poiid":"B2094750D76FA1FE419F","title":"潮汕砂煲粥","lon":"121.491","lat":"31.2621","category":"72","category_name":"广东菜","address":"虹口区四平路188号(近贯中路)"},{"poiid":"B2094757D16EA0F94493","title":"老北京羊肉涮锅","lon":"121.49101","lat":"31.26231","category":"86","category_name":"火锅店","address":"虹口区天宝路61号(近临平路)"},{"poiid":"B2094654D56DABFA459A","title":"同嘉建材","lon":"121.4911","lat":"31.25971","category":"123","category_name":"家具建材市场","address":"天水路109号"},{"poiid":"B2094654D56DABF8479D","title":"悦来拉面","lon":"121.49036","lat":"31.25769","category":"68","category_name":"快餐厅","address":"虹口区海伦路379号(近四平路)"},{"poiid":"B2094757D164A7FB469C","title":"sheraton hongkou","lon":"121.489497","lat":"31.258659","category":"500","category_name":"未知分类","address":"上海海伦路四平路"},{"poiid":"B2094757D16AA4F4499D","title":"L.j' dota训练基地","lon":"121.490924603","lat":"31.259402592","category":"500","category_name":"未知分类","address":null},{"poiid":"B2094750D76DA4FD439F","title":"之会所","lon":"121.492","lat":"31.2567","category":"72","category_name":"广东菜","address":"虹口区辽宁路46号D座国家音乐产业基地内(近1933老场坊)"},{"poiid":"B209475CDB6AA7F8449C","title":"上海汉庭酒店(海伦路店)","lon":"121.4912903","lat":"31.25929308","category":"217","category_name":"旅馆招待所","address":"虹口区天水路90号(地铁4,10号线海伦路站旁)"},{"poiid":"B2094655D26CA0FE4593","title":"上海汽车工业培训中心","lon":"121.49101","lat":"31.25898","category":"190","category_name":"培训机构","address":"同嘉路79"},{"poiid":"B2094757D66EAAFA4392","title":"中信证券","lon":"121.4901741","lat":"31.259039184","category":"150","category_name":"银行","address":"上海溧阳路"}]