[{"poiid":"B2094655D26FA5FF469B","title":"上海交通大学徐汇校区","lon":"121.43258","lat":"31.19881","category":"52","category_name":"高等院校","address":"徐汇区华山路1954号上海交通大学内(近广元西路)"},{"poiid":"B2094654DA6DA3FE419E","title":"上海交通大学徐汇校区(南门)","lon":"121.43528","lat":"31.19744","category":"52","category_name":"高等院校","address":"广元西路55"},{"poiid":"B2094757D068AAF84199","title":"上海交通大学钱学森图书馆","lon":"121.435496989","lat":"31.2013391905","category":"181","category_name":"图书馆","address":"徐汇区华山路1800号"},{"poiid":"B2094757D06EAAF4469F","title":"交通大学地铁站","lon":"121.434637","lat":"31.201981","category":"36","category_name":"地铁站","address":"上海轨道交通 十号线 轨交交通大学站 10"},{"poiid":"B2094757D068AAFB439A","title":"上海交通大学工程馆","lon":"121.43378196","lat":"31.2005447742","category":"253","category_name":"校园生活","address":"上海市徐汇区华山路1954号"},{"poiid":"B2094757D06AA5F5469C","title":"交通大学大草坪","lon":"121.43466381","lat":"31.199059858","category":"500","category_name":"未知分类","address":"上海交大华山路校区"},{"poiid":"B2094757D06FAAF5459D","title":"交通大学上海高级金融学院","lon":"121.430699","lat":"31.200329","category":"500","category_name":"未知分类","address":"上海市淮海西路211号"},{"poiid":"B2094757D068A0FD4092","title":"金萨岛伊斯兰风情餐吧(新华路店)","lon":"121.43161","lat":"31.20135","category":"90","category_name":"清真餐馆","address":"长宁区新华路60号(近淮海西路)"},{"poiid":"B2094757D66EA4FE439A","title":"上海影城6号放映厅","lon":"121.432505786","lat":"31.1995091303","category":"178","category_name":"电影院","address":"长宁区新华路160号上海影城内(近番愚路)"},{"poiid":"B2094752D06EA3FF4298","title":"小辉哥火锅","lon":"121.4343095487457","lat":"31.20029722177148","category":"247","category_name":"餐饮美食","address":"港汇恒隆广场5F538室"},{"poiid":"B2094757D069A4FF4899","title":"上海交通大学徐汇校区食堂","lon":"121.43173766","lat":"31.199022779","category":"253","category_name":"校园生活","address":"上海徐汇区华山路1954号交大徐汇校区内(近广元西路)"},{"poiid":"B2094750D76EA2FF4799","title":"尊萃508公馆","lon":"121.436","lat":"31.2018","category":"76","category_name":"上海菜","address":"徐汇区华山路1731号(近淮海西路)"},{"poiid":"B2094757D16EA1FC4993","title":"上海交大徐汇校区大操场","lon":"121.43473535","lat":"31.198292789","category":"500","category_name":"未知分类","address":"上海交通大学徐汇校区"},{"poiid":"B2094757D065A6F4489D","title":"1号线人民广场站","lon":"121.433984586","lat":"31.2019978789","category":"500","category_name":"未知分类","address":"上海人民广场"},{"poiid":"B2094757DB6FA7FD409A","title":"港汇","lon":"121.43431061","lat":"31.20004205999999","category":"500","category_name":"未知分类","address":"港汇"},{"poiid":"B2094654DA6DA3FF4292","title":"上海西华酒店公寓","lon":"121.43513","lat":"31.2018","category":"214","category_name":"四星级宾馆","address":"上海市徐汇区淮海西路1号(华山路口)"},{"poiid":"B2094654DA6DA3F84193","title":"达通广场","lon":"121.43109","lat":"31.20002","category":"46","category_name":"楼宇","address":"上海市静安区南京西路555号"},{"poiid":"B2094752DB6AAAF54998","title":"永华影城","lon":"121.434199","lat":"31.200102","category":"178","category_name":"电影院","address":"上海市 港汇广场6F"},{"poiid":"B2094751D564A3F9429B","title":"华山医院","lon":"121.434353","lat":"31.201086","category":"162","category_name":"医院","address":null},{"poiid":"B2094654DA6DA3F8419D","title":"上海交通大学徐汇校区(北门)","lon":"121.43278","lat":"31.20102","category":"52","category_name":"高等院校","address":""},{"poiid":"B2094654DB65A1FD4698","title":"交通大学(华山路)","lon":"121.43258","lat":"31.19881","category":"52","category_name":"高等院校","address":"华山路1954"},{"poiid":"B2094752D269A1F4499D","title":"小小花园","lon":"121.433487","lat":"31.200678","category":"247","category_name":"餐饮美食","address":"康平路220号"},{"poiid":"B2094751D56AA1FD4398","title":"永華電影院","lon":"121.434245","lat":"31.199738","category":"178","category_name":"电影院","address":"華山路"},{"poiid":"B2094655D264A7FD4792","title":"包兆龙图书馆","lon":"121.43319","lat":"31.19981","category":"181","category_name":"图书馆","address":""},{"poiid":"B2094757DB6CA7FB409E","title":"9号线徐家汇站","lon":"121.4348694","lat":"31.198131","category":"500","category_name":"未知分类","address":"9号线徐家汇站"},{"poiid":"B2094752D76DA6FA4293","title":"意面屋","lon":"121.431922","lat":"31.199243","category":"247","category_name":"餐饮美食","address":"上海徐家汇华山路2088号百联徐汇3l楼"},{"poiid":"B2094752D164A6F44792","title":"上海歌城（华汇店）","lon":"121.434311","lat":"31.2003","category":"170","category_name":"KTV","address":"华山路2000号汇银广场6楼"},{"poiid":"B2094757D06BA3F5459A","title":"上海交通大学包兆龙图书馆","lon":"121.433188824","lat":"31.199804103","category":"253","category_name":"校园生活","address":"上海华山路1954号"},{"poiid":"B2094752DA69A4FC429E","title":"70后饭吧","lon":"121.434402","lat":"31.199227","category":"247","category_name":"餐饮美食","address":"上海市 徐家汇汇金"},{"poiid":"B2094655D264A6FB429D","title":"上海交通大学体育馆","lon":"121.43368","lat":"31.19906","category":"224","category_name":"综合体育馆","address":""},{"poiid":"B2094757D169AAFB479D","title":"上海交通大学校车站(徐汇)","lon":"121.433765586","lat":"31.1998568371","category":"500","category_name":"未知分类","address":"上海闵行校区—徐汇校区"},{"poiid":"B2094655D26FA5FE4398","title":"汇宁花园","lon":"121.43185","lat":"31.200317","category":"47","category_name":"住宅区","address":"上海市徐汇区淮海西路183弄"},{"poiid":"B2094655D264A7FD479D","title":"哲生馆","lon":"121.43298","lat":"31.20024","category":"186","category_name":"科技馆","address":""},{"poiid":"B2094757D06BAAFF479D","title":"香奈造型(上海影城店)","lon":"121.43309858","lat":"31.202635891","category":"148","category_name":"美容美发店","address":"上海市长宁区法华镇路59号近淮海西路华山路(预约电话"},{"poiid":"B2094655D26EA1FF469D","title":"金凤凰酒家","lon":"121.43513","lat":"31.2018","category":"247","category_name":"餐饮美食","address":"长宁区淮海西路1号西华酒店公寓4-5楼(华山路口)"},{"poiid":"B2094750D66BAAFE479A","title":"上海交大","lon":"121.433883","lat":"31.199436","category":"500","category_name":"未知分类","address":null},{"poiid":"B2094654DA6DA3FE4498","title":"上海交通大学海外教育学院(广元西路)","lon":"121.43495","lat":"31.19798","category":"52","category_name":"高等院校","address":"广元西路55号浩然高科技大厦17层02-06"},{"poiid":"B2094750D56FA4FA499A","title":"台北纯k","lon":"121.434432","lat":"31.200477","category":"500","category_name":"未知分类","address":null},{"poiid":"B2094750DB65A7F4449D","title":"港汇中心一座","lon":"121.433769","lat":"31.198616","category":"500","category_name":"未知分类","address":"徐家汇"},{"poiid":"B2094752D364A5FF4592","title":"顺风大酒店(汇银广场店)","lon":"121.43224","lat":"31.19806","category":"75","category_name":"浙江菜","address":"徐汇区华山路2038号汇银广场5楼(近广元西路)"},{"poiid":"B2094757D069A2FD439E","title":"交通大学食堂","lon":"121.43654","lat":"31.19878","category":"68","category_name":"快餐厅","address":"徐汇区华山路1954号上海交通大学食堂1楼(近广元西路)"},{"poiid":"B2094655D26BA4F8479A","title":"上海交通大学礼堂","lon":"121.43174","lat":"31.19847","category":"52","category_name":"高等院校","address":""},{"poiid":"B2094757D16AA3F8419A","title":"漫漫苦逼求学路","lon":"121.434041","lat":"31.199964","category":"500","category_name":"未知分类","address":"嘉兴学校"},{"poiid":"B2094757D06AA5F44499","title":"上海交通大学新建楼","lon":"121.43357908","lat":"31.198522744","category":"253","category_name":"校园生活","address":"上海华山路1954号"},{"poiid":"B2094757D069A7F5499E","title":"新华路一号","lon":"121.43157959","lat":"31.200712204","category":"47","category_name":"住宅区","address":"长宁区镇宁路111号"},{"poiid":"B2094752D568A6F8469F","title":"顺风美心大酒店","lon":"121.43151","lat":"31.199393","category":"247","category_name":"餐饮美食","address":"华山路1998号新路达商厦5楼(近广元西路)"},{"poiid":"B2094757D16EA4F8419B","title":"上海交通大学教三楼(Med-X研究院)","lon":"121.43392065","lat":"31.19809683","category":"253","category_name":"校园生活","address":"上海徐汇区华山路1954号"},{"poiid":"B2094757D16CA1F44698","title":"复习的伤神之地","lon":"121.434342","lat":"31.199753","category":"148","category_name":"美容美发店","address":"上海复习复习复习！"},{"poiid":"B2094655D265A5FF4492","title":"交通大学研究生食堂","lon":"121.43259","lat":"31.19881","category":"247","category_name":"餐饮美食","address":"华山路1954号交通大学食堂1层"},{"poiid":"B2094752D069A2FF479D","title":"70后饭吧","lon":"121.434284","lat":"31.199203","category":"247","category_name":"餐饮美食","address":null},{"poiid":"B2094655D26FA5FF469B","title":"上海交通大学徐汇校区","lon":"121.43258","lat":"31.19881","category":"52","category_name":"高等院校","address":"徐汇区华山路1954号上海交通大学内(近广元西路)"},{"poiid":"B2094654DA6DA3FE419E","title":"上海交通大学徐汇校区(南门)","lon":"121.43528","lat":"31.19744","category":"52","category_name":"高等院校","address":"广元西路55"},{"poiid":"B2094757D068AAF84199","title":"上海交通大学钱学森图书馆","lon":"121.435496989","lat":"31.2013391905","category":"181","category_name":"图书馆","address":"徐汇区华山路1800号"},{"poiid":"B2094757D06EAAF4469F","title":"交通大学地铁站","lon":"121.434637","lat":"31.201981","category":"36","category_name":"地铁站","address":"上海轨道交通 十号线 轨交交通大学站 10"},{"poiid":"B2094757D068AAFB439A","title":"上海交通大学工程馆","lon":"121.43378196","lat":"31.2005447742","category":"253","category_name":"校园生活","address":"上海市徐汇区华山路1954号"},{"poiid":"B2094757D06AA5F5469C","title":"交通大学大草坪","lon":"121.43466381","lat":"31.199059858","category":"500","category_name":"未知分类","address":"上海交大华山路校区"},{"poiid":"B2094757D06FAAF5459D","title":"交通大学上海高级金融学院","lon":"121.430699","lat":"31.200329","category":"500","category_name":"未知分类","address":"上海市淮海西路211号"},{"poiid":"B2094757D068A0FD4092","title":"金萨岛伊斯兰风情餐吧(新华路店)","lon":"121.43161","lat":"31.20135","category":"90","category_name":"清真餐馆","address":"长宁区新华路60号(近淮海西路)"},{"poiid":"B2094757D66EA4FE439A","title":"上海影城6号放映厅","lon":"121.432505786","lat":"31.1995091303","category":"178","category_name":"电影院","address":"长宁区新华路160号上海影城内(近番愚路)"},{"poiid":"B2094752D06EA3FF4298","title":"小辉哥火锅","lon":"121.4343095487457","lat":"31.20029722177148","category":"247","category_name":"餐饮美食","address":"港汇恒隆广场5F538室"},{"poiid":"B2094757D069A4FF4899","title":"上海交通大学徐汇校区食堂","lon":"121.43173766","lat":"31.199022779","category":"253","category_name":"校园生活","address":"上海徐汇区华山路1954号交大徐汇校区内(近广元西路)"},{"poiid":"B2094750D76EA2FF4799","title":"尊萃508公馆","lon":"121.436","lat":"31.2018","category":"76","category_name":"上海菜","address":"徐汇区华山路1731号(近淮海西路)"},{"poiid":"B2094757D16EA1FC4993","title":"上海交大徐汇校区大操场","lon":"121.43473535","lat":"31.198292789","category":"500","category_name":"未知分类","address":"上海交通大学徐汇校区"},{"poiid":"B2094757D065A6F4489D","title":"1号线人民广场站","lon":"121.433984586","lat":"31.2019978789","category":"500","category_name":"未知分类","address":"上海人民广场"},{"poiid":"B2094757DB6FA7FD409A","title":"港汇","lon":"121.43431061","lat":"31.20004205999999","category":"500","category_name":"未知分类","address":"港汇"},{"poiid":"B2094654DA6DA3FF4292","title":"上海西华酒店公寓","lon":"121.43513","lat":"31.2018","category":"214","category_name":"四星级宾馆","address":"上海市徐汇区淮海西路1号(华山路口)"},{"poiid":"B2094654DA6DA3F84193","title":"达通广场","lon":"121.43109","lat":"31.20002","category":"46","category_name":"楼宇","address":"上海市静安区南京西路555号"},{"poiid":"B2094752DB6AAAF54998","title":"永华影城","lon":"121.434199","lat":"31.200102","category":"178","category_name":"电影院","address":"上海市 港汇广场6F"},{"poiid":"B2094751D564A3F9429B","title":"华山医院","lon":"121.434353","lat":"31.201086","category":"162","category_name":"医院","address":null},{"poiid":"B2094654DA6DA3F8419D","title":"上海交通大学徐汇校区(北门)","lon":"121.43278","lat":"31.20102","category":"52","category_name":"高等院校","address":""},{"poiid":"B2094654DB65A1FD4698","title":"交通大学(华山路)","lon":"121.43258","lat":"31.19881","category":"52","category_name":"高等院校","address":"华山路1954"},{"poiid":"B2094752D269A1F4499D","title":"小小花园","lon":"121.433487","lat":"31.200678","category":"247","category_name":"餐饮美食","address":"康平路220号"},{"poiid":"B2094751D56AA1FD4398","title":"永華電影院","lon":"121.434245","lat":"31.199738","category":"178","category_name":"电影院","address":"華山路"},{"poiid":"B2094655D264A7FD4792","title":"包兆龙图书馆","lon":"121.43319","lat":"31.19981","category":"181","category_name":"图书馆","address":""},{"poiid":"B2094757DB6CA7FB409E","title":"9号线徐家汇站","lon":"121.4348694","lat":"31.198131","category":"500","category_name":"未知分类","address":"9号线徐家汇站"},{"poiid":"B2094752D76DA6FA4293","title":"意面屋","lon":"121.431922","lat":"31.199243","category":"247","category_name":"餐饮美食","address":"上海徐家汇华山路2088号百联徐汇3l楼"},{"poiid":"B2094752D164A6F44792","title":"上海歌城（华汇店）","lon":"121.434311","lat":"31.2003","category":"170","category_name":"KTV","address":"华山路2000号汇银广场6楼"},{"poiid":"B2094757D06BA3F5459A","title":"上海交通大学包兆龙图书馆","lon":"121.433188824","lat":"31.199804103","category":"253","category_name":"校园生活","address":"上海华山路1954号"},{"poiid":"B2094752DA69A4FC429E","title":"70后饭吧","lon":"121.434402","lat":"31.199227","category":"247","category_name":"餐饮美食","address":"上海市 徐家汇汇金"},{"poiid":"B2094655D264A6FB429D","title":"上海交通大学体育馆","lon":"121.43368","lat":"31.19906","category":"224","category_name":"综合体育馆","address":""},{"poiid":"B2094757D169AAFB479D","title":"上海交通大学校车站(徐汇)","lon":"121.433765586","lat":"31.1998568371","category":"500","category_name":"未知分类","address":"上海闵行校区—徐汇校区"},{"poiid":"B2094655D26FA5FE4398","title":"汇宁花园","lon":"121.43185","lat":"31.200317","category":"47","category_name":"住宅区","address":"上海市徐汇区淮海西路183弄"},{"poiid":"B2094655D264A7FD479D","title":"哲生馆","lon":"121.43298","lat":"31.20024","category":"186","category_name":"科技馆","address":""},{"poiid":"B2094757D06BAAFF479D","title":"香奈造型(上海影城店)","lon":"121.43309858","lat":"31.202635891","category":"148","category_name":"美容美发店","address":"上海市长宁区法华镇路59号近淮海西路华山路(预约电话"},{"poiid":"B2094655D26EA1FF469D","title":"金凤凰酒家","lon":"121.43513","lat":"31.2018","category":"247","category_name":"餐饮美食","address":"长宁区淮海西路1号西华酒店公寓4-5楼(华山路口)"},{"poiid":"B2094750D66BAAFE479A","title":"上海交大","lon":"121.433883","lat":"31.199436","category":"500","category_name":"未知分类","address":null},{"poiid":"B2094654DA6DA3FE4498","title":"上海交通大学海外教育学院(广元西路)","lon":"121.43495","lat":"31.19798","category":"52","category_name":"高等院校","address":"广元西路55号浩然高科技大厦17层02-06"},{"poiid":"B2094750D56FA4FA499A","title":"台北纯k","lon":"121.434432","lat":"31.200477","category":"500","category_name":"未知分类","address":null},{"poiid":"B2094750DB65A7F4449D","title":"港汇中心一座","lon":"121.433769","lat":"31.198616","category":"500","category_name":"未知分类","address":"徐家汇"},{"poiid":"B2094752D364A5FF4592","title":"顺风大酒店(汇银广场店)","lon":"121.43224","lat":"31.19806","category":"75","category_name":"浙江菜","address":"徐汇区华山路2038号汇银广场5楼(近广元西路)"},{"poiid":"B2094757D069A2FD439E","title":"交通大学食堂","lon":"121.43654","lat":"31.19878","category":"68","category_name":"快餐厅","address":"徐汇区华山路1954号上海交通大学食堂1楼(近广元西路)"},{"poiid":"B2094655D26BA4F8479A","title":"上海交通大学礼堂","lon":"121.43174","lat":"31.19847","category":"52","category_name":"高等院校","address":""},{"poiid":"B2094757D16AA3F8419A","title":"漫漫苦逼求学路","lon":"121.434041","lat":"31.199964","category":"500","category_name":"未知分类","address":"嘉兴学校"},{"poiid":"B2094757D06AA5F44499","title":"上海交通大学新建楼","lon":"121.43357908","lat":"31.198522744","category":"253","category_name":"校园生活","address":"上海华山路1954号"},{"poiid":"B2094757D069A7F5499E","title":"新华路一号","lon":"121.43157959","lat":"31.200712204","category":"47","category_name":"住宅区","address":"长宁区镇宁路111号"},{"poiid":"B2094752D568A6F8469F","title":"顺风美心大酒店","lon":"121.43151","lat":"31.199393","category":"247","category_name":"餐饮美食","address":"华山路1998号新路达商厦5楼(近广元西路)"},{"poiid":"B2094757D16EA4F8419B","title":"上海交通大学教三楼(Med-X研究院)","lon":"121.43392065","lat":"31.19809683","category":"253","category_name":"校园生活","address":"上海徐汇区华山路1954号"},{"poiid":"B2094757D16CA1F44698","title":"复习的伤神之地","lon":"121.434342","lat":"31.199753","category":"148","category_name":"美容美发店","address":"上海复习复习复习！"},{"poiid":"B2094655D265A5FF4492","title":"交通大学研究生食堂","lon":"121.43259","lat":"31.19881","category":"247","category_name":"餐饮美食","address":"华山路1954号交通大学食堂1层"},{"poiid":"B2094752D069A2FF479D","title":"70后饭吧","lon":"121.434284","lat":"31.199203","category":"247","category_name":"餐饮美食","address":null},{"poiid":"B2094655D26FA5FF469B","title":"上海交通大学徐汇校区","lon":"121.43258","lat":"31.19881","category":"52","category_name":"高等院校","address":"徐汇区华山路1954号上海交通大学内(近广元西路)"},{"poiid":"B2094654DA6DA3FE419E","title":"上海交通大学徐汇校区(南门)","lon":"121.43528","lat":"31.19744","category":"52","category_name":"高等院校","address":"广元西路55"},{"poiid":"B2094757D068AAF84199","title":"上海交通大学钱学森图书馆","lon":"121.435496989","lat":"31.2013391905","category":"181","category_name":"图书馆","address":"徐汇区华山路1800号"},{"poiid":"B2094757D06EAAF4469F","title":"交通大学地铁站","lon":"121.434637","lat":"31.201981","category":"36","category_name":"地铁站","address":"上海轨道交通 十号线 轨交交通大学站 10"},{"poiid":"B2094757D068AAFB439A","title":"上海交通大学工程馆","lon":"121.43378196","lat":"31.2005447742","category":"253","category_name":"校园生活","address":"上海市徐汇区华山路1954号"},{"poiid":"B2094757D06AA5F5469C","title":"交通大学大草坪","lon":"121.43466381","lat":"31.199059858","category":"500","category_name":"未知分类","address":"上海交大华山路校区"},{"poiid":"B2094757D06FAAF5459D","title":"交通大学上海高级金融学院","lon":"121.430699","lat":"31.200329","category":"500","category_name":"未知分类","address":"上海市淮海西路211号"},{"poiid":"B2094757D068A0FD4092","title":"金萨岛伊斯兰风情餐吧(新华路店)","lon":"121.43161","lat":"31.20135","category":"90","category_name":"清真餐馆","address":"长宁区新华路60号(近淮海西路)"},{"poiid":"B2094757D66EA4FE439A","title":"上海影城6号放映厅","lon":"121.432505786","lat":"31.1995091303","category":"178","category_name":"电影院","address":"长宁区新华路160号上海影城内(近番愚路)"},{"poiid":"B2094752D06EA3FF4298","title":"小辉哥火锅","lon":"121.4343095487457","lat":"31.20029722177148","category":"247","category_name":"餐饮美食","address":"港汇恒隆广场5F538室"},{"poiid":"B2094757D069A4FF4899","title":"上海交通大学徐汇校区食堂","lon":"121.43173766","lat":"31.199022779","category":"253","category_name":"校园生活","address":"上海徐汇区华山路1954号交大徐汇校区内(近广元西路)"},{"poiid":"B2094750D76EA2FF4799","title":"尊萃508公馆","lon":"121.436","lat":"31.2018","category":"76","category_name":"上海菜","address":"徐汇区华山路1731号(近淮海西路)"},{"poiid":"B2094757D16EA1FC4993","title":"上海交大徐汇校区大操场","lon":"121.43473535","lat":"31.198292789","category":"500","category_name":"未知分类","address":"上海交通大学徐汇校区"},{"poiid":"B2094757D065A6F4489D","title":"1号线人民广场站","lon":"121.433984586","lat":"31.2019978789","category":"500","category_name":"未知分类","address":"上海人民广场"},{"poiid":"B2094757DB6FA7FD409A","title":"港汇","lon":"121.43431061","lat":"31.20004205999999","category":"500","category_name":"未知分类","address":"港汇"},{"poiid":"B2094654DA6DA3FF4292","title":"上海西华酒店公寓","lon":"121.43513","lat":"31.2018","category":"214","category_name":"四星级宾馆","address":"上海市徐汇区淮海西路1号(华山路口)"},{"poiid":"B2094654DA6DA3F84193","title":"达通广场","lon":"121.43109","lat":"31.20002","category":"46","category_name":"楼宇","address":"上海市静安区南京西路555号"},{"poiid":"B2094752DB6AAAF54998","title":"永华影城","lon":"121.434199","lat":"31.200102","category":"178","category_name":"电影院","address":"上海市 港汇广场6F"},{"poiid":"B2094751D564A3F9429B","title":"华山医院","lon":"121.434353","lat":"31.201086","category":"162","category_name":"医院","address":null},{"poiid":"B2094654DA6DA3F8419D","title":"上海交通大学徐汇校区(北门)","lon":"121.43278","lat":"31.20102","category":"52","category_name":"高等院校","address":""},{"poiid":"B2094654DB65A1FD4698","title":"交通大学(华山路)","lon":"121.43258","lat":"31.19881","category":"52","category_name":"高等院校","address":"华山路1954"},{"poiid":"B2094752D269A1F4499D","title":"小小花园","lon":"121.433487","lat":"31.200678","category":"247","category_name":"餐饮美食","address":"康平路220号"},{"poiid":"B2094751D56AA1FD4398","title":"永華電影院","lon":"121.434245","lat":"31.199738","category":"178","category_name":"电影院","address":"華山路"},{"poiid":"B2094655D264A7FD4792","title":"包兆龙图书馆","lon":"121.43319","lat":"31.19981","category":"181","category_name":"图书馆","address":""},{"poiid":"B2094757DB6CA7FB409E","title":"9号线徐家汇站","lon":"121.4348694","lat":"31.198131","category":"500","category_name":"未知分类","address":"9号线徐家汇站"},{"poiid":"B2094752D76DA6FA4293","title":"意面屋","lon":"121.431922","lat":"31.199243","category":"247","category_name":"餐饮美食","address":"上海徐家汇华山路2088号百联徐汇3l楼"},{"poiid":"B2094752D164A6F44792","title":"上海歌城（华汇店）","lon":"121.434311","lat":"31.2003","category":"170","category_name":"KTV","address":"华山路2000号汇银广场6楼"},{"poiid":"B2094757D06BA3F5459A","title":"上海交通大学包兆龙图书馆","lon":"121.433188824","lat":"31.199804103","category":"253","category_name":"校园生活","address":"上海华山路1954号"},{"poiid":"B2094752DA69A4FC429E","title":"70后饭吧","lon":"121.434402","lat":"31.199227","category":"247","category_name":"餐饮美食","address":"上海市 徐家汇汇金"},{"poiid":"B2094655D264A6FB429D","title":"上海交通大学体育馆","lon":"121.43368","lat":"31.19906","category":"224","category_name":"综合体育馆","address":""},{"poiid":"B2094757D169AAFB479D","title":"上海交通大学校车站(徐汇)","lon":"121.433765586","lat":"31.1998568371","category":"500","category_name":"未知分类","address":"上海闵行校区—徐汇校区"},{"poiid":"B2094655D26FA5FE4398","title":"汇宁花园","lon":"121.43185","lat":"31.200317","category":"47","category_name":"住宅区","address":"上海市徐汇区淮海西路183弄"},{"poiid":"B2094655D264A7FD479D","title":"哲生馆","lon":"121.43298","lat":"31.20024","category":"186","category_name":"科技馆","address":""},{"poiid":"B2094757D06BAAFF479D","title":"香奈造型(上海影城店)","lon":"121.43309858","lat":"31.202635891","category":"148","category_name":"美容美发店","address":"上海市长宁区法华镇路59号近淮海西路华山路(预约电话"},{"poiid":"B2094655D26EA1FF469D","title":"金凤凰酒家","lon":"121.43513","lat":"31.2018","category":"247","category_name":"餐饮美食","address":"长宁区淮海西路1号西华酒店公寓4-5楼(华山路口)"},{"poiid":"B2094750D66BAAFE479A","title":"上海交大","lon":"121.433883","lat":"31.199436","category":"500","category_name":"未知分类","address":null},{"poiid":"B2094654DA6DA3FE4498","title":"上海交通大学海外教育学院(广元西路)","lon":"121.43495","lat":"31.19798","category":"52","category_name":"高等院校","address":"广元西路55号浩然高科技大厦17层02-06"},{"poiid":"B2094750D56FA4FA499A","title":"台北纯k","lon":"121.434432","lat":"31.200477","category":"500","category_name":"未知分类","address":null},{"poiid":"B2094750DB65A7F4449D","title":"港汇中心一座","lon":"121.433769","lat":"31.198616","category":"500","category_name":"未知分类","address":"徐家汇"},{"poiid":"B2094752D364A5FF4592","title":"顺风大酒店(汇银广场店)","lon":"121.43224","lat":"31.19806","category":"75","category_name":"浙江菜","address":"徐汇区华山路2038号汇银广场5楼(近广元西路)"},{"poiid":"B2094757D069A2FD439E","title":"交通大学食堂","lon":"121.43654","lat":"31.19878","category":"68","category_name":"快餐厅","address":"徐汇区华山路1954号上海交通大学食堂1楼(近广元西路)"},{"poiid":"B2094655D26BA4F8479A","title":"上海交通大学礼堂","lon":"121.43174","lat":"31.19847","category":"52","category_name":"高等院校","address":""},{"poiid":"B2094757D16AA3F8419A","title":"漫漫苦逼求学路","lon":"121.434041","lat":"31.199964","category":"500","category_name":"未知分类","address":"嘉兴学校"},{"poiid":"B2094757D06AA5F44499","title":"上海交通大学新建楼","lon":"121.43357908","lat":"31.198522744","category":"253","category_name":"校园生活","address":"上海华山路1954号"},{"poiid":"B2094757D069A7F5499E","title":"新华路一号","lon":"121.43157959","lat":"31.200712204","category":"47","category_name":"住宅区","address":"长宁区镇宁路111号"},{"poiid":"B2094752D568A6F8469F","title":"顺风美心大酒店","lon":"121.43151","lat":"31.199393","category":"247","category_name":"餐饮美食","address":"华山路1998号新路达商厦5楼(近广元西路)"},{"poiid":"B2094757D16EA4F8419B","title":"上海交通大学教三楼(Med-X研究院)","lon":"121.43392065","lat":"31.19809683","category":"253","category_name":"校园生活","address":"上海徐汇区华山路1954号"},{"poiid":"B2094757D16CA1F44698","title":"复习的伤神之地","lon":"121.434342","lat":"31.199753","category":"148","category_name":"美容美发店","address":"上海复习复习复习！"},{"poiid":"B2094655D265A5FF4492","title":"交通大学研究生食堂","lon":"121.43259","lat":"31.19881","category":"247","category_name":"餐饮美食","address":"华山路1954号交通大学食堂1层"},{"poiid":"B2094752D069A2FF479D","title":"70后饭吧","lon":"121.434284","lat":"31.199203","category":"247","category_name":"餐饮美食","address":null},{"poiid":"B2094655D26FA5FF469B","title":"上海交通大学徐汇校区","lon":"121.43258","lat":"31.19881","category":"52","category_name":"高等院校","address":"徐汇区华山路1954号上海交通大学内(近广元西路)"},{"poiid":"B2094654DA6DA3FE419E","title":"上海交通大学徐汇校区(南门)","lon":"121.43528","lat":"31.19744","category":"52","category_name":"高等院校","address":"广元西路55"},{"poiid":"B2094757D068AAF84199","title":"上海交通大学钱学森图书馆","lon":"121.435496989","lat":"31.2013391905","category":"181","category_name":"图书馆","address":"徐汇区华山路1800号"},{"poiid":"B2094757D06EAAF4469F","title":"交通大学地铁站","lon":"121.434637","lat":"31.201981","category":"36","category_name":"地铁站","address":"上海轨道交通 十号线 轨交交通大学站 10"},{"poiid":"B2094757D068AAFB439A","title":"上海交通大学工程馆","lon":"121.43378196","lat":"31.2005447742","category":"253","category_name":"校园生活","address":"上海市徐汇区华山路1954号"},{"poiid":"B2094757D06AA5F5469C","title":"交通大学大草坪","lon":"121.43466381","lat":"31.199059858","category":"500","category_name":"未知分类","address":"上海交大华山路校区"},{"poiid":"B2094757D06FAAF5459D","title":"交通大学上海高级金融学院","lon":"121.430699","lat":"31.200329","category":"500","category_name":"未知分类","address":"上海市淮海西路211号"},{"poiid":"B2094757D068A0FD4092","title":"金萨岛伊斯兰风情餐吧(新华路店)","lon":"121.43161","lat":"31.20135","category":"90","category_name":"清真餐馆","address":"长宁区新华路60号(近淮海西路)"},{"poiid":"B2094757D66EA4FE439A","title":"上海影城6号放映厅","lon":"121.432505786","lat":"31.1995091303","category":"178","category_name":"电影院","address":"长宁区新华路160号上海影城内(近番愚路)"},{"poiid":"B2094752D06EA3FF4298","title":"小辉哥火锅","lon":"121.4343095487457","lat":"31.20029722177148","category":"247","category_name":"餐饮美食","address":"港汇恒隆广场5F538室"},{"poiid":"B2094757D069A4FF4899","title":"上海交通大学徐汇校区食堂","lon":"121.43173766","lat":"31.199022779","category":"253","category_name":"校园生活","address":"上海徐汇区华山路1954号交大徐汇校区内(近广元西路)"},{"poiid":"B2094750D76EA2FF4799","title":"尊萃508公馆","lon":"121.436","lat":"31.2018","category":"76","category_name":"上海菜","address":"徐汇区华山路1731号(近淮海西路)"},{"poiid":"B2094757D16EA1FC4993","title":"上海交大徐汇校区大操场","lon":"121.43473535","lat":"31.198292789","category":"500","category_name":"未知分类","address":"上海交通大学徐汇校区"},{"poiid":"B2094757D065A6F4489D","title":"1号线人民广场站","lon":"121.433984586","lat":"31.2019978789","category":"500","category_name":"未知分类","address":"上海人民广场"},{"poiid":"B2094757DB6FA7FD409A","title":"港汇","lon":"121.43431061","lat":"31.20004205999999","category":"500","category_name":"未知分类","address":"港汇"},{"poiid":"B2094654DA6DA3FF4292","title":"上海西华酒店公寓","lon":"121.43513","lat":"31.2018","category":"214","category_name":"四星级宾馆","address":"上海市徐汇区淮海西路1号(华山路口)"},{"poiid":"B2094654DA6DA3F84193","title":"达通广场","lon":"121.43109","lat":"31.20002","category":"46","category_name":"楼宇","address":"上海市静安区南京西路555号"},{"poiid":"B2094752DB6AAAF54998","title":"永华影城","lon":"121.434199","lat":"31.200102","category":"178","category_name":"电影院","address":"上海市 港汇广场6F"},{"poiid":"B2094751D564A3F9429B","title":"华山医院","lon":"121.434353","lat":"31.201086","category":"162","category_name":"医院","address":null},{"poiid":"B2094654DA6DA3F8419D","title":"上海交通大学徐汇校区(北门)","lon":"121.43278","lat":"31.20102","category":"52","category_name":"高等院校","address":""},{"poiid":"B2094654DB65A1FD4698","title":"交通大学(华山路)","lon":"121.43258","lat":"31.19881","category":"52","category_name":"高等院校","address":"华山路1954"},{"poiid":"B2094752D269A1F4499D","title":"小小花园","lon":"121.433487","lat":"31.200678","category":"247","category_name":"餐饮美食","address":"康平路220号"},{"poiid":"B2094751D56AA1FD4398","title":"永華電影院","lon":"121.434245","lat":"31.199738","category":"178","category_name":"电影院","address":"華山路"},{"poiid":"B2094655D264A7FD4792","title":"包兆龙图书馆","lon":"121.43319","lat":"31.19981","category":"181","category_name":"图书馆","address":""},{"poiid":"B2094757DB6CA7FB409E","title":"9号线徐家汇站","lon":"121.4348694","lat":"31.198131","category":"500","category_name":"未知分类","address":"9号线徐家汇站"},{"poiid":"B2094752D76DA6FA4293","title":"意面屋","lon":"121.431922","lat":"31.199243","category":"247","category_name":"餐饮美食","address":"上海徐家汇华山路2088号百联徐汇3l楼"},{"poiid":"B2094752D164A6F44792","title":"上海歌城（华汇店）","lon":"121.434311","lat":"31.2003","category":"170","category_name":"KTV","address":"华山路2000号汇银广场6楼"},{"poiid":"B2094757D06BA3F5459A","title":"上海交通大学包兆龙图书馆","lon":"121.433188824","lat":"31.199804103","category":"253","category_name":"校园生活","address":"上海华山路1954号"},{"poiid":"B2094752DA69A4FC429E","title":"70后饭吧","lon":"121.434402","lat":"31.199227","category":"247","category_name":"餐饮美食","address":"上海市 徐家汇汇金"},{"poiid":"B2094655D264A6FB429D","title":"上海交通大学体育馆","lon":"121.43368","lat":"31.19906","category":"224","category_name":"综合体育馆","address":""},{"poiid":"B2094757D169AAFB479D","title":"上海交通大学校车站(徐汇)","lon":"121.433765586","lat":"31.1998568371","category":"500","category_name":"未知分类","address":"上海闵行校区—徐汇校区"},{"poiid":"B2094655D26FA5FE4398","title":"汇宁花园","lon":"121.43185","lat":"31.200317","category":"47","category_name":"住宅区","address":"上海市徐汇区淮海西路183弄"},{"poiid":"B2094655D264A7FD479D","title":"哲生馆","lon":"121.43298","lat":"31.20024","category":"186","category_name":"科技馆","address":""},{"poiid":"B2094757D06BAAFF479D","title":"香奈造型(上海影城店)","lon":"121.43309858","lat":"31.202635891","category":"148","category_name":"美容美发店","address":"上海市长宁区法华镇路59号近淮海西路华山路(预约电话"},{"poiid":"B2094655D26EA1FF469D","title":"金凤凰酒家","lon":"121.43513","lat":"31.2018","category":"247","category_name":"餐饮美食","address":"长宁区淮海西路1号西华酒店公寓4-5楼(华山路口)"},{"poiid":"B2094750D66BAAFE479A","title":"上海交大","lon":"121.433883","lat":"31.199436","category":"500","category_name":"未知分类","address":null},{"poiid":"B2094654DA6DA3FE4498","title":"上海交通大学海外教育学院(广元西路)","lon":"121.43495","lat":"31.19798","category":"52","category_name":"高等院校","address":"广元西路55号浩然高科技大厦17层02-06"},{"poiid":"B2094750D56FA4FA499A","title":"台北纯k","lon":"121.434432","lat":"31.200477","category":"500","category_name":"未知分类","address":null},{"poiid":"B2094750DB65A7F4449D","title":"港汇中心一座","lon":"121.433769","lat":"31.198616","category":"500","category_name":"未知分类","address":"徐家汇"},{"poiid":"B2094752D364A5FF4592","title":"顺风大酒店(汇银广场店)","lon":"121.43224","lat":"31.19806","category":"75","category_name":"浙江菜","address":"徐汇区华山路2038号汇银广场5楼(近广元西路)"},{"poiid":"B2094757D069A2FD439E","title":"交通大学食堂","lon":"121.43654","lat":"31.19878","category":"68","category_name":"快餐厅","address":"徐汇区华山路1954号上海交通大学食堂1楼(近广元西路)"},{"poiid":"B2094655D26BA4F8479A","title":"上海交通大学礼堂","lon":"121.43174","lat":"31.19847","category":"52","category_name":"高等院校","address":""},{"poiid":"B2094757D16AA3F8419A","title":"漫漫苦逼求学路","lon":"121.434041","lat":"31.199964","category":"500","category_name":"未知分类","address":"嘉兴学校"},{"poiid":"B2094757D06AA5F44499","title":"上海交通大学新建楼","lon":"121.43357908","lat":"31.198522744","category":"253","category_name":"校园生活","address":"上海华山路1954号"},{"poiid":"B2094757D069A7F5499E","title":"新华路一号","lon":"121.43157959","lat":"31.200712204","category":"47","category_name":"住宅区","address":"长宁区镇宁路111号"},{"poiid":"B2094752D568A6F8469F","title":"顺风美心大酒店","lon":"121.43151","lat":"31.199393","category":"247","category_name":"餐饮美食","address":"华山路1998号新路达商厦5楼(近广元西路)"},{"poiid":"B2094757D16EA4F8419B","title":"上海交通大学教三楼(Med-X研究院)","lon":"121.43392065","lat":"31.19809683","category":"253","category_name":"校园生活","address":"上海徐汇区华山路1954号"},{"poiid":"B2094757D16CA1F44698","title":"复习的伤神之地","lon":"121.434342","lat":"31.199753","category":"148","category_name":"美容美发店","address":"上海复习复习复习！"},{"poiid":"B2094655D265A5FF4492","title":"交通大学研究生食堂","lon":"121.43259","lat":"31.19881","category":"247","category_name":"餐饮美食","address":"华山路1954号交通大学食堂1层"},{"poiid":"B2094752D069A2FF479D","title":"70后饭吧","lon":"121.434284","lat":"31.199203","category":"247","category_name":"餐饮美食","address":null}]