[{"poiid":"B2094757D169A1FC4999","title":"上海杨浦区民政局婚姻登记所","lon":"121.525047103","lat":"31.2613532328","category":"500","category_name":"未知分类","address":"上海江浦路667号"},{"poiid":"B2094757D06FA4F9449D","title":"海上皇宫大酒店","lon":"121.52394321","lat":"31.264527791","category":"72","category_name":"广东菜","address":"杨浦区长阳路1080号(近江浦路)"},{"poiid":"B2094757D06FA0F8409D","title":"江浦公园","lon":"121.524354472","lat":"31.2657463287","category":"196","category_name":"公园","address":"杨浦区长阳路1111号(江浦路口)"},{"poiid":"B2094757D06FA0F4439A","title":"杨浦区政府","lon":"121.526077271","lat":"31.2595462799","category":"46","category_name":"楼宇","address":"上海市杨浦区江浦路549号"},{"poiid":"B2094757D068A2FC459C","title":"杨浦区社会保险事业管理中心","lon":"121.525407","lat":"31.262155","category":"252","category_name":"楼宇机构","address":"上海杨浦区江浦路736号"},{"poiid":"B2094654DB69A5FE419E","title":"肯德基(怀德店)","lon":"121.52505","lat":"31.25807","category":"68","category_name":"快餐厅","address":"杨浦区平凉路675号(近怀德路)"},{"poiid":"B2094757D16CA6F4429C","title":"杨浦区","lon":"121.526118736","lat":"31.2594121463","category":"250","category_name":"公园户外","address":"上海杨浦区区域"},{"poiid":"B2094757D069A2FB4693","title":"齐齐哈尔路","lon":"121.529077103","lat":"31.2606302176","category":"38","category_name":"公交车站","address":"上海37路终点站齐齐哈尔路"},{"poiid":"B2094757D068ABFB429B","title":"许昌路霍山路","lon":"121.522648","lat":"31.261791","category":"500","category_name":"未知分类","address":"上海许昌路霍山路"},{"poiid":"B2094757D068ABF9409A","title":"东亮大酒店","lon":"121.5250109592","lat":"31.258004677604","category":"76","category_name":"上海菜","address":"杨浦区平凉路675号(近怀德路)"},{"poiid":"B2094757D069A3FD4493","title":"婚姻登记处(杨浦区登记处)","lon":"121.52590489","lat":"31.26505761","category":"46","category_name":"楼宇","address":"上海杨浦区齐齐哈尔路828号(近长阳路)"},{"poiid":"B2094655D26FA5F8469E","title":"莫泰168连锁旅店许昌路店","lon":"121.5228","lat":"31.26179","category":"216","category_name":"经济型连锁酒店","address":"上海杨浦区霍山路890号(近大连路隧道浦西出口)  "},{"poiid":"B2094757D06AA7FB4093","title":"上海职业介绍杨浦分中心","lon":"121.525279","lat":"31.26193","category":"500","category_name":"未知分类","address":"杨浦区江浦路728号(近济宁路)"},{"poiid":"B2094655D26CA6F4409D","title":"上海国际设计交流中心","lon":"121.52453","lat":"31.26455","category":"263","category_name":"公司","address":"杨浦区长阳路1080号(近江浦路)"},{"poiid":"B2094757D064A3F84592","title":"星惠佳苑","lon":"121.52645","lat":"31.261393","category":"47","category_name":"住宅区","address":"上海市杨浦区江浦路666号(惠民路)"},{"poiid":"B2094655D265A4F9489E","title":"科杨公寓","lon":"121.52528","lat":"31.26193","category":"47","category_name":"住宅区","address":"上海市杨浦区江浦路728号"},{"poiid":"B2094757D16FA1F84298","title":"齐齐哈尔路第一小学","lon":"121.52707","lat":"31.26276","category":"56","category_name":"小学","address":"上海杨浦区齐齐哈尔路669号(近霍山路)  "},{"poiid":"B2094654D56FA3F94399","title":"万登花苑","lon":"121.52551","lat":"31.262594","category":"47","category_name":"住宅区","address":"江浦路740弄"},{"poiid":"B2094654DB6BA2FD4793","title":"中国电信(济宁路营业厅)","lon":"121.52599","lat":"31.26212","category":"151","category_name":"电讯营业厅","address":"杨浦区济宁路355号(江浦路口)"},{"poiid":"B2094757D16BA5FB419A","title":"70路江浦路济宁路站","lon":"121.524869786","lat":"31.2617634257","category":"38","category_name":"公交车站","address":"上海江浦路(近济宁路)"},{"poiid":"B2094757D068AAFD469D","title":"杨浦区民政局","lon":"121.52615151","lat":"31.259582817","category":"260","category_name":"其他","address":"上海江浦路667号"},{"poiid":"B2094757D66EABFA4092","title":"秋庭小吃","lon":"121.52454","lat":"31.26276","category":"68","category_name":"快餐厅","address":"杨浦区江浦路316号(近龙江路)"},{"poiid":"B2094757D06AA5FF489C","title":"锦杨苑","lon":"121.52838","lat":"31.262629","category":"252","category_name":"楼宇机构","address":"上海市杨浦区齐齐哈尔路598弄35号(惠民路口)"},{"poiid":"B2094654D56FA3F9439A","title":"新江浦公寓","lon":"121.52592","lat":"31.261591","category":"47","category_name":"住宅区","address":"江浦路702弄"},{"poiid":"B2094757D66EA2F5439E","title":"杨浦区民政事业发展中心","lon":"121.525232103","lat":"31.2615472368","category":"500","category_name":"未知分类","address":"上海杨浦区江浦路667号"},{"poiid":"B2094654D56FA3F9439B","title":"新江浦公寓(西门)","lon":"121.52555","lat":"31.26144","category":"47","category_name":"住宅区","address":"江浦路702弄"},{"poiid":"B2094655D36CA0FB439F","title":"济宁路","lon":"121.52458","lat":"31.26251","category":"38","category_name":"公交车站","address":""},{"poiid":"B2094655D36CA0F94299","title":"江浦路济宁路","lon":"121.52455","lat":"31.26261","category":"38","category_name":"公交车站","address":""},{"poiid":"B2094757DB68A2FC449E","title":"新招鲜","lon":"121.5278967005401","lat":"31.26254789999804","category":"500","category_name":"未知分类","address":"平凉路"},{"poiid":"B2094757D069AAFC4198","title":"iC.运动综合馆(通北路站)","lon":"121.522716","lat":"31.260681","category":"220","category_name":"运动场所","address":"上海杨浦区济宁路201号(近许昌路)"},{"poiid":"B2094757D568A0FE499B","title":"汉庭快捷酒店(上海江浦路店)","lon":"121.52499457","lat":"31.26035238","category":"216","category_name":"经济型连锁酒店","address":"杨浦区江浦路627号(惠民路江浦路)"},{"poiid":"B2094654D56FA3F94599","title":"秦家弄小区","lon":"121.52414","lat":"31.261936","category":"47","category_name":"住宅区","address":"江浦路745弄"},{"poiid":"B2094654D56FA3F9429E","title":"梅迪亚1895创意产业园","lon":"121.52534","lat":"31.26094","category":"45","category_name":"产业园区","address":""},{"poiid":"B2094655D26FA6F8419B","title":"新惠佳苑","lon":"121.52613","lat":"31.26109","category":"47","category_name":"住宅区","address":"江浦路666弄1-28号"},{"poiid":"B2094654D56FA3F8489D","title":"紫藤佳苑","lon":"121.52428","lat":"31.261797","category":"47","category_name":"住宅区","address":"杨浦江浦路727号,济宁路口"},{"poiid":"B2094654DB69A4FC4199","title":"好又多(霍山路店)","lon":"121.52473","lat":"31.26289","category":"118","category_name":"超级市场","address":"杨浦区霍山路(近江浦路)"},{"poiid":"B2094757D068A2FE4898","title":"明园村小区","lon":"121.52177","lat":"31.262873","category":"252","category_name":"楼宇机构","address":"上海长阳路910弄(近怀德路)"},{"poiid":"B2094752DB68A7FA4898","title":"新华医院","lon":"121.525314","lat":"31.263511","category":"162","category_name":"医院","address":"上海市 中国 上海市 控江路1665"},{"poiid":"B2094654D56FA3F94499","title":"星工场第五元素","lon":"121.52462","lat":"31.26152","category":"148","category_name":"美容美发店","address":"杨浦区济宁路279号(近江浦路)"},{"poiid":"B2094757D66CABFF449D","title":"中国电信","lon":"121.5258961","lat":"31.262232251","category":"500","category_name":"未知分类","address":"上海市杨浦区济宁路355号"},{"poiid":"B2094757D06BAAFA4998","title":"友好东北菜馆","lon":"121.52716","lat":"31.25825","category":"82","category_name":"东北菜","address":"杨浦区江浦路475号(平凉路口)"},{"poiid":"B2094655D26EA3F4439E","title":"好德便利No.592","lon":"121.52707","lat":"31.26239","category":"117","category_name":"便民商店/便利店","address":"济宁路366"},{"poiid":"B2094655D26EA2F54599","title":"宝立公寓","lon":"121.5266","lat":"31.261091","category":"47","category_name":"住宅区","address":"惠民路1033弄"},{"poiid":"B2094655D26AA7F9409B","title":"工达学校","lon":"121.52707","lat":"31.26235","category":"247","category_name":"餐饮美食","address":"杨浦区吉林路2号6楼(近长阳路)"},{"poiid":"B2094655D265A5FA4993","title":"滨江晶典","lon":"121.52712","lat":"31.260193","category":"47","category_name":"住宅区","address":"松江广富林路1518弄(嘉松南路口)"},{"poiid":"B2094655D26CA6FA4693","title":"上海市杨浦公证处","lon":"121.52854","lat":"31.25909","category":"250","category_name":"公园户外","address":""},{"poiid":"B2094654D56FA3F9499A","title":"上海市惠民中学","lon":"121.52521","lat":"31.25977","category":"55","category_name":"中学","address":"杨浦区惠民路868号(近江浦路)"},{"poiid":"B2094655D26CA6FB4993","title":"品克桌球","lon":"121.52521","lat":"31.26302","category":"171","category_name":"台球厅","address":"杨浦区霍山路1058号(近江浦路)"},{"poiid":"B2094655D26DAAFC4992","title":"天霞宾馆","lon":"121.52528","lat":"31.26314","category":"250","category_name":"公园户外","address":"霍山路1058号"},{"poiid":"B2094655D26CA6FE429F","title":"霍兰公寓","lon":"121.52663","lat":"31.26543","category":"47","category_name":"住宅区","address":"长阳路1220弄"},{"poiid":"B2094757D169A1FC4999","title":"上海杨浦区民政局婚姻登记所","lon":"121.525047103","lat":"31.2613532328","category":"500","category_name":"未知分类","address":"上海江浦路667号"},{"poiid":"B2094757D06FA4F9449D","title":"海上皇宫大酒店","lon":"121.52394321","lat":"31.264527791","category":"72","category_name":"广东菜","address":"杨浦区长阳路1080号(近江浦路)"},{"poiid":"B2094757D06FA0F8409D","title":"江浦公园","lon":"121.524354472","lat":"31.2657463287","category":"196","category_name":"公园","address":"杨浦区长阳路1111号(江浦路口)"},{"poiid":"B2094757D06FA0F4439A","title":"杨浦区政府","lon":"121.526077271","lat":"31.2595462799","category":"46","category_name":"楼宇","address":"上海市杨浦区江浦路549号"},{"poiid":"B2094757D068A2FC459C","title":"杨浦区社会保险事业管理中心","lon":"121.525407","lat":"31.262155","category":"252","category_name":"楼宇机构","address":"上海杨浦区江浦路736号"},{"poiid":"B2094654DB69A5FE419E","title":"肯德基(怀德店)","lon":"121.52505","lat":"31.25807","category":"68","category_name":"快餐厅","address":"杨浦区平凉路675号(近怀德路)"},{"poiid":"B2094757D16CA6F4429C","title":"杨浦区","lon":"121.526118736","lat":"31.2594121463","category":"250","category_name":"公园户外","address":"上海杨浦区区域"},{"poiid":"B2094757D069A2FB4693","title":"齐齐哈尔路","lon":"121.529077103","lat":"31.2606302176","category":"38","category_name":"公交车站","address":"上海37路终点站齐齐哈尔路"},{"poiid":"B2094757D068ABFB429B","title":"许昌路霍山路","lon":"121.522648","lat":"31.261791","category":"500","category_name":"未知分类","address":"上海许昌路霍山路"},{"poiid":"B2094757D068ABF9409A","title":"东亮大酒店","lon":"121.5250109592","lat":"31.258004677604","category":"76","category_name":"上海菜","address":"杨浦区平凉路675号(近怀德路)"},{"poiid":"B2094757D069A3FD4493","title":"婚姻登记处(杨浦区登记处)","lon":"121.52590489","lat":"31.26505761","category":"46","category_name":"楼宇","address":"上海杨浦区齐齐哈尔路828号(近长阳路)"},{"poiid":"B2094655D26FA5F8469E","title":"莫泰168连锁旅店许昌路店","lon":"121.5228","lat":"31.26179","category":"216","category_name":"经济型连锁酒店","address":"上海杨浦区霍山路890号(近大连路隧道浦西出口)  "},{"poiid":"B2094757D06AA7FB4093","title":"上海职业介绍杨浦分中心","lon":"121.525279","lat":"31.26193","category":"500","category_name":"未知分类","address":"杨浦区江浦路728号(近济宁路)"},{"poiid":"B2094655D26CA6F4409D","title":"上海国际设计交流中心","lon":"121.52453","lat":"31.26455","category":"263","category_name":"公司","address":"杨浦区长阳路1080号(近江浦路)"},{"poiid":"B2094757D064A3F84592","title":"星惠佳苑","lon":"121.52645","lat":"31.261393","category":"47","category_name":"住宅区","address":"上海市杨浦区江浦路666号(惠民路)"},{"poiid":"B2094655D265A4F9489E","title":"科杨公寓","lon":"121.52528","lat":"31.26193","category":"47","category_name":"住宅区","address":"上海市杨浦区江浦路728号"},{"poiid":"B2094757D16FA1F84298","title":"齐齐哈尔路第一小学","lon":"121.52707","lat":"31.26276","category":"56","category_name":"小学","address":"上海杨浦区齐齐哈尔路669号(近霍山路)  "},{"poiid":"B2094654D56FA3F94399","title":"万登花苑","lon":"121.52551","lat":"31.262594","category":"47","category_name":"住宅区","address":"江浦路740弄"},{"poiid":"B2094654DB6BA2FD4793","title":"中国电信(济宁路营业厅)","lon":"121.52599","lat":"31.26212","category":"151","category_name":"电讯营业厅","address":"杨浦区济宁路355号(江浦路口)"},{"poiid":"B2094757D16BA5FB419A","title":"70路江浦路济宁路站","lon":"121.524869786","lat":"31.2617634257","category":"38","category_name":"公交车站","address":"上海江浦路(近济宁路)"},{"poiid":"B2094757D068AAFD469D","title":"杨浦区民政局","lon":"121.52615151","lat":"31.259582817","category":"260","category_name":"其他","address":"上海江浦路667号"},{"poiid":"B2094757D66EABFA4092","title":"秋庭小吃","lon":"121.52454","lat":"31.26276","category":"68","category_name":"快餐厅","address":"杨浦区江浦路316号(近龙江路)"},{"poiid":"B2094757D06AA5FF489C","title":"锦杨苑","lon":"121.52838","lat":"31.262629","category":"252","category_name":"楼宇机构","address":"上海市杨浦区齐齐哈尔路598弄35号(惠民路口)"},{"poiid":"B2094654D56FA3F9439A","title":"新江浦公寓","lon":"121.52592","lat":"31.261591","category":"47","category_name":"住宅区","address":"江浦路702弄"},{"poiid":"B2094757D66EA2F5439E","title":"杨浦区民政事业发展中心","lon":"121.525232103","lat":"31.2615472368","category":"500","category_name":"未知分类","address":"上海杨浦区江浦路667号"},{"poiid":"B2094654D56FA3F9439B","title":"新江浦公寓(西门)","lon":"121.52555","lat":"31.26144","category":"47","category_name":"住宅区","address":"江浦路702弄"},{"poiid":"B2094655D36CA0FB439F","title":"济宁路","lon":"121.52458","lat":"31.26251","category":"38","category_name":"公交车站","address":""},{"poiid":"B2094655D36CA0F94299","title":"江浦路济宁路","lon":"121.52455","lat":"31.26261","category":"38","category_name":"公交车站","address":""},{"poiid":"B2094757DB68A2FC449E","title":"新招鲜","lon":"121.5278967005401","lat":"31.26254789999804","category":"500","category_name":"未知分类","address":"平凉路"},{"poiid":"B2094757D069AAFC4198","title":"iC.运动综合馆(通北路站)","lon":"121.522716","lat":"31.260681","category":"220","category_name":"运动场所","address":"上海杨浦区济宁路201号(近许昌路)"},{"poiid":"B2094757D568A0FE499B","title":"汉庭快捷酒店(上海江浦路店)","lon":"121.52499457","lat":"31.26035238","category":"216","category_name":"经济型连锁酒店","address":"杨浦区江浦路627号(惠民路江浦路)"},{"poiid":"B2094654D56FA3F94599","title":"秦家弄小区","lon":"121.52414","lat":"31.261936","category":"47","category_name":"住宅区","address":"江浦路745弄"},{"poiid":"B2094654D56FA3F9429E","title":"梅迪亚1895创意产业园","lon":"121.52534","lat":"31.26094","category":"45","category_name":"产业园区","address":""},{"poiid":"B2094655D26FA6F8419B","title":"新惠佳苑","lon":"121.52613","lat":"31.26109","category":"47","category_name":"住宅区","address":"江浦路666弄1-28号"},{"poiid":"B2094654D56FA3F8489D","title":"紫藤佳苑","lon":"121.52428","lat":"31.261797","category":"47","category_name":"住宅区","address":"杨浦江浦路727号,济宁路口"},{"poiid":"B2094654DB69A4FC4199","title":"好又多(霍山路店)","lon":"121.52473","lat":"31.26289","category":"118","category_name":"超级市场","address":"杨浦区霍山路(近江浦路)"},{"poiid":"B2094757D068A2FE4898","title":"明园村小区","lon":"121.52177","lat":"31.262873","category":"252","category_name":"楼宇机构","address":"上海长阳路910弄(近怀德路)"},{"poiid":"B2094752DB68A7FA4898","title":"新华医院","lon":"121.525314","lat":"31.263511","category":"162","category_name":"医院","address":"上海市 中国 上海市 控江路1665"},{"poiid":"B2094654D56FA3F94499","title":"星工场第五元素","lon":"121.52462","lat":"31.26152","category":"148","category_name":"美容美发店","address":"杨浦区济宁路279号(近江浦路)"},{"poiid":"B2094757D66CABFF449D","title":"中国电信","lon":"121.5258961","lat":"31.262232251","category":"500","category_name":"未知分类","address":"上海市杨浦区济宁路355号"},{"poiid":"B2094757D06BAAFA4998","title":"友好东北菜馆","lon":"121.52716","lat":"31.25825","category":"82","category_name":"东北菜","address":"杨浦区江浦路475号(平凉路口)"},{"poiid":"B2094655D26EA3F4439E","title":"好德便利No.592","lon":"121.52707","lat":"31.26239","category":"117","category_name":"便民商店/便利店","address":"济宁路366"},{"poiid":"B2094655D26EA2F54599","title":"宝立公寓","lon":"121.5266","lat":"31.261091","category":"47","category_name":"住宅区","address":"惠民路1033弄"},{"poiid":"B2094655D26AA7F9409B","title":"工达学校","lon":"121.52707","lat":"31.26235","category":"247","category_name":"餐饮美食","address":"杨浦区吉林路2号6楼(近长阳路)"},{"poiid":"B2094655D265A5FA4993","title":"滨江晶典","lon":"121.52712","lat":"31.260193","category":"47","category_name":"住宅区","address":"松江广富林路1518弄(嘉松南路口)"},{"poiid":"B2094655D26CA6FA4693","title":"上海市杨浦公证处","lon":"121.52854","lat":"31.25909","category":"250","category_name":"公园户外","address":""},{"poiid":"B2094654D56FA3F9499A","title":"上海市惠民中学","lon":"121.52521","lat":"31.25977","category":"55","category_name":"中学","address":"杨浦区惠民路868号(近江浦路)"},{"poiid":"B2094655D26CA6FB4993","title":"品克桌球","lon":"121.52521","lat":"31.26302","category":"171","category_name":"台球厅","address":"杨浦区霍山路1058号(近江浦路)"},{"poiid":"B2094655D26DAAFC4992","title":"天霞宾馆","lon":"121.52528","lat":"31.26314","category":"250","category_name":"公园户外","address":"霍山路1058号"},{"poiid":"B2094655D26CA6FE429F","title":"霍兰公寓","lon":"121.52663","lat":"31.26543","category":"47","category_name":"住宅区","address":"长阳路1220弄"},{"poiid":"B2094757D169A1FC4999","title":"上海杨浦区民政局婚姻登记所","lon":"121.525047103","lat":"31.2613532328","category":"500","category_name":"未知分类","address":"上海江浦路667号"},{"poiid":"B2094757D06FA4F9449D","title":"海上皇宫大酒店","lon":"121.52394321","lat":"31.264527791","category":"72","category_name":"广东菜","address":"杨浦区长阳路1080号(近江浦路)"},{"poiid":"B2094757D06FA0F8409D","title":"江浦公园","lon":"121.524354472","lat":"31.2657463287","category":"196","category_name":"公园","address":"杨浦区长阳路1111号(江浦路口)"},{"poiid":"B2094757D06FA0F4439A","title":"杨浦区政府","lon":"121.526077271","lat":"31.2595462799","category":"46","category_name":"楼宇","address":"上海市杨浦区江浦路549号"},{"poiid":"B2094757D068A2FC459C","title":"杨浦区社会保险事业管理中心","lon":"121.525407","lat":"31.262155","category":"252","category_name":"楼宇机构","address":"上海杨浦区江浦路736号"},{"poiid":"B2094654DB69A5FE419E","title":"肯德基(怀德店)","lon":"121.52505","lat":"31.25807","category":"68","category_name":"快餐厅","address":"杨浦区平凉路675号(近怀德路)"},{"poiid":"B2094757D16CA6F4429C","title":"杨浦区","lon":"121.526118736","lat":"31.2594121463","category":"250","category_name":"公园户外","address":"上海杨浦区区域"},{"poiid":"B2094757D069A2FB4693","title":"齐齐哈尔路","lon":"121.529077103","lat":"31.2606302176","category":"38","category_name":"公交车站","address":"上海37路终点站齐齐哈尔路"},{"poiid":"B2094757D068ABFB429B","title":"许昌路霍山路","lon":"121.522648","lat":"31.261791","category":"500","category_name":"未知分类","address":"上海许昌路霍山路"},{"poiid":"B2094757D068ABF9409A","title":"东亮大酒店","lon":"121.5250109592","lat":"31.258004677604","category":"76","category_name":"上海菜","address":"杨浦区平凉路675号(近怀德路)"},{"poiid":"B2094757D069A3FD4493","title":"婚姻登记处(杨浦区登记处)","lon":"121.52590489","lat":"31.26505761","category":"46","category_name":"楼宇","address":"上海杨浦区齐齐哈尔路828号(近长阳路)"},{"poiid":"B2094655D26FA5F8469E","title":"莫泰168连锁旅店许昌路店","lon":"121.5228","lat":"31.26179","category":"216","category_name":"经济型连锁酒店","address":"上海杨浦区霍山路890号(近大连路隧道浦西出口)  "},{"poiid":"B2094757D06AA7FB4093","title":"上海职业介绍杨浦分中心","lon":"121.525279","lat":"31.26193","category":"500","category_name":"未知分类","address":"杨浦区江浦路728号(近济宁路)"},{"poiid":"B2094655D26CA6F4409D","title":"上海国际设计交流中心","lon":"121.52453","lat":"31.26455","category":"263","category_name":"公司","address":"杨浦区长阳路1080号(近江浦路)"},{"poiid":"B2094757D064A3F84592","title":"星惠佳苑","lon":"121.52645","lat":"31.261393","category":"47","category_name":"住宅区","address":"上海市杨浦区江浦路666号(惠民路)"},{"poiid":"B2094655D265A4F9489E","title":"科杨公寓","lon":"121.52528","lat":"31.26193","category":"47","category_name":"住宅区","address":"上海市杨浦区江浦路728号"},{"poiid":"B2094757D16FA1F84298","title":"齐齐哈尔路第一小学","lon":"121.52707","lat":"31.26276","category":"56","category_name":"小学","address":"上海杨浦区齐齐哈尔路669号(近霍山路)  "},{"poiid":"B2094654D56FA3F94399","title":"万登花苑","lon":"121.52551","lat":"31.262594","category":"47","category_name":"住宅区","address":"江浦路740弄"},{"poiid":"B2094654DB6BA2FD4793","title":"中国电信(济宁路营业厅)","lon":"121.52599","lat":"31.26212","category":"151","category_name":"电讯营业厅","address":"杨浦区济宁路355号(江浦路口)"},{"poiid":"B2094757D16BA5FB419A","title":"70路江浦路济宁路站","lon":"121.524869786","lat":"31.2617634257","category":"38","category_name":"公交车站","address":"上海江浦路(近济宁路)"},{"poiid":"B2094757D068AAFD469D","title":"杨浦区民政局","lon":"121.52615151","lat":"31.259582817","category":"260","category_name":"其他","address":"上海江浦路667号"},{"poiid":"B2094757D66EABFA4092","title":"秋庭小吃","lon":"121.52454","lat":"31.26276","category":"68","category_name":"快餐厅","address":"杨浦区江浦路316号(近龙江路)"},{"poiid":"B2094757D06AA5FF489C","title":"锦杨苑","lon":"121.52838","lat":"31.262629","category":"252","category_name":"楼宇机构","address":"上海市杨浦区齐齐哈尔路598弄35号(惠民路口)"},{"poiid":"B2094654D56FA3F9439A","title":"新江浦公寓","lon":"121.52592","lat":"31.261591","category":"47","category_name":"住宅区","address":"江浦路702弄"},{"poiid":"B2094757D66EA2F5439E","title":"杨浦区民政事业发展中心","lon":"121.525232103","lat":"31.2615472368","category":"500","category_name":"未知分类","address":"上海杨浦区江浦路667号"},{"poiid":"B2094654D56FA3F9439B","title":"新江浦公寓(西门)","lon":"121.52555","lat":"31.26144","category":"47","category_name":"住宅区","address":"江浦路702弄"},{"poiid":"B2094655D36CA0FB439F","title":"济宁路","lon":"121.52458","lat":"31.26251","category":"38","category_name":"公交车站","address":""},{"poiid":"B2094655D36CA0F94299","title":"江浦路济宁路","lon":"121.52455","lat":"31.26261","category":"38","category_name":"公交车站","address":""},{"poiid":"B2094757DB68A2FC449E","title":"新招鲜","lon":"121.5278967005401","lat":"31.26254789999804","category":"500","category_name":"未知分类","address":"平凉路"},{"poiid":"B2094757D069AAFC4198","title":"iC.运动综合馆(通北路站)","lon":"121.522716","lat":"31.260681","category":"220","category_name":"运动场所","address":"上海杨浦区济宁路201号(近许昌路)"},{"poiid":"B2094757D568A0FE499B","title":"汉庭快捷酒店(上海江浦路店)","lon":"121.52499457","lat":"31.26035238","category":"216","category_name":"经济型连锁酒店","address":"杨浦区江浦路627号(惠民路江浦路)"},{"poiid":"B2094654D56FA3F94599","title":"秦家弄小区","lon":"121.52414","lat":"31.261936","category":"47","category_name":"住宅区","address":"江浦路745弄"},{"poiid":"B2094654D56FA3F9429E","title":"梅迪亚1895创意产业园","lon":"121.52534","lat":"31.26094","category":"45","category_name":"产业园区","address":""},{"poiid":"B2094655D26FA6F8419B","title":"新惠佳苑","lon":"121.52613","lat":"31.26109","category":"47","category_name":"住宅区","address":"江浦路666弄1-28号"},{"poiid":"B2094654D56FA3F8489D","title":"紫藤佳苑","lon":"121.52428","lat":"31.261797","category":"47","category_name":"住宅区","address":"杨浦江浦路727号,济宁路口"},{"poiid":"B2094654DB69A4FC4199","title":"好又多(霍山路店)","lon":"121.52473","lat":"31.26289","category":"118","category_name":"超级市场","address":"杨浦区霍山路(近江浦路)"},{"poiid":"B2094757D068A2FE4898","title":"明园村小区","lon":"121.52177","lat":"31.262873","category":"252","category_name":"楼宇机构","address":"上海长阳路910弄(近怀德路)"},{"poiid":"B2094752DB68A7FA4898","title":"新华医院","lon":"121.525314","lat":"31.263511","category":"162","category_name":"医院","address":"上海市 中国 上海市 控江路1665"},{"poiid":"B2094654D56FA3F94499","title":"星工场第五元素","lon":"121.52462","lat":"31.26152","category":"148","category_name":"美容美发店","address":"杨浦区济宁路279号(近江浦路)"},{"poiid":"B2094757D66CABFF449D","title":"中国电信","lon":"121.5258961","lat":"31.262232251","category":"500","category_name":"未知分类","address":"上海市杨浦区济宁路355号"},{"poiid":"B2094757D06BAAFA4998","title":"友好东北菜馆","lon":"121.52716","lat":"31.25825","category":"82","category_name":"东北菜","address":"杨浦区江浦路475号(平凉路口)"},{"poiid":"B2094655D26EA3F4439E","title":"好德便利No.592","lon":"121.52707","lat":"31.26239","category":"117","category_name":"便民商店/便利店","address":"济宁路366"},{"poiid":"B2094655D26EA2F54599","title":"宝立公寓","lon":"121.5266","lat":"31.261091","category":"47","category_name":"住宅区","address":"惠民路1033弄"},{"poiid":"B2094655D26AA7F9409B","title":"工达学校","lon":"121.52707","lat":"31.26235","category":"247","category_name":"餐饮美食","address":"杨浦区吉林路2号6楼(近长阳路)"},{"poiid":"B2094655D265A5FA4993","title":"滨江晶典","lon":"121.52712","lat":"31.260193","category":"47","category_name":"住宅区","address":"松江广富林路1518弄(嘉松南路口)"},{"poiid":"B2094655D26CA6FA4693","title":"上海市杨浦公证处","lon":"121.52854","lat":"31.25909","category":"250","category_name":"公园户外","address":""},{"poiid":"B2094654D56FA3F9499A","title":"上海市惠民中学","lon":"121.52521","lat":"31.25977","category":"55","category_name":"中学","address":"杨浦区惠民路868号(近江浦路)"},{"poiid":"B2094655D26CA6FB4993","title":"品克桌球","lon":"121.52521","lat":"31.26302","category":"171","category_name":"台球厅","address":"杨浦区霍山路1058号(近江浦路)"},{"poiid":"B2094655D26DAAFC4992","title":"天霞宾馆","lon":"121.52528","lat":"31.26314","category":"250","category_name":"公园户外","address":"霍山路1058号"},{"poiid":"B2094655D26CA6FE429F","title":"霍兰公寓","lon":"121.52663","lat":"31.26543","category":"47","category_name":"住宅区","address":"长阳路1220弄"},{"poiid":"B2094757D169A1FC4999","title":"上海杨浦区民政局婚姻登记所","lon":"121.525047103","lat":"31.2613532328","category":"500","category_name":"未知分类","address":"上海江浦路667号"},{"poiid":"B2094757D06FA4F9449D","title":"海上皇宫大酒店","lon":"121.52394321","lat":"31.264527791","category":"72","category_name":"广东菜","address":"杨浦区长阳路1080号(近江浦路)"},{"poiid":"B2094757D06FA0F8409D","title":"江浦公园","lon":"121.524354472","lat":"31.2657463287","category":"196","category_name":"公园","address":"杨浦区长阳路1111号(江浦路口)"},{"poiid":"B2094757D06FA0F4439A","title":"杨浦区政府","lon":"121.526077271","lat":"31.2595462799","category":"46","category_name":"楼宇","address":"上海市杨浦区江浦路549号"},{"poiid":"B2094757D068A2FC459C","title":"杨浦区社会保险事业管理中心","lon":"121.525407","lat":"31.262155","category":"252","category_name":"楼宇机构","address":"上海杨浦区江浦路736号"},{"poiid":"B2094654DB69A5FE419E","title":"肯德基(怀德店)","lon":"121.52505","lat":"31.25807","category":"68","category_name":"快餐厅","address":"杨浦区平凉路675号(近怀德路)"},{"poiid":"B2094757D16CA6F4429C","title":"杨浦区","lon":"121.526118736","lat":"31.2594121463","category":"250","category_name":"公园户外","address":"上海杨浦区区域"},{"poiid":"B2094757D069A2FB4693","title":"齐齐哈尔路","lon":"121.529077103","lat":"31.2606302176","category":"38","category_name":"公交车站","address":"上海37路终点站齐齐哈尔路"},{"poiid":"B2094757D068ABFB429B","title":"许昌路霍山路","lon":"121.522648","lat":"31.261791","category":"500","category_name":"未知分类","address":"上海许昌路霍山路"},{"poiid":"B2094757D068ABF9409A","title":"东亮大酒店","lon":"121.5250109592","lat":"31.258004677604","category":"76","category_name":"上海菜","address":"杨浦区平凉路675号(近怀德路)"},{"poiid":"B2094757D069A3FD4493","title":"婚姻登记处(杨浦区登记处)","lon":"121.52590489","lat":"31.26505761","category":"46","category_name":"楼宇","address":"上海杨浦区齐齐哈尔路828号(近长阳路)"},{"poiid":"B2094655D26FA5F8469E","title":"莫泰168连锁旅店许昌路店","lon":"121.5228","lat":"31.26179","category":"216","category_name":"经济型连锁酒店","address":"上海杨浦区霍山路890号(近大连路隧道浦西出口)  "},{"poiid":"B2094757D06AA7FB4093","title":"上海职业介绍杨浦分中心","lon":"121.525279","lat":"31.26193","category":"500","category_name":"未知分类","address":"杨浦区江浦路728号(近济宁路)"},{"poiid":"B2094655D26CA6F4409D","title":"上海国际设计交流中心","lon":"121.52453","lat":"31.26455","category":"263","category_name":"公司","address":"杨浦区长阳路1080号(近江浦路)"},{"poiid":"B2094757D064A3F84592","title":"星惠佳苑","lon":"121.52645","lat":"31.261393","category":"47","category_name":"住宅区","address":"上海市杨浦区江浦路666号(惠民路)"},{"poiid":"B2094655D265A4F9489E","title":"科杨公寓","lon":"121.52528","lat":"31.26193","category":"47","category_name":"住宅区","address":"上海市杨浦区江浦路728号"},{"poiid":"B2094757D16FA1F84298","title":"齐齐哈尔路第一小学","lon":"121.52707","lat":"31.26276","category":"56","category_name":"小学","address":"上海杨浦区齐齐哈尔路669号(近霍山路)  "},{"poiid":"B2094654D56FA3F94399","title":"万登花苑","lon":"121.52551","lat":"31.262594","category":"47","category_name":"住宅区","address":"江浦路740弄"},{"poiid":"B2094654DB6BA2FD4793","title":"中国电信(济宁路营业厅)","lon":"121.52599","lat":"31.26212","category":"151","category_name":"电讯营业厅","address":"杨浦区济宁路355号(江浦路口)"},{"poiid":"B2094757D16BA5FB419A","title":"70路江浦路济宁路站","lon":"121.524869786","lat":"31.2617634257","category":"38","category_name":"公交车站","address":"上海江浦路(近济宁路)"},{"poiid":"B2094757D068AAFD469D","title":"杨浦区民政局","lon":"121.52615151","lat":"31.259582817","category":"260","category_name":"其他","address":"上海江浦路667号"},{"poiid":"B2094757D66EABFA4092","title":"秋庭小吃","lon":"121.52454","lat":"31.26276","category":"68","category_name":"快餐厅","address":"杨浦区江浦路316号(近龙江路)"},{"poiid":"B2094757D06AA5FF489C","title":"锦杨苑","lon":"121.52838","lat":"31.262629","category":"252","category_name":"楼宇机构","address":"上海市杨浦区齐齐哈尔路598弄35号(惠民路口)"},{"poiid":"B2094654D56FA3F9439A","title":"新江浦公寓","lon":"121.52592","lat":"31.261591","category":"47","category_name":"住宅区","address":"江浦路702弄"},{"poiid":"B2094757D66EA2F5439E","title":"杨浦区民政事业发展中心","lon":"121.525232103","lat":"31.2615472368","category":"500","category_name":"未知分类","address":"上海杨浦区江浦路667号"},{"poiid":"B2094654D56FA3F9439B","title":"新江浦公寓(西门)","lon":"121.52555","lat":"31.26144","category":"47","category_name":"住宅区","address":"江浦路702弄"},{"poiid":"B2094655D36CA0FB439F","title":"济宁路","lon":"121.52458","lat":"31.26251","category":"38","category_name":"公交车站","address":""},{"poiid":"B2094655D36CA0F94299","title":"江浦路济宁路","lon":"121.52455","lat":"31.26261","category":"38","category_name":"公交车站","address":""},{"poiid":"B2094757DB68A2FC449E","title":"新招鲜","lon":"121.5278967005401","lat":"31.26254789999804","category":"500","category_name":"未知分类","address":"平凉路"},{"poiid":"B2094757D069AAFC4198","title":"iC.运动综合馆(通北路站)","lon":"121.522716","lat":"31.260681","category":"220","category_name":"运动场所","address":"上海杨浦区济宁路201号(近许昌路)"},{"poiid":"B2094757D568A0FE499B","title":"汉庭快捷酒店(上海江浦路店)","lon":"121.52499457","lat":"31.26035238","category":"216","category_name":"经济型连锁酒店","address":"杨浦区江浦路627号(惠民路江浦路)"},{"poiid":"B2094654D56FA3F94599","title":"秦家弄小区","lon":"121.52414","lat":"31.261936","category":"47","category_name":"住宅区","address":"江浦路745弄"},{"poiid":"B2094654D56FA3F9429E","title":"梅迪亚1895创意产业园","lon":"121.52534","lat":"31.26094","category":"45","category_name":"产业园区","address":""},{"poiid":"B2094655D26FA6F8419B","title":"新惠佳苑","lon":"121.52613","lat":"31.26109","category":"47","category_name":"住宅区","address":"江浦路666弄1-28号"},{"poiid":"B2094654D56FA3F8489D","title":"紫藤佳苑","lon":"121.52428","lat":"31.261797","category":"47","category_name":"住宅区","address":"杨浦江浦路727号,济宁路口"},{"poiid":"B2094654DB69A4FC4199","title":"好又多(霍山路店)","lon":"121.52473","lat":"31.26289","category":"118","category_name":"超级市场","address":"杨浦区霍山路(近江浦路)"},{"poiid":"B2094757D068A2FE4898","title":"明园村小区","lon":"121.52177","lat":"31.262873","category":"252","category_name":"楼宇机构","address":"上海长阳路910弄(近怀德路)"},{"poiid":"B2094752DB68A7FA4898","title":"新华医院","lon":"121.525314","lat":"31.263511","category":"162","category_name":"医院","address":"上海市 中国 上海市 控江路1665"},{"poiid":"B2094654D56FA3F94499","title":"星工场第五元素","lon":"121.52462","lat":"31.26152","category":"148","category_name":"美容美发店","address":"杨浦区济宁路279号(近江浦路)"},{"poiid":"B2094757D66CABFF449D","title":"中国电信","lon":"121.5258961","lat":"31.262232251","category":"500","category_name":"未知分类","address":"上海市杨浦区济宁路355号"},{"poiid":"B2094757D06BAAFA4998","title":"友好东北菜馆","lon":"121.52716","lat":"31.25825","category":"82","category_name":"东北菜","address":"杨浦区江浦路475号(平凉路口)"},{"poiid":"B2094655D26EA3F4439E","title":"好德便利No.592","lon":"121.52707","lat":"31.26239","category":"117","category_name":"便民商店/便利店","address":"济宁路366"},{"poiid":"B2094655D26EA2F54599","title":"宝立公寓","lon":"121.5266","lat":"31.261091","category":"47","category_name":"住宅区","address":"惠民路1033弄"},{"poiid":"B2094655D26AA7F9409B","title":"工达学校","lon":"121.52707","lat":"31.26235","category":"247","category_name":"餐饮美食","address":"杨浦区吉林路2号6楼(近长阳路)"},{"poiid":"B2094655D265A5FA4993","title":"滨江晶典","lon":"121.52712","lat":"31.260193","category":"47","category_name":"住宅区","address":"松江广富林路1518弄(嘉松南路口)"},{"poiid":"B2094655D26CA6FA4693","title":"上海市杨浦公证处","lon":"121.52854","lat":"31.25909","category":"250","category_name":"公园户外","address":""},{"poiid":"B2094654D56FA3F9499A","title":"上海市惠民中学","lon":"121.52521","lat":"31.25977","category":"55","category_name":"中学","address":"杨浦区惠民路868号(近江浦路)"},{"poiid":"B2094655D26CA6FB4993","title":"品克桌球","lon":"121.52521","lat":"31.26302","category":"171","category_name":"台球厅","address":"杨浦区霍山路1058号(近江浦路)"},{"poiid":"B2094655D26DAAFC4992","title":"天霞宾馆","lon":"121.52528","lat":"31.26314","category":"250","category_name":"公园户外","address":"霍山路1058号"},{"poiid":"B2094655D26CA6FE429F","title":"霍兰公寓","lon":"121.52663","lat":"31.26543","category":"47","category_name":"住宅区","address":"长阳路1220弄"}]