[{"poiid":"B2094757D165A3FA489E","title":"七宝老街","lon":"121.358113586","lat":"31.1531869255","category":"500","category_name":"未知分类","address":"闵行区七宝镇富强街(七莘路新镇路间)"},{"poiid":"B2094757D06FA1FD4193","title":"七宝老街汤团店(七宝二店)","lon":"121.35493","lat":"31.15205","category":"68","category_name":"快餐厅","address":"闵行区七宝镇南大街14号(近富强街)"},{"poiid":"B2094757D06FA7FB4998","title":"七宝老饭店","lon":"121.3549","lat":"31.15256","category":"76","category_name":"上海菜","address":"闵行区七宝古镇北大街8号(近蒲汇塘桥)"},{"poiid":"B2094654DA64ABF5409E","title":"七宝镇步行街","lon":"121.35808437301637","lat":"31.153243179298574","category":"116","category_name":"特色商业街","address":"闵行区富强街"},{"poiid":"B2094757D06FA5F54398","title":"龙袍蟹粉小笼馆(北大街店)","lon":"121.3568","lat":"31.15109","category":"257","category_name":"中餐厅","address":"闵行区七宝老街北大街15号(富强街竹行弄)"},{"poiid":"B2094757D068A5FE499F","title":"上海交通大学农学院","lon":"121.35488128","lat":"31.147779464","category":"52","category_name":"高等院校","address":"上海闵行区七莘路2678号"},{"poiid":"B2094757D06FA7FA4698","title":"万兆家园","lon":"121.35126495","lat":"31.150327682","category":"500","category_name":"未知分类","address":"上海七莘路2855弄"},{"poiid":"B2094757D069A2F84293","title":"七宝教寺","lon":"121.3578","lat":"31.15457","category":"244","category_name":"寺庙道观","address":"闵行区七宝镇新镇路1205号"},{"poiid":"B2094757D06FABF94093","title":"锡缘无锡小笼馆 七宝店","lon":"121.356020054","lat":"31.152483793","category":"68","category_name":"快餐厅","address":"闵行区七宝镇南大街54号(近富强街)"},{"poiid":"B2094757D068ABFC459F","title":"天香楼","lon":"121.35229762319","lat":"31.151826034328","category":"76","category_name":"上海菜","address":"闵行区七宝古镇北大街17号"},{"poiid":"B2094757D065A4FD479F","title":"宝燕一号","lon":"121.359536857","lat":"31.1426382162","category":"500","category_name":"未知分类","address":"上海市闵行区七莘路中谊路口"},{"poiid":"B2094757D06AA3FD409A","title":"塘桥老饭店","lon":"121.35437","lat":"31.15208","category":"75","category_name":"浙江菜","address":"闵行区七宝古镇南大街(近蒲汇塘桥)"},{"poiid":"B2094654DA64ABFB499E","title":"七宝茶馆","lon":"121.35478","lat":"31.15227","category":"66","category_name":"茶艺馆","address":"闵行区七宝老街南大街9号(近富强街)"},{"poiid":"B2094654DB69A4F9449A","title":"七宝营业厅","lon":"121.35291","lat":"31.15026","category":"151","category_name":"电讯营业厅","address":"闵行区七莘路2911号"},{"poiid":"B2094757D16DAAF4439A","title":"CRH","lon":"121.35319756","lat":"31.151321783","category":"249","category_name":"购物服务","address":"上海虹桥火车站"},{"poiid":"B2094757D068A4FC499C","title":"老街臭豆腐","lon":"121.35285","lat":"31.14983","category":"68","category_name":"快餐厅","address":"闵行区七宝镇富强街29号(富强街竹行弄)"},{"poiid":"B2094654DA64ABFB479D","title":"龙袍蟹黄汤包","lon":"121.3554","lat":"31.15167","category":"68","category_name":"快餐厅","address":"闵行区七宝老街南大街43号(近富强街)"},{"poiid":"B2094757D069A3FA4492","title":"七宝古镇羊肉店","lon":"121.354374054","lat":"31.152532793","category":"68","category_name":"快餐厅","address":"闵行区七宝古镇南西街9号(近蒲汇塘桥)"},{"poiid":"B2094757D568A4FF479A","title":"舒友海鲜大酒楼(宝南小区东南)","lon":"121.35485731","lat":"31.14685655","category":"260","category_name":"其他","address":"闵行区七莘路2409号(交通大学对面)"},{"poiid":"B2094757D069A1FB409D","title":"牛杂第一家","lon":"121.3554","lat":"31.15153","category":"68","category_name":"快餐厅","address":"闵行区七宝古镇南大街36号(近富强街)"},{"poiid":"B2094654DA64A3FA4492","title":"华夏茗苑","lon":"121.356901","lat":"31.150532","category":"47","category_name":"住宅区","address":"闵行宝南路508弄"},{"poiid":"B2094654DA6BABF4409D","title":"茂盛城市花园","lon":"121.36122","lat":"31.15213","category":"47","category_name":"住宅区","address":"新镇路1036弄"},{"poiid":"B2094654DA6BAAFF4393","title":"交通大学(七莘路)","lon":"121.35508","lat":"31.14764","category":"52","category_name":"高等院校","address":""},{"poiid":"B2094654DB69A6FE429B","title":"明强小学","lon":"121.3612","lat":"31.15171","category":"56","category_name":"小学","address":"闵行区七宝镇新镇路1050号"},{"poiid":"B2094757D06BA6FD459C","title":"万泰花园","lon":"121.3566","lat":"31.142801","category":"47","category_name":"住宅区","address":"上海闵行区七莘路2299弄"},{"poiid":"B2094654DA6BAAFF459D","title":"交通大学图书馆","lon":"121.35687","lat":"31.14828","category":"181","category_name":"图书馆","address":""},{"poiid":"B2094654DA6BAAFF449A","title":"交通大学第一实验楼","lon":"121.35636","lat":"31.14798","category":"46","category_name":"楼宇","address":""},{"poiid":"B2094757D06AA7FC4292","title":"村夫烤鱼(七莘路店)","lon":"121.35155","lat":"31.15261","category":"68","category_name":"快餐厅","address":"闵行区七莘路2891号(近七宝老街)"},{"poiid":"B2094757D568A5F8419B","title":"上海交通大学农业与生物学院","lon":"121.35636176","lat":"31.14798421","category":"52","category_name":"高等院校","address":"中国上海市闵行区"},{"poiid":"B2094757D169ABF9419C","title":"恒霖茶楼","lon":"121.35353","lat":"31.14979","category":"113","category_name":"冷饮店","address":"闵行区七宝老街北东街28号(富强街七莘路)"},{"poiid":"B2094654DA6BABF44793","title":"七宝医院","lon":"121.35258","lat":"31.15049","category":"162","category_name":"医院","address":"富强街96号"},{"poiid":"B2094757D165A3F8409F","title":"桂花藕粉圆","lon":"121.357509086","lat":"31.1513757901","category":"68","category_name":"快餐厅","address":"闵行区七宝老街南大街15号"},{"poiid":"B2094654DA6BAAFF449B","title":"交通大学第四宿舍","lon":"121.35723","lat":"31.14849","category":"47","category_name":"住宅区","address":""},{"poiid":"B2094757D06FABFD489D","title":"广海花园","lon":"121.35492","lat":"31.144835","category":"47","category_name":"住宅区","address":"上海七莘路2315弄"},{"poiid":"B2094654DA6BAAFF4492","title":"交通大学七宝餐厅","lon":"121.35809","lat":"31.14896","category":"257","category_name":"中餐厅","address":""},{"poiid":"B209475CDB6FABF44693","title":"上海交通大学七宝校区","lon":"121.358489","lat":"31.148418","category":"500","category_name":"未知分类","address":"上海市 闵行区七幸路2678号"},{"poiid":"B2094757D46AA6FE469C","title":"都可茶饮 七宝老街店 CoCo","lon":"121.35547","lat":"31.15163","category":"113","category_name":"冷饮店","address":"闵行区七宝老街南大街43号(近七莘路)"},{"poiid":"B2094654DB65AAF8439B","title":"华宝花园","lon":"121.35605","lat":"31.144239","category":"47","category_name":"住宅区","address":"华宝花园位于闵行华茂路16号"},{"poiid":"B2094757D569A3FF479A","title":"交大技术学院","lon":"121.3551864","lat":"31.1477219","category":"52","category_name":"高等院校","address":"中国上海市闵行区"},{"poiid":"B2094654DA64ABF44392","title":"七宝老糕坊 七宝店","lon":"121.355102054","lat":"31.151625793","category":"112","category_name":"糕饼店","address":"闵行区七宝镇南大街20号(近富强街)"},{"poiid":"B2094757D165ABFC439C","title":"七香阁","lon":"121.3524","lat":"31.14999","category":"76","category_name":"上海菜","address":"闵行区七莘路2908号(近七宝老街)"},{"poiid":"B2094757D06BA7FD489D","title":"七宝社区卫生服务中心","lon":"121.35397","lat":"31.15038","category":"162","category_name":"医院","address":"闵行区富强街94号七宝镇(近七宝老街)"},{"poiid":"B2094654DA6BAAFF4493","title":"交通大学第五宿舍","lon":"121.35831","lat":"31.14842","category":"47","category_name":"住宅区","address":""},{"poiid":"B2094757D06BA5F54898","title":"七宝镇天主堂","lon":"121.355186756","lat":"31.150551194","category":"500","category_name":"未知分类","address":"上海七宝镇"},{"poiid":"B2094750DB65A5F8489E","title":"熹福堂港式茶餐厅","lon":"121.35655","lat":"31.15009","category":"72","category_name":"广东菜","address":"闵行区闵行区宝南路536弄66号"},{"poiid":"B2094757D169A2FD4492","title":"云南邨","lon":"121.35458001704","lat":"31.152260022899","category":"83","category_name":"云贵菜","address":"闵行区七宝古镇南西街29号甲(近蒲汇塘桥)"},{"poiid":"B2094654DA6BAAFF449D","title":"交通大学体育馆","lon":"121.35791","lat":"31.14712","category":"224","category_name":"综合体育馆","address":""},{"poiid":"B2094654DA64ABFB4999","title":"南翔小笼","lon":"121.35487","lat":"31.15226","category":"68","category_name":"快餐厅","address":"闵行区七宝镇南大街11号(富强街闵行南大街)"},{"poiid":"B2094654DB69A5F5439F","title":"迪欧咖啡(七宝店)","lon":"121.35096","lat":"31.15108","category":"65","category_name":"咖啡厅","address":"闵行区七莘路2889号(近七宝老街)"},{"poiid":"B2094757D064ABF8439F","title":"叠彩人家","lon":"121.355368196","lat":"31.1471258199","category":"247","category_name":"餐饮美食","address":"上海七莘路2855弄"},{"poiid":"B2094757D165A3FA489E","title":"七宝老街","lon":"121.358113586","lat":"31.1531869255","category":"500","category_name":"未知分类","address":"闵行区七宝镇富强街(七莘路新镇路间)"},{"poiid":"B2094757D06FA1FD4193","title":"七宝老街汤团店(七宝二店)","lon":"121.35493","lat":"31.15205","category":"68","category_name":"快餐厅","address":"闵行区七宝镇南大街14号(近富强街)"},{"poiid":"B2094757D06FA7FB4998","title":"七宝老饭店","lon":"121.3549","lat":"31.15256","category":"76","category_name":"上海菜","address":"闵行区七宝古镇北大街8号(近蒲汇塘桥)"},{"poiid":"B2094654DA64ABF5409E","title":"七宝镇步行街","lon":"121.35808437301637","lat":"31.153243179298574","category":"116","category_name":"特色商业街","address":"闵行区富强街"},{"poiid":"B2094757D06FA5F54398","title":"龙袍蟹粉小笼馆(北大街店)","lon":"121.3568","lat":"31.15109","category":"257","category_name":"中餐厅","address":"闵行区七宝老街北大街15号(富强街竹行弄)"},{"poiid":"B2094757D068A5FE499F","title":"上海交通大学农学院","lon":"121.35488128","lat":"31.147779464","category":"52","category_name":"高等院校","address":"上海闵行区七莘路2678号"},{"poiid":"B2094757D06FA7FA4698","title":"万兆家园","lon":"121.35126495","lat":"31.150327682","category":"500","category_name":"未知分类","address":"上海七莘路2855弄"},{"poiid":"B2094757D069A2F84293","title":"七宝教寺","lon":"121.3578","lat":"31.15457","category":"244","category_name":"寺庙道观","address":"闵行区七宝镇新镇路1205号"},{"poiid":"B2094757D06FABF94093","title":"锡缘无锡小笼馆 七宝店","lon":"121.356020054","lat":"31.152483793","category":"68","category_name":"快餐厅","address":"闵行区七宝镇南大街54号(近富强街)"},{"poiid":"B2094757D068ABFC459F","title":"天香楼","lon":"121.35229762319","lat":"31.151826034328","category":"76","category_name":"上海菜","address":"闵行区七宝古镇北大街17号"},{"poiid":"B2094757D065A4FD479F","title":"宝燕一号","lon":"121.359536857","lat":"31.1426382162","category":"500","category_name":"未知分类","address":"上海市闵行区七莘路中谊路口"},{"poiid":"B2094757D06AA3FD409A","title":"塘桥老饭店","lon":"121.35437","lat":"31.15208","category":"75","category_name":"浙江菜","address":"闵行区七宝古镇南大街(近蒲汇塘桥)"},{"poiid":"B2094654DA64ABFB499E","title":"七宝茶馆","lon":"121.35478","lat":"31.15227","category":"66","category_name":"茶艺馆","address":"闵行区七宝老街南大街9号(近富强街)"},{"poiid":"B2094654DB69A4F9449A","title":"七宝营业厅","lon":"121.35291","lat":"31.15026","category":"151","category_name":"电讯营业厅","address":"闵行区七莘路2911号"},{"poiid":"B2094757D16DAAF4439A","title":"CRH","lon":"121.35319756","lat":"31.151321783","category":"249","category_name":"购物服务","address":"上海虹桥火车站"},{"poiid":"B2094757D068A4FC499C","title":"老街臭豆腐","lon":"121.35285","lat":"31.14983","category":"68","category_name":"快餐厅","address":"闵行区七宝镇富强街29号(富强街竹行弄)"},{"poiid":"B2094654DA64ABFB479D","title":"龙袍蟹黄汤包","lon":"121.3554","lat":"31.15167","category":"68","category_name":"快餐厅","address":"闵行区七宝老街南大街43号(近富强街)"},{"poiid":"B2094757D069A3FA4492","title":"七宝古镇羊肉店","lon":"121.354374054","lat":"31.152532793","category":"68","category_name":"快餐厅","address":"闵行区七宝古镇南西街9号(近蒲汇塘桥)"},{"poiid":"B2094757D568A4FF479A","title":"舒友海鲜大酒楼(宝南小区东南)","lon":"121.35485731","lat":"31.14685655","category":"260","category_name":"其他","address":"闵行区七莘路2409号(交通大学对面)"},{"poiid":"B2094757D069A1FB409D","title":"牛杂第一家","lon":"121.3554","lat":"31.15153","category":"68","category_name":"快餐厅","address":"闵行区七宝古镇南大街36号(近富强街)"},{"poiid":"B2094654DA64A3FA4492","title":"华夏茗苑","lon":"121.356901","lat":"31.150532","category":"47","category_name":"住宅区","address":"闵行宝南路508弄"},{"poiid":"B2094654DA6BABF4409D","title":"茂盛城市花园","lon":"121.36122","lat":"31.15213","category":"47","category_name":"住宅区","address":"新镇路1036弄"},{"poiid":"B2094654DA6BAAFF4393","title":"交通大学(七莘路)","lon":"121.35508","lat":"31.14764","category":"52","category_name":"高等院校","address":""},{"poiid":"B2094654DB69A6FE429B","title":"明强小学","lon":"121.3612","lat":"31.15171","category":"56","category_name":"小学","address":"闵行区七宝镇新镇路1050号"},{"poiid":"B2094757D06BA6FD459C","title":"万泰花园","lon":"121.3566","lat":"31.142801","category":"47","category_name":"住宅区","address":"上海闵行区七莘路2299弄"},{"poiid":"B2094654DA6BAAFF459D","title":"交通大学图书馆","lon":"121.35687","lat":"31.14828","category":"181","category_name":"图书馆","address":""},{"poiid":"B2094654DA6BAAFF449A","title":"交通大学第一实验楼","lon":"121.35636","lat":"31.14798","category":"46","category_name":"楼宇","address":""},{"poiid":"B2094757D06AA7FC4292","title":"村夫烤鱼(七莘路店)","lon":"121.35155","lat":"31.15261","category":"68","category_name":"快餐厅","address":"闵行区七莘路2891号(近七宝老街)"},{"poiid":"B2094757D568A5F8419B","title":"上海交通大学农业与生物学院","lon":"121.35636176","lat":"31.14798421","category":"52","category_name":"高等院校","address":"中国上海市闵行区"},{"poiid":"B2094757D169ABF9419C","title":"恒霖茶楼","lon":"121.35353","lat":"31.14979","category":"113","category_name":"冷饮店","address":"闵行区七宝老街北东街28号(富强街七莘路)"},{"poiid":"B2094654DA6BABF44793","title":"七宝医院","lon":"121.35258","lat":"31.15049","category":"162","category_name":"医院","address":"富强街96号"},{"poiid":"B2094757D165A3F8409F","title":"桂花藕粉圆","lon":"121.357509086","lat":"31.1513757901","category":"68","category_name":"快餐厅","address":"闵行区七宝老街南大街15号"},{"poiid":"B2094654DA6BAAFF449B","title":"交通大学第四宿舍","lon":"121.35723","lat":"31.14849","category":"47","category_name":"住宅区","address":""},{"poiid":"B2094757D06FABFD489D","title":"广海花园","lon":"121.35492","lat":"31.144835","category":"47","category_name":"住宅区","address":"上海七莘路2315弄"},{"poiid":"B2094654DA6BAAFF4492","title":"交通大学七宝餐厅","lon":"121.35809","lat":"31.14896","category":"257","category_name":"中餐厅","address":""},{"poiid":"B209475CDB6FABF44693","title":"上海交通大学七宝校区","lon":"121.358489","lat":"31.148418","category":"500","category_name":"未知分类","address":"上海市 闵行区七幸路2678号"},{"poiid":"B2094757D46AA6FE469C","title":"都可茶饮 七宝老街店 CoCo","lon":"121.35547","lat":"31.15163","category":"113","category_name":"冷饮店","address":"闵行区七宝老街南大街43号(近七莘路)"},{"poiid":"B2094654DB65AAF8439B","title":"华宝花园","lon":"121.35605","lat":"31.144239","category":"47","category_name":"住宅区","address":"华宝花园位于闵行华茂路16号"},{"poiid":"B2094757D569A3FF479A","title":"交大技术学院","lon":"121.3551864","lat":"31.1477219","category":"52","category_name":"高等院校","address":"中国上海市闵行区"},{"poiid":"B2094654DA64ABF44392","title":"七宝老糕坊 七宝店","lon":"121.355102054","lat":"31.151625793","category":"112","category_name":"糕饼店","address":"闵行区七宝镇南大街20号(近富强街)"},{"poiid":"B2094757D165ABFC439C","title":"七香阁","lon":"121.3524","lat":"31.14999","category":"76","category_name":"上海菜","address":"闵行区七莘路2908号(近七宝老街)"},{"poiid":"B2094757D06BA7FD489D","title":"七宝社区卫生服务中心","lon":"121.35397","lat":"31.15038","category":"162","category_name":"医院","address":"闵行区富强街94号七宝镇(近七宝老街)"},{"poiid":"B2094654DA6BAAFF4493","title":"交通大学第五宿舍","lon":"121.35831","lat":"31.14842","category":"47","category_name":"住宅区","address":""},{"poiid":"B2094757D06BA5F54898","title":"七宝镇天主堂","lon":"121.355186756","lat":"31.150551194","category":"500","category_name":"未知分类","address":"上海七宝镇"},{"poiid":"B2094750DB65A5F8489E","title":"熹福堂港式茶餐厅","lon":"121.35655","lat":"31.15009","category":"72","category_name":"广东菜","address":"闵行区闵行区宝南路536弄66号"},{"poiid":"B2094757D169A2FD4492","title":"云南邨","lon":"121.35458001704","lat":"31.152260022899","category":"83","category_name":"云贵菜","address":"闵行区七宝古镇南西街29号甲(近蒲汇塘桥)"},{"poiid":"B2094654DA6BAAFF449D","title":"交通大学体育馆","lon":"121.35791","lat":"31.14712","category":"224","category_name":"综合体育馆","address":""},{"poiid":"B2094654DA64ABFB4999","title":"南翔小笼","lon":"121.35487","lat":"31.15226","category":"68","category_name":"快餐厅","address":"闵行区七宝镇南大街11号(富强街闵行南大街)"},{"poiid":"B2094654DB69A5F5439F","title":"迪欧咖啡(七宝店)","lon":"121.35096","lat":"31.15108","category":"65","category_name":"咖啡厅","address":"闵行区七莘路2889号(近七宝老街)"},{"poiid":"B2094757D064ABF8439F","title":"叠彩人家","lon":"121.355368196","lat":"31.1471258199","category":"247","category_name":"餐饮美食","address":"上海七莘路2855弄"},{"poiid":"B2094757D165A3FA489E","title":"七宝老街","lon":"121.358113586","lat":"31.1531869255","category":"500","category_name":"未知分类","address":"闵行区七宝镇富强街(七莘路新镇路间)"},{"poiid":"B2094757D06FA1FD4193","title":"七宝老街汤团店(七宝二店)","lon":"121.35493","lat":"31.15205","category":"68","category_name":"快餐厅","address":"闵行区七宝镇南大街14号(近富强街)"},{"poiid":"B2094757D06FA7FB4998","title":"七宝老饭店","lon":"121.3549","lat":"31.15256","category":"76","category_name":"上海菜","address":"闵行区七宝古镇北大街8号(近蒲汇塘桥)"},{"poiid":"B2094654DA64ABF5409E","title":"七宝镇步行街","lon":"121.35808437301637","lat":"31.153243179298574","category":"116","category_name":"特色商业街","address":"闵行区富强街"},{"poiid":"B2094757D06FA5F54398","title":"龙袍蟹粉小笼馆(北大街店)","lon":"121.3568","lat":"31.15109","category":"257","category_name":"中餐厅","address":"闵行区七宝老街北大街15号(富强街竹行弄)"},{"poiid":"B2094757D068A5FE499F","title":"上海交通大学农学院","lon":"121.35488128","lat":"31.147779464","category":"52","category_name":"高等院校","address":"上海闵行区七莘路2678号"},{"poiid":"B2094757D06FA7FA4698","title":"万兆家园","lon":"121.35126495","lat":"31.150327682","category":"500","category_name":"未知分类","address":"上海七莘路2855弄"},{"poiid":"B2094757D069A2F84293","title":"七宝教寺","lon":"121.3578","lat":"31.15457","category":"244","category_name":"寺庙道观","address":"闵行区七宝镇新镇路1205号"},{"poiid":"B2094757D06FABF94093","title":"锡缘无锡小笼馆 七宝店","lon":"121.356020054","lat":"31.152483793","category":"68","category_name":"快餐厅","address":"闵行区七宝镇南大街54号(近富强街)"},{"poiid":"B2094757D068ABFC459F","title":"天香楼","lon":"121.35229762319","lat":"31.151826034328","category":"76","category_name":"上海菜","address":"闵行区七宝古镇北大街17号"},{"poiid":"B2094757D065A4FD479F","title":"宝燕一号","lon":"121.359536857","lat":"31.1426382162","category":"500","category_name":"未知分类","address":"上海市闵行区七莘路中谊路口"},{"poiid":"B2094757D06AA3FD409A","title":"塘桥老饭店","lon":"121.35437","lat":"31.15208","category":"75","category_name":"浙江菜","address":"闵行区七宝古镇南大街(近蒲汇塘桥)"},{"poiid":"B2094654DA64ABFB499E","title":"七宝茶馆","lon":"121.35478","lat":"31.15227","category":"66","category_name":"茶艺馆","address":"闵行区七宝老街南大街9号(近富强街)"},{"poiid":"B2094654DB69A4F9449A","title":"七宝营业厅","lon":"121.35291","lat":"31.15026","category":"151","category_name":"电讯营业厅","address":"闵行区七莘路2911号"},{"poiid":"B2094757D16DAAF4439A","title":"CRH","lon":"121.35319756","lat":"31.151321783","category":"249","category_name":"购物服务","address":"上海虹桥火车站"},{"poiid":"B2094757D068A4FC499C","title":"老街臭豆腐","lon":"121.35285","lat":"31.14983","category":"68","category_name":"快餐厅","address":"闵行区七宝镇富强街29号(富强街竹行弄)"},{"poiid":"B2094654DA64ABFB479D","title":"龙袍蟹黄汤包","lon":"121.3554","lat":"31.15167","category":"68","category_name":"快餐厅","address":"闵行区七宝老街南大街43号(近富强街)"},{"poiid":"B2094757D069A3FA4492","title":"七宝古镇羊肉店","lon":"121.354374054","lat":"31.152532793","category":"68","category_name":"快餐厅","address":"闵行区七宝古镇南西街9号(近蒲汇塘桥)"},{"poiid":"B2094757D568A4FF479A","title":"舒友海鲜大酒楼(宝南小区东南)","lon":"121.35485731","lat":"31.14685655","category":"260","category_name":"其他","address":"闵行区七莘路2409号(交通大学对面)"},{"poiid":"B2094757D069A1FB409D","title":"牛杂第一家","lon":"121.3554","lat":"31.15153","category":"68","category_name":"快餐厅","address":"闵行区七宝古镇南大街36号(近富强街)"},{"poiid":"B2094654DA64A3FA4492","title":"华夏茗苑","lon":"121.356901","lat":"31.150532","category":"47","category_name":"住宅区","address":"闵行宝南路508弄"},{"poiid":"B2094654DA6BABF4409D","title":"茂盛城市花园","lon":"121.36122","lat":"31.15213","category":"47","category_name":"住宅区","address":"新镇路1036弄"},{"poiid":"B2094654DA6BAAFF4393","title":"交通大学(七莘路)","lon":"121.35508","lat":"31.14764","category":"52","category_name":"高等院校","address":""},{"poiid":"B2094654DB69A6FE429B","title":"明强小学","lon":"121.3612","lat":"31.15171","category":"56","category_name":"小学","address":"闵行区七宝镇新镇路1050号"},{"poiid":"B2094757D06BA6FD459C","title":"万泰花园","lon":"121.3566","lat":"31.142801","category":"47","category_name":"住宅区","address":"上海闵行区七莘路2299弄"},{"poiid":"B2094654DA6BAAFF459D","title":"交通大学图书馆","lon":"121.35687","lat":"31.14828","category":"181","category_name":"图书馆","address":""},{"poiid":"B2094654DA6BAAFF449A","title":"交通大学第一实验楼","lon":"121.35636","lat":"31.14798","category":"46","category_name":"楼宇","address":""},{"poiid":"B2094757D06AA7FC4292","title":"村夫烤鱼(七莘路店)","lon":"121.35155","lat":"31.15261","category":"68","category_name":"快餐厅","address":"闵行区七莘路2891号(近七宝老街)"},{"poiid":"B2094757D568A5F8419B","title":"上海交通大学农业与生物学院","lon":"121.35636176","lat":"31.14798421","category":"52","category_name":"高等院校","address":"中国上海市闵行区"},{"poiid":"B2094757D169ABF9419C","title":"恒霖茶楼","lon":"121.35353","lat":"31.14979","category":"113","category_name":"冷饮店","address":"闵行区七宝老街北东街28号(富强街七莘路)"},{"poiid":"B2094654DA6BABF44793","title":"七宝医院","lon":"121.35258","lat":"31.15049","category":"162","category_name":"医院","address":"富强街96号"},{"poiid":"B2094757D165A3F8409F","title":"桂花藕粉圆","lon":"121.357509086","lat":"31.1513757901","category":"68","category_name":"快餐厅","address":"闵行区七宝老街南大街15号"},{"poiid":"B2094654DA6BAAFF449B","title":"交通大学第四宿舍","lon":"121.35723","lat":"31.14849","category":"47","category_name":"住宅区","address":""},{"poiid":"B2094757D06FABFD489D","title":"广海花园","lon":"121.35492","lat":"31.144835","category":"47","category_name":"住宅区","address":"上海七莘路2315弄"},{"poiid":"B2094654DA6BAAFF4492","title":"交通大学七宝餐厅","lon":"121.35809","lat":"31.14896","category":"257","category_name":"中餐厅","address":""},{"poiid":"B209475CDB6FABF44693","title":"上海交通大学七宝校区","lon":"121.358489","lat":"31.148418","category":"500","category_name":"未知分类","address":"上海市 闵行区七幸路2678号"},{"poiid":"B2094757D46AA6FE469C","title":"都可茶饮 七宝老街店 CoCo","lon":"121.35547","lat":"31.15163","category":"113","category_name":"冷饮店","address":"闵行区七宝老街南大街43号(近七莘路)"},{"poiid":"B2094654DB65AAF8439B","title":"华宝花园","lon":"121.35605","lat":"31.144239","category":"47","category_name":"住宅区","address":"华宝花园位于闵行华茂路16号"},{"poiid":"B2094757D569A3FF479A","title":"交大技术学院","lon":"121.3551864","lat":"31.1477219","category":"52","category_name":"高等院校","address":"中国上海市闵行区"},{"poiid":"B2094654DA64ABF44392","title":"七宝老糕坊 七宝店","lon":"121.355102054","lat":"31.151625793","category":"112","category_name":"糕饼店","address":"闵行区七宝镇南大街20号(近富强街)"},{"poiid":"B2094757D165ABFC439C","title":"七香阁","lon":"121.3524","lat":"31.14999","category":"76","category_name":"上海菜","address":"闵行区七莘路2908号(近七宝老街)"},{"poiid":"B2094757D06BA7FD489D","title":"七宝社区卫生服务中心","lon":"121.35397","lat":"31.15038","category":"162","category_name":"医院","address":"闵行区富强街94号七宝镇(近七宝老街)"},{"poiid":"B2094654DA6BAAFF4493","title":"交通大学第五宿舍","lon":"121.35831","lat":"31.14842","category":"47","category_name":"住宅区","address":""},{"poiid":"B2094757D06BA5F54898","title":"七宝镇天主堂","lon":"121.355186756","lat":"31.150551194","category":"500","category_name":"未知分类","address":"上海七宝镇"},{"poiid":"B2094750DB65A5F8489E","title":"熹福堂港式茶餐厅","lon":"121.35655","lat":"31.15009","category":"72","category_name":"广东菜","address":"闵行区闵行区宝南路536弄66号"},{"poiid":"B2094757D169A2FD4492","title":"云南邨","lon":"121.35458001704","lat":"31.152260022899","category":"83","category_name":"云贵菜","address":"闵行区七宝古镇南西街29号甲(近蒲汇塘桥)"},{"poiid":"B2094654DA6BAAFF449D","title":"交通大学体育馆","lon":"121.35791","lat":"31.14712","category":"224","category_name":"综合体育馆","address":""},{"poiid":"B2094654DA64ABFB4999","title":"南翔小笼","lon":"121.35487","lat":"31.15226","category":"68","category_name":"快餐厅","address":"闵行区七宝镇南大街11号(富强街闵行南大街)"},{"poiid":"B2094654DB69A5F5439F","title":"迪欧咖啡(七宝店)","lon":"121.35096","lat":"31.15108","category":"65","category_name":"咖啡厅","address":"闵行区七莘路2889号(近七宝老街)"},{"poiid":"B2094757D064ABF8439F","title":"叠彩人家","lon":"121.355368196","lat":"31.1471258199","category":"247","category_name":"餐饮美食","address":"上海七莘路2855弄"},{"poiid":"B2094757D165A3FA489E","title":"七宝老街","lon":"121.358113586","lat":"31.1531869255","category":"500","category_name":"未知分类","address":"闵行区七宝镇富强街(七莘路新镇路间)"},{"poiid":"B2094757D06FA1FD4193","title":"七宝老街汤团店(七宝二店)","lon":"121.35493","lat":"31.15205","category":"68","category_name":"快餐厅","address":"闵行区七宝镇南大街14号(近富强街)"},{"poiid":"B2094757D06FA7FB4998","title":"七宝老饭店","lon":"121.3549","lat":"31.15256","category":"76","category_name":"上海菜","address":"闵行区七宝古镇北大街8号(近蒲汇塘桥)"},{"poiid":"B2094654DA64ABF5409E","title":"七宝镇步行街","lon":"121.35808437301637","lat":"31.153243179298574","category":"116","category_name":"特色商业街","address":"闵行区富强街"},{"poiid":"B2094757D06FA5F54398","title":"龙袍蟹粉小笼馆(北大街店)","lon":"121.3568","lat":"31.15109","category":"257","category_name":"中餐厅","address":"闵行区七宝老街北大街15号(富强街竹行弄)"},{"poiid":"B2094757D068A5FE499F","title":"上海交通大学农学院","lon":"121.35488128","lat":"31.147779464","category":"52","category_name":"高等院校","address":"上海闵行区七莘路2678号"},{"poiid":"B2094757D06FA7FA4698","title":"万兆家园","lon":"121.35126495","lat":"31.150327682","category":"500","category_name":"未知分类","address":"上海七莘路2855弄"},{"poiid":"B2094757D069A2F84293","title":"七宝教寺","lon":"121.3578","lat":"31.15457","category":"244","category_name":"寺庙道观","address":"闵行区七宝镇新镇路1205号"},{"poiid":"B2094757D06FABF94093","title":"锡缘无锡小笼馆 七宝店","lon":"121.356020054","lat":"31.152483793","category":"68","category_name":"快餐厅","address":"闵行区七宝镇南大街54号(近富强街)"},{"poiid":"B2094757D068ABFC459F","title":"天香楼","lon":"121.35229762319","lat":"31.151826034328","category":"76","category_name":"上海菜","address":"闵行区七宝古镇北大街17号"},{"poiid":"B2094757D065A4FD479F","title":"宝燕一号","lon":"121.359536857","lat":"31.1426382162","category":"500","category_name":"未知分类","address":"上海市闵行区七莘路中谊路口"},{"poiid":"B2094757D06AA3FD409A","title":"塘桥老饭店","lon":"121.35437","lat":"31.15208","category":"75","category_name":"浙江菜","address":"闵行区七宝古镇南大街(近蒲汇塘桥)"},{"poiid":"B2094654DA64ABFB499E","title":"七宝茶馆","lon":"121.35478","lat":"31.15227","category":"66","category_name":"茶艺馆","address":"闵行区七宝老街南大街9号(近富强街)"},{"poiid":"B2094654DB69A4F9449A","title":"七宝营业厅","lon":"121.35291","lat":"31.15026","category":"151","category_name":"电讯营业厅","address":"闵行区七莘路2911号"},{"poiid":"B2094757D16DAAF4439A","title":"CRH","lon":"121.35319756","lat":"31.151321783","category":"249","category_name":"购物服务","address":"上海虹桥火车站"},{"poiid":"B2094757D068A4FC499C","title":"老街臭豆腐","lon":"121.35285","lat":"31.14983","category":"68","category_name":"快餐厅","address":"闵行区七宝镇富强街29号(富强街竹行弄)"},{"poiid":"B2094654DA64ABFB479D","title":"龙袍蟹黄汤包","lon":"121.3554","lat":"31.15167","category":"68","category_name":"快餐厅","address":"闵行区七宝老街南大街43号(近富强街)"},{"poiid":"B2094757D069A3FA4492","title":"七宝古镇羊肉店","lon":"121.354374054","lat":"31.152532793","category":"68","category_name":"快餐厅","address":"闵行区七宝古镇南西街9号(近蒲汇塘桥)"},{"poiid":"B2094757D568A4FF479A","title":"舒友海鲜大酒楼(宝南小区东南)","lon":"121.35485731","lat":"31.14685655","category":"260","category_name":"其他","address":"闵行区七莘路2409号(交通大学对面)"},{"poiid":"B2094757D069A1FB409D","title":"牛杂第一家","lon":"121.3554","lat":"31.15153","category":"68","category_name":"快餐厅","address":"闵行区七宝古镇南大街36号(近富强街)"},{"poiid":"B2094654DA64A3FA4492","title":"华夏茗苑","lon":"121.356901","lat":"31.150532","category":"47","category_name":"住宅区","address":"闵行宝南路508弄"},{"poiid":"B2094654DA6BABF4409D","title":"茂盛城市花园","lon":"121.36122","lat":"31.15213","category":"47","category_name":"住宅区","address":"新镇路1036弄"},{"poiid":"B2094654DA6BAAFF4393","title":"交通大学(七莘路)","lon":"121.35508","lat":"31.14764","category":"52","category_name":"高等院校","address":""},{"poiid":"B2094654DB69A6FE429B","title":"明强小学","lon":"121.3612","lat":"31.15171","category":"56","category_name":"小学","address":"闵行区七宝镇新镇路1050号"},{"poiid":"B2094757D06BA6FD459C","title":"万泰花园","lon":"121.3566","lat":"31.142801","category":"47","category_name":"住宅区","address":"上海闵行区七莘路2299弄"},{"poiid":"B2094654DA6BAAFF459D","title":"交通大学图书馆","lon":"121.35687","lat":"31.14828","category":"181","category_name":"图书馆","address":""},{"poiid":"B2094654DA6BAAFF449A","title":"交通大学第一实验楼","lon":"121.35636","lat":"31.14798","category":"46","category_name":"楼宇","address":""},{"poiid":"B2094757D06AA7FC4292","title":"村夫烤鱼(七莘路店)","lon":"121.35155","lat":"31.15261","category":"68","category_name":"快餐厅","address":"闵行区七莘路2891号(近七宝老街)"},{"poiid":"B2094757D568A5F8419B","title":"上海交通大学农业与生物学院","lon":"121.35636176","lat":"31.14798421","category":"52","category_name":"高等院校","address":"中国上海市闵行区"},{"poiid":"B2094757D169ABF9419C","title":"恒霖茶楼","lon":"121.35353","lat":"31.14979","category":"113","category_name":"冷饮店","address":"闵行区七宝老街北东街28号(富强街七莘路)"},{"poiid":"B2094654DA6BABF44793","title":"七宝医院","lon":"121.35258","lat":"31.15049","category":"162","category_name":"医院","address":"富强街96号"},{"poiid":"B2094757D165A3F8409F","title":"桂花藕粉圆","lon":"121.357509086","lat":"31.1513757901","category":"68","category_name":"快餐厅","address":"闵行区七宝老街南大街15号"},{"poiid":"B2094654DA6BAAFF449B","title":"交通大学第四宿舍","lon":"121.35723","lat":"31.14849","category":"47","category_name":"住宅区","address":""},{"poiid":"B2094757D06FABFD489D","title":"广海花园","lon":"121.35492","lat":"31.144835","category":"47","category_name":"住宅区","address":"上海七莘路2315弄"},{"poiid":"B2094654DA6BAAFF4492","title":"交通大学七宝餐厅","lon":"121.35809","lat":"31.14896","category":"257","category_name":"中餐厅","address":""},{"poiid":"B209475CDB6FABF44693","title":"上海交通大学七宝校区","lon":"121.358489","lat":"31.148418","category":"500","category_name":"未知分类","address":"上海市 闵行区七幸路2678号"},{"poiid":"B2094757D46AA6FE469C","title":"都可茶饮 七宝老街店 CoCo","lon":"121.35547","lat":"31.15163","category":"113","category_name":"冷饮店","address":"闵行区七宝老街南大街43号(近七莘路)"},{"poiid":"B2094654DB65AAF8439B","title":"华宝花园","lon":"121.35605","lat":"31.144239","category":"47","category_name":"住宅区","address":"华宝花园位于闵行华茂路16号"},{"poiid":"B2094757D569A3FF479A","title":"交大技术学院","lon":"121.3551864","lat":"31.1477219","category":"52","category_name":"高等院校","address":"中国上海市闵行区"},{"poiid":"B2094654DA64ABF44392","title":"七宝老糕坊 七宝店","lon":"121.355102054","lat":"31.151625793","category":"112","category_name":"糕饼店","address":"闵行区七宝镇南大街20号(近富强街)"},{"poiid":"B2094757D165ABFC439C","title":"七香阁","lon":"121.3524","lat":"31.14999","category":"76","category_name":"上海菜","address":"闵行区七莘路2908号(近七宝老街)"},{"poiid":"B2094757D06BA7FD489D","title":"七宝社区卫生服务中心","lon":"121.35397","lat":"31.15038","category":"162","category_name":"医院","address":"闵行区富强街94号七宝镇(近七宝老街)"},{"poiid":"B2094654DA6BAAFF4493","title":"交通大学第五宿舍","lon":"121.35831","lat":"31.14842","category":"47","category_name":"住宅区","address":""},{"poiid":"B2094757D06BA5F54898","title":"七宝镇天主堂","lon":"121.355186756","lat":"31.150551194","category":"500","category_name":"未知分类","address":"上海七宝镇"},{"poiid":"B2094750DB65A5F8489E","title":"熹福堂港式茶餐厅","lon":"121.35655","lat":"31.15009","category":"72","category_name":"广东菜","address":"闵行区闵行区宝南路536弄66号"},{"poiid":"B2094757D169A2FD4492","title":"云南邨","lon":"121.35458001704","lat":"31.152260022899","category":"83","category_name":"云贵菜","address":"闵行区七宝古镇南西街29号甲(近蒲汇塘桥)"},{"poiid":"B2094654DA6BAAFF449D","title":"交通大学体育馆","lon":"121.35791","lat":"31.14712","category":"224","category_name":"综合体育馆","address":""},{"poiid":"B2094654DA64ABFB4999","title":"南翔小笼","lon":"121.35487","lat":"31.15226","category":"68","category_name":"快餐厅","address":"闵行区七宝镇南大街11号(富强街闵行南大街)"},{"poiid":"B2094654DB69A5F5439F","title":"迪欧咖啡(七宝店)","lon":"121.35096","lat":"31.15108","category":"65","category_name":"咖啡厅","address":"闵行区七莘路2889号(近七宝老街)"},{"poiid":"B2094757D064ABF8439F","title":"叠彩人家","lon":"121.355368196","lat":"31.1471258199","category":"247","category_name":"餐饮美食","address":"上海七莘路2855弄"}]