[{"poiid":"B2094655D26AAAF8409F","title":"唛歌时尚KTV(淮海中路店)","lon":"121.47889","lat":"31.22532","category":"170","category_name":"KTV","address":"卢湾区淮海中路98号金钟广场3-4楼(近龙门路)"},{"poiid":"B2094757D06EAAFA4392","title":"57度湘 无限度广场店","lon":"121.478063","lat":"31.225264","category":"77","category_name":"湖南菜","address":"卢湾区淮海中路138号无限度广场4楼401号铺(近龙门路)"},{"poiid":"B2094655D26AA0F84799","title":"上海中医药大学附属曙光医院","lon":"121.47867","lat":"31.22293","category":"162","category_name":"医院","address":"卢湾区普安路185号(近淮海公园)"},{"poiid":"B2094753D76FAAFA449C","title":"上海滩国泰旗舰店","lon":"121.466011","lat":"31.216125","category":"249","category_name":"购物服务","address":"淮海中路868号"},{"poiid":"B209475CD564A7F84292","title":"上海滩新天地店","lon":"121.47463","lat":"31.22164","category":"119","category_name":"商场","address":"\"太仓路181弄新天地北里15号\r\n\""},{"poiid":"B209475CD564A7F8439E","title":"上海滩中信泰富店","lon":"121.45602","lat":"31.22851","category":"119","category_name":"商场","address":"\"南京西路1168号中信泰富广场，店铺号221.\r\n\""},{"poiid":"B209475CD564A7F84392","title":"上海滩浦东香格里拉店","lon":"121.50058","lat":"31.23634","category":"119","category_name":"商场","address":"浦东富成路33号香格里拉酒店内大堂层"},{"poiid":"B2094654DB6BA4FB409B","title":"星巴克(柳林店)","lon":"121.48024","lat":"31.22483","category":"65","category_name":"咖啡厅","address":"卢湾区柳林路65号柳林大厦1楼(近西藏南路)"},{"poiid":"B2094654DA6EAAFE4998","title":"大上海时代广场","lon":"121.4789","lat":"31.22477","category":"119","category_name":"商场","address":"浦东区张杨路502号(浦东南路口)"},{"poiid":"B2094757D06EAAF9459A","title":"太興餐厅(淮海中店)","lon":"121.47775342","lat":"31.224845075","category":"111","category_name":"休闲餐饮场所","address":"卢湾区淮海中路138号无限度广场B08号商铺(近龙门路)"},{"poiid":"B2094654DA6EAAF8499A","title":"万裕国际影城(淮海中路店)","lon":"121.478684","lat":"31.224496","category":"178","category_name":"电影院","address":"淮海中路93-99号大上海时代广场L6"},{"poiid":"B2094757D06EAAFA4699","title":"Richbaby","lon":"121.478104694","lat":"31.2253386356","category":"260","category_name":"其他","address":"静安区新闸路914号(近泰兴路)"},{"poiid":"B2094757D06EAAF84198","title":"韩膳宫 淮海中路店","lon":"121.478155054","lat":"31.224894793","category":"247","category_name":"餐饮美食","address":"卢湾区淮海中路138号无限度广场5楼(近普安路)"},{"poiid":"B2094655D26BA3FC489D","title":"尚一汤(无限度店)","lon":"121.47806","lat":"31.22526","category":"72","category_name":"广东菜","address":"卢湾区淮海中路138号无限度广场403室(近普安路)"},{"poiid":"B2094757D664AAFA449E","title":"麦当劳 无限度广场店 McDonald's","lon":"121.478155054","lat":"31.224894793","category":"68","category_name":"快餐厅","address":"卢湾区淮海中路138号无限度广场B001-102(近普安路)"},{"poiid":"B2094757D068A0F84893","title":"新荣记 无限度店","lon":"121.47806","lat":"31.22526","category":"75","category_name":"浙江菜","address":"淮海中路138号无限度广场5楼近普安路"},{"poiid":"B2094757D064A1FD449A","title":"地铁8号线大世界站","lon":"121.478748638","lat":"31.2230810477","category":"36","category_name":"地铁站","address":"上海大世界站"},{"poiid":"B2094757D06EAAFF429D","title":"揽香川菜馆 无限度广场店","lon":"121.478155054","lat":"31.224894793","category":"247","category_name":"餐饮美食","address":"卢湾区淮海中路138号无限度广场4楼(近普安路)"},{"poiid":"B2094757D06FA2FF489E","title":"海之幸(兰生大厦店)","lon":"121.47965073","lat":"31.225309195","category":"95","category_name":"日本料理","address":"卢湾区淮海中路8号兰生大厦4楼401室(近西藏南路)"},{"poiid":"B2094655D26AA6FA449B","title":"Apple Store 苹果官方零售店","lon":"121.47806","lat":"31.22526","category":"255","category_name":"专卖店","address":"卢湾区淮海中路138号无限度广场213室(近普安路)"},{"poiid":"B2094757D068A4FB4792","title":"和民","lon":"121.478268738","lat":"31.2253331957","category":"500","category_name":"未知分类","address":"上海市黄浦区武胜路"},{"poiid":"B2094757D66CA4FB499C","title":"好樂迪","lon":"121.477838738","lat":"31.2232501514","category":"500","category_name":"未知分类","address":"上海市黄浦区黄陂南路"},{"poiid":"B2094757D06FA7FD479D","title":"藏鲜工坊","lon":"121.47956","lat":"31.22517","category":"260","category_name":"其他","address":"卢湾区淮海中路98号金钟广场5楼(近柳林路)"},{"poiid":"B2094757D06BA7FB4792","title":"上海一号 黄浦店","lon":"121.479844338","lat":"31.2252164932","category":"500","category_name":"未知分类","address":"上海淮海东路99号"},{"poiid":"B2094655D26AA0F44699","title":"加州健身姚明运动馆","lon":"121.47806","lat":"31.22526","category":"221","category_name":"健身中心","address":"卢湾区淮海中路138号无限度广场5-6楼(近普安路)"},{"poiid":"B2094757D06FA1F9479E","title":"821撞球娱乐P1馆","lon":"121.48010684","lat":"31.22494441","category":"171","category_name":"台球厅","address":"上海淮海中路1号8楼"},{"poiid":"B2094757D465A3FA4393","title":"富临轩鱼翅海鲜酒家 无限度店","lon":"121.478155054","lat":"31.224894793","category":"247","category_name":"餐饮美食","address":"上海卢湾区淮海中路300号香港新世界大厦2楼(近黄陂南路)  "},{"poiid":"B2094757D06BA7F8479B","title":"唛歌","lon":"121.478549738","lat":"31.2253761967","category":"500","category_name":"未知分类","address":"上海市黄浦区武胜路"},{"poiid":"B2094753D76EAAF84199","title":"新加坡星怡会","lon":"121.478179","lat":"31.225214","category":"500","category_name":"未知分类","address":"上海市 淮海中路"},{"poiid":"B2094654DA6EAAF8479D","title":"满记甜品 时代广场店","lon":"121.478519054","lat":"31.224573793","category":"67","category_name":"甜品店","address":"卢湾区淮海中路99号大上海时代广场B1楼K7-K8(柳林路口)"},{"poiid":"B2094757DB69A5FC459A","title":"葡京煲煲好 无限度广场店 Lisboa Yum Yum Pot","lon":"121.478155054","lat":"31.224894793","category":"247","category_name":"餐饮美食","address":"卢湾区淮海中路138号无限度广场2楼(近普安路)"},{"poiid":"B2094757D568A7FB489A","title":"The Fat Olive","lon":"121.480385","lat":"31.224354","category":"257","category_name":"中餐厅","address":"西藏南路228号6楼会所餐厅南部2号(近寿宁路)"},{"poiid":"B2094655D26AAAF94698","title":"梅园村酒家淮海路店","lon":"121.47889","lat":"31.22532","category":"76","category_name":"上海菜","address":"卢湾区淮海中路98号金钟广场6楼(近西藏南路)"},{"poiid":"B2094753D46CA1FE479E","title":"星怡会","lon":"121.477836","lat":"31.224906","category":"500","category_name":"未知分类","address":"上海市 淮海路138号无限度广场2楼"},{"poiid":"B2094753DA6FAAFE4392","title":"星怡会","lon":"121.478469","lat":"31.225124","category":"247","category_name":"餐饮美食","address":"黄浦区淮海中路138号上海广场2楼"},{"poiid":"B2094757D069A2F5479B","title":"无限度FC店","lon":"121.47806173","lat":"31.225222193","category":"148","category_name":"美容美发店","address":"上海淮海中路138号四楼"},{"poiid":"B2094757D06EAAF9419C","title":"汤城小厨(时代广场店)","lon":"121.47876","lat":"31.22429","category":"72","category_name":"广东菜","address":"卢湾区淮海中路99号大上海时代广场4楼401-402号(柳林路口)"},{"poiid":"B209475CD365A7FF409F","title":"S2Club","lon":"121.47981","lat":"31.22527","category":"172","category_name":"酒吧","address":"淮海中路1号6楼(近柳林路)"},{"poiid":"B2094655D26AABFE4693","title":"BabyFace无限度店","lon":"121.47806","lat":"31.22526","category":"247","category_name":"餐饮美食","address":"卢湾区淮海中路138号无限度广场近普安路;;"},{"poiid":"B2094757D069ABF9489A","title":"Gloria Jean","lon":"121.478326738","lat":"31.2252251934","category":"500","category_name":"未知分类","address":"上海黄浦区"},{"poiid":"B2094655D26EA6F54192","title":"大家乐(时代店)","lon":"121.47912","lat":"31.22467","category":"68","category_name":"快餐厅","address":"卢湾区淮海中路99号大上海时代广场B1楼(柳林路口)"},{"poiid":"B2094757D06FAAFF499C","title":"辛格灵形象设计(无限度店)","lon":"121.47806221","lat":"31.224874457","category":"260","category_name":"其他","address":"卢湾区淮海中路138号无限度广场5楼535室(近普安路)"},{"poiid":"B2094757D068ABF5419F","title":"禾绿回转寿司(海慈店)","lon":"121.47761","lat":"31.2243","category":"95","category_name":"日本料理","address":"卢湾区淮海中路158号海慈大厦2楼(近普安路)"},{"poiid":"B2094655D269A4FB4798","title":"ZARA(时代广场店)","lon":"121.47867","lat":"31.22439","category":"141","category_name":"服装鞋帽皮具店","address":"卢湾区淮海中路111号大上海时代广场(近普安路)"},{"poiid":"B2094757D568A4F5449F","title":"淮海1号酒吧ONEPUB","lon":"121.480039","lat":"31.225076","category":"172","category_name":"酒吧","address":"淮海中路1号"},{"poiid":"B2094454D36DA2FB489E","title":"LinX CLUB","lon":"121.479324","lat":"31.225328","category":"248","category_name":"生活娱乐","address":"上海市 淮海中路"},{"poiid":"B2094654DA6EAAF8479E","title":"葡京茶餐厅(淮海店)","lon":"121.4789","lat":"31.22477","category":"72","category_name":"广东菜","address":"卢湾区淮海中路99号大上海时代广场B1楼(柳林路口)"},{"poiid":"B2094757D16CA6F9479F","title":"麦德龙餐饮通西藏南路商场","lon":"121.48024373","lat":"31.224242172","category":"68","category_name":"快餐厅","address":"卢湾区西藏南路228号永银大厦2楼(近淮海中路)"},{"poiid":"B2094757D06FA2F4429D","title":"阿童木火锅超人(淮海中路店)","lon":"121.47747","lat":"31.22429","category":"86","category_name":"火锅店","address":"卢湾区淮海中路158号B1楼(近普安路)"},{"poiid":"B2094757D065A5F9489E","title":"新天地酒吧街","lon":"121.47819073","lat":"31.224759183","category":"260","category_name":"其他","address":"上海市黄浦区黄陂南路"},{"poiid":"B2094655D26AAAF8409F","title":"唛歌时尚KTV(淮海中路店)","lon":"121.47889","lat":"31.22532","category":"170","category_name":"KTV","address":"卢湾区淮海中路98号金钟广场3-4楼(近龙门路)"},{"poiid":"B2094757D06EAAFA4392","title":"57度湘 无限度广场店","lon":"121.478063","lat":"31.225264","category":"77","category_name":"湖南菜","address":"卢湾区淮海中路138号无限度广场4楼401号铺(近龙门路)"},{"poiid":"B2094655D26AA0F84799","title":"上海中医药大学附属曙光医院","lon":"121.47867","lat":"31.22293","category":"162","category_name":"医院","address":"卢湾区普安路185号(近淮海公园)"},{"poiid":"B2094753D76FAAFA449C","title":"上海滩国泰旗舰店","lon":"121.466011","lat":"31.216125","category":"249","category_name":"购物服务","address":"淮海中路868号"},{"poiid":"B209475CD564A7F84292","title":"上海滩新天地店","lon":"121.47463","lat":"31.22164","category":"119","category_name":"商场","address":"\"太仓路181弄新天地北里15号\r\n\""},{"poiid":"B209475CD564A7F8439E","title":"上海滩中信泰富店","lon":"121.45602","lat":"31.22851","category":"119","category_name":"商场","address":"\"南京西路1168号中信泰富广场，店铺号221.\r\n\""},{"poiid":"B209475CD564A7F84392","title":"上海滩浦东香格里拉店","lon":"121.50058","lat":"31.23634","category":"119","category_name":"商场","address":"浦东富成路33号香格里拉酒店内大堂层"},{"poiid":"B2094654DB6BA4FB409B","title":"星巴克(柳林店)","lon":"121.48024","lat":"31.22483","category":"65","category_name":"咖啡厅","address":"卢湾区柳林路65号柳林大厦1楼(近西藏南路)"},{"poiid":"B2094654DA6EAAFE4998","title":"大上海时代广场","lon":"121.4789","lat":"31.22477","category":"119","category_name":"商场","address":"浦东区张杨路502号(浦东南路口)"},{"poiid":"B2094757D06EAAF9459A","title":"太興餐厅(淮海中店)","lon":"121.47775342","lat":"31.224845075","category":"111","category_name":"休闲餐饮场所","address":"卢湾区淮海中路138号无限度广场B08号商铺(近龙门路)"},{"poiid":"B2094654DA6EAAF8499A","title":"万裕国际影城(淮海中路店)","lon":"121.478684","lat":"31.224496","category":"178","category_name":"电影院","address":"淮海中路93-99号大上海时代广场L6"},{"poiid":"B2094757D06EAAFA4699","title":"Richbaby","lon":"121.478104694","lat":"31.2253386356","category":"260","category_name":"其他","address":"静安区新闸路914号(近泰兴路)"},{"poiid":"B2094757D06EAAF84198","title":"韩膳宫 淮海中路店","lon":"121.478155054","lat":"31.224894793","category":"247","category_name":"餐饮美食","address":"卢湾区淮海中路138号无限度广场5楼(近普安路)"},{"poiid":"B2094655D26BA3FC489D","title":"尚一汤(无限度店)","lon":"121.47806","lat":"31.22526","category":"72","category_name":"广东菜","address":"卢湾区淮海中路138号无限度广场403室(近普安路)"},{"poiid":"B2094757D664AAFA449E","title":"麦当劳 无限度广场店 McDonald's","lon":"121.478155054","lat":"31.224894793","category":"68","category_name":"快餐厅","address":"卢湾区淮海中路138号无限度广场B001-102(近普安路)"},{"poiid":"B2094757D068A0F84893","title":"新荣记 无限度店","lon":"121.47806","lat":"31.22526","category":"75","category_name":"浙江菜","address":"淮海中路138号无限度广场5楼近普安路"},{"poiid":"B2094757D064A1FD449A","title":"地铁8号线大世界站","lon":"121.478748638","lat":"31.2230810477","category":"36","category_name":"地铁站","address":"上海大世界站"},{"poiid":"B2094757D06EAAFF429D","title":"揽香川菜馆 无限度广场店","lon":"121.478155054","lat":"31.224894793","category":"247","category_name":"餐饮美食","address":"卢湾区淮海中路138号无限度广场4楼(近普安路)"},{"poiid":"B2094757D06FA2FF489E","title":"海之幸(兰生大厦店)","lon":"121.47965073","lat":"31.225309195","category":"95","category_name":"日本料理","address":"卢湾区淮海中路8号兰生大厦4楼401室(近西藏南路)"},{"poiid":"B2094655D26AA6FA449B","title":"Apple Store 苹果官方零售店","lon":"121.47806","lat":"31.22526","category":"255","category_name":"专卖店","address":"卢湾区淮海中路138号无限度广场213室(近普安路)"},{"poiid":"B2094757D068A4FB4792","title":"和民","lon":"121.478268738","lat":"31.2253331957","category":"500","category_name":"未知分类","address":"上海市黄浦区武胜路"},{"poiid":"B2094757D66CA4FB499C","title":"好樂迪","lon":"121.477838738","lat":"31.2232501514","category":"500","category_name":"未知分类","address":"上海市黄浦区黄陂南路"},{"poiid":"B2094757D06FA7FD479D","title":"藏鲜工坊","lon":"121.47956","lat":"31.22517","category":"260","category_name":"其他","address":"卢湾区淮海中路98号金钟广场5楼(近柳林路)"},{"poiid":"B2094757D06BA7FB4792","title":"上海一号 黄浦店","lon":"121.479844338","lat":"31.2252164932","category":"500","category_name":"未知分类","address":"上海淮海东路99号"},{"poiid":"B2094655D26AA0F44699","title":"加州健身姚明运动馆","lon":"121.47806","lat":"31.22526","category":"221","category_name":"健身中心","address":"卢湾区淮海中路138号无限度广场5-6楼(近普安路)"},{"poiid":"B2094757D06FA1F9479E","title":"821撞球娱乐P1馆","lon":"121.48010684","lat":"31.22494441","category":"171","category_name":"台球厅","address":"上海淮海中路1号8楼"},{"poiid":"B2094757D465A3FA4393","title":"富临轩鱼翅海鲜酒家 无限度店","lon":"121.478155054","lat":"31.224894793","category":"247","category_name":"餐饮美食","address":"上海卢湾区淮海中路300号香港新世界大厦2楼(近黄陂南路)  "},{"poiid":"B2094757D06BA7F8479B","title":"唛歌","lon":"121.478549738","lat":"31.2253761967","category":"500","category_name":"未知分类","address":"上海市黄浦区武胜路"},{"poiid":"B2094753D76EAAF84199","title":"新加坡星怡会","lon":"121.478179","lat":"31.225214","category":"500","category_name":"未知分类","address":"上海市 淮海中路"},{"poiid":"B2094654DA6EAAF8479D","title":"满记甜品 时代广场店","lon":"121.478519054","lat":"31.224573793","category":"67","category_name":"甜品店","address":"卢湾区淮海中路99号大上海时代广场B1楼K7-K8(柳林路口)"},{"poiid":"B2094757DB69A5FC459A","title":"葡京煲煲好 无限度广场店 Lisboa Yum Yum Pot","lon":"121.478155054","lat":"31.224894793","category":"247","category_name":"餐饮美食","address":"卢湾区淮海中路138号无限度广场2楼(近普安路)"},{"poiid":"B2094757D568A7FB489A","title":"The Fat Olive","lon":"121.480385","lat":"31.224354","category":"257","category_name":"中餐厅","address":"西藏南路228号6楼会所餐厅南部2号(近寿宁路)"},{"poiid":"B2094655D26AAAF94698","title":"梅园村酒家淮海路店","lon":"121.47889","lat":"31.22532","category":"76","category_name":"上海菜","address":"卢湾区淮海中路98号金钟广场6楼(近西藏南路)"},{"poiid":"B2094753D46CA1FE479E","title":"星怡会","lon":"121.477836","lat":"31.224906","category":"500","category_name":"未知分类","address":"上海市 淮海路138号无限度广场2楼"},{"poiid":"B2094753DA6FAAFE4392","title":"星怡会","lon":"121.478469","lat":"31.225124","category":"247","category_name":"餐饮美食","address":"黄浦区淮海中路138号上海广场2楼"},{"poiid":"B2094757D069A2F5479B","title":"无限度FC店","lon":"121.47806173","lat":"31.225222193","category":"148","category_name":"美容美发店","address":"上海淮海中路138号四楼"},{"poiid":"B2094757D06EAAF9419C","title":"汤城小厨(时代广场店)","lon":"121.47876","lat":"31.22429","category":"72","category_name":"广东菜","address":"卢湾区淮海中路99号大上海时代广场4楼401-402号(柳林路口)"},{"poiid":"B209475CD365A7FF409F","title":"S2Club","lon":"121.47981","lat":"31.22527","category":"172","category_name":"酒吧","address":"淮海中路1号6楼(近柳林路)"},{"poiid":"B2094655D26AABFE4693","title":"BabyFace无限度店","lon":"121.47806","lat":"31.22526","category":"247","category_name":"餐饮美食","address":"卢湾区淮海中路138号无限度广场近普安路;;"},{"poiid":"B2094757D069ABF9489A","title":"Gloria Jean","lon":"121.478326738","lat":"31.2252251934","category":"500","category_name":"未知分类","address":"上海黄浦区"},{"poiid":"B2094655D26EA6F54192","title":"大家乐(时代店)","lon":"121.47912","lat":"31.22467","category":"68","category_name":"快餐厅","address":"卢湾区淮海中路99号大上海时代广场B1楼(柳林路口)"},{"poiid":"B2094757D06FAAFF499C","title":"辛格灵形象设计(无限度店)","lon":"121.47806221","lat":"31.224874457","category":"260","category_name":"其他","address":"卢湾区淮海中路138号无限度广场5楼535室(近普安路)"},{"poiid":"B2094757D068ABF5419F","title":"禾绿回转寿司(海慈店)","lon":"121.47761","lat":"31.2243","category":"95","category_name":"日本料理","address":"卢湾区淮海中路158号海慈大厦2楼(近普安路)"},{"poiid":"B2094655D269A4FB4798","title":"ZARA(时代广场店)","lon":"121.47867","lat":"31.22439","category":"141","category_name":"服装鞋帽皮具店","address":"卢湾区淮海中路111号大上海时代广场(近普安路)"},{"poiid":"B2094757D568A4F5449F","title":"淮海1号酒吧ONEPUB","lon":"121.480039","lat":"31.225076","category":"172","category_name":"酒吧","address":"淮海中路1号"},{"poiid":"B2094454D36DA2FB489E","title":"LinX CLUB","lon":"121.479324","lat":"31.225328","category":"248","category_name":"生活娱乐","address":"上海市 淮海中路"},{"poiid":"B2094654DA6EAAF8479E","title":"葡京茶餐厅(淮海店)","lon":"121.4789","lat":"31.22477","category":"72","category_name":"广东菜","address":"卢湾区淮海中路99号大上海时代广场B1楼(柳林路口)"},{"poiid":"B2094757D16CA6F9479F","title":"麦德龙餐饮通西藏南路商场","lon":"121.48024373","lat":"31.224242172","category":"68","category_name":"快餐厅","address":"卢湾区西藏南路228号永银大厦2楼(近淮海中路)"},{"poiid":"B2094757D06FA2F4429D","title":"阿童木火锅超人(淮海中路店)","lon":"121.47747","lat":"31.22429","category":"86","category_name":"火锅店","address":"卢湾区淮海中路158号B1楼(近普安路)"},{"poiid":"B2094757D065A5F9489E","title":"新天地酒吧街","lon":"121.47819073","lat":"31.224759183","category":"260","category_name":"其他","address":"上海市黄浦区黄陂南路"},{"poiid":"B2094655D26AAAF8409F","title":"唛歌时尚KTV(淮海中路店)","lon":"121.47889","lat":"31.22532","category":"170","category_name":"KTV","address":"卢湾区淮海中路98号金钟广场3-4楼(近龙门路)"},{"poiid":"B2094757D06EAAFA4392","title":"57度湘 无限度广场店","lon":"121.478063","lat":"31.225264","category":"77","category_name":"湖南菜","address":"卢湾区淮海中路138号无限度广场4楼401号铺(近龙门路)"},{"poiid":"B2094655D26AA0F84799","title":"上海中医药大学附属曙光医院","lon":"121.47867","lat":"31.22293","category":"162","category_name":"医院","address":"卢湾区普安路185号(近淮海公园)"},{"poiid":"B2094753D76FAAFA449C","title":"上海滩国泰旗舰店","lon":"121.466011","lat":"31.216125","category":"249","category_name":"购物服务","address":"淮海中路868号"},{"poiid":"B209475CD564A7F84292","title":"上海滩新天地店","lon":"121.47463","lat":"31.22164","category":"119","category_name":"商场","address":"\"太仓路181弄新天地北里15号\r\n\""},{"poiid":"B209475CD564A7F8439E","title":"上海滩中信泰富店","lon":"121.45602","lat":"31.22851","category":"119","category_name":"商场","address":"\"南京西路1168号中信泰富广场，店铺号221.\r\n\""},{"poiid":"B209475CD564A7F84392","title":"上海滩浦东香格里拉店","lon":"121.50058","lat":"31.23634","category":"119","category_name":"商场","address":"浦东富成路33号香格里拉酒店内大堂层"},{"poiid":"B2094654DB6BA4FB409B","title":"星巴克(柳林店)","lon":"121.48024","lat":"31.22483","category":"65","category_name":"咖啡厅","address":"卢湾区柳林路65号柳林大厦1楼(近西藏南路)"},{"poiid":"B2094654DA6EAAFE4998","title":"大上海时代广场","lon":"121.4789","lat":"31.22477","category":"119","category_name":"商场","address":"浦东区张杨路502号(浦东南路口)"},{"poiid":"B2094757D06EAAF9459A","title":"太興餐厅(淮海中店)","lon":"121.47775342","lat":"31.224845075","category":"111","category_name":"休闲餐饮场所","address":"卢湾区淮海中路138号无限度广场B08号商铺(近龙门路)"},{"poiid":"B2094654DA6EAAF8499A","title":"万裕国际影城(淮海中路店)","lon":"121.478684","lat":"31.224496","category":"178","category_name":"电影院","address":"淮海中路93-99号大上海时代广场L6"},{"poiid":"B2094757D06EAAFA4699","title":"Richbaby","lon":"121.478104694","lat":"31.2253386356","category":"260","category_name":"其他","address":"静安区新闸路914号(近泰兴路)"},{"poiid":"B2094757D06EAAF84198","title":"韩膳宫 淮海中路店","lon":"121.478155054","lat":"31.224894793","category":"247","category_name":"餐饮美食","address":"卢湾区淮海中路138号无限度广场5楼(近普安路)"},{"poiid":"B2094655D26BA3FC489D","title":"尚一汤(无限度店)","lon":"121.47806","lat":"31.22526","category":"72","category_name":"广东菜","address":"卢湾区淮海中路138号无限度广场403室(近普安路)"},{"poiid":"B2094757D664AAFA449E","title":"麦当劳 无限度广场店 McDonald's","lon":"121.478155054","lat":"31.224894793","category":"68","category_name":"快餐厅","address":"卢湾区淮海中路138号无限度广场B001-102(近普安路)"},{"poiid":"B2094757D068A0F84893","title":"新荣记 无限度店","lon":"121.47806","lat":"31.22526","category":"75","category_name":"浙江菜","address":"淮海中路138号无限度广场5楼近普安路"},{"poiid":"B2094757D064A1FD449A","title":"地铁8号线大世界站","lon":"121.478748638","lat":"31.2230810477","category":"36","category_name":"地铁站","address":"上海大世界站"},{"poiid":"B2094757D06EAAFF429D","title":"揽香川菜馆 无限度广场店","lon":"121.478155054","lat":"31.224894793","category":"247","category_name":"餐饮美食","address":"卢湾区淮海中路138号无限度广场4楼(近普安路)"},{"poiid":"B2094757D06FA2FF489E","title":"海之幸(兰生大厦店)","lon":"121.47965073","lat":"31.225309195","category":"95","category_name":"日本料理","address":"卢湾区淮海中路8号兰生大厦4楼401室(近西藏南路)"},{"poiid":"B2094655D26AA6FA449B","title":"Apple Store 苹果官方零售店","lon":"121.47806","lat":"31.22526","category":"255","category_name":"专卖店","address":"卢湾区淮海中路138号无限度广场213室(近普安路)"},{"poiid":"B2094757D068A4FB4792","title":"和民","lon":"121.478268738","lat":"31.2253331957","category":"500","category_name":"未知分类","address":"上海市黄浦区武胜路"},{"poiid":"B2094757D66CA4FB499C","title":"好樂迪","lon":"121.477838738","lat":"31.2232501514","category":"500","category_name":"未知分类","address":"上海市黄浦区黄陂南路"},{"poiid":"B2094757D06FA7FD479D","title":"藏鲜工坊","lon":"121.47956","lat":"31.22517","category":"260","category_name":"其他","address":"卢湾区淮海中路98号金钟广场5楼(近柳林路)"},{"poiid":"B2094757D06BA7FB4792","title":"上海一号 黄浦店","lon":"121.479844338","lat":"31.2252164932","category":"500","category_name":"未知分类","address":"上海淮海东路99号"},{"poiid":"B2094655D26AA0F44699","title":"加州健身姚明运动馆","lon":"121.47806","lat":"31.22526","category":"221","category_name":"健身中心","address":"卢湾区淮海中路138号无限度广场5-6楼(近普安路)"},{"poiid":"B2094757D06FA1F9479E","title":"821撞球娱乐P1馆","lon":"121.48010684","lat":"31.22494441","category":"171","category_name":"台球厅","address":"上海淮海中路1号8楼"},{"poiid":"B2094757D465A3FA4393","title":"富临轩鱼翅海鲜酒家 无限度店","lon":"121.478155054","lat":"31.224894793","category":"247","category_name":"餐饮美食","address":"上海卢湾区淮海中路300号香港新世界大厦2楼(近黄陂南路)  "},{"poiid":"B2094757D06BA7F8479B","title":"唛歌","lon":"121.478549738","lat":"31.2253761967","category":"500","category_name":"未知分类","address":"上海市黄浦区武胜路"},{"poiid":"B2094753D76EAAF84199","title":"新加坡星怡会","lon":"121.478179","lat":"31.225214","category":"500","category_name":"未知分类","address":"上海市 淮海中路"},{"poiid":"B2094654DA6EAAF8479D","title":"满记甜品 时代广场店","lon":"121.478519054","lat":"31.224573793","category":"67","category_name":"甜品店","address":"卢湾区淮海中路99号大上海时代广场B1楼K7-K8(柳林路口)"},{"poiid":"B2094757DB69A5FC459A","title":"葡京煲煲好 无限度广场店 Lisboa Yum Yum Pot","lon":"121.478155054","lat":"31.224894793","category":"247","category_name":"餐饮美食","address":"卢湾区淮海中路138号无限度广场2楼(近普安路)"},{"poiid":"B2094757D568A7FB489A","title":"The Fat Olive","lon":"121.480385","lat":"31.224354","category":"257","category_name":"中餐厅","address":"西藏南路228号6楼会所餐厅南部2号(近寿宁路)"},{"poiid":"B2094655D26AAAF94698","title":"梅园村酒家淮海路店","lon":"121.47889","lat":"31.22532","category":"76","category_name":"上海菜","address":"卢湾区淮海中路98号金钟广场6楼(近西藏南路)"},{"poiid":"B2094753D46CA1FE479E","title":"星怡会","lon":"121.477836","lat":"31.224906","category":"500","category_name":"未知分类","address":"上海市 淮海路138号无限度广场2楼"},{"poiid":"B2094753DA6FAAFE4392","title":"星怡会","lon":"121.478469","lat":"31.225124","category":"247","category_name":"餐饮美食","address":"黄浦区淮海中路138号上海广场2楼"},{"poiid":"B2094757D069A2F5479B","title":"无限度FC店","lon":"121.47806173","lat":"31.225222193","category":"148","category_name":"美容美发店","address":"上海淮海中路138号四楼"},{"poiid":"B2094757D06EAAF9419C","title":"汤城小厨(时代广场店)","lon":"121.47876","lat":"31.22429","category":"72","category_name":"广东菜","address":"卢湾区淮海中路99号大上海时代广场4楼401-402号(柳林路口)"},{"poiid":"B209475CD365A7FF409F","title":"S2Club","lon":"121.47981","lat":"31.22527","category":"172","category_name":"酒吧","address":"淮海中路1号6楼(近柳林路)"},{"poiid":"B2094655D26AABFE4693","title":"BabyFace无限度店","lon":"121.47806","lat":"31.22526","category":"247","category_name":"餐饮美食","address":"卢湾区淮海中路138号无限度广场近普安路;;"},{"poiid":"B2094757D069ABF9489A","title":"Gloria Jean","lon":"121.478326738","lat":"31.2252251934","category":"500","category_name":"未知分类","address":"上海黄浦区"},{"poiid":"B2094655D26EA6F54192","title":"大家乐(时代店)","lon":"121.47912","lat":"31.22467","category":"68","category_name":"快餐厅","address":"卢湾区淮海中路99号大上海时代广场B1楼(柳林路口)"},{"poiid":"B2094757D06FAAFF499C","title":"辛格灵形象设计(无限度店)","lon":"121.47806221","lat":"31.224874457","category":"260","category_name":"其他","address":"卢湾区淮海中路138号无限度广场5楼535室(近普安路)"},{"poiid":"B2094757D068ABF5419F","title":"禾绿回转寿司(海慈店)","lon":"121.47761","lat":"31.2243","category":"95","category_name":"日本料理","address":"卢湾区淮海中路158号海慈大厦2楼(近普安路)"},{"poiid":"B2094655D269A4FB4798","title":"ZARA(时代广场店)","lon":"121.47867","lat":"31.22439","category":"141","category_name":"服装鞋帽皮具店","address":"卢湾区淮海中路111号大上海时代广场(近普安路)"},{"poiid":"B2094757D568A4F5449F","title":"淮海1号酒吧ONEPUB","lon":"121.480039","lat":"31.225076","category":"172","category_name":"酒吧","address":"淮海中路1号"},{"poiid":"B2094454D36DA2FB489E","title":"LinX CLUB","lon":"121.479324","lat":"31.225328","category":"248","category_name":"生活娱乐","address":"上海市 淮海中路"},{"poiid":"B2094654DA6EAAF8479E","title":"葡京茶餐厅(淮海店)","lon":"121.4789","lat":"31.22477","category":"72","category_name":"广东菜","address":"卢湾区淮海中路99号大上海时代广场B1楼(柳林路口)"},{"poiid":"B2094757D16CA6F9479F","title":"麦德龙餐饮通西藏南路商场","lon":"121.48024373","lat":"31.224242172","category":"68","category_name":"快餐厅","address":"卢湾区西藏南路228号永银大厦2楼(近淮海中路)"},{"poiid":"B2094757D06FA2F4429D","title":"阿童木火锅超人(淮海中路店)","lon":"121.47747","lat":"31.22429","category":"86","category_name":"火锅店","address":"卢湾区淮海中路158号B1楼(近普安路)"},{"poiid":"B2094757D065A5F9489E","title":"新天地酒吧街","lon":"121.47819073","lat":"31.224759183","category":"260","category_name":"其他","address":"上海市黄浦区黄陂南路"},{"poiid":"B2094655D26AAAF8409F","title":"唛歌时尚KTV(淮海中路店)","lon":"121.47889","lat":"31.22532","category":"170","category_name":"KTV","address":"卢湾区淮海中路98号金钟广场3-4楼(近龙门路)"},{"poiid":"B2094757D06EAAFA4392","title":"57度湘 无限度广场店","lon":"121.478063","lat":"31.225264","category":"77","category_name":"湖南菜","address":"卢湾区淮海中路138号无限度广场4楼401号铺(近龙门路)"},{"poiid":"B2094655D26AA0F84799","title":"上海中医药大学附属曙光医院","lon":"121.47867","lat":"31.22293","category":"162","category_name":"医院","address":"卢湾区普安路185号(近淮海公园)"},{"poiid":"B2094753D76FAAFA449C","title":"上海滩国泰旗舰店","lon":"121.466011","lat":"31.216125","category":"249","category_name":"购物服务","address":"淮海中路868号"},{"poiid":"B209475CD564A7F84292","title":"上海滩新天地店","lon":"121.47463","lat":"31.22164","category":"119","category_name":"商场","address":"\"太仓路181弄新天地北里15号\r\n\""},{"poiid":"B209475CD564A7F8439E","title":"上海滩中信泰富店","lon":"121.45602","lat":"31.22851","category":"119","category_name":"商场","address":"\"南京西路1168号中信泰富广场，店铺号221.\r\n\""},{"poiid":"B209475CD564A7F84392","title":"上海滩浦东香格里拉店","lon":"121.50058","lat":"31.23634","category":"119","category_name":"商场","address":"浦东富成路33号香格里拉酒店内大堂层"},{"poiid":"B2094654DB6BA4FB409B","title":"星巴克(柳林店)","lon":"121.48024","lat":"31.22483","category":"65","category_name":"咖啡厅","address":"卢湾区柳林路65号柳林大厦1楼(近西藏南路)"},{"poiid":"B2094654DA6EAAFE4998","title":"大上海时代广场","lon":"121.4789","lat":"31.22477","category":"119","category_name":"商场","address":"浦东区张杨路502号(浦东南路口)"},{"poiid":"B2094757D06EAAF9459A","title":"太興餐厅(淮海中店)","lon":"121.47775342","lat":"31.224845075","category":"111","category_name":"休闲餐饮场所","address":"卢湾区淮海中路138号无限度广场B08号商铺(近龙门路)"},{"poiid":"B2094654DA6EAAF8499A","title":"万裕国际影城(淮海中路店)","lon":"121.478684","lat":"31.224496","category":"178","category_name":"电影院","address":"淮海中路93-99号大上海时代广场L6"},{"poiid":"B2094757D06EAAFA4699","title":"Richbaby","lon":"121.478104694","lat":"31.2253386356","category":"260","category_name":"其他","address":"静安区新闸路914号(近泰兴路)"},{"poiid":"B2094757D06EAAF84198","title":"韩膳宫 淮海中路店","lon":"121.478155054","lat":"31.224894793","category":"247","category_name":"餐饮美食","address":"卢湾区淮海中路138号无限度广场5楼(近普安路)"},{"poiid":"B2094655D26BA3FC489D","title":"尚一汤(无限度店)","lon":"121.47806","lat":"31.22526","category":"72","category_name":"广东菜","address":"卢湾区淮海中路138号无限度广场403室(近普安路)"},{"poiid":"B2094757D664AAFA449E","title":"麦当劳 无限度广场店 McDonald's","lon":"121.478155054","lat":"31.224894793","category":"68","category_name":"快餐厅","address":"卢湾区淮海中路138号无限度广场B001-102(近普安路)"},{"poiid":"B2094757D068A0F84893","title":"新荣记 无限度店","lon":"121.47806","lat":"31.22526","category":"75","category_name":"浙江菜","address":"淮海中路138号无限度广场5楼近普安路"},{"poiid":"B2094757D064A1FD449A","title":"地铁8号线大世界站","lon":"121.478748638","lat":"31.2230810477","category":"36","category_name":"地铁站","address":"上海大世界站"},{"poiid":"B2094757D06EAAFF429D","title":"揽香川菜馆 无限度广场店","lon":"121.478155054","lat":"31.224894793","category":"247","category_name":"餐饮美食","address":"卢湾区淮海中路138号无限度广场4楼(近普安路)"},{"poiid":"B2094757D06FA2FF489E","title":"海之幸(兰生大厦店)","lon":"121.47965073","lat":"31.225309195","category":"95","category_name":"日本料理","address":"卢湾区淮海中路8号兰生大厦4楼401室(近西藏南路)"},{"poiid":"B2094655D26AA6FA449B","title":"Apple Store 苹果官方零售店","lon":"121.47806","lat":"31.22526","category":"255","category_name":"专卖店","address":"卢湾区淮海中路138号无限度广场213室(近普安路)"},{"poiid":"B2094757D068A4FB4792","title":"和民","lon":"121.478268738","lat":"31.2253331957","category":"500","category_name":"未知分类","address":"上海市黄浦区武胜路"},{"poiid":"B2094757D66CA4FB499C","title":"好樂迪","lon":"121.477838738","lat":"31.2232501514","category":"500","category_name":"未知分类","address":"上海市黄浦区黄陂南路"},{"poiid":"B2094757D06FA7FD479D","title":"藏鲜工坊","lon":"121.47956","lat":"31.22517","category":"260","category_name":"其他","address":"卢湾区淮海中路98号金钟广场5楼(近柳林路)"},{"poiid":"B2094757D06BA7FB4792","title":"上海一号 黄浦店","lon":"121.479844338","lat":"31.2252164932","category":"500","category_name":"未知分类","address":"上海淮海东路99号"},{"poiid":"B2094655D26AA0F44699","title":"加州健身姚明运动馆","lon":"121.47806","lat":"31.22526","category":"221","category_name":"健身中心","address":"卢湾区淮海中路138号无限度广场5-6楼(近普安路)"},{"poiid":"B2094757D06FA1F9479E","title":"821撞球娱乐P1馆","lon":"121.48010684","lat":"31.22494441","category":"171","category_name":"台球厅","address":"上海淮海中路1号8楼"},{"poiid":"B2094757D465A3FA4393","title":"富临轩鱼翅海鲜酒家 无限度店","lon":"121.478155054","lat":"31.224894793","category":"247","category_name":"餐饮美食","address":"上海卢湾区淮海中路300号香港新世界大厦2楼(近黄陂南路)  "},{"poiid":"B2094757D06BA7F8479B","title":"唛歌","lon":"121.478549738","lat":"31.2253761967","category":"500","category_name":"未知分类","address":"上海市黄浦区武胜路"},{"poiid":"B2094753D76EAAF84199","title":"新加坡星怡会","lon":"121.478179","lat":"31.225214","category":"500","category_name":"未知分类","address":"上海市 淮海中路"},{"poiid":"B2094654DA6EAAF8479D","title":"满记甜品 时代广场店","lon":"121.478519054","lat":"31.224573793","category":"67","category_name":"甜品店","address":"卢湾区淮海中路99号大上海时代广场B1楼K7-K8(柳林路口)"},{"poiid":"B2094757DB69A5FC459A","title":"葡京煲煲好 无限度广场店 Lisboa Yum Yum Pot","lon":"121.478155054","lat":"31.224894793","category":"247","category_name":"餐饮美食","address":"卢湾区淮海中路138号无限度广场2楼(近普安路)"},{"poiid":"B2094757D568A7FB489A","title":"The Fat Olive","lon":"121.480385","lat":"31.224354","category":"257","category_name":"中餐厅","address":"西藏南路228号6楼会所餐厅南部2号(近寿宁路)"},{"poiid":"B2094655D26AAAF94698","title":"梅园村酒家淮海路店","lon":"121.47889","lat":"31.22532","category":"76","category_name":"上海菜","address":"卢湾区淮海中路98号金钟广场6楼(近西藏南路)"},{"poiid":"B2094753D46CA1FE479E","title":"星怡会","lon":"121.477836","lat":"31.224906","category":"500","category_name":"未知分类","address":"上海市 淮海路138号无限度广场2楼"},{"poiid":"B2094753DA6FAAFE4392","title":"星怡会","lon":"121.478469","lat":"31.225124","category":"247","category_name":"餐饮美食","address":"黄浦区淮海中路138号上海广场2楼"},{"poiid":"B2094757D069A2F5479B","title":"无限度FC店","lon":"121.47806173","lat":"31.225222193","category":"148","category_name":"美容美发店","address":"上海淮海中路138号四楼"},{"poiid":"B2094757D06EAAF9419C","title":"汤城小厨(时代广场店)","lon":"121.47876","lat":"31.22429","category":"72","category_name":"广东菜","address":"卢湾区淮海中路99号大上海时代广场4楼401-402号(柳林路口)"},{"poiid":"B209475CD365A7FF409F","title":"S2Club","lon":"121.47981","lat":"31.22527","category":"172","category_name":"酒吧","address":"淮海中路1号6楼(近柳林路)"},{"poiid":"B2094655D26AABFE4693","title":"BabyFace无限度店","lon":"121.47806","lat":"31.22526","category":"247","category_name":"餐饮美食","address":"卢湾区淮海中路138号无限度广场近普安路;;"},{"poiid":"B2094757D069ABF9489A","title":"Gloria Jean","lon":"121.478326738","lat":"31.2252251934","category":"500","category_name":"未知分类","address":"上海黄浦区"},{"poiid":"B2094655D26EA6F54192","title":"大家乐(时代店)","lon":"121.47912","lat":"31.22467","category":"68","category_name":"快餐厅","address":"卢湾区淮海中路99号大上海时代广场B1楼(柳林路口)"},{"poiid":"B2094757D06FAAFF499C","title":"辛格灵形象设计(无限度店)","lon":"121.47806221","lat":"31.224874457","category":"260","category_name":"其他","address":"卢湾区淮海中路138号无限度广场5楼535室(近普安路)"},{"poiid":"B2094757D068ABF5419F","title":"禾绿回转寿司(海慈店)","lon":"121.47761","lat":"31.2243","category":"95","category_name":"日本料理","address":"卢湾区淮海中路158号海慈大厦2楼(近普安路)"},{"poiid":"B2094655D269A4FB4798","title":"ZARA(时代广场店)","lon":"121.47867","lat":"31.22439","category":"141","category_name":"服装鞋帽皮具店","address":"卢湾区淮海中路111号大上海时代广场(近普安路)"},{"poiid":"B2094757D568A4F5449F","title":"淮海1号酒吧ONEPUB","lon":"121.480039","lat":"31.225076","category":"172","category_name":"酒吧","address":"淮海中路1号"},{"poiid":"B2094454D36DA2FB489E","title":"LinX CLUB","lon":"121.479324","lat":"31.225328","category":"248","category_name":"生活娱乐","address":"上海市 淮海中路"},{"poiid":"B2094654DA6EAAF8479E","title":"葡京茶餐厅(淮海店)","lon":"121.4789","lat":"31.22477","category":"72","category_name":"广东菜","address":"卢湾区淮海中路99号大上海时代广场B1楼(柳林路口)"},{"poiid":"B2094757D16CA6F9479F","title":"麦德龙餐饮通西藏南路商场","lon":"121.48024373","lat":"31.224242172","category":"68","category_name":"快餐厅","address":"卢湾区西藏南路228号永银大厦2楼(近淮海中路)"},{"poiid":"B2094757D06FA2F4429D","title":"阿童木火锅超人(淮海中路店)","lon":"121.47747","lat":"31.22429","category":"86","category_name":"火锅店","address":"卢湾区淮海中路158号B1楼(近普安路)"},{"poiid":"B2094757D065A5F9489E","title":"新天地酒吧街","lon":"121.47819073","lat":"31.224759183","category":"260","category_name":"其他","address":"上海市黄浦区黄陂南路"},{"poiid":"B2094655D26AAAF8409F","title":"唛歌时尚KTV(淮海中路店)","lon":"121.47889","lat":"31.22532","category":"170","category_name":"KTV","address":"卢湾区淮海中路98号金钟广场3-4楼(近龙门路)"},{"poiid":"B2094757D06EAAFA4392","title":"57度湘 无限度广场店","lon":"121.478063","lat":"31.225264","category":"77","category_name":"湖南菜","address":"卢湾区淮海中路138号无限度广场4楼401号铺(近龙门路)"},{"poiid":"B2094655D26AA0F84799","title":"上海中医药大学附属曙光医院","lon":"121.47867","lat":"31.22293","category":"162","category_name":"医院","address":"卢湾区普安路185号(近淮海公园)"},{"poiid":"B2094753D76FAAFA449C","title":"上海滩国泰旗舰店","lon":"121.466011","lat":"31.216125","category":"249","category_name":"购物服务","address":"淮海中路868号"},{"poiid":"B209475CD564A7F84292","title":"上海滩新天地店","lon":"121.47463","lat":"31.22164","category":"119","category_name":"商场","address":"\"太仓路181弄新天地北里15号\r\n\""},{"poiid":"B209475CD564A7F8439E","title":"上海滩中信泰富店","lon":"121.45602","lat":"31.22851","category":"119","category_name":"商场","address":"\"南京西路1168号中信泰富广场，店铺号221.\r\n\""},{"poiid":"B209475CD564A7F84392","title":"上海滩浦东香格里拉店","lon":"121.50058","lat":"31.23634","category":"119","category_name":"商场","address":"浦东富成路33号香格里拉酒店内大堂层"},{"poiid":"B2094654DB6BA4FB409B","title":"星巴克(柳林店)","lon":"121.48024","lat":"31.22483","category":"65","category_name":"咖啡厅","address":"卢湾区柳林路65号柳林大厦1楼(近西藏南路)"},{"poiid":"B2094654DA6EAAFE4998","title":"大上海时代广场","lon":"121.4789","lat":"31.22477","category":"119","category_name":"商场","address":"浦东区张杨路502号(浦东南路口)"},{"poiid":"B2094757D06EAAF9459A","title":"太興餐厅(淮海中店)","lon":"121.47775342","lat":"31.224845075","category":"111","category_name":"休闲餐饮场所","address":"卢湾区淮海中路138号无限度广场B08号商铺(近龙门路)"},{"poiid":"B2094654DA6EAAF8499A","title":"万裕国际影城(淮海中路店)","lon":"121.478684","lat":"31.224496","category":"178","category_name":"电影院","address":"淮海中路93-99号大上海时代广场L6"},{"poiid":"B2094757D06EAAFA4699","title":"Richbaby","lon":"121.478104694","lat":"31.2253386356","category":"260","category_name":"其他","address":"静安区新闸路914号(近泰兴路)"},{"poiid":"B2094757D06EAAF84198","title":"韩膳宫 淮海中路店","lon":"121.478155054","lat":"31.224894793","category":"247","category_name":"餐饮美食","address":"卢湾区淮海中路138号无限度广场5楼(近普安路)"},{"poiid":"B2094655D26BA3FC489D","title":"尚一汤(无限度店)","lon":"121.47806","lat":"31.22526","category":"72","category_name":"广东菜","address":"卢湾区淮海中路138号无限度广场403室(近普安路)"},{"poiid":"B2094757D664AAFA449E","title":"麦当劳 无限度广场店 McDonald's","lon":"121.478155054","lat":"31.224894793","category":"68","category_name":"快餐厅","address":"卢湾区淮海中路138号无限度广场B001-102(近普安路)"},{"poiid":"B2094757D068A0F84893","title":"新荣记 无限度店","lon":"121.47806","lat":"31.22526","category":"75","category_name":"浙江菜","address":"淮海中路138号无限度广场5楼近普安路"},{"poiid":"B2094757D064A1FD449A","title":"地铁8号线大世界站","lon":"121.478748638","lat":"31.2230810477","category":"36","category_name":"地铁站","address":"上海大世界站"},{"poiid":"B2094757D06EAAFF429D","title":"揽香川菜馆 无限度广场店","lon":"121.478155054","lat":"31.224894793","category":"247","category_name":"餐饮美食","address":"卢湾区淮海中路138号无限度广场4楼(近普安路)"},{"poiid":"B2094757D06FA2FF489E","title":"海之幸(兰生大厦店)","lon":"121.47965073","lat":"31.225309195","category":"95","category_name":"日本料理","address":"卢湾区淮海中路8号兰生大厦4楼401室(近西藏南路)"},{"poiid":"B2094655D26AA6FA449B","title":"Apple Store 苹果官方零售店","lon":"121.47806","lat":"31.22526","category":"255","category_name":"专卖店","address":"卢湾区淮海中路138号无限度广场213室(近普安路)"},{"poiid":"B2094757D068A4FB4792","title":"和民","lon":"121.478268738","lat":"31.2253331957","category":"500","category_name":"未知分类","address":"上海市黄浦区武胜路"},{"poiid":"B2094757D66CA4FB499C","title":"好樂迪","lon":"121.477838738","lat":"31.2232501514","category":"500","category_name":"未知分类","address":"上海市黄浦区黄陂南路"},{"poiid":"B2094757D06FA7FD479D","title":"藏鲜工坊","lon":"121.47956","lat":"31.22517","category":"260","category_name":"其他","address":"卢湾区淮海中路98号金钟广场5楼(近柳林路)"},{"poiid":"B2094757D06BA7FB4792","title":"上海一号 黄浦店","lon":"121.479844338","lat":"31.2252164932","category":"500","category_name":"未知分类","address":"上海淮海东路99号"},{"poiid":"B2094655D26AA0F44699","title":"加州健身姚明运动馆","lon":"121.47806","lat":"31.22526","category":"221","category_name":"健身中心","address":"卢湾区淮海中路138号无限度广场5-6楼(近普安路)"},{"poiid":"B2094757D06FA1F9479E","title":"821撞球娱乐P1馆","lon":"121.48010684","lat":"31.22494441","category":"171","category_name":"台球厅","address":"上海淮海中路1号8楼"},{"poiid":"B2094757D465A3FA4393","title":"富临轩鱼翅海鲜酒家 无限度店","lon":"121.478155054","lat":"31.224894793","category":"247","category_name":"餐饮美食","address":"上海卢湾区淮海中路300号香港新世界大厦2楼(近黄陂南路)  "},{"poiid":"B2094757D06BA7F8479B","title":"唛歌","lon":"121.478549738","lat":"31.2253761967","category":"500","category_name":"未知分类","address":"上海市黄浦区武胜路"},{"poiid":"B2094753D76EAAF84199","title":"新加坡星怡会","lon":"121.478179","lat":"31.225214","category":"500","category_name":"未知分类","address":"上海市 淮海中路"},{"poiid":"B2094654DA6EAAF8479D","title":"满记甜品 时代广场店","lon":"121.478519054","lat":"31.224573793","category":"67","category_name":"甜品店","address":"卢湾区淮海中路99号大上海时代广场B1楼K7-K8(柳林路口)"},{"poiid":"B2094757DB69A5FC459A","title":"葡京煲煲好 无限度广场店 Lisboa Yum Yum Pot","lon":"121.478155054","lat":"31.224894793","category":"247","category_name":"餐饮美食","address":"卢湾区淮海中路138号无限度广场2楼(近普安路)"},{"poiid":"B2094757D568A7FB489A","title":"The Fat Olive","lon":"121.480385","lat":"31.224354","category":"257","category_name":"中餐厅","address":"西藏南路228号6楼会所餐厅南部2号(近寿宁路)"},{"poiid":"B2094655D26AAAF94698","title":"梅园村酒家淮海路店","lon":"121.47889","lat":"31.22532","category":"76","category_name":"上海菜","address":"卢湾区淮海中路98号金钟广场6楼(近西藏南路)"},{"poiid":"B2094753D46CA1FE479E","title":"星怡会","lon":"121.477836","lat":"31.224906","category":"500","category_name":"未知分类","address":"上海市 淮海路138号无限度广场2楼"},{"poiid":"B2094753DA6FAAFE4392","title":"星怡会","lon":"121.478469","lat":"31.225124","category":"247","category_name":"餐饮美食","address":"黄浦区淮海中路138号上海广场2楼"},{"poiid":"B2094757D069A2F5479B","title":"无限度FC店","lon":"121.47806173","lat":"31.225222193","category":"148","category_name":"美容美发店","address":"上海淮海中路138号四楼"},{"poiid":"B2094757D06EAAF9419C","title":"汤城小厨(时代广场店)","lon":"121.47876","lat":"31.22429","category":"72","category_name":"广东菜","address":"卢湾区淮海中路99号大上海时代广场4楼401-402号(柳林路口)"},{"poiid":"B209475CD365A7FF409F","title":"S2Club","lon":"121.47981","lat":"31.22527","category":"172","category_name":"酒吧","address":"淮海中路1号6楼(近柳林路)"},{"poiid":"B2094655D26AABFE4693","title":"BabyFace无限度店","lon":"121.47806","lat":"31.22526","category":"247","category_name":"餐饮美食","address":"卢湾区淮海中路138号无限度广场近普安路;;"},{"poiid":"B2094757D069ABF9489A","title":"Gloria Jean","lon":"121.478326738","lat":"31.2252251934","category":"500","category_name":"未知分类","address":"上海黄浦区"},{"poiid":"B2094655D26EA6F54192","title":"大家乐(时代店)","lon":"121.47912","lat":"31.22467","category":"68","category_name":"快餐厅","address":"卢湾区淮海中路99号大上海时代广场B1楼(柳林路口)"},{"poiid":"B2094757D06FAAFF499C","title":"辛格灵形象设计(无限度店)","lon":"121.47806221","lat":"31.224874457","category":"260","category_name":"其他","address":"卢湾区淮海中路138号无限度广场5楼535室(近普安路)"},{"poiid":"B2094757D068ABF5419F","title":"禾绿回转寿司(海慈店)","lon":"121.47761","lat":"31.2243","category":"95","category_name":"日本料理","address":"卢湾区淮海中路158号海慈大厦2楼(近普安路)"},{"poiid":"B2094655D269A4FB4798","title":"ZARA(时代广场店)","lon":"121.47867","lat":"31.22439","category":"141","category_name":"服装鞋帽皮具店","address":"卢湾区淮海中路111号大上海时代广场(近普安路)"},{"poiid":"B2094757D568A4F5449F","title":"淮海1号酒吧ONEPUB","lon":"121.480039","lat":"31.225076","category":"172","category_name":"酒吧","address":"淮海中路1号"},{"poiid":"B2094454D36DA2FB489E","title":"LinX CLUB","lon":"121.479324","lat":"31.225328","category":"248","category_name":"生活娱乐","address":"上海市 淮海中路"},{"poiid":"B2094654DA6EAAF8479E","title":"葡京茶餐厅(淮海店)","lon":"121.4789","lat":"31.22477","category":"72","category_name":"广东菜","address":"卢湾区淮海中路99号大上海时代广场B1楼(柳林路口)"},{"poiid":"B2094757D16CA6F9479F","title":"麦德龙餐饮通西藏南路商场","lon":"121.48024373","lat":"31.224242172","category":"68","category_name":"快餐厅","address":"卢湾区西藏南路228号永银大厦2楼(近淮海中路)"},{"poiid":"B2094757D06FA2F4429D","title":"阿童木火锅超人(淮海中路店)","lon":"121.47747","lat":"31.22429","category":"86","category_name":"火锅店","address":"卢湾区淮海中路158号B1楼(近普安路)"},{"poiid":"B2094757D065A5F9489E","title":"新天地酒吧街","lon":"121.47819073","lat":"31.224759183","category":"260","category_name":"其他","address":"上海市黄浦区黄陂南路"}]