[{"poiid":"B2094757D068A0FD4693","title":"烧烤","lon":"121.545813","lat":"31.321156","category":"247","category_name":"餐饮美食","address":"上海共青森林公园"},{"poiid":"B2094757D06FA3FD439E","title":"杨浦区市东医院","lon":"121.53765445","lat":"31.321043171","category":"162","category_name":"医院","address":"上海杨浦区市光路999号(近包头路)"},{"poiid":"B2094750D768ABFF499C","title":"共青森林公园烧烤区","lon":"121.546","lat":"31.3206","category":"68","category_name":"快餐厅","address":"杨浦区军工路2000号共青森林公园内"},{"poiid":"B2094757D06FA7F9479C","title":"德林火锅(包头路店)","lon":"121.53897","lat":"31.31732","category":"86","category_name":"火锅店","address":"杨浦区包头路436号(近国和路)"},{"poiid":"B2094757D06FA1FD4799","title":"上海城市管理职业技术学院","lon":"121.54669","lat":"31.32383","category":"671","category_name":"高校中心点","address":"杨浦区军工路2360号(近森林公园)"},{"poiid":"B2094757D06FA2FE4093","title":"市光二村","lon":"121.54085","lat":"31.31772","category":"47","category_name":"住宅区","address":"上海国和路包头路"},{"poiid":"B2094757D06FA2F8419A","title":"市光三村","lon":"121.538493","lat":"31.322494","category":"47","category_name":"住宅区","address":"上海杨浦区,市光三村"},{"poiid":"B2094757D068A0FC4992","title":"市光一村","lon":"121.542811","lat":"31.322146","category":"47","category_name":"住宅区","address":"上海国和路包头路"},{"poiid":"B2094655D36CA4FC469B","title":"包头路开鲁路","lon":"121.53845","lat":"31.32399","category":"38","category_name":"公交车站","address":""},{"poiid":"B2094654DB6AA6FE429F","title":"共青森林度假村","lon":"121.54578","lat":"31.32221","category":"207","category_name":"度假疗养场所","address":"杨浦区军工路2180号"},{"poiid":"B2094757D66EA4FC4298","title":"共青森林公园海盗船","lon":"121.5472672","lat":"31.320308965","category":"500","category_name":"未知分类","address":"上海军工路"},{"poiid":"B2094654D56FA0FA419A","title":"工农四村","lon":"121.54053","lat":"31.324175","category":"47","category_name":"住宅区","address":"工农四村1-82号,105-121号,125-127号,130-133号,141-175号"},{"poiid":"B2094757D06BA6F44793","title":"星源佳园","lon":"121.53895","lat":"31.321993","category":"47","category_name":"住宅区","address":"工农四村83-104号"},{"poiid":"B2094655D26CA6FD439E","title":"星源花苑","lon":"121.54223","lat":"31.323984","category":"47","category_name":"住宅区","address":"上海市杨浦区市光路750号"},{"poiid":"B2094655D26FA0F4469C","title":"共青国家森林公园售票处(军工路)","lon":"121.54581","lat":"31.32116","category":"33","category_name":"公园景点售票处","address":""},{"poiid":"B2094655D26DA4F8409D","title":"星源公寓","lon":"121.54295","lat":"31.32201","category":"47","category_name":"住宅区","address":"工农四村1-45号"},{"poiid":"B2094757D068A6F84599","title":"工农公园","lon":"121.53789","lat":"31.32574","category":"196","category_name":"公园","address":"杨浦区包头路929号(近殷行路)"},{"poiid":"B2094750D26EA5F9439F","title":"市东医院","lon":"121.537826","lat":"31.324411","category":"162","category_name":"医院","address":"杨浦区市光路999号(近包头路)"},{"poiid":"B2094654D56FA7FD4299","title":"上海市市光学校","lon":"121.54116","lat":"31.3211","category":"55","category_name":"中学","address":"市光路163"},{"poiid":"B2094757D068ABFB4598","title":"开鲁路白城路(公交537终)","lon":"121.542961","lat":"31.324811","category":"38","category_name":"公交车站","address":"上海杨浦区白城路开鲁路"},{"poiid":"B2094654DB6BA2FF489C","title":"工农四村(南二号门)","lon":"121.54254","lat":"31.32177","category":"47","category_name":"住宅区","address":""},{"poiid":"B2094654DB6BA2FF499A","title":"市光三村(南二号门)","lon":"121.54148","lat":"31.31825","category":"47","category_name":"住宅区","address":""},{"poiid":"B2094655D26CA6F84299","title":"星源公寓(西门)","lon":"121.54251","lat":"31.32188","category":"47","category_name":"住宅区","address":"工农四村1-45号"},{"poiid":"B2094654D56FA0F94899","title":"殷行一村小区","lon":"121.54174","lat":"31.32747","category":"47","category_name":"住宅区","address":"上海市杨浦区开鲁路白城路"},{"poiid":"B2094752D46BA1FD469C","title":"共青森林公园","lon":"121.543614","lat":"31.317862","category":"500","category_name":"未知分类","address":null},{"poiid":"B2094757D16EABF4419F","title":"泰阁苑鱼翅酒楼","lon":"121.54672","lat":"31.32307","category":"72","category_name":"广东菜","address":"杨浦区军工路1978号(共青森林公园西大门)"},{"poiid":"B2094757D66BA3F4479F","title":"喜相约饭店","lon":"121.546","lat":"31.31471","category":"71","category_name":"四川菜","address":"杨浦区军工路1486号(近民星路)"},{"poiid":"B2094757D064ABFC409A","title":"民欣大酒店","lon":"121.53879","lat":"31.31318","category":"76","category_name":"上海菜","address":"杨浦区包头路280号"},{"poiid":"B2094757D465A0F4429C","title":"老同兴苏州汤包馆","lon":"121.53836","lat":"31.32658","category":"68","category_name":"快餐厅","address":"杨浦区包头路978号(近殷行路)"},{"poiid":"B2094655D26CA6FB409E","title":"民星路408弄小区","lon":"121.54380583237","lat":"31.318102826115","category":"47","category_name":"住宅区","address":"民星路408弄"},{"poiid":"B2094654DB6BA2FF479F","title":"市东医院(北二号门)","lon":"121.53653","lat":"31.32139","category":"162","category_name":"医院","address":""},{"poiid":"B2094757D064A3FB449A","title":"捷泉大酒店(开鲁路店)","lon":"121.539029113","lat":"31.3250886008","category":"76","category_name":"上海菜","address":"杨浦区开鲁路210号(近包头路)"},{"poiid":"B2094655D26BA3F44098","title":"蛙兵虾将牛蛙龙虾馆","lon":"121.53818","lat":"31.32444","category":"71","category_name":"四川菜","address":"杨浦区包头路789号近开鲁路(近开鲁路)"},{"poiid":"B2094757D66EA0FB499D","title":"老崇明餐厅","lon":"121.53918259","lat":"31.319068239","category":"76","category_name":"上海菜","address":"杨浦区国和路(近包头路)"},{"poiid":"B2094751D568AAFA4893","title":"虹口凯德龙之梦","lon":"121.537964","lat":"31.319962","category":"249","category_name":"购物服务","address":"西江湾路388号"},{"poiid":"B2094654DB6BA2FF489F","title":"市光三村(北二号门)","lon":"121.54014","lat":"31.32132","category":"47","category_name":"住宅区","address":""},{"poiid":"B2094654DB6AA2FC4592","title":"重庆鸡公煲 包头路店","lon":"121.538462054","lat":"31.317228793","category":"71","category_name":"四川菜","address":"杨浦区包头路371号(近国和路)"},{"poiid":"B2094654D56FA0FA4398","title":"小绍兴(包头路)","lon":"121.53862","lat":"31.325","category":"68","category_name":"快餐厅","address":"杨浦区包头路896号(近开鲁路)"},{"poiid":"B2094757D66CAAFC459E","title":"源日本涮锅铁板烧","lon":"121.5400031","lat":"31.322977521","category":"247","category_name":"餐饮美食","address":"上海包头路555号"},{"poiid":"B2094654D56FA7F9409D","title":"广深酒家美食坊","lon":"121.53829","lat":"31.32101","category":"76","category_name":"上海菜","address":"杨浦区包头路601号(近市光路)"},{"poiid":"B2094757D16CABF84798","title":"苏州汤包馆","lon":"121.54122814","lat":"31.3231080145","category":"247","category_name":"餐饮美食","address":"上海开鲁路309号"},{"poiid":"B2094655D26EA3F44393","title":"星源花苑(南门)","lon":"121.54193","lat":"31.3234","category":"47","category_name":"住宅区","address":""},{"poiid":"B2094654D56FA7FE4292","title":"中原大厦","lon":"121.539","lat":"31.3186","category":"46","category_name":"楼宇","address":"中原路60弄1号"},{"poiid":"B2094654DB64A6F84592","title":"一兆韦德健身(中原店)","lon":"121.54032","lat":"31.32451","category":"221","category_name":"健身中心","address":"杨浦区开鲁路工农四村175号"},{"poiid":"B2094654D56FA7FC4899","title":"快客No.6579","lon":"121.53961","lat":"31.32175","category":"117","category_name":"便民商店/便利店","address":"市光路1272"},{"poiid":"B2094757D069A5F5439A","title":"新亚大包(中原店)","lon":"121.53805","lat":"31.32436","category":"68","category_name":"快餐厅","address":"杨浦区开鲁路287号(近包头路)"},{"poiid":"B2094654D56FA7FC489A","title":"金雨田·造型频道杨浦店","lon":"121.53944","lat":"31.32175","category":"148","category_name":"美容美发店","address":"杨浦区市光路1262号(近包头路)"},{"poiid":"B2094654D56FA7FD479F","title":"中国银行上海市包头路支行","lon":"121.53881","lat":"31.31896","category":"150","category_name":"银行","address":"杨浦区包头路490-494号(包头路国和路)"},{"poiid":"B2094654D56FA0F54399","title":"上海市包头中学","lon":"121.53773","lat":"31.32286","category":"55","category_name":"中学","address":"杨浦区包头路765弄11号"},{"poiid":"B2094757D66DA6F94399","title":"正宗清真兰州拉面店","lon":"121.53989","lat":"31.32457","category":"68","category_name":"快餐厅","address":"杨浦区开鲁路202号(近包头路)"},{"poiid":"B2094757D068A0FD4693","title":"烧烤","lon":"121.545813","lat":"31.321156","category":"247","category_name":"餐饮美食","address":"上海共青森林公园"},{"poiid":"B2094757D06FA3FD439E","title":"杨浦区市东医院","lon":"121.53765445","lat":"31.321043171","category":"162","category_name":"医院","address":"上海杨浦区市光路999号(近包头路)"},{"poiid":"B2094750D768ABFF499C","title":"共青森林公园烧烤区","lon":"121.546","lat":"31.3206","category":"68","category_name":"快餐厅","address":"杨浦区军工路2000号共青森林公园内"},{"poiid":"B2094757D06FA7F9479C","title":"德林火锅(包头路店)","lon":"121.53897","lat":"31.31732","category":"86","category_name":"火锅店","address":"杨浦区包头路436号(近国和路)"},{"poiid":"B2094757D06FA1FD4799","title":"上海城市管理职业技术学院","lon":"121.54669","lat":"31.32383","category":"671","category_name":"高校中心点","address":"杨浦区军工路2360号(近森林公园)"},{"poiid":"B2094757D06FA2FE4093","title":"市光二村","lon":"121.54085","lat":"31.31772","category":"47","category_name":"住宅区","address":"上海国和路包头路"},{"poiid":"B2094757D06FA2F8419A","title":"市光三村","lon":"121.538493","lat":"31.322494","category":"47","category_name":"住宅区","address":"上海杨浦区,市光三村"},{"poiid":"B2094757D068A0FC4992","title":"市光一村","lon":"121.542811","lat":"31.322146","category":"47","category_name":"住宅区","address":"上海国和路包头路"},{"poiid":"B2094655D36CA4FC469B","title":"包头路开鲁路","lon":"121.53845","lat":"31.32399","category":"38","category_name":"公交车站","address":""},{"poiid":"B2094654DB6AA6FE429F","title":"共青森林度假村","lon":"121.54578","lat":"31.32221","category":"207","category_name":"度假疗养场所","address":"杨浦区军工路2180号"},{"poiid":"B2094757D66EA4FC4298","title":"共青森林公园海盗船","lon":"121.5472672","lat":"31.320308965","category":"500","category_name":"未知分类","address":"上海军工路"},{"poiid":"B2094654D56FA0FA419A","title":"工农四村","lon":"121.54053","lat":"31.324175","category":"47","category_name":"住宅区","address":"工农四村1-82号,105-121号,125-127号,130-133号,141-175号"},{"poiid":"B2094757D06BA6F44793","title":"星源佳园","lon":"121.53895","lat":"31.321993","category":"47","category_name":"住宅区","address":"工农四村83-104号"},{"poiid":"B2094655D26CA6FD439E","title":"星源花苑","lon":"121.54223","lat":"31.323984","category":"47","category_name":"住宅区","address":"上海市杨浦区市光路750号"},{"poiid":"B2094655D26FA0F4469C","title":"共青国家森林公园售票处(军工路)","lon":"121.54581","lat":"31.32116","category":"33","category_name":"公园景点售票处","address":""},{"poiid":"B2094655D26DA4F8409D","title":"星源公寓","lon":"121.54295","lat":"31.32201","category":"47","category_name":"住宅区","address":"工农四村1-45号"},{"poiid":"B2094757D068A6F84599","title":"工农公园","lon":"121.53789","lat":"31.32574","category":"196","category_name":"公园","address":"杨浦区包头路929号(近殷行路)"},{"poiid":"B2094750D26EA5F9439F","title":"市东医院","lon":"121.537826","lat":"31.324411","category":"162","category_name":"医院","address":"杨浦区市光路999号(近包头路)"},{"poiid":"B2094654D56FA7FD4299","title":"上海市市光学校","lon":"121.54116","lat":"31.3211","category":"55","category_name":"中学","address":"市光路163"},{"poiid":"B2094757D068ABFB4598","title":"开鲁路白城路(公交537终)","lon":"121.542961","lat":"31.324811","category":"38","category_name":"公交车站","address":"上海杨浦区白城路开鲁路"},{"poiid":"B2094654DB6BA2FF489C","title":"工农四村(南二号门)","lon":"121.54254","lat":"31.32177","category":"47","category_name":"住宅区","address":""},{"poiid":"B2094654DB6BA2FF499A","title":"市光三村(南二号门)","lon":"121.54148","lat":"31.31825","category":"47","category_name":"住宅区","address":""},{"poiid":"B2094655D26CA6F84299","title":"星源公寓(西门)","lon":"121.54251","lat":"31.32188","category":"47","category_name":"住宅区","address":"工农四村1-45号"},{"poiid":"B2094654D56FA0F94899","title":"殷行一村小区","lon":"121.54174","lat":"31.32747","category":"47","category_name":"住宅区","address":"上海市杨浦区开鲁路白城路"},{"poiid":"B2094752D46BA1FD469C","title":"共青森林公园","lon":"121.543614","lat":"31.317862","category":"500","category_name":"未知分类","address":null},{"poiid":"B2094757D16EABF4419F","title":"泰阁苑鱼翅酒楼","lon":"121.54672","lat":"31.32307","category":"72","category_name":"广东菜","address":"杨浦区军工路1978号(共青森林公园西大门)"},{"poiid":"B2094757D66BA3F4479F","title":"喜相约饭店","lon":"121.546","lat":"31.31471","category":"71","category_name":"四川菜","address":"杨浦区军工路1486号(近民星路)"},{"poiid":"B2094757D064ABFC409A","title":"民欣大酒店","lon":"121.53879","lat":"31.31318","category":"76","category_name":"上海菜","address":"杨浦区包头路280号"},{"poiid":"B2094757D465A0F4429C","title":"老同兴苏州汤包馆","lon":"121.53836","lat":"31.32658","category":"68","category_name":"快餐厅","address":"杨浦区包头路978号(近殷行路)"},{"poiid":"B2094655D26CA6FB409E","title":"民星路408弄小区","lon":"121.54380583237","lat":"31.318102826115","category":"47","category_name":"住宅区","address":"民星路408弄"},{"poiid":"B2094654DB6BA2FF479F","title":"市东医院(北二号门)","lon":"121.53653","lat":"31.32139","category":"162","category_name":"医院","address":""},{"poiid":"B2094757D064A3FB449A","title":"捷泉大酒店(开鲁路店)","lon":"121.539029113","lat":"31.3250886008","category":"76","category_name":"上海菜","address":"杨浦区开鲁路210号(近包头路)"},{"poiid":"B2094655D26BA3F44098","title":"蛙兵虾将牛蛙龙虾馆","lon":"121.53818","lat":"31.32444","category":"71","category_name":"四川菜","address":"杨浦区包头路789号近开鲁路(近开鲁路)"},{"poiid":"B2094757D66EA0FB499D","title":"老崇明餐厅","lon":"121.53918259","lat":"31.319068239","category":"76","category_name":"上海菜","address":"杨浦区国和路(近包头路)"},{"poiid":"B2094751D568AAFA4893","title":"虹口凯德龙之梦","lon":"121.537964","lat":"31.319962","category":"249","category_name":"购物服务","address":"西江湾路388号"},{"poiid":"B2094654DB6BA2FF489F","title":"市光三村(北二号门)","lon":"121.54014","lat":"31.32132","category":"47","category_name":"住宅区","address":""},{"poiid":"B2094654DB6AA2FC4592","title":"重庆鸡公煲 包头路店","lon":"121.538462054","lat":"31.317228793","category":"71","category_name":"四川菜","address":"杨浦区包头路371号(近国和路)"},{"poiid":"B2094654D56FA0FA4398","title":"小绍兴(包头路)","lon":"121.53862","lat":"31.325","category":"68","category_name":"快餐厅","address":"杨浦区包头路896号(近开鲁路)"},{"poiid":"B2094757D66CAAFC459E","title":"源日本涮锅铁板烧","lon":"121.5400031","lat":"31.322977521","category":"247","category_name":"餐饮美食","address":"上海包头路555号"},{"poiid":"B2094654D56FA7F9409D","title":"广深酒家美食坊","lon":"121.53829","lat":"31.32101","category":"76","category_name":"上海菜","address":"杨浦区包头路601号(近市光路)"},{"poiid":"B2094757D16CABF84798","title":"苏州汤包馆","lon":"121.54122814","lat":"31.3231080145","category":"247","category_name":"餐饮美食","address":"上海开鲁路309号"},{"poiid":"B2094655D26EA3F44393","title":"星源花苑(南门)","lon":"121.54193","lat":"31.3234","category":"47","category_name":"住宅区","address":""},{"poiid":"B2094654D56FA7FE4292","title":"中原大厦","lon":"121.539","lat":"31.3186","category":"46","category_name":"楼宇","address":"中原路60弄1号"},{"poiid":"B2094654DB64A6F84592","title":"一兆韦德健身(中原店)","lon":"121.54032","lat":"31.32451","category":"221","category_name":"健身中心","address":"杨浦区开鲁路工农四村175号"},{"poiid":"B2094654D56FA7FC4899","title":"快客No.6579","lon":"121.53961","lat":"31.32175","category":"117","category_name":"便民商店/便利店","address":"市光路1272"},{"poiid":"B2094757D069A5F5439A","title":"新亚大包(中原店)","lon":"121.53805","lat":"31.32436","category":"68","category_name":"快餐厅","address":"杨浦区开鲁路287号(近包头路)"},{"poiid":"B2094654D56FA7FC489A","title":"金雨田·造型频道杨浦店","lon":"121.53944","lat":"31.32175","category":"148","category_name":"美容美发店","address":"杨浦区市光路1262号(近包头路)"},{"poiid":"B2094654D56FA7FD479F","title":"中国银行上海市包头路支行","lon":"121.53881","lat":"31.31896","category":"150","category_name":"银行","address":"杨浦区包头路490-494号(包头路国和路)"},{"poiid":"B2094654D56FA0F54399","title":"上海市包头中学","lon":"121.53773","lat":"31.32286","category":"55","category_name":"中学","address":"杨浦区包头路765弄11号"},{"poiid":"B2094757D66DA6F94399","title":"正宗清真兰州拉面店","lon":"121.53989","lat":"31.32457","category":"68","category_name":"快餐厅","address":"杨浦区开鲁路202号(近包头路)"},{"poiid":"B2094757D068A0FD4693","title":"烧烤","lon":"121.545813","lat":"31.321156","category":"247","category_name":"餐饮美食","address":"上海共青森林公园"},{"poiid":"B2094757D06FA3FD439E","title":"杨浦区市东医院","lon":"121.53765445","lat":"31.321043171","category":"162","category_name":"医院","address":"上海杨浦区市光路999号(近包头路)"},{"poiid":"B2094750D768ABFF499C","title":"共青森林公园烧烤区","lon":"121.546","lat":"31.3206","category":"68","category_name":"快餐厅","address":"杨浦区军工路2000号共青森林公园内"},{"poiid":"B2094757D06FA7F9479C","title":"德林火锅(包头路店)","lon":"121.53897","lat":"31.31732","category":"86","category_name":"火锅店","address":"杨浦区包头路436号(近国和路)"},{"poiid":"B2094757D06FA1FD4799","title":"上海城市管理职业技术学院","lon":"121.54669","lat":"31.32383","category":"671","category_name":"高校中心点","address":"杨浦区军工路2360号(近森林公园)"},{"poiid":"B2094757D06FA2FE4093","title":"市光二村","lon":"121.54085","lat":"31.31772","category":"47","category_name":"住宅区","address":"上海国和路包头路"},{"poiid":"B2094757D06FA2F8419A","title":"市光三村","lon":"121.538493","lat":"31.322494","category":"47","category_name":"住宅区","address":"上海杨浦区,市光三村"},{"poiid":"B2094757D068A0FC4992","title":"市光一村","lon":"121.542811","lat":"31.322146","category":"47","category_name":"住宅区","address":"上海国和路包头路"},{"poiid":"B2094655D36CA4FC469B","title":"包头路开鲁路","lon":"121.53845","lat":"31.32399","category":"38","category_name":"公交车站","address":""},{"poiid":"B2094654DB6AA6FE429F","title":"共青森林度假村","lon":"121.54578","lat":"31.32221","category":"207","category_name":"度假疗养场所","address":"杨浦区军工路2180号"},{"poiid":"B2094757D66EA4FC4298","title":"共青森林公园海盗船","lon":"121.5472672","lat":"31.320308965","category":"500","category_name":"未知分类","address":"上海军工路"},{"poiid":"B2094654D56FA0FA419A","title":"工农四村","lon":"121.54053","lat":"31.324175","category":"47","category_name":"住宅区","address":"工农四村1-82号,105-121号,125-127号,130-133号,141-175号"},{"poiid":"B2094757D06BA6F44793","title":"星源佳园","lon":"121.53895","lat":"31.321993","category":"47","category_name":"住宅区","address":"工农四村83-104号"},{"poiid":"B2094655D26CA6FD439E","title":"星源花苑","lon":"121.54223","lat":"31.323984","category":"47","category_name":"住宅区","address":"上海市杨浦区市光路750号"},{"poiid":"B2094655D26FA0F4469C","title":"共青国家森林公园售票处(军工路)","lon":"121.54581","lat":"31.32116","category":"33","category_name":"公园景点售票处","address":""},{"poiid":"B2094655D26DA4F8409D","title":"星源公寓","lon":"121.54295","lat":"31.32201","category":"47","category_name":"住宅区","address":"工农四村1-45号"},{"poiid":"B2094757D068A6F84599","title":"工农公园","lon":"121.53789","lat":"31.32574","category":"196","category_name":"公园","address":"杨浦区包头路929号(近殷行路)"},{"poiid":"B2094750D26EA5F9439F","title":"市东医院","lon":"121.537826","lat":"31.324411","category":"162","category_name":"医院","address":"杨浦区市光路999号(近包头路)"},{"poiid":"B2094654D56FA7FD4299","title":"上海市市光学校","lon":"121.54116","lat":"31.3211","category":"55","category_name":"中学","address":"市光路163"},{"poiid":"B2094757D068ABFB4598","title":"开鲁路白城路(公交537终)","lon":"121.542961","lat":"31.324811","category":"38","category_name":"公交车站","address":"上海杨浦区白城路开鲁路"},{"poiid":"B2094654DB6BA2FF489C","title":"工农四村(南二号门)","lon":"121.54254","lat":"31.32177","category":"47","category_name":"住宅区","address":""},{"poiid":"B2094654DB6BA2FF499A","title":"市光三村(南二号门)","lon":"121.54148","lat":"31.31825","category":"47","category_name":"住宅区","address":""},{"poiid":"B2094655D26CA6F84299","title":"星源公寓(西门)","lon":"121.54251","lat":"31.32188","category":"47","category_name":"住宅区","address":"工农四村1-45号"},{"poiid":"B2094654D56FA0F94899","title":"殷行一村小区","lon":"121.54174","lat":"31.32747","category":"47","category_name":"住宅区","address":"上海市杨浦区开鲁路白城路"},{"poiid":"B2094752D46BA1FD469C","title":"共青森林公园","lon":"121.543614","lat":"31.317862","category":"500","category_name":"未知分类","address":null},{"poiid":"B2094757D16EABF4419F","title":"泰阁苑鱼翅酒楼","lon":"121.54672","lat":"31.32307","category":"72","category_name":"广东菜","address":"杨浦区军工路1978号(共青森林公园西大门)"},{"poiid":"B2094757D66BA3F4479F","title":"喜相约饭店","lon":"121.546","lat":"31.31471","category":"71","category_name":"四川菜","address":"杨浦区军工路1486号(近民星路)"},{"poiid":"B2094757D064ABFC409A","title":"民欣大酒店","lon":"121.53879","lat":"31.31318","category":"76","category_name":"上海菜","address":"杨浦区包头路280号"},{"poiid":"B2094757D465A0F4429C","title":"老同兴苏州汤包馆","lon":"121.53836","lat":"31.32658","category":"68","category_name":"快餐厅","address":"杨浦区包头路978号(近殷行路)"},{"poiid":"B2094655D26CA6FB409E","title":"民星路408弄小区","lon":"121.54380583237","lat":"31.318102826115","category":"47","category_name":"住宅区","address":"民星路408弄"},{"poiid":"B2094654DB6BA2FF479F","title":"市东医院(北二号门)","lon":"121.53653","lat":"31.32139","category":"162","category_name":"医院","address":""},{"poiid":"B2094757D064A3FB449A","title":"捷泉大酒店(开鲁路店)","lon":"121.539029113","lat":"31.3250886008","category":"76","category_name":"上海菜","address":"杨浦区开鲁路210号(近包头路)"},{"poiid":"B2094655D26BA3F44098","title":"蛙兵虾将牛蛙龙虾馆","lon":"121.53818","lat":"31.32444","category":"71","category_name":"四川菜","address":"杨浦区包头路789号近开鲁路(近开鲁路)"},{"poiid":"B2094757D66EA0FB499D","title":"老崇明餐厅","lon":"121.53918259","lat":"31.319068239","category":"76","category_name":"上海菜","address":"杨浦区国和路(近包头路)"},{"poiid":"B2094751D568AAFA4893","title":"虹口凯德龙之梦","lon":"121.537964","lat":"31.319962","category":"249","category_name":"购物服务","address":"西江湾路388号"},{"poiid":"B2094654DB6BA2FF489F","title":"市光三村(北二号门)","lon":"121.54014","lat":"31.32132","category":"47","category_name":"住宅区","address":""},{"poiid":"B2094654DB6AA2FC4592","title":"重庆鸡公煲 包头路店","lon":"121.538462054","lat":"31.317228793","category":"71","category_name":"四川菜","address":"杨浦区包头路371号(近国和路)"},{"poiid":"B2094654D56FA0FA4398","title":"小绍兴(包头路)","lon":"121.53862","lat":"31.325","category":"68","category_name":"快餐厅","address":"杨浦区包头路896号(近开鲁路)"},{"poiid":"B2094757D66CAAFC459E","title":"源日本涮锅铁板烧","lon":"121.5400031","lat":"31.322977521","category":"247","category_name":"餐饮美食","address":"上海包头路555号"},{"poiid":"B2094654D56FA7F9409D","title":"广深酒家美食坊","lon":"121.53829","lat":"31.32101","category":"76","category_name":"上海菜","address":"杨浦区包头路601号(近市光路)"},{"poiid":"B2094757D16CABF84798","title":"苏州汤包馆","lon":"121.54122814","lat":"31.3231080145","category":"247","category_name":"餐饮美食","address":"上海开鲁路309号"},{"poiid":"B2094655D26EA3F44393","title":"星源花苑(南门)","lon":"121.54193","lat":"31.3234","category":"47","category_name":"住宅区","address":""},{"poiid":"B2094654D56FA7FE4292","title":"中原大厦","lon":"121.539","lat":"31.3186","category":"46","category_name":"楼宇","address":"中原路60弄1号"},{"poiid":"B2094654DB64A6F84592","title":"一兆韦德健身(中原店)","lon":"121.54032","lat":"31.32451","category":"221","category_name":"健身中心","address":"杨浦区开鲁路工农四村175号"},{"poiid":"B2094654D56FA7FC4899","title":"快客No.6579","lon":"121.53961","lat":"31.32175","category":"117","category_name":"便民商店/便利店","address":"市光路1272"},{"poiid":"B2094757D069A5F5439A","title":"新亚大包(中原店)","lon":"121.53805","lat":"31.32436","category":"68","category_name":"快餐厅","address":"杨浦区开鲁路287号(近包头路)"},{"poiid":"B2094654D56FA7FC489A","title":"金雨田·造型频道杨浦店","lon":"121.53944","lat":"31.32175","category":"148","category_name":"美容美发店","address":"杨浦区市光路1262号(近包头路)"},{"poiid":"B2094654D56FA7FD479F","title":"中国银行上海市包头路支行","lon":"121.53881","lat":"31.31896","category":"150","category_name":"银行","address":"杨浦区包头路490-494号(包头路国和路)"},{"poiid":"B2094654D56FA0F54399","title":"上海市包头中学","lon":"121.53773","lat":"31.32286","category":"55","category_name":"中学","address":"杨浦区包头路765弄11号"},{"poiid":"B2094757D66DA6F94399","title":"正宗清真兰州拉面店","lon":"121.53989","lat":"31.32457","category":"68","category_name":"快餐厅","address":"杨浦区开鲁路202号(近包头路)"},{"poiid":"B2094757D068A0FD4693","title":"烧烤","lon":"121.545813","lat":"31.321156","category":"247","category_name":"餐饮美食","address":"上海共青森林公园"},{"poiid":"B2094757D06FA3FD439E","title":"杨浦区市东医院","lon":"121.53765445","lat":"31.321043171","category":"162","category_name":"医院","address":"上海杨浦区市光路999号(近包头路)"},{"poiid":"B2094750D768ABFF499C","title":"共青森林公园烧烤区","lon":"121.546","lat":"31.3206","category":"68","category_name":"快餐厅","address":"杨浦区军工路2000号共青森林公园内"},{"poiid":"B2094757D06FA7F9479C","title":"德林火锅(包头路店)","lon":"121.53897","lat":"31.31732","category":"86","category_name":"火锅店","address":"杨浦区包头路436号(近国和路)"},{"poiid":"B2094757D06FA1FD4799","title":"上海城市管理职业技术学院","lon":"121.54669","lat":"31.32383","category":"671","category_name":"高校中心点","address":"杨浦区军工路2360号(近森林公园)"},{"poiid":"B2094757D06FA2FE4093","title":"市光二村","lon":"121.54085","lat":"31.31772","category":"47","category_name":"住宅区","address":"上海国和路包头路"},{"poiid":"B2094757D06FA2F8419A","title":"市光三村","lon":"121.538493","lat":"31.322494","category":"47","category_name":"住宅区","address":"上海杨浦区,市光三村"},{"poiid":"B2094757D068A0FC4992","title":"市光一村","lon":"121.542811","lat":"31.322146","category":"47","category_name":"住宅区","address":"上海国和路包头路"},{"poiid":"B2094655D36CA4FC469B","title":"包头路开鲁路","lon":"121.53845","lat":"31.32399","category":"38","category_name":"公交车站","address":""},{"poiid":"B2094654DB6AA6FE429F","title":"共青森林度假村","lon":"121.54578","lat":"31.32221","category":"207","category_name":"度假疗养场所","address":"杨浦区军工路2180号"},{"poiid":"B2094757D66EA4FC4298","title":"共青森林公园海盗船","lon":"121.5472672","lat":"31.320308965","category":"500","category_name":"未知分类","address":"上海军工路"},{"poiid":"B2094654D56FA0FA419A","title":"工农四村","lon":"121.54053","lat":"31.324175","category":"47","category_name":"住宅区","address":"工农四村1-82号,105-121号,125-127号,130-133号,141-175号"},{"poiid":"B2094757D06BA6F44793","title":"星源佳园","lon":"121.53895","lat":"31.321993","category":"47","category_name":"住宅区","address":"工农四村83-104号"},{"poiid":"B2094655D26CA6FD439E","title":"星源花苑","lon":"121.54223","lat":"31.323984","category":"47","category_name":"住宅区","address":"上海市杨浦区市光路750号"},{"poiid":"B2094655D26FA0F4469C","title":"共青国家森林公园售票处(军工路)","lon":"121.54581","lat":"31.32116","category":"33","category_name":"公园景点售票处","address":""},{"poiid":"B2094655D26DA4F8409D","title":"星源公寓","lon":"121.54295","lat":"31.32201","category":"47","category_name":"住宅区","address":"工农四村1-45号"},{"poiid":"B2094757D068A6F84599","title":"工农公园","lon":"121.53789","lat":"31.32574","category":"196","category_name":"公园","address":"杨浦区包头路929号(近殷行路)"},{"poiid":"B2094750D26EA5F9439F","title":"市东医院","lon":"121.537826","lat":"31.324411","category":"162","category_name":"医院","address":"杨浦区市光路999号(近包头路)"},{"poiid":"B2094654D56FA7FD4299","title":"上海市市光学校","lon":"121.54116","lat":"31.3211","category":"55","category_name":"中学","address":"市光路163"},{"poiid":"B2094757D068ABFB4598","title":"开鲁路白城路(公交537终)","lon":"121.542961","lat":"31.324811","category":"38","category_name":"公交车站","address":"上海杨浦区白城路开鲁路"},{"poiid":"B2094654DB6BA2FF489C","title":"工农四村(南二号门)","lon":"121.54254","lat":"31.32177","category":"47","category_name":"住宅区","address":""},{"poiid":"B2094654DB6BA2FF499A","title":"市光三村(南二号门)","lon":"121.54148","lat":"31.31825","category":"47","category_name":"住宅区","address":""},{"poiid":"B2094655D26CA6F84299","title":"星源公寓(西门)","lon":"121.54251","lat":"31.32188","category":"47","category_name":"住宅区","address":"工农四村1-45号"},{"poiid":"B2094654D56FA0F94899","title":"殷行一村小区","lon":"121.54174","lat":"31.32747","category":"47","category_name":"住宅区","address":"上海市杨浦区开鲁路白城路"},{"poiid":"B2094752D46BA1FD469C","title":"共青森林公园","lon":"121.543614","lat":"31.317862","category":"500","category_name":"未知分类","address":null},{"poiid":"B2094757D16EABF4419F","title":"泰阁苑鱼翅酒楼","lon":"121.54672","lat":"31.32307","category":"72","category_name":"广东菜","address":"杨浦区军工路1978号(共青森林公园西大门)"},{"poiid":"B2094757D66BA3F4479F","title":"喜相约饭店","lon":"121.546","lat":"31.31471","category":"71","category_name":"四川菜","address":"杨浦区军工路1486号(近民星路)"},{"poiid":"B2094757D064ABFC409A","title":"民欣大酒店","lon":"121.53879","lat":"31.31318","category":"76","category_name":"上海菜","address":"杨浦区包头路280号"},{"poiid":"B2094757D465A0F4429C","title":"老同兴苏州汤包馆","lon":"121.53836","lat":"31.32658","category":"68","category_name":"快餐厅","address":"杨浦区包头路978号(近殷行路)"},{"poiid":"B2094655D26CA6FB409E","title":"民星路408弄小区","lon":"121.54380583237","lat":"31.318102826115","category":"47","category_name":"住宅区","address":"民星路408弄"},{"poiid":"B2094654DB6BA2FF479F","title":"市东医院(北二号门)","lon":"121.53653","lat":"31.32139","category":"162","category_name":"医院","address":""},{"poiid":"B2094757D064A3FB449A","title":"捷泉大酒店(开鲁路店)","lon":"121.539029113","lat":"31.3250886008","category":"76","category_name":"上海菜","address":"杨浦区开鲁路210号(近包头路)"},{"poiid":"B2094655D26BA3F44098","title":"蛙兵虾将牛蛙龙虾馆","lon":"121.53818","lat":"31.32444","category":"71","category_name":"四川菜","address":"杨浦区包头路789号近开鲁路(近开鲁路)"},{"poiid":"B2094757D66EA0FB499D","title":"老崇明餐厅","lon":"121.53918259","lat":"31.319068239","category":"76","category_name":"上海菜","address":"杨浦区国和路(近包头路)"},{"poiid":"B2094751D568AAFA4893","title":"虹口凯德龙之梦","lon":"121.537964","lat":"31.319962","category":"249","category_name":"购物服务","address":"西江湾路388号"},{"poiid":"B2094654DB6BA2FF489F","title":"市光三村(北二号门)","lon":"121.54014","lat":"31.32132","category":"47","category_name":"住宅区","address":""},{"poiid":"B2094654DB6AA2FC4592","title":"重庆鸡公煲 包头路店","lon":"121.538462054","lat":"31.317228793","category":"71","category_name":"四川菜","address":"杨浦区包头路371号(近国和路)"},{"poiid":"B2094654D56FA0FA4398","title":"小绍兴(包头路)","lon":"121.53862","lat":"31.325","category":"68","category_name":"快餐厅","address":"杨浦区包头路896号(近开鲁路)"},{"poiid":"B2094757D66CAAFC459E","title":"源日本涮锅铁板烧","lon":"121.5400031","lat":"31.322977521","category":"247","category_name":"餐饮美食","address":"上海包头路555号"},{"poiid":"B2094654D56FA7F9409D","title":"广深酒家美食坊","lon":"121.53829","lat":"31.32101","category":"76","category_name":"上海菜","address":"杨浦区包头路601号(近市光路)"},{"poiid":"B2094757D16CABF84798","title":"苏州汤包馆","lon":"121.54122814","lat":"31.3231080145","category":"247","category_name":"餐饮美食","address":"上海开鲁路309号"},{"poiid":"B2094655D26EA3F44393","title":"星源花苑(南门)","lon":"121.54193","lat":"31.3234","category":"47","category_name":"住宅区","address":""},{"poiid":"B2094654D56FA7FE4292","title":"中原大厦","lon":"121.539","lat":"31.3186","category":"46","category_name":"楼宇","address":"中原路60弄1号"},{"poiid":"B2094654DB64A6F84592","title":"一兆韦德健身(中原店)","lon":"121.54032","lat":"31.32451","category":"221","category_name":"健身中心","address":"杨浦区开鲁路工农四村175号"},{"poiid":"B2094654D56FA7FC4899","title":"快客No.6579","lon":"121.53961","lat":"31.32175","category":"117","category_name":"便民商店/便利店","address":"市光路1272"},{"poiid":"B2094757D069A5F5439A","title":"新亚大包(中原店)","lon":"121.53805","lat":"31.32436","category":"68","category_name":"快餐厅","address":"杨浦区开鲁路287号(近包头路)"},{"poiid":"B2094654D56FA7FC489A","title":"金雨田·造型频道杨浦店","lon":"121.53944","lat":"31.32175","category":"148","category_name":"美容美发店","address":"杨浦区市光路1262号(近包头路)"},{"poiid":"B2094654D56FA7FD479F","title":"中国银行上海市包头路支行","lon":"121.53881","lat":"31.31896","category":"150","category_name":"银行","address":"杨浦区包头路490-494号(包头路国和路)"},{"poiid":"B2094654D56FA0F54399","title":"上海市包头中学","lon":"121.53773","lat":"31.32286","category":"55","category_name":"中学","address":"杨浦区包头路765弄11号"},{"poiid":"B2094757D66DA6F94399","title":"正宗清真兰州拉面店","lon":"121.53989","lat":"31.32457","category":"68","category_name":"快餐厅","address":"杨浦区开鲁路202号(近包头路)"}]