[{"poiid":"B2094757D06FAAFE409D","title":"中房金谊广场","lon":"121.520416","lat":"31.145796","category":"172","category_name":"酒吧","address":"上海市浦东新区上南路4518号"},{"poiid":"B2094757D06FA1FE4192","title":"沃尔玛(三林店)","lon":"121.52646179","lat":"31.141582631","category":"118","category_name":"超级市场","address":"浦东新区东明路2766号(永泰路口)"},{"poiid":"B2094757D06FA4F94999","title":"DQ冰雪皇后(永泰路店)","lon":"121.525427175","lat":"31.1427371264","category":"113","category_name":"冷饮店","address":"浦东新区永泰路1138弄三林城市广场"},{"poiid":"B2094757D16CA5FA4092","title":"金谊河畔","lon":"121.518327","lat":"31.140542886","category":"47","category_name":"住宅区","address":"上海市浦东新区永泰路595弄"},{"poiid":"B2094757D06FA0FF489F","title":"第一食品商店(三林店)","lon":"121.52633213","lat":"31.143686085","category":"260","category_name":"其他","address":"浦东新区永泰路1138弄三林城市广场1楼(近东明路)"},{"poiid":"B2094757D069A0FC419D","title":"三林苑","lon":"121.52072768","lat":"31.143535692","category":"47","category_name":"住宅区","address":"上海三林路1466弄"},{"poiid":"B2094654DB69A5FE4799","title":"肯德基 KFC (永泰店)","lon":"121.5261","lat":"31.14337","category":"68","category_name":"快餐厅","address":"浦东新区东明路2655号(近永泰路)"},{"poiid":"B2094654DB6DA7FE499B","title":"蜀膳传火锅传奇 东明路店","lon":"121.52578182854","lat":"31.143634751868","category":"86","category_name":"火锅店","address":"浦东新区东明路2647号(东明路永泰路)"},{"poiid":"B2094654DB6DA7FD469B","title":"三林安居苑","lon":"121.5257","lat":"31.146095","category":"47","category_name":"住宅区","address":"三林路1662弄1-174号"},{"poiid":"B2094757D06AA2FC449A","title":"四季名厨","lon":"121.529866","lat":"31.143588","category":"72","category_name":"广东菜","address":"浦东新区永泰路1058弄三林城市广场9号(东明路口)"},{"poiid":"B2094654DB64A1FA499E","title":"樱桃苑","lon":"121.52344","lat":"31.147839","category":"47","category_name":"住宅区","address":"上海市浦东新区环林东路270弄"},{"poiid":"B2094757D068A1F8479C","title":"上品小笼 三林城店","lon":"121.525876054","lat":"31.143500793","category":"68","category_name":"快餐厅","address":"浦东新区三林城东明路2631号"},{"poiid":"B2094654DB6DA7F4449B","title":"王记烧烤店","lon":"121.52463","lat":"31.14315","category":"87","category_name":"特色／地方风味餐厅","address":"浦东新区东明路(近永泰路)"},{"poiid":"B2094655D268A3F8499A","title":"万科金色雅筑","lon":"121.51833","lat":"31.144051","category":"47","category_name":"住宅区","address":"上海市浦东新区三林路1300弄"},{"poiid":"B2094757D569A3FA419F","title":"上海三林快捷假日酒店","lon":"121.527595","lat":"31.142293","category":"214","category_name":"四星级宾馆","address":"泰环路215号"},{"poiid":"B2094757D068A3F4459D","title":"翠竹苑","lon":"121.51947","lat":"31.141935","category":"500","category_name":"未知分类","address":"上海永泰路775弄"},{"poiid":"B2094757D06BA0F44898","title":"四海游龙永泰路店","lon":"121.52614569","lat":"31.143845504","category":"68","category_name":"快餐厅","address":"浦东新区永泰路1138弄三林城市广场1楼(近东明路)"},{"poiid":"B2094757D068A4F44693","title":"品华苑","lon":"121.52058","lat":"31.1399","category":"47","category_name":"住宅区","address":"上海三林城环林西路608弄"},{"poiid":"B2094757D764AAF9469B","title":"宜芝多 永泰路店","lon":"121.52432","lat":"31.14239","category":"112","category_name":"糕饼店","address":"浦东新区永泰路1138弄三林城市广场第一食品商店1楼"},{"poiid":"B2094757D66AA4F84798","title":"东敏酒家","lon":"121.52572295601","lat":"31.143705398898","category":"76","category_name":"上海菜","address":"浦东新区东明路2639号(永泰路口)"},{"poiid":"B2094757D068ABFB4092","title":"84/572/780/795/1003路永泰路东明路(三林城)终点站","lon":"121.5282174","lat":"31.1433501","category":"38","category_name":"公交车站","address":"上海市浦东新区永泰路1300号"},{"poiid":"B2094757D064A4FF4792","title":"仕亮汤馆","lon":"121.52724795","lat":"31.143664744","category":"76","category_name":"上海菜","address":"浦东新区永泰路1138弄城市生活广场2楼(近苏宁电器)"},{"poiid":"B2094757D064A5F9479D","title":"三林港任记菜馆","lon":"121.52564","lat":"31.14284","category":"76","category_name":"上海菜","address":"浦东新区东明路2651号(近永泰路)"},{"poiid":"B2094757D064A1F9449D","title":"喜来公社(三林店)","lon":"121.525745","lat":"31.142810936","category":"112","category_name":"糕饼店","address":"浦东新区永泰路1066号三林城市商业广场1楼(近东明路)"},{"poiid":"B2094757D06BA0F8429F","title":"盛源公寓","lon":"121.52785","lat":"31.14435","category":"252","category_name":"楼宇机构","address":"上海永泰路1299弄"},{"poiid":"B2094757D06AA0FB4898","title":"东明社区卫生服务中心","lon":"121.52888","lat":"31.14536","category":"162","category_name":"医院","address":"上海浦东新区环林东路555号(近永泰路)"},{"poiid":"B2094757D16CA2FE4192","title":"吉祥馄饨永泰路店","lon":"121.52644095","lat":"31.142670183","category":"68","category_name":"快餐厅","address":"浦东新区永泰路1138弄三林城市广场16号(近东明路)"},{"poiid":"B2094654DB6DA7F44398","title":"永琪美容美发(品珍苑东北)","lon":"121.52424","lat":"31.14272","category":"148","category_name":"美容美发店","address":""},{"poiid":"B2094757D16EA3FB409E","title":"上影CGV莘庄影城","lon":"121.524775209","lat":"31.1434808508","category":"178","category_name":"电影院","address":"上海仲盛世界4楼"},{"poiid":"B2094757D16BABFC489B","title":"凌云酒家(永泰路店)","lon":"121.521982009","lat":"31.1421669222","category":"247","category_name":"餐饮美食","address":"浦东新区永泰路83号(东明路口)"},{"poiid":"B2094757D16FA4FB419B","title":"阿拉屋里香","lon":"121.526669109","lat":"31.1433886488","category":"76","category_name":"上海菜","address":"浦东新区永泰路1173号(近东明路)"},{"poiid":"B2094757D064A3F8429B","title":"572公交车终点站 永泰路公交车终点站","lon":"121.524469","lat":"31.142413","category":"38","category_name":"公交车站","address":"上海永泰路泰环路"},{"poiid":"B2094654DB6DA7FB4998","title":"好德便利No.961","lon":"121.52349","lat":"31.14299","category":"117","category_name":"便民商店/便利店","address":"安盛街109"},{"poiid":"B2094750D365A0FF499F","title":"芋贵人","lon":"121.527641","lat":"31.141031","category":"247","category_name":"餐饮美食","address":"浦东新区永泰路1058弄3号三林商业广场(近安盛步行街)"},{"poiid":"B2094757D16FA3F4489C","title":"品新苑","lon":"121.52457","lat":"31.140457","category":"252","category_name":"楼宇机构","address":"上海环林西路613弄"},{"poiid":"B2094654DB6DA7FE499A","title":"任记菜馆","lon":"121.52737138504","lat":"31.141356387107","category":"257","category_name":"中餐厅","address":"东明路2651号近永泰路"},{"poiid":"B2094654DB6DA7F44098","title":"光明便利","lon":"121.52295","lat":"31.14274","category":"117","category_name":"便民商店/便利店","address":"安盛街77"},{"poiid":"B2094757D065A2FA4892","title":"三林公园","lon":"121.51998","lat":"31.14587","category":"500","category_name":"未知分类","address":"浦东新区三林城(环林西路三林路)"},{"poiid":"B2094654DB6DA7FB4498","title":"逸飞酒家","lon":"121.5234","lat":"31.14014","category":"76","category_name":"上海菜","address":"浦东新区环林西路(近永泰路)"},{"poiid":"B2094655D269ABF54392","title":"任记火锅传奇","lon":"121.525947054","lat":"31.143275793","category":"247","category_name":"餐饮美食","address":"东明路2651号近永泰路"},{"poiid":"B2094757D16FA0FB4093","title":"伍缘(永泰路)","lon":"121.52365875","lat":"31.142553329","category":"117","category_name":"便民商店/便利店","address":"浦东新区永泰路959号"},{"poiid":"B2094757D169ABFF459C","title":"好必来永泰路店","lon":"121.526758009","lat":"31.1447829792","category":"68","category_name":"快餐厅","address":"浦东新区永泰路1138弄三林城市广场内(近东明路)"},{"poiid":"B2094753D26EA2F8409A","title":"上海东方明珠塔","lon":"121.523358","lat":"31.144491","category":"500","category_name":"未知分类","address":"上海市 上海市"},{"poiid":"B2094757D66DA6F8419F","title":"东明路安盛街","lon":"121.525536208","lat":"31.1448122178","category":"500","category_name":"未知分类","address":"上海浦东新区东明路安盛街"},{"poiid":"B2094655D36CA3FD4693","title":"意凯花苑","lon":"121.522532","lat":"31.144307","category":"47","category_name":"住宅区","address":"上海市浦东新区永泰路538弄"},{"poiid":"B2094654DB6DA7FB479F","title":"新座房产","lon":"121.52407","lat":"31.14328","category":"248","category_name":"生活娱乐","address":""},{"poiid":"B2094654DB65A3F44899","title":"兰兰菜馆","lon":"121.52562","lat":"31.14407","category":"257","category_name":"中餐厅","address":"浦东新区东明路安盛街229号(近永泰路)"},{"poiid":"B2094757D06BA3F5409A","title":"鲜一招","lon":"121.525849","lat":"31.144865981","category":"500","category_name":"未知分类","address":"上海市浦东新区三林路1619号"},{"poiid":"B2094654DB6DA0F44993","title":"三林中学东校","lon":"121.52541","lat":"31.13883","category":"55","category_name":"中学","address":"南林路733"},{"poiid":"B2094655D26BA2FA4493","title":"泰环路永泰路","lon":"121.52729","lat":"31.14313","category":"38","category_name":"公交车站","address":""},{"poiid":"B2094757D06FAAFE409D","title":"中房金谊广场","lon":"121.520416","lat":"31.145796","category":"172","category_name":"酒吧","address":"上海市浦东新区上南路4518号"},{"poiid":"B2094757D06FA1FE4192","title":"沃尔玛(三林店)","lon":"121.52646179","lat":"31.141582631","category":"118","category_name":"超级市场","address":"浦东新区东明路2766号(永泰路口)"},{"poiid":"B2094757D06FA4F94999","title":"DQ冰雪皇后(永泰路店)","lon":"121.525427175","lat":"31.1427371264","category":"113","category_name":"冷饮店","address":"浦东新区永泰路1138弄三林城市广场"},{"poiid":"B2094757D16CA5FA4092","title":"金谊河畔","lon":"121.518327","lat":"31.140542886","category":"47","category_name":"住宅区","address":"上海市浦东新区永泰路595弄"},{"poiid":"B2094757D06FA0FF489F","title":"第一食品商店(三林店)","lon":"121.52633213","lat":"31.143686085","category":"260","category_name":"其他","address":"浦东新区永泰路1138弄三林城市广场1楼(近东明路)"},{"poiid":"B2094757D069A0FC419D","title":"三林苑","lon":"121.52072768","lat":"31.143535692","category":"47","category_name":"住宅区","address":"上海三林路1466弄"},{"poiid":"B2094654DB69A5FE4799","title":"肯德基 KFC (永泰店)","lon":"121.5261","lat":"31.14337","category":"68","category_name":"快餐厅","address":"浦东新区东明路2655号(近永泰路)"},{"poiid":"B2094654DB6DA7FE499B","title":"蜀膳传火锅传奇 东明路店","lon":"121.52578182854","lat":"31.143634751868","category":"86","category_name":"火锅店","address":"浦东新区东明路2647号(东明路永泰路)"},{"poiid":"B2094654DB6DA7FD469B","title":"三林安居苑","lon":"121.5257","lat":"31.146095","category":"47","category_name":"住宅区","address":"三林路1662弄1-174号"},{"poiid":"B2094757D06AA2FC449A","title":"四季名厨","lon":"121.529866","lat":"31.143588","category":"72","category_name":"广东菜","address":"浦东新区永泰路1058弄三林城市广场9号(东明路口)"},{"poiid":"B2094654DB64A1FA499E","title":"樱桃苑","lon":"121.52344","lat":"31.147839","category":"47","category_name":"住宅区","address":"上海市浦东新区环林东路270弄"},{"poiid":"B2094757D068A1F8479C","title":"上品小笼 三林城店","lon":"121.525876054","lat":"31.143500793","category":"68","category_name":"快餐厅","address":"浦东新区三林城东明路2631号"},{"poiid":"B2094654DB6DA7F4449B","title":"王记烧烤店","lon":"121.52463","lat":"31.14315","category":"87","category_name":"特色／地方风味餐厅","address":"浦东新区东明路(近永泰路)"},{"poiid":"B2094655D268A3F8499A","title":"万科金色雅筑","lon":"121.51833","lat":"31.144051","category":"47","category_name":"住宅区","address":"上海市浦东新区三林路1300弄"},{"poiid":"B2094757D569A3FA419F","title":"上海三林快捷假日酒店","lon":"121.527595","lat":"31.142293","category":"214","category_name":"四星级宾馆","address":"泰环路215号"},{"poiid":"B2094757D068A3F4459D","title":"翠竹苑","lon":"121.51947","lat":"31.141935","category":"500","category_name":"未知分类","address":"上海永泰路775弄"},{"poiid":"B2094757D06BA0F44898","title":"四海游龙永泰路店","lon":"121.52614569","lat":"31.143845504","category":"68","category_name":"快餐厅","address":"浦东新区永泰路1138弄三林城市广场1楼(近东明路)"},{"poiid":"B2094757D068A4F44693","title":"品华苑","lon":"121.52058","lat":"31.1399","category":"47","category_name":"住宅区","address":"上海三林城环林西路608弄"},{"poiid":"B2094757D764AAF9469B","title":"宜芝多 永泰路店","lon":"121.52432","lat":"31.14239","category":"112","category_name":"糕饼店","address":"浦东新区永泰路1138弄三林城市广场第一食品商店1楼"},{"poiid":"B2094757D66AA4F84798","title":"东敏酒家","lon":"121.52572295601","lat":"31.143705398898","category":"76","category_name":"上海菜","address":"浦东新区东明路2639号(永泰路口)"},{"poiid":"B2094757D068ABFB4092","title":"84/572/780/795/1003路永泰路东明路(三林城)终点站","lon":"121.5282174","lat":"31.1433501","category":"38","category_name":"公交车站","address":"上海市浦东新区永泰路1300号"},{"poiid":"B2094757D064A4FF4792","title":"仕亮汤馆","lon":"121.52724795","lat":"31.143664744","category":"76","category_name":"上海菜","address":"浦东新区永泰路1138弄城市生活广场2楼(近苏宁电器)"},{"poiid":"B2094757D064A5F9479D","title":"三林港任记菜馆","lon":"121.52564","lat":"31.14284","category":"76","category_name":"上海菜","address":"浦东新区东明路2651号(近永泰路)"},{"poiid":"B2094757D064A1F9449D","title":"喜来公社(三林店)","lon":"121.525745","lat":"31.142810936","category":"112","category_name":"糕饼店","address":"浦东新区永泰路1066号三林城市商业广场1楼(近东明路)"},{"poiid":"B2094757D06BA0F8429F","title":"盛源公寓","lon":"121.52785","lat":"31.14435","category":"252","category_name":"楼宇机构","address":"上海永泰路1299弄"},{"poiid":"B2094757D06AA0FB4898","title":"东明社区卫生服务中心","lon":"121.52888","lat":"31.14536","category":"162","category_name":"医院","address":"上海浦东新区环林东路555号(近永泰路)"},{"poiid":"B2094757D16CA2FE4192","title":"吉祥馄饨永泰路店","lon":"121.52644095","lat":"31.142670183","category":"68","category_name":"快餐厅","address":"浦东新区永泰路1138弄三林城市广场16号(近东明路)"},{"poiid":"B2094654DB6DA7F44398","title":"永琪美容美发(品珍苑东北)","lon":"121.52424","lat":"31.14272","category":"148","category_name":"美容美发店","address":""},{"poiid":"B2094757D16EA3FB409E","title":"上影CGV莘庄影城","lon":"121.524775209","lat":"31.1434808508","category":"178","category_name":"电影院","address":"上海仲盛世界4楼"},{"poiid":"B2094757D16BABFC489B","title":"凌云酒家(永泰路店)","lon":"121.521982009","lat":"31.1421669222","category":"247","category_name":"餐饮美食","address":"浦东新区永泰路83号(东明路口)"},{"poiid":"B2094757D16FA4FB419B","title":"阿拉屋里香","lon":"121.526669109","lat":"31.1433886488","category":"76","category_name":"上海菜","address":"浦东新区永泰路1173号(近东明路)"},{"poiid":"B2094757D064A3F8429B","title":"572公交车终点站 永泰路公交车终点站","lon":"121.524469","lat":"31.142413","category":"38","category_name":"公交车站","address":"上海永泰路泰环路"},{"poiid":"B2094654DB6DA7FB4998","title":"好德便利No.961","lon":"121.52349","lat":"31.14299","category":"117","category_name":"便民商店/便利店","address":"安盛街109"},{"poiid":"B2094750D365A0FF499F","title":"芋贵人","lon":"121.527641","lat":"31.141031","category":"247","category_name":"餐饮美食","address":"浦东新区永泰路1058弄3号三林商业广场(近安盛步行街)"},{"poiid":"B2094757D16FA3F4489C","title":"品新苑","lon":"121.52457","lat":"31.140457","category":"252","category_name":"楼宇机构","address":"上海环林西路613弄"},{"poiid":"B2094654DB6DA7FE499A","title":"任记菜馆","lon":"121.52737138504","lat":"31.141356387107","category":"257","category_name":"中餐厅","address":"东明路2651号近永泰路"},{"poiid":"B2094654DB6DA7F44098","title":"光明便利","lon":"121.52295","lat":"31.14274","category":"117","category_name":"便民商店/便利店","address":"安盛街77"},{"poiid":"B2094757D065A2FA4892","title":"三林公园","lon":"121.51998","lat":"31.14587","category":"500","category_name":"未知分类","address":"浦东新区三林城(环林西路三林路)"},{"poiid":"B2094654DB6DA7FB4498","title":"逸飞酒家","lon":"121.5234","lat":"31.14014","category":"76","category_name":"上海菜","address":"浦东新区环林西路(近永泰路)"},{"poiid":"B2094655D269ABF54392","title":"任记火锅传奇","lon":"121.525947054","lat":"31.143275793","category":"247","category_name":"餐饮美食","address":"东明路2651号近永泰路"},{"poiid":"B2094757D16FA0FB4093","title":"伍缘(永泰路)","lon":"121.52365875","lat":"31.142553329","category":"117","category_name":"便民商店/便利店","address":"浦东新区永泰路959号"},{"poiid":"B2094757D169ABFF459C","title":"好必来永泰路店","lon":"121.526758009","lat":"31.1447829792","category":"68","category_name":"快餐厅","address":"浦东新区永泰路1138弄三林城市广场内(近东明路)"},{"poiid":"B2094753D26EA2F8409A","title":"上海东方明珠塔","lon":"121.523358","lat":"31.144491","category":"500","category_name":"未知分类","address":"上海市 上海市"},{"poiid":"B2094757D66DA6F8419F","title":"东明路安盛街","lon":"121.525536208","lat":"31.1448122178","category":"500","category_name":"未知分类","address":"上海浦东新区东明路安盛街"},{"poiid":"B2094655D36CA3FD4693","title":"意凯花苑","lon":"121.522532","lat":"31.144307","category":"47","category_name":"住宅区","address":"上海市浦东新区永泰路538弄"},{"poiid":"B2094654DB6DA7FB479F","title":"新座房产","lon":"121.52407","lat":"31.14328","category":"248","category_name":"生活娱乐","address":""},{"poiid":"B2094654DB65A3F44899","title":"兰兰菜馆","lon":"121.52562","lat":"31.14407","category":"257","category_name":"中餐厅","address":"浦东新区东明路安盛街229号(近永泰路)"},{"poiid":"B2094757D06BA3F5409A","title":"鲜一招","lon":"121.525849","lat":"31.144865981","category":"500","category_name":"未知分类","address":"上海市浦东新区三林路1619号"},{"poiid":"B2094654DB6DA0F44993","title":"三林中学东校","lon":"121.52541","lat":"31.13883","category":"55","category_name":"中学","address":"南林路733"},{"poiid":"B2094655D26BA2FA4493","title":"泰环路永泰路","lon":"121.52729","lat":"31.14313","category":"38","category_name":"公交车站","address":""},{"poiid":"B2094757D06FAAFE409D","title":"中房金谊广场","lon":"121.520416","lat":"31.145796","category":"172","category_name":"酒吧","address":"上海市浦东新区上南路4518号"},{"poiid":"B2094757D06FA1FE4192","title":"沃尔玛(三林店)","lon":"121.52646179","lat":"31.141582631","category":"118","category_name":"超级市场","address":"浦东新区东明路2766号(永泰路口)"},{"poiid":"B2094757D06FA4F94999","title":"DQ冰雪皇后(永泰路店)","lon":"121.525427175","lat":"31.1427371264","category":"113","category_name":"冷饮店","address":"浦东新区永泰路1138弄三林城市广场"},{"poiid":"B2094757D16CA5FA4092","title":"金谊河畔","lon":"121.518327","lat":"31.140542886","category":"47","category_name":"住宅区","address":"上海市浦东新区永泰路595弄"},{"poiid":"B2094757D06FA0FF489F","title":"第一食品商店(三林店)","lon":"121.52633213","lat":"31.143686085","category":"260","category_name":"其他","address":"浦东新区永泰路1138弄三林城市广场1楼(近东明路)"},{"poiid":"B2094757D069A0FC419D","title":"三林苑","lon":"121.52072768","lat":"31.143535692","category":"47","category_name":"住宅区","address":"上海三林路1466弄"},{"poiid":"B2094654DB69A5FE4799","title":"肯德基 KFC (永泰店)","lon":"121.5261","lat":"31.14337","category":"68","category_name":"快餐厅","address":"浦东新区东明路2655号(近永泰路)"},{"poiid":"B2094654DB6DA7FE499B","title":"蜀膳传火锅传奇 东明路店","lon":"121.52578182854","lat":"31.143634751868","category":"86","category_name":"火锅店","address":"浦东新区东明路2647号(东明路永泰路)"},{"poiid":"B2094654DB6DA7FD469B","title":"三林安居苑","lon":"121.5257","lat":"31.146095","category":"47","category_name":"住宅区","address":"三林路1662弄1-174号"},{"poiid":"B2094757D06AA2FC449A","title":"四季名厨","lon":"121.529866","lat":"31.143588","category":"72","category_name":"广东菜","address":"浦东新区永泰路1058弄三林城市广场9号(东明路口)"},{"poiid":"B2094654DB64A1FA499E","title":"樱桃苑","lon":"121.52344","lat":"31.147839","category":"47","category_name":"住宅区","address":"上海市浦东新区环林东路270弄"},{"poiid":"B2094757D068A1F8479C","title":"上品小笼 三林城店","lon":"121.525876054","lat":"31.143500793","category":"68","category_name":"快餐厅","address":"浦东新区三林城东明路2631号"},{"poiid":"B2094654DB6DA7F4449B","title":"王记烧烤店","lon":"121.52463","lat":"31.14315","category":"87","category_name":"特色／地方风味餐厅","address":"浦东新区东明路(近永泰路)"},{"poiid":"B2094655D268A3F8499A","title":"万科金色雅筑","lon":"121.51833","lat":"31.144051","category":"47","category_name":"住宅区","address":"上海市浦东新区三林路1300弄"},{"poiid":"B2094757D569A3FA419F","title":"上海三林快捷假日酒店","lon":"121.527595","lat":"31.142293","category":"214","category_name":"四星级宾馆","address":"泰环路215号"},{"poiid":"B2094757D068A3F4459D","title":"翠竹苑","lon":"121.51947","lat":"31.141935","category":"500","category_name":"未知分类","address":"上海永泰路775弄"},{"poiid":"B2094757D06BA0F44898","title":"四海游龙永泰路店","lon":"121.52614569","lat":"31.143845504","category":"68","category_name":"快餐厅","address":"浦东新区永泰路1138弄三林城市广场1楼(近东明路)"},{"poiid":"B2094757D068A4F44693","title":"品华苑","lon":"121.52058","lat":"31.1399","category":"47","category_name":"住宅区","address":"上海三林城环林西路608弄"},{"poiid":"B2094757D764AAF9469B","title":"宜芝多 永泰路店","lon":"121.52432","lat":"31.14239","category":"112","category_name":"糕饼店","address":"浦东新区永泰路1138弄三林城市广场第一食品商店1楼"},{"poiid":"B2094757D66AA4F84798","title":"东敏酒家","lon":"121.52572295601","lat":"31.143705398898","category":"76","category_name":"上海菜","address":"浦东新区东明路2639号(永泰路口)"},{"poiid":"B2094757D068ABFB4092","title":"84/572/780/795/1003路永泰路东明路(三林城)终点站","lon":"121.5282174","lat":"31.1433501","category":"38","category_name":"公交车站","address":"上海市浦东新区永泰路1300号"},{"poiid":"B2094757D064A4FF4792","title":"仕亮汤馆","lon":"121.52724795","lat":"31.143664744","category":"76","category_name":"上海菜","address":"浦东新区永泰路1138弄城市生活广场2楼(近苏宁电器)"},{"poiid":"B2094757D064A5F9479D","title":"三林港任记菜馆","lon":"121.52564","lat":"31.14284","category":"76","category_name":"上海菜","address":"浦东新区东明路2651号(近永泰路)"},{"poiid":"B2094757D064A1F9449D","title":"喜来公社(三林店)","lon":"121.525745","lat":"31.142810936","category":"112","category_name":"糕饼店","address":"浦东新区永泰路1066号三林城市商业广场1楼(近东明路)"},{"poiid":"B2094757D06BA0F8429F","title":"盛源公寓","lon":"121.52785","lat":"31.14435","category":"252","category_name":"楼宇机构","address":"上海永泰路1299弄"},{"poiid":"B2094757D06AA0FB4898","title":"东明社区卫生服务中心","lon":"121.52888","lat":"31.14536","category":"162","category_name":"医院","address":"上海浦东新区环林东路555号(近永泰路)"},{"poiid":"B2094757D16CA2FE4192","title":"吉祥馄饨永泰路店","lon":"121.52644095","lat":"31.142670183","category":"68","category_name":"快餐厅","address":"浦东新区永泰路1138弄三林城市广场16号(近东明路)"},{"poiid":"B2094654DB6DA7F44398","title":"永琪美容美发(品珍苑东北)","lon":"121.52424","lat":"31.14272","category":"148","category_name":"美容美发店","address":""},{"poiid":"B2094757D16EA3FB409E","title":"上影CGV莘庄影城","lon":"121.524775209","lat":"31.1434808508","category":"178","category_name":"电影院","address":"上海仲盛世界4楼"},{"poiid":"B2094757D16BABFC489B","title":"凌云酒家(永泰路店)","lon":"121.521982009","lat":"31.1421669222","category":"247","category_name":"餐饮美食","address":"浦东新区永泰路83号(东明路口)"},{"poiid":"B2094757D16FA4FB419B","title":"阿拉屋里香","lon":"121.526669109","lat":"31.1433886488","category":"76","category_name":"上海菜","address":"浦东新区永泰路1173号(近东明路)"},{"poiid":"B2094757D064A3F8429B","title":"572公交车终点站 永泰路公交车终点站","lon":"121.524469","lat":"31.142413","category":"38","category_name":"公交车站","address":"上海永泰路泰环路"},{"poiid":"B2094654DB6DA7FB4998","title":"好德便利No.961","lon":"121.52349","lat":"31.14299","category":"117","category_name":"便民商店/便利店","address":"安盛街109"},{"poiid":"B2094750D365A0FF499F","title":"芋贵人","lon":"121.527641","lat":"31.141031","category":"247","category_name":"餐饮美食","address":"浦东新区永泰路1058弄3号三林商业广场(近安盛步行街)"},{"poiid":"B2094757D16FA3F4489C","title":"品新苑","lon":"121.52457","lat":"31.140457","category":"252","category_name":"楼宇机构","address":"上海环林西路613弄"},{"poiid":"B2094654DB6DA7FE499A","title":"任记菜馆","lon":"121.52737138504","lat":"31.141356387107","category":"257","category_name":"中餐厅","address":"东明路2651号近永泰路"},{"poiid":"B2094654DB6DA7F44098","title":"光明便利","lon":"121.52295","lat":"31.14274","category":"117","category_name":"便民商店/便利店","address":"安盛街77"},{"poiid":"B2094757D065A2FA4892","title":"三林公园","lon":"121.51998","lat":"31.14587","category":"500","category_name":"未知分类","address":"浦东新区三林城(环林西路三林路)"},{"poiid":"B2094654DB6DA7FB4498","title":"逸飞酒家","lon":"121.5234","lat":"31.14014","category":"76","category_name":"上海菜","address":"浦东新区环林西路(近永泰路)"},{"poiid":"B2094655D269ABF54392","title":"任记火锅传奇","lon":"121.525947054","lat":"31.143275793","category":"247","category_name":"餐饮美食","address":"东明路2651号近永泰路"},{"poiid":"B2094757D16FA0FB4093","title":"伍缘(永泰路)","lon":"121.52365875","lat":"31.142553329","category":"117","category_name":"便民商店/便利店","address":"浦东新区永泰路959号"},{"poiid":"B2094757D169ABFF459C","title":"好必来永泰路店","lon":"121.526758009","lat":"31.1447829792","category":"68","category_name":"快餐厅","address":"浦东新区永泰路1138弄三林城市广场内(近东明路)"},{"poiid":"B2094753D26EA2F8409A","title":"上海东方明珠塔","lon":"121.523358","lat":"31.144491","category":"500","category_name":"未知分类","address":"上海市 上海市"},{"poiid":"B2094757D66DA6F8419F","title":"东明路安盛街","lon":"121.525536208","lat":"31.1448122178","category":"500","category_name":"未知分类","address":"上海浦东新区东明路安盛街"},{"poiid":"B2094655D36CA3FD4693","title":"意凯花苑","lon":"121.522532","lat":"31.144307","category":"47","category_name":"住宅区","address":"上海市浦东新区永泰路538弄"},{"poiid":"B2094654DB6DA7FB479F","title":"新座房产","lon":"121.52407","lat":"31.14328","category":"248","category_name":"生活娱乐","address":""},{"poiid":"B2094654DB65A3F44899","title":"兰兰菜馆","lon":"121.52562","lat":"31.14407","category":"257","category_name":"中餐厅","address":"浦东新区东明路安盛街229号(近永泰路)"},{"poiid":"B2094757D06BA3F5409A","title":"鲜一招","lon":"121.525849","lat":"31.144865981","category":"500","category_name":"未知分类","address":"上海市浦东新区三林路1619号"},{"poiid":"B2094654DB6DA0F44993","title":"三林中学东校","lon":"121.52541","lat":"31.13883","category":"55","category_name":"中学","address":"南林路733"},{"poiid":"B2094655D26BA2FA4493","title":"泰环路永泰路","lon":"121.52729","lat":"31.14313","category":"38","category_name":"公交车站","address":""},{"poiid":"B2094757D06FAAFE409D","title":"中房金谊广场","lon":"121.520416","lat":"31.145796","category":"172","category_name":"酒吧","address":"上海市浦东新区上南路4518号"},{"poiid":"B2094757D06FA1FE4192","title":"沃尔玛(三林店)","lon":"121.52646179","lat":"31.141582631","category":"118","category_name":"超级市场","address":"浦东新区东明路2766号(永泰路口)"},{"poiid":"B2094757D06FA4F94999","title":"DQ冰雪皇后(永泰路店)","lon":"121.525427175","lat":"31.1427371264","category":"113","category_name":"冷饮店","address":"浦东新区永泰路1138弄三林城市广场"},{"poiid":"B2094757D16CA5FA4092","title":"金谊河畔","lon":"121.518327","lat":"31.140542886","category":"47","category_name":"住宅区","address":"上海市浦东新区永泰路595弄"},{"poiid":"B2094757D06FA0FF489F","title":"第一食品商店(三林店)","lon":"121.52633213","lat":"31.143686085","category":"260","category_name":"其他","address":"浦东新区永泰路1138弄三林城市广场1楼(近东明路)"},{"poiid":"B2094757D069A0FC419D","title":"三林苑","lon":"121.52072768","lat":"31.143535692","category":"47","category_name":"住宅区","address":"上海三林路1466弄"},{"poiid":"B2094654DB69A5FE4799","title":"肯德基 KFC (永泰店)","lon":"121.5261","lat":"31.14337","category":"68","category_name":"快餐厅","address":"浦东新区东明路2655号(近永泰路)"},{"poiid":"B2094654DB6DA7FE499B","title":"蜀膳传火锅传奇 东明路店","lon":"121.52578182854","lat":"31.143634751868","category":"86","category_name":"火锅店","address":"浦东新区东明路2647号(东明路永泰路)"},{"poiid":"B2094654DB6DA7FD469B","title":"三林安居苑","lon":"121.5257","lat":"31.146095","category":"47","category_name":"住宅区","address":"三林路1662弄1-174号"},{"poiid":"B2094757D06AA2FC449A","title":"四季名厨","lon":"121.529866","lat":"31.143588","category":"72","category_name":"广东菜","address":"浦东新区永泰路1058弄三林城市广场9号(东明路口)"},{"poiid":"B2094654DB64A1FA499E","title":"樱桃苑","lon":"121.52344","lat":"31.147839","category":"47","category_name":"住宅区","address":"上海市浦东新区环林东路270弄"},{"poiid":"B2094757D068A1F8479C","title":"上品小笼 三林城店","lon":"121.525876054","lat":"31.143500793","category":"68","category_name":"快餐厅","address":"浦东新区三林城东明路2631号"},{"poiid":"B2094654DB6DA7F4449B","title":"王记烧烤店","lon":"121.52463","lat":"31.14315","category":"87","category_name":"特色／地方风味餐厅","address":"浦东新区东明路(近永泰路)"},{"poiid":"B2094655D268A3F8499A","title":"万科金色雅筑","lon":"121.51833","lat":"31.144051","category":"47","category_name":"住宅区","address":"上海市浦东新区三林路1300弄"},{"poiid":"B2094757D569A3FA419F","title":"上海三林快捷假日酒店","lon":"121.527595","lat":"31.142293","category":"214","category_name":"四星级宾馆","address":"泰环路215号"},{"poiid":"B2094757D068A3F4459D","title":"翠竹苑","lon":"121.51947","lat":"31.141935","category":"500","category_name":"未知分类","address":"上海永泰路775弄"},{"poiid":"B2094757D06BA0F44898","title":"四海游龙永泰路店","lon":"121.52614569","lat":"31.143845504","category":"68","category_name":"快餐厅","address":"浦东新区永泰路1138弄三林城市广场1楼(近东明路)"},{"poiid":"B2094757D068A4F44693","title":"品华苑","lon":"121.52058","lat":"31.1399","category":"47","category_name":"住宅区","address":"上海三林城环林西路608弄"},{"poiid":"B2094757D764AAF9469B","title":"宜芝多 永泰路店","lon":"121.52432","lat":"31.14239","category":"112","category_name":"糕饼店","address":"浦东新区永泰路1138弄三林城市广场第一食品商店1楼"},{"poiid":"B2094757D66AA4F84798","title":"东敏酒家","lon":"121.52572295601","lat":"31.143705398898","category":"76","category_name":"上海菜","address":"浦东新区东明路2639号(永泰路口)"},{"poiid":"B2094757D068ABFB4092","title":"84/572/780/795/1003路永泰路东明路(三林城)终点站","lon":"121.5282174","lat":"31.1433501","category":"38","category_name":"公交车站","address":"上海市浦东新区永泰路1300号"},{"poiid":"B2094757D064A4FF4792","title":"仕亮汤馆","lon":"121.52724795","lat":"31.143664744","category":"76","category_name":"上海菜","address":"浦东新区永泰路1138弄城市生活广场2楼(近苏宁电器)"},{"poiid":"B2094757D064A5F9479D","title":"三林港任记菜馆","lon":"121.52564","lat":"31.14284","category":"76","category_name":"上海菜","address":"浦东新区东明路2651号(近永泰路)"},{"poiid":"B2094757D064A1F9449D","title":"喜来公社(三林店)","lon":"121.525745","lat":"31.142810936","category":"112","category_name":"糕饼店","address":"浦东新区永泰路1066号三林城市商业广场1楼(近东明路)"},{"poiid":"B2094757D06BA0F8429F","title":"盛源公寓","lon":"121.52785","lat":"31.14435","category":"252","category_name":"楼宇机构","address":"上海永泰路1299弄"},{"poiid":"B2094757D06AA0FB4898","title":"东明社区卫生服务中心","lon":"121.52888","lat":"31.14536","category":"162","category_name":"医院","address":"上海浦东新区环林东路555号(近永泰路)"},{"poiid":"B2094757D16CA2FE4192","title":"吉祥馄饨永泰路店","lon":"121.52644095","lat":"31.142670183","category":"68","category_name":"快餐厅","address":"浦东新区永泰路1138弄三林城市广场16号(近东明路)"},{"poiid":"B2094654DB6DA7F44398","title":"永琪美容美发(品珍苑东北)","lon":"121.52424","lat":"31.14272","category":"148","category_name":"美容美发店","address":""},{"poiid":"B2094757D16EA3FB409E","title":"上影CGV莘庄影城","lon":"121.524775209","lat":"31.1434808508","category":"178","category_name":"电影院","address":"上海仲盛世界4楼"},{"poiid":"B2094757D16BABFC489B","title":"凌云酒家(永泰路店)","lon":"121.521982009","lat":"31.1421669222","category":"247","category_name":"餐饮美食","address":"浦东新区永泰路83号(东明路口)"},{"poiid":"B2094757D16FA4FB419B","title":"阿拉屋里香","lon":"121.526669109","lat":"31.1433886488","category":"76","category_name":"上海菜","address":"浦东新区永泰路1173号(近东明路)"},{"poiid":"B2094757D064A3F8429B","title":"572公交车终点站 永泰路公交车终点站","lon":"121.524469","lat":"31.142413","category":"38","category_name":"公交车站","address":"上海永泰路泰环路"},{"poiid":"B2094654DB6DA7FB4998","title":"好德便利No.961","lon":"121.52349","lat":"31.14299","category":"117","category_name":"便民商店/便利店","address":"安盛街109"},{"poiid":"B2094750D365A0FF499F","title":"芋贵人","lon":"121.527641","lat":"31.141031","category":"247","category_name":"餐饮美食","address":"浦东新区永泰路1058弄3号三林商业广场(近安盛步行街)"},{"poiid":"B2094757D16FA3F4489C","title":"品新苑","lon":"121.52457","lat":"31.140457","category":"252","category_name":"楼宇机构","address":"上海环林西路613弄"},{"poiid":"B2094654DB6DA7FE499A","title":"任记菜馆","lon":"121.52737138504","lat":"31.141356387107","category":"257","category_name":"中餐厅","address":"东明路2651号近永泰路"},{"poiid":"B2094654DB6DA7F44098","title":"光明便利","lon":"121.52295","lat":"31.14274","category":"117","category_name":"便民商店/便利店","address":"安盛街77"},{"poiid":"B2094757D065A2FA4892","title":"三林公园","lon":"121.51998","lat":"31.14587","category":"500","category_name":"未知分类","address":"浦东新区三林城(环林西路三林路)"},{"poiid":"B2094654DB6DA7FB4498","title":"逸飞酒家","lon":"121.5234","lat":"31.14014","category":"76","category_name":"上海菜","address":"浦东新区环林西路(近永泰路)"},{"poiid":"B2094655D269ABF54392","title":"任记火锅传奇","lon":"121.525947054","lat":"31.143275793","category":"247","category_name":"餐饮美食","address":"东明路2651号近永泰路"},{"poiid":"B2094757D16FA0FB4093","title":"伍缘(永泰路)","lon":"121.52365875","lat":"31.142553329","category":"117","category_name":"便民商店/便利店","address":"浦东新区永泰路959号"},{"poiid":"B2094757D169ABFF459C","title":"好必来永泰路店","lon":"121.526758009","lat":"31.1447829792","category":"68","category_name":"快餐厅","address":"浦东新区永泰路1138弄三林城市广场内(近东明路)"},{"poiid":"B2094753D26EA2F8409A","title":"上海东方明珠塔","lon":"121.523358","lat":"31.144491","category":"500","category_name":"未知分类","address":"上海市 上海市"},{"poiid":"B2094757D66DA6F8419F","title":"东明路安盛街","lon":"121.525536208","lat":"31.1448122178","category":"500","category_name":"未知分类","address":"上海浦东新区东明路安盛街"},{"poiid":"B2094655D36CA3FD4693","title":"意凯花苑","lon":"121.522532","lat":"31.144307","category":"47","category_name":"住宅区","address":"上海市浦东新区永泰路538弄"},{"poiid":"B2094654DB6DA7FB479F","title":"新座房产","lon":"121.52407","lat":"31.14328","category":"248","category_name":"生活娱乐","address":""},{"poiid":"B2094654DB65A3F44899","title":"兰兰菜馆","lon":"121.52562","lat":"31.14407","category":"257","category_name":"中餐厅","address":"浦东新区东明路安盛街229号(近永泰路)"},{"poiid":"B2094757D06BA3F5409A","title":"鲜一招","lon":"121.525849","lat":"31.144865981","category":"500","category_name":"未知分类","address":"上海市浦东新区三林路1619号"},{"poiid":"B2094654DB6DA0F44993","title":"三林中学东校","lon":"121.52541","lat":"31.13883","category":"55","category_name":"中学","address":"南林路733"},{"poiid":"B2094655D26BA2FA4493","title":"泰环路永泰路","lon":"121.52729","lat":"31.14313","category":"38","category_name":"公交车站","address":""}]