[{"poiid":"B2094654DA6CA0FD499E","title":"上海展览中心","lon":"121.45289","lat":"31.22459","category":"183","category_name":"展览馆","address":"静安区延安中路1000号(近铜仁路)"},{"poiid":"B2094757D068A4FF419C","title":"梅陇镇广场","lon":"121.456631071","lat":"31.2264992206","category":"119","category_name":"商场","address":"松江区荣乐东路1133弄"},{"poiid":"B2094655D26FA7FA4199","title":"上海锦沧文华大酒店","lon":"121.45378","lat":"31.22667","category":"213","category_name":"五星级宾馆","address":"静安区南京西路1225号(近西康路)"},{"poiid":"B2094753D76FAAFA449C","title":"上海滩国泰旗舰店","lon":"121.466011","lat":"31.216125","category":"249","category_name":"购物服务","address":"淮海中路868号"},{"poiid":"B209475CD564A7F84292","title":"上海滩新天地店","lon":"121.47463","lat":"31.22164","category":"119","category_name":"商场","address":"\"太仓路181弄新天地北里15号\r\n\""},{"poiid":"B209475CD564A7F8439E","title":"上海滩中信泰富店","lon":"121.45602","lat":"31.22851","category":"119","category_name":"商场","address":"\"南京西路1168号中信泰富广场，店铺号221.\r\n\""},{"poiid":"B2094757D06FA0FD489E","title":"南京西路","lon":"121.45435","lat":"31.22661","category":"260","category_name":"其他","address":"静安区南京西路(南京西路西康路)"},{"poiid":"B2094655D269A4F9499A","title":"泰厨","lon":"121.454576054","lat":"31.223437793","category":"99","category_name":"泰国／越南菜品餐厅","address":"静安区延安中路841号东方海外大厦1楼(近陕西南路)"},{"poiid":"B2094757D068A1FE479F","title":"桃花源小厨(恒隆店)","lon":"121.4545385754036","lat":"31.227524079570962","category":"72","category_name":"广东菜","address":"上海市静安区南京西路1266号恒隆广场5楼"},{"poiid":"B2094757D06FA2F54598","title":"梅园村酒家(静安店)","lon":"121.45489","lat":"31.223","category":"76","category_name":"上海菜","address":"静安区延安中路841号(近陕西南路)"},{"poiid":"B2094757D06FA3FD409F","title":"屋企港式茶餐厅","lon":"121.45508","lat":"31.22628","category":"72","category_name":"广东菜","address":"静安区南京西路1213弄内(恒隆广场对面)"},{"poiid":"B2094757D06AAAF54692","title":"上海展览中心中央大厅","lon":"121.45311058","lat":"31.224167312","category":"500","category_name":"未知分类","address":"上海市静安区延安中路1000号"},{"poiid":"B2094757D06FA7FC439D","title":"美新点心店","lon":"121.45626446","lat":"31.22563169","category":"68","category_name":"快餐厅","address":"静安区陕西北路105号(近威海路)"},{"poiid":"B2094757D06FA6FF4892","title":"科恩国际中心","lon":"121.45694732","lat":"31.224573135","category":"46","category_name":"楼宇","address":"人民路885号-889号"},{"poiid":"B2094654DA6CA1FA489C","title":"上海民主党派大厦","lon":"121.45629","lat":"31.22603","category":"46","category_name":"楼宇","address":"上海市静安区陕西北路128号"},{"poiid":"B2094757D069A3FC409E","title":"锦沧文华大酒店宴会厅","lon":"121.45396","lat":"31.22653","category":"217","category_name":"旅馆招待所","address":"静安区南京西路1225号锦沧文华大酒店内(近西康路)查看地图"},{"poiid":"B2094757D06FA3F44792","title":"ZARA(南京西路店)","lon":"121.45491766","lat":"31.227113854","category":"141","category_name":"服装鞋帽皮具店","address":"静安区南京西路1201号(近陕西北路)"},{"poiid":"B2094757D06BA5F9459C","title":"申汇轩(陕西北路店)","lon":"121.45674","lat":"31.22552","category":"76","category_name":"上海菜","address":"静安区陕西北路128号民主党派大厦裙楼1-2楼(近威海路)"},{"poiid":"B2094757D06FA7FF4898","title":"吉惠日式料理(江宁路店)","lon":"121.45468873","lat":"31.227172234","category":"95","category_name":"日本料理","address":"上海市静安区江宁路77号三楼"},{"poiid":"B2094757D06AA7FF449C","title":"巨鹿大厦","lon":"121.454","lat":"31.224","category":"46","category_name":"楼宇","address":"上海市奉贤区环城东路455,465弄"},{"poiid":"B2094757D06AA3F9439F","title":"梅亭","lon":"121.45426178","lat":"31.2232208252","category":"86","category_name":"火锅店","address":"静安区延安中路841号东方海外大厦1楼(近铜仁路)"},{"poiid":"B2094757D469A1F5489D","title":"紫云庭 TATLER'S RESTAURANT","lon":"121.454799781","lat":"31.226518517509","category":"47","category_name":"住宅区","address":"静安区南京西路1225号锦沧文华大酒店1楼(近西康路)"},{"poiid":"B2094757D064A4FD449A","title":"和良日式造型(威海)","lon":"121.456196738","lat":"31.2254711987","category":"148","category_name":"美容美发店","address":"上海威海路840号"},{"poiid":"B2094757D064A5F8419D","title":"森下创作料理","lon":"121.456423738","lat":"31.2258492067","category":"76","category_name":"上海菜","address":"静安区南京西路1025弄静安别墅123号(近吴江路)"},{"poiid":"B2094757D06AA5F4489E","title":"hoF Chocolate Boutique","lon":"121.452895841","lat":"31.2257887267","category":"67","category_name":"甜品店","address":"静安区南京西路1357号波特曼大酒店117室(近西康路)"},{"poiid":"B2094757D46FA0F4439C","title":"鹤舞 恒隆广场店","lon":"121.454537","lat":"31.227248","category":"95","category_name":"日本料理","address":"静安区南京西路1266号上海恒隆广场5楼(近陕西北路)"},{"poiid":"B2094757D06AA3FD499C","title":"澳门豆捞坊","lon":"121.45491273","lat":"31.223712161","category":"86","category_name":"火锅店","address":"静安区延安中路817号(近陕西南路)"},{"poiid":"B2094654DA6CA0FD499D","title":"上海展览中心(1号门)","lon":"121.45465","lat":"31.22404","category":"183","category_name":"展览馆","address":"延安中路1000-1"},{"poiid":"B2094757D06BA4F8499C","title":"榄香","lon":"121.45519373","lat":"31.226518221","category":"247","category_name":"餐饮美食","address":"上海金鹰"},{"poiid":"B2094655D26DAAFD459D","title":"彩蝶轩","lon":"121.45441","lat":"31.22758","category":"257","category_name":"中餐厅","address":"静安区南京西路1266号恒隆广场5楼(近陕西北路)"},{"poiid":"B2094757D165A4FC4593","title":"C'N'C中信泰富","lon":"121.456299738","lat":"31.2253271956","category":"500","category_name":"未知分类","address":"上海南京西路1168号地下一层LG09"},{"poiid":"B2094757D465A0F44692","title":"锦沧文华锦华宫","lon":"121.454799781","lat":"31.226518517509","category":"72","category_name":"广东菜","address":"静安区南京西路1225号锦沧文华大酒店3楼(近西康路)"},{"poiid":"B2094757D068A4F44998","title":"静安书友汇","lon":"121.45586","lat":"31.22468","category":"260","category_name":"其他","address":"静安区威海路870号(近延安中路)"},{"poiid":"B2094654DA6CA0F8429B","title":"小实惠","lon":"121.456031054","lat":"31.224860793","category":"76","category_name":"上海菜","address":"静安区威海路855号(近陕西北路)"},{"poiid":"B2094757DB64A3FD449E","title":"瑞尔齿科（恒隆广场店）","lon":"121.454","lat":"31.2274","category":"162","category_name":"医院","address":"静安区南京西路1266号恒隆广场512室"},{"poiid":"B2094757D068A3FC419E","title":"PRADA(南京西路店)","lon":"121.454247321","lat":"31.2274819474","category":"141","category_name":"服装鞋帽皮具店","address":"静安区南京西路1266号恒隆广场1-2楼(近陕西北路)"},{"poiid":"B209475DD26CA0F8449C","title":"Calypso","lon":"121.453918","lat":"31.22359","category":"500","category_name":"未知分类","address":"上海市 铜仁路近安义路，静安嘉里中心南区广场(铜仁路近安义路)"},{"poiid":"B2094757D064ABFF449E","title":"静安广场","lon":"121.454","lat":"31.2237","category":"500","category_name":"未知分类","address":"铁西兴华南街与十马路交汇处"},{"poiid":"B2094654DB65A6FB409A","title":"蔡元培故居","lon":"121.453","lat":"31.2251","category":"250","category_name":"公园户外","address":"静安区华山路303弄16号(希尔顿饭店斜对面)"},{"poiid":"B2094757D164A4FD4793","title":"甜蜜蜜威海路店","lon":"121.45572353","lat":"31.223760362","category":"67","category_name":"甜品店","address":"静安区威海路906号"},{"poiid":"B2094750D26FA4FE429B","title":"starbucks","lon":"121.456367","lat":"31.225322","category":"247","category_name":"餐饮美食","address":"中兴泰富"},{"poiid":"B2094757D068ABF9479F","title":"上海第二工业大学(静安分校)","lon":"121.45706","lat":"31.22502","category":"52","category_name":"高等院校","address":"静安区陕西北路80号(威海路口)"},{"poiid":"B2094654DA6CA0FD499C","title":"上海展览中心(2号门)","lon":"121.45379","lat":"31.22367","category":"183","category_name":"展览馆","address":""},{"poiid":"B2094757D06AA5F9499A","title":"波特曼嘉丽Table自助餐厅","lon":"121.45688829","lat":"31.224855074","category":"500","category_name":"未知分类","address":"上海商城"},{"poiid":"B2094654DA6CA0FC4598","title":"上海展览中心(9号门)","lon":"121.4533","lat":"31.22675","category":"183","category_name":"展览馆","address":""},{"poiid":"B2094757D064A2F5489C","title":"巨鹿花园","lon":"121.45431097194","lat":"31.224497813904","category":"47","category_name":"住宅区","address":"上海巨鹿路889"},{"poiid":"B2094757D464A7FC4792","title":"alfie's by KEE","lon":"121.453506054","lat":"31.227113793","category":"247","category_name":"餐饮美食","address":"南京西路1266号恒隆广场111A室近陕西北路"},{"poiid":"B2094750D66DA6FE489E","title":"金钱豹国际自助餐厅","lon":"121.456871","lat":"31.225461","category":"247","category_name":"餐饮美食","address":null},{"poiid":"B2094655D36CA2FB4899","title":"陕西北路","lon":"121.45385","lat":"31.22708","category":"38","category_name":"公交车站","address":""},{"poiid":"B2094750D669AAFF499C","title":"上海书展","lon":"121.454536","lat":"31.223281","category":"500","category_name":"未知分类","address":null},{"poiid":"B2094654DA6CA0FD499E","title":"上海展览中心","lon":"121.45289","lat":"31.22459","category":"183","category_name":"展览馆","address":"静安区延安中路1000号(近铜仁路)"},{"poiid":"B2094757D068A4FF419C","title":"梅陇镇广场","lon":"121.456631071","lat":"31.2264992206","category":"119","category_name":"商场","address":"松江区荣乐东路1133弄"},{"poiid":"B2094655D26FA7FA4199","title":"上海锦沧文华大酒店","lon":"121.45378","lat":"31.22667","category":"213","category_name":"五星级宾馆","address":"静安区南京西路1225号(近西康路)"},{"poiid":"B2094753D76FAAFA449C","title":"上海滩国泰旗舰店","lon":"121.466011","lat":"31.216125","category":"249","category_name":"购物服务","address":"淮海中路868号"},{"poiid":"B209475CD564A7F84292","title":"上海滩新天地店","lon":"121.47463","lat":"31.22164","category":"119","category_name":"商场","address":"\"太仓路181弄新天地北里15号\r\n\""},{"poiid":"B209475CD564A7F8439E","title":"上海滩中信泰富店","lon":"121.45602","lat":"31.22851","category":"119","category_name":"商场","address":"\"南京西路1168号中信泰富广场，店铺号221.\r\n\""},{"poiid":"B2094757D06FA0FD489E","title":"南京西路","lon":"121.45435","lat":"31.22661","category":"260","category_name":"其他","address":"静安区南京西路(南京西路西康路)"},{"poiid":"B2094655D269A4F9499A","title":"泰厨","lon":"121.454576054","lat":"31.223437793","category":"99","category_name":"泰国／越南菜品餐厅","address":"静安区延安中路841号东方海外大厦1楼(近陕西南路)"},{"poiid":"B2094757D068A1FE479F","title":"桃花源小厨(恒隆店)","lon":"121.4545385754036","lat":"31.227524079570962","category":"72","category_name":"广东菜","address":"上海市静安区南京西路1266号恒隆广场5楼"},{"poiid":"B2094757D06FA2F54598","title":"梅园村酒家(静安店)","lon":"121.45489","lat":"31.223","category":"76","category_name":"上海菜","address":"静安区延安中路841号(近陕西南路)"},{"poiid":"B2094757D06FA3FD409F","title":"屋企港式茶餐厅","lon":"121.45508","lat":"31.22628","category":"72","category_name":"广东菜","address":"静安区南京西路1213弄内(恒隆广场对面)"},{"poiid":"B2094757D06AAAF54692","title":"上海展览中心中央大厅","lon":"121.45311058","lat":"31.224167312","category":"500","category_name":"未知分类","address":"上海市静安区延安中路1000号"},{"poiid":"B2094757D06FA7FC439D","title":"美新点心店","lon":"121.45626446","lat":"31.22563169","category":"68","category_name":"快餐厅","address":"静安区陕西北路105号(近威海路)"},{"poiid":"B2094757D06FA6FF4892","title":"科恩国际中心","lon":"121.45694732","lat":"31.224573135","category":"46","category_name":"楼宇","address":"人民路885号-889号"},{"poiid":"B2094654DA6CA1FA489C","title":"上海民主党派大厦","lon":"121.45629","lat":"31.22603","category":"46","category_name":"楼宇","address":"上海市静安区陕西北路128号"},{"poiid":"B2094757D069A3FC409E","title":"锦沧文华大酒店宴会厅","lon":"121.45396","lat":"31.22653","category":"217","category_name":"旅馆招待所","address":"静安区南京西路1225号锦沧文华大酒店内(近西康路)查看地图"},{"poiid":"B2094757D06FA3F44792","title":"ZARA(南京西路店)","lon":"121.45491766","lat":"31.227113854","category":"141","category_name":"服装鞋帽皮具店","address":"静安区南京西路1201号(近陕西北路)"},{"poiid":"B2094757D06BA5F9459C","title":"申汇轩(陕西北路店)","lon":"121.45674","lat":"31.22552","category":"76","category_name":"上海菜","address":"静安区陕西北路128号民主党派大厦裙楼1-2楼(近威海路)"},{"poiid":"B2094757D06FA7FF4898","title":"吉惠日式料理(江宁路店)","lon":"121.45468873","lat":"31.227172234","category":"95","category_name":"日本料理","address":"上海市静安区江宁路77号三楼"},{"poiid":"B2094757D06AA7FF449C","title":"巨鹿大厦","lon":"121.454","lat":"31.224","category":"46","category_name":"楼宇","address":"上海市奉贤区环城东路455,465弄"},{"poiid":"B2094757D06AA3F9439F","title":"梅亭","lon":"121.45426178","lat":"31.2232208252","category":"86","category_name":"火锅店","address":"静安区延安中路841号东方海外大厦1楼(近铜仁路)"},{"poiid":"B2094757D469A1F5489D","title":"紫云庭 TATLER'S RESTAURANT","lon":"121.454799781","lat":"31.226518517509","category":"47","category_name":"住宅区","address":"静安区南京西路1225号锦沧文华大酒店1楼(近西康路)"},{"poiid":"B2094757D064A4FD449A","title":"和良日式造型(威海)","lon":"121.456196738","lat":"31.2254711987","category":"148","category_name":"美容美发店","address":"上海威海路840号"},{"poiid":"B2094757D064A5F8419D","title":"森下创作料理","lon":"121.456423738","lat":"31.2258492067","category":"76","category_name":"上海菜","address":"静安区南京西路1025弄静安别墅123号(近吴江路)"},{"poiid":"B2094757D06AA5F4489E","title":"hoF Chocolate Boutique","lon":"121.452895841","lat":"31.2257887267","category":"67","category_name":"甜品店","address":"静安区南京西路1357号波特曼大酒店117室(近西康路)"},{"poiid":"B2094757D46FA0F4439C","title":"鹤舞 恒隆广场店","lon":"121.454537","lat":"31.227248","category":"95","category_name":"日本料理","address":"静安区南京西路1266号上海恒隆广场5楼(近陕西北路)"},{"poiid":"B2094757D06AA3FD499C","title":"澳门豆捞坊","lon":"121.45491273","lat":"31.223712161","category":"86","category_name":"火锅店","address":"静安区延安中路817号(近陕西南路)"},{"poiid":"B2094654DA6CA0FD499D","title":"上海展览中心(1号门)","lon":"121.45465","lat":"31.22404","category":"183","category_name":"展览馆","address":"延安中路1000-1"},{"poiid":"B2094757D06BA4F8499C","title":"榄香","lon":"121.45519373","lat":"31.226518221","category":"247","category_name":"餐饮美食","address":"上海金鹰"},{"poiid":"B2094655D26DAAFD459D","title":"彩蝶轩","lon":"121.45441","lat":"31.22758","category":"257","category_name":"中餐厅","address":"静安区南京西路1266号恒隆广场5楼(近陕西北路)"},{"poiid":"B2094757D165A4FC4593","title":"C'N'C中信泰富","lon":"121.456299738","lat":"31.2253271956","category":"500","category_name":"未知分类","address":"上海南京西路1168号地下一层LG09"},{"poiid":"B2094757D465A0F44692","title":"锦沧文华锦华宫","lon":"121.454799781","lat":"31.226518517509","category":"72","category_name":"广东菜","address":"静安区南京西路1225号锦沧文华大酒店3楼(近西康路)"},{"poiid":"B2094757D068A4F44998","title":"静安书友汇","lon":"121.45586","lat":"31.22468","category":"260","category_name":"其他","address":"静安区威海路870号(近延安中路)"},{"poiid":"B2094654DA6CA0F8429B","title":"小实惠","lon":"121.456031054","lat":"31.224860793","category":"76","category_name":"上海菜","address":"静安区威海路855号(近陕西北路)"},{"poiid":"B2094757DB64A3FD449E","title":"瑞尔齿科（恒隆广场店）","lon":"121.454","lat":"31.2274","category":"162","category_name":"医院","address":"静安区南京西路1266号恒隆广场512室"},{"poiid":"B2094757D068A3FC419E","title":"PRADA(南京西路店)","lon":"121.454247321","lat":"31.2274819474","category":"141","category_name":"服装鞋帽皮具店","address":"静安区南京西路1266号恒隆广场1-2楼(近陕西北路)"},{"poiid":"B209475DD26CA0F8449C","title":"Calypso","lon":"121.453918","lat":"31.22359","category":"500","category_name":"未知分类","address":"上海市 铜仁路近安义路，静安嘉里中心南区广场(铜仁路近安义路)"},{"poiid":"B2094757D064ABFF449E","title":"静安广场","lon":"121.454","lat":"31.2237","category":"500","category_name":"未知分类","address":"铁西兴华南街与十马路交汇处"},{"poiid":"B2094654DB65A6FB409A","title":"蔡元培故居","lon":"121.453","lat":"31.2251","category":"250","category_name":"公园户外","address":"静安区华山路303弄16号(希尔顿饭店斜对面)"},{"poiid":"B2094757D164A4FD4793","title":"甜蜜蜜威海路店","lon":"121.45572353","lat":"31.223760362","category":"67","category_name":"甜品店","address":"静安区威海路906号"},{"poiid":"B2094750D26FA4FE429B","title":"starbucks","lon":"121.456367","lat":"31.225322","category":"247","category_name":"餐饮美食","address":"中兴泰富"},{"poiid":"B2094757D068ABF9479F","title":"上海第二工业大学(静安分校)","lon":"121.45706","lat":"31.22502","category":"52","category_name":"高等院校","address":"静安区陕西北路80号(威海路口)"},{"poiid":"B2094654DA6CA0FD499C","title":"上海展览中心(2号门)","lon":"121.45379","lat":"31.22367","category":"183","category_name":"展览馆","address":""},{"poiid":"B2094757D06AA5F9499A","title":"波特曼嘉丽Table自助餐厅","lon":"121.45688829","lat":"31.224855074","category":"500","category_name":"未知分类","address":"上海商城"},{"poiid":"B2094654DA6CA0FC4598","title":"上海展览中心(9号门)","lon":"121.4533","lat":"31.22675","category":"183","category_name":"展览馆","address":""},{"poiid":"B2094757D064A2F5489C","title":"巨鹿花园","lon":"121.45431097194","lat":"31.224497813904","category":"47","category_name":"住宅区","address":"上海巨鹿路889"},{"poiid":"B2094757D464A7FC4792","title":"alfie's by KEE","lon":"121.453506054","lat":"31.227113793","category":"247","category_name":"餐饮美食","address":"南京西路1266号恒隆广场111A室近陕西北路"},{"poiid":"B2094750D66DA6FE489E","title":"金钱豹国际自助餐厅","lon":"121.456871","lat":"31.225461","category":"247","category_name":"餐饮美食","address":null},{"poiid":"B2094655D36CA2FB4899","title":"陕西北路","lon":"121.45385","lat":"31.22708","category":"38","category_name":"公交车站","address":""},{"poiid":"B2094750D669AAFF499C","title":"上海书展","lon":"121.454536","lat":"31.223281","category":"500","category_name":"未知分类","address":null},{"poiid":"B2094654DA6CA0FD499E","title":"上海展览中心","lon":"121.45289","lat":"31.22459","category":"183","category_name":"展览馆","address":"静安区延安中路1000号(近铜仁路)"},{"poiid":"B2094757D068A4FF419C","title":"梅陇镇广场","lon":"121.456631071","lat":"31.2264992206","category":"119","category_name":"商场","address":"松江区荣乐东路1133弄"},{"poiid":"B2094655D26FA7FA4199","title":"上海锦沧文华大酒店","lon":"121.45378","lat":"31.22667","category":"213","category_name":"五星级宾馆","address":"静安区南京西路1225号(近西康路)"},{"poiid":"B2094753D76FAAFA449C","title":"上海滩国泰旗舰店","lon":"121.466011","lat":"31.216125","category":"249","category_name":"购物服务","address":"淮海中路868号"},{"poiid":"B209475CD564A7F84292","title":"上海滩新天地店","lon":"121.47463","lat":"31.22164","category":"119","category_name":"商场","address":"\"太仓路181弄新天地北里15号\r\n\""},{"poiid":"B209475CD564A7F8439E","title":"上海滩中信泰富店","lon":"121.45602","lat":"31.22851","category":"119","category_name":"商场","address":"\"南京西路1168号中信泰富广场，店铺号221.\r\n\""},{"poiid":"B2094757D06FA0FD489E","title":"南京西路","lon":"121.45435","lat":"31.22661","category":"260","category_name":"其他","address":"静安区南京西路(南京西路西康路)"},{"poiid":"B2094655D269A4F9499A","title":"泰厨","lon":"121.454576054","lat":"31.223437793","category":"99","category_name":"泰国／越南菜品餐厅","address":"静安区延安中路841号东方海外大厦1楼(近陕西南路)"},{"poiid":"B2094757D068A1FE479F","title":"桃花源小厨(恒隆店)","lon":"121.4545385754036","lat":"31.227524079570962","category":"72","category_name":"广东菜","address":"上海市静安区南京西路1266号恒隆广场5楼"},{"poiid":"B2094757D06FA2F54598","title":"梅园村酒家(静安店)","lon":"121.45489","lat":"31.223","category":"76","category_name":"上海菜","address":"静安区延安中路841号(近陕西南路)"},{"poiid":"B2094757D06FA3FD409F","title":"屋企港式茶餐厅","lon":"121.45508","lat":"31.22628","category":"72","category_name":"广东菜","address":"静安区南京西路1213弄内(恒隆广场对面)"},{"poiid":"B2094757D06AAAF54692","title":"上海展览中心中央大厅","lon":"121.45311058","lat":"31.224167312","category":"500","category_name":"未知分类","address":"上海市静安区延安中路1000号"},{"poiid":"B2094757D06FA7FC439D","title":"美新点心店","lon":"121.45626446","lat":"31.22563169","category":"68","category_name":"快餐厅","address":"静安区陕西北路105号(近威海路)"},{"poiid":"B2094757D06FA6FF4892","title":"科恩国际中心","lon":"121.45694732","lat":"31.224573135","category":"46","category_name":"楼宇","address":"人民路885号-889号"},{"poiid":"B2094654DA6CA1FA489C","title":"上海民主党派大厦","lon":"121.45629","lat":"31.22603","category":"46","category_name":"楼宇","address":"上海市静安区陕西北路128号"},{"poiid":"B2094757D069A3FC409E","title":"锦沧文华大酒店宴会厅","lon":"121.45396","lat":"31.22653","category":"217","category_name":"旅馆招待所","address":"静安区南京西路1225号锦沧文华大酒店内(近西康路)查看地图"},{"poiid":"B2094757D06FA3F44792","title":"ZARA(南京西路店)","lon":"121.45491766","lat":"31.227113854","category":"141","category_name":"服装鞋帽皮具店","address":"静安区南京西路1201号(近陕西北路)"},{"poiid":"B2094757D06BA5F9459C","title":"申汇轩(陕西北路店)","lon":"121.45674","lat":"31.22552","category":"76","category_name":"上海菜","address":"静安区陕西北路128号民主党派大厦裙楼1-2楼(近威海路)"},{"poiid":"B2094757D06FA7FF4898","title":"吉惠日式料理(江宁路店)","lon":"121.45468873","lat":"31.227172234","category":"95","category_name":"日本料理","address":"上海市静安区江宁路77号三楼"},{"poiid":"B2094757D06AA7FF449C","title":"巨鹿大厦","lon":"121.454","lat":"31.224","category":"46","category_name":"楼宇","address":"上海市奉贤区环城东路455,465弄"},{"poiid":"B2094757D06AA3F9439F","title":"梅亭","lon":"121.45426178","lat":"31.2232208252","category":"86","category_name":"火锅店","address":"静安区延安中路841号东方海外大厦1楼(近铜仁路)"},{"poiid":"B2094757D469A1F5489D","title":"紫云庭 TATLER'S RESTAURANT","lon":"121.454799781","lat":"31.226518517509","category":"47","category_name":"住宅区","address":"静安区南京西路1225号锦沧文华大酒店1楼(近西康路)"},{"poiid":"B2094757D064A4FD449A","title":"和良日式造型(威海)","lon":"121.456196738","lat":"31.2254711987","category":"148","category_name":"美容美发店","address":"上海威海路840号"},{"poiid":"B2094757D064A5F8419D","title":"森下创作料理","lon":"121.456423738","lat":"31.2258492067","category":"76","category_name":"上海菜","address":"静安区南京西路1025弄静安别墅123号(近吴江路)"},{"poiid":"B2094757D06AA5F4489E","title":"hoF Chocolate Boutique","lon":"121.452895841","lat":"31.2257887267","category":"67","category_name":"甜品店","address":"静安区南京西路1357号波特曼大酒店117室(近西康路)"},{"poiid":"B2094757D46FA0F4439C","title":"鹤舞 恒隆广场店","lon":"121.454537","lat":"31.227248","category":"95","category_name":"日本料理","address":"静安区南京西路1266号上海恒隆广场5楼(近陕西北路)"},{"poiid":"B2094757D06AA3FD499C","title":"澳门豆捞坊","lon":"121.45491273","lat":"31.223712161","category":"86","category_name":"火锅店","address":"静安区延安中路817号(近陕西南路)"},{"poiid":"B2094654DA6CA0FD499D","title":"上海展览中心(1号门)","lon":"121.45465","lat":"31.22404","category":"183","category_name":"展览馆","address":"延安中路1000-1"},{"poiid":"B2094757D06BA4F8499C","title":"榄香","lon":"121.45519373","lat":"31.226518221","category":"247","category_name":"餐饮美食","address":"上海金鹰"},{"poiid":"B2094655D26DAAFD459D","title":"彩蝶轩","lon":"121.45441","lat":"31.22758","category":"257","category_name":"中餐厅","address":"静安区南京西路1266号恒隆广场5楼(近陕西北路)"},{"poiid":"B2094757D165A4FC4593","title":"C'N'C中信泰富","lon":"121.456299738","lat":"31.2253271956","category":"500","category_name":"未知分类","address":"上海南京西路1168号地下一层LG09"},{"poiid":"B2094757D465A0F44692","title":"锦沧文华锦华宫","lon":"121.454799781","lat":"31.226518517509","category":"72","category_name":"广东菜","address":"静安区南京西路1225号锦沧文华大酒店3楼(近西康路)"},{"poiid":"B2094757D068A4F44998","title":"静安书友汇","lon":"121.45586","lat":"31.22468","category":"260","category_name":"其他","address":"静安区威海路870号(近延安中路)"},{"poiid":"B2094654DA6CA0F8429B","title":"小实惠","lon":"121.456031054","lat":"31.224860793","category":"76","category_name":"上海菜","address":"静安区威海路855号(近陕西北路)"},{"poiid":"B2094757DB64A3FD449E","title":"瑞尔齿科（恒隆广场店）","lon":"121.454","lat":"31.2274","category":"162","category_name":"医院","address":"静安区南京西路1266号恒隆广场512室"},{"poiid":"B2094757D068A3FC419E","title":"PRADA(南京西路店)","lon":"121.454247321","lat":"31.2274819474","category":"141","category_name":"服装鞋帽皮具店","address":"静安区南京西路1266号恒隆广场1-2楼(近陕西北路)"},{"poiid":"B209475DD26CA0F8449C","title":"Calypso","lon":"121.453918","lat":"31.22359","category":"500","category_name":"未知分类","address":"上海市 铜仁路近安义路，静安嘉里中心南区广场(铜仁路近安义路)"},{"poiid":"B2094757D064ABFF449E","title":"静安广场","lon":"121.454","lat":"31.2237","category":"500","category_name":"未知分类","address":"铁西兴华南街与十马路交汇处"},{"poiid":"B2094654DB65A6FB409A","title":"蔡元培故居","lon":"121.453","lat":"31.2251","category":"250","category_name":"公园户外","address":"静安区华山路303弄16号(希尔顿饭店斜对面)"},{"poiid":"B2094757D164A4FD4793","title":"甜蜜蜜威海路店","lon":"121.45572353","lat":"31.223760362","category":"67","category_name":"甜品店","address":"静安区威海路906号"},{"poiid":"B2094750D26FA4FE429B","title":"starbucks","lon":"121.456367","lat":"31.225322","category":"247","category_name":"餐饮美食","address":"中兴泰富"},{"poiid":"B2094757D068ABF9479F","title":"上海第二工业大学(静安分校)","lon":"121.45706","lat":"31.22502","category":"52","category_name":"高等院校","address":"静安区陕西北路80号(威海路口)"},{"poiid":"B2094654DA6CA0FD499C","title":"上海展览中心(2号门)","lon":"121.45379","lat":"31.22367","category":"183","category_name":"展览馆","address":""},{"poiid":"B2094757D06AA5F9499A","title":"波特曼嘉丽Table自助餐厅","lon":"121.45688829","lat":"31.224855074","category":"500","category_name":"未知分类","address":"上海商城"},{"poiid":"B2094654DA6CA0FC4598","title":"上海展览中心(9号门)","lon":"121.4533","lat":"31.22675","category":"183","category_name":"展览馆","address":""},{"poiid":"B2094757D064A2F5489C","title":"巨鹿花园","lon":"121.45431097194","lat":"31.224497813904","category":"47","category_name":"住宅区","address":"上海巨鹿路889"},{"poiid":"B2094757D464A7FC4792","title":"alfie's by KEE","lon":"121.453506054","lat":"31.227113793","category":"247","category_name":"餐饮美食","address":"南京西路1266号恒隆广场111A室近陕西北路"},{"poiid":"B2094750D66DA6FE489E","title":"金钱豹国际自助餐厅","lon":"121.456871","lat":"31.225461","category":"247","category_name":"餐饮美食","address":null},{"poiid":"B2094655D36CA2FB4899","title":"陕西北路","lon":"121.45385","lat":"31.22708","category":"38","category_name":"公交车站","address":""},{"poiid":"B2094750D669AAFF499C","title":"上海书展","lon":"121.454536","lat":"31.223281","category":"500","category_name":"未知分类","address":null},{"poiid":"B2094654DA6CA0FD499E","title":"上海展览中心","lon":"121.45289","lat":"31.22459","category":"183","category_name":"展览馆","address":"静安区延安中路1000号(近铜仁路)"},{"poiid":"B2094757D068A4FF419C","title":"梅陇镇广场","lon":"121.456631071","lat":"31.2264992206","category":"119","category_name":"商场","address":"松江区荣乐东路1133弄"},{"poiid":"B2094655D26FA7FA4199","title":"上海锦沧文华大酒店","lon":"121.45378","lat":"31.22667","category":"213","category_name":"五星级宾馆","address":"静安区南京西路1225号(近西康路)"},{"poiid":"B2094753D76FAAFA449C","title":"上海滩国泰旗舰店","lon":"121.466011","lat":"31.216125","category":"249","category_name":"购物服务","address":"淮海中路868号"},{"poiid":"B209475CD564A7F84292","title":"上海滩新天地店","lon":"121.47463","lat":"31.22164","category":"119","category_name":"商场","address":"\"太仓路181弄新天地北里15号\r\n\""},{"poiid":"B209475CD564A7F8439E","title":"上海滩中信泰富店","lon":"121.45602","lat":"31.22851","category":"119","category_name":"商场","address":"\"南京西路1168号中信泰富广场，店铺号221.\r\n\""},{"poiid":"B2094757D06FA0FD489E","title":"南京西路","lon":"121.45435","lat":"31.22661","category":"260","category_name":"其他","address":"静安区南京西路(南京西路西康路)"},{"poiid":"B2094655D269A4F9499A","title":"泰厨","lon":"121.454576054","lat":"31.223437793","category":"99","category_name":"泰国／越南菜品餐厅","address":"静安区延安中路841号东方海外大厦1楼(近陕西南路)"},{"poiid":"B2094757D068A1FE479F","title":"桃花源小厨(恒隆店)","lon":"121.4545385754036","lat":"31.227524079570962","category":"72","category_name":"广东菜","address":"上海市静安区南京西路1266号恒隆广场5楼"},{"poiid":"B2094757D06FA2F54598","title":"梅园村酒家(静安店)","lon":"121.45489","lat":"31.223","category":"76","category_name":"上海菜","address":"静安区延安中路841号(近陕西南路)"},{"poiid":"B2094757D06FA3FD409F","title":"屋企港式茶餐厅","lon":"121.45508","lat":"31.22628","category":"72","category_name":"广东菜","address":"静安区南京西路1213弄内(恒隆广场对面)"},{"poiid":"B2094757D06AAAF54692","title":"上海展览中心中央大厅","lon":"121.45311058","lat":"31.224167312","category":"500","category_name":"未知分类","address":"上海市静安区延安中路1000号"},{"poiid":"B2094757D06FA7FC439D","title":"美新点心店","lon":"121.45626446","lat":"31.22563169","category":"68","category_name":"快餐厅","address":"静安区陕西北路105号(近威海路)"},{"poiid":"B2094757D06FA6FF4892","title":"科恩国际中心","lon":"121.45694732","lat":"31.224573135","category":"46","category_name":"楼宇","address":"人民路885号-889号"},{"poiid":"B2094654DA6CA1FA489C","title":"上海民主党派大厦","lon":"121.45629","lat":"31.22603","category":"46","category_name":"楼宇","address":"上海市静安区陕西北路128号"},{"poiid":"B2094757D069A3FC409E","title":"锦沧文华大酒店宴会厅","lon":"121.45396","lat":"31.22653","category":"217","category_name":"旅馆招待所","address":"静安区南京西路1225号锦沧文华大酒店内(近西康路)查看地图"},{"poiid":"B2094757D06FA3F44792","title":"ZARA(南京西路店)","lon":"121.45491766","lat":"31.227113854","category":"141","category_name":"服装鞋帽皮具店","address":"静安区南京西路1201号(近陕西北路)"},{"poiid":"B2094757D06BA5F9459C","title":"申汇轩(陕西北路店)","lon":"121.45674","lat":"31.22552","category":"76","category_name":"上海菜","address":"静安区陕西北路128号民主党派大厦裙楼1-2楼(近威海路)"},{"poiid":"B2094757D06FA7FF4898","title":"吉惠日式料理(江宁路店)","lon":"121.45468873","lat":"31.227172234","category":"95","category_name":"日本料理","address":"上海市静安区江宁路77号三楼"},{"poiid":"B2094757D06AA7FF449C","title":"巨鹿大厦","lon":"121.454","lat":"31.224","category":"46","category_name":"楼宇","address":"上海市奉贤区环城东路455,465弄"},{"poiid":"B2094757D06AA3F9439F","title":"梅亭","lon":"121.45426178","lat":"31.2232208252","category":"86","category_name":"火锅店","address":"静安区延安中路841号东方海外大厦1楼(近铜仁路)"},{"poiid":"B2094757D469A1F5489D","title":"紫云庭 TATLER'S RESTAURANT","lon":"121.454799781","lat":"31.226518517509","category":"47","category_name":"住宅区","address":"静安区南京西路1225号锦沧文华大酒店1楼(近西康路)"},{"poiid":"B2094757D064A4FD449A","title":"和良日式造型(威海)","lon":"121.456196738","lat":"31.2254711987","category":"148","category_name":"美容美发店","address":"上海威海路840号"},{"poiid":"B2094757D064A5F8419D","title":"森下创作料理","lon":"121.456423738","lat":"31.2258492067","category":"76","category_name":"上海菜","address":"静安区南京西路1025弄静安别墅123号(近吴江路)"},{"poiid":"B2094757D06AA5F4489E","title":"hoF Chocolate Boutique","lon":"121.452895841","lat":"31.2257887267","category":"67","category_name":"甜品店","address":"静安区南京西路1357号波特曼大酒店117室(近西康路)"},{"poiid":"B2094757D46FA0F4439C","title":"鹤舞 恒隆广场店","lon":"121.454537","lat":"31.227248","category":"95","category_name":"日本料理","address":"静安区南京西路1266号上海恒隆广场5楼(近陕西北路)"},{"poiid":"B2094757D06AA3FD499C","title":"澳门豆捞坊","lon":"121.45491273","lat":"31.223712161","category":"86","category_name":"火锅店","address":"静安区延安中路817号(近陕西南路)"},{"poiid":"B2094654DA6CA0FD499D","title":"上海展览中心(1号门)","lon":"121.45465","lat":"31.22404","category":"183","category_name":"展览馆","address":"延安中路1000-1"},{"poiid":"B2094757D06BA4F8499C","title":"榄香","lon":"121.45519373","lat":"31.226518221","category":"247","category_name":"餐饮美食","address":"上海金鹰"},{"poiid":"B2094655D26DAAFD459D","title":"彩蝶轩","lon":"121.45441","lat":"31.22758","category":"257","category_name":"中餐厅","address":"静安区南京西路1266号恒隆广场5楼(近陕西北路)"},{"poiid":"B2094757D165A4FC4593","title":"C'N'C中信泰富","lon":"121.456299738","lat":"31.2253271956","category":"500","category_name":"未知分类","address":"上海南京西路1168号地下一层LG09"},{"poiid":"B2094757D465A0F44692","title":"锦沧文华锦华宫","lon":"121.454799781","lat":"31.226518517509","category":"72","category_name":"广东菜","address":"静安区南京西路1225号锦沧文华大酒店3楼(近西康路)"},{"poiid":"B2094757D068A4F44998","title":"静安书友汇","lon":"121.45586","lat":"31.22468","category":"260","category_name":"其他","address":"静安区威海路870号(近延安中路)"},{"poiid":"B2094654DA6CA0F8429B","title":"小实惠","lon":"121.456031054","lat":"31.224860793","category":"76","category_name":"上海菜","address":"静安区威海路855号(近陕西北路)"},{"poiid":"B2094757DB64A3FD449E","title":"瑞尔齿科（恒隆广场店）","lon":"121.454","lat":"31.2274","category":"162","category_name":"医院","address":"静安区南京西路1266号恒隆广场512室"},{"poiid":"B2094757D068A3FC419E","title":"PRADA(南京西路店)","lon":"121.454247321","lat":"31.2274819474","category":"141","category_name":"服装鞋帽皮具店","address":"静安区南京西路1266号恒隆广场1-2楼(近陕西北路)"},{"poiid":"B209475DD26CA0F8449C","title":"Calypso","lon":"121.453918","lat":"31.22359","category":"500","category_name":"未知分类","address":"上海市 铜仁路近安义路，静安嘉里中心南区广场(铜仁路近安义路)"},{"poiid":"B2094757D064ABFF449E","title":"静安广场","lon":"121.454","lat":"31.2237","category":"500","category_name":"未知分类","address":"铁西兴华南街与十马路交汇处"},{"poiid":"B2094654DB65A6FB409A","title":"蔡元培故居","lon":"121.453","lat":"31.2251","category":"250","category_name":"公园户外","address":"静安区华山路303弄16号(希尔顿饭店斜对面)"},{"poiid":"B2094757D164A4FD4793","title":"甜蜜蜜威海路店","lon":"121.45572353","lat":"31.223760362","category":"67","category_name":"甜品店","address":"静安区威海路906号"},{"poiid":"B2094750D26FA4FE429B","title":"starbucks","lon":"121.456367","lat":"31.225322","category":"247","category_name":"餐饮美食","address":"中兴泰富"},{"poiid":"B2094757D068ABF9479F","title":"上海第二工业大学(静安分校)","lon":"121.45706","lat":"31.22502","category":"52","category_name":"高等院校","address":"静安区陕西北路80号(威海路口)"},{"poiid":"B2094654DA6CA0FD499C","title":"上海展览中心(2号门)","lon":"121.45379","lat":"31.22367","category":"183","category_name":"展览馆","address":""},{"poiid":"B2094757D06AA5F9499A","title":"波特曼嘉丽Table自助餐厅","lon":"121.45688829","lat":"31.224855074","category":"500","category_name":"未知分类","address":"上海商城"},{"poiid":"B2094654DA6CA0FC4598","title":"上海展览中心(9号门)","lon":"121.4533","lat":"31.22675","category":"183","category_name":"展览馆","address":""},{"poiid":"B2094757D064A2F5489C","title":"巨鹿花园","lon":"121.45431097194","lat":"31.224497813904","category":"47","category_name":"住宅区","address":"上海巨鹿路889"},{"poiid":"B2094757D464A7FC4792","title":"alfie's by KEE","lon":"121.453506054","lat":"31.227113793","category":"247","category_name":"餐饮美食","address":"南京西路1266号恒隆广场111A室近陕西北路"},{"poiid":"B2094750D66DA6FE489E","title":"金钱豹国际自助餐厅","lon":"121.456871","lat":"31.225461","category":"247","category_name":"餐饮美食","address":null},{"poiid":"B2094655D36CA2FB4899","title":"陕西北路","lon":"121.45385","lat":"31.22708","category":"38","category_name":"公交车站","address":""},{"poiid":"B2094750D669AAFF499C","title":"上海书展","lon":"121.454536","lat":"31.223281","category":"500","category_name":"未知分类","address":null},{"poiid":"B2094654DA6CA0FD499E","title":"上海展览中心","lon":"121.45289","lat":"31.22459","category":"183","category_name":"展览馆","address":"静安区延安中路1000号(近铜仁路)"},{"poiid":"B2094757D068A4FF419C","title":"梅陇镇广场","lon":"121.456631071","lat":"31.2264992206","category":"119","category_name":"商场","address":"松江区荣乐东路1133弄"},{"poiid":"B2094655D26FA7FA4199","title":"上海锦沧文华大酒店","lon":"121.45378","lat":"31.22667","category":"213","category_name":"五星级宾馆","address":"静安区南京西路1225号(近西康路)"},{"poiid":"B2094753D76FAAFA449C","title":"上海滩国泰旗舰店","lon":"121.466011","lat":"31.216125","category":"249","category_name":"购物服务","address":"淮海中路868号"},{"poiid":"B209475CD564A7F84292","title":"上海滩新天地店","lon":"121.47463","lat":"31.22164","category":"119","category_name":"商场","address":"\"太仓路181弄新天地北里15号\r\n\""},{"poiid":"B209475CD564A7F8439E","title":"上海滩中信泰富店","lon":"121.45602","lat":"31.22851","category":"119","category_name":"商场","address":"\"南京西路1168号中信泰富广场，店铺号221.\r\n\""},{"poiid":"B2094757D06FA0FD489E","title":"南京西路","lon":"121.45435","lat":"31.22661","category":"260","category_name":"其他","address":"静安区南京西路(南京西路西康路)"},{"poiid":"B2094655D269A4F9499A","title":"泰厨","lon":"121.454576054","lat":"31.223437793","category":"99","category_name":"泰国／越南菜品餐厅","address":"静安区延安中路841号东方海外大厦1楼(近陕西南路)"},{"poiid":"B2094757D068A1FE479F","title":"桃花源小厨(恒隆店)","lon":"121.4545385754036","lat":"31.227524079570962","category":"72","category_name":"广东菜","address":"上海市静安区南京西路1266号恒隆广场5楼"},{"poiid":"B2094757D06FA2F54598","title":"梅园村酒家(静安店)","lon":"121.45489","lat":"31.223","category":"76","category_name":"上海菜","address":"静安区延安中路841号(近陕西南路)"},{"poiid":"B2094757D06FA3FD409F","title":"屋企港式茶餐厅","lon":"121.45508","lat":"31.22628","category":"72","category_name":"广东菜","address":"静安区南京西路1213弄内(恒隆广场对面)"},{"poiid":"B2094757D06AAAF54692","title":"上海展览中心中央大厅","lon":"121.45311058","lat":"31.224167312","category":"500","category_name":"未知分类","address":"上海市静安区延安中路1000号"},{"poiid":"B2094757D06FA7FC439D","title":"美新点心店","lon":"121.45626446","lat":"31.22563169","category":"68","category_name":"快餐厅","address":"静安区陕西北路105号(近威海路)"},{"poiid":"B2094757D06FA6FF4892","title":"科恩国际中心","lon":"121.45694732","lat":"31.224573135","category":"46","category_name":"楼宇","address":"人民路885号-889号"},{"poiid":"B2094654DA6CA1FA489C","title":"上海民主党派大厦","lon":"121.45629","lat":"31.22603","category":"46","category_name":"楼宇","address":"上海市静安区陕西北路128号"},{"poiid":"B2094757D069A3FC409E","title":"锦沧文华大酒店宴会厅","lon":"121.45396","lat":"31.22653","category":"217","category_name":"旅馆招待所","address":"静安区南京西路1225号锦沧文华大酒店内(近西康路)查看地图"},{"poiid":"B2094757D06FA3F44792","title":"ZARA(南京西路店)","lon":"121.45491766","lat":"31.227113854","category":"141","category_name":"服装鞋帽皮具店","address":"静安区南京西路1201号(近陕西北路)"},{"poiid":"B2094757D06BA5F9459C","title":"申汇轩(陕西北路店)","lon":"121.45674","lat":"31.22552","category":"76","category_name":"上海菜","address":"静安区陕西北路128号民主党派大厦裙楼1-2楼(近威海路)"},{"poiid":"B2094757D06FA7FF4898","title":"吉惠日式料理(江宁路店)","lon":"121.45468873","lat":"31.227172234","category":"95","category_name":"日本料理","address":"上海市静安区江宁路77号三楼"},{"poiid":"B2094757D06AA7FF449C","title":"巨鹿大厦","lon":"121.454","lat":"31.224","category":"46","category_name":"楼宇","address":"上海市奉贤区环城东路455,465弄"},{"poiid":"B2094757D06AA3F9439F","title":"梅亭","lon":"121.45426178","lat":"31.2232208252","category":"86","category_name":"火锅店","address":"静安区延安中路841号东方海外大厦1楼(近铜仁路)"},{"poiid":"B2094757D469A1F5489D","title":"紫云庭 TATLER'S RESTAURANT","lon":"121.454799781","lat":"31.226518517509","category":"47","category_name":"住宅区","address":"静安区南京西路1225号锦沧文华大酒店1楼(近西康路)"},{"poiid":"B2094757D064A4FD449A","title":"和良日式造型(威海)","lon":"121.456196738","lat":"31.2254711987","category":"148","category_name":"美容美发店","address":"上海威海路840号"},{"poiid":"B2094757D064A5F8419D","title":"森下创作料理","lon":"121.456423738","lat":"31.2258492067","category":"76","category_name":"上海菜","address":"静安区南京西路1025弄静安别墅123号(近吴江路)"},{"poiid":"B2094757D06AA5F4489E","title":"hoF Chocolate Boutique","lon":"121.452895841","lat":"31.2257887267","category":"67","category_name":"甜品店","address":"静安区南京西路1357号波特曼大酒店117室(近西康路)"},{"poiid":"B2094757D46FA0F4439C","title":"鹤舞 恒隆广场店","lon":"121.454537","lat":"31.227248","category":"95","category_name":"日本料理","address":"静安区南京西路1266号上海恒隆广场5楼(近陕西北路)"},{"poiid":"B2094757D06AA3FD499C","title":"澳门豆捞坊","lon":"121.45491273","lat":"31.223712161","category":"86","category_name":"火锅店","address":"静安区延安中路817号(近陕西南路)"},{"poiid":"B2094654DA6CA0FD499D","title":"上海展览中心(1号门)","lon":"121.45465","lat":"31.22404","category":"183","category_name":"展览馆","address":"延安中路1000-1"},{"poiid":"B2094757D06BA4F8499C","title":"榄香","lon":"121.45519373","lat":"31.226518221","category":"247","category_name":"餐饮美食","address":"上海金鹰"},{"poiid":"B2094655D26DAAFD459D","title":"彩蝶轩","lon":"121.45441","lat":"31.22758","category":"257","category_name":"中餐厅","address":"静安区南京西路1266号恒隆广场5楼(近陕西北路)"},{"poiid":"B2094757D165A4FC4593","title":"C'N'C中信泰富","lon":"121.456299738","lat":"31.2253271956","category":"500","category_name":"未知分类","address":"上海南京西路1168号地下一层LG09"},{"poiid":"B2094757D465A0F44692","title":"锦沧文华锦华宫","lon":"121.454799781","lat":"31.226518517509","category":"72","category_name":"广东菜","address":"静安区南京西路1225号锦沧文华大酒店3楼(近西康路)"},{"poiid":"B2094757D068A4F44998","title":"静安书友汇","lon":"121.45586","lat":"31.22468","category":"260","category_name":"其他","address":"静安区威海路870号(近延安中路)"},{"poiid":"B2094654DA6CA0F8429B","title":"小实惠","lon":"121.456031054","lat":"31.224860793","category":"76","category_name":"上海菜","address":"静安区威海路855号(近陕西北路)"},{"poiid":"B2094757DB64A3FD449E","title":"瑞尔齿科（恒隆广场店）","lon":"121.454","lat":"31.2274","category":"162","category_name":"医院","address":"静安区南京西路1266号恒隆广场512室"},{"poiid":"B2094757D068A3FC419E","title":"PRADA(南京西路店)","lon":"121.454247321","lat":"31.2274819474","category":"141","category_name":"服装鞋帽皮具店","address":"静安区南京西路1266号恒隆广场1-2楼(近陕西北路)"},{"poiid":"B209475DD26CA0F8449C","title":"Calypso","lon":"121.453918","lat":"31.22359","category":"500","category_name":"未知分类","address":"上海市 铜仁路近安义路，静安嘉里中心南区广场(铜仁路近安义路)"},{"poiid":"B2094757D064ABFF449E","title":"静安广场","lon":"121.454","lat":"31.2237","category":"500","category_name":"未知分类","address":"铁西兴华南街与十马路交汇处"},{"poiid":"B2094654DB65A6FB409A","title":"蔡元培故居","lon":"121.453","lat":"31.2251","category":"250","category_name":"公园户外","address":"静安区华山路303弄16号(希尔顿饭店斜对面)"},{"poiid":"B2094757D164A4FD4793","title":"甜蜜蜜威海路店","lon":"121.45572353","lat":"31.223760362","category":"67","category_name":"甜品店","address":"静安区威海路906号"},{"poiid":"B2094750D26FA4FE429B","title":"starbucks","lon":"121.456367","lat":"31.225322","category":"247","category_name":"餐饮美食","address":"中兴泰富"},{"poiid":"B2094757D068ABF9479F","title":"上海第二工业大学(静安分校)","lon":"121.45706","lat":"31.22502","category":"52","category_name":"高等院校","address":"静安区陕西北路80号(威海路口)"},{"poiid":"B2094654DA6CA0FD499C","title":"上海展览中心(2号门)","lon":"121.45379","lat":"31.22367","category":"183","category_name":"展览馆","address":""},{"poiid":"B2094757D06AA5F9499A","title":"波特曼嘉丽Table自助餐厅","lon":"121.45688829","lat":"31.224855074","category":"500","category_name":"未知分类","address":"上海商城"},{"poiid":"B2094654DA6CA0FC4598","title":"上海展览中心(9号门)","lon":"121.4533","lat":"31.22675","category":"183","category_name":"展览馆","address":""},{"poiid":"B2094757D064A2F5489C","title":"巨鹿花园","lon":"121.45431097194","lat":"31.224497813904","category":"47","category_name":"住宅区","address":"上海巨鹿路889"},{"poiid":"B2094757D464A7FC4792","title":"alfie's by KEE","lon":"121.453506054","lat":"31.227113793","category":"247","category_name":"餐饮美食","address":"南京西路1266号恒隆广场111A室近陕西北路"},{"poiid":"B2094750D66DA6FE489E","title":"金钱豹国际自助餐厅","lon":"121.456871","lat":"31.225461","category":"247","category_name":"餐饮美食","address":null},{"poiid":"B2094655D36CA2FB4899","title":"陕西北路","lon":"121.45385","lat":"31.22708","category":"38","category_name":"公交车站","address":""},{"poiid":"B2094750D669AAFF499C","title":"上海书展","lon":"121.454536","lat":"31.223281","category":"500","category_name":"未知分类","address":null}]