[{"poiid":"B2094757D06EAAFE409D","title":"彭浦新村地铁站","lon":"121.44864778","lat":"31.306739129","category":"36","category_name":"地铁站","address":"上海轨道交通 一号线 轨交彭浦新村站 1"},{"poiid":"B2094757D06EAAFB439D","title":"彭浦新村","lon":"121.45090378","lat":"31.307888662","category":"47","category_name":"住宅区","address":"上海闻喜路555弄"},{"poiid":"B2094654DB6AA4FA4498","title":"大润发闸北店","lon":"121.44825","lat":"31.29763","category":"118","category_name":"超级市场","address":"闸北区共和新路3318号(近江场西路)"},{"poiid":"B2094757D06FA2FC499A","title":"买卖提红玫瑰烤涮龙虾馆(闻喜路店)","lon":"121.44964","lat":"31.30809","category":"68","category_name":"快餐厅","address":"闸北区闻喜路860号(近共和新路)"},{"poiid":"B2094757D06FA6F9459C","title":"百联汽车中心","lon":"121.448166","lat":"31.301476","category":"158","category_name":"汽车销售","address":"闸北区共和新路3550号(近场中路)"},{"poiid":"B2094757D06FA6FB459F","title":"胖胖炸鸡腿","lon":"121.449648","lat":"31.308196","category":"68","category_name":"快餐厅","address":"闸北区闻喜路830号(近胖胖游戏电玩店)"},{"poiid":"B2094750D66CA1FC4692","title":"大有九记港式甜品","lon":"121.450462","lat":"31.307489","category":"247","category_name":"餐饮美食","address":"闸北区平顺路96号(近临汾路)"},{"poiid":"B2094757D06FAAF5459A","title":"祥腾财富广场","lon":"121.45338429981","lat":"31.299858297168","category":"250","category_name":"公园户外","address":"上海市闸北区共和新路3088号"},{"poiid":"B2094750D16BA6F9439F","title":"鲜芋仙","lon":"121.449943","lat":"31.30298","category":"247","category_name":"餐饮美食","address":"闸北区共和新路1998号大宁国际商业广场10座2楼201号商铺(近大宁路)"},{"poiid":"B2094757D06FABF9459F","title":"丰泽万佳红火大酒店","lon":"121.44959795","lat":"31.305212732","category":"76","category_name":"上海菜","address":"上海闸北区共和新路3703号共和国际商务广场C栋3楼(近场中路)"},{"poiid":"B2094757D06AA3F54198","title":"百联沪东上海大众4S店","lon":"121.448162","lat":"31.301475","category":"500","category_name":"未知分类","address":"共和新路3550号（近江场路）百联汽车广场内"},{"poiid":"B2094757D06FA4F4499F","title":"唱享量贩式歌城(共和新路店)","lon":"121.44893","lat":"31.30536","category":"170","category_name":"KTV","address":"闸北区共和新路3737号C座5楼(近场中路)"},{"poiid":"B2094757D06FA6FD459B","title":"场中路共和新路","lon":"121.44763183","lat":"31.305389404","category":"500","category_name":"未知分类","address":"上海场中路共和新路"},{"poiid":"B2094757D06FAAFB459E","title":"鼎中鼎澳门豆捞(共和新路店)","lon":"121.44859","lat":"31.29727","category":"86","category_name":"火锅店","address":"闸北区共和新路3318号大润发超市2楼(近江场西路)"},{"poiid":"B2094751D364A5FC429F","title":"闸北区图书馆分馆","lon":"121.45021","lat":"31.308407","category":"181","category_name":"图书馆","address":"闻喜路800号(近共和新路)"},{"poiid":"B2094757D06FA6FC4293","title":"城大建材中心","lon":"121.45017684","lat":"31.297758425","category":"123","category_name":"家具建材市场","address":"闸北区共和新路3301号(近江场西路)"},{"poiid":"B2094655D26AA0FA4899","title":"地铁彭浦新村站","lon":"121.44864","lat":"31.30675","category":"36","category_name":"地铁站","address":""},{"poiid":"B2094757D064A3FB4793","title":"东联奥迪","lon":"121.45386395","lat":"31.305465737","category":"263","category_name":"公司","address":"上海市闸北区场中路"},{"poiid":"B2094757D068A0FC429A","title":"永鼎大厦","lon":"121.45444","lat":"31.304861","category":"46","category_name":"楼宇","address":"徐汇区田林路300号"},{"poiid":"B2094757D465A1FD4399","title":"农夫烤鱼馆","lon":"121.44948","lat":"31.30804","category":"71","category_name":"四川菜","address":"闸北区临汾路998号(近共和新路)"},{"poiid":"B2094757D068AAF8489E","title":"彭浦公园","lon":"121.447388778","lat":"31.3044033166","category":"196","category_name":"公园","address":"上海闸北区场中路2150号(近共和新路)"},{"poiid":"B2094757D06FA6FB4993","title":"原力健(共和国际店)","lon":"121.45015","lat":"31.30443","category":"148","category_name":"美容美发店","address":"闸北区共和新路3703号共和国际商务广场C栋4楼(近江场路)"},{"poiid":"B2094757D06AA3F5459C","title":"SPR咖啡(共和新路点店)","lon":"121.4535455","lat":"31.302849198","category":"65","category_name":"咖啡厅","address":"闸北区共和新路3703号共和国际商务广场1楼(近彭浦新村地铁站)"},{"poiid":"B2094655D26AA4FD469F","title":"村夫烤鱼","lon":"121.4497","lat":"31.3082","category":"247","category_name":"餐饮美食","address":"闸北区三泉路415弄对面(近闻喜路)"},{"poiid":"B2094654D56CA5F84599","title":"北郊站","lon":"121.45604","lat":"31.30207","category":"22","category_name":"火车站","address":"闸北区寿阳路1500"},{"poiid":"B2094757D66FA7FF4393","title":"闻喜路印度飞饼","lon":"121.44969","lat":"31.30767","category":"68","category_name":"快餐厅","address":"闸北区闻喜路820号迪亚天天门口(共和新路口)"},{"poiid":"B2094750DA68A4FA409F","title":"杭州扇贝王上海闻喜店","lon":"121.450256","lat":"31.308425","category":"247","category_name":"餐饮美食","address":null},{"poiid":"B2094654D464A3F4409B","title":"美邦大楼","lon":"121.454","lat":"31.3049","category":"46","category_name":"楼宇","address":"上海江场西路160号"},{"poiid":"B2094655D26CA7FD449B","title":"海博大楼","lon":"121.44985","lat":"31.30331","category":"46","category_name":"楼宇","address":"共和新路3651号"},{"poiid":"B2094751D26FA6FB479C","title":"大锅羊肉汤热气涮羊肉","lon":"121.453926","lat":"31.306129","category":"247","category_name":"餐饮美食","address":"闸北区闻喜路840号(近共和新路)"},{"poiid":"B2094654DB6AA4FA459B","title":"上海百联沪北汽车销售有限公司","lon":"121.44666","lat":"31.30107","category":"159","category_name":"汽车维修","address":"闸北区共和新路3550号(近场中路)"},{"poiid":"B2094654D464A3F4409D","title":"华瑞大厦","lon":"121.454","lat":"31.3051","category":"46","category_name":"楼宇","address":"江场一路2;6;8;10;18号等"},{"poiid":"B2094757D065A3FC499D","title":"上岛咖啡","lon":"121.44973895","lat":"31.304959728","category":"65","category_name":"咖啡厅","address":"闸北区共和新路3703号共和国际C幢2楼(近场中路)"},{"poiid":"B2094654D56CA5F44892","title":"彭浦大厦","lon":"121.457","lat":"31.301","category":"46","category_name":"楼宇","address":"共和新路3201弄"},{"poiid":"B2094757D065A2FA4592","title":"巨麦","lon":"121.455253","lat":"31.306372","category":"247","category_name":"餐饮美食","address":"闻喜路981号3楼"},{"poiid":"B2094757D069A5FC4699","title":"新好客来(共和新路店)","lon":"121.44782","lat":"31.30513","category":"76","category_name":"上海菜","address":"闸北区场中路2150号(近共和新路)"},{"poiid":"B2094654DB69A5F5419D","title":"大娘水饺 共和新路店","lon":"121.448917054","lat":"31.298265793","category":"68","category_name":"快餐厅","address":"闸北区共和新路3318号大润发2楼(近江场西路)"},{"poiid":"B2094757D06BA4FF4292","title":"新悅坊","lon":"121.44751645","lat":"31.300665745","category":"500","category_name":"未知分类","address":"上海市闸北区共和新路3616弄"},{"poiid":"B2094750D26AA4FA479B","title":"万家红火大酒店","lon":"121.449935","lat":"31.304937","category":"247","category_name":"餐饮美食","address":"共和新路3703号C栋3F"},{"poiid":"B2094757D06AA5FA479A","title":"永顺和苏州汤包馆(闻喜店)","lon":"121.4521159","lat":"31.307037569","category":"68","category_name":"快餐厅","address":"闸北区闻喜路851号(近共和新路)"},{"poiid":"B2094654DB6AA2FC4798","title":"味之都 共和店","lon":"121.448828054","lat":"31.298277793","category":"68","category_name":"快餐厅","address":"闸北区共和新路3318号大润发2楼(近江场西路)"},{"poiid":"B2094654D464A3F4479D","title":"幸福新苑","lon":"121.44653","lat":"31.30352","category":"47","category_name":"住宅区","address":"场中路2380弄"},{"poiid":"B2094654D56CA5F84598","title":"上海铁路分局北郊站装卸委外宿舍楼","lon":"121.45579","lat":"31.30016","category":"47","category_name":"住宅区","address":""},{"poiid":"B2094654D56CA4FE419E","title":"快客联华便利连锁","lon":"121.45305","lat":"31.29875","category":"117","category_name":"便民商店/便利店","address":"江场路1395乙"},{"poiid":"B2094654DB6AA6F9409F","title":"上海东联沪港汽车销售有限公司","lon":"121.45371","lat":"31.30512","category":"159","category_name":"汽车维修","address":"闸北区场中路1980号(近一号线彭浦新村站)"},{"poiid":"B2094655D26AA5F44293","title":"长安机动车驾驶员培训中心场中路分部","lon":"121.45325","lat":"31.30517","category":"247","category_name":"餐饮美食","address":"宝山区场中路1980号(近一号线彭浦新村站)"},{"poiid":"B209475DD364A4FF4593","title":"洞子张老匠火锅","lon":"121.448738","lat":"31.298482","category":"247","category_name":"餐饮美食","address":"上海市 共和新路3388号汇客美食广场2楼"},{"poiid":"B2094654D56CA5F8419D","title":"锦都歌城","lon":"121.44939","lat":"31.30186","category":"170","category_name":"KTV","address":"共和新路3501"},{"poiid":"B2094757D06AA7FD439B","title":"韩一拌饭馆","lon":"121.457784843","lat":"31.3021360567","category":"247","category_name":"餐饮美食","address":"上海杨浦区国济路30号(五角场百联又一城附近)"},{"poiid":"B2094655D26AA4F8449A","title":"大众汽车沪东销售服务共和新路店","lon":"121.44816","lat":"31.30147","category":"247","category_name":"餐饮美食","address":"闸北区共和新路3550号(近百联汽车广场)"},{"poiid":"B2094757D06EAAFE409D","title":"彭浦新村地铁站","lon":"121.44864778","lat":"31.306739129","category":"36","category_name":"地铁站","address":"上海轨道交通 一号线 轨交彭浦新村站 1"},{"poiid":"B2094757D06EAAFB439D","title":"彭浦新村","lon":"121.45090378","lat":"31.307888662","category":"47","category_name":"住宅区","address":"上海闻喜路555弄"},{"poiid":"B2094654DB6AA4FA4498","title":"大润发闸北店","lon":"121.44825","lat":"31.29763","category":"118","category_name":"超级市场","address":"闸北区共和新路3318号(近江场西路)"},{"poiid":"B2094757D06FA2FC499A","title":"买卖提红玫瑰烤涮龙虾馆(闻喜路店)","lon":"121.44964","lat":"31.30809","category":"68","category_name":"快餐厅","address":"闸北区闻喜路860号(近共和新路)"},{"poiid":"B2094757D06FA6F9459C","title":"百联汽车中心","lon":"121.448166","lat":"31.301476","category":"158","category_name":"汽车销售","address":"闸北区共和新路3550号(近场中路)"},{"poiid":"B2094757D06FA6FB459F","title":"胖胖炸鸡腿","lon":"121.449648","lat":"31.308196","category":"68","category_name":"快餐厅","address":"闸北区闻喜路830号(近胖胖游戏电玩店)"},{"poiid":"B2094750D66CA1FC4692","title":"大有九记港式甜品","lon":"121.450462","lat":"31.307489","category":"247","category_name":"餐饮美食","address":"闸北区平顺路96号(近临汾路)"},{"poiid":"B2094757D06FAAF5459A","title":"祥腾财富广场","lon":"121.45338429981","lat":"31.299858297168","category":"250","category_name":"公园户外","address":"上海市闸北区共和新路3088号"},{"poiid":"B2094750D16BA6F9439F","title":"鲜芋仙","lon":"121.449943","lat":"31.30298","category":"247","category_name":"餐饮美食","address":"闸北区共和新路1998号大宁国际商业广场10座2楼201号商铺(近大宁路)"},{"poiid":"B2094757D06FABF9459F","title":"丰泽万佳红火大酒店","lon":"121.44959795","lat":"31.305212732","category":"76","category_name":"上海菜","address":"上海闸北区共和新路3703号共和国际商务广场C栋3楼(近场中路)"},{"poiid":"B2094757D06AA3F54198","title":"百联沪东上海大众4S店","lon":"121.448162","lat":"31.301475","category":"500","category_name":"未知分类","address":"共和新路3550号（近江场路）百联汽车广场内"},{"poiid":"B2094757D06FA4F4499F","title":"唱享量贩式歌城(共和新路店)","lon":"121.44893","lat":"31.30536","category":"170","category_name":"KTV","address":"闸北区共和新路3737号C座5楼(近场中路)"},{"poiid":"B2094757D06FA6FD459B","title":"场中路共和新路","lon":"121.44763183","lat":"31.305389404","category":"500","category_name":"未知分类","address":"上海场中路共和新路"},{"poiid":"B2094757D06FAAFB459E","title":"鼎中鼎澳门豆捞(共和新路店)","lon":"121.44859","lat":"31.29727","category":"86","category_name":"火锅店","address":"闸北区共和新路3318号大润发超市2楼(近江场西路)"},{"poiid":"B2094751D364A5FC429F","title":"闸北区图书馆分馆","lon":"121.45021","lat":"31.308407","category":"181","category_name":"图书馆","address":"闻喜路800号(近共和新路)"},{"poiid":"B2094757D06FA6FC4293","title":"城大建材中心","lon":"121.45017684","lat":"31.297758425","category":"123","category_name":"家具建材市场","address":"闸北区共和新路3301号(近江场西路)"},{"poiid":"B2094655D26AA0FA4899","title":"地铁彭浦新村站","lon":"121.44864","lat":"31.30675","category":"36","category_name":"地铁站","address":""},{"poiid":"B2094757D064A3FB4793","title":"东联奥迪","lon":"121.45386395","lat":"31.305465737","category":"263","category_name":"公司","address":"上海市闸北区场中路"},{"poiid":"B2094757D068A0FC429A","title":"永鼎大厦","lon":"121.45444","lat":"31.304861","category":"46","category_name":"楼宇","address":"徐汇区田林路300号"},{"poiid":"B2094757D465A1FD4399","title":"农夫烤鱼馆","lon":"121.44948","lat":"31.30804","category":"71","category_name":"四川菜","address":"闸北区临汾路998号(近共和新路)"},{"poiid":"B2094757D068AAF8489E","title":"彭浦公园","lon":"121.447388778","lat":"31.3044033166","category":"196","category_name":"公园","address":"上海闸北区场中路2150号(近共和新路)"},{"poiid":"B2094757D06FA6FB4993","title":"原力健(共和国际店)","lon":"121.45015","lat":"31.30443","category":"148","category_name":"美容美发店","address":"闸北区共和新路3703号共和国际商务广场C栋4楼(近江场路)"},{"poiid":"B2094757D06AA3F5459C","title":"SPR咖啡(共和新路点店)","lon":"121.4535455","lat":"31.302849198","category":"65","category_name":"咖啡厅","address":"闸北区共和新路3703号共和国际商务广场1楼(近彭浦新村地铁站)"},{"poiid":"B2094655D26AA4FD469F","title":"村夫烤鱼","lon":"121.4497","lat":"31.3082","category":"247","category_name":"餐饮美食","address":"闸北区三泉路415弄对面(近闻喜路)"},{"poiid":"B2094654D56CA5F84599","title":"北郊站","lon":"121.45604","lat":"31.30207","category":"22","category_name":"火车站","address":"闸北区寿阳路1500"},{"poiid":"B2094757D66FA7FF4393","title":"闻喜路印度飞饼","lon":"121.44969","lat":"31.30767","category":"68","category_name":"快餐厅","address":"闸北区闻喜路820号迪亚天天门口(共和新路口)"},{"poiid":"B2094750DA68A4FA409F","title":"杭州扇贝王上海闻喜店","lon":"121.450256","lat":"31.308425","category":"247","category_name":"餐饮美食","address":null},{"poiid":"B2094654D464A3F4409B","title":"美邦大楼","lon":"121.454","lat":"31.3049","category":"46","category_name":"楼宇","address":"上海江场西路160号"},{"poiid":"B2094655D26CA7FD449B","title":"海博大楼","lon":"121.44985","lat":"31.30331","category":"46","category_name":"楼宇","address":"共和新路3651号"},{"poiid":"B2094751D26FA6FB479C","title":"大锅羊肉汤热气涮羊肉","lon":"121.453926","lat":"31.306129","category":"247","category_name":"餐饮美食","address":"闸北区闻喜路840号(近共和新路)"},{"poiid":"B2094654DB6AA4FA459B","title":"上海百联沪北汽车销售有限公司","lon":"121.44666","lat":"31.30107","category":"159","category_name":"汽车维修","address":"闸北区共和新路3550号(近场中路)"},{"poiid":"B2094654D464A3F4409D","title":"华瑞大厦","lon":"121.454","lat":"31.3051","category":"46","category_name":"楼宇","address":"江场一路2;6;8;10;18号等"},{"poiid":"B2094757D065A3FC499D","title":"上岛咖啡","lon":"121.44973895","lat":"31.304959728","category":"65","category_name":"咖啡厅","address":"闸北区共和新路3703号共和国际C幢2楼(近场中路)"},{"poiid":"B2094654D56CA5F44892","title":"彭浦大厦","lon":"121.457","lat":"31.301","category":"46","category_name":"楼宇","address":"共和新路3201弄"},{"poiid":"B2094757D065A2FA4592","title":"巨麦","lon":"121.455253","lat":"31.306372","category":"247","category_name":"餐饮美食","address":"闻喜路981号3楼"},{"poiid":"B2094757D069A5FC4699","title":"新好客来(共和新路店)","lon":"121.44782","lat":"31.30513","category":"76","category_name":"上海菜","address":"闸北区场中路2150号(近共和新路)"},{"poiid":"B2094654DB69A5F5419D","title":"大娘水饺 共和新路店","lon":"121.448917054","lat":"31.298265793","category":"68","category_name":"快餐厅","address":"闸北区共和新路3318号大润发2楼(近江场西路)"},{"poiid":"B2094757D06BA4FF4292","title":"新悅坊","lon":"121.44751645","lat":"31.300665745","category":"500","category_name":"未知分类","address":"上海市闸北区共和新路3616弄"},{"poiid":"B2094750D26AA4FA479B","title":"万家红火大酒店","lon":"121.449935","lat":"31.304937","category":"247","category_name":"餐饮美食","address":"共和新路3703号C栋3F"},{"poiid":"B2094757D06AA5FA479A","title":"永顺和苏州汤包馆(闻喜店)","lon":"121.4521159","lat":"31.307037569","category":"68","category_name":"快餐厅","address":"闸北区闻喜路851号(近共和新路)"},{"poiid":"B2094654DB6AA2FC4798","title":"味之都 共和店","lon":"121.448828054","lat":"31.298277793","category":"68","category_name":"快餐厅","address":"闸北区共和新路3318号大润发2楼(近江场西路)"},{"poiid":"B2094654D464A3F4479D","title":"幸福新苑","lon":"121.44653","lat":"31.30352","category":"47","category_name":"住宅区","address":"场中路2380弄"},{"poiid":"B2094654D56CA5F84598","title":"上海铁路分局北郊站装卸委外宿舍楼","lon":"121.45579","lat":"31.30016","category":"47","category_name":"住宅区","address":""},{"poiid":"B2094654D56CA4FE419E","title":"快客联华便利连锁","lon":"121.45305","lat":"31.29875","category":"117","category_name":"便民商店/便利店","address":"江场路1395乙"},{"poiid":"B2094654DB6AA6F9409F","title":"上海东联沪港汽车销售有限公司","lon":"121.45371","lat":"31.30512","category":"159","category_name":"汽车维修","address":"闸北区场中路1980号(近一号线彭浦新村站)"},{"poiid":"B2094655D26AA5F44293","title":"长安机动车驾驶员培训中心场中路分部","lon":"121.45325","lat":"31.30517","category":"247","category_name":"餐饮美食","address":"宝山区场中路1980号(近一号线彭浦新村站)"},{"poiid":"B209475DD364A4FF4593","title":"洞子张老匠火锅","lon":"121.448738","lat":"31.298482","category":"247","category_name":"餐饮美食","address":"上海市 共和新路3388号汇客美食广场2楼"},{"poiid":"B2094654D56CA5F8419D","title":"锦都歌城","lon":"121.44939","lat":"31.30186","category":"170","category_name":"KTV","address":"共和新路3501"},{"poiid":"B2094757D06AA7FD439B","title":"韩一拌饭馆","lon":"121.457784843","lat":"31.3021360567","category":"247","category_name":"餐饮美食","address":"上海杨浦区国济路30号(五角场百联又一城附近)"},{"poiid":"B2094655D26AA4F8449A","title":"大众汽车沪东销售服务共和新路店","lon":"121.44816","lat":"31.30147","category":"247","category_name":"餐饮美食","address":"闸北区共和新路3550号(近百联汽车广场)"},{"poiid":"B2094757D06EAAFE409D","title":"彭浦新村地铁站","lon":"121.44864778","lat":"31.306739129","category":"36","category_name":"地铁站","address":"上海轨道交通 一号线 轨交彭浦新村站 1"},{"poiid":"B2094757D06EAAFB439D","title":"彭浦新村","lon":"121.45090378","lat":"31.307888662","category":"47","category_name":"住宅区","address":"上海闻喜路555弄"},{"poiid":"B2094654DB6AA4FA4498","title":"大润发闸北店","lon":"121.44825","lat":"31.29763","category":"118","category_name":"超级市场","address":"闸北区共和新路3318号(近江场西路)"},{"poiid":"B2094757D06FA2FC499A","title":"买卖提红玫瑰烤涮龙虾馆(闻喜路店)","lon":"121.44964","lat":"31.30809","category":"68","category_name":"快餐厅","address":"闸北区闻喜路860号(近共和新路)"},{"poiid":"B2094757D06FA6F9459C","title":"百联汽车中心","lon":"121.448166","lat":"31.301476","category":"158","category_name":"汽车销售","address":"闸北区共和新路3550号(近场中路)"},{"poiid":"B2094757D06FA6FB459F","title":"胖胖炸鸡腿","lon":"121.449648","lat":"31.308196","category":"68","category_name":"快餐厅","address":"闸北区闻喜路830号(近胖胖游戏电玩店)"},{"poiid":"B2094750D66CA1FC4692","title":"大有九记港式甜品","lon":"121.450462","lat":"31.307489","category":"247","category_name":"餐饮美食","address":"闸北区平顺路96号(近临汾路)"},{"poiid":"B2094757D06FAAF5459A","title":"祥腾财富广场","lon":"121.45338429981","lat":"31.299858297168","category":"250","category_name":"公园户外","address":"上海市闸北区共和新路3088号"},{"poiid":"B2094750D16BA6F9439F","title":"鲜芋仙","lon":"121.449943","lat":"31.30298","category":"247","category_name":"餐饮美食","address":"闸北区共和新路1998号大宁国际商业广场10座2楼201号商铺(近大宁路)"},{"poiid":"B2094757D06FABF9459F","title":"丰泽万佳红火大酒店","lon":"121.44959795","lat":"31.305212732","category":"76","category_name":"上海菜","address":"上海闸北区共和新路3703号共和国际商务广场C栋3楼(近场中路)"},{"poiid":"B2094757D06AA3F54198","title":"百联沪东上海大众4S店","lon":"121.448162","lat":"31.301475","category":"500","category_name":"未知分类","address":"共和新路3550号（近江场路）百联汽车广场内"},{"poiid":"B2094757D06FA4F4499F","title":"唱享量贩式歌城(共和新路店)","lon":"121.44893","lat":"31.30536","category":"170","category_name":"KTV","address":"闸北区共和新路3737号C座5楼(近场中路)"},{"poiid":"B2094757D06FA6FD459B","title":"场中路共和新路","lon":"121.44763183","lat":"31.305389404","category":"500","category_name":"未知分类","address":"上海场中路共和新路"},{"poiid":"B2094757D06FAAFB459E","title":"鼎中鼎澳门豆捞(共和新路店)","lon":"121.44859","lat":"31.29727","category":"86","category_name":"火锅店","address":"闸北区共和新路3318号大润发超市2楼(近江场西路)"},{"poiid":"B2094751D364A5FC429F","title":"闸北区图书馆分馆","lon":"121.45021","lat":"31.308407","category":"181","category_name":"图书馆","address":"闻喜路800号(近共和新路)"},{"poiid":"B2094757D06FA6FC4293","title":"城大建材中心","lon":"121.45017684","lat":"31.297758425","category":"123","category_name":"家具建材市场","address":"闸北区共和新路3301号(近江场西路)"},{"poiid":"B2094655D26AA0FA4899","title":"地铁彭浦新村站","lon":"121.44864","lat":"31.30675","category":"36","category_name":"地铁站","address":""},{"poiid":"B2094757D064A3FB4793","title":"东联奥迪","lon":"121.45386395","lat":"31.305465737","category":"263","category_name":"公司","address":"上海市闸北区场中路"},{"poiid":"B2094757D068A0FC429A","title":"永鼎大厦","lon":"121.45444","lat":"31.304861","category":"46","category_name":"楼宇","address":"徐汇区田林路300号"},{"poiid":"B2094757D465A1FD4399","title":"农夫烤鱼馆","lon":"121.44948","lat":"31.30804","category":"71","category_name":"四川菜","address":"闸北区临汾路998号(近共和新路)"},{"poiid":"B2094757D068AAF8489E","title":"彭浦公园","lon":"121.447388778","lat":"31.3044033166","category":"196","category_name":"公园","address":"上海闸北区场中路2150号(近共和新路)"},{"poiid":"B2094757D06FA6FB4993","title":"原力健(共和国际店)","lon":"121.45015","lat":"31.30443","category":"148","category_name":"美容美发店","address":"闸北区共和新路3703号共和国际商务广场C栋4楼(近江场路)"},{"poiid":"B2094757D06AA3F5459C","title":"SPR咖啡(共和新路点店)","lon":"121.4535455","lat":"31.302849198","category":"65","category_name":"咖啡厅","address":"闸北区共和新路3703号共和国际商务广场1楼(近彭浦新村地铁站)"},{"poiid":"B2094655D26AA4FD469F","title":"村夫烤鱼","lon":"121.4497","lat":"31.3082","category":"247","category_name":"餐饮美食","address":"闸北区三泉路415弄对面(近闻喜路)"},{"poiid":"B2094654D56CA5F84599","title":"北郊站","lon":"121.45604","lat":"31.30207","category":"22","category_name":"火车站","address":"闸北区寿阳路1500"},{"poiid":"B2094757D66FA7FF4393","title":"闻喜路印度飞饼","lon":"121.44969","lat":"31.30767","category":"68","category_name":"快餐厅","address":"闸北区闻喜路820号迪亚天天门口(共和新路口)"},{"poiid":"B2094750DA68A4FA409F","title":"杭州扇贝王上海闻喜店","lon":"121.450256","lat":"31.308425","category":"247","category_name":"餐饮美食","address":null},{"poiid":"B2094654D464A3F4409B","title":"美邦大楼","lon":"121.454","lat":"31.3049","category":"46","category_name":"楼宇","address":"上海江场西路160号"},{"poiid":"B2094655D26CA7FD449B","title":"海博大楼","lon":"121.44985","lat":"31.30331","category":"46","category_name":"楼宇","address":"共和新路3651号"},{"poiid":"B2094751D26FA6FB479C","title":"大锅羊肉汤热气涮羊肉","lon":"121.453926","lat":"31.306129","category":"247","category_name":"餐饮美食","address":"闸北区闻喜路840号(近共和新路)"},{"poiid":"B2094654DB6AA4FA459B","title":"上海百联沪北汽车销售有限公司","lon":"121.44666","lat":"31.30107","category":"159","category_name":"汽车维修","address":"闸北区共和新路3550号(近场中路)"},{"poiid":"B2094654D464A3F4409D","title":"华瑞大厦","lon":"121.454","lat":"31.3051","category":"46","category_name":"楼宇","address":"江场一路2;6;8;10;18号等"},{"poiid":"B2094757D065A3FC499D","title":"上岛咖啡","lon":"121.44973895","lat":"31.304959728","category":"65","category_name":"咖啡厅","address":"闸北区共和新路3703号共和国际C幢2楼(近场中路)"},{"poiid":"B2094654D56CA5F44892","title":"彭浦大厦","lon":"121.457","lat":"31.301","category":"46","category_name":"楼宇","address":"共和新路3201弄"},{"poiid":"B2094757D065A2FA4592","title":"巨麦","lon":"121.455253","lat":"31.306372","category":"247","category_name":"餐饮美食","address":"闻喜路981号3楼"},{"poiid":"B2094757D069A5FC4699","title":"新好客来(共和新路店)","lon":"121.44782","lat":"31.30513","category":"76","category_name":"上海菜","address":"闸北区场中路2150号(近共和新路)"},{"poiid":"B2094654DB69A5F5419D","title":"大娘水饺 共和新路店","lon":"121.448917054","lat":"31.298265793","category":"68","category_name":"快餐厅","address":"闸北区共和新路3318号大润发2楼(近江场西路)"},{"poiid":"B2094757D06BA4FF4292","title":"新悅坊","lon":"121.44751645","lat":"31.300665745","category":"500","category_name":"未知分类","address":"上海市闸北区共和新路3616弄"},{"poiid":"B2094750D26AA4FA479B","title":"万家红火大酒店","lon":"121.449935","lat":"31.304937","category":"247","category_name":"餐饮美食","address":"共和新路3703号C栋3F"},{"poiid":"B2094757D06AA5FA479A","title":"永顺和苏州汤包馆(闻喜店)","lon":"121.4521159","lat":"31.307037569","category":"68","category_name":"快餐厅","address":"闸北区闻喜路851号(近共和新路)"},{"poiid":"B2094654DB6AA2FC4798","title":"味之都 共和店","lon":"121.448828054","lat":"31.298277793","category":"68","category_name":"快餐厅","address":"闸北区共和新路3318号大润发2楼(近江场西路)"},{"poiid":"B2094654D464A3F4479D","title":"幸福新苑","lon":"121.44653","lat":"31.30352","category":"47","category_name":"住宅区","address":"场中路2380弄"},{"poiid":"B2094654D56CA5F84598","title":"上海铁路分局北郊站装卸委外宿舍楼","lon":"121.45579","lat":"31.30016","category":"47","category_name":"住宅区","address":""},{"poiid":"B2094654D56CA4FE419E","title":"快客联华便利连锁","lon":"121.45305","lat":"31.29875","category":"117","category_name":"便民商店/便利店","address":"江场路1395乙"},{"poiid":"B2094654DB6AA6F9409F","title":"上海东联沪港汽车销售有限公司","lon":"121.45371","lat":"31.30512","category":"159","category_name":"汽车维修","address":"闸北区场中路1980号(近一号线彭浦新村站)"},{"poiid":"B2094655D26AA5F44293","title":"长安机动车驾驶员培训中心场中路分部","lon":"121.45325","lat":"31.30517","category":"247","category_name":"餐饮美食","address":"宝山区场中路1980号(近一号线彭浦新村站)"},{"poiid":"B209475DD364A4FF4593","title":"洞子张老匠火锅","lon":"121.448738","lat":"31.298482","category":"247","category_name":"餐饮美食","address":"上海市 共和新路3388号汇客美食广场2楼"},{"poiid":"B2094654D56CA5F8419D","title":"锦都歌城","lon":"121.44939","lat":"31.30186","category":"170","category_name":"KTV","address":"共和新路3501"},{"poiid":"B2094757D06AA7FD439B","title":"韩一拌饭馆","lon":"121.457784843","lat":"31.3021360567","category":"247","category_name":"餐饮美食","address":"上海杨浦区国济路30号(五角场百联又一城附近)"},{"poiid":"B2094655D26AA4F8449A","title":"大众汽车沪东销售服务共和新路店","lon":"121.44816","lat":"31.30147","category":"247","category_name":"餐饮美食","address":"闸北区共和新路3550号(近百联汽车广场)"},{"poiid":"B2094757D06EAAFE409D","title":"彭浦新村地铁站","lon":"121.44864778","lat":"31.306739129","category":"36","category_name":"地铁站","address":"上海轨道交通 一号线 轨交彭浦新村站 1"},{"poiid":"B2094757D06EAAFB439D","title":"彭浦新村","lon":"121.45090378","lat":"31.307888662","category":"47","category_name":"住宅区","address":"上海闻喜路555弄"},{"poiid":"B2094654DB6AA4FA4498","title":"大润发闸北店","lon":"121.44825","lat":"31.29763","category":"118","category_name":"超级市场","address":"闸北区共和新路3318号(近江场西路)"},{"poiid":"B2094757D06FA2FC499A","title":"买卖提红玫瑰烤涮龙虾馆(闻喜路店)","lon":"121.44964","lat":"31.30809","category":"68","category_name":"快餐厅","address":"闸北区闻喜路860号(近共和新路)"},{"poiid":"B2094757D06FA6F9459C","title":"百联汽车中心","lon":"121.448166","lat":"31.301476","category":"158","category_name":"汽车销售","address":"闸北区共和新路3550号(近场中路)"},{"poiid":"B2094757D06FA6FB459F","title":"胖胖炸鸡腿","lon":"121.449648","lat":"31.308196","category":"68","category_name":"快餐厅","address":"闸北区闻喜路830号(近胖胖游戏电玩店)"},{"poiid":"B2094750D66CA1FC4692","title":"大有九记港式甜品","lon":"121.450462","lat":"31.307489","category":"247","category_name":"餐饮美食","address":"闸北区平顺路96号(近临汾路)"},{"poiid":"B2094757D06FAAF5459A","title":"祥腾财富广场","lon":"121.45338429981","lat":"31.299858297168","category":"250","category_name":"公园户外","address":"上海市闸北区共和新路3088号"},{"poiid":"B2094750D16BA6F9439F","title":"鲜芋仙","lon":"121.449943","lat":"31.30298","category":"247","category_name":"餐饮美食","address":"闸北区共和新路1998号大宁国际商业广场10座2楼201号商铺(近大宁路)"},{"poiid":"B2094757D06FABF9459F","title":"丰泽万佳红火大酒店","lon":"121.44959795","lat":"31.305212732","category":"76","category_name":"上海菜","address":"上海闸北区共和新路3703号共和国际商务广场C栋3楼(近场中路)"},{"poiid":"B2094757D06AA3F54198","title":"百联沪东上海大众4S店","lon":"121.448162","lat":"31.301475","category":"500","category_name":"未知分类","address":"共和新路3550号（近江场路）百联汽车广场内"},{"poiid":"B2094757D06FA4F4499F","title":"唱享量贩式歌城(共和新路店)","lon":"121.44893","lat":"31.30536","category":"170","category_name":"KTV","address":"闸北区共和新路3737号C座5楼(近场中路)"},{"poiid":"B2094757D06FA6FD459B","title":"场中路共和新路","lon":"121.44763183","lat":"31.305389404","category":"500","category_name":"未知分类","address":"上海场中路共和新路"},{"poiid":"B2094757D06FAAFB459E","title":"鼎中鼎澳门豆捞(共和新路店)","lon":"121.44859","lat":"31.29727","category":"86","category_name":"火锅店","address":"闸北区共和新路3318号大润发超市2楼(近江场西路)"},{"poiid":"B2094751D364A5FC429F","title":"闸北区图书馆分馆","lon":"121.45021","lat":"31.308407","category":"181","category_name":"图书馆","address":"闻喜路800号(近共和新路)"},{"poiid":"B2094757D06FA6FC4293","title":"城大建材中心","lon":"121.45017684","lat":"31.297758425","category":"123","category_name":"家具建材市场","address":"闸北区共和新路3301号(近江场西路)"},{"poiid":"B2094655D26AA0FA4899","title":"地铁彭浦新村站","lon":"121.44864","lat":"31.30675","category":"36","category_name":"地铁站","address":""},{"poiid":"B2094757D064A3FB4793","title":"东联奥迪","lon":"121.45386395","lat":"31.305465737","category":"263","category_name":"公司","address":"上海市闸北区场中路"},{"poiid":"B2094757D068A0FC429A","title":"永鼎大厦","lon":"121.45444","lat":"31.304861","category":"46","category_name":"楼宇","address":"徐汇区田林路300号"},{"poiid":"B2094757D465A1FD4399","title":"农夫烤鱼馆","lon":"121.44948","lat":"31.30804","category":"71","category_name":"四川菜","address":"闸北区临汾路998号(近共和新路)"},{"poiid":"B2094757D068AAF8489E","title":"彭浦公园","lon":"121.447388778","lat":"31.3044033166","category":"196","category_name":"公园","address":"上海闸北区场中路2150号(近共和新路)"},{"poiid":"B2094757D06FA6FB4993","title":"原力健(共和国际店)","lon":"121.45015","lat":"31.30443","category":"148","category_name":"美容美发店","address":"闸北区共和新路3703号共和国际商务广场C栋4楼(近江场路)"},{"poiid":"B2094757D06AA3F5459C","title":"SPR咖啡(共和新路点店)","lon":"121.4535455","lat":"31.302849198","category":"65","category_name":"咖啡厅","address":"闸北区共和新路3703号共和国际商务广场1楼(近彭浦新村地铁站)"},{"poiid":"B2094655D26AA4FD469F","title":"村夫烤鱼","lon":"121.4497","lat":"31.3082","category":"247","category_name":"餐饮美食","address":"闸北区三泉路415弄对面(近闻喜路)"},{"poiid":"B2094654D56CA5F84599","title":"北郊站","lon":"121.45604","lat":"31.30207","category":"22","category_name":"火车站","address":"闸北区寿阳路1500"},{"poiid":"B2094757D66FA7FF4393","title":"闻喜路印度飞饼","lon":"121.44969","lat":"31.30767","category":"68","category_name":"快餐厅","address":"闸北区闻喜路820号迪亚天天门口(共和新路口)"},{"poiid":"B2094750DA68A4FA409F","title":"杭州扇贝王上海闻喜店","lon":"121.450256","lat":"31.308425","category":"247","category_name":"餐饮美食","address":null},{"poiid":"B2094654D464A3F4409B","title":"美邦大楼","lon":"121.454","lat":"31.3049","category":"46","category_name":"楼宇","address":"上海江场西路160号"},{"poiid":"B2094655D26CA7FD449B","title":"海博大楼","lon":"121.44985","lat":"31.30331","category":"46","category_name":"楼宇","address":"共和新路3651号"},{"poiid":"B2094751D26FA6FB479C","title":"大锅羊肉汤热气涮羊肉","lon":"121.453926","lat":"31.306129","category":"247","category_name":"餐饮美食","address":"闸北区闻喜路840号(近共和新路)"},{"poiid":"B2094654DB6AA4FA459B","title":"上海百联沪北汽车销售有限公司","lon":"121.44666","lat":"31.30107","category":"159","category_name":"汽车维修","address":"闸北区共和新路3550号(近场中路)"},{"poiid":"B2094654D464A3F4409D","title":"华瑞大厦","lon":"121.454","lat":"31.3051","category":"46","category_name":"楼宇","address":"江场一路2;6;8;10;18号等"},{"poiid":"B2094757D065A3FC499D","title":"上岛咖啡","lon":"121.44973895","lat":"31.304959728","category":"65","category_name":"咖啡厅","address":"闸北区共和新路3703号共和国际C幢2楼(近场中路)"},{"poiid":"B2094654D56CA5F44892","title":"彭浦大厦","lon":"121.457","lat":"31.301","category":"46","category_name":"楼宇","address":"共和新路3201弄"},{"poiid":"B2094757D065A2FA4592","title":"巨麦","lon":"121.455253","lat":"31.306372","category":"247","category_name":"餐饮美食","address":"闻喜路981号3楼"},{"poiid":"B2094757D069A5FC4699","title":"新好客来(共和新路店)","lon":"121.44782","lat":"31.30513","category":"76","category_name":"上海菜","address":"闸北区场中路2150号(近共和新路)"},{"poiid":"B2094654DB69A5F5419D","title":"大娘水饺 共和新路店","lon":"121.448917054","lat":"31.298265793","category":"68","category_name":"快餐厅","address":"闸北区共和新路3318号大润发2楼(近江场西路)"},{"poiid":"B2094757D06BA4FF4292","title":"新悅坊","lon":"121.44751645","lat":"31.300665745","category":"500","category_name":"未知分类","address":"上海市闸北区共和新路3616弄"},{"poiid":"B2094750D26AA4FA479B","title":"万家红火大酒店","lon":"121.449935","lat":"31.304937","category":"247","category_name":"餐饮美食","address":"共和新路3703号C栋3F"},{"poiid":"B2094757D06AA5FA479A","title":"永顺和苏州汤包馆(闻喜店)","lon":"121.4521159","lat":"31.307037569","category":"68","category_name":"快餐厅","address":"闸北区闻喜路851号(近共和新路)"},{"poiid":"B2094654DB6AA2FC4798","title":"味之都 共和店","lon":"121.448828054","lat":"31.298277793","category":"68","category_name":"快餐厅","address":"闸北区共和新路3318号大润发2楼(近江场西路)"},{"poiid":"B2094654D464A3F4479D","title":"幸福新苑","lon":"121.44653","lat":"31.30352","category":"47","category_name":"住宅区","address":"场中路2380弄"},{"poiid":"B2094654D56CA5F84598","title":"上海铁路分局北郊站装卸委外宿舍楼","lon":"121.45579","lat":"31.30016","category":"47","category_name":"住宅区","address":""},{"poiid":"B2094654D56CA4FE419E","title":"快客联华便利连锁","lon":"121.45305","lat":"31.29875","category":"117","category_name":"便民商店/便利店","address":"江场路1395乙"},{"poiid":"B2094654DB6AA6F9409F","title":"上海东联沪港汽车销售有限公司","lon":"121.45371","lat":"31.30512","category":"159","category_name":"汽车维修","address":"闸北区场中路1980号(近一号线彭浦新村站)"},{"poiid":"B2094655D26AA5F44293","title":"长安机动车驾驶员培训中心场中路分部","lon":"121.45325","lat":"31.30517","category":"247","category_name":"餐饮美食","address":"宝山区场中路1980号(近一号线彭浦新村站)"},{"poiid":"B209475DD364A4FF4593","title":"洞子张老匠火锅","lon":"121.448738","lat":"31.298482","category":"247","category_name":"餐饮美食","address":"上海市 共和新路3388号汇客美食广场2楼"},{"poiid":"B2094654D56CA5F8419D","title":"锦都歌城","lon":"121.44939","lat":"31.30186","category":"170","category_name":"KTV","address":"共和新路3501"},{"poiid":"B2094757D06AA7FD439B","title":"韩一拌饭馆","lon":"121.457784843","lat":"31.3021360567","category":"247","category_name":"餐饮美食","address":"上海杨浦区国济路30号(五角场百联又一城附近)"},{"poiid":"B2094655D26AA4F8449A","title":"大众汽车沪东销售服务共和新路店","lon":"121.44816","lat":"31.30147","category":"247","category_name":"餐饮美食","address":"闸北区共和新路3550号(近百联汽车广场)"}]