[{"poiid":"B2094655D26AABFD499F","title":"好乐迪量贩式KTV（淮海中路店）","lon":"121.47092","lat":"31.22199","category":"170","category_name":"KTV","address":"卢湾区淮海中路438号4楼近重庆南路;;"},{"poiid":"B2094757D465A4FB409B","title":"顶特勒粥面馆","lon":"121.469218054","lat":"31.221221793","category":"68","category_name":"快餐厅","address":"卢湾区淮海中路494弄22号(近雁荡路)"},{"poiid":"B2094654DA6DABFA499E","title":"味香斋","lon":"121.46993580196","lat":"31.221233069029","category":"68","category_name":"快餐厅","address":"卢湾区雁荡路14号(近淮海中路)"},{"poiid":"B2094753D76FAAFA449C","title":"上海滩国泰旗舰店","lon":"121.466011","lat":"31.216125","category":"249","category_name":"购物服务","address":"淮海中路868号"},{"poiid":"B209475CD564A7F84292","title":"上海滩新天地店","lon":"121.47463","lat":"31.22164","category":"119","category_name":"商场","address":"\"太仓路181弄新天地北里15号\r\n\""},{"poiid":"B209475CD564A7F8439E","title":"上海滩中信泰富店","lon":"121.45602","lat":"31.22851","category":"119","category_name":"商场","address":"\"南京西路1168号中信泰富广场，店铺号221.\r\n\""},{"poiid":"B2094757D06FA2F54392","title":"淮海中路雁荡路","lon":"121.469795542","lat":"31.2212911035","category":"260","category_name":"其他","address":"上海淮海中路雁荡路"},{"poiid":"B2094757DB68A4FC439A","title":"香港谭仔三哥餐厅 成都南路店","lon":"121.468113","lat":"31.220826","category":"72","category_name":"广东菜","address":"卢湾区成都南路160号3楼(淮海中路口)"},{"poiid":"B2094757D06FA3FC489D","title":"屋企汤馆 淮海店","lon":"121.4708246443","lat":"31.221864028321","category":"72","category_name":"广东菜","address":"卢湾区淮海中路438号2楼(近重庆南路)"},{"poiid":"B2094757D064A5FD489B","title":"典谟新知咖啡馆","lon":"121.470884738","lat":"31.2210811051","category":"260","category_name":"其他","address":"卢湾区兴安路139号(近淮海路雁荡路)"},{"poiid":"B2094753D76CA2F4449C","title":"查厘士","lon":"121.471084","lat":"31.221948","category":"247","category_name":"餐饮美食","address":"上海市 淮海路438号"},{"poiid":"B2094654DB69A5FD4099","title":"好乐迪(顺昌路旗舰店)","lon":"121.46782","lat":"31.22111","category":"170","category_name":"KTV","address":"卢湾区顺昌路2号(近太仓路新天地)"},{"poiid":"B2094757D06FA5FC429C","title":"韩蒸天下养生馆","lon":"121.46975773","lat":"31.220693096","category":"149","category_name":"洗浴推拿场所","address":"卢湾区雁荡路29号5楼(近淮海中路)"},{"poiid":"B2094757D06FA0FE409B","title":"Bricco cafe(淮海路店)","lon":"121.46821","lat":"31.22075","category":"94","category_name":"西餐厅","address":"卢湾区成都南路158号甲(近淮海中路)"},{"poiid":"B2094757D06BA7FB489F","title":"新贝乐意式餐厅(雁荡路店)","lon":"121.46901273","lat":"31.2208641","category":"500","category_name":"未知分类","address":"上海市卢湾区雁荡路33号"},{"poiid":"B2094654DB69A5FD409B","title":"好乐迪(淮海中路店)","lon":"121.47101","lat":"31.222","category":"170","category_name":"KTV","address":"卢湾区淮海中路438号4-5楼(近重庆南路)"},{"poiid":"B2094757D06FA4FD4299","title":"天香火锅楼(淮海店)","lon":"121.46836","lat":"31.22093","category":"86","category_name":"火锅店","address":"卢湾区淮海中路542弄103室(近成都南路)"},{"poiid":"B2094757D068A2F5449F","title":"世纪巴士大厦","lon":"121.47163462","lat":"31.222440357","category":"46","category_name":"楼宇","address":"上海淮海中路398号"},{"poiid":"B2094751DA6DA0FA479B","title":"猫屎咖啡(新天地店)","lon":"121.4691613","lat":"31.2232952","category":"247","category_name":"餐饮美食","address":"太仓路200号"},{"poiid":"B2094655D268ABFF409F","title":"延安东路立交桥","lon":"121.469","lat":"31.22467","category":"250","category_name":"公园户外","address":""},{"poiid":"B2094757D069A7FA4793","title":"新割烹小熊屋","lon":"121.467968054","lat":"31.221256793","category":"95","category_name":"日本料理","address":"卢湾区成都南路105-117号(近淮海中路)"},{"poiid":"B2094750D768A7FE4099","title":"Season三层堂和牛料理","lon":"121.469","lat":"31.221","category":"95","category_name":"日本料理","address":"卢湾区淮海中路542弄2号(近成都南路)"},{"poiid":"B2094752D16CAAF94893","title":"ABC Cooking Studio（K11店）","lon":"121.469221","lat":"31.225111","category":"247","category_name":"餐饮美食","address":null},{"poiid":"B2094750D26DA7F84799","title":"清风人家","lon":"121.47091","lat":"31.22203","category":"260","category_name":"其他","address":"卢湾区淮海中路438号B1楼(近重庆南路)"},{"poiid":"B2094654D564A5FB489E","title":"都市风情街","lon":"121.46743","lat":"31.22232","category":"116","category_name":"特色商业街","address":"卢湾区长乐路190号都市风情街内(近成都南路)"},{"poiid":"B2094654DB65A3F54692","title":"上海锦江国际购物中心商务写字楼","lon":"121.469","lat":"31.22054","category":"46","category_name":"楼宇","address":"淮海中路527号"},{"poiid":"B2094757DB6CA5F84593","title":"Element Fresh","lon":"121.470734","lat":"31.223412","category":"247","category_name":"餐饮美食","address":"Xin tian Di"},{"poiid":"B2094757D06FA6FC449B","title":"京世造型(雁荡店)","lon":"121.469967","lat":"31.221091","category":"148","category_name":"美容美发店","address":"上海卢湾区雁荡路5号2楼(淮海中路口)"},{"poiid":"B2094757D66FA1F5449C","title":"好乐的(淮海店)","lon":"121.47069161","lat":"31.221906582","category":"249","category_name":"购物服务","address":"上海淮海中路1543号"},{"poiid":"B2094757D06BA5F44892","title":"鲜得来","lon":"121.46988673","lat":"31.220740097","category":"247","category_name":"餐饮美食","address":"上海市卢湾区雁荡路13号"},{"poiid":"B2094750DB6AA5F84798","title":"一町奶茶(淮海路店)","lon":"121.470686","lat":"31.221858","category":"113","category_name":"冷饮店","address":"卢湾区老重庆中路54号(近长乐路)"},{"poiid":"B2094654DA6DABFB489D","title":"上海锦江国际购物中心","lon":"121.469","lat":"31.22054","category":"119","category_name":"商场","address":"朝阳区北三环东路与京顺路交接处路口北侧"},{"poiid":"B209475CD76EA0F54692","title":"环贸iapm","lon":"121.469993","lat":"31.223688","category":"500","category_name":"未知分类","address":"上海市 卢湾区淮海中路999号"},{"poiid":"B2094757DB6FA4FA439A","title":"揽香","lon":"121.469027","lat":"31.224747","category":"247","category_name":"餐饮美食","address":"卢湾区中环广场"},{"poiid":"B2094750D269A0FD4593","title":"恒基海鲜火锅","lon":"121.4681","lat":"31.22087","category":"86","category_name":"火锅店","address":"卢湾区成都南路127号(近淮海路)"},{"poiid":"B2094757D664A4FF4492","title":"丝袜奶茶 南京西路店 Denny House","lon":"121.46797","lat":"31.22142","category":"67","category_name":"甜品店","address":"静安区南京西路1025弄静安别墅128号(近南汇路)"},{"poiid":"B2094757D068A5FA4192","title":"北万新(淮海店)","lon":"121.47041414","lat":"31.221747502","category":"68","category_name":"快餐厅","address":"卢湾区淮海中路462号(近重庆南路)"},{"poiid":"B2094752D06EA5F44092","title":"Pizza Marzano（披萨马上诺）","lon":"121.46927","lat":"31.225073","category":"247","category_name":"餐饮美食","address":null},{"poiid":"B2094654DA6DABFB479A","title":"兴安餐厅","lon":"121.470078054","lat":"31.220802793","category":"68","category_name":"快餐厅","address":"卢湾区兴安路145号(近雁荡路)"},{"poiid":"B2094757D068A6F5479A","title":"Nolita","lon":"121.46507","lat":"31.22554","category":"94","category_name":"西餐厅","address":"静安区大沽路422号"},{"poiid":"B2094752D16DAAFE4898","title":"合点寿司","lon":"121.469321","lat":"31.225022","category":"247","category_name":"餐饮美食","address":"淮海中路300号K11购物艺术中心302号铺(近黄陂南路)"},{"poiid":"B2094757D06FA7F4469A","title":"85度C(成都店)","lon":"121.46835","lat":"31.22084","category":"112","category_name":"糕饼店","address":"卢湾区成都南路127号(近淮海中路)"},{"poiid":"B209475CD26BA5F5499D","title":"查理士","lon":"121.471008","lat":"31.221706","category":"247","category_name":"餐饮美食","address":"上海市 淮海中路447号"},{"poiid":"B2094757D068A4F9429C","title":"徐其修凉茶","lon":"121.47148973","lat":"31.222897143","category":"113","category_name":"冷饮店","address":"卢湾区兴安路98弄10号(近雁荡路)"},{"poiid":"B2094757D06AAAFE4499","title":"佳鸣海鲜火锅楼","lon":"121.470263","lat":"31.220876","category":"86","category_name":"火锅店","address":"卢湾区兴安路167号(近雁荡路)"},{"poiid":"B2094757D06FA4FA469A","title":"大花桌游(淮海中路店)","lon":"121.46994","lat":"31.22109","category":"175","category_name":"棋牌室","address":"上海卢湾区淮海中路461号9楼68室"},{"poiid":"B2094655D36CA0F5409C","title":"淮海中路重庆南路","lon":"121.46961","lat":"31.22117","category":"38","category_name":"公交车站","address":""},{"poiid":"B2094654DA6EA1FF419F","title":"永新大厦","lon":"121.468","lat":"31.2233","category":"46","category_name":"楼宇","address":"卢湾区淮海中路527号"},{"poiid":"B2094757D06FA4FA489C","title":"莉莲蛋挞 淮海店 Lillian Cake Shop","lon":"121.46995","lat":"31.22103","category":"67","category_name":"甜品店","address":"徐汇区淮海中路939号巴黎春天淮海店1楼(近地铁一号线)"},{"poiid":"B2094654DB64AAFD439F","title":"倍可意意漾时光","lon":"121.46794","lat":"31.22096","category":"65","category_name":"咖啡厅","address":"成都南路158甲"},{"poiid":"B2094655D26AABFD499F","title":"好乐迪量贩式KTV（淮海中路店）","lon":"121.47092","lat":"31.22199","category":"170","category_name":"KTV","address":"卢湾区淮海中路438号4楼近重庆南路;;"},{"poiid":"B2094757D465A4FB409B","title":"顶特勒粥面馆","lon":"121.469218054","lat":"31.221221793","category":"68","category_name":"快餐厅","address":"卢湾区淮海中路494弄22号(近雁荡路)"},{"poiid":"B2094654DA6DABFA499E","title":"味香斋","lon":"121.46993580196","lat":"31.221233069029","category":"68","category_name":"快餐厅","address":"卢湾区雁荡路14号(近淮海中路)"},{"poiid":"B2094753D76FAAFA449C","title":"上海滩国泰旗舰店","lon":"121.466011","lat":"31.216125","category":"249","category_name":"购物服务","address":"淮海中路868号"},{"poiid":"B209475CD564A7F84292","title":"上海滩新天地店","lon":"121.47463","lat":"31.22164","category":"119","category_name":"商场","address":"\"太仓路181弄新天地北里15号\r\n\""},{"poiid":"B209475CD564A7F8439E","title":"上海滩中信泰富店","lon":"121.45602","lat":"31.22851","category":"119","category_name":"商场","address":"\"南京西路1168号中信泰富广场，店铺号221.\r\n\""},{"poiid":"B2094757D06FA2F54392","title":"淮海中路雁荡路","lon":"121.469795542","lat":"31.2212911035","category":"260","category_name":"其他","address":"上海淮海中路雁荡路"},{"poiid":"B2094757DB68A4FC439A","title":"香港谭仔三哥餐厅 成都南路店","lon":"121.468113","lat":"31.220826","category":"72","category_name":"广东菜","address":"卢湾区成都南路160号3楼(淮海中路口)"},{"poiid":"B2094757D06FA3FC489D","title":"屋企汤馆 淮海店","lon":"121.4708246443","lat":"31.221864028321","category":"72","category_name":"广东菜","address":"卢湾区淮海中路438号2楼(近重庆南路)"},{"poiid":"B2094757D064A5FD489B","title":"典谟新知咖啡馆","lon":"121.470884738","lat":"31.2210811051","category":"260","category_name":"其他","address":"卢湾区兴安路139号(近淮海路雁荡路)"},{"poiid":"B2094753D76CA2F4449C","title":"查厘士","lon":"121.471084","lat":"31.221948","category":"247","category_name":"餐饮美食","address":"上海市 淮海路438号"},{"poiid":"B2094654DB69A5FD4099","title":"好乐迪(顺昌路旗舰店)","lon":"121.46782","lat":"31.22111","category":"170","category_name":"KTV","address":"卢湾区顺昌路2号(近太仓路新天地)"},{"poiid":"B2094757D06FA5FC429C","title":"韩蒸天下养生馆","lon":"121.46975773","lat":"31.220693096","category":"149","category_name":"洗浴推拿场所","address":"卢湾区雁荡路29号5楼(近淮海中路)"},{"poiid":"B2094757D06FA0FE409B","title":"Bricco cafe(淮海路店)","lon":"121.46821","lat":"31.22075","category":"94","category_name":"西餐厅","address":"卢湾区成都南路158号甲(近淮海中路)"},{"poiid":"B2094757D06BA7FB489F","title":"新贝乐意式餐厅(雁荡路店)","lon":"121.46901273","lat":"31.2208641","category":"500","category_name":"未知分类","address":"上海市卢湾区雁荡路33号"},{"poiid":"B2094654DB69A5FD409B","title":"好乐迪(淮海中路店)","lon":"121.47101","lat":"31.222","category":"170","category_name":"KTV","address":"卢湾区淮海中路438号4-5楼(近重庆南路)"},{"poiid":"B2094757D06FA4FD4299","title":"天香火锅楼(淮海店)","lon":"121.46836","lat":"31.22093","category":"86","category_name":"火锅店","address":"卢湾区淮海中路542弄103室(近成都南路)"},{"poiid":"B2094757D068A2F5449F","title":"世纪巴士大厦","lon":"121.47163462","lat":"31.222440357","category":"46","category_name":"楼宇","address":"上海淮海中路398号"},{"poiid":"B2094751DA6DA0FA479B","title":"猫屎咖啡(新天地店)","lon":"121.4691613","lat":"31.2232952","category":"247","category_name":"餐饮美食","address":"太仓路200号"},{"poiid":"B2094655D268ABFF409F","title":"延安东路立交桥","lon":"121.469","lat":"31.22467","category":"250","category_name":"公园户外","address":""},{"poiid":"B2094757D069A7FA4793","title":"新割烹小熊屋","lon":"121.467968054","lat":"31.221256793","category":"95","category_name":"日本料理","address":"卢湾区成都南路105-117号(近淮海中路)"},{"poiid":"B2094750D768A7FE4099","title":"Season三层堂和牛料理","lon":"121.469","lat":"31.221","category":"95","category_name":"日本料理","address":"卢湾区淮海中路542弄2号(近成都南路)"},{"poiid":"B2094752D16CAAF94893","title":"ABC Cooking Studio（K11店）","lon":"121.469221","lat":"31.225111","category":"247","category_name":"餐饮美食","address":null},{"poiid":"B2094750D26DA7F84799","title":"清风人家","lon":"121.47091","lat":"31.22203","category":"260","category_name":"其他","address":"卢湾区淮海中路438号B1楼(近重庆南路)"},{"poiid":"B2094654D564A5FB489E","title":"都市风情街","lon":"121.46743","lat":"31.22232","category":"116","category_name":"特色商业街","address":"卢湾区长乐路190号都市风情街内(近成都南路)"},{"poiid":"B2094654DB65A3F54692","title":"上海锦江国际购物中心商务写字楼","lon":"121.469","lat":"31.22054","category":"46","category_name":"楼宇","address":"淮海中路527号"},{"poiid":"B2094757DB6CA5F84593","title":"Element Fresh","lon":"121.470734","lat":"31.223412","category":"247","category_name":"餐饮美食","address":"Xin tian Di"},{"poiid":"B2094757D06FA6FC449B","title":"京世造型(雁荡店)","lon":"121.469967","lat":"31.221091","category":"148","category_name":"美容美发店","address":"上海卢湾区雁荡路5号2楼(淮海中路口)"},{"poiid":"B2094757D66FA1F5449C","title":"好乐的(淮海店)","lon":"121.47069161","lat":"31.221906582","category":"249","category_name":"购物服务","address":"上海淮海中路1543号"},{"poiid":"B2094757D06BA5F44892","title":"鲜得来","lon":"121.46988673","lat":"31.220740097","category":"247","category_name":"餐饮美食","address":"上海市卢湾区雁荡路13号"},{"poiid":"B2094750DB6AA5F84798","title":"一町奶茶(淮海路店)","lon":"121.470686","lat":"31.221858","category":"113","category_name":"冷饮店","address":"卢湾区老重庆中路54号(近长乐路)"},{"poiid":"B2094654DA6DABFB489D","title":"上海锦江国际购物中心","lon":"121.469","lat":"31.22054","category":"119","category_name":"商场","address":"朝阳区北三环东路与京顺路交接处路口北侧"},{"poiid":"B209475CD76EA0F54692","title":"环贸iapm","lon":"121.469993","lat":"31.223688","category":"500","category_name":"未知分类","address":"上海市 卢湾区淮海中路999号"},{"poiid":"B2094757DB6FA4FA439A","title":"揽香","lon":"121.469027","lat":"31.224747","category":"247","category_name":"餐饮美食","address":"卢湾区中环广场"},{"poiid":"B2094750D269A0FD4593","title":"恒基海鲜火锅","lon":"121.4681","lat":"31.22087","category":"86","category_name":"火锅店","address":"卢湾区成都南路127号(近淮海路)"},{"poiid":"B2094757D664A4FF4492","title":"丝袜奶茶 南京西路店 Denny House","lon":"121.46797","lat":"31.22142","category":"67","category_name":"甜品店","address":"静安区南京西路1025弄静安别墅128号(近南汇路)"},{"poiid":"B2094757D068A5FA4192","title":"北万新(淮海店)","lon":"121.47041414","lat":"31.221747502","category":"68","category_name":"快餐厅","address":"卢湾区淮海中路462号(近重庆南路)"},{"poiid":"B2094752D06EA5F44092","title":"Pizza Marzano（披萨马上诺）","lon":"121.46927","lat":"31.225073","category":"247","category_name":"餐饮美食","address":null},{"poiid":"B2094654DA6DABFB479A","title":"兴安餐厅","lon":"121.470078054","lat":"31.220802793","category":"68","category_name":"快餐厅","address":"卢湾区兴安路145号(近雁荡路)"},{"poiid":"B2094757D068A6F5479A","title":"Nolita","lon":"121.46507","lat":"31.22554","category":"94","category_name":"西餐厅","address":"静安区大沽路422号"},{"poiid":"B2094752D16DAAFE4898","title":"合点寿司","lon":"121.469321","lat":"31.225022","category":"247","category_name":"餐饮美食","address":"淮海中路300号K11购物艺术中心302号铺(近黄陂南路)"},{"poiid":"B2094757D06FA7F4469A","title":"85度C(成都店)","lon":"121.46835","lat":"31.22084","category":"112","category_name":"糕饼店","address":"卢湾区成都南路127号(近淮海中路)"},{"poiid":"B209475CD26BA5F5499D","title":"查理士","lon":"121.471008","lat":"31.221706","category":"247","category_name":"餐饮美食","address":"上海市 淮海中路447号"},{"poiid":"B2094757D068A4F9429C","title":"徐其修凉茶","lon":"121.47148973","lat":"31.222897143","category":"113","category_name":"冷饮店","address":"卢湾区兴安路98弄10号(近雁荡路)"},{"poiid":"B2094757D06AAAFE4499","title":"佳鸣海鲜火锅楼","lon":"121.470263","lat":"31.220876","category":"86","category_name":"火锅店","address":"卢湾区兴安路167号(近雁荡路)"},{"poiid":"B2094757D06FA4FA469A","title":"大花桌游(淮海中路店)","lon":"121.46994","lat":"31.22109","category":"175","category_name":"棋牌室","address":"上海卢湾区淮海中路461号9楼68室"},{"poiid":"B2094655D36CA0F5409C","title":"淮海中路重庆南路","lon":"121.46961","lat":"31.22117","category":"38","category_name":"公交车站","address":""},{"poiid":"B2094654DA6EA1FF419F","title":"永新大厦","lon":"121.468","lat":"31.2233","category":"46","category_name":"楼宇","address":"卢湾区淮海中路527号"},{"poiid":"B2094757D06FA4FA489C","title":"莉莲蛋挞 淮海店 Lillian Cake Shop","lon":"121.46995","lat":"31.22103","category":"67","category_name":"甜品店","address":"徐汇区淮海中路939号巴黎春天淮海店1楼(近地铁一号线)"},{"poiid":"B2094654DB64AAFD439F","title":"倍可意意漾时光","lon":"121.46794","lat":"31.22096","category":"65","category_name":"咖啡厅","address":"成都南路158甲"},{"poiid":"B2094655D26AABFD499F","title":"好乐迪量贩式KTV（淮海中路店）","lon":"121.47092","lat":"31.22199","category":"170","category_name":"KTV","address":"卢湾区淮海中路438号4楼近重庆南路;;"},{"poiid":"B2094757D465A4FB409B","title":"顶特勒粥面馆","lon":"121.469218054","lat":"31.221221793","category":"68","category_name":"快餐厅","address":"卢湾区淮海中路494弄22号(近雁荡路)"},{"poiid":"B2094654DA6DABFA499E","title":"味香斋","lon":"121.46993580196","lat":"31.221233069029","category":"68","category_name":"快餐厅","address":"卢湾区雁荡路14号(近淮海中路)"},{"poiid":"B2094753D76FAAFA449C","title":"上海滩国泰旗舰店","lon":"121.466011","lat":"31.216125","category":"249","category_name":"购物服务","address":"淮海中路868号"},{"poiid":"B209475CD564A7F84292","title":"上海滩新天地店","lon":"121.47463","lat":"31.22164","category":"119","category_name":"商场","address":"\"太仓路181弄新天地北里15号\r\n\""},{"poiid":"B209475CD564A7F8439E","title":"上海滩中信泰富店","lon":"121.45602","lat":"31.22851","category":"119","category_name":"商场","address":"\"南京西路1168号中信泰富广场，店铺号221.\r\n\""},{"poiid":"B2094757D06FA2F54392","title":"淮海中路雁荡路","lon":"121.469795542","lat":"31.2212911035","category":"260","category_name":"其他","address":"上海淮海中路雁荡路"},{"poiid":"B2094757DB68A4FC439A","title":"香港谭仔三哥餐厅 成都南路店","lon":"121.468113","lat":"31.220826","category":"72","category_name":"广东菜","address":"卢湾区成都南路160号3楼(淮海中路口)"},{"poiid":"B2094757D06FA3FC489D","title":"屋企汤馆 淮海店","lon":"121.4708246443","lat":"31.221864028321","category":"72","category_name":"广东菜","address":"卢湾区淮海中路438号2楼(近重庆南路)"},{"poiid":"B2094757D064A5FD489B","title":"典谟新知咖啡馆","lon":"121.470884738","lat":"31.2210811051","category":"260","category_name":"其他","address":"卢湾区兴安路139号(近淮海路雁荡路)"},{"poiid":"B2094753D76CA2F4449C","title":"查厘士","lon":"121.471084","lat":"31.221948","category":"247","category_name":"餐饮美食","address":"上海市 淮海路438号"},{"poiid":"B2094654DB69A5FD4099","title":"好乐迪(顺昌路旗舰店)","lon":"121.46782","lat":"31.22111","category":"170","category_name":"KTV","address":"卢湾区顺昌路2号(近太仓路新天地)"},{"poiid":"B2094757D06FA5FC429C","title":"韩蒸天下养生馆","lon":"121.46975773","lat":"31.220693096","category":"149","category_name":"洗浴推拿场所","address":"卢湾区雁荡路29号5楼(近淮海中路)"},{"poiid":"B2094757D06FA0FE409B","title":"Bricco cafe(淮海路店)","lon":"121.46821","lat":"31.22075","category":"94","category_name":"西餐厅","address":"卢湾区成都南路158号甲(近淮海中路)"},{"poiid":"B2094757D06BA7FB489F","title":"新贝乐意式餐厅(雁荡路店)","lon":"121.46901273","lat":"31.2208641","category":"500","category_name":"未知分类","address":"上海市卢湾区雁荡路33号"},{"poiid":"B2094654DB69A5FD409B","title":"好乐迪(淮海中路店)","lon":"121.47101","lat":"31.222","category":"170","category_name":"KTV","address":"卢湾区淮海中路438号4-5楼(近重庆南路)"},{"poiid":"B2094757D06FA4FD4299","title":"天香火锅楼(淮海店)","lon":"121.46836","lat":"31.22093","category":"86","category_name":"火锅店","address":"卢湾区淮海中路542弄103室(近成都南路)"},{"poiid":"B2094757D068A2F5449F","title":"世纪巴士大厦","lon":"121.47163462","lat":"31.222440357","category":"46","category_name":"楼宇","address":"上海淮海中路398号"},{"poiid":"B2094751DA6DA0FA479B","title":"猫屎咖啡(新天地店)","lon":"121.4691613","lat":"31.2232952","category":"247","category_name":"餐饮美食","address":"太仓路200号"},{"poiid":"B2094655D268ABFF409F","title":"延安东路立交桥","lon":"121.469","lat":"31.22467","category":"250","category_name":"公园户外","address":""},{"poiid":"B2094757D069A7FA4793","title":"新割烹小熊屋","lon":"121.467968054","lat":"31.221256793","category":"95","category_name":"日本料理","address":"卢湾区成都南路105-117号(近淮海中路)"},{"poiid":"B2094750D768A7FE4099","title":"Season三层堂和牛料理","lon":"121.469","lat":"31.221","category":"95","category_name":"日本料理","address":"卢湾区淮海中路542弄2号(近成都南路)"},{"poiid":"B2094752D16CAAF94893","title":"ABC Cooking Studio（K11店）","lon":"121.469221","lat":"31.225111","category":"247","category_name":"餐饮美食","address":null},{"poiid":"B2094750D26DA7F84799","title":"清风人家","lon":"121.47091","lat":"31.22203","category":"260","category_name":"其他","address":"卢湾区淮海中路438号B1楼(近重庆南路)"},{"poiid":"B2094654D564A5FB489E","title":"都市风情街","lon":"121.46743","lat":"31.22232","category":"116","category_name":"特色商业街","address":"卢湾区长乐路190号都市风情街内(近成都南路)"},{"poiid":"B2094654DB65A3F54692","title":"上海锦江国际购物中心商务写字楼","lon":"121.469","lat":"31.22054","category":"46","category_name":"楼宇","address":"淮海中路527号"},{"poiid":"B2094757DB6CA5F84593","title":"Element Fresh","lon":"121.470734","lat":"31.223412","category":"247","category_name":"餐饮美食","address":"Xin tian Di"},{"poiid":"B2094757D06FA6FC449B","title":"京世造型(雁荡店)","lon":"121.469967","lat":"31.221091","category":"148","category_name":"美容美发店","address":"上海卢湾区雁荡路5号2楼(淮海中路口)"},{"poiid":"B2094757D66FA1F5449C","title":"好乐的(淮海店)","lon":"121.47069161","lat":"31.221906582","category":"249","category_name":"购物服务","address":"上海淮海中路1543号"},{"poiid":"B2094757D06BA5F44892","title":"鲜得来","lon":"121.46988673","lat":"31.220740097","category":"247","category_name":"餐饮美食","address":"上海市卢湾区雁荡路13号"},{"poiid":"B2094750DB6AA5F84798","title":"一町奶茶(淮海路店)","lon":"121.470686","lat":"31.221858","category":"113","category_name":"冷饮店","address":"卢湾区老重庆中路54号(近长乐路)"},{"poiid":"B2094654DA6DABFB489D","title":"上海锦江国际购物中心","lon":"121.469","lat":"31.22054","category":"119","category_name":"商场","address":"朝阳区北三环东路与京顺路交接处路口北侧"},{"poiid":"B209475CD76EA0F54692","title":"环贸iapm","lon":"121.469993","lat":"31.223688","category":"500","category_name":"未知分类","address":"上海市 卢湾区淮海中路999号"},{"poiid":"B2094757DB6FA4FA439A","title":"揽香","lon":"121.469027","lat":"31.224747","category":"247","category_name":"餐饮美食","address":"卢湾区中环广场"},{"poiid":"B2094750D269A0FD4593","title":"恒基海鲜火锅","lon":"121.4681","lat":"31.22087","category":"86","category_name":"火锅店","address":"卢湾区成都南路127号(近淮海路)"},{"poiid":"B2094757D664A4FF4492","title":"丝袜奶茶 南京西路店 Denny House","lon":"121.46797","lat":"31.22142","category":"67","category_name":"甜品店","address":"静安区南京西路1025弄静安别墅128号(近南汇路)"},{"poiid":"B2094757D068A5FA4192","title":"北万新(淮海店)","lon":"121.47041414","lat":"31.221747502","category":"68","category_name":"快餐厅","address":"卢湾区淮海中路462号(近重庆南路)"},{"poiid":"B2094752D06EA5F44092","title":"Pizza Marzano（披萨马上诺）","lon":"121.46927","lat":"31.225073","category":"247","category_name":"餐饮美食","address":null},{"poiid":"B2094654DA6DABFB479A","title":"兴安餐厅","lon":"121.470078054","lat":"31.220802793","category":"68","category_name":"快餐厅","address":"卢湾区兴安路145号(近雁荡路)"},{"poiid":"B2094757D068A6F5479A","title":"Nolita","lon":"121.46507","lat":"31.22554","category":"94","category_name":"西餐厅","address":"静安区大沽路422号"},{"poiid":"B2094752D16DAAFE4898","title":"合点寿司","lon":"121.469321","lat":"31.225022","category":"247","category_name":"餐饮美食","address":"淮海中路300号K11购物艺术中心302号铺(近黄陂南路)"},{"poiid":"B2094757D06FA7F4469A","title":"85度C(成都店)","lon":"121.46835","lat":"31.22084","category":"112","category_name":"糕饼店","address":"卢湾区成都南路127号(近淮海中路)"},{"poiid":"B209475CD26BA5F5499D","title":"查理士","lon":"121.471008","lat":"31.221706","category":"247","category_name":"餐饮美食","address":"上海市 淮海中路447号"},{"poiid":"B2094757D068A4F9429C","title":"徐其修凉茶","lon":"121.47148973","lat":"31.222897143","category":"113","category_name":"冷饮店","address":"卢湾区兴安路98弄10号(近雁荡路)"},{"poiid":"B2094757D06AAAFE4499","title":"佳鸣海鲜火锅楼","lon":"121.470263","lat":"31.220876","category":"86","category_name":"火锅店","address":"卢湾区兴安路167号(近雁荡路)"},{"poiid":"B2094757D06FA4FA469A","title":"大花桌游(淮海中路店)","lon":"121.46994","lat":"31.22109","category":"175","category_name":"棋牌室","address":"上海卢湾区淮海中路461号9楼68室"},{"poiid":"B2094655D36CA0F5409C","title":"淮海中路重庆南路","lon":"121.46961","lat":"31.22117","category":"38","category_name":"公交车站","address":""},{"poiid":"B2094654DA6EA1FF419F","title":"永新大厦","lon":"121.468","lat":"31.2233","category":"46","category_name":"楼宇","address":"卢湾区淮海中路527号"},{"poiid":"B2094757D06FA4FA489C","title":"莉莲蛋挞 淮海店 Lillian Cake Shop","lon":"121.46995","lat":"31.22103","category":"67","category_name":"甜品店","address":"徐汇区淮海中路939号巴黎春天淮海店1楼(近地铁一号线)"},{"poiid":"B2094654DB64AAFD439F","title":"倍可意意漾时光","lon":"121.46794","lat":"31.22096","category":"65","category_name":"咖啡厅","address":"成都南路158甲"},{"poiid":"B2094655D26AABFD499F","title":"好乐迪量贩式KTV（淮海中路店）","lon":"121.47092","lat":"31.22199","category":"170","category_name":"KTV","address":"卢湾区淮海中路438号4楼近重庆南路;;"},{"poiid":"B2094757D465A4FB409B","title":"顶特勒粥面馆","lon":"121.469218054","lat":"31.221221793","category":"68","category_name":"快餐厅","address":"卢湾区淮海中路494弄22号(近雁荡路)"},{"poiid":"B2094654DA6DABFA499E","title":"味香斋","lon":"121.46993580196","lat":"31.221233069029","category":"68","category_name":"快餐厅","address":"卢湾区雁荡路14号(近淮海中路)"},{"poiid":"B2094753D76FAAFA449C","title":"上海滩国泰旗舰店","lon":"121.466011","lat":"31.216125","category":"249","category_name":"购物服务","address":"淮海中路868号"},{"poiid":"B209475CD564A7F84292","title":"上海滩新天地店","lon":"121.47463","lat":"31.22164","category":"119","category_name":"商场","address":"\"太仓路181弄新天地北里15号\r\n\""},{"poiid":"B209475CD564A7F8439E","title":"上海滩中信泰富店","lon":"121.45602","lat":"31.22851","category":"119","category_name":"商场","address":"\"南京西路1168号中信泰富广场，店铺号221.\r\n\""},{"poiid":"B2094757D06FA2F54392","title":"淮海中路雁荡路","lon":"121.469795542","lat":"31.2212911035","category":"260","category_name":"其他","address":"上海淮海中路雁荡路"},{"poiid":"B2094757DB68A4FC439A","title":"香港谭仔三哥餐厅 成都南路店","lon":"121.468113","lat":"31.220826","category":"72","category_name":"广东菜","address":"卢湾区成都南路160号3楼(淮海中路口)"},{"poiid":"B2094757D06FA3FC489D","title":"屋企汤馆 淮海店","lon":"121.4708246443","lat":"31.221864028321","category":"72","category_name":"广东菜","address":"卢湾区淮海中路438号2楼(近重庆南路)"},{"poiid":"B2094757D064A5FD489B","title":"典谟新知咖啡馆","lon":"121.470884738","lat":"31.2210811051","category":"260","category_name":"其他","address":"卢湾区兴安路139号(近淮海路雁荡路)"},{"poiid":"B2094753D76CA2F4449C","title":"查厘士","lon":"121.471084","lat":"31.221948","category":"247","category_name":"餐饮美食","address":"上海市 淮海路438号"},{"poiid":"B2094654DB69A5FD4099","title":"好乐迪(顺昌路旗舰店)","lon":"121.46782","lat":"31.22111","category":"170","category_name":"KTV","address":"卢湾区顺昌路2号(近太仓路新天地)"},{"poiid":"B2094757D06FA5FC429C","title":"韩蒸天下养生馆","lon":"121.46975773","lat":"31.220693096","category":"149","category_name":"洗浴推拿场所","address":"卢湾区雁荡路29号5楼(近淮海中路)"},{"poiid":"B2094757D06FA0FE409B","title":"Bricco cafe(淮海路店)","lon":"121.46821","lat":"31.22075","category":"94","category_name":"西餐厅","address":"卢湾区成都南路158号甲(近淮海中路)"},{"poiid":"B2094757D06BA7FB489F","title":"新贝乐意式餐厅(雁荡路店)","lon":"121.46901273","lat":"31.2208641","category":"500","category_name":"未知分类","address":"上海市卢湾区雁荡路33号"},{"poiid":"B2094654DB69A5FD409B","title":"好乐迪(淮海中路店)","lon":"121.47101","lat":"31.222","category":"170","category_name":"KTV","address":"卢湾区淮海中路438号4-5楼(近重庆南路)"},{"poiid":"B2094757D06FA4FD4299","title":"天香火锅楼(淮海店)","lon":"121.46836","lat":"31.22093","category":"86","category_name":"火锅店","address":"卢湾区淮海中路542弄103室(近成都南路)"},{"poiid":"B2094757D068A2F5449F","title":"世纪巴士大厦","lon":"121.47163462","lat":"31.222440357","category":"46","category_name":"楼宇","address":"上海淮海中路398号"},{"poiid":"B2094751DA6DA0FA479B","title":"猫屎咖啡(新天地店)","lon":"121.4691613","lat":"31.2232952","category":"247","category_name":"餐饮美食","address":"太仓路200号"},{"poiid":"B2094655D268ABFF409F","title":"延安东路立交桥","lon":"121.469","lat":"31.22467","category":"250","category_name":"公园户外","address":""},{"poiid":"B2094757D069A7FA4793","title":"新割烹小熊屋","lon":"121.467968054","lat":"31.221256793","category":"95","category_name":"日本料理","address":"卢湾区成都南路105-117号(近淮海中路)"},{"poiid":"B2094750D768A7FE4099","title":"Season三层堂和牛料理","lon":"121.469","lat":"31.221","category":"95","category_name":"日本料理","address":"卢湾区淮海中路542弄2号(近成都南路)"},{"poiid":"B2094752D16CAAF94893","title":"ABC Cooking Studio（K11店）","lon":"121.469221","lat":"31.225111","category":"247","category_name":"餐饮美食","address":null},{"poiid":"B2094750D26DA7F84799","title":"清风人家","lon":"121.47091","lat":"31.22203","category":"260","category_name":"其他","address":"卢湾区淮海中路438号B1楼(近重庆南路)"},{"poiid":"B2094654D564A5FB489E","title":"都市风情街","lon":"121.46743","lat":"31.22232","category":"116","category_name":"特色商业街","address":"卢湾区长乐路190号都市风情街内(近成都南路)"},{"poiid":"B2094654DB65A3F54692","title":"上海锦江国际购物中心商务写字楼","lon":"121.469","lat":"31.22054","category":"46","category_name":"楼宇","address":"淮海中路527号"},{"poiid":"B2094757DB6CA5F84593","title":"Element Fresh","lon":"121.470734","lat":"31.223412","category":"247","category_name":"餐饮美食","address":"Xin tian Di"},{"poiid":"B2094757D06FA6FC449B","title":"京世造型(雁荡店)","lon":"121.469967","lat":"31.221091","category":"148","category_name":"美容美发店","address":"上海卢湾区雁荡路5号2楼(淮海中路口)"},{"poiid":"B2094757D66FA1F5449C","title":"好乐的(淮海店)","lon":"121.47069161","lat":"31.221906582","category":"249","category_name":"购物服务","address":"上海淮海中路1543号"},{"poiid":"B2094757D06BA5F44892","title":"鲜得来","lon":"121.46988673","lat":"31.220740097","category":"247","category_name":"餐饮美食","address":"上海市卢湾区雁荡路13号"},{"poiid":"B2094750DB6AA5F84798","title":"一町奶茶(淮海路店)","lon":"121.470686","lat":"31.221858","category":"113","category_name":"冷饮店","address":"卢湾区老重庆中路54号(近长乐路)"},{"poiid":"B2094654DA6DABFB489D","title":"上海锦江国际购物中心","lon":"121.469","lat":"31.22054","category":"119","category_name":"商场","address":"朝阳区北三环东路与京顺路交接处路口北侧"},{"poiid":"B209475CD76EA0F54692","title":"环贸iapm","lon":"121.469993","lat":"31.223688","category":"500","category_name":"未知分类","address":"上海市 卢湾区淮海中路999号"},{"poiid":"B2094757DB6FA4FA439A","title":"揽香","lon":"121.469027","lat":"31.224747","category":"247","category_name":"餐饮美食","address":"卢湾区中环广场"},{"poiid":"B2094750D269A0FD4593","title":"恒基海鲜火锅","lon":"121.4681","lat":"31.22087","category":"86","category_name":"火锅店","address":"卢湾区成都南路127号(近淮海路)"},{"poiid":"B2094757D664A4FF4492","title":"丝袜奶茶 南京西路店 Denny House","lon":"121.46797","lat":"31.22142","category":"67","category_name":"甜品店","address":"静安区南京西路1025弄静安别墅128号(近南汇路)"},{"poiid":"B2094757D068A5FA4192","title":"北万新(淮海店)","lon":"121.47041414","lat":"31.221747502","category":"68","category_name":"快餐厅","address":"卢湾区淮海中路462号(近重庆南路)"},{"poiid":"B2094752D06EA5F44092","title":"Pizza Marzano（披萨马上诺）","lon":"121.46927","lat":"31.225073","category":"247","category_name":"餐饮美食","address":null},{"poiid":"B2094654DA6DABFB479A","title":"兴安餐厅","lon":"121.470078054","lat":"31.220802793","category":"68","category_name":"快餐厅","address":"卢湾区兴安路145号(近雁荡路)"},{"poiid":"B2094757D068A6F5479A","title":"Nolita","lon":"121.46507","lat":"31.22554","category":"94","category_name":"西餐厅","address":"静安区大沽路422号"},{"poiid":"B2094752D16DAAFE4898","title":"合点寿司","lon":"121.469321","lat":"31.225022","category":"247","category_name":"餐饮美食","address":"淮海中路300号K11购物艺术中心302号铺(近黄陂南路)"},{"poiid":"B2094757D06FA7F4469A","title":"85度C(成都店)","lon":"121.46835","lat":"31.22084","category":"112","category_name":"糕饼店","address":"卢湾区成都南路127号(近淮海中路)"},{"poiid":"B209475CD26BA5F5499D","title":"查理士","lon":"121.471008","lat":"31.221706","category":"247","category_name":"餐饮美食","address":"上海市 淮海中路447号"},{"poiid":"B2094757D068A4F9429C","title":"徐其修凉茶","lon":"121.47148973","lat":"31.222897143","category":"113","category_name":"冷饮店","address":"卢湾区兴安路98弄10号(近雁荡路)"},{"poiid":"B2094757D06AAAFE4499","title":"佳鸣海鲜火锅楼","lon":"121.470263","lat":"31.220876","category":"86","category_name":"火锅店","address":"卢湾区兴安路167号(近雁荡路)"},{"poiid":"B2094757D06FA4FA469A","title":"大花桌游(淮海中路店)","lon":"121.46994","lat":"31.22109","category":"175","category_name":"棋牌室","address":"上海卢湾区淮海中路461号9楼68室"},{"poiid":"B2094655D36CA0F5409C","title":"淮海中路重庆南路","lon":"121.46961","lat":"31.22117","category":"38","category_name":"公交车站","address":""},{"poiid":"B2094654DA6EA1FF419F","title":"永新大厦","lon":"121.468","lat":"31.2233","category":"46","category_name":"楼宇","address":"卢湾区淮海中路527号"},{"poiid":"B2094757D06FA4FA489C","title":"莉莲蛋挞 淮海店 Lillian Cake Shop","lon":"121.46995","lat":"31.22103","category":"67","category_name":"甜品店","address":"徐汇区淮海中路939号巴黎春天淮海店1楼(近地铁一号线)"},{"poiid":"B2094654DB64AAFD439F","title":"倍可意意漾时光","lon":"121.46794","lat":"31.22096","category":"65","category_name":"咖啡厅","address":"成都南路158甲"},{"poiid":"B2094655D26AABFD499F","title":"好乐迪量贩式KTV（淮海中路店）","lon":"121.47092","lat":"31.22199","category":"170","category_name":"KTV","address":"卢湾区淮海中路438号4楼近重庆南路;;"},{"poiid":"B2094757D465A4FB409B","title":"顶特勒粥面馆","lon":"121.469218054","lat":"31.221221793","category":"68","category_name":"快餐厅","address":"卢湾区淮海中路494弄22号(近雁荡路)"},{"poiid":"B2094654DA6DABFA499E","title":"味香斋","lon":"121.46993580196","lat":"31.221233069029","category":"68","category_name":"快餐厅","address":"卢湾区雁荡路14号(近淮海中路)"},{"poiid":"B2094753D76FAAFA449C","title":"上海滩国泰旗舰店","lon":"121.466011","lat":"31.216125","category":"249","category_name":"购物服务","address":"淮海中路868号"},{"poiid":"B209475CD564A7F84292","title":"上海滩新天地店","lon":"121.47463","lat":"31.22164","category":"119","category_name":"商场","address":"\"太仓路181弄新天地北里15号\r\n\""},{"poiid":"B209475CD564A7F8439E","title":"上海滩中信泰富店","lon":"121.45602","lat":"31.22851","category":"119","category_name":"商场","address":"\"南京西路1168号中信泰富广场，店铺号221.\r\n\""},{"poiid":"B2094757D06FA2F54392","title":"淮海中路雁荡路","lon":"121.469795542","lat":"31.2212911035","category":"260","category_name":"其他","address":"上海淮海中路雁荡路"},{"poiid":"B2094757DB68A4FC439A","title":"香港谭仔三哥餐厅 成都南路店","lon":"121.468113","lat":"31.220826","category":"72","category_name":"广东菜","address":"卢湾区成都南路160号3楼(淮海中路口)"},{"poiid":"B2094757D06FA3FC489D","title":"屋企汤馆 淮海店","lon":"121.4708246443","lat":"31.221864028321","category":"72","category_name":"广东菜","address":"卢湾区淮海中路438号2楼(近重庆南路)"},{"poiid":"B2094757D064A5FD489B","title":"典谟新知咖啡馆","lon":"121.470884738","lat":"31.2210811051","category":"260","category_name":"其他","address":"卢湾区兴安路139号(近淮海路雁荡路)"},{"poiid":"B2094753D76CA2F4449C","title":"查厘士","lon":"121.471084","lat":"31.221948","category":"247","category_name":"餐饮美食","address":"上海市 淮海路438号"},{"poiid":"B2094654DB69A5FD4099","title":"好乐迪(顺昌路旗舰店)","lon":"121.46782","lat":"31.22111","category":"170","category_name":"KTV","address":"卢湾区顺昌路2号(近太仓路新天地)"},{"poiid":"B2094757D06FA5FC429C","title":"韩蒸天下养生馆","lon":"121.46975773","lat":"31.220693096","category":"149","category_name":"洗浴推拿场所","address":"卢湾区雁荡路29号5楼(近淮海中路)"},{"poiid":"B2094757D06FA0FE409B","title":"Bricco cafe(淮海路店)","lon":"121.46821","lat":"31.22075","category":"94","category_name":"西餐厅","address":"卢湾区成都南路158号甲(近淮海中路)"},{"poiid":"B2094757D06BA7FB489F","title":"新贝乐意式餐厅(雁荡路店)","lon":"121.46901273","lat":"31.2208641","category":"500","category_name":"未知分类","address":"上海市卢湾区雁荡路33号"},{"poiid":"B2094654DB69A5FD409B","title":"好乐迪(淮海中路店)","lon":"121.47101","lat":"31.222","category":"170","category_name":"KTV","address":"卢湾区淮海中路438号4-5楼(近重庆南路)"},{"poiid":"B2094757D06FA4FD4299","title":"天香火锅楼(淮海店)","lon":"121.46836","lat":"31.22093","category":"86","category_name":"火锅店","address":"卢湾区淮海中路542弄103室(近成都南路)"},{"poiid":"B2094757D068A2F5449F","title":"世纪巴士大厦","lon":"121.47163462","lat":"31.222440357","category":"46","category_name":"楼宇","address":"上海淮海中路398号"},{"poiid":"B2094751DA6DA0FA479B","title":"猫屎咖啡(新天地店)","lon":"121.4691613","lat":"31.2232952","category":"247","category_name":"餐饮美食","address":"太仓路200号"},{"poiid":"B2094655D268ABFF409F","title":"延安东路立交桥","lon":"121.469","lat":"31.22467","category":"250","category_name":"公园户外","address":""},{"poiid":"B2094757D069A7FA4793","title":"新割烹小熊屋","lon":"121.467968054","lat":"31.221256793","category":"95","category_name":"日本料理","address":"卢湾区成都南路105-117号(近淮海中路)"},{"poiid":"B2094750D768A7FE4099","title":"Season三层堂和牛料理","lon":"121.469","lat":"31.221","category":"95","category_name":"日本料理","address":"卢湾区淮海中路542弄2号(近成都南路)"},{"poiid":"B2094752D16CAAF94893","title":"ABC Cooking Studio（K11店）","lon":"121.469221","lat":"31.225111","category":"247","category_name":"餐饮美食","address":null},{"poiid":"B2094750D26DA7F84799","title":"清风人家","lon":"121.47091","lat":"31.22203","category":"260","category_name":"其他","address":"卢湾区淮海中路438号B1楼(近重庆南路)"},{"poiid":"B2094654D564A5FB489E","title":"都市风情街","lon":"121.46743","lat":"31.22232","category":"116","category_name":"特色商业街","address":"卢湾区长乐路190号都市风情街内(近成都南路)"},{"poiid":"B2094654DB65A3F54692","title":"上海锦江国际购物中心商务写字楼","lon":"121.469","lat":"31.22054","category":"46","category_name":"楼宇","address":"淮海中路527号"},{"poiid":"B2094757DB6CA5F84593","title":"Element Fresh","lon":"121.470734","lat":"31.223412","category":"247","category_name":"餐饮美食","address":"Xin tian Di"},{"poiid":"B2094757D06FA6FC449B","title":"京世造型(雁荡店)","lon":"121.469967","lat":"31.221091","category":"148","category_name":"美容美发店","address":"上海卢湾区雁荡路5号2楼(淮海中路口)"},{"poiid":"B2094757D66FA1F5449C","title":"好乐的(淮海店)","lon":"121.47069161","lat":"31.221906582","category":"249","category_name":"购物服务","address":"上海淮海中路1543号"},{"poiid":"B2094757D06BA5F44892","title":"鲜得来","lon":"121.46988673","lat":"31.220740097","category":"247","category_name":"餐饮美食","address":"上海市卢湾区雁荡路13号"},{"poiid":"B2094750DB6AA5F84798","title":"一町奶茶(淮海路店)","lon":"121.470686","lat":"31.221858","category":"113","category_name":"冷饮店","address":"卢湾区老重庆中路54号(近长乐路)"},{"poiid":"B2094654DA6DABFB489D","title":"上海锦江国际购物中心","lon":"121.469","lat":"31.22054","category":"119","category_name":"商场","address":"朝阳区北三环东路与京顺路交接处路口北侧"},{"poiid":"B209475CD76EA0F54692","title":"环贸iapm","lon":"121.469993","lat":"31.223688","category":"500","category_name":"未知分类","address":"上海市 卢湾区淮海中路999号"},{"poiid":"B2094757DB6FA4FA439A","title":"揽香","lon":"121.469027","lat":"31.224747","category":"247","category_name":"餐饮美食","address":"卢湾区中环广场"},{"poiid":"B2094750D269A0FD4593","title":"恒基海鲜火锅","lon":"121.4681","lat":"31.22087","category":"86","category_name":"火锅店","address":"卢湾区成都南路127号(近淮海路)"},{"poiid":"B2094757D664A4FF4492","title":"丝袜奶茶 南京西路店 Denny House","lon":"121.46797","lat":"31.22142","category":"67","category_name":"甜品店","address":"静安区南京西路1025弄静安别墅128号(近南汇路)"},{"poiid":"B2094757D068A5FA4192","title":"北万新(淮海店)","lon":"121.47041414","lat":"31.221747502","category":"68","category_name":"快餐厅","address":"卢湾区淮海中路462号(近重庆南路)"},{"poiid":"B2094752D06EA5F44092","title":"Pizza Marzano（披萨马上诺）","lon":"121.46927","lat":"31.225073","category":"247","category_name":"餐饮美食","address":null},{"poiid":"B2094654DA6DABFB479A","title":"兴安餐厅","lon":"121.470078054","lat":"31.220802793","category":"68","category_name":"快餐厅","address":"卢湾区兴安路145号(近雁荡路)"},{"poiid":"B2094757D068A6F5479A","title":"Nolita","lon":"121.46507","lat":"31.22554","category":"94","category_name":"西餐厅","address":"静安区大沽路422号"},{"poiid":"B2094752D16DAAFE4898","title":"合点寿司","lon":"121.469321","lat":"31.225022","category":"247","category_name":"餐饮美食","address":"淮海中路300号K11购物艺术中心302号铺(近黄陂南路)"},{"poiid":"B2094757D06FA7F4469A","title":"85度C(成都店)","lon":"121.46835","lat":"31.22084","category":"112","category_name":"糕饼店","address":"卢湾区成都南路127号(近淮海中路)"},{"poiid":"B209475CD26BA5F5499D","title":"查理士","lon":"121.471008","lat":"31.221706","category":"247","category_name":"餐饮美食","address":"上海市 淮海中路447号"},{"poiid":"B2094757D068A4F9429C","title":"徐其修凉茶","lon":"121.47148973","lat":"31.222897143","category":"113","category_name":"冷饮店","address":"卢湾区兴安路98弄10号(近雁荡路)"},{"poiid":"B2094757D06AAAFE4499","title":"佳鸣海鲜火锅楼","lon":"121.470263","lat":"31.220876","category":"86","category_name":"火锅店","address":"卢湾区兴安路167号(近雁荡路)"},{"poiid":"B2094757D06FA4FA469A","title":"大花桌游(淮海中路店)","lon":"121.46994","lat":"31.22109","category":"175","category_name":"棋牌室","address":"上海卢湾区淮海中路461号9楼68室"},{"poiid":"B2094655D36CA0F5409C","title":"淮海中路重庆南路","lon":"121.46961","lat":"31.22117","category":"38","category_name":"公交车站","address":""},{"poiid":"B2094654DA6EA1FF419F","title":"永新大厦","lon":"121.468","lat":"31.2233","category":"46","category_name":"楼宇","address":"卢湾区淮海中路527号"},{"poiid":"B2094757D06FA4FA489C","title":"莉莲蛋挞 淮海店 Lillian Cake Shop","lon":"121.46995","lat":"31.22103","category":"67","category_name":"甜品店","address":"徐汇区淮海中路939号巴黎春天淮海店1楼(近地铁一号线)"},{"poiid":"B2094654DB64AAFD439F","title":"倍可意意漾时光","lon":"121.46794","lat":"31.22096","category":"65","category_name":"咖啡厅","address":"成都南路158甲"}]