[{"poiid":"B2094757D16BA2F44498","title":"共富新村地铁站","lon":"121.434068","lat":"31.355398","category":"36","category_name":"地铁站","address":"上海轨道交通 一号线 轨交共富新村站"},{"poiid":"B2094757D06FA3F8499B","title":"上海济光职业技术学院","lon":"121.44075607","lat":"31.363277037","category":"671","category_name":"高校中心点","address":"宝山区水产路2859号(莲花山路水产路)"},{"poiid":"B2094757D068A0FF449A","title":"香逸湾","lon":"121.442886","lat":"31.36208","category":"47","category_name":"住宅区","address":"上海市宝山区莲花山路517弄"},{"poiid":"B2094757D068A3FB4499","title":"金仓永华大酒店","lon":"121.442585699","lat":"31.3668169523","category":"217","category_name":"旅馆招待所","address":"上海市宝山区水产路2659号"},{"poiid":"B2094757D16BAAF8419C","title":"康桥水都","lon":"121.43779867","lat":"31.361663296","category":"500","category_name":"未知分类","address":"上海市宝山区莲花山路"},{"poiid":"B2094757D06FA0F4449E","title":"共富一村","lon":"121.43013","lat":"31.352312","category":"47","category_name":"住宅区","address":"上海宝山区共富路"},{"poiid":"B2094757D06FA0FE4392","title":"呼玛二村","lon":"121.455","lat":"31.348","category":"47","category_name":"住宅区","address":"上海呼玛二村"},{"poiid":"B2094654D469ABF44499","title":"上海交通职业技术学院(上海市交通学校)","lon":"121.44139","lat":"31.34187","category":"52","category_name":"高等院校","address":"宝山区呼兰路883号(呼兰路呼青路)"},{"poiid":"B2094757D06FA6FA459F","title":"卜蜂莲花(蕰川路店)","lon":"121.43348","lat":"31.36588","category":"118","category_name":"超级市场","address":"宝山区薀川路1557号(近一号线宝安公路站)"},{"poiid":"B2094757D069A3F84499","title":"共富二村","lon":"121.43156","lat":"31.349676","category":"47","category_name":"住宅区","address":"共富路156弄"},{"poiid":"B2094757D068A5FE469D","title":"江杨北路水产批发市场","lon":"121.45541","lat":"31.35853","category":"249","category_name":"购物服务","address":"上海宝山区江杨北路(近泰和路)"},{"poiid":"B2094654D469AAFA4093","title":"北上海商业广场","lon":"121.43274","lat":"31.36505","category":"119","category_name":"商场","address":"宝山蕴川路1553号"},{"poiid":"B2094757D064A1F5409D","title":"一兆韦德(香逸湾店)","lon":"121.442599679","lat":"31.3623583096","category":"500","category_name":"未知分类","address":"上海莲花山路杨泰路"},{"poiid":"B2094654D469AAFA4398","title":"济光学院生活区","lon":"121.43772","lat":"31.36504","category":"47","category_name":"住宅区","address":"上海杨鑫路 竹韵路"},{"poiid":"B2094757D46DABFA4692","title":"味千拉面 水产路店","lon":"121.4409087","lat":"31.3651261","category":"95","category_name":"日本料理","address":"宝山区水产路2599号世华国际广场(近竹韵路)"},{"poiid":"B2094757D068A2FF409B","title":"沃尔玛(杨行店)","lon":"121.44071267","lat":"31.361403291","category":"118","category_name":"超级市场","address":"上海市宝山区水产路"},{"poiid":"B2094757D068A0FF459E","title":"呼玛四村","lon":"121.44572","lat":"31.344154","category":"252","category_name":"楼宇机构","address":"上海呼兰路675号"},{"poiid":"B2094757D068A2F8479F","title":"富浩花苑","lon":"121.453779174","lat":"31.3445242076","category":"47","category_name":"住宅区","address":"上海市宝山区虎林路800弄"},{"poiid":"B2094654D46AA0F4429D","title":"龙景轩 水产店","lon":"121.43155844196","lat":"31.36020603782","category":"76","category_name":"上海菜","address":"宝山区水产西路189号(近蕴川路)"},{"poiid":"B2094757D068A4FF4492","title":"檀乡湾","lon":"121.437","lat":"31.3677","category":"47","category_name":"住宅区","address":"上海水产西路729弄"},{"poiid":"B2094757D06FAAFE4199","title":"肯德基 KFC (蕴川店)","lon":"121.432546","lat":"31.36659","category":"68","category_name":"快餐厅","address":"宝山区蕴川路1555号北上海商业广场1楼(近一号线宝安公路站)"},{"poiid":"B2094655D26BAAFD4698","title":"高老庄玲珑轩 杨行店","lon":"121.438901054","lat":"31.367238793","category":"71","category_name":"四川菜","address":"宝山区宝山杨行镇杨鑫路338号(竹韵路)"},{"poiid":"B2094757D16DA3FC409F","title":"江杨农产品批发市场","lon":"121.456358831","lat":"31.3570273","category":"500","category_name":"未知分类","address":"上海市宝山区江杨北路【铁谊路】"},{"poiid":"B2094757D069A4F54498","title":"禄德嘉苑","lon":"121.4417","lat":"31.367338","category":"500","category_name":"未知分类","address":"上海市宝山区杨鑫路88号"},{"poiid":"B2094757D66BA3FE459A","title":"竹韵大酒店","lon":"121.44396","lat":"31.36266","category":"76","category_name":"上海菜","address":"宝山区水产路2600弄88号(竹韵路莲花山路口)"},{"poiid":"B2094757D165ABFF449F","title":"南北高架","lon":"121.43467567","lat":"31.350999095","category":"500","category_name":"未知分类","address":"上海市宝山区呼玛路"},{"poiid":"B2094757D06AA0FE409B","title":"泰德商务中心","lon":"121.43377767","lat":"31.353417141","category":"500","category_name":"未知分类","address":"上海市宝山区蕴川路"},{"poiid":"B2094654D46AA7FC459F","title":"宝山区杨行镇西浜村卫生室","lon":"121.44126","lat":"31.35861","category":"162","category_name":"医院","address":"梅林路1969"},{"poiid":"B2094757D06BAAF4499E","title":"上海安吉大众4S店","lon":"121.435288","lat":"31.350714","category":"500","category_name":"未知分类","address":"上海市蕴川路329号"},{"poiid":"B2094757D16DA5FA4892","title":"上海市监狱管理局警官培训中心上海市司法警官学校","lon":"121.44523661","lat":"31.359218354","category":"500","category_name":"未知分类","address":"上海外青松公路115号"},{"poiid":"B2094750DA6EA1FF499F","title":"万达广场宝山店","lon":"121.446434","lat":"31.360191","category":"249","category_name":"购物服务","address":null},{"poiid":"B2094757DA6BAAFC4592","title":"春江美庐","lon":"121.449137","lat":"31.365144","category":"47","category_name":"住宅区","address":"水产路2196号近江杨北路"},{"poiid":"B2094757D569A3FA429E","title":"世华佳苑","lon":"121.43484","lat":"31.367241","category":"47","category_name":"住宅区","address":"上海市宝山区杨鑫路185号"},{"poiid":"B2094757D568A2F5489C","title":"杨泰二村","lon":"121.44263","lat":"31.37023","category":"47","category_name":"住宅区","address":"上海市宝山区杨泰二村76号"},{"poiid":"B2094757D169A3F4429F","title":"味千拉面(杨行店)","lon":"121.442049679","lat":"31.3660553793","category":"247","category_name":"餐饮美食","address":"上海杨行沃尔玛"},{"poiid":"B2094757DA6EAAF9439F","title":"北外环信息产业园","lon":"121.438187799999","lat":"31.3560680999998","category":"263","category_name":"公司","address":"宝山区泰和路2038号"},{"poiid":"B2094750DA6AA1FB4999","title":"宝山万达广场","lon":"121.433753","lat":"31.3514","category":"500","category_name":"未知分类","address":null},{"poiid":"B2094757D065ABFC409F","title":"中国农业银行(杨行支行)","lon":"121.443885394","lat":"31.3638367566","category":"150","category_name":"银行","address":"宝山区水产路2399号"},{"poiid":"B2094655D26BA2FA459F","title":"泰和路蕴川路","lon":"121.43662","lat":"31.35534","category":"38","category_name":"公交车站","address":""},{"poiid":"B2094757D66DABFB4699","title":"港峰生态园","lon":"121.440588797","lat":"31.3603728722","category":"500","category_name":"未知分类","address":"上海市青浦区朱家角镇小港村345号(朱家角工业园区东侧)"},{"poiid":"B2094757D568A0FB479A","title":"地铁一号(捷运1号)","lon":"121.434076","lat":"31.350448","category":"47","category_name":"住宅区","address":"地铁一号(捷运1号)位于宝山共富路32号"},{"poiid":"B2094655D36CA2FD419F","title":"基督教杨行堂","lon":"121.4489","lat":"31.36361","category":"245","category_name":"教堂","address":"宝山区杨行镇杨泰路510弄5号"},{"poiid":"B2094654D469ABF54193","title":"东芝电梯(上海)有限公司","lon":"121.43435","lat":"31.35806","category":"263","category_name":"公司","address":"蕰川路677号"},{"poiid":"B2094654D46AA3FB439B","title":"大胡子烧烤","lon":"121.42704","lat":"31.35204","category":"68","category_name":"快餐厅","address":"宝山区共富路163号"},{"poiid":"B2094757D16EAAFA409A","title":"上海济光学院实训楼","lon":"121.43333067","lat":"31.364476349","category":"500","category_name":"未知分类","address":"上海宝山区水产路"},{"poiid":"B2094757D165A6F4419F","title":"沃尔玛","lon":"121.44179867","lat":"31.365842375","category":"500","category_name":"未知分类","address":"上海市宝山区梅林路"},{"poiid":"B2094654DB69A7FF4598","title":"富康园","lon":"121.434","lat":"31.3551","category":"47","category_name":"住宅区","address":"共富路350号"},{"poiid":"B2094757D465A6FB439A","title":"郝优多来面 水产西路店","lon":"121.43183","lat":"31.36168","category":"87","category_name":"特色／地方风味餐厅","address":"宝山区水产西路59号(近天馨花园)"},{"poiid":"B2094655D26BA5FB489F","title":"宝山区杨泰小学","lon":"121.4399","lat":"31.36741","category":"56","category_name":"小学","address":"杨鑫路368号"},{"poiid":"B2094750DB6EA5FD459E","title":"仙芋奇圆","lon":"121.441596","lat":"31.365879","category":"67","category_name":"甜品店","address":"宝山区水产路2609号沃尔玛1楼116室(近竹韵路)"},{"poiid":"B2094757D16BA2F44498","title":"共富新村地铁站","lon":"121.434068","lat":"31.355398","category":"36","category_name":"地铁站","address":"上海轨道交通 一号线 轨交共富新村站"},{"poiid":"B2094757D06FA3F8499B","title":"上海济光职业技术学院","lon":"121.44075607","lat":"31.363277037","category":"671","category_name":"高校中心点","address":"宝山区水产路2859号(莲花山路水产路)"},{"poiid":"B2094757D068A0FF449A","title":"香逸湾","lon":"121.442886","lat":"31.36208","category":"47","category_name":"住宅区","address":"上海市宝山区莲花山路517弄"},{"poiid":"B2094757D068A3FB4499","title":"金仓永华大酒店","lon":"121.442585699","lat":"31.3668169523","category":"217","category_name":"旅馆招待所","address":"上海市宝山区水产路2659号"},{"poiid":"B2094757D16BAAF8419C","title":"康桥水都","lon":"121.43779867","lat":"31.361663296","category":"500","category_name":"未知分类","address":"上海市宝山区莲花山路"},{"poiid":"B2094757D06FA0F4449E","title":"共富一村","lon":"121.43013","lat":"31.352312","category":"47","category_name":"住宅区","address":"上海宝山区共富路"},{"poiid":"B2094757D06FA0FE4392","title":"呼玛二村","lon":"121.455","lat":"31.348","category":"47","category_name":"住宅区","address":"上海呼玛二村"},{"poiid":"B2094654D469ABF44499","title":"上海交通职业技术学院(上海市交通学校)","lon":"121.44139","lat":"31.34187","category":"52","category_name":"高等院校","address":"宝山区呼兰路883号(呼兰路呼青路)"},{"poiid":"B2094757D06FA6FA459F","title":"卜蜂莲花(蕰川路店)","lon":"121.43348","lat":"31.36588","category":"118","category_name":"超级市场","address":"宝山区薀川路1557号(近一号线宝安公路站)"},{"poiid":"B2094757D069A3F84499","title":"共富二村","lon":"121.43156","lat":"31.349676","category":"47","category_name":"住宅区","address":"共富路156弄"},{"poiid":"B2094757D068A5FE469D","title":"江杨北路水产批发市场","lon":"121.45541","lat":"31.35853","category":"249","category_name":"购物服务","address":"上海宝山区江杨北路(近泰和路)"},{"poiid":"B2094654D469AAFA4093","title":"北上海商业广场","lon":"121.43274","lat":"31.36505","category":"119","category_name":"商场","address":"宝山蕴川路1553号"},{"poiid":"B2094757D064A1F5409D","title":"一兆韦德(香逸湾店)","lon":"121.442599679","lat":"31.3623583096","category":"500","category_name":"未知分类","address":"上海莲花山路杨泰路"},{"poiid":"B2094654D469AAFA4398","title":"济光学院生活区","lon":"121.43772","lat":"31.36504","category":"47","category_name":"住宅区","address":"上海杨鑫路 竹韵路"},{"poiid":"B2094757D46DABFA4692","title":"味千拉面 水产路店","lon":"121.4409087","lat":"31.3651261","category":"95","category_name":"日本料理","address":"宝山区水产路2599号世华国际广场(近竹韵路)"},{"poiid":"B2094757D068A2FF409B","title":"沃尔玛(杨行店)","lon":"121.44071267","lat":"31.361403291","category":"118","category_name":"超级市场","address":"上海市宝山区水产路"},{"poiid":"B2094757D068A0FF459E","title":"呼玛四村","lon":"121.44572","lat":"31.344154","category":"252","category_name":"楼宇机构","address":"上海呼兰路675号"},{"poiid":"B2094757D068A2F8479F","title":"富浩花苑","lon":"121.453779174","lat":"31.3445242076","category":"47","category_name":"住宅区","address":"上海市宝山区虎林路800弄"},{"poiid":"B2094654D46AA0F4429D","title":"龙景轩 水产店","lon":"121.43155844196","lat":"31.36020603782","category":"76","category_name":"上海菜","address":"宝山区水产西路189号(近蕴川路)"},{"poiid":"B2094757D068A4FF4492","title":"檀乡湾","lon":"121.437","lat":"31.3677","category":"47","category_name":"住宅区","address":"上海水产西路729弄"},{"poiid":"B2094757D06FAAFE4199","title":"肯德基 KFC (蕴川店)","lon":"121.432546","lat":"31.36659","category":"68","category_name":"快餐厅","address":"宝山区蕴川路1555号北上海商业广场1楼(近一号线宝安公路站)"},{"poiid":"B2094655D26BAAFD4698","title":"高老庄玲珑轩 杨行店","lon":"121.438901054","lat":"31.367238793","category":"71","category_name":"四川菜","address":"宝山区宝山杨行镇杨鑫路338号(竹韵路)"},{"poiid":"B2094757D16DA3FC409F","title":"江杨农产品批发市场","lon":"121.456358831","lat":"31.3570273","category":"500","category_name":"未知分类","address":"上海市宝山区江杨北路【铁谊路】"},{"poiid":"B2094757D069A4F54498","title":"禄德嘉苑","lon":"121.4417","lat":"31.367338","category":"500","category_name":"未知分类","address":"上海市宝山区杨鑫路88号"},{"poiid":"B2094757D66BA3FE459A","title":"竹韵大酒店","lon":"121.44396","lat":"31.36266","category":"76","category_name":"上海菜","address":"宝山区水产路2600弄88号(竹韵路莲花山路口)"},{"poiid":"B2094757D165ABFF449F","title":"南北高架","lon":"121.43467567","lat":"31.350999095","category":"500","category_name":"未知分类","address":"上海市宝山区呼玛路"},{"poiid":"B2094757D06AA0FE409B","title":"泰德商务中心","lon":"121.43377767","lat":"31.353417141","category":"500","category_name":"未知分类","address":"上海市宝山区蕴川路"},{"poiid":"B2094654D46AA7FC459F","title":"宝山区杨行镇西浜村卫生室","lon":"121.44126","lat":"31.35861","category":"162","category_name":"医院","address":"梅林路1969"},{"poiid":"B2094757D06BAAF4499E","title":"上海安吉大众4S店","lon":"121.435288","lat":"31.350714","category":"500","category_name":"未知分类","address":"上海市蕴川路329号"},{"poiid":"B2094757D16DA5FA4892","title":"上海市监狱管理局警官培训中心上海市司法警官学校","lon":"121.44523661","lat":"31.359218354","category":"500","category_name":"未知分类","address":"上海外青松公路115号"},{"poiid":"B2094750DA6EA1FF499F","title":"万达广场宝山店","lon":"121.446434","lat":"31.360191","category":"249","category_name":"购物服务","address":null},{"poiid":"B2094757DA6BAAFC4592","title":"春江美庐","lon":"121.449137","lat":"31.365144","category":"47","category_name":"住宅区","address":"水产路2196号近江杨北路"},{"poiid":"B2094757D569A3FA429E","title":"世华佳苑","lon":"121.43484","lat":"31.367241","category":"47","category_name":"住宅区","address":"上海市宝山区杨鑫路185号"},{"poiid":"B2094757D568A2F5489C","title":"杨泰二村","lon":"121.44263","lat":"31.37023","category":"47","category_name":"住宅区","address":"上海市宝山区杨泰二村76号"},{"poiid":"B2094757D169A3F4429F","title":"味千拉面(杨行店)","lon":"121.442049679","lat":"31.3660553793","category":"247","category_name":"餐饮美食","address":"上海杨行沃尔玛"},{"poiid":"B2094757DA6EAAF9439F","title":"北外环信息产业园","lon":"121.438187799999","lat":"31.3560680999998","category":"263","category_name":"公司","address":"宝山区泰和路2038号"},{"poiid":"B2094750DA6AA1FB4999","title":"宝山万达广场","lon":"121.433753","lat":"31.3514","category":"500","category_name":"未知分类","address":null},{"poiid":"B2094757D065ABFC409F","title":"中国农业银行(杨行支行)","lon":"121.443885394","lat":"31.3638367566","category":"150","category_name":"银行","address":"宝山区水产路2399号"},{"poiid":"B2094655D26BA2FA459F","title":"泰和路蕴川路","lon":"121.43662","lat":"31.35534","category":"38","category_name":"公交车站","address":""},{"poiid":"B2094757D66DABFB4699","title":"港峰生态园","lon":"121.440588797","lat":"31.3603728722","category":"500","category_name":"未知分类","address":"上海市青浦区朱家角镇小港村345号(朱家角工业园区东侧)"},{"poiid":"B2094757D568A0FB479A","title":"地铁一号(捷运1号)","lon":"121.434076","lat":"31.350448","category":"47","category_name":"住宅区","address":"地铁一号(捷运1号)位于宝山共富路32号"},{"poiid":"B2094655D36CA2FD419F","title":"基督教杨行堂","lon":"121.4489","lat":"31.36361","category":"245","category_name":"教堂","address":"宝山区杨行镇杨泰路510弄5号"},{"poiid":"B2094654D469ABF54193","title":"东芝电梯(上海)有限公司","lon":"121.43435","lat":"31.35806","category":"263","category_name":"公司","address":"蕰川路677号"},{"poiid":"B2094654D46AA3FB439B","title":"大胡子烧烤","lon":"121.42704","lat":"31.35204","category":"68","category_name":"快餐厅","address":"宝山区共富路163号"},{"poiid":"B2094757D16EAAFA409A","title":"上海济光学院实训楼","lon":"121.43333067","lat":"31.364476349","category":"500","category_name":"未知分类","address":"上海宝山区水产路"},{"poiid":"B2094757D165A6F4419F","title":"沃尔玛","lon":"121.44179867","lat":"31.365842375","category":"500","category_name":"未知分类","address":"上海市宝山区梅林路"},{"poiid":"B2094654DB69A7FF4598","title":"富康园","lon":"121.434","lat":"31.3551","category":"47","category_name":"住宅区","address":"共富路350号"},{"poiid":"B2094757D465A6FB439A","title":"郝优多来面 水产西路店","lon":"121.43183","lat":"31.36168","category":"87","category_name":"特色／地方风味餐厅","address":"宝山区水产西路59号(近天馨花园)"},{"poiid":"B2094655D26BA5FB489F","title":"宝山区杨泰小学","lon":"121.4399","lat":"31.36741","category":"56","category_name":"小学","address":"杨鑫路368号"},{"poiid":"B2094750DB6EA5FD459E","title":"仙芋奇圆","lon":"121.441596","lat":"31.365879","category":"67","category_name":"甜品店","address":"宝山区水产路2609号沃尔玛1楼116室(近竹韵路)"},{"poiid":"B2094757D16BA2F44498","title":"共富新村地铁站","lon":"121.434068","lat":"31.355398","category":"36","category_name":"地铁站","address":"上海轨道交通 一号线 轨交共富新村站"},{"poiid":"B2094757D06FA3F8499B","title":"上海济光职业技术学院","lon":"121.44075607","lat":"31.363277037","category":"671","category_name":"高校中心点","address":"宝山区水产路2859号(莲花山路水产路)"},{"poiid":"B2094757D068A0FF449A","title":"香逸湾","lon":"121.442886","lat":"31.36208","category":"47","category_name":"住宅区","address":"上海市宝山区莲花山路517弄"},{"poiid":"B2094757D068A3FB4499","title":"金仓永华大酒店","lon":"121.442585699","lat":"31.3668169523","category":"217","category_name":"旅馆招待所","address":"上海市宝山区水产路2659号"},{"poiid":"B2094757D16BAAF8419C","title":"康桥水都","lon":"121.43779867","lat":"31.361663296","category":"500","category_name":"未知分类","address":"上海市宝山区莲花山路"},{"poiid":"B2094757D06FA0F4449E","title":"共富一村","lon":"121.43013","lat":"31.352312","category":"47","category_name":"住宅区","address":"上海宝山区共富路"},{"poiid":"B2094757D06FA0FE4392","title":"呼玛二村","lon":"121.455","lat":"31.348","category":"47","category_name":"住宅区","address":"上海呼玛二村"},{"poiid":"B2094654D469ABF44499","title":"上海交通职业技术学院(上海市交通学校)","lon":"121.44139","lat":"31.34187","category":"52","category_name":"高等院校","address":"宝山区呼兰路883号(呼兰路呼青路)"},{"poiid":"B2094757D06FA6FA459F","title":"卜蜂莲花(蕰川路店)","lon":"121.43348","lat":"31.36588","category":"118","category_name":"超级市场","address":"宝山区薀川路1557号(近一号线宝安公路站)"},{"poiid":"B2094757D069A3F84499","title":"共富二村","lon":"121.43156","lat":"31.349676","category":"47","category_name":"住宅区","address":"共富路156弄"},{"poiid":"B2094757D068A5FE469D","title":"江杨北路水产批发市场","lon":"121.45541","lat":"31.35853","category":"249","category_name":"购物服务","address":"上海宝山区江杨北路(近泰和路)"},{"poiid":"B2094654D469AAFA4093","title":"北上海商业广场","lon":"121.43274","lat":"31.36505","category":"119","category_name":"商场","address":"宝山蕴川路1553号"},{"poiid":"B2094757D064A1F5409D","title":"一兆韦德(香逸湾店)","lon":"121.442599679","lat":"31.3623583096","category":"500","category_name":"未知分类","address":"上海莲花山路杨泰路"},{"poiid":"B2094654D469AAFA4398","title":"济光学院生活区","lon":"121.43772","lat":"31.36504","category":"47","category_name":"住宅区","address":"上海杨鑫路 竹韵路"},{"poiid":"B2094757D46DABFA4692","title":"味千拉面 水产路店","lon":"121.4409087","lat":"31.3651261","category":"95","category_name":"日本料理","address":"宝山区水产路2599号世华国际广场(近竹韵路)"},{"poiid":"B2094757D068A2FF409B","title":"沃尔玛(杨行店)","lon":"121.44071267","lat":"31.361403291","category":"118","category_name":"超级市场","address":"上海市宝山区水产路"},{"poiid":"B2094757D068A0FF459E","title":"呼玛四村","lon":"121.44572","lat":"31.344154","category":"252","category_name":"楼宇机构","address":"上海呼兰路675号"},{"poiid":"B2094757D068A2F8479F","title":"富浩花苑","lon":"121.453779174","lat":"31.3445242076","category":"47","category_name":"住宅区","address":"上海市宝山区虎林路800弄"},{"poiid":"B2094654D46AA0F4429D","title":"龙景轩 水产店","lon":"121.43155844196","lat":"31.36020603782","category":"76","category_name":"上海菜","address":"宝山区水产西路189号(近蕴川路)"},{"poiid":"B2094757D068A4FF4492","title":"檀乡湾","lon":"121.437","lat":"31.3677","category":"47","category_name":"住宅区","address":"上海水产西路729弄"},{"poiid":"B2094757D06FAAFE4199","title":"肯德基 KFC (蕴川店)","lon":"121.432546","lat":"31.36659","category":"68","category_name":"快餐厅","address":"宝山区蕴川路1555号北上海商业广场1楼(近一号线宝安公路站)"},{"poiid":"B2094655D26BAAFD4698","title":"高老庄玲珑轩 杨行店","lon":"121.438901054","lat":"31.367238793","category":"71","category_name":"四川菜","address":"宝山区宝山杨行镇杨鑫路338号(竹韵路)"},{"poiid":"B2094757D16DA3FC409F","title":"江杨农产品批发市场","lon":"121.456358831","lat":"31.3570273","category":"500","category_name":"未知分类","address":"上海市宝山区江杨北路【铁谊路】"},{"poiid":"B2094757D069A4F54498","title":"禄德嘉苑","lon":"121.4417","lat":"31.367338","category":"500","category_name":"未知分类","address":"上海市宝山区杨鑫路88号"},{"poiid":"B2094757D66BA3FE459A","title":"竹韵大酒店","lon":"121.44396","lat":"31.36266","category":"76","category_name":"上海菜","address":"宝山区水产路2600弄88号(竹韵路莲花山路口)"},{"poiid":"B2094757D165ABFF449F","title":"南北高架","lon":"121.43467567","lat":"31.350999095","category":"500","category_name":"未知分类","address":"上海市宝山区呼玛路"},{"poiid":"B2094757D06AA0FE409B","title":"泰德商务中心","lon":"121.43377767","lat":"31.353417141","category":"500","category_name":"未知分类","address":"上海市宝山区蕴川路"},{"poiid":"B2094654D46AA7FC459F","title":"宝山区杨行镇西浜村卫生室","lon":"121.44126","lat":"31.35861","category":"162","category_name":"医院","address":"梅林路1969"},{"poiid":"B2094757D06BAAF4499E","title":"上海安吉大众4S店","lon":"121.435288","lat":"31.350714","category":"500","category_name":"未知分类","address":"上海市蕴川路329号"},{"poiid":"B2094757D16DA5FA4892","title":"上海市监狱管理局警官培训中心上海市司法警官学校","lon":"121.44523661","lat":"31.359218354","category":"500","category_name":"未知分类","address":"上海外青松公路115号"},{"poiid":"B2094750DA6EA1FF499F","title":"万达广场宝山店","lon":"121.446434","lat":"31.360191","category":"249","category_name":"购物服务","address":null},{"poiid":"B2094757DA6BAAFC4592","title":"春江美庐","lon":"121.449137","lat":"31.365144","category":"47","category_name":"住宅区","address":"水产路2196号近江杨北路"},{"poiid":"B2094757D569A3FA429E","title":"世华佳苑","lon":"121.43484","lat":"31.367241","category":"47","category_name":"住宅区","address":"上海市宝山区杨鑫路185号"},{"poiid":"B2094757D568A2F5489C","title":"杨泰二村","lon":"121.44263","lat":"31.37023","category":"47","category_name":"住宅区","address":"上海市宝山区杨泰二村76号"},{"poiid":"B2094757D169A3F4429F","title":"味千拉面(杨行店)","lon":"121.442049679","lat":"31.3660553793","category":"247","category_name":"餐饮美食","address":"上海杨行沃尔玛"},{"poiid":"B2094757DA6EAAF9439F","title":"北外环信息产业园","lon":"121.438187799999","lat":"31.3560680999998","category":"263","category_name":"公司","address":"宝山区泰和路2038号"},{"poiid":"B2094750DA6AA1FB4999","title":"宝山万达广场","lon":"121.433753","lat":"31.3514","category":"500","category_name":"未知分类","address":null},{"poiid":"B2094757D065ABFC409F","title":"中国农业银行(杨行支行)","lon":"121.443885394","lat":"31.3638367566","category":"150","category_name":"银行","address":"宝山区水产路2399号"},{"poiid":"B2094655D26BA2FA459F","title":"泰和路蕴川路","lon":"121.43662","lat":"31.35534","category":"38","category_name":"公交车站","address":""},{"poiid":"B2094757D66DABFB4699","title":"港峰生态园","lon":"121.440588797","lat":"31.3603728722","category":"500","category_name":"未知分类","address":"上海市青浦区朱家角镇小港村345号(朱家角工业园区东侧)"},{"poiid":"B2094757D568A0FB479A","title":"地铁一号(捷运1号)","lon":"121.434076","lat":"31.350448","category":"47","category_name":"住宅区","address":"地铁一号(捷运1号)位于宝山共富路32号"},{"poiid":"B2094655D36CA2FD419F","title":"基督教杨行堂","lon":"121.4489","lat":"31.36361","category":"245","category_name":"教堂","address":"宝山区杨行镇杨泰路510弄5号"},{"poiid":"B2094654D469ABF54193","title":"东芝电梯(上海)有限公司","lon":"121.43435","lat":"31.35806","category":"263","category_name":"公司","address":"蕰川路677号"},{"poiid":"B2094654D46AA3FB439B","title":"大胡子烧烤","lon":"121.42704","lat":"31.35204","category":"68","category_name":"快餐厅","address":"宝山区共富路163号"},{"poiid":"B2094757D16EAAFA409A","title":"上海济光学院实训楼","lon":"121.43333067","lat":"31.364476349","category":"500","category_name":"未知分类","address":"上海宝山区水产路"},{"poiid":"B2094757D165A6F4419F","title":"沃尔玛","lon":"121.44179867","lat":"31.365842375","category":"500","category_name":"未知分类","address":"上海市宝山区梅林路"},{"poiid":"B2094654DB69A7FF4598","title":"富康园","lon":"121.434","lat":"31.3551","category":"47","category_name":"住宅区","address":"共富路350号"},{"poiid":"B2094757D465A6FB439A","title":"郝优多来面 水产西路店","lon":"121.43183","lat":"31.36168","category":"87","category_name":"特色／地方风味餐厅","address":"宝山区水产西路59号(近天馨花园)"},{"poiid":"B2094655D26BA5FB489F","title":"宝山区杨泰小学","lon":"121.4399","lat":"31.36741","category":"56","category_name":"小学","address":"杨鑫路368号"},{"poiid":"B2094750DB6EA5FD459E","title":"仙芋奇圆","lon":"121.441596","lat":"31.365879","category":"67","category_name":"甜品店","address":"宝山区水产路2609号沃尔玛1楼116室(近竹韵路)"},{"poiid":"B2094757D16BA2F44498","title":"共富新村地铁站","lon":"121.434068","lat":"31.355398","category":"36","category_name":"地铁站","address":"上海轨道交通 一号线 轨交共富新村站"},{"poiid":"B2094757D06FA3F8499B","title":"上海济光职业技术学院","lon":"121.44075607","lat":"31.363277037","category":"671","category_name":"高校中心点","address":"宝山区水产路2859号(莲花山路水产路)"},{"poiid":"B2094757D068A0FF449A","title":"香逸湾","lon":"121.442886","lat":"31.36208","category":"47","category_name":"住宅区","address":"上海市宝山区莲花山路517弄"},{"poiid":"B2094757D068A3FB4499","title":"金仓永华大酒店","lon":"121.442585699","lat":"31.3668169523","category":"217","category_name":"旅馆招待所","address":"上海市宝山区水产路2659号"},{"poiid":"B2094757D16BAAF8419C","title":"康桥水都","lon":"121.43779867","lat":"31.361663296","category":"500","category_name":"未知分类","address":"上海市宝山区莲花山路"},{"poiid":"B2094757D06FA0F4449E","title":"共富一村","lon":"121.43013","lat":"31.352312","category":"47","category_name":"住宅区","address":"上海宝山区共富路"},{"poiid":"B2094757D06FA0FE4392","title":"呼玛二村","lon":"121.455","lat":"31.348","category":"47","category_name":"住宅区","address":"上海呼玛二村"},{"poiid":"B2094654D469ABF44499","title":"上海交通职业技术学院(上海市交通学校)","lon":"121.44139","lat":"31.34187","category":"52","category_name":"高等院校","address":"宝山区呼兰路883号(呼兰路呼青路)"},{"poiid":"B2094757D06FA6FA459F","title":"卜蜂莲花(蕰川路店)","lon":"121.43348","lat":"31.36588","category":"118","category_name":"超级市场","address":"宝山区薀川路1557号(近一号线宝安公路站)"},{"poiid":"B2094757D069A3F84499","title":"共富二村","lon":"121.43156","lat":"31.349676","category":"47","category_name":"住宅区","address":"共富路156弄"},{"poiid":"B2094757D068A5FE469D","title":"江杨北路水产批发市场","lon":"121.45541","lat":"31.35853","category":"249","category_name":"购物服务","address":"上海宝山区江杨北路(近泰和路)"},{"poiid":"B2094654D469AAFA4093","title":"北上海商业广场","lon":"121.43274","lat":"31.36505","category":"119","category_name":"商场","address":"宝山蕴川路1553号"},{"poiid":"B2094757D064A1F5409D","title":"一兆韦德(香逸湾店)","lon":"121.442599679","lat":"31.3623583096","category":"500","category_name":"未知分类","address":"上海莲花山路杨泰路"},{"poiid":"B2094654D469AAFA4398","title":"济光学院生活区","lon":"121.43772","lat":"31.36504","category":"47","category_name":"住宅区","address":"上海杨鑫路 竹韵路"},{"poiid":"B2094757D46DABFA4692","title":"味千拉面 水产路店","lon":"121.4409087","lat":"31.3651261","category":"95","category_name":"日本料理","address":"宝山区水产路2599号世华国际广场(近竹韵路)"},{"poiid":"B2094757D068A2FF409B","title":"沃尔玛(杨行店)","lon":"121.44071267","lat":"31.361403291","category":"118","category_name":"超级市场","address":"上海市宝山区水产路"},{"poiid":"B2094757D068A0FF459E","title":"呼玛四村","lon":"121.44572","lat":"31.344154","category":"252","category_name":"楼宇机构","address":"上海呼兰路675号"},{"poiid":"B2094757D068A2F8479F","title":"富浩花苑","lon":"121.453779174","lat":"31.3445242076","category":"47","category_name":"住宅区","address":"上海市宝山区虎林路800弄"},{"poiid":"B2094654D46AA0F4429D","title":"龙景轩 水产店","lon":"121.43155844196","lat":"31.36020603782","category":"76","category_name":"上海菜","address":"宝山区水产西路189号(近蕴川路)"},{"poiid":"B2094757D068A4FF4492","title":"檀乡湾","lon":"121.437","lat":"31.3677","category":"47","category_name":"住宅区","address":"上海水产西路729弄"},{"poiid":"B2094757D06FAAFE4199","title":"肯德基 KFC (蕴川店)","lon":"121.432546","lat":"31.36659","category":"68","category_name":"快餐厅","address":"宝山区蕴川路1555号北上海商业广场1楼(近一号线宝安公路站)"},{"poiid":"B2094655D26BAAFD4698","title":"高老庄玲珑轩 杨行店","lon":"121.438901054","lat":"31.367238793","category":"71","category_name":"四川菜","address":"宝山区宝山杨行镇杨鑫路338号(竹韵路)"},{"poiid":"B2094757D16DA3FC409F","title":"江杨农产品批发市场","lon":"121.456358831","lat":"31.3570273","category":"500","category_name":"未知分类","address":"上海市宝山区江杨北路【铁谊路】"},{"poiid":"B2094757D069A4F54498","title":"禄德嘉苑","lon":"121.4417","lat":"31.367338","category":"500","category_name":"未知分类","address":"上海市宝山区杨鑫路88号"},{"poiid":"B2094757D66BA3FE459A","title":"竹韵大酒店","lon":"121.44396","lat":"31.36266","category":"76","category_name":"上海菜","address":"宝山区水产路2600弄88号(竹韵路莲花山路口)"},{"poiid":"B2094757D165ABFF449F","title":"南北高架","lon":"121.43467567","lat":"31.350999095","category":"500","category_name":"未知分类","address":"上海市宝山区呼玛路"},{"poiid":"B2094757D06AA0FE409B","title":"泰德商务中心","lon":"121.43377767","lat":"31.353417141","category":"500","category_name":"未知分类","address":"上海市宝山区蕴川路"},{"poiid":"B2094654D46AA7FC459F","title":"宝山区杨行镇西浜村卫生室","lon":"121.44126","lat":"31.35861","category":"162","category_name":"医院","address":"梅林路1969"},{"poiid":"B2094757D06BAAF4499E","title":"上海安吉大众4S店","lon":"121.435288","lat":"31.350714","category":"500","category_name":"未知分类","address":"上海市蕴川路329号"},{"poiid":"B2094757D16DA5FA4892","title":"上海市监狱管理局警官培训中心上海市司法警官学校","lon":"121.44523661","lat":"31.359218354","category":"500","category_name":"未知分类","address":"上海外青松公路115号"},{"poiid":"B2094750DA6EA1FF499F","title":"万达广场宝山店","lon":"121.446434","lat":"31.360191","category":"249","category_name":"购物服务","address":null},{"poiid":"B2094757DA6BAAFC4592","title":"春江美庐","lon":"121.449137","lat":"31.365144","category":"47","category_name":"住宅区","address":"水产路2196号近江杨北路"},{"poiid":"B2094757D569A3FA429E","title":"世华佳苑","lon":"121.43484","lat":"31.367241","category":"47","category_name":"住宅区","address":"上海市宝山区杨鑫路185号"},{"poiid":"B2094757D568A2F5489C","title":"杨泰二村","lon":"121.44263","lat":"31.37023","category":"47","category_name":"住宅区","address":"上海市宝山区杨泰二村76号"},{"poiid":"B2094757D169A3F4429F","title":"味千拉面(杨行店)","lon":"121.442049679","lat":"31.3660553793","category":"247","category_name":"餐饮美食","address":"上海杨行沃尔玛"},{"poiid":"B2094757DA6EAAF9439F","title":"北外环信息产业园","lon":"121.438187799999","lat":"31.3560680999998","category":"263","category_name":"公司","address":"宝山区泰和路2038号"},{"poiid":"B2094750DA6AA1FB4999","title":"宝山万达广场","lon":"121.433753","lat":"31.3514","category":"500","category_name":"未知分类","address":null},{"poiid":"B2094757D065ABFC409F","title":"中国农业银行(杨行支行)","lon":"121.443885394","lat":"31.3638367566","category":"150","category_name":"银行","address":"宝山区水产路2399号"},{"poiid":"B2094655D26BA2FA459F","title":"泰和路蕴川路","lon":"121.43662","lat":"31.35534","category":"38","category_name":"公交车站","address":""},{"poiid":"B2094757D66DABFB4699","title":"港峰生态园","lon":"121.440588797","lat":"31.3603728722","category":"500","category_name":"未知分类","address":"上海市青浦区朱家角镇小港村345号(朱家角工业园区东侧)"},{"poiid":"B2094757D568A0FB479A","title":"地铁一号(捷运1号)","lon":"121.434076","lat":"31.350448","category":"47","category_name":"住宅区","address":"地铁一号(捷运1号)位于宝山共富路32号"},{"poiid":"B2094655D36CA2FD419F","title":"基督教杨行堂","lon":"121.4489","lat":"31.36361","category":"245","category_name":"教堂","address":"宝山区杨行镇杨泰路510弄5号"},{"poiid":"B2094654D469ABF54193","title":"东芝电梯(上海)有限公司","lon":"121.43435","lat":"31.35806","category":"263","category_name":"公司","address":"蕰川路677号"},{"poiid":"B2094654D46AA3FB439B","title":"大胡子烧烤","lon":"121.42704","lat":"31.35204","category":"68","category_name":"快餐厅","address":"宝山区共富路163号"},{"poiid":"B2094757D16EAAFA409A","title":"上海济光学院实训楼","lon":"121.43333067","lat":"31.364476349","category":"500","category_name":"未知分类","address":"上海宝山区水产路"},{"poiid":"B2094757D165A6F4419F","title":"沃尔玛","lon":"121.44179867","lat":"31.365842375","category":"500","category_name":"未知分类","address":"上海市宝山区梅林路"},{"poiid":"B2094654DB69A7FF4598","title":"富康园","lon":"121.434","lat":"31.3551","category":"47","category_name":"住宅区","address":"共富路350号"},{"poiid":"B2094757D465A6FB439A","title":"郝优多来面 水产西路店","lon":"121.43183","lat":"31.36168","category":"87","category_name":"特色／地方风味餐厅","address":"宝山区水产西路59号(近天馨花园)"},{"poiid":"B2094655D26BA5FB489F","title":"宝山区杨泰小学","lon":"121.4399","lat":"31.36741","category":"56","category_name":"小学","address":"杨鑫路368号"},{"poiid":"B2094750DB6EA5FD459E","title":"仙芋奇圆","lon":"121.441596","lat":"31.365879","category":"67","category_name":"甜品店","address":"宝山区水产路2609号沃尔玛1楼116室(近竹韵路)"}]