[{"poiid":"B2094757D16AAAFD4598","title":"上海工會管理學院","lon":"121.41554676","lat":"30.908086069","category":"52","category_name":"高等院校","address":"上海奉贤区南亭公路2080號"},{"poiid":"B2094757D06FA4FC409C","title":"大润发(奉贤店)","lon":"121.44505572","lat":"30.906175665","category":"118","category_name":"超级市场","address":"近郊奉贤区南桥镇南亭公路601号(近南桥11路终点站)"},{"poiid":"B2094757D169A0FC4698","title":"上海交通大学","lon":"121.428832764","lat":"30.9100091098","category":"671","category_name":"高校中心点","address":"上海市闵行区经一路"},{"poiid":"B2094654DB68A7F5429F","title":"阳光园","lon":"121.44728","lat":"30.899969","category":"47","category_name":"住宅区","address":"南桥镇环城南路1309弄"},{"poiid":"B2094757D06BA3FB459A","title":"丰瑞农庄","lon":"121.419613","lat":"30.896939","category":"260","category_name":"其他","address":"近郊奉贤区浦卫公路5166号丰瑞农庄内(G1501高速公路进出口对面)"},{"poiid":"B2094654DB68A0FA409A","title":"五星花园别墅","lon":"121.438","lat":"30.9026","category":"47","category_name":"住宅区","address":"五星花园别墅位于奉贤五星路90号"},{"poiid":"B2094655D36DA1FA4999","title":"五星路","lon":"121.43153","lat":"30.90317","category":"38","category_name":"公交车站","address":""},{"poiid":"B2094655D26BABFE469D","title":"上海九源汽车销售服务有限公司","lon":"121.42919","lat":"30.90266","category":"159","category_name":"汽车维修","address":"近郊奉贤南亭公路1269号(近五星中心路)"},{"poiid":"B2094757D06BAAFA4999","title":"上海工会管理职业学院教学南楼","lon":"121.415501","lat":"30.903157","category":"253","category_name":"校园生活","address":"上海市奉贤区南亭公路2080号"},{"poiid":"B2094757D66BA7FD4092","title":"肯德基 南亭公路店 KFC","lon":"121.446926054","lat":"30.906711793","category":"68","category_name":"快餐厅","address":"近郊奉贤区南亭公路601号"},{"poiid":"B2094757D06AA6FF439C","title":"南桥镇","lon":"121.444154376","lat":"30.9112199728","category":"500","category_name":"未知分类","address":"上海市奉贤区南桥镇"},{"poiid":"B2094654DB68A6FA429A","title":"贝港花苑(北大门)(解放西路)","lon":"121.44265","lat":"30.90934","category":"47","category_name":"住宅区","address":"解放西路639弄"},{"poiid":"B2094655D36CA3FD459F","title":"上海九炫汽车销售服务有限公司","lon":"121.42834","lat":"30.90269","category":"159","category_name":"汽车维修","address":"南亭公路1269号1-2"},{"poiid":"B2094655D26FAAFD4799","title":"贝港南区","lon":"121.44669","lat":"30.908134","category":"47","category_name":"住宅区","address":"上海奉贤区南桥镇秀南路"},{"poiid":"B2094757D065A2F5489D","title":"味千拉面(奉贤大润发店)","lon":"121.444762","lat":"30.906111","category":"68","category_name":"快餐厅","address":"近郊奉贤区南桥镇南亭公路601号大润发1楼"},{"poiid":"B2094655D268A2F84299","title":"金轮大酒店","lon":"121.44345","lat":"30.90243","category":"87","category_name":"特色／地方风味餐厅","address":"近郊奉贤南桥沪杭公路2199号(沪杭公路南庄路)"},{"poiid":"B2094757D068A3FC469B","title":"奉贤区","lon":"121.4426651","lat":"30.902496337","category":"250","category_name":"公园户外","address":"上海奉贤区区域"},{"poiid":"B2094757D66BA4FD4099","title":"味之都 南亭店","lon":"121.43926","lat":"30.9049","category":"68","category_name":"快餐厅","address":"近郊奉贤区南亭公路601号大润发超市旁(近一新路)"},{"poiid":"B2094654DB68A0FA489B","title":"工会学院","lon":"121.41654","lat":"30.90586","category":"52","category_name":"高等院校","address":"奉贤区浦卫公路"},{"poiid":"B2094655D264A0F8439C","title":"阳光春城","lon":"121.44765","lat":"30.903263","category":"47","category_name":"住宅区","address":"奉贤环城南路1128弄"},{"poiid":"B2094655D268A4FA439D","title":"众旺苑","lon":"121.44181","lat":"30.911858","category":"47","category_name":"住宅区","address":"奉贤区前进弄68-86(双)号"},{"poiid":"B2094654DB68A6FA4698","title":"汉贝村","lon":"121.444693054","lat":"30.907851793","category":"96","category_name":"韩国料理","address":"近郊奉贤区环城西路463号(近解放西路)"},{"poiid":"B2094757DB6FA4F8409F","title":"蒋记海鲜坊","lon":"121.441169","lat":"30.907116","category":"247","category_name":"餐饮美食","address":"南桥镇通阳路320号"},{"poiid":"B2094655D268A1F5419E","title":"阳光外国语学校(东门)","lon":"121.44624","lat":"30.9028","category":"52","category_name":"高等院校","address":"环城西路69"},{"poiid":"B2094655D36CA5FC419F","title":"大润发购物广场","lon":"121.44722","lat":"30.90702","category":"38","category_name":"公交车站","address":""},{"poiid":"B2094655D36DA3FA469C","title":"渔航港桥","lon":"121.43684","lat":"30.89563","category":"250","category_name":"公园户外","address":""},{"poiid":"B2094655D265AAF54392","title":"G1501浦卫公路收费站","lon":"121.42272","lat":"30.89567","category":"267","category_name":"收费站","address":""},{"poiid":"B2094757D164A2F54699","title":"上海工会管理职业学院2号宿舍楼","lon":"121.415679","lat":"30.904792","category":"52","category_name":"高等院校","address":"上海奉贤区南亭公路2080号"},{"poiid":"B2094654DB68A7FF449B","title":"上海浦江长途客运站","lon":"121.44271","lat":"30.90254","category":"35","category_name":"长途汽车站","address":"沪杭公路2196-2198"},{"poiid":"B2094757D065A5F9409D","title":"happy lemon 江川店","lon":"121.428956764","lat":"30.9096121014","category":"500","category_name":"未知分类","address":"上海江川路"},{"poiid":"B2094757D164A6FF439B","title":"上海沪华国际大酒店","lon":"121.42895676","lat":"30.909612101","category":"500","category_name":"未知分类","address":"上海闵行区鹤庆路300号"},{"poiid":"B2094757D66EA2FE4999","title":"江南渔村农家园","lon":"121.425536","lat":"30.893223","category":"500","category_name":"未知分类","address":"上海奉贤区浦卫路"},{"poiid":"B2094654DB68A6FA409A","title":"庄行李记羊肉馆","lon":"121.44344","lat":"30.91093","category":"76","category_name":"上海菜","address":"近郊解放西路462号(近环城西路)"},{"poiid":"B2094654DB68A7F8419F","title":"广源大酒店","lon":"121.44082","lat":"30.90643","category":"70","category_name":"综合酒楼","address":""},{"poiid":"B2094655D36CA1F5479D","title":"看守所","lon":"121.44418","lat":"30.90013","category":"38","category_name":"公交车站","address":""},{"poiid":"B2094757D065A1FA409F","title":"一闻香迷宗蟹(通阳路店)","lon":"121.4499923","lat":"30.9021054","category":"86","category_name":"火锅店","address":"近郊奉贤区通阳路285号(近育秀路)"},{"poiid":"B2094654DB68A6F9459D","title":"贝利餐厅","lon":"121.44321","lat":"30.90284","category":"257","category_name":"中餐厅","address":"沪杭公路2195号"},{"poiid":"B2094750D268A1FE4399","title":"众旺苑北区","lon":"121.439613","lat":"30.909254","category":"47","category_name":"住宅区","address":"新建西路638弄"},{"poiid":"B2094757D16CA2F9459D","title":"清风人家 奉贤店 Chinfond Teahouse","lon":"121.44393194148","lat":"30.909817599181","category":"260","category_name":"其他","address":"近郊南桥镇环城西路533号(环城西路解放西路)"},{"poiid":"B2094654DB69A5F54398","title":"迪欧咖啡(奉贤店)","lon":"121.44265","lat":"30.91037","category":"65","category_name":"咖啡厅","address":"奉贤区南桥镇解放路友华公园"},{"poiid":"B2094757D66AA5FB4292","title":"红和酒店","lon":"121.44545","lat":"30.905859","category":"76","category_name":"上海菜","address":"近郊奉贤区环城西路253号(近大润发)"},{"poiid":"B2094654DB68A6F94693","title":"奉贤区城市交通行政执法大队","lon":"121.44197","lat":"30.90501","category":"250","category_name":"公园户外","address":"沪杭公路2181"},{"poiid":"B2094757D16EA6F44493","title":"两岸咖啡(通阳路店)","lon":"121.44965445","lat":"30.904680197","category":"260","category_name":"其他","address":"近郊通阳路296号(近育秀路)"},{"poiid":"B2094654DB68A0F94993","title":"上海国际电器城","lon":"121.42083","lat":"30.90649","category":"138","category_name":"家电电子卖场","address":""},{"poiid":"B2094757D16DA0FD4492","title":"柘林镇","lon":"121.442665","lat":"30.902496","category":"500","category_name":"未知分类","address":"上海奉贤区"},{"poiid":"B2094654DB68A5FC4298","title":"奉贤区实验中学","lon":"121.44619","lat":"30.90949","category":"55","category_name":"中学","address":"近郊奉贤区秀南路99号"},{"poiid":"B2094654DB68A0FA4793","title":"上海富双汽车配件有限公司","lon":"121.43412","lat":"30.89183","category":"263","category_name":"公司","address":"五星村447号"},{"poiid":"B2094654DB68A6FB4092","title":"大润发(奉贤区城市交通运输管理署东)","lon":"121.44453","lat":"30.90595","category":"118","category_name":"超级市场","address":""},{"poiid":"B2094757D168A3F5499B","title":"工会学院北教学楼","lon":"121.416543","lat":"30.905866","category":"253","category_name":"校园生活","address":"上海工会管理职业学院"},{"poiid":"B2094654DB64A7FD429D","title":"贝港花苑(东门)","lon":"121.44462","lat":"30.9081","category":"47","category_name":"住宅区","address":"环城西路421"},{"poiid":"B2094757D16AAAFD4598","title":"上海工會管理學院","lon":"121.41554676","lat":"30.908086069","category":"52","category_name":"高等院校","address":"上海奉贤区南亭公路2080號"},{"poiid":"B2094757D06FA4FC409C","title":"大润发(奉贤店)","lon":"121.44505572","lat":"30.906175665","category":"118","category_name":"超级市场","address":"近郊奉贤区南桥镇南亭公路601号(近南桥11路终点站)"},{"poiid":"B2094757D169A0FC4698","title":"上海交通大学","lon":"121.428832764","lat":"30.9100091098","category":"671","category_name":"高校中心点","address":"上海市闵行区经一路"},{"poiid":"B2094654DB68A7F5429F","title":"阳光园","lon":"121.44728","lat":"30.899969","category":"47","category_name":"住宅区","address":"南桥镇环城南路1309弄"},{"poiid":"B2094757D06BA3FB459A","title":"丰瑞农庄","lon":"121.419613","lat":"30.896939","category":"260","category_name":"其他","address":"近郊奉贤区浦卫公路5166号丰瑞农庄内(G1501高速公路进出口对面)"},{"poiid":"B2094654DB68A0FA409A","title":"五星花园别墅","lon":"121.438","lat":"30.9026","category":"47","category_name":"住宅区","address":"五星花园别墅位于奉贤五星路90号"},{"poiid":"B2094655D36DA1FA4999","title":"五星路","lon":"121.43153","lat":"30.90317","category":"38","category_name":"公交车站","address":""},{"poiid":"B2094655D26BABFE469D","title":"上海九源汽车销售服务有限公司","lon":"121.42919","lat":"30.90266","category":"159","category_name":"汽车维修","address":"近郊奉贤南亭公路1269号(近五星中心路)"},{"poiid":"B2094757D06BAAFA4999","title":"上海工会管理职业学院教学南楼","lon":"121.415501","lat":"30.903157","category":"253","category_name":"校园生活","address":"上海市奉贤区南亭公路2080号"},{"poiid":"B2094757D66BA7FD4092","title":"肯德基 南亭公路店 KFC","lon":"121.446926054","lat":"30.906711793","category":"68","category_name":"快餐厅","address":"近郊奉贤区南亭公路601号"},{"poiid":"B2094757D06AA6FF439C","title":"南桥镇","lon":"121.444154376","lat":"30.9112199728","category":"500","category_name":"未知分类","address":"上海市奉贤区南桥镇"},{"poiid":"B2094654DB68A6FA429A","title":"贝港花苑(北大门)(解放西路)","lon":"121.44265","lat":"30.90934","category":"47","category_name":"住宅区","address":"解放西路639弄"},{"poiid":"B2094655D36CA3FD459F","title":"上海九炫汽车销售服务有限公司","lon":"121.42834","lat":"30.90269","category":"159","category_name":"汽车维修","address":"南亭公路1269号1-2"},{"poiid":"B2094655D26FAAFD4799","title":"贝港南区","lon":"121.44669","lat":"30.908134","category":"47","category_name":"住宅区","address":"上海奉贤区南桥镇秀南路"},{"poiid":"B2094757D065A2F5489D","title":"味千拉面(奉贤大润发店)","lon":"121.444762","lat":"30.906111","category":"68","category_name":"快餐厅","address":"近郊奉贤区南桥镇南亭公路601号大润发1楼"},{"poiid":"B2094655D268A2F84299","title":"金轮大酒店","lon":"121.44345","lat":"30.90243","category":"87","category_name":"特色／地方风味餐厅","address":"近郊奉贤南桥沪杭公路2199号(沪杭公路南庄路)"},{"poiid":"B2094757D068A3FC469B","title":"奉贤区","lon":"121.4426651","lat":"30.902496337","category":"250","category_name":"公园户外","address":"上海奉贤区区域"},{"poiid":"B2094757D66BA4FD4099","title":"味之都 南亭店","lon":"121.43926","lat":"30.9049","category":"68","category_name":"快餐厅","address":"近郊奉贤区南亭公路601号大润发超市旁(近一新路)"},{"poiid":"B2094654DB68A0FA489B","title":"工会学院","lon":"121.41654","lat":"30.90586","category":"52","category_name":"高等院校","address":"奉贤区浦卫公路"},{"poiid":"B2094655D264A0F8439C","title":"阳光春城","lon":"121.44765","lat":"30.903263","category":"47","category_name":"住宅区","address":"奉贤环城南路1128弄"},{"poiid":"B2094655D268A4FA439D","title":"众旺苑","lon":"121.44181","lat":"30.911858","category":"47","category_name":"住宅区","address":"奉贤区前进弄68-86(双)号"},{"poiid":"B2094654DB68A6FA4698","title":"汉贝村","lon":"121.444693054","lat":"30.907851793","category":"96","category_name":"韩国料理","address":"近郊奉贤区环城西路463号(近解放西路)"},{"poiid":"B2094757DB6FA4F8409F","title":"蒋记海鲜坊","lon":"121.441169","lat":"30.907116","category":"247","category_name":"餐饮美食","address":"南桥镇通阳路320号"},{"poiid":"B2094655D268A1F5419E","title":"阳光外国语学校(东门)","lon":"121.44624","lat":"30.9028","category":"52","category_name":"高等院校","address":"环城西路69"},{"poiid":"B2094655D36CA5FC419F","title":"大润发购物广场","lon":"121.44722","lat":"30.90702","category":"38","category_name":"公交车站","address":""},{"poiid":"B2094655D36DA3FA469C","title":"渔航港桥","lon":"121.43684","lat":"30.89563","category":"250","category_name":"公园户外","address":""},{"poiid":"B2094655D265AAF54392","title":"G1501浦卫公路收费站","lon":"121.42272","lat":"30.89567","category":"267","category_name":"收费站","address":""},{"poiid":"B2094757D164A2F54699","title":"上海工会管理职业学院2号宿舍楼","lon":"121.415679","lat":"30.904792","category":"52","category_name":"高等院校","address":"上海奉贤区南亭公路2080号"},{"poiid":"B2094654DB68A7FF449B","title":"上海浦江长途客运站","lon":"121.44271","lat":"30.90254","category":"35","category_name":"长途汽车站","address":"沪杭公路2196-2198"},{"poiid":"B2094757D065A5F9409D","title":"happy lemon 江川店","lon":"121.428956764","lat":"30.9096121014","category":"500","category_name":"未知分类","address":"上海江川路"},{"poiid":"B2094757D164A6FF439B","title":"上海沪华国际大酒店","lon":"121.42895676","lat":"30.909612101","category":"500","category_name":"未知分类","address":"上海闵行区鹤庆路300号"},{"poiid":"B2094757D66EA2FE4999","title":"江南渔村农家园","lon":"121.425536","lat":"30.893223","category":"500","category_name":"未知分类","address":"上海奉贤区浦卫路"},{"poiid":"B2094654DB68A6FA409A","title":"庄行李记羊肉馆","lon":"121.44344","lat":"30.91093","category":"76","category_name":"上海菜","address":"近郊解放西路462号(近环城西路)"},{"poiid":"B2094654DB68A7F8419F","title":"广源大酒店","lon":"121.44082","lat":"30.90643","category":"70","category_name":"综合酒楼","address":""},{"poiid":"B2094655D36CA1F5479D","title":"看守所","lon":"121.44418","lat":"30.90013","category":"38","category_name":"公交车站","address":""},{"poiid":"B2094757D065A1FA409F","title":"一闻香迷宗蟹(通阳路店)","lon":"121.4499923","lat":"30.9021054","category":"86","category_name":"火锅店","address":"近郊奉贤区通阳路285号(近育秀路)"},{"poiid":"B2094654DB68A6F9459D","title":"贝利餐厅","lon":"121.44321","lat":"30.90284","category":"257","category_name":"中餐厅","address":"沪杭公路2195号"},{"poiid":"B2094750D268A1FE4399","title":"众旺苑北区","lon":"121.439613","lat":"30.909254","category":"47","category_name":"住宅区","address":"新建西路638弄"},{"poiid":"B2094757D16CA2F9459D","title":"清风人家 奉贤店 Chinfond Teahouse","lon":"121.44393194148","lat":"30.909817599181","category":"260","category_name":"其他","address":"近郊南桥镇环城西路533号(环城西路解放西路)"},{"poiid":"B2094654DB69A5F54398","title":"迪欧咖啡(奉贤店)","lon":"121.44265","lat":"30.91037","category":"65","category_name":"咖啡厅","address":"奉贤区南桥镇解放路友华公园"},{"poiid":"B2094757D66AA5FB4292","title":"红和酒店","lon":"121.44545","lat":"30.905859","category":"76","category_name":"上海菜","address":"近郊奉贤区环城西路253号(近大润发)"},{"poiid":"B2094654DB68A6F94693","title":"奉贤区城市交通行政执法大队","lon":"121.44197","lat":"30.90501","category":"250","category_name":"公园户外","address":"沪杭公路2181"},{"poiid":"B2094757D16EA6F44493","title":"两岸咖啡(通阳路店)","lon":"121.44965445","lat":"30.904680197","category":"260","category_name":"其他","address":"近郊通阳路296号(近育秀路)"},{"poiid":"B2094654DB68A0F94993","title":"上海国际电器城","lon":"121.42083","lat":"30.90649","category":"138","category_name":"家电电子卖场","address":""},{"poiid":"B2094757D16DA0FD4492","title":"柘林镇","lon":"121.442665","lat":"30.902496","category":"500","category_name":"未知分类","address":"上海奉贤区"},{"poiid":"B2094654DB68A5FC4298","title":"奉贤区实验中学","lon":"121.44619","lat":"30.90949","category":"55","category_name":"中学","address":"近郊奉贤区秀南路99号"},{"poiid":"B2094654DB68A0FA4793","title":"上海富双汽车配件有限公司","lon":"121.43412","lat":"30.89183","category":"263","category_name":"公司","address":"五星村447号"},{"poiid":"B2094654DB68A6FB4092","title":"大润发(奉贤区城市交通运输管理署东)","lon":"121.44453","lat":"30.90595","category":"118","category_name":"超级市场","address":""},{"poiid":"B2094757D168A3F5499B","title":"工会学院北教学楼","lon":"121.416543","lat":"30.905866","category":"253","category_name":"校园生活","address":"上海工会管理职业学院"},{"poiid":"B2094654DB64A7FD429D","title":"贝港花苑(东门)","lon":"121.44462","lat":"30.9081","category":"47","category_name":"住宅区","address":"环城西路421"},{"poiid":"B2094757D16AAAFD4598","title":"上海工會管理學院","lon":"121.41554676","lat":"30.908086069","category":"52","category_name":"高等院校","address":"上海奉贤区南亭公路2080號"},{"poiid":"B2094757D06FA4FC409C","title":"大润发(奉贤店)","lon":"121.44505572","lat":"30.906175665","category":"118","category_name":"超级市场","address":"近郊奉贤区南桥镇南亭公路601号(近南桥11路终点站)"},{"poiid":"B2094757D169A0FC4698","title":"上海交通大学","lon":"121.428832764","lat":"30.9100091098","category":"671","category_name":"高校中心点","address":"上海市闵行区经一路"},{"poiid":"B2094654DB68A7F5429F","title":"阳光园","lon":"121.44728","lat":"30.899969","category":"47","category_name":"住宅区","address":"南桥镇环城南路1309弄"},{"poiid":"B2094757D06BA3FB459A","title":"丰瑞农庄","lon":"121.419613","lat":"30.896939","category":"260","category_name":"其他","address":"近郊奉贤区浦卫公路5166号丰瑞农庄内(G1501高速公路进出口对面)"},{"poiid":"B2094654DB68A0FA409A","title":"五星花园别墅","lon":"121.438","lat":"30.9026","category":"47","category_name":"住宅区","address":"五星花园别墅位于奉贤五星路90号"},{"poiid":"B2094655D36DA1FA4999","title":"五星路","lon":"121.43153","lat":"30.90317","category":"38","category_name":"公交车站","address":""},{"poiid":"B2094655D26BABFE469D","title":"上海九源汽车销售服务有限公司","lon":"121.42919","lat":"30.90266","category":"159","category_name":"汽车维修","address":"近郊奉贤南亭公路1269号(近五星中心路)"},{"poiid":"B2094757D06BAAFA4999","title":"上海工会管理职业学院教学南楼","lon":"121.415501","lat":"30.903157","category":"253","category_name":"校园生活","address":"上海市奉贤区南亭公路2080号"},{"poiid":"B2094757D66BA7FD4092","title":"肯德基 南亭公路店 KFC","lon":"121.446926054","lat":"30.906711793","category":"68","category_name":"快餐厅","address":"近郊奉贤区南亭公路601号"},{"poiid":"B2094757D06AA6FF439C","title":"南桥镇","lon":"121.444154376","lat":"30.9112199728","category":"500","category_name":"未知分类","address":"上海市奉贤区南桥镇"},{"poiid":"B2094654DB68A6FA429A","title":"贝港花苑(北大门)(解放西路)","lon":"121.44265","lat":"30.90934","category":"47","category_name":"住宅区","address":"解放西路639弄"},{"poiid":"B2094655D36CA3FD459F","title":"上海九炫汽车销售服务有限公司","lon":"121.42834","lat":"30.90269","category":"159","category_name":"汽车维修","address":"南亭公路1269号1-2"},{"poiid":"B2094655D26FAAFD4799","title":"贝港南区","lon":"121.44669","lat":"30.908134","category":"47","category_name":"住宅区","address":"上海奉贤区南桥镇秀南路"},{"poiid":"B2094757D065A2F5489D","title":"味千拉面(奉贤大润发店)","lon":"121.444762","lat":"30.906111","category":"68","category_name":"快餐厅","address":"近郊奉贤区南桥镇南亭公路601号大润发1楼"},{"poiid":"B2094655D268A2F84299","title":"金轮大酒店","lon":"121.44345","lat":"30.90243","category":"87","category_name":"特色／地方风味餐厅","address":"近郊奉贤南桥沪杭公路2199号(沪杭公路南庄路)"},{"poiid":"B2094757D068A3FC469B","title":"奉贤区","lon":"121.4426651","lat":"30.902496337","category":"250","category_name":"公园户外","address":"上海奉贤区区域"},{"poiid":"B2094757D66BA4FD4099","title":"味之都 南亭店","lon":"121.43926","lat":"30.9049","category":"68","category_name":"快餐厅","address":"近郊奉贤区南亭公路601号大润发超市旁(近一新路)"},{"poiid":"B2094654DB68A0FA489B","title":"工会学院","lon":"121.41654","lat":"30.90586","category":"52","category_name":"高等院校","address":"奉贤区浦卫公路"},{"poiid":"B2094655D264A0F8439C","title":"阳光春城","lon":"121.44765","lat":"30.903263","category":"47","category_name":"住宅区","address":"奉贤环城南路1128弄"},{"poiid":"B2094655D268A4FA439D","title":"众旺苑","lon":"121.44181","lat":"30.911858","category":"47","category_name":"住宅区","address":"奉贤区前进弄68-86(双)号"},{"poiid":"B2094654DB68A6FA4698","title":"汉贝村","lon":"121.444693054","lat":"30.907851793","category":"96","category_name":"韩国料理","address":"近郊奉贤区环城西路463号(近解放西路)"},{"poiid":"B2094757DB6FA4F8409F","title":"蒋记海鲜坊","lon":"121.441169","lat":"30.907116","category":"247","category_name":"餐饮美食","address":"南桥镇通阳路320号"},{"poiid":"B2094655D268A1F5419E","title":"阳光外国语学校(东门)","lon":"121.44624","lat":"30.9028","category":"52","category_name":"高等院校","address":"环城西路69"},{"poiid":"B2094655D36CA5FC419F","title":"大润发购物广场","lon":"121.44722","lat":"30.90702","category":"38","category_name":"公交车站","address":""},{"poiid":"B2094655D36DA3FA469C","title":"渔航港桥","lon":"121.43684","lat":"30.89563","category":"250","category_name":"公园户外","address":""},{"poiid":"B2094655D265AAF54392","title":"G1501浦卫公路收费站","lon":"121.42272","lat":"30.89567","category":"267","category_name":"收费站","address":""},{"poiid":"B2094757D164A2F54699","title":"上海工会管理职业学院2号宿舍楼","lon":"121.415679","lat":"30.904792","category":"52","category_name":"高等院校","address":"上海奉贤区南亭公路2080号"},{"poiid":"B2094654DB68A7FF449B","title":"上海浦江长途客运站","lon":"121.44271","lat":"30.90254","category":"35","category_name":"长途汽车站","address":"沪杭公路2196-2198"},{"poiid":"B2094757D065A5F9409D","title":"happy lemon 江川店","lon":"121.428956764","lat":"30.9096121014","category":"500","category_name":"未知分类","address":"上海江川路"},{"poiid":"B2094757D164A6FF439B","title":"上海沪华国际大酒店","lon":"121.42895676","lat":"30.909612101","category":"500","category_name":"未知分类","address":"上海闵行区鹤庆路300号"},{"poiid":"B2094757D66EA2FE4999","title":"江南渔村农家园","lon":"121.425536","lat":"30.893223","category":"500","category_name":"未知分类","address":"上海奉贤区浦卫路"},{"poiid":"B2094654DB68A6FA409A","title":"庄行李记羊肉馆","lon":"121.44344","lat":"30.91093","category":"76","category_name":"上海菜","address":"近郊解放西路462号(近环城西路)"},{"poiid":"B2094654DB68A7F8419F","title":"广源大酒店","lon":"121.44082","lat":"30.90643","category":"70","category_name":"综合酒楼","address":""},{"poiid":"B2094655D36CA1F5479D","title":"看守所","lon":"121.44418","lat":"30.90013","category":"38","category_name":"公交车站","address":""},{"poiid":"B2094757D065A1FA409F","title":"一闻香迷宗蟹(通阳路店)","lon":"121.4499923","lat":"30.9021054","category":"86","category_name":"火锅店","address":"近郊奉贤区通阳路285号(近育秀路)"},{"poiid":"B2094654DB68A6F9459D","title":"贝利餐厅","lon":"121.44321","lat":"30.90284","category":"257","category_name":"中餐厅","address":"沪杭公路2195号"},{"poiid":"B2094750D268A1FE4399","title":"众旺苑北区","lon":"121.439613","lat":"30.909254","category":"47","category_name":"住宅区","address":"新建西路638弄"},{"poiid":"B2094757D16CA2F9459D","title":"清风人家 奉贤店 Chinfond Teahouse","lon":"121.44393194148","lat":"30.909817599181","category":"260","category_name":"其他","address":"近郊南桥镇环城西路533号(环城西路解放西路)"},{"poiid":"B2094654DB69A5F54398","title":"迪欧咖啡(奉贤店)","lon":"121.44265","lat":"30.91037","category":"65","category_name":"咖啡厅","address":"奉贤区南桥镇解放路友华公园"},{"poiid":"B2094757D66AA5FB4292","title":"红和酒店","lon":"121.44545","lat":"30.905859","category":"76","category_name":"上海菜","address":"近郊奉贤区环城西路253号(近大润发)"},{"poiid":"B2094654DB68A6F94693","title":"奉贤区城市交通行政执法大队","lon":"121.44197","lat":"30.90501","category":"250","category_name":"公园户外","address":"沪杭公路2181"},{"poiid":"B2094757D16EA6F44493","title":"两岸咖啡(通阳路店)","lon":"121.44965445","lat":"30.904680197","category":"260","category_name":"其他","address":"近郊通阳路296号(近育秀路)"},{"poiid":"B2094654DB68A0F94993","title":"上海国际电器城","lon":"121.42083","lat":"30.90649","category":"138","category_name":"家电电子卖场","address":""},{"poiid":"B2094757D16DA0FD4492","title":"柘林镇","lon":"121.442665","lat":"30.902496","category":"500","category_name":"未知分类","address":"上海奉贤区"},{"poiid":"B2094654DB68A5FC4298","title":"奉贤区实验中学","lon":"121.44619","lat":"30.90949","category":"55","category_name":"中学","address":"近郊奉贤区秀南路99号"},{"poiid":"B2094654DB68A0FA4793","title":"上海富双汽车配件有限公司","lon":"121.43412","lat":"30.89183","category":"263","category_name":"公司","address":"五星村447号"},{"poiid":"B2094654DB68A6FB4092","title":"大润发(奉贤区城市交通运输管理署东)","lon":"121.44453","lat":"30.90595","category":"118","category_name":"超级市场","address":""},{"poiid":"B2094757D168A3F5499B","title":"工会学院北教学楼","lon":"121.416543","lat":"30.905866","category":"253","category_name":"校园生活","address":"上海工会管理职业学院"},{"poiid":"B2094654DB64A7FD429D","title":"贝港花苑(东门)","lon":"121.44462","lat":"30.9081","category":"47","category_name":"住宅区","address":"环城西路421"}]