[{"poiid":"B2094757D06FABFB479E","title":"上海鲜花港","lon":"121.90154981","lat":"30.946320273","category":"198","category_name":"植物园","address":"浦东新区东海农场振东路2号(近两港大道)"},{"poiid":"B2094757D06FAAFE4599","title":"书院人家","lon":"121.89228796","lat":"30.941002088","category":"76","category_name":"上海菜","address":"浦东新区书院镇洋溢村现代农业先行区(近两港大道临港大道)"},{"poiid":"B2094655D36CA6FB459C","title":"东海农场鲜花港","lon":"121.90159","lat":"30.94822","category":"38","category_name":"公交车站","address":""},{"poiid":"B2094654DB68A1FD4793","title":"上海市东海老年护理医院","lon":"121.906485","lat":"30.95237","category":"162","category_name":"医院","address":"浦东新区三三公路5020弄8号(近鲜花港)"},{"poiid":"B2094757D168A5FE499A","title":"普露湾休闲园","lon":"121.89982225","lat":"30.938067683","category":"500","category_name":"未知分类","address":"上海临港新城杞青路"},{"poiid":"B2094655D36CA1F9499F","title":"临港大道塘下公路","lon":"121.89296","lat":"30.93929","category":"38","category_name":"公交车站","address":""},{"poiid":"B2094757D569A1FC429F","title":"东海园艺","lon":"121.901351","lat":"30.94823","category":"260","category_name":"其他","address":"中国上海市浦东新区振东路"},{"poiid":"B2094655D36CA2FB4198","title":"三三公路振东路","lon":"121.90097","lat":"30.95385","category":"38","category_name":"公交车站","address":""},{"poiid":"B2094654DB68A1FD4792","title":"东海影视乐园","lon":"121.90741","lat":"30.95148","category":"250","category_name":"公园户外","address":"东海农场"},{"poiid":"B2094654DB64A0F5449E","title":"今日学校","lon":"121.90317","lat":"30.95372","category":"55","category_name":"中学","address":"浦东新区南汇东海农场三三公路4958号"},{"poiid":"B2094654DB68A1FE4092","title":"上海市东海老年护理医院生活服务中心","lon":"121.90604","lat":"30.95434","category":"162","category_name":"医院","address":"三三公路5053号"},{"poiid":"B2094654DB68A1FD4892","title":"东海影剧院","lon":"121.90578","lat":"30.953899","category":"178","category_name":"电影院","address":"三三公路"},{"poiid":"B2094654DB64ABFA4098","title":"徐淮人家","lon":"121.90585","lat":"30.9539","category":"257","category_name":"中餐厅","address":"浦东新区三三公路(近振东路)"},{"poiid":"B2094655D36CA2FB4199","title":"三三公路职工医院","lon":"121.89345","lat":"30.95425","category":"162","category_name":"医院","address":""},{"poiid":"B2094757D66DA7F8439B","title":"海燕农家乐","lon":"121.90835568","lat":"30.955884462","category":"247","category_name":"餐饮美食","address":"上海东海农场三三公路5888号"},{"poiid":"B2094757D169A7FF489E","title":"美食林农庄","lon":"121.89021","lat":"30.95351","category":"260","category_name":"其他","address":"浦东新区临港新城两港大道书院外灶485号(近三三公路)"},{"poiid":"B2094654DB68A1FE409C","title":"中国农业银行南汇区东场支行","lon":"121.9056","lat":"30.95429","category":"150","category_name":"银行","address":"浦东新区东海农场三三公路5051号"},{"poiid":"B2094655D36CA2FB409D","title":"三三公路外三灶","lon":"121.88678","lat":"30.95544","category":"38","category_name":"公交车站","address":""},{"poiid":"B2094757DA6FA3FD419B","title":"上海汽车临港基地","lon":"121.888758600003","lat":"30.9360710999998","category":"263","category_name":"公司","address":"浦东新区两港大道2999号"},{"poiid":"B2094757D06BABFB489D","title":"上海汽车集团股份有限公司(乘用车临港工厂)","lon":"121.8885094","lat":"30.9331829","category":"263","category_name":"公司","address":"上海浦东新区两港大道2999号"}]