[{"poiid":"B2094757D06FA1FD419C","title":"上海扬子江万丽大酒店","lon":"121.40616858","lat":"31.203131901","category":"213","category_name":"五星级宾馆","address":"上海市长宁区延安西路2099号(近遵义路)"},{"poiid":"B2094757D06FA2FB4192","title":"新虹桥中心花园","lon":"121.40578139","lat":"31.200359502","category":"196","category_name":"公园","address":"长宁区延安西路2238号(近伊犁路)"},{"poiid":"B2094757D06EAAFD429F","title":"虹桥喜来登上海太平洋大饭店 (Sheraton Shanghai Hongqiao Hotel)","lon":"121.405649611","lat":"31.2031937833","category":"217","category_name":"旅馆招待所","address":"长宁区遵义南路5号(近兴义路)"},{"poiid":"B2094654D56BABFE449D","title":"广播大厦","lon":"121.40747","lat":"31.19681","category":"46","category_name":"楼宇","address":"虹桥路1376"},{"poiid":"B2094654D564A3FD469D","title":"上海市血液中心","lon":"121.40718","lat":"31.19831","category":"162","category_name":"医院","address":"长宁区虹桥路1191号(近伊犁路)"},{"poiid":"B2094757D568AAF5429F","title":"清水","lon":"121.40934543","lat":"31.19722304","category":"95","category_name":"日本料理","address":"长宁区虹桥路1153号1楼(近姚虹路)"},{"poiid":"B2094757D068A4F44493","title":"大风车私家菜馆","lon":"121.40352","lat":"31.19843","category":"76","category_name":"上海菜","address":"长宁区虹桥路1440号申康宾馆内(近延安西路)"},{"poiid":"B2094757D06FA2FE429E","title":"新元素餐厅 Element Fresh 古北店(上海嘉顿广场)","lon":"121.40749","lat":"31.202811","category":"260","category_name":"其他","address":"延安西路2088号虹桥嘉顿广场1楼近伊犁路"},{"poiid":"B2094757D66CA3F5429E","title":"奥巴马会所","lon":"121.40724958","lat":"31.202753893","category":"500","category_name":"未知分类","address":"上海市娄山关路"},{"poiid":"B2094757D06EAAF94299","title":"伊犁路地铁站","lon":"121.403289","lat":"31.199036","category":"36","category_name":"地铁站","address":"上海轨道交通 十号线 轨交伊犁路站  10"},{"poiid":"B2094752D26DA0FD479E","title":"天辣绿色时尚餐厅(高岛屋店)","lon":"121.40826","lat":"31.19804","category":"71","category_name":"四川菜","address":"长宁区虹桥路1438号古北国际财富中心2期裙房高岛屋7楼707室"},{"poiid":"B2094757D16DA5F54592","title":"虹桥绿地","lon":"121.40673876","lat":"31.199999487","category":"196","category_name":"公园","address":"上海延安西路"},{"poiid":"B2094751D46BA4FA4498","title":"cat &coffee","lon":"121.40764524098302","lat":"31.20339909727332","category":"65","category_name":"咖啡厅","address":"长宁区延安西路2077号金桥大厦702室"},{"poiid":"B2094757D06FA2F8419E","title":"虹桥友谊商城","lon":"121.40708061","lat":"31.202889779","category":"119","category_name":"商场","address":"长宁区遵义南路6号(近仙霞路)"},{"poiid":"B2094757D06AABFE499C","title":"三泰养生铁板烧","lon":"121.40899658","lat":"31.20170021","category":"94","category_name":"西餐厅","address":"长宁区伊犁路135号(近安顺路)"},{"poiid":"B2094757D065A7FD479E","title":"青叶家日本料理","lon":"121.408083086","lat":"31.2018559762","category":"500","category_name":"未知分类","address":"上海延安西路2077号金桥大厦一楼"},{"poiid":"B2094757D068A5FD489D","title":"上海市长宁区人民法院","lon":"121.40994993","lat":"31.197566526","category":"608","category_name":"法院","address":"上海长宁区虹桥路1133号"},{"poiid":"B2094757D06EAAFA4798","title":"爱心献血点(上海市血液中心)","lon":"121.406994","lat":"31.198091","category":"162","category_name":"医院","address":"上海长宁区虹桥路1191号(近伊犁路)"},{"poiid":"B2094655D26EA7FE489C","title":"古北购物休闲广场","lon":"121.4043","lat":"31.19857","category":"119","category_name":"商场","address":"虹桥路1398号(红宝石路66号古北路口)"},{"poiid":"B2094751D565A5FB4093","title":"亞坤咖啡","lon":"121.403691","lat":"31.197657","category":"247","category_name":"餐饮美食","address":"上海高岛屋B1"},{"poiid":"B2094757D16AAAF9489B","title":"白公馆","lon":"121.40624258","lat":"31.198760815","category":"74","category_name":"江苏菜","address":"徐汇区汾阳路150号(桃江路岳阳路)"},{"poiid":"B2094655D269A4FA4192","title":"哈根达斯 仙霞店 Haagen-Dazs","lon":"121.406970054","lat":"31.202718793","category":"67","category_name":"甜品店","address":"长宁区遵义南路6号虹桥友谊商城1楼(近仙霞路)"},{"poiid":"B2094757D069A1FB4298","title":"GUSTO","lon":"121.407469","lat":"31.20234","category":"94","category_name":"西餐厅","address":"长宁区延安西路2088号A102-103嘉顿广场1楼(遵义路与伊犁路间)"},{"poiid":"B2094757D06AA7F94098","title":"申汇轩(伊犁路店)","lon":"121.40793","lat":"31.20067","category":"76","category_name":"上海菜","address":"长宁区伊犁路111号(安顺路口)"},{"poiid":"B2094757D464A7FE4492","title":"新元素 嘉顿广场店 Element Fresh","lon":"121.407514054","lat":"31.202745793","category":"101","category_name":"美式风味","address":"长宁区延安西路2088号虹桥嘉顿广场1楼(近伊犁路)"},{"poiid":"B2094750DB65AAF44393","title":"初花日本料理","lon":"121.406784","lat":"31.202966","category":"500","category_name":"未知分类","address":"虹桥路1446号古北湾大酒店三楼"},{"poiid":"B209475DD46EA1F4439A","title":"校村Kyochon","lon":"121.407463","lat":"31.202987","category":"247","category_name":"餐饮美食","address":"上海市 上海长宁区延安西路2088号二楼A223单元"},{"poiid":"B2094655D26AA1F5449D","title":"扬子江万丽酒店宴会厅","lon":"121.40583","lat":"31.20294","category":"247","category_name":"餐饮美食","address":"长宁区延安西路2099号扬子江万丽大酒店内(娄山关路延安西路)查看地图"},{"poiid":"B2094750D76DA2FC489C","title":"秋之港日本料理","lon":"121.40653","lat":"31.19791","category":"95","category_name":"日本料理","address":"徐汇区虹桥路1386号文广大厦1楼"},{"poiid":"B2094757D069A7F44493","title":"青叶家","lon":"121.40830655","lat":"31.20325346","category":"95","category_name":"日本料理","address":"长宁区延安西路2071弄9号金桥大厦1楼(近仙霞路)"},{"poiid":"B2094655D26EABF94598","title":"欧薇花园餐厅","lon":"121.40727","lat":"31.19993","category":"268","category_name":"自助","address":"长宁区伊犁路88号福泰国际商务酒店1楼(近安顺路)"},{"poiid":"B2094454D26EA4F44393","title":"kyochon1991校村","lon":"121.406936","lat":"31.202878","category":"247","category_name":"餐饮美食","address":"上海市 延安西路2088号嘉顿商业广场1幢2层A223(伊犁路)"},{"poiid":"B2094655D26FA6FB409A","title":"汉庭快捷(伊犁路店)","lon":"121.40904","lat":"31.20235","category":"216","category_name":"经济型连锁酒店","address":"上海市长宁区伊犁路158号(近安顺路)"},{"poiid":"B2094757D16CA6F8419D","title":"皇家花园","lon":"121.40791","lat":"31.199532","category":"47","category_name":"住宅区","address":"上海安顺路 伊犁路"},{"poiid":"B2094654D564A3FD4693","title":"上海艺星门诊部","lon":"121.40803","lat":"31.19779","category":"162","category_name":"医院","address":"虹桥路1165"},{"poiid":"B2094757D069A1FA439E","title":"Obama","lon":"121.40784818","lat":"31.202628661","category":"172","category_name":"酒吧","address":"上海伊犁路"},{"poiid":"B2094757D069A5FD499C","title":"金桥大厦","lon":"121.40275654157","lat":"31.199388542672","category":"46","category_name":"楼宇","address":"上海延安西路2077号"},{"poiid":"B2094757D065ABF8499B","title":"文广大厦","lon":"121.40500574","lat":"31.196861038","category":"500","category_name":"未知分类","address":"上海虹桥路1380号"},{"poiid":"B2094655D36DA0FA429F","title":"伊犁路","lon":"121.40628","lat":"31.19891","category":"38","category_name":"公交车站","address":""},{"poiid":"B2094655D269A4FA429C","title":"前川","lon":"121.409420054","lat":"31.196986793","category":"95","category_name":"日本料理","address":"长宁区虹桥路1157号4楼(近广播大厦)"},{"poiid":"B209475CD76BA5FD439E","title":"Hello Kitty Today","lon":"121.407722","lat":"31.196411","category":"500","category_name":"未知分类","address":"上海市 高岛屋"},{"poiid":"B2094757D16DA1FA409C","title":"三菱东京日联银行虹桥支行","lon":"121.40703398","lat":"31.200392397","category":"150","category_name":"银行","address":"上海市长宁区红宝石路500号东银中心B栋22楼"},{"poiid":"B2094655D264A7F94798","title":"中华别墅","lon":"121.40812","lat":"31.198715","category":"47","category_name":"住宅区","address":"虹桥路1167弄1-20号"},{"poiid":"B2094757D168A6FA4798","title":"Sushi Haru(鮨春)","lon":"121.40765558","lat":"31.20209288","category":"95","category_name":"日本料理","address":"长宁区延安西路2088号嘉顿广场(古北路虹桥路)"},{"poiid":"B2094757D068A7FA479A","title":"鱼藏(娄山关路店)","lon":"121.40335","lat":"31.20174","category":"95","category_name":"日本料理","address":"长宁区兴义路8号万都中心大厦S-127室"},{"poiid":"B2094654D564A3FE429C","title":"新虹桥绿景园","lon":"121.4079","lat":"31.19953","category":"47","category_name":"住宅区","address":"上海市长宁区安顺路389号"},{"poiid":"B2094757D06BA3F44593","title":"荷兰王国驻沪总领事馆","lon":"121.40496063","lat":"31.198251724","category":"500","category_name":"未知分类","address":"红宝石路500号东银中心10层"},{"poiid":"B2094654D564A3FD469F","title":"新虹桥中心花园(北门)","lon":"121.40382","lat":"31.20092","category":"656","category_name":"大门","address":"延安西路2238"},{"poiid":"B2094655D36DA0FA429C","title":"伊犁路安顺路","lon":"121.40779","lat":"31.20154","category":"38","category_name":"公交车站","address":""},{"poiid":"B2094753D469A3F94299","title":"尚嘉中心LG2屯京拉面","lon":"121.407814","lat":"31.20083","category":"500","category_name":"未知分类","address":"上海市 长宁区仙霞路99号"},{"poiid":"B2094757D06FA1FD419C","title":"上海扬子江万丽大酒店","lon":"121.40616858","lat":"31.203131901","category":"213","category_name":"五星级宾馆","address":"上海市长宁区延安西路2099号(近遵义路)"},{"poiid":"B2094757D06FA2FB4192","title":"新虹桥中心花园","lon":"121.40578139","lat":"31.200359502","category":"196","category_name":"公园","address":"长宁区延安西路2238号(近伊犁路)"},{"poiid":"B2094757D06EAAFD429F","title":"虹桥喜来登上海太平洋大饭店 (Sheraton Shanghai Hongqiao Hotel)","lon":"121.405649611","lat":"31.2031937833","category":"217","category_name":"旅馆招待所","address":"长宁区遵义南路5号(近兴义路)"},{"poiid":"B2094654D56BABFE449D","title":"广播大厦","lon":"121.40747","lat":"31.19681","category":"46","category_name":"楼宇","address":"虹桥路1376"},{"poiid":"B2094654D564A3FD469D","title":"上海市血液中心","lon":"121.40718","lat":"31.19831","category":"162","category_name":"医院","address":"长宁区虹桥路1191号(近伊犁路)"},{"poiid":"B2094757D568AAF5429F","title":"清水","lon":"121.40934543","lat":"31.19722304","category":"95","category_name":"日本料理","address":"长宁区虹桥路1153号1楼(近姚虹路)"},{"poiid":"B2094757D068A4F44493","title":"大风车私家菜馆","lon":"121.40352","lat":"31.19843","category":"76","category_name":"上海菜","address":"长宁区虹桥路1440号申康宾馆内(近延安西路)"},{"poiid":"B2094757D06FA2FE429E","title":"新元素餐厅 Element Fresh 古北店(上海嘉顿广场)","lon":"121.40749","lat":"31.202811","category":"260","category_name":"其他","address":"延安西路2088号虹桥嘉顿广场1楼近伊犁路"},{"poiid":"B2094757D66CA3F5429E","title":"奥巴马会所","lon":"121.40724958","lat":"31.202753893","category":"500","category_name":"未知分类","address":"上海市娄山关路"},{"poiid":"B2094757D06EAAF94299","title":"伊犁路地铁站","lon":"121.403289","lat":"31.199036","category":"36","category_name":"地铁站","address":"上海轨道交通 十号线 轨交伊犁路站  10"},{"poiid":"B2094752D26DA0FD479E","title":"天辣绿色时尚餐厅(高岛屋店)","lon":"121.40826","lat":"31.19804","category":"71","category_name":"四川菜","address":"长宁区虹桥路1438号古北国际财富中心2期裙房高岛屋7楼707室"},{"poiid":"B2094757D16DA5F54592","title":"虹桥绿地","lon":"121.40673876","lat":"31.199999487","category":"196","category_name":"公园","address":"上海延安西路"},{"poiid":"B2094751D46BA4FA4498","title":"cat &coffee","lon":"121.40764524098302","lat":"31.20339909727332","category":"65","category_name":"咖啡厅","address":"长宁区延安西路2077号金桥大厦702室"},{"poiid":"B2094757D06FA2F8419E","title":"虹桥友谊商城","lon":"121.40708061","lat":"31.202889779","category":"119","category_name":"商场","address":"长宁区遵义南路6号(近仙霞路)"},{"poiid":"B2094757D06AABFE499C","title":"三泰养生铁板烧","lon":"121.40899658","lat":"31.20170021","category":"94","category_name":"西餐厅","address":"长宁区伊犁路135号(近安顺路)"},{"poiid":"B2094757D065A7FD479E","title":"青叶家日本料理","lon":"121.408083086","lat":"31.2018559762","category":"500","category_name":"未知分类","address":"上海延安西路2077号金桥大厦一楼"},{"poiid":"B2094757D068A5FD489D","title":"上海市长宁区人民法院","lon":"121.40994993","lat":"31.197566526","category":"608","category_name":"法院","address":"上海长宁区虹桥路1133号"},{"poiid":"B2094757D06EAAFA4798","title":"爱心献血点(上海市血液中心)","lon":"121.406994","lat":"31.198091","category":"162","category_name":"医院","address":"上海长宁区虹桥路1191号(近伊犁路)"},{"poiid":"B2094655D26EA7FE489C","title":"古北购物休闲广场","lon":"121.4043","lat":"31.19857","category":"119","category_name":"商场","address":"虹桥路1398号(红宝石路66号古北路口)"},{"poiid":"B2094751D565A5FB4093","title":"亞坤咖啡","lon":"121.403691","lat":"31.197657","category":"247","category_name":"餐饮美食","address":"上海高岛屋B1"},{"poiid":"B2094757D16AAAF9489B","title":"白公馆","lon":"121.40624258","lat":"31.198760815","category":"74","category_name":"江苏菜","address":"徐汇区汾阳路150号(桃江路岳阳路)"},{"poiid":"B2094655D269A4FA4192","title":"哈根达斯 仙霞店 Haagen-Dazs","lon":"121.406970054","lat":"31.202718793","category":"67","category_name":"甜品店","address":"长宁区遵义南路6号虹桥友谊商城1楼(近仙霞路)"},{"poiid":"B2094757D069A1FB4298","title":"GUSTO","lon":"121.407469","lat":"31.20234","category":"94","category_name":"西餐厅","address":"长宁区延安西路2088号A102-103嘉顿广场1楼(遵义路与伊犁路间)"},{"poiid":"B2094757D06AA7F94098","title":"申汇轩(伊犁路店)","lon":"121.40793","lat":"31.20067","category":"76","category_name":"上海菜","address":"长宁区伊犁路111号(安顺路口)"},{"poiid":"B2094757D464A7FE4492","title":"新元素 嘉顿广场店 Element Fresh","lon":"121.407514054","lat":"31.202745793","category":"101","category_name":"美式风味","address":"长宁区延安西路2088号虹桥嘉顿广场1楼(近伊犁路)"},{"poiid":"B2094750DB65AAF44393","title":"初花日本料理","lon":"121.406784","lat":"31.202966","category":"500","category_name":"未知分类","address":"虹桥路1446号古北湾大酒店三楼"},{"poiid":"B209475DD46EA1F4439A","title":"校村Kyochon","lon":"121.407463","lat":"31.202987","category":"247","category_name":"餐饮美食","address":"上海市 上海长宁区延安西路2088号二楼A223单元"},{"poiid":"B2094655D26AA1F5449D","title":"扬子江万丽酒店宴会厅","lon":"121.40583","lat":"31.20294","category":"247","category_name":"餐饮美食","address":"长宁区延安西路2099号扬子江万丽大酒店内(娄山关路延安西路)查看地图"},{"poiid":"B2094750D76DA2FC489C","title":"秋之港日本料理","lon":"121.40653","lat":"31.19791","category":"95","category_name":"日本料理","address":"徐汇区虹桥路1386号文广大厦1楼"},{"poiid":"B2094757D069A7F44493","title":"青叶家","lon":"121.40830655","lat":"31.20325346","category":"95","category_name":"日本料理","address":"长宁区延安西路2071弄9号金桥大厦1楼(近仙霞路)"},{"poiid":"B2094655D26EABF94598","title":"欧薇花园餐厅","lon":"121.40727","lat":"31.19993","category":"268","category_name":"自助","address":"长宁区伊犁路88号福泰国际商务酒店1楼(近安顺路)"},{"poiid":"B2094454D26EA4F44393","title":"kyochon1991校村","lon":"121.406936","lat":"31.202878","category":"247","category_name":"餐饮美食","address":"上海市 延安西路2088号嘉顿商业广场1幢2层A223(伊犁路)"},{"poiid":"B2094655D26FA6FB409A","title":"汉庭快捷(伊犁路店)","lon":"121.40904","lat":"31.20235","category":"216","category_name":"经济型连锁酒店","address":"上海市长宁区伊犁路158号(近安顺路)"},{"poiid":"B2094757D16CA6F8419D","title":"皇家花园","lon":"121.40791","lat":"31.199532","category":"47","category_name":"住宅区","address":"上海安顺路 伊犁路"},{"poiid":"B2094654D564A3FD4693","title":"上海艺星门诊部","lon":"121.40803","lat":"31.19779","category":"162","category_name":"医院","address":"虹桥路1165"},{"poiid":"B2094757D069A1FA439E","title":"Obama","lon":"121.40784818","lat":"31.202628661","category":"172","category_name":"酒吧","address":"上海伊犁路"},{"poiid":"B2094757D069A5FD499C","title":"金桥大厦","lon":"121.40275654157","lat":"31.199388542672","category":"46","category_name":"楼宇","address":"上海延安西路2077号"},{"poiid":"B2094757D065ABF8499B","title":"文广大厦","lon":"121.40500574","lat":"31.196861038","category":"500","category_name":"未知分类","address":"上海虹桥路1380号"},{"poiid":"B2094655D36DA0FA429F","title":"伊犁路","lon":"121.40628","lat":"31.19891","category":"38","category_name":"公交车站","address":""},{"poiid":"B2094655D269A4FA429C","title":"前川","lon":"121.409420054","lat":"31.196986793","category":"95","category_name":"日本料理","address":"长宁区虹桥路1157号4楼(近广播大厦)"},{"poiid":"B209475CD76BA5FD439E","title":"Hello Kitty Today","lon":"121.407722","lat":"31.196411","category":"500","category_name":"未知分类","address":"上海市 高岛屋"},{"poiid":"B2094757D16DA1FA409C","title":"三菱东京日联银行虹桥支行","lon":"121.40703398","lat":"31.200392397","category":"150","category_name":"银行","address":"上海市长宁区红宝石路500号东银中心B栋22楼"},{"poiid":"B2094655D264A7F94798","title":"中华别墅","lon":"121.40812","lat":"31.198715","category":"47","category_name":"住宅区","address":"虹桥路1167弄1-20号"},{"poiid":"B2094757D168A6FA4798","title":"Sushi Haru(鮨春)","lon":"121.40765558","lat":"31.20209288","category":"95","category_name":"日本料理","address":"长宁区延安西路2088号嘉顿广场(古北路虹桥路)"},{"poiid":"B2094757D068A7FA479A","title":"鱼藏(娄山关路店)","lon":"121.40335","lat":"31.20174","category":"95","category_name":"日本料理","address":"长宁区兴义路8号万都中心大厦S-127室"},{"poiid":"B2094654D564A3FE429C","title":"新虹桥绿景园","lon":"121.4079","lat":"31.19953","category":"47","category_name":"住宅区","address":"上海市长宁区安顺路389号"},{"poiid":"B2094757D06BA3F44593","title":"荷兰王国驻沪总领事馆","lon":"121.40496063","lat":"31.198251724","category":"500","category_name":"未知分类","address":"红宝石路500号东银中心10层"},{"poiid":"B2094654D564A3FD469F","title":"新虹桥中心花园(北门)","lon":"121.40382","lat":"31.20092","category":"656","category_name":"大门","address":"延安西路2238"},{"poiid":"B2094655D36DA0FA429C","title":"伊犁路安顺路","lon":"121.40779","lat":"31.20154","category":"38","category_name":"公交车站","address":""},{"poiid":"B2094753D469A3F94299","title":"尚嘉中心LG2屯京拉面","lon":"121.407814","lat":"31.20083","category":"500","category_name":"未知分类","address":"上海市 长宁区仙霞路99号"},{"poiid":"B2094757D06FA1FD419C","title":"上海扬子江万丽大酒店","lon":"121.40616858","lat":"31.203131901","category":"213","category_name":"五星级宾馆","address":"上海市长宁区延安西路2099号(近遵义路)"},{"poiid":"B2094757D06FA2FB4192","title":"新虹桥中心花园","lon":"121.40578139","lat":"31.200359502","category":"196","category_name":"公园","address":"长宁区延安西路2238号(近伊犁路)"},{"poiid":"B2094757D06EAAFD429F","title":"虹桥喜来登上海太平洋大饭店 (Sheraton Shanghai Hongqiao Hotel)","lon":"121.405649611","lat":"31.2031937833","category":"217","category_name":"旅馆招待所","address":"长宁区遵义南路5号(近兴义路)"},{"poiid":"B2094654D56BABFE449D","title":"广播大厦","lon":"121.40747","lat":"31.19681","category":"46","category_name":"楼宇","address":"虹桥路1376"},{"poiid":"B2094654D564A3FD469D","title":"上海市血液中心","lon":"121.40718","lat":"31.19831","category":"162","category_name":"医院","address":"长宁区虹桥路1191号(近伊犁路)"},{"poiid":"B2094757D568AAF5429F","title":"清水","lon":"121.40934543","lat":"31.19722304","category":"95","category_name":"日本料理","address":"长宁区虹桥路1153号1楼(近姚虹路)"},{"poiid":"B2094757D068A4F44493","title":"大风车私家菜馆","lon":"121.40352","lat":"31.19843","category":"76","category_name":"上海菜","address":"长宁区虹桥路1440号申康宾馆内(近延安西路)"},{"poiid":"B2094757D06FA2FE429E","title":"新元素餐厅 Element Fresh 古北店(上海嘉顿广场)","lon":"121.40749","lat":"31.202811","category":"260","category_name":"其他","address":"延安西路2088号虹桥嘉顿广场1楼近伊犁路"},{"poiid":"B2094757D66CA3F5429E","title":"奥巴马会所","lon":"121.40724958","lat":"31.202753893","category":"500","category_name":"未知分类","address":"上海市娄山关路"},{"poiid":"B2094757D06EAAF94299","title":"伊犁路地铁站","lon":"121.403289","lat":"31.199036","category":"36","category_name":"地铁站","address":"上海轨道交通 十号线 轨交伊犁路站  10"},{"poiid":"B2094752D26DA0FD479E","title":"天辣绿色时尚餐厅(高岛屋店)","lon":"121.40826","lat":"31.19804","category":"71","category_name":"四川菜","address":"长宁区虹桥路1438号古北国际财富中心2期裙房高岛屋7楼707室"},{"poiid":"B2094757D16DA5F54592","title":"虹桥绿地","lon":"121.40673876","lat":"31.199999487","category":"196","category_name":"公园","address":"上海延安西路"},{"poiid":"B2094751D46BA4FA4498","title":"cat &coffee","lon":"121.40764524098302","lat":"31.20339909727332","category":"65","category_name":"咖啡厅","address":"长宁区延安西路2077号金桥大厦702室"},{"poiid":"B2094757D06FA2F8419E","title":"虹桥友谊商城","lon":"121.40708061","lat":"31.202889779","category":"119","category_name":"商场","address":"长宁区遵义南路6号(近仙霞路)"},{"poiid":"B2094757D06AABFE499C","title":"三泰养生铁板烧","lon":"121.40899658","lat":"31.20170021","category":"94","category_name":"西餐厅","address":"长宁区伊犁路135号(近安顺路)"},{"poiid":"B2094757D065A7FD479E","title":"青叶家日本料理","lon":"121.408083086","lat":"31.2018559762","category":"500","category_name":"未知分类","address":"上海延安西路2077号金桥大厦一楼"},{"poiid":"B2094757D068A5FD489D","title":"上海市长宁区人民法院","lon":"121.40994993","lat":"31.197566526","category":"608","category_name":"法院","address":"上海长宁区虹桥路1133号"},{"poiid":"B2094757D06EAAFA4798","title":"爱心献血点(上海市血液中心)","lon":"121.406994","lat":"31.198091","category":"162","category_name":"医院","address":"上海长宁区虹桥路1191号(近伊犁路)"},{"poiid":"B2094655D26EA7FE489C","title":"古北购物休闲广场","lon":"121.4043","lat":"31.19857","category":"119","category_name":"商场","address":"虹桥路1398号(红宝石路66号古北路口)"},{"poiid":"B2094751D565A5FB4093","title":"亞坤咖啡","lon":"121.403691","lat":"31.197657","category":"247","category_name":"餐饮美食","address":"上海高岛屋B1"},{"poiid":"B2094757D16AAAF9489B","title":"白公馆","lon":"121.40624258","lat":"31.198760815","category":"74","category_name":"江苏菜","address":"徐汇区汾阳路150号(桃江路岳阳路)"},{"poiid":"B2094655D269A4FA4192","title":"哈根达斯 仙霞店 Haagen-Dazs","lon":"121.406970054","lat":"31.202718793","category":"67","category_name":"甜品店","address":"长宁区遵义南路6号虹桥友谊商城1楼(近仙霞路)"},{"poiid":"B2094757D069A1FB4298","title":"GUSTO","lon":"121.407469","lat":"31.20234","category":"94","category_name":"西餐厅","address":"长宁区延安西路2088号A102-103嘉顿广场1楼(遵义路与伊犁路间)"},{"poiid":"B2094757D06AA7F94098","title":"申汇轩(伊犁路店)","lon":"121.40793","lat":"31.20067","category":"76","category_name":"上海菜","address":"长宁区伊犁路111号(安顺路口)"},{"poiid":"B2094757D464A7FE4492","title":"新元素 嘉顿广场店 Element Fresh","lon":"121.407514054","lat":"31.202745793","category":"101","category_name":"美式风味","address":"长宁区延安西路2088号虹桥嘉顿广场1楼(近伊犁路)"},{"poiid":"B2094750DB65AAF44393","title":"初花日本料理","lon":"121.406784","lat":"31.202966","category":"500","category_name":"未知分类","address":"虹桥路1446号古北湾大酒店三楼"},{"poiid":"B209475DD46EA1F4439A","title":"校村Kyochon","lon":"121.407463","lat":"31.202987","category":"247","category_name":"餐饮美食","address":"上海市 上海长宁区延安西路2088号二楼A223单元"},{"poiid":"B2094655D26AA1F5449D","title":"扬子江万丽酒店宴会厅","lon":"121.40583","lat":"31.20294","category":"247","category_name":"餐饮美食","address":"长宁区延安西路2099号扬子江万丽大酒店内(娄山关路延安西路)查看地图"},{"poiid":"B2094750D76DA2FC489C","title":"秋之港日本料理","lon":"121.40653","lat":"31.19791","category":"95","category_name":"日本料理","address":"徐汇区虹桥路1386号文广大厦1楼"},{"poiid":"B2094757D069A7F44493","title":"青叶家","lon":"121.40830655","lat":"31.20325346","category":"95","category_name":"日本料理","address":"长宁区延安西路2071弄9号金桥大厦1楼(近仙霞路)"},{"poiid":"B2094655D26EABF94598","title":"欧薇花园餐厅","lon":"121.40727","lat":"31.19993","category":"268","category_name":"自助","address":"长宁区伊犁路88号福泰国际商务酒店1楼(近安顺路)"},{"poiid":"B2094454D26EA4F44393","title":"kyochon1991校村","lon":"121.406936","lat":"31.202878","category":"247","category_name":"餐饮美食","address":"上海市 延安西路2088号嘉顿商业广场1幢2层A223(伊犁路)"},{"poiid":"B2094655D26FA6FB409A","title":"汉庭快捷(伊犁路店)","lon":"121.40904","lat":"31.20235","category":"216","category_name":"经济型连锁酒店","address":"上海市长宁区伊犁路158号(近安顺路)"},{"poiid":"B2094757D16CA6F8419D","title":"皇家花园","lon":"121.40791","lat":"31.199532","category":"47","category_name":"住宅区","address":"上海安顺路 伊犁路"},{"poiid":"B2094654D564A3FD4693","title":"上海艺星门诊部","lon":"121.40803","lat":"31.19779","category":"162","category_name":"医院","address":"虹桥路1165"},{"poiid":"B2094757D069A1FA439E","title":"Obama","lon":"121.40784818","lat":"31.202628661","category":"172","category_name":"酒吧","address":"上海伊犁路"},{"poiid":"B2094757D069A5FD499C","title":"金桥大厦","lon":"121.40275654157","lat":"31.199388542672","category":"46","category_name":"楼宇","address":"上海延安西路2077号"},{"poiid":"B2094757D065ABF8499B","title":"文广大厦","lon":"121.40500574","lat":"31.196861038","category":"500","category_name":"未知分类","address":"上海虹桥路1380号"},{"poiid":"B2094655D36DA0FA429F","title":"伊犁路","lon":"121.40628","lat":"31.19891","category":"38","category_name":"公交车站","address":""},{"poiid":"B2094655D269A4FA429C","title":"前川","lon":"121.409420054","lat":"31.196986793","category":"95","category_name":"日本料理","address":"长宁区虹桥路1157号4楼(近广播大厦)"},{"poiid":"B209475CD76BA5FD439E","title":"Hello Kitty Today","lon":"121.407722","lat":"31.196411","category":"500","category_name":"未知分类","address":"上海市 高岛屋"},{"poiid":"B2094757D16DA1FA409C","title":"三菱东京日联银行虹桥支行","lon":"121.40703398","lat":"31.200392397","category":"150","category_name":"银行","address":"上海市长宁区红宝石路500号东银中心B栋22楼"},{"poiid":"B2094655D264A7F94798","title":"中华别墅","lon":"121.40812","lat":"31.198715","category":"47","category_name":"住宅区","address":"虹桥路1167弄1-20号"},{"poiid":"B2094757D168A6FA4798","title":"Sushi Haru(鮨春)","lon":"121.40765558","lat":"31.20209288","category":"95","category_name":"日本料理","address":"长宁区延安西路2088号嘉顿广场(古北路虹桥路)"},{"poiid":"B2094757D068A7FA479A","title":"鱼藏(娄山关路店)","lon":"121.40335","lat":"31.20174","category":"95","category_name":"日本料理","address":"长宁区兴义路8号万都中心大厦S-127室"},{"poiid":"B2094654D564A3FE429C","title":"新虹桥绿景园","lon":"121.4079","lat":"31.19953","category":"47","category_name":"住宅区","address":"上海市长宁区安顺路389号"},{"poiid":"B2094757D06BA3F44593","title":"荷兰王国驻沪总领事馆","lon":"121.40496063","lat":"31.198251724","category":"500","category_name":"未知分类","address":"红宝石路500号东银中心10层"},{"poiid":"B2094654D564A3FD469F","title":"新虹桥中心花园(北门)","lon":"121.40382","lat":"31.20092","category":"656","category_name":"大门","address":"延安西路2238"},{"poiid":"B2094655D36DA0FA429C","title":"伊犁路安顺路","lon":"121.40779","lat":"31.20154","category":"38","category_name":"公交车站","address":""},{"poiid":"B2094753D469A3F94299","title":"尚嘉中心LG2屯京拉面","lon":"121.407814","lat":"31.20083","category":"500","category_name":"未知分类","address":"上海市 长宁区仙霞路99号"},{"poiid":"B2094757D06FA1FD419C","title":"上海扬子江万丽大酒店","lon":"121.40616858","lat":"31.203131901","category":"213","category_name":"五星级宾馆","address":"上海市长宁区延安西路2099号(近遵义路)"},{"poiid":"B2094757D06FA2FB4192","title":"新虹桥中心花园","lon":"121.40578139","lat":"31.200359502","category":"196","category_name":"公园","address":"长宁区延安西路2238号(近伊犁路)"},{"poiid":"B2094757D06EAAFD429F","title":"虹桥喜来登上海太平洋大饭店 (Sheraton Shanghai Hongqiao Hotel)","lon":"121.405649611","lat":"31.2031937833","category":"217","category_name":"旅馆招待所","address":"长宁区遵义南路5号(近兴义路)"},{"poiid":"B2094654D56BABFE449D","title":"广播大厦","lon":"121.40747","lat":"31.19681","category":"46","category_name":"楼宇","address":"虹桥路1376"},{"poiid":"B2094654D564A3FD469D","title":"上海市血液中心","lon":"121.40718","lat":"31.19831","category":"162","category_name":"医院","address":"长宁区虹桥路1191号(近伊犁路)"},{"poiid":"B2094757D568AAF5429F","title":"清水","lon":"121.40934543","lat":"31.19722304","category":"95","category_name":"日本料理","address":"长宁区虹桥路1153号1楼(近姚虹路)"},{"poiid":"B2094757D068A4F44493","title":"大风车私家菜馆","lon":"121.40352","lat":"31.19843","category":"76","category_name":"上海菜","address":"长宁区虹桥路1440号申康宾馆内(近延安西路)"},{"poiid":"B2094757D06FA2FE429E","title":"新元素餐厅 Element Fresh 古北店(上海嘉顿广场)","lon":"121.40749","lat":"31.202811","category":"260","category_name":"其他","address":"延安西路2088号虹桥嘉顿广场1楼近伊犁路"},{"poiid":"B2094757D66CA3F5429E","title":"奥巴马会所","lon":"121.40724958","lat":"31.202753893","category":"500","category_name":"未知分类","address":"上海市娄山关路"},{"poiid":"B2094757D06EAAF94299","title":"伊犁路地铁站","lon":"121.403289","lat":"31.199036","category":"36","category_name":"地铁站","address":"上海轨道交通 十号线 轨交伊犁路站  10"},{"poiid":"B2094752D26DA0FD479E","title":"天辣绿色时尚餐厅(高岛屋店)","lon":"121.40826","lat":"31.19804","category":"71","category_name":"四川菜","address":"长宁区虹桥路1438号古北国际财富中心2期裙房高岛屋7楼707室"},{"poiid":"B2094757D16DA5F54592","title":"虹桥绿地","lon":"121.40673876","lat":"31.199999487","category":"196","category_name":"公园","address":"上海延安西路"},{"poiid":"B2094751D46BA4FA4498","title":"cat &coffee","lon":"121.40764524098302","lat":"31.20339909727332","category":"65","category_name":"咖啡厅","address":"长宁区延安西路2077号金桥大厦702室"},{"poiid":"B2094757D06FA2F8419E","title":"虹桥友谊商城","lon":"121.40708061","lat":"31.202889779","category":"119","category_name":"商场","address":"长宁区遵义南路6号(近仙霞路)"},{"poiid":"B2094757D06AABFE499C","title":"三泰养生铁板烧","lon":"121.40899658","lat":"31.20170021","category":"94","category_name":"西餐厅","address":"长宁区伊犁路135号(近安顺路)"},{"poiid":"B2094757D065A7FD479E","title":"青叶家日本料理","lon":"121.408083086","lat":"31.2018559762","category":"500","category_name":"未知分类","address":"上海延安西路2077号金桥大厦一楼"},{"poiid":"B2094757D068A5FD489D","title":"上海市长宁区人民法院","lon":"121.40994993","lat":"31.197566526","category":"608","category_name":"法院","address":"上海长宁区虹桥路1133号"},{"poiid":"B2094757D06EAAFA4798","title":"爱心献血点(上海市血液中心)","lon":"121.406994","lat":"31.198091","category":"162","category_name":"医院","address":"上海长宁区虹桥路1191号(近伊犁路)"},{"poiid":"B2094655D26EA7FE489C","title":"古北购物休闲广场","lon":"121.4043","lat":"31.19857","category":"119","category_name":"商场","address":"虹桥路1398号(红宝石路66号古北路口)"},{"poiid":"B2094751D565A5FB4093","title":"亞坤咖啡","lon":"121.403691","lat":"31.197657","category":"247","category_name":"餐饮美食","address":"上海高岛屋B1"},{"poiid":"B2094757D16AAAF9489B","title":"白公馆","lon":"121.40624258","lat":"31.198760815","category":"74","category_name":"江苏菜","address":"徐汇区汾阳路150号(桃江路岳阳路)"},{"poiid":"B2094655D269A4FA4192","title":"哈根达斯 仙霞店 Haagen-Dazs","lon":"121.406970054","lat":"31.202718793","category":"67","category_name":"甜品店","address":"长宁区遵义南路6号虹桥友谊商城1楼(近仙霞路)"},{"poiid":"B2094757D069A1FB4298","title":"GUSTO","lon":"121.407469","lat":"31.20234","category":"94","category_name":"西餐厅","address":"长宁区延安西路2088号A102-103嘉顿广场1楼(遵义路与伊犁路间)"},{"poiid":"B2094757D06AA7F94098","title":"申汇轩(伊犁路店)","lon":"121.40793","lat":"31.20067","category":"76","category_name":"上海菜","address":"长宁区伊犁路111号(安顺路口)"},{"poiid":"B2094757D464A7FE4492","title":"新元素 嘉顿广场店 Element Fresh","lon":"121.407514054","lat":"31.202745793","category":"101","category_name":"美式风味","address":"长宁区延安西路2088号虹桥嘉顿广场1楼(近伊犁路)"},{"poiid":"B2094750DB65AAF44393","title":"初花日本料理","lon":"121.406784","lat":"31.202966","category":"500","category_name":"未知分类","address":"虹桥路1446号古北湾大酒店三楼"},{"poiid":"B209475DD46EA1F4439A","title":"校村Kyochon","lon":"121.407463","lat":"31.202987","category":"247","category_name":"餐饮美食","address":"上海市 上海长宁区延安西路2088号二楼A223单元"},{"poiid":"B2094655D26AA1F5449D","title":"扬子江万丽酒店宴会厅","lon":"121.40583","lat":"31.20294","category":"247","category_name":"餐饮美食","address":"长宁区延安西路2099号扬子江万丽大酒店内(娄山关路延安西路)查看地图"},{"poiid":"B2094750D76DA2FC489C","title":"秋之港日本料理","lon":"121.40653","lat":"31.19791","category":"95","category_name":"日本料理","address":"徐汇区虹桥路1386号文广大厦1楼"},{"poiid":"B2094757D069A7F44493","title":"青叶家","lon":"121.40830655","lat":"31.20325346","category":"95","category_name":"日本料理","address":"长宁区延安西路2071弄9号金桥大厦1楼(近仙霞路)"},{"poiid":"B2094655D26EABF94598","title":"欧薇花园餐厅","lon":"121.40727","lat":"31.19993","category":"268","category_name":"自助","address":"长宁区伊犁路88号福泰国际商务酒店1楼(近安顺路)"},{"poiid":"B2094454D26EA4F44393","title":"kyochon1991校村","lon":"121.406936","lat":"31.202878","category":"247","category_name":"餐饮美食","address":"上海市 延安西路2088号嘉顿商业广场1幢2层A223(伊犁路)"},{"poiid":"B2094655D26FA6FB409A","title":"汉庭快捷(伊犁路店)","lon":"121.40904","lat":"31.20235","category":"216","category_name":"经济型连锁酒店","address":"上海市长宁区伊犁路158号(近安顺路)"},{"poiid":"B2094757D16CA6F8419D","title":"皇家花园","lon":"121.40791","lat":"31.199532","category":"47","category_name":"住宅区","address":"上海安顺路 伊犁路"},{"poiid":"B2094654D564A3FD4693","title":"上海艺星门诊部","lon":"121.40803","lat":"31.19779","category":"162","category_name":"医院","address":"虹桥路1165"},{"poiid":"B2094757D069A1FA439E","title":"Obama","lon":"121.40784818","lat":"31.202628661","category":"172","category_name":"酒吧","address":"上海伊犁路"},{"poiid":"B2094757D069A5FD499C","title":"金桥大厦","lon":"121.40275654157","lat":"31.199388542672","category":"46","category_name":"楼宇","address":"上海延安西路2077号"},{"poiid":"B2094757D065ABF8499B","title":"文广大厦","lon":"121.40500574","lat":"31.196861038","category":"500","category_name":"未知分类","address":"上海虹桥路1380号"},{"poiid":"B2094655D36DA0FA429F","title":"伊犁路","lon":"121.40628","lat":"31.19891","category":"38","category_name":"公交车站","address":""},{"poiid":"B2094655D269A4FA429C","title":"前川","lon":"121.409420054","lat":"31.196986793","category":"95","category_name":"日本料理","address":"长宁区虹桥路1157号4楼(近广播大厦)"},{"poiid":"B209475CD76BA5FD439E","title":"Hello Kitty Today","lon":"121.407722","lat":"31.196411","category":"500","category_name":"未知分类","address":"上海市 高岛屋"},{"poiid":"B2094757D16DA1FA409C","title":"三菱东京日联银行虹桥支行","lon":"121.40703398","lat":"31.200392397","category":"150","category_name":"银行","address":"上海市长宁区红宝石路500号东银中心B栋22楼"},{"poiid":"B2094655D264A7F94798","title":"中华别墅","lon":"121.40812","lat":"31.198715","category":"47","category_name":"住宅区","address":"虹桥路1167弄1-20号"},{"poiid":"B2094757D168A6FA4798","title":"Sushi Haru(鮨春)","lon":"121.40765558","lat":"31.20209288","category":"95","category_name":"日本料理","address":"长宁区延安西路2088号嘉顿广场(古北路虹桥路)"},{"poiid":"B2094757D068A7FA479A","title":"鱼藏(娄山关路店)","lon":"121.40335","lat":"31.20174","category":"95","category_name":"日本料理","address":"长宁区兴义路8号万都中心大厦S-127室"},{"poiid":"B2094654D564A3FE429C","title":"新虹桥绿景园","lon":"121.4079","lat":"31.19953","category":"47","category_name":"住宅区","address":"上海市长宁区安顺路389号"},{"poiid":"B2094757D06BA3F44593","title":"荷兰王国驻沪总领事馆","lon":"121.40496063","lat":"31.198251724","category":"500","category_name":"未知分类","address":"红宝石路500号东银中心10层"},{"poiid":"B2094654D564A3FD469F","title":"新虹桥中心花园(北门)","lon":"121.40382","lat":"31.20092","category":"656","category_name":"大门","address":"延安西路2238"},{"poiid":"B2094655D36DA0FA429C","title":"伊犁路安顺路","lon":"121.40779","lat":"31.20154","category":"38","category_name":"公交车站","address":""},{"poiid":"B2094753D469A3F94299","title":"尚嘉中心LG2屯京拉面","lon":"121.407814","lat":"31.20083","category":"500","category_name":"未知分类","address":"上海市 长宁区仙霞路99号"}]