[{"poiid":"B2094757D06AA4F9429C","title":"香港新世界","lon":"121.49073560357","lat":"31.21214242205","category":"500","category_name":"未知分类","address":"淮海中路300号"},{"poiid":"B2094757D06FA2FB4698","title":"佳家汤包(丽园路店)","lon":"121.48936","lat":"31.21037","category":"68","category_name":"快餐厅","address":"黄浦区丽园路62号(近南车站路)"},{"poiid":"B2094655D36CA6F5489C","title":"大兴街","lon":"121.48844","lat":"31.21216","category":"38","category_name":"公交车站","address":"上海大兴街"},{"poiid":"B2094753D76FAAFA449C","title":"上海滩国泰旗舰店","lon":"121.466011","lat":"31.216125","category":"249","category_name":"购物服务","address":"淮海中路868号"},{"poiid":"B209475CD564A7F84292","title":"上海滩新天地店","lon":"121.47463","lat":"31.22164","category":"119","category_name":"商场","address":"\"太仓路181弄新天地北里15号\r\n\""},{"poiid":"B209475CD564A7F84392","title":"上海滩浦东香格里拉店","lon":"121.50058","lat":"31.23634","category":"119","category_name":"商场","address":"浦东富成路33号香格里拉酒店内大堂层"},{"poiid":"B2094655D26FA4FA449E","title":"上海商业会计学校北门(陆家浜路)","lon":"121.49092","lat":"31.21225","category":"54","category_name":"职业技术学校","address":"陆家浜路804弄25"},{"poiid":"B2094757D068A1FE409F","title":"生活时尚大酒店 陆家浜店","lon":"121.48738057254","lat":"31.212185890492","category":"72","category_name":"广东菜","address":"黄浦区陆家浜路1011号新世纪酒店4楼(近大兴街)"},{"poiid":"B2094654DA68A2FD4793","title":"小绍兴(丽园路)","lon":"121.48961","lat":"31.21078","category":"68","category_name":"快餐厅","address":"黄浦区丽园路26号(南车站路口)"},{"poiid":"B2094655D268A1F9469E","title":"味千拉面(大兴街)","lon":"121.48851","lat":"31.21344","category":"95","category_name":"日本料理","address":"黄浦区大兴街18号(近陆家浜路)"},{"poiid":"B2094654DA6EA0FC4793","title":"新世纪大厦","lon":"121.48908","lat":"31.21255","category":"46","category_name":"楼宇","address":"上海市黄浦区陆家浜路1011号(近大兴街)"},{"poiid":"B2094757D06FA0F54393","title":"85度C(大兴店)","lon":"121.4889","lat":"31.21321","category":"112","category_name":"糕饼店","address":"黄浦区大兴街18号华联吉买盛1楼(近陆家浜路)"},{"poiid":"B2094757D56CA4F9429F","title":"萨莉亚 南车站路店","lon":"121.48995629367","lat":"31.212134685347","category":"247","category_name":"餐饮美食","address":"南车站路1号2楼近大兴街"},{"poiid":"B2094654DB6BABFE469C","title":"上海电视大学黄浦分校(丽园路)","lon":"121.48752","lat":"31.2102","category":"52","category_name":"高等院校","address":"丽园路144"},{"poiid":"B2094757D06FA7F84199","title":"华联吉买盛(大兴街店)","lon":"121.488492712","lat":"31.2134738728","category":"118","category_name":"超级市场","address":"黄浦区大兴街18号2楼(近陆家浜路)"},{"poiid":"B2094757D664A2FF4799","title":"德兴馆 陆家浜路店","lon":"121.490463054","lat":"31.212169793","category":"76","category_name":"上海菜","address":"杨浦区江浦路104号(近杨树浦路)"},{"poiid":"B2094654DA6EA0F5439B","title":"普明面馆 大兴街店","lon":"121.489611054","lat":"31.212705793","category":"68","category_name":"快餐厅","address":"黄浦区大兴街105号(近陆家浜路)"},{"poiid":"B2094655D26EA0F54593","title":"丽园新村","lon":"121.49","lat":"31.2101","category":"47","category_name":"住宅区","address":"五里桥路39弄1-8号，斜土路80弄"},{"poiid":"B2094654DB6BABFF409A","title":"会景楼大酒店","lon":"121.48802","lat":"31.21179","category":"250","category_name":"公园户外","address":"上海市黄浦区陆家浜路1088号(近西藏南路路口)"},{"poiid":"B2094655D26AA6FB4998","title":"振鼎鸡 陆家浜路店","lon":"121.490669054","lat":"31.212116793","category":"68","category_name":"快餐厅","address":"黄浦区陆家浜路1088号(近大兴街)"},{"poiid":"B2094757D068ABFD459B","title":"九号线宜山路站","lon":"121.49021783","lat":"31.209993168","category":"36","category_name":"地铁站","address":"上海轨道交通九号线"},{"poiid":"B2094757D465A4FA4098","title":"汇珍坊 黄浦店","lon":"121.48991","lat":"31.21226","category":"76","category_name":"上海菜","address":"黄浦区陆家浜路976号3楼"},{"poiid":"B2094757D16BA0F4449D","title":"妯娌老鸭粉丝 丽园路","lon":"121.489896054","lat":"31.211072793","category":"68","category_name":"快餐厅","address":"黄浦区丽园路38号(近南车站路)"},{"poiid":"B2094757D068A6F94398","title":"陆家浜路大兴街站","lon":"121.488232","lat":"31.212275","category":"500","category_name":"未知分类","address":"上海黄浦区陆家浜路1057号(43路,985路,大桥一线,730路,782路,931路,955路,802路,303路)"},{"poiid":"B2094655D26BA1F8439C","title":"南车站路陆家浜路","lon":"121.49036","lat":"31.211","category":"38","category_name":"公交车站","address":""},{"poiid":"B2094654DB6BABF8429F","title":"上海商业会计学校(迎勋路)","lon":"121.49094","lat":"31.21214","category":"54","category_name":"职业技术学校","address":"陆家浜路918"},{"poiid":"B2094655D26FA6F84498","title":"海州丽园","lon":"121.48876","lat":"31.21025","category":"47","category_name":"住宅区","address":"丽园路68弄1-20号"},{"poiid":"B2094655D26AA5FC4699","title":"善食坊","lon":"121.490016","lat":"31.211323","category":"76","category_name":"上海菜","address":"黄浦区丽园路48号(近南车站路)"},{"poiid":"B2094654DB64A5F54492","title":"顺兴斋面馆","lon":"121.48926","lat":"31.2107","category":"257","category_name":"中餐厅","address":"丽园路50"},{"poiid":"B2094757D168A2F54592","title":"福大点心小吃馆","lon":"121.489861038","lat":"31.2109732898","category":"247","category_name":"餐饮美食","address":"上海市南车站路92号"},{"poiid":"B209475CD46BA0FB4298","title":"城隍庙","lon":"121.49002","lat":"31.211122","category":"500","category_name":"未知分类","address":"上海市 上海"},{"poiid":"B2094654DB6AA7F44593","title":"上海市半凇园地段医院","lon":"121.49041","lat":"31.21091","category":"162","category_name":"医院","address":"黄浦区南车站路90号"},{"poiid":"B2094757D06BA1F5469A","title":"上海市政府采购中心","lon":"121.48863078","lat":"31.211215928","category":"500","category_name":"未知分类","address":"上海陆家浜路1054号"},{"poiid":"B2094757D065A5FF409E","title":"little mermaid bakery","lon":"121.48971787","lat":"31.2111122261","category":"500","category_name":"未知分类","address":"上海世纪大道8号国金中心LG2"},{"poiid":"B2094655D268A5FE4492","title":"丽南公寓","lon":"121.49013","lat":"31.21084","category":"47","category_name":"住宅区","address":"丽园路8号"},{"poiid":"B2094654DA68A2FA419C","title":"东方苑","lon":"121.48827","lat":"31.211287","category":"47","category_name":"住宅区","address":"东方苑位于卢湾陆家浜路1060号"},{"poiid":"B2094654DA68A2FE4392","title":"中国建设银行陆家浜路支行","lon":"121.49015","lat":"31.21095","category":"150","category_name":"银行","address":"南车站路86"},{"poiid":"B2094654DA6EA0FC429B","title":"六角大楼","lon":"121.48712","lat":"31.21227","category":"46","category_name":"楼宇","address":"黄浦区陆家浜路1141-1143号"},{"poiid":"B2094757D16CAAFF429C","title":"家和新食汇","lon":"121.49004473","lat":"31.21102289","category":"500","category_name":"未知分类","address":"上海南车站路88号"},{"poiid":"B2094753D36EA1F9479D","title":"菩悦足道SPA会所","lon":"121.490296","lat":"31.211921","category":"149","category_name":"洗浴推拿场所","address":"陆家浜路976号2楼"},{"poiid":"B2094757D064A2FF4992","title":"上海广场长城假日酒店","lon":"121.489692738","lat":"31.2111378933","category":"217","category_name":"旅馆招待所","address":"上海闸北区恒丰路585号"},{"poiid":"B2094757D165A4FA4893","title":"徽宁路","lon":"121.49066773","lat":"31.211892909","category":"500","category_name":"未知分类","address":"上海市黄浦区徽宁路"},{"poiid":"B2094757D16EA1F9429A","title":"汇珍小菜","lon":"121.490088","lat":"31.212004","category":"247","category_name":"餐饮美食","address":"上海陆家浜路976号"},{"poiid":"B2094654DA68A2FA409B","title":"东方苑办公楼","lon":"121.4886","lat":"31.21168","category":"46","category_name":"楼宇","address":"陆家浜路1054"},{"poiid":"B2094757D16AA1F8459B","title":"泰格泰拳功夫俱乐部","lon":"121.49042","lat":"31.21147","category":"500","category_name":"未知分类","address":"黄浦区南车站路9号富南大厦27-28楼"},{"poiid":"B2094655D26FA6FE4699","title":"华联超市(徽宁路店)","lon":"121.49091","lat":"31.21092","category":"118","category_name":"超级市场","address":"徽宁路297号"},{"poiid":"B2094654DA68A0FA489B","title":"龙悦大厦","lon":"121.491283","lat":"31.213294","category":"46","category_name":"楼宇","address":"越秀区环市东路362-366号"},{"poiid":"B2094750D668A5FA459D","title":"老鸿兴苏州汤包馆（大兴街店）","lon":"121.488502","lat":"31.213647","category":"68","category_name":"快餐厅","address":"黄浦区大兴街14号(近华联吉买盛)"},{"poiid":"B2094654DA68A2FE4399","title":"丽南公寓(南大门)","lon":"121.49016","lat":"31.21082","category":"48","category_name":"楼宇大门","address":"丽园路8"},{"poiid":"B2094655D265AAFE409D","title":"宝丽金大厦","lon":"121.48908","lat":"31.21255","category":"46","category_name":"楼宇","address":"宝丽金大厦位于卢湾陆家浜路1011号南外滩世博会旁"},{"poiid":"B2094757D06AA4F9429C","title":"香港新世界","lon":"121.49073560357","lat":"31.21214242205","category":"500","category_name":"未知分类","address":"淮海中路300号"},{"poiid":"B2094757D06FA2FB4698","title":"佳家汤包(丽园路店)","lon":"121.48936","lat":"31.21037","category":"68","category_name":"快餐厅","address":"黄浦区丽园路62号(近南车站路)"},{"poiid":"B2094655D36CA6F5489C","title":"大兴街","lon":"121.48844","lat":"31.21216","category":"38","category_name":"公交车站","address":"上海大兴街"},{"poiid":"B2094753D76FAAFA449C","title":"上海滩国泰旗舰店","lon":"121.466011","lat":"31.216125","category":"249","category_name":"购物服务","address":"淮海中路868号"},{"poiid":"B209475CD564A7F84292","title":"上海滩新天地店","lon":"121.47463","lat":"31.22164","category":"119","category_name":"商场","address":"\"太仓路181弄新天地北里15号\r\n\""},{"poiid":"B209475CD564A7F84392","title":"上海滩浦东香格里拉店","lon":"121.50058","lat":"31.23634","category":"119","category_name":"商场","address":"浦东富成路33号香格里拉酒店内大堂层"},{"poiid":"B2094655D26FA4FA449E","title":"上海商业会计学校北门(陆家浜路)","lon":"121.49092","lat":"31.21225","category":"54","category_name":"职业技术学校","address":"陆家浜路804弄25"},{"poiid":"B2094757D068A1FE409F","title":"生活时尚大酒店 陆家浜店","lon":"121.48738057254","lat":"31.212185890492","category":"72","category_name":"广东菜","address":"黄浦区陆家浜路1011号新世纪酒店4楼(近大兴街)"},{"poiid":"B2094654DA68A2FD4793","title":"小绍兴(丽园路)","lon":"121.48961","lat":"31.21078","category":"68","category_name":"快餐厅","address":"黄浦区丽园路26号(南车站路口)"},{"poiid":"B2094655D268A1F9469E","title":"味千拉面(大兴街)","lon":"121.48851","lat":"31.21344","category":"95","category_name":"日本料理","address":"黄浦区大兴街18号(近陆家浜路)"},{"poiid":"B2094654DA6EA0FC4793","title":"新世纪大厦","lon":"121.48908","lat":"31.21255","category":"46","category_name":"楼宇","address":"上海市黄浦区陆家浜路1011号(近大兴街)"},{"poiid":"B2094757D06FA0F54393","title":"85度C(大兴店)","lon":"121.4889","lat":"31.21321","category":"112","category_name":"糕饼店","address":"黄浦区大兴街18号华联吉买盛1楼(近陆家浜路)"},{"poiid":"B2094757D56CA4F9429F","title":"萨莉亚 南车站路店","lon":"121.48995629367","lat":"31.212134685347","category":"247","category_name":"餐饮美食","address":"南车站路1号2楼近大兴街"},{"poiid":"B2094654DB6BABFE469C","title":"上海电视大学黄浦分校(丽园路)","lon":"121.48752","lat":"31.2102","category":"52","category_name":"高等院校","address":"丽园路144"},{"poiid":"B2094757D06FA7F84199","title":"华联吉买盛(大兴街店)","lon":"121.488492712","lat":"31.2134738728","category":"118","category_name":"超级市场","address":"黄浦区大兴街18号2楼(近陆家浜路)"},{"poiid":"B2094757D664A2FF4799","title":"德兴馆 陆家浜路店","lon":"121.490463054","lat":"31.212169793","category":"76","category_name":"上海菜","address":"杨浦区江浦路104号(近杨树浦路)"},{"poiid":"B2094654DA6EA0F5439B","title":"普明面馆 大兴街店","lon":"121.489611054","lat":"31.212705793","category":"68","category_name":"快餐厅","address":"黄浦区大兴街105号(近陆家浜路)"},{"poiid":"B2094655D26EA0F54593","title":"丽园新村","lon":"121.49","lat":"31.2101","category":"47","category_name":"住宅区","address":"五里桥路39弄1-8号，斜土路80弄"},{"poiid":"B2094654DB6BABFF409A","title":"会景楼大酒店","lon":"121.48802","lat":"31.21179","category":"250","category_name":"公园户外","address":"上海市黄浦区陆家浜路1088号(近西藏南路路口)"},{"poiid":"B2094655D26AA6FB4998","title":"振鼎鸡 陆家浜路店","lon":"121.490669054","lat":"31.212116793","category":"68","category_name":"快餐厅","address":"黄浦区陆家浜路1088号(近大兴街)"},{"poiid":"B2094757D068ABFD459B","title":"九号线宜山路站","lon":"121.49021783","lat":"31.209993168","category":"36","category_name":"地铁站","address":"上海轨道交通九号线"},{"poiid":"B2094757D465A4FA4098","title":"汇珍坊 黄浦店","lon":"121.48991","lat":"31.21226","category":"76","category_name":"上海菜","address":"黄浦区陆家浜路976号3楼"},{"poiid":"B2094757D16BA0F4449D","title":"妯娌老鸭粉丝 丽园路","lon":"121.489896054","lat":"31.211072793","category":"68","category_name":"快餐厅","address":"黄浦区丽园路38号(近南车站路)"},{"poiid":"B2094757D068A6F94398","title":"陆家浜路大兴街站","lon":"121.488232","lat":"31.212275","category":"500","category_name":"未知分类","address":"上海黄浦区陆家浜路1057号(43路,985路,大桥一线,730路,782路,931路,955路,802路,303路)"},{"poiid":"B2094655D26BA1F8439C","title":"南车站路陆家浜路","lon":"121.49036","lat":"31.211","category":"38","category_name":"公交车站","address":""},{"poiid":"B2094654DB6BABF8429F","title":"上海商业会计学校(迎勋路)","lon":"121.49094","lat":"31.21214","category":"54","category_name":"职业技术学校","address":"陆家浜路918"},{"poiid":"B2094655D26FA6F84498","title":"海州丽园","lon":"121.48876","lat":"31.21025","category":"47","category_name":"住宅区","address":"丽园路68弄1-20号"},{"poiid":"B2094655D26AA5FC4699","title":"善食坊","lon":"121.490016","lat":"31.211323","category":"76","category_name":"上海菜","address":"黄浦区丽园路48号(近南车站路)"},{"poiid":"B2094654DB64A5F54492","title":"顺兴斋面馆","lon":"121.48926","lat":"31.2107","category":"257","category_name":"中餐厅","address":"丽园路50"},{"poiid":"B2094757D168A2F54592","title":"福大点心小吃馆","lon":"121.489861038","lat":"31.2109732898","category":"247","category_name":"餐饮美食","address":"上海市南车站路92号"},{"poiid":"B209475CD46BA0FB4298","title":"城隍庙","lon":"121.49002","lat":"31.211122","category":"500","category_name":"未知分类","address":"上海市 上海"},{"poiid":"B2094654DB6AA7F44593","title":"上海市半凇园地段医院","lon":"121.49041","lat":"31.21091","category":"162","category_name":"医院","address":"黄浦区南车站路90号"},{"poiid":"B2094757D06BA1F5469A","title":"上海市政府采购中心","lon":"121.48863078","lat":"31.211215928","category":"500","category_name":"未知分类","address":"上海陆家浜路1054号"},{"poiid":"B2094757D065A5FF409E","title":"little mermaid bakery","lon":"121.48971787","lat":"31.2111122261","category":"500","category_name":"未知分类","address":"上海世纪大道8号国金中心LG2"},{"poiid":"B2094655D268A5FE4492","title":"丽南公寓","lon":"121.49013","lat":"31.21084","category":"47","category_name":"住宅区","address":"丽园路8号"},{"poiid":"B2094654DA68A2FA419C","title":"东方苑","lon":"121.48827","lat":"31.211287","category":"47","category_name":"住宅区","address":"东方苑位于卢湾陆家浜路1060号"},{"poiid":"B2094654DA68A2FE4392","title":"中国建设银行陆家浜路支行","lon":"121.49015","lat":"31.21095","category":"150","category_name":"银行","address":"南车站路86"},{"poiid":"B2094654DA6EA0FC429B","title":"六角大楼","lon":"121.48712","lat":"31.21227","category":"46","category_name":"楼宇","address":"黄浦区陆家浜路1141-1143号"},{"poiid":"B2094757D16CAAFF429C","title":"家和新食汇","lon":"121.49004473","lat":"31.21102289","category":"500","category_name":"未知分类","address":"上海南车站路88号"},{"poiid":"B2094753D36EA1F9479D","title":"菩悦足道SPA会所","lon":"121.490296","lat":"31.211921","category":"149","category_name":"洗浴推拿场所","address":"陆家浜路976号2楼"},{"poiid":"B2094757D064A2FF4992","title":"上海广场长城假日酒店","lon":"121.489692738","lat":"31.2111378933","category":"217","category_name":"旅馆招待所","address":"上海闸北区恒丰路585号"},{"poiid":"B2094757D165A4FA4893","title":"徽宁路","lon":"121.49066773","lat":"31.211892909","category":"500","category_name":"未知分类","address":"上海市黄浦区徽宁路"},{"poiid":"B2094757D16EA1F9429A","title":"汇珍小菜","lon":"121.490088","lat":"31.212004","category":"247","category_name":"餐饮美食","address":"上海陆家浜路976号"},{"poiid":"B2094654DA68A2FA409B","title":"东方苑办公楼","lon":"121.4886","lat":"31.21168","category":"46","category_name":"楼宇","address":"陆家浜路1054"},{"poiid":"B2094757D16AA1F8459B","title":"泰格泰拳功夫俱乐部","lon":"121.49042","lat":"31.21147","category":"500","category_name":"未知分类","address":"黄浦区南车站路9号富南大厦27-28楼"},{"poiid":"B2094655D26FA6FE4699","title":"华联超市(徽宁路店)","lon":"121.49091","lat":"31.21092","category":"118","category_name":"超级市场","address":"徽宁路297号"},{"poiid":"B2094654DA68A0FA489B","title":"龙悦大厦","lon":"121.491283","lat":"31.213294","category":"46","category_name":"楼宇","address":"越秀区环市东路362-366号"},{"poiid":"B2094750D668A5FA459D","title":"老鸿兴苏州汤包馆（大兴街店）","lon":"121.488502","lat":"31.213647","category":"68","category_name":"快餐厅","address":"黄浦区大兴街14号(近华联吉买盛)"},{"poiid":"B2094654DA68A2FE4399","title":"丽南公寓(南大门)","lon":"121.49016","lat":"31.21082","category":"48","category_name":"楼宇大门","address":"丽园路8"},{"poiid":"B2094655D265AAFE409D","title":"宝丽金大厦","lon":"121.48908","lat":"31.21255","category":"46","category_name":"楼宇","address":"宝丽金大厦位于卢湾陆家浜路1011号南外滩世博会旁"},{"poiid":"B2094757D06AA4F9429C","title":"香港新世界","lon":"121.49073560357","lat":"31.21214242205","category":"500","category_name":"未知分类","address":"淮海中路300号"},{"poiid":"B2094757D06FA2FB4698","title":"佳家汤包(丽园路店)","lon":"121.48936","lat":"31.21037","category":"68","category_name":"快餐厅","address":"黄浦区丽园路62号(近南车站路)"},{"poiid":"B2094655D36CA6F5489C","title":"大兴街","lon":"121.48844","lat":"31.21216","category":"38","category_name":"公交车站","address":"上海大兴街"},{"poiid":"B2094753D76FAAFA449C","title":"上海滩国泰旗舰店","lon":"121.466011","lat":"31.216125","category":"249","category_name":"购物服务","address":"淮海中路868号"},{"poiid":"B209475CD564A7F84292","title":"上海滩新天地店","lon":"121.47463","lat":"31.22164","category":"119","category_name":"商场","address":"\"太仓路181弄新天地北里15号\r\n\""},{"poiid":"B209475CD564A7F84392","title":"上海滩浦东香格里拉店","lon":"121.50058","lat":"31.23634","category":"119","category_name":"商场","address":"浦东富成路33号香格里拉酒店内大堂层"},{"poiid":"B2094655D26FA4FA449E","title":"上海商业会计学校北门(陆家浜路)","lon":"121.49092","lat":"31.21225","category":"54","category_name":"职业技术学校","address":"陆家浜路804弄25"},{"poiid":"B2094757D068A1FE409F","title":"生活时尚大酒店 陆家浜店","lon":"121.48738057254","lat":"31.212185890492","category":"72","category_name":"广东菜","address":"黄浦区陆家浜路1011号新世纪酒店4楼(近大兴街)"},{"poiid":"B2094654DA68A2FD4793","title":"小绍兴(丽园路)","lon":"121.48961","lat":"31.21078","category":"68","category_name":"快餐厅","address":"黄浦区丽园路26号(南车站路口)"},{"poiid":"B2094655D268A1F9469E","title":"味千拉面(大兴街)","lon":"121.48851","lat":"31.21344","category":"95","category_name":"日本料理","address":"黄浦区大兴街18号(近陆家浜路)"},{"poiid":"B2094654DA6EA0FC4793","title":"新世纪大厦","lon":"121.48908","lat":"31.21255","category":"46","category_name":"楼宇","address":"上海市黄浦区陆家浜路1011号(近大兴街)"},{"poiid":"B2094757D06FA0F54393","title":"85度C(大兴店)","lon":"121.4889","lat":"31.21321","category":"112","category_name":"糕饼店","address":"黄浦区大兴街18号华联吉买盛1楼(近陆家浜路)"},{"poiid":"B2094757D56CA4F9429F","title":"萨莉亚 南车站路店","lon":"121.48995629367","lat":"31.212134685347","category":"247","category_name":"餐饮美食","address":"南车站路1号2楼近大兴街"},{"poiid":"B2094654DB6BABFE469C","title":"上海电视大学黄浦分校(丽园路)","lon":"121.48752","lat":"31.2102","category":"52","category_name":"高等院校","address":"丽园路144"},{"poiid":"B2094757D06FA7F84199","title":"华联吉买盛(大兴街店)","lon":"121.488492712","lat":"31.2134738728","category":"118","category_name":"超级市场","address":"黄浦区大兴街18号2楼(近陆家浜路)"},{"poiid":"B2094757D664A2FF4799","title":"德兴馆 陆家浜路店","lon":"121.490463054","lat":"31.212169793","category":"76","category_name":"上海菜","address":"杨浦区江浦路104号(近杨树浦路)"},{"poiid":"B2094654DA6EA0F5439B","title":"普明面馆 大兴街店","lon":"121.489611054","lat":"31.212705793","category":"68","category_name":"快餐厅","address":"黄浦区大兴街105号(近陆家浜路)"},{"poiid":"B2094655D26EA0F54593","title":"丽园新村","lon":"121.49","lat":"31.2101","category":"47","category_name":"住宅区","address":"五里桥路39弄1-8号，斜土路80弄"},{"poiid":"B2094654DB6BABFF409A","title":"会景楼大酒店","lon":"121.48802","lat":"31.21179","category":"250","category_name":"公园户外","address":"上海市黄浦区陆家浜路1088号(近西藏南路路口)"},{"poiid":"B2094655D26AA6FB4998","title":"振鼎鸡 陆家浜路店","lon":"121.490669054","lat":"31.212116793","category":"68","category_name":"快餐厅","address":"黄浦区陆家浜路1088号(近大兴街)"},{"poiid":"B2094757D068ABFD459B","title":"九号线宜山路站","lon":"121.49021783","lat":"31.209993168","category":"36","category_name":"地铁站","address":"上海轨道交通九号线"},{"poiid":"B2094757D465A4FA4098","title":"汇珍坊 黄浦店","lon":"121.48991","lat":"31.21226","category":"76","category_name":"上海菜","address":"黄浦区陆家浜路976号3楼"},{"poiid":"B2094757D16BA0F4449D","title":"妯娌老鸭粉丝 丽园路","lon":"121.489896054","lat":"31.211072793","category":"68","category_name":"快餐厅","address":"黄浦区丽园路38号(近南车站路)"},{"poiid":"B2094757D068A6F94398","title":"陆家浜路大兴街站","lon":"121.488232","lat":"31.212275","category":"500","category_name":"未知分类","address":"上海黄浦区陆家浜路1057号(43路,985路,大桥一线,730路,782路,931路,955路,802路,303路)"},{"poiid":"B2094655D26BA1F8439C","title":"南车站路陆家浜路","lon":"121.49036","lat":"31.211","category":"38","category_name":"公交车站","address":""},{"poiid":"B2094654DB6BABF8429F","title":"上海商业会计学校(迎勋路)","lon":"121.49094","lat":"31.21214","category":"54","category_name":"职业技术学校","address":"陆家浜路918"},{"poiid":"B2094655D26FA6F84498","title":"海州丽园","lon":"121.48876","lat":"31.21025","category":"47","category_name":"住宅区","address":"丽园路68弄1-20号"},{"poiid":"B2094655D26AA5FC4699","title":"善食坊","lon":"121.490016","lat":"31.211323","category":"76","category_name":"上海菜","address":"黄浦区丽园路48号(近南车站路)"},{"poiid":"B2094654DB64A5F54492","title":"顺兴斋面馆","lon":"121.48926","lat":"31.2107","category":"257","category_name":"中餐厅","address":"丽园路50"},{"poiid":"B2094757D168A2F54592","title":"福大点心小吃馆","lon":"121.489861038","lat":"31.2109732898","category":"247","category_name":"餐饮美食","address":"上海市南车站路92号"},{"poiid":"B209475CD46BA0FB4298","title":"城隍庙","lon":"121.49002","lat":"31.211122","category":"500","category_name":"未知分类","address":"上海市 上海"},{"poiid":"B2094654DB6AA7F44593","title":"上海市半凇园地段医院","lon":"121.49041","lat":"31.21091","category":"162","category_name":"医院","address":"黄浦区南车站路90号"},{"poiid":"B2094757D06BA1F5469A","title":"上海市政府采购中心","lon":"121.48863078","lat":"31.211215928","category":"500","category_name":"未知分类","address":"上海陆家浜路1054号"},{"poiid":"B2094757D065A5FF409E","title":"little mermaid bakery","lon":"121.48971787","lat":"31.2111122261","category":"500","category_name":"未知分类","address":"上海世纪大道8号国金中心LG2"},{"poiid":"B2094655D268A5FE4492","title":"丽南公寓","lon":"121.49013","lat":"31.21084","category":"47","category_name":"住宅区","address":"丽园路8号"},{"poiid":"B2094654DA68A2FA419C","title":"东方苑","lon":"121.48827","lat":"31.211287","category":"47","category_name":"住宅区","address":"东方苑位于卢湾陆家浜路1060号"},{"poiid":"B2094654DA68A2FE4392","title":"中国建设银行陆家浜路支行","lon":"121.49015","lat":"31.21095","category":"150","category_name":"银行","address":"南车站路86"},{"poiid":"B2094654DA6EA0FC429B","title":"六角大楼","lon":"121.48712","lat":"31.21227","category":"46","category_name":"楼宇","address":"黄浦区陆家浜路1141-1143号"},{"poiid":"B2094757D16CAAFF429C","title":"家和新食汇","lon":"121.49004473","lat":"31.21102289","category":"500","category_name":"未知分类","address":"上海南车站路88号"},{"poiid":"B2094753D36EA1F9479D","title":"菩悦足道SPA会所","lon":"121.490296","lat":"31.211921","category":"149","category_name":"洗浴推拿场所","address":"陆家浜路976号2楼"},{"poiid":"B2094757D064A2FF4992","title":"上海广场长城假日酒店","lon":"121.489692738","lat":"31.2111378933","category":"217","category_name":"旅馆招待所","address":"上海闸北区恒丰路585号"},{"poiid":"B2094757D165A4FA4893","title":"徽宁路","lon":"121.49066773","lat":"31.211892909","category":"500","category_name":"未知分类","address":"上海市黄浦区徽宁路"},{"poiid":"B2094757D16EA1F9429A","title":"汇珍小菜","lon":"121.490088","lat":"31.212004","category":"247","category_name":"餐饮美食","address":"上海陆家浜路976号"},{"poiid":"B2094654DA68A2FA409B","title":"东方苑办公楼","lon":"121.4886","lat":"31.21168","category":"46","category_name":"楼宇","address":"陆家浜路1054"},{"poiid":"B2094757D16AA1F8459B","title":"泰格泰拳功夫俱乐部","lon":"121.49042","lat":"31.21147","category":"500","category_name":"未知分类","address":"黄浦区南车站路9号富南大厦27-28楼"},{"poiid":"B2094655D26FA6FE4699","title":"华联超市(徽宁路店)","lon":"121.49091","lat":"31.21092","category":"118","category_name":"超级市场","address":"徽宁路297号"},{"poiid":"B2094654DA68A0FA489B","title":"龙悦大厦","lon":"121.491283","lat":"31.213294","category":"46","category_name":"楼宇","address":"越秀区环市东路362-366号"},{"poiid":"B2094750D668A5FA459D","title":"老鸿兴苏州汤包馆（大兴街店）","lon":"121.488502","lat":"31.213647","category":"68","category_name":"快餐厅","address":"黄浦区大兴街14号(近华联吉买盛)"},{"poiid":"B2094654DA68A2FE4399","title":"丽南公寓(南大门)","lon":"121.49016","lat":"31.21082","category":"48","category_name":"楼宇大门","address":"丽园路8"},{"poiid":"B2094655D265AAFE409D","title":"宝丽金大厦","lon":"121.48908","lat":"31.21255","category":"46","category_name":"楼宇","address":"宝丽金大厦位于卢湾陆家浜路1011号南外滩世博会旁"},{"poiid":"B2094757D06AA4F9429C","title":"香港新世界","lon":"121.49073560357","lat":"31.21214242205","category":"500","category_name":"未知分类","address":"淮海中路300号"},{"poiid":"B2094757D06FA2FB4698","title":"佳家汤包(丽园路店)","lon":"121.48936","lat":"31.21037","category":"68","category_name":"快餐厅","address":"黄浦区丽园路62号(近南车站路)"},{"poiid":"B2094655D36CA6F5489C","title":"大兴街","lon":"121.48844","lat":"31.21216","category":"38","category_name":"公交车站","address":"上海大兴街"},{"poiid":"B2094753D76FAAFA449C","title":"上海滩国泰旗舰店","lon":"121.466011","lat":"31.216125","category":"249","category_name":"购物服务","address":"淮海中路868号"},{"poiid":"B209475CD564A7F84292","title":"上海滩新天地店","lon":"121.47463","lat":"31.22164","category":"119","category_name":"商场","address":"\"太仓路181弄新天地北里15号\r\n\""},{"poiid":"B209475CD564A7F84392","title":"上海滩浦东香格里拉店","lon":"121.50058","lat":"31.23634","category":"119","category_name":"商场","address":"浦东富成路33号香格里拉酒店内大堂层"},{"poiid":"B2094655D26FA4FA449E","title":"上海商业会计学校北门(陆家浜路)","lon":"121.49092","lat":"31.21225","category":"54","category_name":"职业技术学校","address":"陆家浜路804弄25"},{"poiid":"B2094757D068A1FE409F","title":"生活时尚大酒店 陆家浜店","lon":"121.48738057254","lat":"31.212185890492","category":"72","category_name":"广东菜","address":"黄浦区陆家浜路1011号新世纪酒店4楼(近大兴街)"},{"poiid":"B2094654DA68A2FD4793","title":"小绍兴(丽园路)","lon":"121.48961","lat":"31.21078","category":"68","category_name":"快餐厅","address":"黄浦区丽园路26号(南车站路口)"},{"poiid":"B2094655D268A1F9469E","title":"味千拉面(大兴街)","lon":"121.48851","lat":"31.21344","category":"95","category_name":"日本料理","address":"黄浦区大兴街18号(近陆家浜路)"},{"poiid":"B2094654DA6EA0FC4793","title":"新世纪大厦","lon":"121.48908","lat":"31.21255","category":"46","category_name":"楼宇","address":"上海市黄浦区陆家浜路1011号(近大兴街)"},{"poiid":"B2094757D06FA0F54393","title":"85度C(大兴店)","lon":"121.4889","lat":"31.21321","category":"112","category_name":"糕饼店","address":"黄浦区大兴街18号华联吉买盛1楼(近陆家浜路)"},{"poiid":"B2094757D56CA4F9429F","title":"萨莉亚 南车站路店","lon":"121.48995629367","lat":"31.212134685347","category":"247","category_name":"餐饮美食","address":"南车站路1号2楼近大兴街"},{"poiid":"B2094654DB6BABFE469C","title":"上海电视大学黄浦分校(丽园路)","lon":"121.48752","lat":"31.2102","category":"52","category_name":"高等院校","address":"丽园路144"},{"poiid":"B2094757D06FA7F84199","title":"华联吉买盛(大兴街店)","lon":"121.488492712","lat":"31.2134738728","category":"118","category_name":"超级市场","address":"黄浦区大兴街18号2楼(近陆家浜路)"},{"poiid":"B2094757D664A2FF4799","title":"德兴馆 陆家浜路店","lon":"121.490463054","lat":"31.212169793","category":"76","category_name":"上海菜","address":"杨浦区江浦路104号(近杨树浦路)"},{"poiid":"B2094654DA6EA0F5439B","title":"普明面馆 大兴街店","lon":"121.489611054","lat":"31.212705793","category":"68","category_name":"快餐厅","address":"黄浦区大兴街105号(近陆家浜路)"},{"poiid":"B2094655D26EA0F54593","title":"丽园新村","lon":"121.49","lat":"31.2101","category":"47","category_name":"住宅区","address":"五里桥路39弄1-8号，斜土路80弄"},{"poiid":"B2094654DB6BABFF409A","title":"会景楼大酒店","lon":"121.48802","lat":"31.21179","category":"250","category_name":"公园户外","address":"上海市黄浦区陆家浜路1088号(近西藏南路路口)"},{"poiid":"B2094655D26AA6FB4998","title":"振鼎鸡 陆家浜路店","lon":"121.490669054","lat":"31.212116793","category":"68","category_name":"快餐厅","address":"黄浦区陆家浜路1088号(近大兴街)"},{"poiid":"B2094757D068ABFD459B","title":"九号线宜山路站","lon":"121.49021783","lat":"31.209993168","category":"36","category_name":"地铁站","address":"上海轨道交通九号线"},{"poiid":"B2094757D465A4FA4098","title":"汇珍坊 黄浦店","lon":"121.48991","lat":"31.21226","category":"76","category_name":"上海菜","address":"黄浦区陆家浜路976号3楼"},{"poiid":"B2094757D16BA0F4449D","title":"妯娌老鸭粉丝 丽园路","lon":"121.489896054","lat":"31.211072793","category":"68","category_name":"快餐厅","address":"黄浦区丽园路38号(近南车站路)"},{"poiid":"B2094757D068A6F94398","title":"陆家浜路大兴街站","lon":"121.488232","lat":"31.212275","category":"500","category_name":"未知分类","address":"上海黄浦区陆家浜路1057号(43路,985路,大桥一线,730路,782路,931路,955路,802路,303路)"},{"poiid":"B2094655D26BA1F8439C","title":"南车站路陆家浜路","lon":"121.49036","lat":"31.211","category":"38","category_name":"公交车站","address":""},{"poiid":"B2094654DB6BABF8429F","title":"上海商业会计学校(迎勋路)","lon":"121.49094","lat":"31.21214","category":"54","category_name":"职业技术学校","address":"陆家浜路918"},{"poiid":"B2094655D26FA6F84498","title":"海州丽园","lon":"121.48876","lat":"31.21025","category":"47","category_name":"住宅区","address":"丽园路68弄1-20号"},{"poiid":"B2094655D26AA5FC4699","title":"善食坊","lon":"121.490016","lat":"31.211323","category":"76","category_name":"上海菜","address":"黄浦区丽园路48号(近南车站路)"},{"poiid":"B2094654DB64A5F54492","title":"顺兴斋面馆","lon":"121.48926","lat":"31.2107","category":"257","category_name":"中餐厅","address":"丽园路50"},{"poiid":"B2094757D168A2F54592","title":"福大点心小吃馆","lon":"121.489861038","lat":"31.2109732898","category":"247","category_name":"餐饮美食","address":"上海市南车站路92号"},{"poiid":"B209475CD46BA0FB4298","title":"城隍庙","lon":"121.49002","lat":"31.211122","category":"500","category_name":"未知分类","address":"上海市 上海"},{"poiid":"B2094654DB6AA7F44593","title":"上海市半凇园地段医院","lon":"121.49041","lat":"31.21091","category":"162","category_name":"医院","address":"黄浦区南车站路90号"},{"poiid":"B2094757D06BA1F5469A","title":"上海市政府采购中心","lon":"121.48863078","lat":"31.211215928","category":"500","category_name":"未知分类","address":"上海陆家浜路1054号"},{"poiid":"B2094757D065A5FF409E","title":"little mermaid bakery","lon":"121.48971787","lat":"31.2111122261","category":"500","category_name":"未知分类","address":"上海世纪大道8号国金中心LG2"},{"poiid":"B2094655D268A5FE4492","title":"丽南公寓","lon":"121.49013","lat":"31.21084","category":"47","category_name":"住宅区","address":"丽园路8号"},{"poiid":"B2094654DA68A2FA419C","title":"东方苑","lon":"121.48827","lat":"31.211287","category":"47","category_name":"住宅区","address":"东方苑位于卢湾陆家浜路1060号"},{"poiid":"B2094654DA68A2FE4392","title":"中国建设银行陆家浜路支行","lon":"121.49015","lat":"31.21095","category":"150","category_name":"银行","address":"南车站路86"},{"poiid":"B2094654DA6EA0FC429B","title":"六角大楼","lon":"121.48712","lat":"31.21227","category":"46","category_name":"楼宇","address":"黄浦区陆家浜路1141-1143号"},{"poiid":"B2094757D16CAAFF429C","title":"家和新食汇","lon":"121.49004473","lat":"31.21102289","category":"500","category_name":"未知分类","address":"上海南车站路88号"},{"poiid":"B2094753D36EA1F9479D","title":"菩悦足道SPA会所","lon":"121.490296","lat":"31.211921","category":"149","category_name":"洗浴推拿场所","address":"陆家浜路976号2楼"},{"poiid":"B2094757D064A2FF4992","title":"上海广场长城假日酒店","lon":"121.489692738","lat":"31.2111378933","category":"217","category_name":"旅馆招待所","address":"上海闸北区恒丰路585号"},{"poiid":"B2094757D165A4FA4893","title":"徽宁路","lon":"121.49066773","lat":"31.211892909","category":"500","category_name":"未知分类","address":"上海市黄浦区徽宁路"},{"poiid":"B2094757D16EA1F9429A","title":"汇珍小菜","lon":"121.490088","lat":"31.212004","category":"247","category_name":"餐饮美食","address":"上海陆家浜路976号"},{"poiid":"B2094654DA68A2FA409B","title":"东方苑办公楼","lon":"121.4886","lat":"31.21168","category":"46","category_name":"楼宇","address":"陆家浜路1054"},{"poiid":"B2094757D16AA1F8459B","title":"泰格泰拳功夫俱乐部","lon":"121.49042","lat":"31.21147","category":"500","category_name":"未知分类","address":"黄浦区南车站路9号富南大厦27-28楼"},{"poiid":"B2094655D26FA6FE4699","title":"华联超市(徽宁路店)","lon":"121.49091","lat":"31.21092","category":"118","category_name":"超级市场","address":"徽宁路297号"},{"poiid":"B2094654DA68A0FA489B","title":"龙悦大厦","lon":"121.491283","lat":"31.213294","category":"46","category_name":"楼宇","address":"越秀区环市东路362-366号"},{"poiid":"B2094750D668A5FA459D","title":"老鸿兴苏州汤包馆（大兴街店）","lon":"121.488502","lat":"31.213647","category":"68","category_name":"快餐厅","address":"黄浦区大兴街14号(近华联吉买盛)"},{"poiid":"B2094654DA68A2FE4399","title":"丽南公寓(南大门)","lon":"121.49016","lat":"31.21082","category":"48","category_name":"楼宇大门","address":"丽园路8"},{"poiid":"B2094655D265AAFE409D","title":"宝丽金大厦","lon":"121.48908","lat":"31.21255","category":"46","category_name":"楼宇","address":"宝丽金大厦位于卢湾陆家浜路1011号南外滩世博会旁"}]