[{"poiid":"B2094750D668A7FB439D","title":"纽斯桑拿会所","lon":"121.414176","lat":"31.209903","category":"248","category_name":"生活娱乐","address":"长宁区天山路1900号(近延安西路)"},{"poiid":"B2094655D26FA5FE4299","title":"东华大学(延安西路校区)","lon":"121.41384","lat":"31.20653","category":"671","category_name":"高校中心点","address":"上海市长宁区延安西路1882号"},{"poiid":"B2094654DB65A5F84793","title":"育音堂","lon":"121.41618","lat":"31.20858","category":"248","category_name":"生活娱乐","address":"长宁区凯旋路851号(凯旋路延安西路)"},{"poiid":"B2094750DB6BA2FA479E","title":"纽斯","lon":"121.414527","lat":"31.208843","category":"248","category_name":"生活娱乐","address":"天山路1900号"},{"poiid":"B2094757D06EAAF84593","title":"延安西路地铁站","lon":"121.417123","lat":"31.210023","category":"36","category_name":"地铁站","address":"上海轨道交通 三号线 四号线 轨交延安西路站 轻轨 3 4"},{"poiid":"B2094757DA6EABFB469A","title":"尚嘉中心","lon":"121.413","lat":"31.2115","category":"249","category_name":"购物服务","address":"上海市长宁区仙霞路99号"},{"poiid":"B2094757D06FA1FB449A","title":"可当代艺术中心","lon":"121.4174","lat":"31.21177","category":"179","category_name":"音乐厅","address":"长宁区凯旋路613号B座(近延安西路)"},{"poiid":"B2094757D06FA3F94892","title":"上海市职业培训指导中心","lon":"121.41142","lat":"31.21003","category":"253","category_name":"校园生活","address":"长宁区天山路1800号(近中山西路)"},{"poiid":"B2094757D06FA4FD489A","title":"天山公园","lon":"121.415716881","lat":"31.2089318765","category":"196","category_name":"公园","address":"长宁区延安西路1731号(近凯旋路)"},{"poiid":"B2094750D565A6FA459A","title":"New star","lon":"121.414184","lat":"31.209081","category":"248","category_name":"生活娱乐","address":"天山路延安西路"},{"poiid":"B2094752D76EA4F44698","title":"本家韩国料理","lon":"121.413605","lat":"31.209045","category":"247","category_name":"餐饮美食","address":"天山路1900号(近延安西路)"},{"poiid":"B2094757D06FA6FE419E","title":"延安路高架 凯旋路口","lon":"121.4167824","lat":"31.208085769","category":"500","category_name":"未知分类","address":"上海延安西路凯旋路"},{"poiid":"B2094655D36DA7F8489E","title":"中山西路天山路","lon":"121.41274","lat":"31.21002","category":"38","category_name":"公交车站","address":""},{"poiid":"B2094751D465A2F84193","title":"同一首歌KTV俱乐部（天山路店）","lon":"121.414139","lat":"31.208694","category":"248","category_name":"生活娱乐","address":"上海市长宁区天山路1900号"},{"poiid":"B2094750D565A6FB499D","title":"纽斯汗蒸","lon":"121.414192","lat":"31.209089","category":"249","category_name":"购物服务","address":"天山路77号"},{"poiid":"B2094757D06FA6F54598","title":"仲盛金融中心","lon":"121.415","lat":"31.2102","category":"500","category_name":"未知分类","address":"延安西路2067号"},{"poiid":"B2094757D06FA0F9439B","title":"小城堡","lon":"121.414903","lat":"31.207477","category":"94","category_name":"西餐厅","address":"长宁区延安西路1794号(近天山路)"},{"poiid":"B2094757D06FA7FE429B","title":"呷哺呷哺(延安西路餐厅)","lon":"121.417244","lat":"31.210322","category":"86","category_name":"火锅店","address":"长宁区轨道交通三号线延安西路站1楼3-108商铺(近凯旋路)"},{"poiid":"B2094757D16EA4FD499F","title":"大风车私家菜馆(绿洲大厦店)","lon":"121.415989986","lat":"31.2079916961","category":"76","category_name":"上海菜","address":"上海长宁区中山西路555号绿洲大厦2楼，62861737，人均:60元"},{"poiid":"B2094750DA69A3F44099","title":"纽斯spa会所","lon":"121.414466","lat":"31.209598","category":"148","category_name":"美容美发店","address":null},{"poiid":"B2094750DA6FA2F94899","title":"纽斯（天山店）","lon":"121.414314","lat":"31.209098","category":"247","category_name":"餐饮美食","address":null},{"poiid":"B2094757D069A5FD429F","title":"延安路高架西行长宁虹桥区","lon":"121.41423114","lat":"31.207561972","category":"500","category_name":"未知分类","address":"上海延安路高架"},{"poiid":"B2094757D16EA2F8409F","title":"日本领事馆","lon":"121.41750036","lat":"31.208487673","category":"500","category_name":"未知分类","address":"上海万山路"},{"poiid":"B2094655D26AAAF44692","title":"爆香串云南烧 天山店","lon":"121.411529","lat":"31.209659","category":"68","category_name":"快餐厅","address":"长宁区中山西路642号(近天山路)"},{"poiid":"B2094654D565A6FA449E","title":"凯桥绿地","lon":"121.41822","lat":"31.21026","category":"196","category_name":"公园","address":"长宁区延安西路凯旋路口(法华镇路延安西路)"},{"poiid":"B2094750DA6AA2F9489B","title":"newstar","lon":"121.414466","lat":"31.209535","category":"248","category_name":"生活娱乐","address":"天山路1900号"},{"poiid":"B2094757D06FAAFD4493","title":"可当代艺术中心小剧场","lon":"121.41721344","lat":"31.2120456696","category":"260","category_name":"其他","address":"上海凯旋路613号B座一层"},{"poiid":"B2094655D268A0FD4599","title":"真功夫 延安西路店","lon":"121.416143054","lat":"31.208666793","category":"68","category_name":"快餐厅","address":"凯旋路812号地铁三,四号线延安西路站站厅一楼"},{"poiid":"B2094654D56BA5FA439F","title":"协泰中心","lon":"121.413","lat":"31.2105","category":"46","category_name":"楼宇","address":"上海市奉贤区环城东路455,465弄"},{"poiid":"B2094757DA69A1F94499","title":"虹桥上海城","lon":"121.414","lat":"31.2127","category":"119","category_name":"商场","address":"上海市长宁区遵义路100号"},{"poiid":"B2094757D06FA5F9429E","title":"中山西路立交","lon":"121.41245269","lat":"31.208242416","category":"500","category_name":"未知分类","address":"上海立交桥"},{"poiid":"B2094655D264A7FC499E","title":"北京同仁堂老字号延安西路店","lon":"121.41816","lat":"31.20816","category":"255","category_name":"专卖店","address":"长宁区延安西路1672号(近凯旋路)"},{"poiid":"B2094750DB6BABFF449A","title":"纽斯桑拿会所","lon":"121.414321","lat":"31.209598","category":"248","category_name":"生活娱乐","address":"延安西路天山路"},{"poiid":"B2094655D26AA0F94198","title":"地铁延安西路站","lon":"121.41714","lat":"31.21002","category":"36","category_name":"地铁站","address":""},{"poiid":"B2094655D26AA0F8479C","title":"CaminoFlamencoStudio","lon":"121.41569","lat":"31.20891","category":"247","category_name":"餐饮美食","address":"静安区海防路555号8号楼1楼(近余姚路)"},{"poiid":"B2094752D769A2FE4092","title":"本家","lon":"121.412352","lat":"31.207938","category":"247","category_name":"餐饮美食","address":"天山路1900号(近延安西路)"},{"poiid":"B2094751D56FA5FD4798","title":"New star纽斯","lon":"121.413927","lat":"31.20865","category":"500","category_name":"未知分类","address":null},{"poiid":"B2094757D06AA3FC489D","title":"武夷花园","lon":"121.41572","lat":"31.211561","category":"47","category_name":"住宅区","address":"上海市长宁区武夷路718号"},{"poiid":"B2094752D16BA6FA4192","title":"盛兴源","lon":"121.416344","lat":"31.209548","category":"247","category_name":"餐饮美食","address":"定西路739号"},{"poiid":"B2094750DA6EA6FF4798","title":"纽斯汗蒸馆","lon":"121.415504","lat":"31.208059","category":"248","category_name":"生活娱乐","address":"长宁路1900号"},{"poiid":"B2094750D56BA3FB4092","title":"朗诗虹桥绿郡","lon":"121.414493","lat":"31.210205","category":"47","category_name":"住宅区","address":"长宁延安西路1358号(近定西路)"},{"poiid":"B2094757D068ABFB469F","title":"东华大学(延安路校区)二教","lon":"121.413879","lat":"31.206532","category":"253","category_name":"校园生活","address":"上海市长宁区延安西路1882号 东华大学 第二教学楼"},{"poiid":"B2094757D069A0FC4893","title":"大桶大足浴(武夷店)","lon":"121.41617","lat":"31.2124","category":"149","category_name":"洗浴推拿场所","address":"长宁区武夷路716号(凯旋路口)"},{"poiid":"B2094655D26FA6FA429C","title":"延西小区","lon":"121.41643","lat":"31.207539","category":"47","category_name":"住宅区","address":"上海延安西路1740弄"},{"poiid":"B209475DD46EAAFB419E","title":"PETIT GEORGE CAFE","lon":"121.415","lat":"31.207813","category":"247","category_name":"餐饮美食","address":"上海市 延安西路1794号"},{"poiid":"B2094655D26BA2FC419A","title":"武夷路中山西路","lon":"121.41431","lat":"31.21268","category":"38","category_name":"公交车站","address":""},{"poiid":"B2094654D564A7F94098","title":"重庆鸡公煲(延安西路)","lon":"121.4159","lat":"31.20774","category":"71","category_name":"四川菜","address":"长宁区延安西路1752号(近地铁四号线延安西路站)"},{"poiid":"B2094757D568ABF8479A","title":"Lucky Star","lon":"121.41300266","lat":"31.2102946","category":"65","category_name":"咖啡厅","address":"长宁区中山西路743号永田大厦(天山路中山西路)"},{"poiid":"B2094750DB65AAF94893","title":"纽斯休闲洗浴","lon":"121.414031","lat":"31.208717","category":"148","category_name":"美容美发店","address":"天山路延安西路"},{"poiid":"B2094654D565A5FF4593","title":"上海美之源整形外科医院","lon":"121.41613","lat":"31.2084","category":"162","category_name":"医院","address":"长宁区延安西路1735号(近延安西路轻轨)"},{"poiid":"B2094750D668A7FB439D","title":"纽斯桑拿会所","lon":"121.414176","lat":"31.209903","category":"248","category_name":"生活娱乐","address":"长宁区天山路1900号(近延安西路)"},{"poiid":"B2094655D26FA5FE4299","title":"东华大学(延安西路校区)","lon":"121.41384","lat":"31.20653","category":"671","category_name":"高校中心点","address":"上海市长宁区延安西路1882号"},{"poiid":"B2094654DB65A5F84793","title":"育音堂","lon":"121.41618","lat":"31.20858","category":"248","category_name":"生活娱乐","address":"长宁区凯旋路851号(凯旋路延安西路)"},{"poiid":"B2094750DB6BA2FA479E","title":"纽斯","lon":"121.414527","lat":"31.208843","category":"248","category_name":"生活娱乐","address":"天山路1900号"},{"poiid":"B2094757D06EAAF84593","title":"延安西路地铁站","lon":"121.417123","lat":"31.210023","category":"36","category_name":"地铁站","address":"上海轨道交通 三号线 四号线 轨交延安西路站 轻轨 3 4"},{"poiid":"B2094757DA6EABFB469A","title":"尚嘉中心","lon":"121.413","lat":"31.2115","category":"249","category_name":"购物服务","address":"上海市长宁区仙霞路99号"},{"poiid":"B2094757D06FA1FB449A","title":"可当代艺术中心","lon":"121.4174","lat":"31.21177","category":"179","category_name":"音乐厅","address":"长宁区凯旋路613号B座(近延安西路)"},{"poiid":"B2094757D06FA3F94892","title":"上海市职业培训指导中心","lon":"121.41142","lat":"31.21003","category":"253","category_name":"校园生活","address":"长宁区天山路1800号(近中山西路)"},{"poiid":"B2094757D06FA4FD489A","title":"天山公园","lon":"121.415716881","lat":"31.2089318765","category":"196","category_name":"公园","address":"长宁区延安西路1731号(近凯旋路)"},{"poiid":"B2094750D565A6FA459A","title":"New star","lon":"121.414184","lat":"31.209081","category":"248","category_name":"生活娱乐","address":"天山路延安西路"},{"poiid":"B2094752D76EA4F44698","title":"本家韩国料理","lon":"121.413605","lat":"31.209045","category":"247","category_name":"餐饮美食","address":"天山路1900号(近延安西路)"},{"poiid":"B2094757D06FA6FE419E","title":"延安路高架 凯旋路口","lon":"121.4167824","lat":"31.208085769","category":"500","category_name":"未知分类","address":"上海延安西路凯旋路"},{"poiid":"B2094655D36DA7F8489E","title":"中山西路天山路","lon":"121.41274","lat":"31.21002","category":"38","category_name":"公交车站","address":""},{"poiid":"B2094751D465A2F84193","title":"同一首歌KTV俱乐部（天山路店）","lon":"121.414139","lat":"31.208694","category":"248","category_name":"生活娱乐","address":"上海市长宁区天山路1900号"},{"poiid":"B2094750D565A6FB499D","title":"纽斯汗蒸","lon":"121.414192","lat":"31.209089","category":"249","category_name":"购物服务","address":"天山路77号"},{"poiid":"B2094757D06FA6F54598","title":"仲盛金融中心","lon":"121.415","lat":"31.2102","category":"500","category_name":"未知分类","address":"延安西路2067号"},{"poiid":"B2094757D06FA0F9439B","title":"小城堡","lon":"121.414903","lat":"31.207477","category":"94","category_name":"西餐厅","address":"长宁区延安西路1794号(近天山路)"},{"poiid":"B2094757D06FA7FE429B","title":"呷哺呷哺(延安西路餐厅)","lon":"121.417244","lat":"31.210322","category":"86","category_name":"火锅店","address":"长宁区轨道交通三号线延安西路站1楼3-108商铺(近凯旋路)"},{"poiid":"B2094757D16EA4FD499F","title":"大风车私家菜馆(绿洲大厦店)","lon":"121.415989986","lat":"31.2079916961","category":"76","category_name":"上海菜","address":"上海长宁区中山西路555号绿洲大厦2楼，62861737，人均:60元"},{"poiid":"B2094750DA69A3F44099","title":"纽斯spa会所","lon":"121.414466","lat":"31.209598","category":"148","category_name":"美容美发店","address":null},{"poiid":"B2094750DA6FA2F94899","title":"纽斯（天山店）","lon":"121.414314","lat":"31.209098","category":"247","category_name":"餐饮美食","address":null},{"poiid":"B2094757D069A5FD429F","title":"延安路高架西行长宁虹桥区","lon":"121.41423114","lat":"31.207561972","category":"500","category_name":"未知分类","address":"上海延安路高架"},{"poiid":"B2094757D16EA2F8409F","title":"日本领事馆","lon":"121.41750036","lat":"31.208487673","category":"500","category_name":"未知分类","address":"上海万山路"},{"poiid":"B2094655D26AAAF44692","title":"爆香串云南烧 天山店","lon":"121.411529","lat":"31.209659","category":"68","category_name":"快餐厅","address":"长宁区中山西路642号(近天山路)"},{"poiid":"B2094654D565A6FA449E","title":"凯桥绿地","lon":"121.41822","lat":"31.21026","category":"196","category_name":"公园","address":"长宁区延安西路凯旋路口(法华镇路延安西路)"},{"poiid":"B2094750DA6AA2F9489B","title":"newstar","lon":"121.414466","lat":"31.209535","category":"248","category_name":"生活娱乐","address":"天山路1900号"},{"poiid":"B2094757D06FAAFD4493","title":"可当代艺术中心小剧场","lon":"121.41721344","lat":"31.2120456696","category":"260","category_name":"其他","address":"上海凯旋路613号B座一层"},{"poiid":"B2094655D268A0FD4599","title":"真功夫 延安西路店","lon":"121.416143054","lat":"31.208666793","category":"68","category_name":"快餐厅","address":"凯旋路812号地铁三,四号线延安西路站站厅一楼"},{"poiid":"B2094654D56BA5FA439F","title":"协泰中心","lon":"121.413","lat":"31.2105","category":"46","category_name":"楼宇","address":"上海市奉贤区环城东路455,465弄"},{"poiid":"B2094757DA69A1F94499","title":"虹桥上海城","lon":"121.414","lat":"31.2127","category":"119","category_name":"商场","address":"上海市长宁区遵义路100号"},{"poiid":"B2094757D06FA5F9429E","title":"中山西路立交","lon":"121.41245269","lat":"31.208242416","category":"500","category_name":"未知分类","address":"上海立交桥"},{"poiid":"B2094655D264A7FC499E","title":"北京同仁堂老字号延安西路店","lon":"121.41816","lat":"31.20816","category":"255","category_name":"专卖店","address":"长宁区延安西路1672号(近凯旋路)"},{"poiid":"B2094750DB6BABFF449A","title":"纽斯桑拿会所","lon":"121.414321","lat":"31.209598","category":"248","category_name":"生活娱乐","address":"延安西路天山路"},{"poiid":"B2094655D26AA0F94198","title":"地铁延安西路站","lon":"121.41714","lat":"31.21002","category":"36","category_name":"地铁站","address":""},{"poiid":"B2094655D26AA0F8479C","title":"CaminoFlamencoStudio","lon":"121.41569","lat":"31.20891","category":"247","category_name":"餐饮美食","address":"静安区海防路555号8号楼1楼(近余姚路)"},{"poiid":"B2094752D769A2FE4092","title":"本家","lon":"121.412352","lat":"31.207938","category":"247","category_name":"餐饮美食","address":"天山路1900号(近延安西路)"},{"poiid":"B2094751D56FA5FD4798","title":"New star纽斯","lon":"121.413927","lat":"31.20865","category":"500","category_name":"未知分类","address":null},{"poiid":"B2094757D06AA3FC489D","title":"武夷花园","lon":"121.41572","lat":"31.211561","category":"47","category_name":"住宅区","address":"上海市长宁区武夷路718号"},{"poiid":"B2094752D16BA6FA4192","title":"盛兴源","lon":"121.416344","lat":"31.209548","category":"247","category_name":"餐饮美食","address":"定西路739号"},{"poiid":"B2094750DA6EA6FF4798","title":"纽斯汗蒸馆","lon":"121.415504","lat":"31.208059","category":"248","category_name":"生活娱乐","address":"长宁路1900号"},{"poiid":"B2094750D56BA3FB4092","title":"朗诗虹桥绿郡","lon":"121.414493","lat":"31.210205","category":"47","category_name":"住宅区","address":"长宁延安西路1358号(近定西路)"},{"poiid":"B2094757D068ABFB469F","title":"东华大学(延安路校区)二教","lon":"121.413879","lat":"31.206532","category":"253","category_name":"校园生活","address":"上海市长宁区延安西路1882号 东华大学 第二教学楼"},{"poiid":"B2094757D069A0FC4893","title":"大桶大足浴(武夷店)","lon":"121.41617","lat":"31.2124","category":"149","category_name":"洗浴推拿场所","address":"长宁区武夷路716号(凯旋路口)"},{"poiid":"B2094655D26FA6FA429C","title":"延西小区","lon":"121.41643","lat":"31.207539","category":"47","category_name":"住宅区","address":"上海延安西路1740弄"},{"poiid":"B209475DD46EAAFB419E","title":"PETIT GEORGE CAFE","lon":"121.415","lat":"31.207813","category":"247","category_name":"餐饮美食","address":"上海市 延安西路1794号"},{"poiid":"B2094655D26BA2FC419A","title":"武夷路中山西路","lon":"121.41431","lat":"31.21268","category":"38","category_name":"公交车站","address":""},{"poiid":"B2094654D564A7F94098","title":"重庆鸡公煲(延安西路)","lon":"121.4159","lat":"31.20774","category":"71","category_name":"四川菜","address":"长宁区延安西路1752号(近地铁四号线延安西路站)"},{"poiid":"B2094757D568ABF8479A","title":"Lucky Star","lon":"121.41300266","lat":"31.2102946","category":"65","category_name":"咖啡厅","address":"长宁区中山西路743号永田大厦(天山路中山西路)"},{"poiid":"B2094750DB65AAF94893","title":"纽斯休闲洗浴","lon":"121.414031","lat":"31.208717","category":"148","category_name":"美容美发店","address":"天山路延安西路"},{"poiid":"B2094654D565A5FF4593","title":"上海美之源整形外科医院","lon":"121.41613","lat":"31.2084","category":"162","category_name":"医院","address":"长宁区延安西路1735号(近延安西路轻轨)"},{"poiid":"B2094750D668A7FB439D","title":"纽斯桑拿会所","lon":"121.414176","lat":"31.209903","category":"248","category_name":"生活娱乐","address":"长宁区天山路1900号(近延安西路)"},{"poiid":"B2094655D26FA5FE4299","title":"东华大学(延安西路校区)","lon":"121.41384","lat":"31.20653","category":"671","category_name":"高校中心点","address":"上海市长宁区延安西路1882号"},{"poiid":"B2094654DB65A5F84793","title":"育音堂","lon":"121.41618","lat":"31.20858","category":"248","category_name":"生活娱乐","address":"长宁区凯旋路851号(凯旋路延安西路)"},{"poiid":"B2094750DB6BA2FA479E","title":"纽斯","lon":"121.414527","lat":"31.208843","category":"248","category_name":"生活娱乐","address":"天山路1900号"},{"poiid":"B2094757D06EAAF84593","title":"延安西路地铁站","lon":"121.417123","lat":"31.210023","category":"36","category_name":"地铁站","address":"上海轨道交通 三号线 四号线 轨交延安西路站 轻轨 3 4"},{"poiid":"B2094757DA6EABFB469A","title":"尚嘉中心","lon":"121.413","lat":"31.2115","category":"249","category_name":"购物服务","address":"上海市长宁区仙霞路99号"},{"poiid":"B2094757D06FA1FB449A","title":"可当代艺术中心","lon":"121.4174","lat":"31.21177","category":"179","category_name":"音乐厅","address":"长宁区凯旋路613号B座(近延安西路)"},{"poiid":"B2094757D06FA3F94892","title":"上海市职业培训指导中心","lon":"121.41142","lat":"31.21003","category":"253","category_name":"校园生活","address":"长宁区天山路1800号(近中山西路)"},{"poiid":"B2094757D06FA4FD489A","title":"天山公园","lon":"121.415716881","lat":"31.2089318765","category":"196","category_name":"公园","address":"长宁区延安西路1731号(近凯旋路)"},{"poiid":"B2094750D565A6FA459A","title":"New star","lon":"121.414184","lat":"31.209081","category":"248","category_name":"生活娱乐","address":"天山路延安西路"},{"poiid":"B2094752D76EA4F44698","title":"本家韩国料理","lon":"121.413605","lat":"31.209045","category":"247","category_name":"餐饮美食","address":"天山路1900号(近延安西路)"},{"poiid":"B2094757D06FA6FE419E","title":"延安路高架 凯旋路口","lon":"121.4167824","lat":"31.208085769","category":"500","category_name":"未知分类","address":"上海延安西路凯旋路"},{"poiid":"B2094655D36DA7F8489E","title":"中山西路天山路","lon":"121.41274","lat":"31.21002","category":"38","category_name":"公交车站","address":""},{"poiid":"B2094751D465A2F84193","title":"同一首歌KTV俱乐部（天山路店）","lon":"121.414139","lat":"31.208694","category":"248","category_name":"生活娱乐","address":"上海市长宁区天山路1900号"},{"poiid":"B2094750D565A6FB499D","title":"纽斯汗蒸","lon":"121.414192","lat":"31.209089","category":"249","category_name":"购物服务","address":"天山路77号"},{"poiid":"B2094757D06FA6F54598","title":"仲盛金融中心","lon":"121.415","lat":"31.2102","category":"500","category_name":"未知分类","address":"延安西路2067号"},{"poiid":"B2094757D06FA0F9439B","title":"小城堡","lon":"121.414903","lat":"31.207477","category":"94","category_name":"西餐厅","address":"长宁区延安西路1794号(近天山路)"},{"poiid":"B2094757D06FA7FE429B","title":"呷哺呷哺(延安西路餐厅)","lon":"121.417244","lat":"31.210322","category":"86","category_name":"火锅店","address":"长宁区轨道交通三号线延安西路站1楼3-108商铺(近凯旋路)"},{"poiid":"B2094757D16EA4FD499F","title":"大风车私家菜馆(绿洲大厦店)","lon":"121.415989986","lat":"31.2079916961","category":"76","category_name":"上海菜","address":"上海长宁区中山西路555号绿洲大厦2楼，62861737，人均:60元"},{"poiid":"B2094750DA69A3F44099","title":"纽斯spa会所","lon":"121.414466","lat":"31.209598","category":"148","category_name":"美容美发店","address":null},{"poiid":"B2094750DA6FA2F94899","title":"纽斯（天山店）","lon":"121.414314","lat":"31.209098","category":"247","category_name":"餐饮美食","address":null},{"poiid":"B2094757D069A5FD429F","title":"延安路高架西行长宁虹桥区","lon":"121.41423114","lat":"31.207561972","category":"500","category_name":"未知分类","address":"上海延安路高架"},{"poiid":"B2094757D16EA2F8409F","title":"日本领事馆","lon":"121.41750036","lat":"31.208487673","category":"500","category_name":"未知分类","address":"上海万山路"},{"poiid":"B2094655D26AAAF44692","title":"爆香串云南烧 天山店","lon":"121.411529","lat":"31.209659","category":"68","category_name":"快餐厅","address":"长宁区中山西路642号(近天山路)"},{"poiid":"B2094654D565A6FA449E","title":"凯桥绿地","lon":"121.41822","lat":"31.21026","category":"196","category_name":"公园","address":"长宁区延安西路凯旋路口(法华镇路延安西路)"},{"poiid":"B2094750DA6AA2F9489B","title":"newstar","lon":"121.414466","lat":"31.209535","category":"248","category_name":"生活娱乐","address":"天山路1900号"},{"poiid":"B2094757D06FAAFD4493","title":"可当代艺术中心小剧场","lon":"121.41721344","lat":"31.2120456696","category":"260","category_name":"其他","address":"上海凯旋路613号B座一层"},{"poiid":"B2094655D268A0FD4599","title":"真功夫 延安西路店","lon":"121.416143054","lat":"31.208666793","category":"68","category_name":"快餐厅","address":"凯旋路812号地铁三,四号线延安西路站站厅一楼"},{"poiid":"B2094654D56BA5FA439F","title":"协泰中心","lon":"121.413","lat":"31.2105","category":"46","category_name":"楼宇","address":"上海市奉贤区环城东路455,465弄"},{"poiid":"B2094757DA69A1F94499","title":"虹桥上海城","lon":"121.414","lat":"31.2127","category":"119","category_name":"商场","address":"上海市长宁区遵义路100号"},{"poiid":"B2094757D06FA5F9429E","title":"中山西路立交","lon":"121.41245269","lat":"31.208242416","category":"500","category_name":"未知分类","address":"上海立交桥"},{"poiid":"B2094655D264A7FC499E","title":"北京同仁堂老字号延安西路店","lon":"121.41816","lat":"31.20816","category":"255","category_name":"专卖店","address":"长宁区延安西路1672号(近凯旋路)"},{"poiid":"B2094750DB6BABFF449A","title":"纽斯桑拿会所","lon":"121.414321","lat":"31.209598","category":"248","category_name":"生活娱乐","address":"延安西路天山路"},{"poiid":"B2094655D26AA0F94198","title":"地铁延安西路站","lon":"121.41714","lat":"31.21002","category":"36","category_name":"地铁站","address":""},{"poiid":"B2094655D26AA0F8479C","title":"CaminoFlamencoStudio","lon":"121.41569","lat":"31.20891","category":"247","category_name":"餐饮美食","address":"静安区海防路555号8号楼1楼(近余姚路)"},{"poiid":"B2094752D769A2FE4092","title":"本家","lon":"121.412352","lat":"31.207938","category":"247","category_name":"餐饮美食","address":"天山路1900号(近延安西路)"},{"poiid":"B2094751D56FA5FD4798","title":"New star纽斯","lon":"121.413927","lat":"31.20865","category":"500","category_name":"未知分类","address":null},{"poiid":"B2094757D06AA3FC489D","title":"武夷花园","lon":"121.41572","lat":"31.211561","category":"47","category_name":"住宅区","address":"上海市长宁区武夷路718号"},{"poiid":"B2094752D16BA6FA4192","title":"盛兴源","lon":"121.416344","lat":"31.209548","category":"247","category_name":"餐饮美食","address":"定西路739号"},{"poiid":"B2094750DA6EA6FF4798","title":"纽斯汗蒸馆","lon":"121.415504","lat":"31.208059","category":"248","category_name":"生活娱乐","address":"长宁路1900号"},{"poiid":"B2094750D56BA3FB4092","title":"朗诗虹桥绿郡","lon":"121.414493","lat":"31.210205","category":"47","category_name":"住宅区","address":"长宁延安西路1358号(近定西路)"},{"poiid":"B2094757D068ABFB469F","title":"东华大学(延安路校区)二教","lon":"121.413879","lat":"31.206532","category":"253","category_name":"校园生活","address":"上海市长宁区延安西路1882号 东华大学 第二教学楼"},{"poiid":"B2094757D069A0FC4893","title":"大桶大足浴(武夷店)","lon":"121.41617","lat":"31.2124","category":"149","category_name":"洗浴推拿场所","address":"长宁区武夷路716号(凯旋路口)"},{"poiid":"B2094655D26FA6FA429C","title":"延西小区","lon":"121.41643","lat":"31.207539","category":"47","category_name":"住宅区","address":"上海延安西路1740弄"},{"poiid":"B209475DD46EAAFB419E","title":"PETIT GEORGE CAFE","lon":"121.415","lat":"31.207813","category":"247","category_name":"餐饮美食","address":"上海市 延安西路1794号"},{"poiid":"B2094655D26BA2FC419A","title":"武夷路中山西路","lon":"121.41431","lat":"31.21268","category":"38","category_name":"公交车站","address":""},{"poiid":"B2094654D564A7F94098","title":"重庆鸡公煲(延安西路)","lon":"121.4159","lat":"31.20774","category":"71","category_name":"四川菜","address":"长宁区延安西路1752号(近地铁四号线延安西路站)"},{"poiid":"B2094757D568ABF8479A","title":"Lucky Star","lon":"121.41300266","lat":"31.2102946","category":"65","category_name":"咖啡厅","address":"长宁区中山西路743号永田大厦(天山路中山西路)"},{"poiid":"B2094750DB65AAF94893","title":"纽斯休闲洗浴","lon":"121.414031","lat":"31.208717","category":"148","category_name":"美容美发店","address":"天山路延安西路"},{"poiid":"B2094654D565A5FF4593","title":"上海美之源整形外科医院","lon":"121.41613","lat":"31.2084","category":"162","category_name":"医院","address":"长宁区延安西路1735号(近延安西路轻轨)"},{"poiid":"B2094750D668A7FB439D","title":"纽斯桑拿会所","lon":"121.414176","lat":"31.209903","category":"248","category_name":"生活娱乐","address":"长宁区天山路1900号(近延安西路)"},{"poiid":"B2094655D26FA5FE4299","title":"东华大学(延安西路校区)","lon":"121.41384","lat":"31.20653","category":"671","category_name":"高校中心点","address":"上海市长宁区延安西路1882号"},{"poiid":"B2094654DB65A5F84793","title":"育音堂","lon":"121.41618","lat":"31.20858","category":"248","category_name":"生活娱乐","address":"长宁区凯旋路851号(凯旋路延安西路)"},{"poiid":"B2094750DB6BA2FA479E","title":"纽斯","lon":"121.414527","lat":"31.208843","category":"248","category_name":"生活娱乐","address":"天山路1900号"},{"poiid":"B2094757D06EAAF84593","title":"延安西路地铁站","lon":"121.417123","lat":"31.210023","category":"36","category_name":"地铁站","address":"上海轨道交通 三号线 四号线 轨交延安西路站 轻轨 3 4"},{"poiid":"B2094757DA6EABFB469A","title":"尚嘉中心","lon":"121.413","lat":"31.2115","category":"249","category_name":"购物服务","address":"上海市长宁区仙霞路99号"},{"poiid":"B2094757D06FA1FB449A","title":"可当代艺术中心","lon":"121.4174","lat":"31.21177","category":"179","category_name":"音乐厅","address":"长宁区凯旋路613号B座(近延安西路)"},{"poiid":"B2094757D06FA3F94892","title":"上海市职业培训指导中心","lon":"121.41142","lat":"31.21003","category":"253","category_name":"校园生活","address":"长宁区天山路1800号(近中山西路)"},{"poiid":"B2094757D06FA4FD489A","title":"天山公园","lon":"121.415716881","lat":"31.2089318765","category":"196","category_name":"公园","address":"长宁区延安西路1731号(近凯旋路)"},{"poiid":"B2094750D565A6FA459A","title":"New star","lon":"121.414184","lat":"31.209081","category":"248","category_name":"生活娱乐","address":"天山路延安西路"},{"poiid":"B2094752D76EA4F44698","title":"本家韩国料理","lon":"121.413605","lat":"31.209045","category":"247","category_name":"餐饮美食","address":"天山路1900号(近延安西路)"},{"poiid":"B2094757D06FA6FE419E","title":"延安路高架 凯旋路口","lon":"121.4167824","lat":"31.208085769","category":"500","category_name":"未知分类","address":"上海延安西路凯旋路"},{"poiid":"B2094655D36DA7F8489E","title":"中山西路天山路","lon":"121.41274","lat":"31.21002","category":"38","category_name":"公交车站","address":""},{"poiid":"B2094751D465A2F84193","title":"同一首歌KTV俱乐部（天山路店）","lon":"121.414139","lat":"31.208694","category":"248","category_name":"生活娱乐","address":"上海市长宁区天山路1900号"},{"poiid":"B2094750D565A6FB499D","title":"纽斯汗蒸","lon":"121.414192","lat":"31.209089","category":"249","category_name":"购物服务","address":"天山路77号"},{"poiid":"B2094757D06FA6F54598","title":"仲盛金融中心","lon":"121.415","lat":"31.2102","category":"500","category_name":"未知分类","address":"延安西路2067号"},{"poiid":"B2094757D06FA0F9439B","title":"小城堡","lon":"121.414903","lat":"31.207477","category":"94","category_name":"西餐厅","address":"长宁区延安西路1794号(近天山路)"},{"poiid":"B2094757D06FA7FE429B","title":"呷哺呷哺(延安西路餐厅)","lon":"121.417244","lat":"31.210322","category":"86","category_name":"火锅店","address":"长宁区轨道交通三号线延安西路站1楼3-108商铺(近凯旋路)"},{"poiid":"B2094757D16EA4FD499F","title":"大风车私家菜馆(绿洲大厦店)","lon":"121.415989986","lat":"31.2079916961","category":"76","category_name":"上海菜","address":"上海长宁区中山西路555号绿洲大厦2楼，62861737，人均:60元"},{"poiid":"B2094750DA69A3F44099","title":"纽斯spa会所","lon":"121.414466","lat":"31.209598","category":"148","category_name":"美容美发店","address":null},{"poiid":"B2094750DA6FA2F94899","title":"纽斯（天山店）","lon":"121.414314","lat":"31.209098","category":"247","category_name":"餐饮美食","address":null},{"poiid":"B2094757D069A5FD429F","title":"延安路高架西行长宁虹桥区","lon":"121.41423114","lat":"31.207561972","category":"500","category_name":"未知分类","address":"上海延安路高架"},{"poiid":"B2094757D16EA2F8409F","title":"日本领事馆","lon":"121.41750036","lat":"31.208487673","category":"500","category_name":"未知分类","address":"上海万山路"},{"poiid":"B2094655D26AAAF44692","title":"爆香串云南烧 天山店","lon":"121.411529","lat":"31.209659","category":"68","category_name":"快餐厅","address":"长宁区中山西路642号(近天山路)"},{"poiid":"B2094654D565A6FA449E","title":"凯桥绿地","lon":"121.41822","lat":"31.21026","category":"196","category_name":"公园","address":"长宁区延安西路凯旋路口(法华镇路延安西路)"},{"poiid":"B2094750DA6AA2F9489B","title":"newstar","lon":"121.414466","lat":"31.209535","category":"248","category_name":"生活娱乐","address":"天山路1900号"},{"poiid":"B2094757D06FAAFD4493","title":"可当代艺术中心小剧场","lon":"121.41721344","lat":"31.2120456696","category":"260","category_name":"其他","address":"上海凯旋路613号B座一层"},{"poiid":"B2094655D268A0FD4599","title":"真功夫 延安西路店","lon":"121.416143054","lat":"31.208666793","category":"68","category_name":"快餐厅","address":"凯旋路812号地铁三,四号线延安西路站站厅一楼"},{"poiid":"B2094654D56BA5FA439F","title":"协泰中心","lon":"121.413","lat":"31.2105","category":"46","category_name":"楼宇","address":"上海市奉贤区环城东路455,465弄"},{"poiid":"B2094757DA69A1F94499","title":"虹桥上海城","lon":"121.414","lat":"31.2127","category":"119","category_name":"商场","address":"上海市长宁区遵义路100号"},{"poiid":"B2094757D06FA5F9429E","title":"中山西路立交","lon":"121.41245269","lat":"31.208242416","category":"500","category_name":"未知分类","address":"上海立交桥"},{"poiid":"B2094655D264A7FC499E","title":"北京同仁堂老字号延安西路店","lon":"121.41816","lat":"31.20816","category":"255","category_name":"专卖店","address":"长宁区延安西路1672号(近凯旋路)"},{"poiid":"B2094750DB6BABFF449A","title":"纽斯桑拿会所","lon":"121.414321","lat":"31.209598","category":"248","category_name":"生活娱乐","address":"延安西路天山路"},{"poiid":"B2094655D26AA0F94198","title":"地铁延安西路站","lon":"121.41714","lat":"31.21002","category":"36","category_name":"地铁站","address":""},{"poiid":"B2094655D26AA0F8479C","title":"CaminoFlamencoStudio","lon":"121.41569","lat":"31.20891","category":"247","category_name":"餐饮美食","address":"静安区海防路555号8号楼1楼(近余姚路)"},{"poiid":"B2094752D769A2FE4092","title":"本家","lon":"121.412352","lat":"31.207938","category":"247","category_name":"餐饮美食","address":"天山路1900号(近延安西路)"},{"poiid":"B2094751D56FA5FD4798","title":"New star纽斯","lon":"121.413927","lat":"31.20865","category":"500","category_name":"未知分类","address":null},{"poiid":"B2094757D06AA3FC489D","title":"武夷花园","lon":"121.41572","lat":"31.211561","category":"47","category_name":"住宅区","address":"上海市长宁区武夷路718号"},{"poiid":"B2094752D16BA6FA4192","title":"盛兴源","lon":"121.416344","lat":"31.209548","category":"247","category_name":"餐饮美食","address":"定西路739号"},{"poiid":"B2094750DA6EA6FF4798","title":"纽斯汗蒸馆","lon":"121.415504","lat":"31.208059","category":"248","category_name":"生活娱乐","address":"长宁路1900号"},{"poiid":"B2094750D56BA3FB4092","title":"朗诗虹桥绿郡","lon":"121.414493","lat":"31.210205","category":"47","category_name":"住宅区","address":"长宁延安西路1358号(近定西路)"},{"poiid":"B2094757D068ABFB469F","title":"东华大学(延安路校区)二教","lon":"121.413879","lat":"31.206532","category":"253","category_name":"校园生活","address":"上海市长宁区延安西路1882号 东华大学 第二教学楼"},{"poiid":"B2094757D069A0FC4893","title":"大桶大足浴(武夷店)","lon":"121.41617","lat":"31.2124","category":"149","category_name":"洗浴推拿场所","address":"长宁区武夷路716号(凯旋路口)"},{"poiid":"B2094655D26FA6FA429C","title":"延西小区","lon":"121.41643","lat":"31.207539","category":"47","category_name":"住宅区","address":"上海延安西路1740弄"},{"poiid":"B209475DD46EAAFB419E","title":"PETIT GEORGE CAFE","lon":"121.415","lat":"31.207813","category":"247","category_name":"餐饮美食","address":"上海市 延安西路1794号"},{"poiid":"B2094655D26BA2FC419A","title":"武夷路中山西路","lon":"121.41431","lat":"31.21268","category":"38","category_name":"公交车站","address":""},{"poiid":"B2094654D564A7F94098","title":"重庆鸡公煲(延安西路)","lon":"121.4159","lat":"31.20774","category":"71","category_name":"四川菜","address":"长宁区延安西路1752号(近地铁四号线延安西路站)"},{"poiid":"B2094757D568ABF8479A","title":"Lucky Star","lon":"121.41300266","lat":"31.2102946","category":"65","category_name":"咖啡厅","address":"长宁区中山西路743号永田大厦(天山路中山西路)"},{"poiid":"B2094750DB65AAF94893","title":"纽斯休闲洗浴","lon":"121.414031","lat":"31.208717","category":"148","category_name":"美容美发店","address":"天山路延安西路"},{"poiid":"B2094654D565A5FF4593","title":"上海美之源整形外科医院","lon":"121.41613","lat":"31.2084","category":"162","category_name":"医院","address":"长宁区延安西路1735号(近延安西路轻轨)"}]