[{"poiid":"B2094654DB65A1FE489B","title":"徐家汇公园","lon":"121.44232","lat":"31.19693","category":"196","category_name":"公园","address":"上海市肇嘉浜路"},{"poiid":"B2094757D06FA3FD4598","title":"衡山路","lon":"121.44432","lat":"31.20163","category":"260","category_name":"其他","address":"徐汇区衡山路(衡山路吴兴路)"},{"poiid":"B2094757D06FA2FE4599","title":"富豪环球东亚酒店","lon":"121.44417","lat":"31.20142","category":"213","category_name":"五星级宾馆","address":"徐汇区衡山路516号(近宛平路)"},{"poiid":"B2094753D76FAAFA449C","title":"上海滩国泰旗舰店","lon":"121.466011","lat":"31.216125","category":"249","category_name":"购物服务","address":"淮海中路868号"},{"poiid":"B2094654DA6DA7FB429F","title":"衡山宾馆","lon":"121.44309","lat":"31.20092","category":"214","category_name":"四星级宾馆","address":"上海市徐汇区衡山路534号(衡山路地区,宛平路口)"},{"poiid":"B2094757D06FA2FB469A","title":"恒悦轩(徐汇店)","lon":"121.44404","lat":"31.19737","category":"72","category_name":"广东菜","address":"徐汇区宛平路290号徐家汇公园内(近肇嘉浜路)"},{"poiid":"B2094655D269AAFC419D","title":"建工锦江大酒店","lon":"121.44402","lat":"31.19989","category":"247","category_name":"餐饮美食","address":"上海市徐汇区建国西路691号(近衡山路)"},{"poiid":"B2094757D06FA3F84899","title":"衡山小馆(衡山店)","lon":"121.44508","lat":"31.20207","category":"72","category_name":"广东菜","address":"徐汇区衡山路308号(近高安路)"},{"poiid":"B2094654DA6DA3FC409F","title":"港汇中心二座","lon":"121.44363940644","lat":"31.200356970369","category":"46","category_name":"楼宇","address":"上海虹桥路3号"},{"poiid":"B2094654DA6DA6FC469A","title":"宛平宾馆","lon":"121.44502","lat":"31.19814","category":"214","category_name":"四星级宾馆","address":"徐汇区宛平路315号(近肇嘉浜路)"},{"poiid":"B2094654DB6BA5FE4393","title":"圣爱大厦","lon":"121.444","lat":"31.1979","category":"46","category_name":"楼宇","address":"上海漕溪北路88号"},{"poiid":"B2094757D068ABFC439D","title":"自由港量販式KTV(吴兴店)","lon":"121.44459958","lat":"31.200683853","category":"170","category_name":"KTV","address":"上海徐汇区吴兴路277号"},{"poiid":"B2094757D06FA2FB4193","title":"实业大厦","lon":"121.444","lat":"31.1993","category":"46","category_name":"楼宇","address":"上海市徐汇区漕溪北路18号"},{"poiid":"B2094757D068A2FD469D","title":"小紅樓 La Villa Rouge","lon":"121.44154357","lat":"31.198003768","category":"247","category_name":"餐饮美食","address":"中国上海市徐匯區衡山路811号"},{"poiid":"B2094757D068A2F4469A","title":"草津亭日本料理铁板烧","lon":"121.44346","lat":"31.20042","category":"95","category_name":"日本料理","address":"徐汇区衡山路534号衡山宾馆2楼(建国西路宛平路)"},{"poiid":"B2094752D76FAAF5409D","title":"Sunday Brunch","lon":"121.443327","lat":"31.199718","category":"247","category_name":"餐饮美食","address":"上海市徐汇区宛平路189弄1号（近衡山路徐家汇公园）"},{"poiid":"B2094757D068ABFF4399","title":"肇嘉浜路","lon":"121.44627625","lat":"31.199099322","category":"260","category_name":"其他","address":"上海肇嘉浜路"},{"poiid":"B2094752D36DA5F9479D","title":"上海超级电影世界","lon":"121.44509","lat":"31.19884","category":"178","category_name":"电影院","address":"上海市徐汇区肇嘉浜路1111号美罗城五楼"},{"poiid":"B2094655D268A6FB439C","title":"徐家汇公园运动场","lon":"121.44355","lat":"31.1984","category":"220","category_name":"运动场所","address":""},{"poiid":"B2094757D068A3FA4598","title":"小白桦酒家","lon":"121.44454","lat":"31.19819","category":"76","category_name":"上海菜","address":"徐汇区宛平路297弄3号(近肇嘉浜路)"},{"poiid":"B2094654DA6DA0FE439B","title":"汇嘉大厦","lon":"121.446","lat":"31.1986","category":"46","category_name":"楼宇","address":"上海市闵行区莲花南路1500弄"},{"poiid":"B2094757D66CA4FA469A","title":"新衡山电影院3号厅","lon":"121.442303586","lat":"31.1990408211","category":"178","category_name":"电影院","address":null},{"poiid":"B2094757D068A0FC459D","title":"Restaurant Martin by Martin Berasategui","lon":"121.44191","lat":"31.19788","category":"94","category_name":"西餐厅","address":"徐汇区衡山路811号徐家汇中心广场绿地内(近余庆路)"},{"poiid":"B2094757D068A7F4409D","title":"皇城根老北京涮羊肉(宛平路店)","lon":"121.44464","lat":"31.19842","category":"86","category_name":"火锅店","address":"徐汇区宛平路297弄1号后门(近肇嘉浜路)"},{"poiid":"B2094757D068A7FD479B","title":"凯文咖啡西餐厅","lon":"121.4442","lat":"31.20048","category":"260","category_name":"其他","address":"徐汇区衡山路525号(近宛平路口衡山宾馆对面)"},{"poiid":"B2094757D068A1FF4698","title":"宁波人家","lon":"121.44451","lat":"31.19978","category":"75","category_name":"浙江菜","address":"徐汇区建国西路691号建工锦江大酒店4楼(近宛平路)"},{"poiid":"B2094654DA6DA7FA479B","title":"上海国际网球中心","lon":"121.44366","lat":"31.20171","category":"226","category_name":"网球场","address":"徐汇区衡山路516号3楼(宛平路口)"},{"poiid":"B2094757D16EAAF5489B","title":"徐家汇公园儿童乐园","lon":"121.443157586","lat":"31.1997056341","category":"196","category_name":"公园","address":"上海肇嘉浜路天平路"},{"poiid":"B2094757D569A1F8409E","title":"圣爱广场","lon":"121.444","lat":"31.1984","category":"46","category_name":"楼宇","address":"上海市徐汇区漕溪北路88号"},{"poiid":"B2094757D06FABF5459E","title":"徐家汇公园篮球场","lon":"121.44290315","lat":"31.196756486","category":"220","category_name":"运动场所","address":"徐汇区肇嘉浜路889号(天平路宛平路间)"},{"poiid":"B2094654DA6DA6FC4699","title":"上海市高安路第一小学","lon":"121.44418","lat":"31.19955","category":"56","category_name":"小学","address":"宛平路231"},{"poiid":"B2094757D569A2F8449B","title":"星巴克咖啡(均瑶店)","lon":"121.443859999998","lat":"31.20044","category":"65","category_name":"咖啡厅","address":"徐汇区肇嘉浜路789号"},{"poiid":"B2094750D665A0F8489F","title":"白家餐厅","lon":"121.444","lat":"31.1998","category":"76","category_name":"上海菜","address":"徐汇区宛平路189弄12号(近衡山路)"},{"poiid":"B2094757D16FA3F8499D","title":"上实大厦","lon":"121.444503","lat":"31.199355","category":"252","category_name":"楼宇机构","address":"上海市徐汇区漕溪北路"},{"poiid":"B2094757D06FAAF5499F","title":"神户六甲牧场","lon":"121.44341213","lat":"31.19932396","category":"113","category_name":"冷饮店","address":"徐汇区肇嘉浜路1111号美罗城B1楼五番街内(近漕溪北路)"},{"poiid":"B2094757D06AA3FA489C","title":"绿丰花园(吴兴路店)","lon":"121.44456","lat":"31.20241","category":"47","category_name":"住宅区","address":"徐汇区吴兴路87号(近衡山路)"},{"poiid":"B2094655D26AA3FA449D","title":"衡山宾馆宴会厅","lon":"121.44309","lat":"31.20092","category":"247","category_name":"餐饮美食","address":"徐汇区衡山路534号衡山宾馆内(近宛平路)查看地图"},{"poiid":"B2094757D16EA3FD449E","title":"余庆路","lon":"121.44194858","lat":"31.198873817","category":"500","category_name":"未知分类","address":"上海徐汇区余庆路"},{"poiid":"B2094654DB6AA7F4409E","title":"富豪环球绿宝石厅","lon":"121.443976054","lat":"31.201707793","category":"247","category_name":"餐饮美食","address":"衡山路516号富豪环球东亚酒店2楼近吴兴路"},{"poiid":"B2094750D164A7FE4893","title":"上海联艺・凯文公寓","lon":"121.443970205688","lat":"31.2008428871856","category":"214","category_name":"四星级宾馆","address":"徐汇区衡山路525号(近网球中心)"},{"poiid":"B2094655D26BA2FE479D","title":"宛平路衡山路","lon":"121.44392","lat":"31.19873","category":"38","category_name":"公交车站","address":""},{"poiid":"B2094654DA6DA6FC469D","title":"龙龙割烹有马","lon":"121.44344","lat":"31.19976","category":"95","category_name":"日本料理","address":"徐汇区宛平路189弄1号(近衡山路)"},{"poiid":"B2094757DA68A0FE4599","title":"串串香","lon":"121.4430919","lat":"31.20093111","category":"247","category_name":"餐饮美食","address":"徐汇区肇嘉浜路1111弄美罗城大食代内(近漕溪北路)"},{"poiid":"B2094757D16BA0FD4293","title":"衡山宾馆百花厅","lon":"121.443740686","lat":"31.2006081518","category":"500","category_name":"未知分类","address":"上海市徐汇区衡山路534号衡山宾馆三楼"},{"poiid":"B2094655D264A2FA4792","title":"凯文绿地","lon":"121.44366","lat":"31.20034","category":"196","category_name":"公园","address":"天平路"},{"poiid":"B2094655D26FA3FA4099","title":"衡山宾馆商务中心","lon":"121.44309","lat":"31.20093","category":"46","category_name":"楼宇","address":"衡山路534号2层"},{"poiid":"B2094757D064A3FE449D","title":"下雨天","lon":"121.443313403","lat":"31.1999168049","category":"500","category_name":"未知分类","address":"上海Anywhere"},{"poiid":"B2094757D068A1FD449D","title":"Phebe 3D Club","lon":"121.44319152","lat":"31.200695037","category":"500","category_name":"未知分类","address":"上海No.10 Hengshan Road"},{"poiid":"B2094655D26BA0F8499F","title":"公安大楼","lon":"121.44479","lat":"31.19955","category":"47","category_name":"住宅区","address":"上海市中山西路2000号"},{"poiid":"B2094655D26BA2FE4793","title":"宛平路肇家浜路","lon":"121.44397","lat":"31.19866","category":"38","category_name":"公交车站","address":""},{"poiid":"B2094654DB65A1FE489B","title":"徐家汇公园","lon":"121.44232","lat":"31.19693","category":"196","category_name":"公园","address":"上海市肇嘉浜路"},{"poiid":"B2094757D06FA3FD4598","title":"衡山路","lon":"121.44432","lat":"31.20163","category":"260","category_name":"其他","address":"徐汇区衡山路(衡山路吴兴路)"},{"poiid":"B2094757D06FA2FE4599","title":"富豪环球东亚酒店","lon":"121.44417","lat":"31.20142","category":"213","category_name":"五星级宾馆","address":"徐汇区衡山路516号(近宛平路)"},{"poiid":"B2094753D76FAAFA449C","title":"上海滩国泰旗舰店","lon":"121.466011","lat":"31.216125","category":"249","category_name":"购物服务","address":"淮海中路868号"},{"poiid":"B2094654DA6DA7FB429F","title":"衡山宾馆","lon":"121.44309","lat":"31.20092","category":"214","category_name":"四星级宾馆","address":"上海市徐汇区衡山路534号(衡山路地区,宛平路口)"},{"poiid":"B2094757D06FA2FB469A","title":"恒悦轩(徐汇店)","lon":"121.44404","lat":"31.19737","category":"72","category_name":"广东菜","address":"徐汇区宛平路290号徐家汇公园内(近肇嘉浜路)"},{"poiid":"B2094655D269AAFC419D","title":"建工锦江大酒店","lon":"121.44402","lat":"31.19989","category":"247","category_name":"餐饮美食","address":"上海市徐汇区建国西路691号(近衡山路)"},{"poiid":"B2094757D06FA3F84899","title":"衡山小馆(衡山店)","lon":"121.44508","lat":"31.20207","category":"72","category_name":"广东菜","address":"徐汇区衡山路308号(近高安路)"},{"poiid":"B2094654DA6DA3FC409F","title":"港汇中心二座","lon":"121.44363940644","lat":"31.200356970369","category":"46","category_name":"楼宇","address":"上海虹桥路3号"},{"poiid":"B2094654DA6DA6FC469A","title":"宛平宾馆","lon":"121.44502","lat":"31.19814","category":"214","category_name":"四星级宾馆","address":"徐汇区宛平路315号(近肇嘉浜路)"},{"poiid":"B2094654DB6BA5FE4393","title":"圣爱大厦","lon":"121.444","lat":"31.1979","category":"46","category_name":"楼宇","address":"上海漕溪北路88号"},{"poiid":"B2094757D068ABFC439D","title":"自由港量販式KTV(吴兴店)","lon":"121.44459958","lat":"31.200683853","category":"170","category_name":"KTV","address":"上海徐汇区吴兴路277号"},{"poiid":"B2094757D06FA2FB4193","title":"实业大厦","lon":"121.444","lat":"31.1993","category":"46","category_name":"楼宇","address":"上海市徐汇区漕溪北路18号"},{"poiid":"B2094757D068A2FD469D","title":"小紅樓 La Villa Rouge","lon":"121.44154357","lat":"31.198003768","category":"247","category_name":"餐饮美食","address":"中国上海市徐匯區衡山路811号"},{"poiid":"B2094757D068A2F4469A","title":"草津亭日本料理铁板烧","lon":"121.44346","lat":"31.20042","category":"95","category_name":"日本料理","address":"徐汇区衡山路534号衡山宾馆2楼(建国西路宛平路)"},{"poiid":"B2094752D76FAAF5409D","title":"Sunday Brunch","lon":"121.443327","lat":"31.199718","category":"247","category_name":"餐饮美食","address":"上海市徐汇区宛平路189弄1号（近衡山路徐家汇公园）"},{"poiid":"B2094757D068ABFF4399","title":"肇嘉浜路","lon":"121.44627625","lat":"31.199099322","category":"260","category_name":"其他","address":"上海肇嘉浜路"},{"poiid":"B2094752D36DA5F9479D","title":"上海超级电影世界","lon":"121.44509","lat":"31.19884","category":"178","category_name":"电影院","address":"上海市徐汇区肇嘉浜路1111号美罗城五楼"},{"poiid":"B2094655D268A6FB439C","title":"徐家汇公园运动场","lon":"121.44355","lat":"31.1984","category":"220","category_name":"运动场所","address":""},{"poiid":"B2094757D068A3FA4598","title":"小白桦酒家","lon":"121.44454","lat":"31.19819","category":"76","category_name":"上海菜","address":"徐汇区宛平路297弄3号(近肇嘉浜路)"},{"poiid":"B2094654DA6DA0FE439B","title":"汇嘉大厦","lon":"121.446","lat":"31.1986","category":"46","category_name":"楼宇","address":"上海市闵行区莲花南路1500弄"},{"poiid":"B2094757D66CA4FA469A","title":"新衡山电影院3号厅","lon":"121.442303586","lat":"31.1990408211","category":"178","category_name":"电影院","address":null},{"poiid":"B2094757D068A0FC459D","title":"Restaurant Martin by Martin Berasategui","lon":"121.44191","lat":"31.19788","category":"94","category_name":"西餐厅","address":"徐汇区衡山路811号徐家汇中心广场绿地内(近余庆路)"},{"poiid":"B2094757D068A7F4409D","title":"皇城根老北京涮羊肉(宛平路店)","lon":"121.44464","lat":"31.19842","category":"86","category_name":"火锅店","address":"徐汇区宛平路297弄1号后门(近肇嘉浜路)"},{"poiid":"B2094757D068A7FD479B","title":"凯文咖啡西餐厅","lon":"121.4442","lat":"31.20048","category":"260","category_name":"其他","address":"徐汇区衡山路525号(近宛平路口衡山宾馆对面)"},{"poiid":"B2094757D068A1FF4698","title":"宁波人家","lon":"121.44451","lat":"31.19978","category":"75","category_name":"浙江菜","address":"徐汇区建国西路691号建工锦江大酒店4楼(近宛平路)"},{"poiid":"B2094654DA6DA7FA479B","title":"上海国际网球中心","lon":"121.44366","lat":"31.20171","category":"226","category_name":"网球场","address":"徐汇区衡山路516号3楼(宛平路口)"},{"poiid":"B2094757D16EAAF5489B","title":"徐家汇公园儿童乐园","lon":"121.443157586","lat":"31.1997056341","category":"196","category_name":"公园","address":"上海肇嘉浜路天平路"},{"poiid":"B2094757D569A1F8409E","title":"圣爱广场","lon":"121.444","lat":"31.1984","category":"46","category_name":"楼宇","address":"上海市徐汇区漕溪北路88号"},{"poiid":"B2094757D06FABF5459E","title":"徐家汇公园篮球场","lon":"121.44290315","lat":"31.196756486","category":"220","category_name":"运动场所","address":"徐汇区肇嘉浜路889号(天平路宛平路间)"},{"poiid":"B2094654DA6DA6FC4699","title":"上海市高安路第一小学","lon":"121.44418","lat":"31.19955","category":"56","category_name":"小学","address":"宛平路231"},{"poiid":"B2094757D569A2F8449B","title":"星巴克咖啡(均瑶店)","lon":"121.443859999998","lat":"31.20044","category":"65","category_name":"咖啡厅","address":"徐汇区肇嘉浜路789号"},{"poiid":"B2094750D665A0F8489F","title":"白家餐厅","lon":"121.444","lat":"31.1998","category":"76","category_name":"上海菜","address":"徐汇区宛平路189弄12号(近衡山路)"},{"poiid":"B2094757D16FA3F8499D","title":"上实大厦","lon":"121.444503","lat":"31.199355","category":"252","category_name":"楼宇机构","address":"上海市徐汇区漕溪北路"},{"poiid":"B2094757D06FAAF5499F","title":"神户六甲牧场","lon":"121.44341213","lat":"31.19932396","category":"113","category_name":"冷饮店","address":"徐汇区肇嘉浜路1111号美罗城B1楼五番街内(近漕溪北路)"},{"poiid":"B2094757D06AA3FA489C","title":"绿丰花园(吴兴路店)","lon":"121.44456","lat":"31.20241","category":"47","category_name":"住宅区","address":"徐汇区吴兴路87号(近衡山路)"},{"poiid":"B2094655D26AA3FA449D","title":"衡山宾馆宴会厅","lon":"121.44309","lat":"31.20092","category":"247","category_name":"餐饮美食","address":"徐汇区衡山路534号衡山宾馆内(近宛平路)查看地图"},{"poiid":"B2094757D16EA3FD449E","title":"余庆路","lon":"121.44194858","lat":"31.198873817","category":"500","category_name":"未知分类","address":"上海徐汇区余庆路"},{"poiid":"B2094654DB6AA7F4409E","title":"富豪环球绿宝石厅","lon":"121.443976054","lat":"31.201707793","category":"247","category_name":"餐饮美食","address":"衡山路516号富豪环球东亚酒店2楼近吴兴路"},{"poiid":"B2094750D164A7FE4893","title":"上海联艺・凯文公寓","lon":"121.443970205688","lat":"31.2008428871856","category":"214","category_name":"四星级宾馆","address":"徐汇区衡山路525号(近网球中心)"},{"poiid":"B2094655D26BA2FE479D","title":"宛平路衡山路","lon":"121.44392","lat":"31.19873","category":"38","category_name":"公交车站","address":""},{"poiid":"B2094654DA6DA6FC469D","title":"龙龙割烹有马","lon":"121.44344","lat":"31.19976","category":"95","category_name":"日本料理","address":"徐汇区宛平路189弄1号(近衡山路)"},{"poiid":"B2094757DA68A0FE4599","title":"串串香","lon":"121.4430919","lat":"31.20093111","category":"247","category_name":"餐饮美食","address":"徐汇区肇嘉浜路1111弄美罗城大食代内(近漕溪北路)"},{"poiid":"B2094757D16BA0FD4293","title":"衡山宾馆百花厅","lon":"121.443740686","lat":"31.2006081518","category":"500","category_name":"未知分类","address":"上海市徐汇区衡山路534号衡山宾馆三楼"},{"poiid":"B2094655D264A2FA4792","title":"凯文绿地","lon":"121.44366","lat":"31.20034","category":"196","category_name":"公园","address":"天平路"},{"poiid":"B2094655D26FA3FA4099","title":"衡山宾馆商务中心","lon":"121.44309","lat":"31.20093","category":"46","category_name":"楼宇","address":"衡山路534号2层"},{"poiid":"B2094757D064A3FE449D","title":"下雨天","lon":"121.443313403","lat":"31.1999168049","category":"500","category_name":"未知分类","address":"上海Anywhere"},{"poiid":"B2094757D068A1FD449D","title":"Phebe 3D Club","lon":"121.44319152","lat":"31.200695037","category":"500","category_name":"未知分类","address":"上海No.10 Hengshan Road"},{"poiid":"B2094655D26BA0F8499F","title":"公安大楼","lon":"121.44479","lat":"31.19955","category":"47","category_name":"住宅区","address":"上海市中山西路2000号"},{"poiid":"B2094655D26BA2FE4793","title":"宛平路肇家浜路","lon":"121.44397","lat":"31.19866","category":"38","category_name":"公交车站","address":""},{"poiid":"B2094654DB65A1FE489B","title":"徐家汇公园","lon":"121.44232","lat":"31.19693","category":"196","category_name":"公园","address":"上海市肇嘉浜路"},{"poiid":"B2094757D06FA3FD4598","title":"衡山路","lon":"121.44432","lat":"31.20163","category":"260","category_name":"其他","address":"徐汇区衡山路(衡山路吴兴路)"},{"poiid":"B2094757D06FA2FE4599","title":"富豪环球东亚酒店","lon":"121.44417","lat":"31.20142","category":"213","category_name":"五星级宾馆","address":"徐汇区衡山路516号(近宛平路)"},{"poiid":"B2094753D76FAAFA449C","title":"上海滩国泰旗舰店","lon":"121.466011","lat":"31.216125","category":"249","category_name":"购物服务","address":"淮海中路868号"},{"poiid":"B2094654DA6DA7FB429F","title":"衡山宾馆","lon":"121.44309","lat":"31.20092","category":"214","category_name":"四星级宾馆","address":"上海市徐汇区衡山路534号(衡山路地区,宛平路口)"},{"poiid":"B2094757D06FA2FB469A","title":"恒悦轩(徐汇店)","lon":"121.44404","lat":"31.19737","category":"72","category_name":"广东菜","address":"徐汇区宛平路290号徐家汇公园内(近肇嘉浜路)"},{"poiid":"B2094655D269AAFC419D","title":"建工锦江大酒店","lon":"121.44402","lat":"31.19989","category":"247","category_name":"餐饮美食","address":"上海市徐汇区建国西路691号(近衡山路)"},{"poiid":"B2094757D06FA3F84899","title":"衡山小馆(衡山店)","lon":"121.44508","lat":"31.20207","category":"72","category_name":"广东菜","address":"徐汇区衡山路308号(近高安路)"},{"poiid":"B2094654DA6DA3FC409F","title":"港汇中心二座","lon":"121.44363940644","lat":"31.200356970369","category":"46","category_name":"楼宇","address":"上海虹桥路3号"},{"poiid":"B2094654DA6DA6FC469A","title":"宛平宾馆","lon":"121.44502","lat":"31.19814","category":"214","category_name":"四星级宾馆","address":"徐汇区宛平路315号(近肇嘉浜路)"},{"poiid":"B2094654DB6BA5FE4393","title":"圣爱大厦","lon":"121.444","lat":"31.1979","category":"46","category_name":"楼宇","address":"上海漕溪北路88号"},{"poiid":"B2094757D068ABFC439D","title":"自由港量販式KTV(吴兴店)","lon":"121.44459958","lat":"31.200683853","category":"170","category_name":"KTV","address":"上海徐汇区吴兴路277号"},{"poiid":"B2094757D06FA2FB4193","title":"实业大厦","lon":"121.444","lat":"31.1993","category":"46","category_name":"楼宇","address":"上海市徐汇区漕溪北路18号"},{"poiid":"B2094757D068A2FD469D","title":"小紅樓 La Villa Rouge","lon":"121.44154357","lat":"31.198003768","category":"247","category_name":"餐饮美食","address":"中国上海市徐匯區衡山路811号"},{"poiid":"B2094757D068A2F4469A","title":"草津亭日本料理铁板烧","lon":"121.44346","lat":"31.20042","category":"95","category_name":"日本料理","address":"徐汇区衡山路534号衡山宾馆2楼(建国西路宛平路)"},{"poiid":"B2094752D76FAAF5409D","title":"Sunday Brunch","lon":"121.443327","lat":"31.199718","category":"247","category_name":"餐饮美食","address":"上海市徐汇区宛平路189弄1号（近衡山路徐家汇公园）"},{"poiid":"B2094757D068ABFF4399","title":"肇嘉浜路","lon":"121.44627625","lat":"31.199099322","category":"260","category_name":"其他","address":"上海肇嘉浜路"},{"poiid":"B2094752D36DA5F9479D","title":"上海超级电影世界","lon":"121.44509","lat":"31.19884","category":"178","category_name":"电影院","address":"上海市徐汇区肇嘉浜路1111号美罗城五楼"},{"poiid":"B2094655D268A6FB439C","title":"徐家汇公园运动场","lon":"121.44355","lat":"31.1984","category":"220","category_name":"运动场所","address":""},{"poiid":"B2094757D068A3FA4598","title":"小白桦酒家","lon":"121.44454","lat":"31.19819","category":"76","category_name":"上海菜","address":"徐汇区宛平路297弄3号(近肇嘉浜路)"},{"poiid":"B2094654DA6DA0FE439B","title":"汇嘉大厦","lon":"121.446","lat":"31.1986","category":"46","category_name":"楼宇","address":"上海市闵行区莲花南路1500弄"},{"poiid":"B2094757D66CA4FA469A","title":"新衡山电影院3号厅","lon":"121.442303586","lat":"31.1990408211","category":"178","category_name":"电影院","address":null},{"poiid":"B2094757D068A0FC459D","title":"Restaurant Martin by Martin Berasategui","lon":"121.44191","lat":"31.19788","category":"94","category_name":"西餐厅","address":"徐汇区衡山路811号徐家汇中心广场绿地内(近余庆路)"},{"poiid":"B2094757D068A7F4409D","title":"皇城根老北京涮羊肉(宛平路店)","lon":"121.44464","lat":"31.19842","category":"86","category_name":"火锅店","address":"徐汇区宛平路297弄1号后门(近肇嘉浜路)"},{"poiid":"B2094757D068A7FD479B","title":"凯文咖啡西餐厅","lon":"121.4442","lat":"31.20048","category":"260","category_name":"其他","address":"徐汇区衡山路525号(近宛平路口衡山宾馆对面)"},{"poiid":"B2094757D068A1FF4698","title":"宁波人家","lon":"121.44451","lat":"31.19978","category":"75","category_name":"浙江菜","address":"徐汇区建国西路691号建工锦江大酒店4楼(近宛平路)"},{"poiid":"B2094654DA6DA7FA479B","title":"上海国际网球中心","lon":"121.44366","lat":"31.20171","category":"226","category_name":"网球场","address":"徐汇区衡山路516号3楼(宛平路口)"},{"poiid":"B2094757D16EAAF5489B","title":"徐家汇公园儿童乐园","lon":"121.443157586","lat":"31.1997056341","category":"196","category_name":"公园","address":"上海肇嘉浜路天平路"},{"poiid":"B2094757D569A1F8409E","title":"圣爱广场","lon":"121.444","lat":"31.1984","category":"46","category_name":"楼宇","address":"上海市徐汇区漕溪北路88号"},{"poiid":"B2094757D06FABF5459E","title":"徐家汇公园篮球场","lon":"121.44290315","lat":"31.196756486","category":"220","category_name":"运动场所","address":"徐汇区肇嘉浜路889号(天平路宛平路间)"},{"poiid":"B2094654DA6DA6FC4699","title":"上海市高安路第一小学","lon":"121.44418","lat":"31.19955","category":"56","category_name":"小学","address":"宛平路231"},{"poiid":"B2094757D569A2F8449B","title":"星巴克咖啡(均瑶店)","lon":"121.443859999998","lat":"31.20044","category":"65","category_name":"咖啡厅","address":"徐汇区肇嘉浜路789号"},{"poiid":"B2094750D665A0F8489F","title":"白家餐厅","lon":"121.444","lat":"31.1998","category":"76","category_name":"上海菜","address":"徐汇区宛平路189弄12号(近衡山路)"},{"poiid":"B2094757D16FA3F8499D","title":"上实大厦","lon":"121.444503","lat":"31.199355","category":"252","category_name":"楼宇机构","address":"上海市徐汇区漕溪北路"},{"poiid":"B2094757D06FAAF5499F","title":"神户六甲牧场","lon":"121.44341213","lat":"31.19932396","category":"113","category_name":"冷饮店","address":"徐汇区肇嘉浜路1111号美罗城B1楼五番街内(近漕溪北路)"},{"poiid":"B2094757D06AA3FA489C","title":"绿丰花园(吴兴路店)","lon":"121.44456","lat":"31.20241","category":"47","category_name":"住宅区","address":"徐汇区吴兴路87号(近衡山路)"},{"poiid":"B2094655D26AA3FA449D","title":"衡山宾馆宴会厅","lon":"121.44309","lat":"31.20092","category":"247","category_name":"餐饮美食","address":"徐汇区衡山路534号衡山宾馆内(近宛平路)查看地图"},{"poiid":"B2094757D16EA3FD449E","title":"余庆路","lon":"121.44194858","lat":"31.198873817","category":"500","category_name":"未知分类","address":"上海徐汇区余庆路"},{"poiid":"B2094654DB6AA7F4409E","title":"富豪环球绿宝石厅","lon":"121.443976054","lat":"31.201707793","category":"247","category_name":"餐饮美食","address":"衡山路516号富豪环球东亚酒店2楼近吴兴路"},{"poiid":"B2094750D164A7FE4893","title":"上海联艺・凯文公寓","lon":"121.443970205688","lat":"31.2008428871856","category":"214","category_name":"四星级宾馆","address":"徐汇区衡山路525号(近网球中心)"},{"poiid":"B2094655D26BA2FE479D","title":"宛平路衡山路","lon":"121.44392","lat":"31.19873","category":"38","category_name":"公交车站","address":""},{"poiid":"B2094654DA6DA6FC469D","title":"龙龙割烹有马","lon":"121.44344","lat":"31.19976","category":"95","category_name":"日本料理","address":"徐汇区宛平路189弄1号(近衡山路)"},{"poiid":"B2094757DA68A0FE4599","title":"串串香","lon":"121.4430919","lat":"31.20093111","category":"247","category_name":"餐饮美食","address":"徐汇区肇嘉浜路1111弄美罗城大食代内(近漕溪北路)"},{"poiid":"B2094757D16BA0FD4293","title":"衡山宾馆百花厅","lon":"121.443740686","lat":"31.2006081518","category":"500","category_name":"未知分类","address":"上海市徐汇区衡山路534号衡山宾馆三楼"},{"poiid":"B2094655D264A2FA4792","title":"凯文绿地","lon":"121.44366","lat":"31.20034","category":"196","category_name":"公园","address":"天平路"},{"poiid":"B2094655D26FA3FA4099","title":"衡山宾馆商务中心","lon":"121.44309","lat":"31.20093","category":"46","category_name":"楼宇","address":"衡山路534号2层"},{"poiid":"B2094757D064A3FE449D","title":"下雨天","lon":"121.443313403","lat":"31.1999168049","category":"500","category_name":"未知分类","address":"上海Anywhere"},{"poiid":"B2094757D068A1FD449D","title":"Phebe 3D Club","lon":"121.44319152","lat":"31.200695037","category":"500","category_name":"未知分类","address":"上海No.10 Hengshan Road"},{"poiid":"B2094655D26BA0F8499F","title":"公安大楼","lon":"121.44479","lat":"31.19955","category":"47","category_name":"住宅区","address":"上海市中山西路2000号"},{"poiid":"B2094655D26BA2FE4793","title":"宛平路肇家浜路","lon":"121.44397","lat":"31.19866","category":"38","category_name":"公交车站","address":""},{"poiid":"B2094654DB65A1FE489B","title":"徐家汇公园","lon":"121.44232","lat":"31.19693","category":"196","category_name":"公园","address":"上海市肇嘉浜路"},{"poiid":"B2094757D06FA3FD4598","title":"衡山路","lon":"121.44432","lat":"31.20163","category":"260","category_name":"其他","address":"徐汇区衡山路(衡山路吴兴路)"},{"poiid":"B2094757D06FA2FE4599","title":"富豪环球东亚酒店","lon":"121.44417","lat":"31.20142","category":"213","category_name":"五星级宾馆","address":"徐汇区衡山路516号(近宛平路)"},{"poiid":"B2094753D76FAAFA449C","title":"上海滩国泰旗舰店","lon":"121.466011","lat":"31.216125","category":"249","category_name":"购物服务","address":"淮海中路868号"},{"poiid":"B2094654DA6DA7FB429F","title":"衡山宾馆","lon":"121.44309","lat":"31.20092","category":"214","category_name":"四星级宾馆","address":"上海市徐汇区衡山路534号(衡山路地区,宛平路口)"},{"poiid":"B2094757D06FA2FB469A","title":"恒悦轩(徐汇店)","lon":"121.44404","lat":"31.19737","category":"72","category_name":"广东菜","address":"徐汇区宛平路290号徐家汇公园内(近肇嘉浜路)"},{"poiid":"B2094655D269AAFC419D","title":"建工锦江大酒店","lon":"121.44402","lat":"31.19989","category":"247","category_name":"餐饮美食","address":"上海市徐汇区建国西路691号(近衡山路)"},{"poiid":"B2094757D06FA3F84899","title":"衡山小馆(衡山店)","lon":"121.44508","lat":"31.20207","category":"72","category_name":"广东菜","address":"徐汇区衡山路308号(近高安路)"},{"poiid":"B2094654DA6DA3FC409F","title":"港汇中心二座","lon":"121.44363940644","lat":"31.200356970369","category":"46","category_name":"楼宇","address":"上海虹桥路3号"},{"poiid":"B2094654DA6DA6FC469A","title":"宛平宾馆","lon":"121.44502","lat":"31.19814","category":"214","category_name":"四星级宾馆","address":"徐汇区宛平路315号(近肇嘉浜路)"},{"poiid":"B2094654DB6BA5FE4393","title":"圣爱大厦","lon":"121.444","lat":"31.1979","category":"46","category_name":"楼宇","address":"上海漕溪北路88号"},{"poiid":"B2094757D068ABFC439D","title":"自由港量販式KTV(吴兴店)","lon":"121.44459958","lat":"31.200683853","category":"170","category_name":"KTV","address":"上海徐汇区吴兴路277号"},{"poiid":"B2094757D06FA2FB4193","title":"实业大厦","lon":"121.444","lat":"31.1993","category":"46","category_name":"楼宇","address":"上海市徐汇区漕溪北路18号"},{"poiid":"B2094757D068A2FD469D","title":"小紅樓 La Villa Rouge","lon":"121.44154357","lat":"31.198003768","category":"247","category_name":"餐饮美食","address":"中国上海市徐匯區衡山路811号"},{"poiid":"B2094757D068A2F4469A","title":"草津亭日本料理铁板烧","lon":"121.44346","lat":"31.20042","category":"95","category_name":"日本料理","address":"徐汇区衡山路534号衡山宾馆2楼(建国西路宛平路)"},{"poiid":"B2094752D76FAAF5409D","title":"Sunday Brunch","lon":"121.443327","lat":"31.199718","category":"247","category_name":"餐饮美食","address":"上海市徐汇区宛平路189弄1号（近衡山路徐家汇公园）"},{"poiid":"B2094757D068ABFF4399","title":"肇嘉浜路","lon":"121.44627625","lat":"31.199099322","category":"260","category_name":"其他","address":"上海肇嘉浜路"},{"poiid":"B2094752D36DA5F9479D","title":"上海超级电影世界","lon":"121.44509","lat":"31.19884","category":"178","category_name":"电影院","address":"上海市徐汇区肇嘉浜路1111号美罗城五楼"},{"poiid":"B2094655D268A6FB439C","title":"徐家汇公园运动场","lon":"121.44355","lat":"31.1984","category":"220","category_name":"运动场所","address":""},{"poiid":"B2094757D068A3FA4598","title":"小白桦酒家","lon":"121.44454","lat":"31.19819","category":"76","category_name":"上海菜","address":"徐汇区宛平路297弄3号(近肇嘉浜路)"},{"poiid":"B2094654DA6DA0FE439B","title":"汇嘉大厦","lon":"121.446","lat":"31.1986","category":"46","category_name":"楼宇","address":"上海市闵行区莲花南路1500弄"},{"poiid":"B2094757D66CA4FA469A","title":"新衡山电影院3号厅","lon":"121.442303586","lat":"31.1990408211","category":"178","category_name":"电影院","address":null},{"poiid":"B2094757D068A0FC459D","title":"Restaurant Martin by Martin Berasategui","lon":"121.44191","lat":"31.19788","category":"94","category_name":"西餐厅","address":"徐汇区衡山路811号徐家汇中心广场绿地内(近余庆路)"},{"poiid":"B2094757D068A7F4409D","title":"皇城根老北京涮羊肉(宛平路店)","lon":"121.44464","lat":"31.19842","category":"86","category_name":"火锅店","address":"徐汇区宛平路297弄1号后门(近肇嘉浜路)"},{"poiid":"B2094757D068A7FD479B","title":"凯文咖啡西餐厅","lon":"121.4442","lat":"31.20048","category":"260","category_name":"其他","address":"徐汇区衡山路525号(近宛平路口衡山宾馆对面)"},{"poiid":"B2094757D068A1FF4698","title":"宁波人家","lon":"121.44451","lat":"31.19978","category":"75","category_name":"浙江菜","address":"徐汇区建国西路691号建工锦江大酒店4楼(近宛平路)"},{"poiid":"B2094654DA6DA7FA479B","title":"上海国际网球中心","lon":"121.44366","lat":"31.20171","category":"226","category_name":"网球场","address":"徐汇区衡山路516号3楼(宛平路口)"},{"poiid":"B2094757D16EAAF5489B","title":"徐家汇公园儿童乐园","lon":"121.443157586","lat":"31.1997056341","category":"196","category_name":"公园","address":"上海肇嘉浜路天平路"},{"poiid":"B2094757D569A1F8409E","title":"圣爱广场","lon":"121.444","lat":"31.1984","category":"46","category_name":"楼宇","address":"上海市徐汇区漕溪北路88号"},{"poiid":"B2094757D06FABF5459E","title":"徐家汇公园篮球场","lon":"121.44290315","lat":"31.196756486","category":"220","category_name":"运动场所","address":"徐汇区肇嘉浜路889号(天平路宛平路间)"},{"poiid":"B2094654DA6DA6FC4699","title":"上海市高安路第一小学","lon":"121.44418","lat":"31.19955","category":"56","category_name":"小学","address":"宛平路231"},{"poiid":"B2094757D569A2F8449B","title":"星巴克咖啡(均瑶店)","lon":"121.443859999998","lat":"31.20044","category":"65","category_name":"咖啡厅","address":"徐汇区肇嘉浜路789号"},{"poiid":"B2094750D665A0F8489F","title":"白家餐厅","lon":"121.444","lat":"31.1998","category":"76","category_name":"上海菜","address":"徐汇区宛平路189弄12号(近衡山路)"},{"poiid":"B2094757D16FA3F8499D","title":"上实大厦","lon":"121.444503","lat":"31.199355","category":"252","category_name":"楼宇机构","address":"上海市徐汇区漕溪北路"},{"poiid":"B2094757D06FAAF5499F","title":"神户六甲牧场","lon":"121.44341213","lat":"31.19932396","category":"113","category_name":"冷饮店","address":"徐汇区肇嘉浜路1111号美罗城B1楼五番街内(近漕溪北路)"},{"poiid":"B2094757D06AA3FA489C","title":"绿丰花园(吴兴路店)","lon":"121.44456","lat":"31.20241","category":"47","category_name":"住宅区","address":"徐汇区吴兴路87号(近衡山路)"},{"poiid":"B2094655D26AA3FA449D","title":"衡山宾馆宴会厅","lon":"121.44309","lat":"31.20092","category":"247","category_name":"餐饮美食","address":"徐汇区衡山路534号衡山宾馆内(近宛平路)查看地图"},{"poiid":"B2094757D16EA3FD449E","title":"余庆路","lon":"121.44194858","lat":"31.198873817","category":"500","category_name":"未知分类","address":"上海徐汇区余庆路"},{"poiid":"B2094654DB6AA7F4409E","title":"富豪环球绿宝石厅","lon":"121.443976054","lat":"31.201707793","category":"247","category_name":"餐饮美食","address":"衡山路516号富豪环球东亚酒店2楼近吴兴路"},{"poiid":"B2094750D164A7FE4893","title":"上海联艺・凯文公寓","lon":"121.443970205688","lat":"31.2008428871856","category":"214","category_name":"四星级宾馆","address":"徐汇区衡山路525号(近网球中心)"},{"poiid":"B2094655D26BA2FE479D","title":"宛平路衡山路","lon":"121.44392","lat":"31.19873","category":"38","category_name":"公交车站","address":""},{"poiid":"B2094654DA6DA6FC469D","title":"龙龙割烹有马","lon":"121.44344","lat":"31.19976","category":"95","category_name":"日本料理","address":"徐汇区宛平路189弄1号(近衡山路)"},{"poiid":"B2094757DA68A0FE4599","title":"串串香","lon":"121.4430919","lat":"31.20093111","category":"247","category_name":"餐饮美食","address":"徐汇区肇嘉浜路1111弄美罗城大食代内(近漕溪北路)"},{"poiid":"B2094757D16BA0FD4293","title":"衡山宾馆百花厅","lon":"121.443740686","lat":"31.2006081518","category":"500","category_name":"未知分类","address":"上海市徐汇区衡山路534号衡山宾馆三楼"},{"poiid":"B2094655D264A2FA4792","title":"凯文绿地","lon":"121.44366","lat":"31.20034","category":"196","category_name":"公园","address":"天平路"},{"poiid":"B2094655D26FA3FA4099","title":"衡山宾馆商务中心","lon":"121.44309","lat":"31.20093","category":"46","category_name":"楼宇","address":"衡山路534号2层"},{"poiid":"B2094757D064A3FE449D","title":"下雨天","lon":"121.443313403","lat":"31.1999168049","category":"500","category_name":"未知分类","address":"上海Anywhere"},{"poiid":"B2094757D068A1FD449D","title":"Phebe 3D Club","lon":"121.44319152","lat":"31.200695037","category":"500","category_name":"未知分类","address":"上海No.10 Hengshan Road"},{"poiid":"B2094655D26BA0F8499F","title":"公安大楼","lon":"121.44479","lat":"31.19955","category":"47","category_name":"住宅区","address":"上海市中山西路2000号"},{"poiid":"B2094655D26BA2FE4793","title":"宛平路肇家浜路","lon":"121.44397","lat":"31.19866","category":"38","category_name":"公交车站","address":""}]