[{"poiid":"B2094655D36CA1FF4999","title":"龙阳路地铁站","lon":"121.55906","lat":"31.20345","category":"36","category_name":"地铁站","address":""},{"poiid":"B2094757D068A4F54298","title":"上海新国际展览中心","lon":"121.56696397","lat":"31.207406526","category":"183","category_name":"展览馆","address":"上海金桥路"},{"poiid":"B2094655D264A6FE429D","title":"磁浮龙阳路站","lon":"121.55832","lat":"31.2024","category":"251","category_name":"出行住宿","address":"上海磁浮线 磁悬浮 龙阳路"},{"poiid":"B2094757D66FA6FA489A","title":"麦当劳(龙阳路店)","lon":"121.55834","lat":"31.20304","category":"68","category_name":"快餐厅","address":"浦东新区龙阳路2345号新国际展览中心W4馆2楼(近芳甸路)"},{"poiid":"B2094655D26AA0F9479E","title":"地铁龙阳路站","lon":"121.55769","lat":"31.20329","category":"36","category_name":"地铁站","address":""},{"poiid":"B2094655D26EA6F4459F","title":"迪卡侬(花木店)","lon":"121.55962","lat":"31.20538","category":"248","category_name":"生活娱乐","address":"浦东新区银霄路393号(龙阳路)"},{"poiid":"B2094757D069A2F84298","title":"上海轨道交通龙阳路基地","lon":"121.56873208","lat":"31.2043952824","category":"260","category_name":"其他","address":"上海市浦东新区龙阳路2520号"},{"poiid":"B2094757D06FA2F8499D","title":"中国建设银行上海市分行培训中心","lon":"121.56188201","lat":"31.192485809","category":"150","category_name":"银行","address":"上海申波路292号"},{"poiid":"B2094757D06FA2FD489D","title":"85度C(龙阳地铁站店)","lon":"121.557519452","lat":"31.2033092315","category":"67","category_name":"甜品店","address":"浦东新区龙阳路2100号底层126-127室商铺(近白杨路)"},{"poiid":"B2094757D06FA1F44492","title":"味千拉面 龙阳路店","lon":"121.55777","lat":"31.20364","category":"95","category_name":"日本料理","address":"龙阳路2100号1楼128,130室商铺"},{"poiid":"B2094757D068A7F9469F","title":"龙阳路地铁站站(公交581,798,975,969,方川,东川,桥六)","lon":"121.556909","lat":"31.199984","category":"38","category_name":"公交车站","address":"上海浦东新区白杨路龙汇路"},{"poiid":"B2094757DB6CA7FE419B","title":"地铁2号线龙阳路站","lon":"121.564178","lat":"31.20425","category":"627","category_name":"一般地点标志","address":"地铁2号线龙阳路站"},{"poiid":"B2094757D06FA7F8419C","title":"肯德基 KFC (龙阳店)","lon":"121.55788461","lat":"31.203098326","category":"68","category_name":"快餐厅","address":"浦东新区龙阳路2000号轨道交通二号线龙阳路站2号口(近白杨路)"},{"poiid":"B2094757D06AA1FE479E","title":"迪卡侬(龙阳路店)","lon":"121.56047797","lat":"31.204747464","category":"500","category_name":"未知分类","address":"上海龙阳路"},{"poiid":"B2094654DA6AA0FF4593","title":"聚龙家园","lon":"121.56866","lat":"31.196918","category":"47","category_name":"住宅区","address":"上海浦东新区芳华路916弄"},{"poiid":"B2094757D06FAAF8489F","title":"中国建设银行信用卡中心","lon":"121.56121797","lat":"31.193057191","category":"150","category_name":"银行","address":"上海申波路292号"},{"poiid":"B2094655D36DA6FD499D","title":"龙阳路","lon":"121.55769","lat":"31.20328","category":"38","category_name":"公交车站","address":"磁悬浮"},{"poiid":"B2094757D068ABFF489D","title":"天天渔港(永达店)","lon":"121.563","lat":"31.20427","category":"72","category_name":"广东菜","address":"浦东新区龙阳路2277号(兰花路石楠路)"},{"poiid":"B2094654DA6AA0FF4392","title":"龙沟新苑","lon":"121.56876","lat":"31.197325","category":"47","category_name":"住宅区","address":"芳华路933弄1-86号"},{"poiid":"B2094757D569A1FE4798","title":"喜马拉雅中心写字楼","lon":"121.5632489","lat":"31.20755278","category":"46","category_name":"楼宇","address":"芳甸路1188弄"},{"poiid":"B2094757D56CA1FD4999","title":"兄弟盱眙龙虾 芳华路店","lon":"121.55951","lat":"31.19597","category":"68","category_name":"快餐厅","address":"浦东新区芳华路452号(近乔家栅)"},{"poiid":"B2094757D069A1F44299","title":"天豪大酒店 龙阳店","lon":"121.55444","lat":"31.19971","category":"76","category_name":"上海菜","address":"浦东新区白杨路608号(近龙汇路)"},{"poiid":"B2094757D068A5F5439C","title":"永和大王(龙阳路店)","lon":"121.55858","lat":"31.20208","category":"68","category_name":"快餐厅","address":"浦东新区龙阳路2000号101室(近地铁站磁悬浮站)"},{"poiid":"B2094655D36CA6F94298","title":"芳华路白杨路","lon":"121.55869","lat":"31.19595","category":"38","category_name":"公交车站","address":""},{"poiid":"B2094757D068A7F4439E","title":"唐韵秦风 龙汇路店","lon":"121.55443","lat":"31.19975","category":"84","category_name":"西北菜","address":"浦东新区龙汇路300号新都汇美食广场115-116号(近白杨路)"},{"poiid":"B2094757D06AA0FA469B","title":"龙阳路龙汇路站(龙港快线,龙芦线,龙东线,龙临线,龙滨线,龙平芦线,龙新芦线,龙大线)","lon":"121.55931861","lat":"31.2029143223","category":"38","category_name":"公交车站","address":"上海市浦东新区龙阳路龙汇路"},{"poiid":"B2094757D665A0FB489F","title":"DQ冰雪皇后 银霄路店 Dairy Queen","lon":"121.558800054","lat":"31.205117793","category":"113","category_name":"冷饮店","address":"浦东新区银霄路393号(近百安居)"},{"poiid":"B2094752D36EA2FD439E","title":"上海浦东机场","lon":"121.562057","lat":"31.194992","category":"500","category_name":"未知分类","address":null},{"poiid":"B2094757D164AAFD469A","title":"上海处男集散中心","lon":"121.57037727","lat":"31.200664069","category":"500","category_name":"未知分类","address":"上海lallaa"},{"poiid":"B2094757D664ABFC4093","title":"绝味鸭脖 申波路店","lon":"121.564841054","lat":"31.196708793","category":"68","category_name":"快餐厅","address":"浦东新区申波路61号(芳华路口)"},{"poiid":"B2094750D26EAAFE4099","title":"健康煮 喜玛拉雅中心店","lon":"121.56232595444","lat":"31.208066616211","category":"86","category_name":"火锅店","address":"浦东新区芳甸路1188弄喜玛拉雅中心B1楼(近芳甸路)"},{"poiid":"B2094654DB6BABFA449B","title":"上海新国际博览中心(南门)","lon":"121.5652","lat":"31.20455","category":"183","category_name":"展览馆","address":"龙阳路2345"},{"poiid":"B2094752DA6FA7FF489C","title":"上海新国际博览中心","lon":"121.560756","lat":"31.198895","category":"500","category_name":"未知分类","address":"上海市 龙阳路"},{"poiid":"B2094751DA64A6FA4493","title":"香港广场","lon":"121.563795","lat":"31.19881","category":"249","category_name":"购物服务","address":"淮海中路"},{"poiid":"B2094750D768A7F44092","title":"超级鸡车(龙阳路店)","lon":"121.563","lat":"31.2021","category":"68","category_name":"快餐厅","address":"浦东新区龙阳路2000号107室(近地铁7号线龙阳路站)"},{"poiid":"B2094757D06BA2FE449B","title":"芳雅苑","lon":"121.56347","lat":"31.196285","category":"252","category_name":"楼宇机构","address":"芳华路630弄，芳华路660弄"},{"poiid":"B2094757D068A6FF469F","title":"培花小区","lon":"121.56798767714","lat":"31.201315129402","category":"500","category_name":"未知分类","address":"上海白杨路芳草路"},{"poiid":"B2094655D36CA6F9419E","title":"芳华路申波路","lon":"121.56275","lat":"31.19632","category":"38","category_name":"公交车站","address":""},{"poiid":"B2094757D06FA7F54898","title":"上海轨道交通龙阳路实训基地","lon":"121.562013193","lat":"31.2046851723","category":"190","category_name":"培训机构","address":"上海浦东龙阳路2520号"},{"poiid":"B2094757D465A4FD479E","title":"重庆鸡公煲 芳华路店","lon":"121.560450054","lat":"31.196370793","category":"247","category_name":"餐饮美食","address":"浦东新区芳华路861号(近629路终点站)"},{"poiid":"B2094655D26FA6FD4198","title":"上海新国际博览中心(西二门)","lon":"121.56411","lat":"31.20592","category":"183","category_name":"展览馆","address":""},{"poiid":"B2094757D664A4F9489F","title":"重庆吴记麻辣烫","lon":"121.56213","lat":"31.196484","category":"68","category_name":"快餐厅","address":"浦东新区芳华路580弄对面(芳华路申波路)"},{"poiid":"B2094655D268A3F44193","title":"棒约翰(银霄路)","lon":"121.55907","lat":"31.20515","category":"68","category_name":"快餐厅","address":""},{"poiid":"B2094654DA6AA5F8489C","title":"华新杂货店(芳华路)","lon":"121.56398","lat":"31.19662","category":"117","category_name":"便民商店/便利店","address":""},{"poiid":"B2094654DA6AA0FF489A","title":"花木久远小区","lon":"121.56032","lat":"31.19588","category":"47","category_name":"住宅区","address":"芳华路478弄1-86号"},{"poiid":"B2094757D06FA5FF429B","title":"百安居(浦东店)","lon":"121.55992573","lat":"31.204291906","category":"123","category_name":"家具建材市场","address":"浦东新区银霄路393号(龙阳路地铁站)"},{"poiid":"B209475CDA6AAAFE409E","title":"磁悬浮列车","lon":"121.56198","lat":"31.20154","category":"607","category_name":"一般景点","address":"上海磁悬浮列车地址：磁浮龙阳路站在龙阳路2100号。磁浮机场站在上海浦东国际机场候机楼东侧。"},{"poiid":"B2094654DA6AA0FF499C","title":"申波苑","lon":"121.56185","lat":"31.195436","category":"47","category_name":"住宅区","address":"申波路83弄1-21号"},{"poiid":"B2094757D165A2F84092","title":"上海市進網作業電工培訓中心","lon":"121.56517028","lat":"31.202036674","category":"253","category_name":"校园生活","address":"上海蘭花路236號"},{"poiid":"B2094752D76EA4F5419A","title":"浦东国际机场T2","lon":"121.560965","lat":"31.199975","category":"252","category_name":"楼宇机构","address":null},{"poiid":"B2094655D36CA1FF4999","title":"龙阳路地铁站","lon":"121.55906","lat":"31.20345","category":"36","category_name":"地铁站","address":""},{"poiid":"B2094757D068A4F54298","title":"上海新国际展览中心","lon":"121.56696397","lat":"31.207406526","category":"183","category_name":"展览馆","address":"上海金桥路"},{"poiid":"B2094655D264A6FE429D","title":"磁浮龙阳路站","lon":"121.55832","lat":"31.2024","category":"251","category_name":"出行住宿","address":"上海磁浮线 磁悬浮 龙阳路"},{"poiid":"B2094757D66FA6FA489A","title":"麦当劳(龙阳路店)","lon":"121.55834","lat":"31.20304","category":"68","category_name":"快餐厅","address":"浦东新区龙阳路2345号新国际展览中心W4馆2楼(近芳甸路)"},{"poiid":"B2094655D26AA0F9479E","title":"地铁龙阳路站","lon":"121.55769","lat":"31.20329","category":"36","category_name":"地铁站","address":""},{"poiid":"B2094655D26EA6F4459F","title":"迪卡侬(花木店)","lon":"121.55962","lat":"31.20538","category":"248","category_name":"生活娱乐","address":"浦东新区银霄路393号(龙阳路)"},{"poiid":"B2094757D069A2F84298","title":"上海轨道交通龙阳路基地","lon":"121.56873208","lat":"31.2043952824","category":"260","category_name":"其他","address":"上海市浦东新区龙阳路2520号"},{"poiid":"B2094757D06FA2F8499D","title":"中国建设银行上海市分行培训中心","lon":"121.56188201","lat":"31.192485809","category":"150","category_name":"银行","address":"上海申波路292号"},{"poiid":"B2094757D06FA2FD489D","title":"85度C(龙阳地铁站店)","lon":"121.557519452","lat":"31.2033092315","category":"67","category_name":"甜品店","address":"浦东新区龙阳路2100号底层126-127室商铺(近白杨路)"},{"poiid":"B2094757D06FA1F44492","title":"味千拉面 龙阳路店","lon":"121.55777","lat":"31.20364","category":"95","category_name":"日本料理","address":"龙阳路2100号1楼128,130室商铺"},{"poiid":"B2094757D068A7F9469F","title":"龙阳路地铁站站(公交581,798,975,969,方川,东川,桥六)","lon":"121.556909","lat":"31.199984","category":"38","category_name":"公交车站","address":"上海浦东新区白杨路龙汇路"},{"poiid":"B2094757DB6CA7FE419B","title":"地铁2号线龙阳路站","lon":"121.564178","lat":"31.20425","category":"627","category_name":"一般地点标志","address":"地铁2号线龙阳路站"},{"poiid":"B2094757D06FA7F8419C","title":"肯德基 KFC (龙阳店)","lon":"121.55788461","lat":"31.203098326","category":"68","category_name":"快餐厅","address":"浦东新区龙阳路2000号轨道交通二号线龙阳路站2号口(近白杨路)"},{"poiid":"B2094757D06AA1FE479E","title":"迪卡侬(龙阳路店)","lon":"121.56047797","lat":"31.204747464","category":"500","category_name":"未知分类","address":"上海龙阳路"},{"poiid":"B2094654DA6AA0FF4593","title":"聚龙家园","lon":"121.56866","lat":"31.196918","category":"47","category_name":"住宅区","address":"上海浦东新区芳华路916弄"},{"poiid":"B2094757D06FAAF8489F","title":"中国建设银行信用卡中心","lon":"121.56121797","lat":"31.193057191","category":"150","category_name":"银行","address":"上海申波路292号"},{"poiid":"B2094655D36DA6FD499D","title":"龙阳路","lon":"121.55769","lat":"31.20328","category":"38","category_name":"公交车站","address":"磁悬浮"},{"poiid":"B2094757D068ABFF489D","title":"天天渔港(永达店)","lon":"121.563","lat":"31.20427","category":"72","category_name":"广东菜","address":"浦东新区龙阳路2277号(兰花路石楠路)"},{"poiid":"B2094654DA6AA0FF4392","title":"龙沟新苑","lon":"121.56876","lat":"31.197325","category":"47","category_name":"住宅区","address":"芳华路933弄1-86号"},{"poiid":"B2094757D569A1FE4798","title":"喜马拉雅中心写字楼","lon":"121.5632489","lat":"31.20755278","category":"46","category_name":"楼宇","address":"芳甸路1188弄"},{"poiid":"B2094757D56CA1FD4999","title":"兄弟盱眙龙虾 芳华路店","lon":"121.55951","lat":"31.19597","category":"68","category_name":"快餐厅","address":"浦东新区芳华路452号(近乔家栅)"},{"poiid":"B2094757D069A1F44299","title":"天豪大酒店 龙阳店","lon":"121.55444","lat":"31.19971","category":"76","category_name":"上海菜","address":"浦东新区白杨路608号(近龙汇路)"},{"poiid":"B2094757D068A5F5439C","title":"永和大王(龙阳路店)","lon":"121.55858","lat":"31.20208","category":"68","category_name":"快餐厅","address":"浦东新区龙阳路2000号101室(近地铁站磁悬浮站)"},{"poiid":"B2094655D36CA6F94298","title":"芳华路白杨路","lon":"121.55869","lat":"31.19595","category":"38","category_name":"公交车站","address":""},{"poiid":"B2094757D068A7F4439E","title":"唐韵秦风 龙汇路店","lon":"121.55443","lat":"31.19975","category":"84","category_name":"西北菜","address":"浦东新区龙汇路300号新都汇美食广场115-116号(近白杨路)"},{"poiid":"B2094757D06AA0FA469B","title":"龙阳路龙汇路站(龙港快线,龙芦线,龙东线,龙临线,龙滨线,龙平芦线,龙新芦线,龙大线)","lon":"121.55931861","lat":"31.2029143223","category":"38","category_name":"公交车站","address":"上海市浦东新区龙阳路龙汇路"},{"poiid":"B2094757D665A0FB489F","title":"DQ冰雪皇后 银霄路店 Dairy Queen","lon":"121.558800054","lat":"31.205117793","category":"113","category_name":"冷饮店","address":"浦东新区银霄路393号(近百安居)"},{"poiid":"B2094752D36EA2FD439E","title":"上海浦东机场","lon":"121.562057","lat":"31.194992","category":"500","category_name":"未知分类","address":null},{"poiid":"B2094757D164AAFD469A","title":"上海处男集散中心","lon":"121.57037727","lat":"31.200664069","category":"500","category_name":"未知分类","address":"上海lallaa"},{"poiid":"B2094757D664ABFC4093","title":"绝味鸭脖 申波路店","lon":"121.564841054","lat":"31.196708793","category":"68","category_name":"快餐厅","address":"浦东新区申波路61号(芳华路口)"},{"poiid":"B2094750D26EAAFE4099","title":"健康煮 喜玛拉雅中心店","lon":"121.56232595444","lat":"31.208066616211","category":"86","category_name":"火锅店","address":"浦东新区芳甸路1188弄喜玛拉雅中心B1楼(近芳甸路)"},{"poiid":"B2094654DB6BABFA449B","title":"上海新国际博览中心(南门)","lon":"121.5652","lat":"31.20455","category":"183","category_name":"展览馆","address":"龙阳路2345"},{"poiid":"B2094752DA6FA7FF489C","title":"上海新国际博览中心","lon":"121.560756","lat":"31.198895","category":"500","category_name":"未知分类","address":"上海市 龙阳路"},{"poiid":"B2094751DA64A6FA4493","title":"香港广场","lon":"121.563795","lat":"31.19881","category":"249","category_name":"购物服务","address":"淮海中路"},{"poiid":"B2094750D768A7F44092","title":"超级鸡车(龙阳路店)","lon":"121.563","lat":"31.2021","category":"68","category_name":"快餐厅","address":"浦东新区龙阳路2000号107室(近地铁7号线龙阳路站)"},{"poiid":"B2094757D06BA2FE449B","title":"芳雅苑","lon":"121.56347","lat":"31.196285","category":"252","category_name":"楼宇机构","address":"芳华路630弄，芳华路660弄"},{"poiid":"B2094757D068A6FF469F","title":"培花小区","lon":"121.56798767714","lat":"31.201315129402","category":"500","category_name":"未知分类","address":"上海白杨路芳草路"},{"poiid":"B2094655D36CA6F9419E","title":"芳华路申波路","lon":"121.56275","lat":"31.19632","category":"38","category_name":"公交车站","address":""},{"poiid":"B2094757D06FA7F54898","title":"上海轨道交通龙阳路实训基地","lon":"121.562013193","lat":"31.2046851723","category":"190","category_name":"培训机构","address":"上海浦东龙阳路2520号"},{"poiid":"B2094757D465A4FD479E","title":"重庆鸡公煲 芳华路店","lon":"121.560450054","lat":"31.196370793","category":"247","category_name":"餐饮美食","address":"浦东新区芳华路861号(近629路终点站)"},{"poiid":"B2094655D26FA6FD4198","title":"上海新国际博览中心(西二门)","lon":"121.56411","lat":"31.20592","category":"183","category_name":"展览馆","address":""},{"poiid":"B2094757D664A4F9489F","title":"重庆吴记麻辣烫","lon":"121.56213","lat":"31.196484","category":"68","category_name":"快餐厅","address":"浦东新区芳华路580弄对面(芳华路申波路)"},{"poiid":"B2094655D268A3F44193","title":"棒约翰(银霄路)","lon":"121.55907","lat":"31.20515","category":"68","category_name":"快餐厅","address":""},{"poiid":"B2094654DA6AA5F8489C","title":"华新杂货店(芳华路)","lon":"121.56398","lat":"31.19662","category":"117","category_name":"便民商店/便利店","address":""},{"poiid":"B2094654DA6AA0FF489A","title":"花木久远小区","lon":"121.56032","lat":"31.19588","category":"47","category_name":"住宅区","address":"芳华路478弄1-86号"},{"poiid":"B2094757D06FA5FF429B","title":"百安居(浦东店)","lon":"121.55992573","lat":"31.204291906","category":"123","category_name":"家具建材市场","address":"浦东新区银霄路393号(龙阳路地铁站)"},{"poiid":"B209475CDA6AAAFE409E","title":"磁悬浮列车","lon":"121.56198","lat":"31.20154","category":"607","category_name":"一般景点","address":"上海磁悬浮列车地址：磁浮龙阳路站在龙阳路2100号。磁浮机场站在上海浦东国际机场候机楼东侧。"},{"poiid":"B2094654DA6AA0FF499C","title":"申波苑","lon":"121.56185","lat":"31.195436","category":"47","category_name":"住宅区","address":"申波路83弄1-21号"},{"poiid":"B2094757D165A2F84092","title":"上海市進網作業電工培訓中心","lon":"121.56517028","lat":"31.202036674","category":"253","category_name":"校园生活","address":"上海蘭花路236號"},{"poiid":"B2094752D76EA4F5419A","title":"浦东国际机场T2","lon":"121.560965","lat":"31.199975","category":"252","category_name":"楼宇机构","address":null},{"poiid":"B2094655D36CA1FF4999","title":"龙阳路地铁站","lon":"121.55906","lat":"31.20345","category":"36","category_name":"地铁站","address":""},{"poiid":"B2094757D068A4F54298","title":"上海新国际展览中心","lon":"121.56696397","lat":"31.207406526","category":"183","category_name":"展览馆","address":"上海金桥路"},{"poiid":"B2094655D264A6FE429D","title":"磁浮龙阳路站","lon":"121.55832","lat":"31.2024","category":"251","category_name":"出行住宿","address":"上海磁浮线 磁悬浮 龙阳路"},{"poiid":"B2094757D66FA6FA489A","title":"麦当劳(龙阳路店)","lon":"121.55834","lat":"31.20304","category":"68","category_name":"快餐厅","address":"浦东新区龙阳路2345号新国际展览中心W4馆2楼(近芳甸路)"},{"poiid":"B2094655D26AA0F9479E","title":"地铁龙阳路站","lon":"121.55769","lat":"31.20329","category":"36","category_name":"地铁站","address":""},{"poiid":"B2094655D26EA6F4459F","title":"迪卡侬(花木店)","lon":"121.55962","lat":"31.20538","category":"248","category_name":"生活娱乐","address":"浦东新区银霄路393号(龙阳路)"},{"poiid":"B2094757D069A2F84298","title":"上海轨道交通龙阳路基地","lon":"121.56873208","lat":"31.2043952824","category":"260","category_name":"其他","address":"上海市浦东新区龙阳路2520号"},{"poiid":"B2094757D06FA2F8499D","title":"中国建设银行上海市分行培训中心","lon":"121.56188201","lat":"31.192485809","category":"150","category_name":"银行","address":"上海申波路292号"},{"poiid":"B2094757D06FA2FD489D","title":"85度C(龙阳地铁站店)","lon":"121.557519452","lat":"31.2033092315","category":"67","category_name":"甜品店","address":"浦东新区龙阳路2100号底层126-127室商铺(近白杨路)"},{"poiid":"B2094757D06FA1F44492","title":"味千拉面 龙阳路店","lon":"121.55777","lat":"31.20364","category":"95","category_name":"日本料理","address":"龙阳路2100号1楼128,130室商铺"},{"poiid":"B2094757D068A7F9469F","title":"龙阳路地铁站站(公交581,798,975,969,方川,东川,桥六)","lon":"121.556909","lat":"31.199984","category":"38","category_name":"公交车站","address":"上海浦东新区白杨路龙汇路"},{"poiid":"B2094757DB6CA7FE419B","title":"地铁2号线龙阳路站","lon":"121.564178","lat":"31.20425","category":"627","category_name":"一般地点标志","address":"地铁2号线龙阳路站"},{"poiid":"B2094757D06FA7F8419C","title":"肯德基 KFC (龙阳店)","lon":"121.55788461","lat":"31.203098326","category":"68","category_name":"快餐厅","address":"浦东新区龙阳路2000号轨道交通二号线龙阳路站2号口(近白杨路)"},{"poiid":"B2094757D06AA1FE479E","title":"迪卡侬(龙阳路店)","lon":"121.56047797","lat":"31.204747464","category":"500","category_name":"未知分类","address":"上海龙阳路"},{"poiid":"B2094654DA6AA0FF4593","title":"聚龙家园","lon":"121.56866","lat":"31.196918","category":"47","category_name":"住宅区","address":"上海浦东新区芳华路916弄"},{"poiid":"B2094757D06FAAF8489F","title":"中国建设银行信用卡中心","lon":"121.56121797","lat":"31.193057191","category":"150","category_name":"银行","address":"上海申波路292号"},{"poiid":"B2094655D36DA6FD499D","title":"龙阳路","lon":"121.55769","lat":"31.20328","category":"38","category_name":"公交车站","address":"磁悬浮"},{"poiid":"B2094757D068ABFF489D","title":"天天渔港(永达店)","lon":"121.563","lat":"31.20427","category":"72","category_name":"广东菜","address":"浦东新区龙阳路2277号(兰花路石楠路)"},{"poiid":"B2094654DA6AA0FF4392","title":"龙沟新苑","lon":"121.56876","lat":"31.197325","category":"47","category_name":"住宅区","address":"芳华路933弄1-86号"},{"poiid":"B2094757D569A1FE4798","title":"喜马拉雅中心写字楼","lon":"121.5632489","lat":"31.20755278","category":"46","category_name":"楼宇","address":"芳甸路1188弄"},{"poiid":"B2094757D56CA1FD4999","title":"兄弟盱眙龙虾 芳华路店","lon":"121.55951","lat":"31.19597","category":"68","category_name":"快餐厅","address":"浦东新区芳华路452号(近乔家栅)"},{"poiid":"B2094757D069A1F44299","title":"天豪大酒店 龙阳店","lon":"121.55444","lat":"31.19971","category":"76","category_name":"上海菜","address":"浦东新区白杨路608号(近龙汇路)"},{"poiid":"B2094757D068A5F5439C","title":"永和大王(龙阳路店)","lon":"121.55858","lat":"31.20208","category":"68","category_name":"快餐厅","address":"浦东新区龙阳路2000号101室(近地铁站磁悬浮站)"},{"poiid":"B2094655D36CA6F94298","title":"芳华路白杨路","lon":"121.55869","lat":"31.19595","category":"38","category_name":"公交车站","address":""},{"poiid":"B2094757D068A7F4439E","title":"唐韵秦风 龙汇路店","lon":"121.55443","lat":"31.19975","category":"84","category_name":"西北菜","address":"浦东新区龙汇路300号新都汇美食广场115-116号(近白杨路)"},{"poiid":"B2094757D06AA0FA469B","title":"龙阳路龙汇路站(龙港快线,龙芦线,龙东线,龙临线,龙滨线,龙平芦线,龙新芦线,龙大线)","lon":"121.55931861","lat":"31.2029143223","category":"38","category_name":"公交车站","address":"上海市浦东新区龙阳路龙汇路"},{"poiid":"B2094757D665A0FB489F","title":"DQ冰雪皇后 银霄路店 Dairy Queen","lon":"121.558800054","lat":"31.205117793","category":"113","category_name":"冷饮店","address":"浦东新区银霄路393号(近百安居)"},{"poiid":"B2094752D36EA2FD439E","title":"上海浦东机场","lon":"121.562057","lat":"31.194992","category":"500","category_name":"未知分类","address":null},{"poiid":"B2094757D164AAFD469A","title":"上海处男集散中心","lon":"121.57037727","lat":"31.200664069","category":"500","category_name":"未知分类","address":"上海lallaa"},{"poiid":"B2094757D664ABFC4093","title":"绝味鸭脖 申波路店","lon":"121.564841054","lat":"31.196708793","category":"68","category_name":"快餐厅","address":"浦东新区申波路61号(芳华路口)"},{"poiid":"B2094750D26EAAFE4099","title":"健康煮 喜玛拉雅中心店","lon":"121.56232595444","lat":"31.208066616211","category":"86","category_name":"火锅店","address":"浦东新区芳甸路1188弄喜玛拉雅中心B1楼(近芳甸路)"},{"poiid":"B2094654DB6BABFA449B","title":"上海新国际博览中心(南门)","lon":"121.5652","lat":"31.20455","category":"183","category_name":"展览馆","address":"龙阳路2345"},{"poiid":"B2094752DA6FA7FF489C","title":"上海新国际博览中心","lon":"121.560756","lat":"31.198895","category":"500","category_name":"未知分类","address":"上海市 龙阳路"},{"poiid":"B2094751DA64A6FA4493","title":"香港广场","lon":"121.563795","lat":"31.19881","category":"249","category_name":"购物服务","address":"淮海中路"},{"poiid":"B2094750D768A7F44092","title":"超级鸡车(龙阳路店)","lon":"121.563","lat":"31.2021","category":"68","category_name":"快餐厅","address":"浦东新区龙阳路2000号107室(近地铁7号线龙阳路站)"},{"poiid":"B2094757D06BA2FE449B","title":"芳雅苑","lon":"121.56347","lat":"31.196285","category":"252","category_name":"楼宇机构","address":"芳华路630弄，芳华路660弄"},{"poiid":"B2094757D068A6FF469F","title":"培花小区","lon":"121.56798767714","lat":"31.201315129402","category":"500","category_name":"未知分类","address":"上海白杨路芳草路"},{"poiid":"B2094655D36CA6F9419E","title":"芳华路申波路","lon":"121.56275","lat":"31.19632","category":"38","category_name":"公交车站","address":""},{"poiid":"B2094757D06FA7F54898","title":"上海轨道交通龙阳路实训基地","lon":"121.562013193","lat":"31.2046851723","category":"190","category_name":"培训机构","address":"上海浦东龙阳路2520号"},{"poiid":"B2094757D465A4FD479E","title":"重庆鸡公煲 芳华路店","lon":"121.560450054","lat":"31.196370793","category":"247","category_name":"餐饮美食","address":"浦东新区芳华路861号(近629路终点站)"},{"poiid":"B2094655D26FA6FD4198","title":"上海新国际博览中心(西二门)","lon":"121.56411","lat":"31.20592","category":"183","category_name":"展览馆","address":""},{"poiid":"B2094757D664A4F9489F","title":"重庆吴记麻辣烫","lon":"121.56213","lat":"31.196484","category":"68","category_name":"快餐厅","address":"浦东新区芳华路580弄对面(芳华路申波路)"},{"poiid":"B2094655D268A3F44193","title":"棒约翰(银霄路)","lon":"121.55907","lat":"31.20515","category":"68","category_name":"快餐厅","address":""},{"poiid":"B2094654DA6AA5F8489C","title":"华新杂货店(芳华路)","lon":"121.56398","lat":"31.19662","category":"117","category_name":"便民商店/便利店","address":""},{"poiid":"B2094654DA6AA0FF489A","title":"花木久远小区","lon":"121.56032","lat":"31.19588","category":"47","category_name":"住宅区","address":"芳华路478弄1-86号"},{"poiid":"B2094757D06FA5FF429B","title":"百安居(浦东店)","lon":"121.55992573","lat":"31.204291906","category":"123","category_name":"家具建材市场","address":"浦东新区银霄路393号(龙阳路地铁站)"},{"poiid":"B209475CDA6AAAFE409E","title":"磁悬浮列车","lon":"121.56198","lat":"31.20154","category":"607","category_name":"一般景点","address":"上海磁悬浮列车地址：磁浮龙阳路站在龙阳路2100号。磁浮机场站在上海浦东国际机场候机楼东侧。"},{"poiid":"B2094654DA6AA0FF499C","title":"申波苑","lon":"121.56185","lat":"31.195436","category":"47","category_name":"住宅区","address":"申波路83弄1-21号"},{"poiid":"B2094757D165A2F84092","title":"上海市進網作業電工培訓中心","lon":"121.56517028","lat":"31.202036674","category":"253","category_name":"校园生活","address":"上海蘭花路236號"},{"poiid":"B2094752D76EA4F5419A","title":"浦东国际机场T2","lon":"121.560965","lat":"31.199975","category":"252","category_name":"楼宇机构","address":null},{"poiid":"B2094655D36CA1FF4999","title":"龙阳路地铁站","lon":"121.55906","lat":"31.20345","category":"36","category_name":"地铁站","address":""},{"poiid":"B2094757D068A4F54298","title":"上海新国际展览中心","lon":"121.56696397","lat":"31.207406526","category":"183","category_name":"展览馆","address":"上海金桥路"},{"poiid":"B2094655D264A6FE429D","title":"磁浮龙阳路站","lon":"121.55832","lat":"31.2024","category":"251","category_name":"出行住宿","address":"上海磁浮线 磁悬浮 龙阳路"},{"poiid":"B2094757D66FA6FA489A","title":"麦当劳(龙阳路店)","lon":"121.55834","lat":"31.20304","category":"68","category_name":"快餐厅","address":"浦东新区龙阳路2345号新国际展览中心W4馆2楼(近芳甸路)"},{"poiid":"B2094655D26AA0F9479E","title":"地铁龙阳路站","lon":"121.55769","lat":"31.20329","category":"36","category_name":"地铁站","address":""},{"poiid":"B2094655D26EA6F4459F","title":"迪卡侬(花木店)","lon":"121.55962","lat":"31.20538","category":"248","category_name":"生活娱乐","address":"浦东新区银霄路393号(龙阳路)"},{"poiid":"B2094757D069A2F84298","title":"上海轨道交通龙阳路基地","lon":"121.56873208","lat":"31.2043952824","category":"260","category_name":"其他","address":"上海市浦东新区龙阳路2520号"},{"poiid":"B2094757D06FA2F8499D","title":"中国建设银行上海市分行培训中心","lon":"121.56188201","lat":"31.192485809","category":"150","category_name":"银行","address":"上海申波路292号"},{"poiid":"B2094757D06FA2FD489D","title":"85度C(龙阳地铁站店)","lon":"121.557519452","lat":"31.2033092315","category":"67","category_name":"甜品店","address":"浦东新区龙阳路2100号底层126-127室商铺(近白杨路)"},{"poiid":"B2094757D06FA1F44492","title":"味千拉面 龙阳路店","lon":"121.55777","lat":"31.20364","category":"95","category_name":"日本料理","address":"龙阳路2100号1楼128,130室商铺"},{"poiid":"B2094757D068A7F9469F","title":"龙阳路地铁站站(公交581,798,975,969,方川,东川,桥六)","lon":"121.556909","lat":"31.199984","category":"38","category_name":"公交车站","address":"上海浦东新区白杨路龙汇路"},{"poiid":"B2094757DB6CA7FE419B","title":"地铁2号线龙阳路站","lon":"121.564178","lat":"31.20425","category":"627","category_name":"一般地点标志","address":"地铁2号线龙阳路站"},{"poiid":"B2094757D06FA7F8419C","title":"肯德基 KFC (龙阳店)","lon":"121.55788461","lat":"31.203098326","category":"68","category_name":"快餐厅","address":"浦东新区龙阳路2000号轨道交通二号线龙阳路站2号口(近白杨路)"},{"poiid":"B2094757D06AA1FE479E","title":"迪卡侬(龙阳路店)","lon":"121.56047797","lat":"31.204747464","category":"500","category_name":"未知分类","address":"上海龙阳路"},{"poiid":"B2094654DA6AA0FF4593","title":"聚龙家园","lon":"121.56866","lat":"31.196918","category":"47","category_name":"住宅区","address":"上海浦东新区芳华路916弄"},{"poiid":"B2094757D06FAAF8489F","title":"中国建设银行信用卡中心","lon":"121.56121797","lat":"31.193057191","category":"150","category_name":"银行","address":"上海申波路292号"},{"poiid":"B2094655D36DA6FD499D","title":"龙阳路","lon":"121.55769","lat":"31.20328","category":"38","category_name":"公交车站","address":"磁悬浮"},{"poiid":"B2094757D068ABFF489D","title":"天天渔港(永达店)","lon":"121.563","lat":"31.20427","category":"72","category_name":"广东菜","address":"浦东新区龙阳路2277号(兰花路石楠路)"},{"poiid":"B2094654DA6AA0FF4392","title":"龙沟新苑","lon":"121.56876","lat":"31.197325","category":"47","category_name":"住宅区","address":"芳华路933弄1-86号"},{"poiid":"B2094757D569A1FE4798","title":"喜马拉雅中心写字楼","lon":"121.5632489","lat":"31.20755278","category":"46","category_name":"楼宇","address":"芳甸路1188弄"},{"poiid":"B2094757D56CA1FD4999","title":"兄弟盱眙龙虾 芳华路店","lon":"121.55951","lat":"31.19597","category":"68","category_name":"快餐厅","address":"浦东新区芳华路452号(近乔家栅)"},{"poiid":"B2094757D069A1F44299","title":"天豪大酒店 龙阳店","lon":"121.55444","lat":"31.19971","category":"76","category_name":"上海菜","address":"浦东新区白杨路608号(近龙汇路)"},{"poiid":"B2094757D068A5F5439C","title":"永和大王(龙阳路店)","lon":"121.55858","lat":"31.20208","category":"68","category_name":"快餐厅","address":"浦东新区龙阳路2000号101室(近地铁站磁悬浮站)"},{"poiid":"B2094655D36CA6F94298","title":"芳华路白杨路","lon":"121.55869","lat":"31.19595","category":"38","category_name":"公交车站","address":""},{"poiid":"B2094757D068A7F4439E","title":"唐韵秦风 龙汇路店","lon":"121.55443","lat":"31.19975","category":"84","category_name":"西北菜","address":"浦东新区龙汇路300号新都汇美食广场115-116号(近白杨路)"},{"poiid":"B2094757D06AA0FA469B","title":"龙阳路龙汇路站(龙港快线,龙芦线,龙东线,龙临线,龙滨线,龙平芦线,龙新芦线,龙大线)","lon":"121.55931861","lat":"31.2029143223","category":"38","category_name":"公交车站","address":"上海市浦东新区龙阳路龙汇路"},{"poiid":"B2094757D665A0FB489F","title":"DQ冰雪皇后 银霄路店 Dairy Queen","lon":"121.558800054","lat":"31.205117793","category":"113","category_name":"冷饮店","address":"浦东新区银霄路393号(近百安居)"},{"poiid":"B2094752D36EA2FD439E","title":"上海浦东机场","lon":"121.562057","lat":"31.194992","category":"500","category_name":"未知分类","address":null},{"poiid":"B2094757D164AAFD469A","title":"上海处男集散中心","lon":"121.57037727","lat":"31.200664069","category":"500","category_name":"未知分类","address":"上海lallaa"},{"poiid":"B2094757D664ABFC4093","title":"绝味鸭脖 申波路店","lon":"121.564841054","lat":"31.196708793","category":"68","category_name":"快餐厅","address":"浦东新区申波路61号(芳华路口)"},{"poiid":"B2094750D26EAAFE4099","title":"健康煮 喜玛拉雅中心店","lon":"121.56232595444","lat":"31.208066616211","category":"86","category_name":"火锅店","address":"浦东新区芳甸路1188弄喜玛拉雅中心B1楼(近芳甸路)"},{"poiid":"B2094654DB6BABFA449B","title":"上海新国际博览中心(南门)","lon":"121.5652","lat":"31.20455","category":"183","category_name":"展览馆","address":"龙阳路2345"},{"poiid":"B2094752DA6FA7FF489C","title":"上海新国际博览中心","lon":"121.560756","lat":"31.198895","category":"500","category_name":"未知分类","address":"上海市 龙阳路"},{"poiid":"B2094751DA64A6FA4493","title":"香港广场","lon":"121.563795","lat":"31.19881","category":"249","category_name":"购物服务","address":"淮海中路"},{"poiid":"B2094750D768A7F44092","title":"超级鸡车(龙阳路店)","lon":"121.563","lat":"31.2021","category":"68","category_name":"快餐厅","address":"浦东新区龙阳路2000号107室(近地铁7号线龙阳路站)"},{"poiid":"B2094757D06BA2FE449B","title":"芳雅苑","lon":"121.56347","lat":"31.196285","category":"252","category_name":"楼宇机构","address":"芳华路630弄，芳华路660弄"},{"poiid":"B2094757D068A6FF469F","title":"培花小区","lon":"121.56798767714","lat":"31.201315129402","category":"500","category_name":"未知分类","address":"上海白杨路芳草路"},{"poiid":"B2094655D36CA6F9419E","title":"芳华路申波路","lon":"121.56275","lat":"31.19632","category":"38","category_name":"公交车站","address":""},{"poiid":"B2094757D06FA7F54898","title":"上海轨道交通龙阳路实训基地","lon":"121.562013193","lat":"31.2046851723","category":"190","category_name":"培训机构","address":"上海浦东龙阳路2520号"},{"poiid":"B2094757D465A4FD479E","title":"重庆鸡公煲 芳华路店","lon":"121.560450054","lat":"31.196370793","category":"247","category_name":"餐饮美食","address":"浦东新区芳华路861号(近629路终点站)"},{"poiid":"B2094655D26FA6FD4198","title":"上海新国际博览中心(西二门)","lon":"121.56411","lat":"31.20592","category":"183","category_name":"展览馆","address":""},{"poiid":"B2094757D664A4F9489F","title":"重庆吴记麻辣烫","lon":"121.56213","lat":"31.196484","category":"68","category_name":"快餐厅","address":"浦东新区芳华路580弄对面(芳华路申波路)"},{"poiid":"B2094655D268A3F44193","title":"棒约翰(银霄路)","lon":"121.55907","lat":"31.20515","category":"68","category_name":"快餐厅","address":""},{"poiid":"B2094654DA6AA5F8489C","title":"华新杂货店(芳华路)","lon":"121.56398","lat":"31.19662","category":"117","category_name":"便民商店/便利店","address":""},{"poiid":"B2094654DA6AA0FF489A","title":"花木久远小区","lon":"121.56032","lat":"31.19588","category":"47","category_name":"住宅区","address":"芳华路478弄1-86号"},{"poiid":"B2094757D06FA5FF429B","title":"百安居(浦东店)","lon":"121.55992573","lat":"31.204291906","category":"123","category_name":"家具建材市场","address":"浦东新区银霄路393号(龙阳路地铁站)"},{"poiid":"B209475CDA6AAAFE409E","title":"磁悬浮列车","lon":"121.56198","lat":"31.20154","category":"607","category_name":"一般景点","address":"上海磁悬浮列车地址：磁浮龙阳路站在龙阳路2100号。磁浮机场站在上海浦东国际机场候机楼东侧。"},{"poiid":"B2094654DA6AA0FF499C","title":"申波苑","lon":"121.56185","lat":"31.195436","category":"47","category_name":"住宅区","address":"申波路83弄1-21号"},{"poiid":"B2094757D165A2F84092","title":"上海市進網作業電工培訓中心","lon":"121.56517028","lat":"31.202036674","category":"253","category_name":"校园生活","address":"上海蘭花路236號"},{"poiid":"B2094752D76EA4F5419A","title":"浦东国际机场T2","lon":"121.560965","lat":"31.199975","category":"252","category_name":"楼宇机构","address":null}]