[{"poiid":"B2094757D069A6F44998","title":"明谷科技园","lon":"121.347367556","lat":"31.1373735461","category":"45","category_name":"产业园区","address":"上海中春路华茂路"},{"poiid":"B2094757D165A4FE4592","title":"上海悦隆酒店","lon":"121.34970983","lat":"31.132823085","category":"72","category_name":"广东菜","address":"上海闵行区中春路6699号(近华友路)"},{"poiid":"B2094757D06FA4F5459A","title":"三盛颐景园","lon":"121.33976","lat":"31.122334","category":"47","category_name":"住宅区","address":"松江区涞亭南路888弄(近顾戴路)"},{"poiid":"B2094757D16DA7FD419B","title":"象屿都城","lon":"121.338","lat":"31.1295","category":"47","category_name":"住宅区","address":"上海虬泾路851弄"},{"poiid":"B2094654DA64A7FB469B","title":"上海诗林","lon":"121.33868","lat":"31.13337","category":"47","category_name":"住宅区","address":"上海市松江区九亭镇九亭大街路181号"},{"poiid":"B2094757D66EA2FA4898","title":"凯斯国际宾馆","lon":"121.345081831","lat":"31.1413402693","category":"217","category_name":"旅馆招待所","address":"闵行区中春路7228号(近联民路)"},{"poiid":"B2094757D66EA4FD4498","title":"凯斯国际汽车用品中心商务楼","lon":"121.35054016","lat":"31.1391716","category":"500","category_name":"未知分类","address":"闵行区中春路7228号(近华茂路)"},{"poiid":"B2094655D26EAAFB409D","title":"碧林湾苑","lon":"121.35336","lat":"31.13963","category":"47","category_name":"住宅区","address":"闵行区中谊路888弄"},{"poiid":"B2094757D16FAAFC4093","title":"老北京涮羊肉","lon":"121.341167981","lat":"31.1331830931","category":"247","category_name":"餐饮美食","address":"松江区九亭镇虬泾路65号"},{"poiid":"B2094654DA64A4FB4298","title":"宝华花园","lon":"121.34855","lat":"31.131777","category":"47","category_name":"住宅区","address":"中春路6689弄"},{"poiid":"B2094654DA64A4F84298","title":"新上海弄里人家(涞亭南路)","lon":"121.33801","lat":"31.13126","category":"47","category_name":"住宅区","address":"上海近郊松江区九亭大街(近涞亭南路)"},{"poiid":"B2094757D068A2FB489A","title":"上海奥林匹克花园运动中心","lon":"121.33514404","lat":"31.145084381","category":"260","category_name":"其他","address":"上海沪淞公路"},{"poiid":"B2094654DB64A2FD499E","title":"嘉富丽花园","lon":"121.339","lat":"31.1331","category":"47","category_name":"住宅区","address":"上海市松江区松江沪亭南路85号"},{"poiid":"B2094752D365A3FF4098","title":"虹桥机场一号航站楼","lon":"121.351013","lat":"31.139806","category":"500","category_name":"未知分类","address":"上海市虹桥路2550号"},{"poiid":"B2094654DA64A7F44199","title":"九亭明珠苑(九亭大街)","lon":"121.3337","lat":"31.1314","category":"47","category_name":"住宅区","address":""},{"poiid":"B2094757D06AA4FD4193","title":"美丽星城","lon":"121.33378356218","lat":"31.14021382595","category":"500","category_name":"未知分类","address":"上海市松江区沪亭南路188号"},{"poiid":"B2094654DA64A6FD489F","title":"上海欧迪芬内衣精品有限公司","lon":"121.34303","lat":"31.13505","category":"263","category_name":"公司","address":""},{"poiid":"B2094757D568A1FD409A","title":"爱伦坡艺墅二期","lon":"121.34543460566","lat":"31.132710914973","category":"47","category_name":"住宅区","address":"上海市松江区涞亭南路599弄"},{"poiid":"B2094757D568A6F5469D","title":"福克斯商务大厦(中谊路)","lon":"121.34735786","lat":"31.13617025","category":"46","category_name":"楼宇","address":"中国上海市闵行区中谊路"},{"poiid":"B2094654DA64A0FC4292","title":"上海大学附属外国语中学","lon":"121.34035","lat":"31.12939","category":"55","category_name":"中学","address":"上海市松江区九亭镇涞亭南路559号"},{"poiid":"B2094654DA64A3FC419C","title":"上海凯斯国际汽车用品博览有限公司","lon":"121.34551","lat":"31.14116","category":"248","category_name":"生活娱乐","address":"中春路7210号1幢2层"},{"poiid":"B2094757D06AA3F5469F","title":"爱伦坡","lon":"121.343971831","lat":"31.1260349388","category":"47","category_name":"住宅区","address":"上海市松江区涞亭南路"},{"poiid":"B2094750D664ABFF4298","title":"重庆德庄火锅(涞亭南路店)","lon":"121.336","lat":"31.1357","category":"86","category_name":"火锅店","address":"松江区涞亭南路288号(近九亭大街)"},{"poiid":"B2094654DA64A4F84392","title":"九亭镇兴联中心村","lon":"121.338","lat":"31.135563","category":"47","category_name":"住宅区","address":"涞亭南路289弄"},{"poiid":"B2094655D265A7F44393","title":"莫泰168旅店九亭大街店","lon":"121.3347","lat":"31.13138","category":"216","category_name":"经济型连锁酒店","address":"松江区九亭镇九亭大街291-1号(近虬江路)"},{"poiid":"B2094654DA64A4FA469B","title":"上海七宝经济城","lon":"121.34698","lat":"31.13783","category":"45","category_name":"产业园区","address":"中春路7001号"},{"poiid":"B2094654DA64A7FB479B","title":"九亭派出所","lon":"121.33821","lat":"31.13364","category":"609","category_name":"警察局","address":"松江区九亭大街110"},{"poiid":"B2094757D568A1FB4993","title":"渔米之乡","lon":"121.33609","lat":"31.136178","category":"71","category_name":"四川菜","address":"松江区九亭涞亭南路191号"},{"poiid":"B2094655D36DA7FF469E","title":"中春路","lon":"121.34418","lat":"31.14329","category":"38","category_name":"公交车站","address":""},{"poiid":"B2094757D16DAAFF4399","title":"新上海花园洋房","lon":"121.33482283","lat":"31.136132156","category":"252","category_name":"楼宇机构","address":"新上海花园洋房(新上海里弄人家三期)位于松江涞亭南路290弄"},{"poiid":"B2094655D36CA0FC479A","title":"九亭大街上海里弄人家","lon":"121.33687","lat":"31.13269","category":"38","category_name":"公交车站","address":""},{"poiid":"B2094655D36DA7FF479A","title":"中春路联明路","lon":"121.34542","lat":"31.14092","category":"38","category_name":"公交车站","address":""},{"poiid":"B2094654DA64A7F4489E","title":"三品香","lon":"121.33066","lat":"31.13346","category":"70","category_name":"综合酒楼","address":"松江区九亭镇虬泾路102号"},{"poiid":"B2094757D168A2F44798","title":"咸丰酒店(九亭镇店)","lon":"121.32943","lat":"31.13206","category":"76","category_name":"上海菜","address":"松江区松江九亭镇九亭大街356号(近虬泾路)"},{"poiid":"B2094753D465A6F94493","title":"外滩18号","lon":"121.347198","lat":"31.134679","category":"500","category_name":"未知分类","address":"上海市 黄埔区中山东一路"},{"poiid":"B2094654DA64A7FB4592","title":"一品香骨头王火锅","lon":"121.33584","lat":"31.13192","category":"86","category_name":"火锅店","address":"松江区九亭大街(近涞亭南路)"},{"poiid":"B2094757D16FA3F8429A","title":"上海通锐马自达4S店","lon":"121.34955483","lat":"31.134320117","category":"500","category_name":"未知分类","address":"上海闵行区中春路6800号"},{"poiid":"B2094655D36DA7FF469D","title":"中春路华茂路","lon":"121.34896","lat":"31.13518","category":"38","category_name":"公交车站","address":""},{"poiid":"B2094654DA64A7FB479C","title":"克丽缇娜特许丽妍美容中心NO.14078","lon":"121.33673","lat":"31.13287","category":"148","category_name":"美容美发店","address":""},{"poiid":"B2094757D16FA7F44899","title":"宝都江鲜菜馆","lon":"121.33517","lat":"31.13784","category":"76","category_name":"上海菜","address":"松江区九亭镇涞亭南路153-161号(近伴亭路)"},{"poiid":"B2094654DA64A0FC439D","title":"半岛花园(涞亭南路)","lon":"121.33548","lat":"31.13747","category":"47","category_name":"住宅区","address":"涞亭南路169弄1-151号"},{"poiid":"B2094757D469A5F9459B","title":"两岸咖啡 松江店 C straits Cafe","lon":"121.3370721","lat":"31.1327315","category":"260","category_name":"其他","address":"松江区九亭大街233号(近涞亭南路)"},{"poiid":"B2094757D66DAAF8469F","title":"林德(中国)叉车有限公司上海分公司","lon":"121.344854831","lat":"31.1373211825","category":"500","category_name":"未知分类","address":"上海闵行区中春路7039弄88号-1"},{"poiid":"B2094654DA64A7FB4899","title":"好德(九亭大街)","lon":"121.33583","lat":"31.13274","category":"117","category_name":"便民商店/便利店","address":""},{"poiid":"B2094654DA64A0FC4293","title":"复地爱伦坡","lon":"121.34288","lat":"31.126865","category":"47","category_name":"住宅区","address":"涞亭南路559弄"},{"poiid":"B2094654DA64A7F5419C","title":"海德公寓","lon":"121.33403","lat":"31.129597","category":"47","category_name":"住宅区","address":"海德公寓位于松江九亭镇虬泾路189弄"},{"poiid":"B2094655D26AAAFC449D","title":"春申驾校","lon":"121.34867","lat":"31.12489","category":"192","category_name":"驾校","address":"闵行区顾戴路3288号(近顾黎路)"},{"poiid":"B2094757D664A4FC4392","title":"统扬饮食店","lon":"121.34513","lat":"31.14085","category":"91","category_name":"台湾菜","address":"闵行区中春路7227号(近华茂路)"},{"poiid":"B2094750D06DA5FC409D","title":"上海师范大学剑桥国际中心","lon":"121.34085","lat":"31.130056","category":"500","category_name":"未知分类","address":"涞亭南路559号"},{"poiid":"B2094757D064A5F8459D","title":"中春路","lon":"121.352059","lat":"31.1307","category":"500","category_name":"未知分类","address":"上海闵行区中春路6629号"},{"poiid":"B2094757D069A6F44998","title":"明谷科技园","lon":"121.347367556","lat":"31.1373735461","category":"45","category_name":"产业园区","address":"上海中春路华茂路"},{"poiid":"B2094757D165A4FE4592","title":"上海悦隆酒店","lon":"121.34970983","lat":"31.132823085","category":"72","category_name":"广东菜","address":"上海闵行区中春路6699号(近华友路)"},{"poiid":"B2094757D06FA4F5459A","title":"三盛颐景园","lon":"121.33976","lat":"31.122334","category":"47","category_name":"住宅区","address":"松江区涞亭南路888弄(近顾戴路)"},{"poiid":"B2094757D16DA7FD419B","title":"象屿都城","lon":"121.338","lat":"31.1295","category":"47","category_name":"住宅区","address":"上海虬泾路851弄"},{"poiid":"B2094654DA64A7FB469B","title":"上海诗林","lon":"121.33868","lat":"31.13337","category":"47","category_name":"住宅区","address":"上海市松江区九亭镇九亭大街路181号"},{"poiid":"B2094757D66EA2FA4898","title":"凯斯国际宾馆","lon":"121.345081831","lat":"31.1413402693","category":"217","category_name":"旅馆招待所","address":"闵行区中春路7228号(近联民路)"},{"poiid":"B2094757D66EA4FD4498","title":"凯斯国际汽车用品中心商务楼","lon":"121.35054016","lat":"31.1391716","category":"500","category_name":"未知分类","address":"闵行区中春路7228号(近华茂路)"},{"poiid":"B2094655D26EAAFB409D","title":"碧林湾苑","lon":"121.35336","lat":"31.13963","category":"47","category_name":"住宅区","address":"闵行区中谊路888弄"},{"poiid":"B2094757D16FAAFC4093","title":"老北京涮羊肉","lon":"121.341167981","lat":"31.1331830931","category":"247","category_name":"餐饮美食","address":"松江区九亭镇虬泾路65号"},{"poiid":"B2094654DA64A4FB4298","title":"宝华花园","lon":"121.34855","lat":"31.131777","category":"47","category_name":"住宅区","address":"中春路6689弄"},{"poiid":"B2094654DA64A4F84298","title":"新上海弄里人家(涞亭南路)","lon":"121.33801","lat":"31.13126","category":"47","category_name":"住宅区","address":"上海近郊松江区九亭大街(近涞亭南路)"},{"poiid":"B2094757D068A2FB489A","title":"上海奥林匹克花园运动中心","lon":"121.33514404","lat":"31.145084381","category":"260","category_name":"其他","address":"上海沪淞公路"},{"poiid":"B2094654DB64A2FD499E","title":"嘉富丽花园","lon":"121.339","lat":"31.1331","category":"47","category_name":"住宅区","address":"上海市松江区松江沪亭南路85号"},{"poiid":"B2094752D365A3FF4098","title":"虹桥机场一号航站楼","lon":"121.351013","lat":"31.139806","category":"500","category_name":"未知分类","address":"上海市虹桥路2550号"},{"poiid":"B2094654DA64A7F44199","title":"九亭明珠苑(九亭大街)","lon":"121.3337","lat":"31.1314","category":"47","category_name":"住宅区","address":""},{"poiid":"B2094757D06AA4FD4193","title":"美丽星城","lon":"121.33378356218","lat":"31.14021382595","category":"500","category_name":"未知分类","address":"上海市松江区沪亭南路188号"},{"poiid":"B2094654DA64A6FD489F","title":"上海欧迪芬内衣精品有限公司","lon":"121.34303","lat":"31.13505","category":"263","category_name":"公司","address":""},{"poiid":"B2094757D568A1FD409A","title":"爱伦坡艺墅二期","lon":"121.34543460566","lat":"31.132710914973","category":"47","category_name":"住宅区","address":"上海市松江区涞亭南路599弄"},{"poiid":"B2094757D568A6F5469D","title":"福克斯商务大厦(中谊路)","lon":"121.34735786","lat":"31.13617025","category":"46","category_name":"楼宇","address":"中国上海市闵行区中谊路"},{"poiid":"B2094654DA64A0FC4292","title":"上海大学附属外国语中学","lon":"121.34035","lat":"31.12939","category":"55","category_name":"中学","address":"上海市松江区九亭镇涞亭南路559号"},{"poiid":"B2094654DA64A3FC419C","title":"上海凯斯国际汽车用品博览有限公司","lon":"121.34551","lat":"31.14116","category":"248","category_name":"生活娱乐","address":"中春路7210号1幢2层"},{"poiid":"B2094757D06AA3F5469F","title":"爱伦坡","lon":"121.343971831","lat":"31.1260349388","category":"47","category_name":"住宅区","address":"上海市松江区涞亭南路"},{"poiid":"B2094750D664ABFF4298","title":"重庆德庄火锅(涞亭南路店)","lon":"121.336","lat":"31.1357","category":"86","category_name":"火锅店","address":"松江区涞亭南路288号(近九亭大街)"},{"poiid":"B2094654DA64A4F84392","title":"九亭镇兴联中心村","lon":"121.338","lat":"31.135563","category":"47","category_name":"住宅区","address":"涞亭南路289弄"},{"poiid":"B2094655D265A7F44393","title":"莫泰168旅店九亭大街店","lon":"121.3347","lat":"31.13138","category":"216","category_name":"经济型连锁酒店","address":"松江区九亭镇九亭大街291-1号(近虬江路)"},{"poiid":"B2094654DA64A4FA469B","title":"上海七宝经济城","lon":"121.34698","lat":"31.13783","category":"45","category_name":"产业园区","address":"中春路7001号"},{"poiid":"B2094654DA64A7FB479B","title":"九亭派出所","lon":"121.33821","lat":"31.13364","category":"609","category_name":"警察局","address":"松江区九亭大街110"},{"poiid":"B2094757D568A1FB4993","title":"渔米之乡","lon":"121.33609","lat":"31.136178","category":"71","category_name":"四川菜","address":"松江区九亭涞亭南路191号"},{"poiid":"B2094655D36DA7FF469E","title":"中春路","lon":"121.34418","lat":"31.14329","category":"38","category_name":"公交车站","address":""},{"poiid":"B2094757D16DAAFF4399","title":"新上海花园洋房","lon":"121.33482283","lat":"31.136132156","category":"252","category_name":"楼宇机构","address":"新上海花园洋房(新上海里弄人家三期)位于松江涞亭南路290弄"},{"poiid":"B2094655D36CA0FC479A","title":"九亭大街上海里弄人家","lon":"121.33687","lat":"31.13269","category":"38","category_name":"公交车站","address":""},{"poiid":"B2094655D36DA7FF479A","title":"中春路联明路","lon":"121.34542","lat":"31.14092","category":"38","category_name":"公交车站","address":""},{"poiid":"B2094654DA64A7F4489E","title":"三品香","lon":"121.33066","lat":"31.13346","category":"70","category_name":"综合酒楼","address":"松江区九亭镇虬泾路102号"},{"poiid":"B2094757D168A2F44798","title":"咸丰酒店(九亭镇店)","lon":"121.32943","lat":"31.13206","category":"76","category_name":"上海菜","address":"松江区松江九亭镇九亭大街356号(近虬泾路)"},{"poiid":"B2094753D465A6F94493","title":"外滩18号","lon":"121.347198","lat":"31.134679","category":"500","category_name":"未知分类","address":"上海市 黄埔区中山东一路"},{"poiid":"B2094654DA64A7FB4592","title":"一品香骨头王火锅","lon":"121.33584","lat":"31.13192","category":"86","category_name":"火锅店","address":"松江区九亭大街(近涞亭南路)"},{"poiid":"B2094757D16FA3F8429A","title":"上海通锐马自达4S店","lon":"121.34955483","lat":"31.134320117","category":"500","category_name":"未知分类","address":"上海闵行区中春路6800号"},{"poiid":"B2094655D36DA7FF469D","title":"中春路华茂路","lon":"121.34896","lat":"31.13518","category":"38","category_name":"公交车站","address":""},{"poiid":"B2094654DA64A7FB479C","title":"克丽缇娜特许丽妍美容中心NO.14078","lon":"121.33673","lat":"31.13287","category":"148","category_name":"美容美发店","address":""},{"poiid":"B2094757D16FA7F44899","title":"宝都江鲜菜馆","lon":"121.33517","lat":"31.13784","category":"76","category_name":"上海菜","address":"松江区九亭镇涞亭南路153-161号(近伴亭路)"},{"poiid":"B2094654DA64A0FC439D","title":"半岛花园(涞亭南路)","lon":"121.33548","lat":"31.13747","category":"47","category_name":"住宅区","address":"涞亭南路169弄1-151号"},{"poiid":"B2094757D469A5F9459B","title":"两岸咖啡 松江店 C straits Cafe","lon":"121.3370721","lat":"31.1327315","category":"260","category_name":"其他","address":"松江区九亭大街233号(近涞亭南路)"},{"poiid":"B2094757D66DAAF8469F","title":"林德(中国)叉车有限公司上海分公司","lon":"121.344854831","lat":"31.1373211825","category":"500","category_name":"未知分类","address":"上海闵行区中春路7039弄88号-1"},{"poiid":"B2094654DA64A7FB4899","title":"好德(九亭大街)","lon":"121.33583","lat":"31.13274","category":"117","category_name":"便民商店/便利店","address":""},{"poiid":"B2094654DA64A0FC4293","title":"复地爱伦坡","lon":"121.34288","lat":"31.126865","category":"47","category_name":"住宅区","address":"涞亭南路559弄"},{"poiid":"B2094654DA64A7F5419C","title":"海德公寓","lon":"121.33403","lat":"31.129597","category":"47","category_name":"住宅区","address":"海德公寓位于松江九亭镇虬泾路189弄"},{"poiid":"B2094655D26AAAFC449D","title":"春申驾校","lon":"121.34867","lat":"31.12489","category":"192","category_name":"驾校","address":"闵行区顾戴路3288号(近顾黎路)"},{"poiid":"B2094757D664A4FC4392","title":"统扬饮食店","lon":"121.34513","lat":"31.14085","category":"91","category_name":"台湾菜","address":"闵行区中春路7227号(近华茂路)"},{"poiid":"B2094750D06DA5FC409D","title":"上海师范大学剑桥国际中心","lon":"121.34085","lat":"31.130056","category":"500","category_name":"未知分类","address":"涞亭南路559号"},{"poiid":"B2094757D064A5F8459D","title":"中春路","lon":"121.352059","lat":"31.1307","category":"500","category_name":"未知分类","address":"上海闵行区中春路6629号"},{"poiid":"B2094757D069A6F44998","title":"明谷科技园","lon":"121.347367556","lat":"31.1373735461","category":"45","category_name":"产业园区","address":"上海中春路华茂路"},{"poiid":"B2094757D165A4FE4592","title":"上海悦隆酒店","lon":"121.34970983","lat":"31.132823085","category":"72","category_name":"广东菜","address":"上海闵行区中春路6699号(近华友路)"},{"poiid":"B2094757D06FA4F5459A","title":"三盛颐景园","lon":"121.33976","lat":"31.122334","category":"47","category_name":"住宅区","address":"松江区涞亭南路888弄(近顾戴路)"},{"poiid":"B2094757D16DA7FD419B","title":"象屿都城","lon":"121.338","lat":"31.1295","category":"47","category_name":"住宅区","address":"上海虬泾路851弄"},{"poiid":"B2094654DA64A7FB469B","title":"上海诗林","lon":"121.33868","lat":"31.13337","category":"47","category_name":"住宅区","address":"上海市松江区九亭镇九亭大街路181号"},{"poiid":"B2094757D66EA2FA4898","title":"凯斯国际宾馆","lon":"121.345081831","lat":"31.1413402693","category":"217","category_name":"旅馆招待所","address":"闵行区中春路7228号(近联民路)"},{"poiid":"B2094757D66EA4FD4498","title":"凯斯国际汽车用品中心商务楼","lon":"121.35054016","lat":"31.1391716","category":"500","category_name":"未知分类","address":"闵行区中春路7228号(近华茂路)"},{"poiid":"B2094655D26EAAFB409D","title":"碧林湾苑","lon":"121.35336","lat":"31.13963","category":"47","category_name":"住宅区","address":"闵行区中谊路888弄"},{"poiid":"B2094757D16FAAFC4093","title":"老北京涮羊肉","lon":"121.341167981","lat":"31.1331830931","category":"247","category_name":"餐饮美食","address":"松江区九亭镇虬泾路65号"},{"poiid":"B2094654DA64A4FB4298","title":"宝华花园","lon":"121.34855","lat":"31.131777","category":"47","category_name":"住宅区","address":"中春路6689弄"},{"poiid":"B2094654DA64A4F84298","title":"新上海弄里人家(涞亭南路)","lon":"121.33801","lat":"31.13126","category":"47","category_name":"住宅区","address":"上海近郊松江区九亭大街(近涞亭南路)"},{"poiid":"B2094757D068A2FB489A","title":"上海奥林匹克花园运动中心","lon":"121.33514404","lat":"31.145084381","category":"260","category_name":"其他","address":"上海沪淞公路"},{"poiid":"B2094654DB64A2FD499E","title":"嘉富丽花园","lon":"121.339","lat":"31.1331","category":"47","category_name":"住宅区","address":"上海市松江区松江沪亭南路85号"},{"poiid":"B2094752D365A3FF4098","title":"虹桥机场一号航站楼","lon":"121.351013","lat":"31.139806","category":"500","category_name":"未知分类","address":"上海市虹桥路2550号"},{"poiid":"B2094654DA64A7F44199","title":"九亭明珠苑(九亭大街)","lon":"121.3337","lat":"31.1314","category":"47","category_name":"住宅区","address":""},{"poiid":"B2094757D06AA4FD4193","title":"美丽星城","lon":"121.33378356218","lat":"31.14021382595","category":"500","category_name":"未知分类","address":"上海市松江区沪亭南路188号"},{"poiid":"B2094654DA64A6FD489F","title":"上海欧迪芬内衣精品有限公司","lon":"121.34303","lat":"31.13505","category":"263","category_name":"公司","address":""},{"poiid":"B2094757D568A1FD409A","title":"爱伦坡艺墅二期","lon":"121.34543460566","lat":"31.132710914973","category":"47","category_name":"住宅区","address":"上海市松江区涞亭南路599弄"},{"poiid":"B2094757D568A6F5469D","title":"福克斯商务大厦(中谊路)","lon":"121.34735786","lat":"31.13617025","category":"46","category_name":"楼宇","address":"中国上海市闵行区中谊路"},{"poiid":"B2094654DA64A0FC4292","title":"上海大学附属外国语中学","lon":"121.34035","lat":"31.12939","category":"55","category_name":"中学","address":"上海市松江区九亭镇涞亭南路559号"},{"poiid":"B2094654DA64A3FC419C","title":"上海凯斯国际汽车用品博览有限公司","lon":"121.34551","lat":"31.14116","category":"248","category_name":"生活娱乐","address":"中春路7210号1幢2层"},{"poiid":"B2094757D06AA3F5469F","title":"爱伦坡","lon":"121.343971831","lat":"31.1260349388","category":"47","category_name":"住宅区","address":"上海市松江区涞亭南路"},{"poiid":"B2094750D664ABFF4298","title":"重庆德庄火锅(涞亭南路店)","lon":"121.336","lat":"31.1357","category":"86","category_name":"火锅店","address":"松江区涞亭南路288号(近九亭大街)"},{"poiid":"B2094654DA64A4F84392","title":"九亭镇兴联中心村","lon":"121.338","lat":"31.135563","category":"47","category_name":"住宅区","address":"涞亭南路289弄"},{"poiid":"B2094655D265A7F44393","title":"莫泰168旅店九亭大街店","lon":"121.3347","lat":"31.13138","category":"216","category_name":"经济型连锁酒店","address":"松江区九亭镇九亭大街291-1号(近虬江路)"},{"poiid":"B2094654DA64A4FA469B","title":"上海七宝经济城","lon":"121.34698","lat":"31.13783","category":"45","category_name":"产业园区","address":"中春路7001号"},{"poiid":"B2094654DA64A7FB479B","title":"九亭派出所","lon":"121.33821","lat":"31.13364","category":"609","category_name":"警察局","address":"松江区九亭大街110"},{"poiid":"B2094757D568A1FB4993","title":"渔米之乡","lon":"121.33609","lat":"31.136178","category":"71","category_name":"四川菜","address":"松江区九亭涞亭南路191号"},{"poiid":"B2094655D36DA7FF469E","title":"中春路","lon":"121.34418","lat":"31.14329","category":"38","category_name":"公交车站","address":""},{"poiid":"B2094757D16DAAFF4399","title":"新上海花园洋房","lon":"121.33482283","lat":"31.136132156","category":"252","category_name":"楼宇机构","address":"新上海花园洋房(新上海里弄人家三期)位于松江涞亭南路290弄"},{"poiid":"B2094655D36CA0FC479A","title":"九亭大街上海里弄人家","lon":"121.33687","lat":"31.13269","category":"38","category_name":"公交车站","address":""},{"poiid":"B2094655D36DA7FF479A","title":"中春路联明路","lon":"121.34542","lat":"31.14092","category":"38","category_name":"公交车站","address":""},{"poiid":"B2094654DA64A7F4489E","title":"三品香","lon":"121.33066","lat":"31.13346","category":"70","category_name":"综合酒楼","address":"松江区九亭镇虬泾路102号"},{"poiid":"B2094757D168A2F44798","title":"咸丰酒店(九亭镇店)","lon":"121.32943","lat":"31.13206","category":"76","category_name":"上海菜","address":"松江区松江九亭镇九亭大街356号(近虬泾路)"},{"poiid":"B2094753D465A6F94493","title":"外滩18号","lon":"121.347198","lat":"31.134679","category":"500","category_name":"未知分类","address":"上海市 黄埔区中山东一路"},{"poiid":"B2094654DA64A7FB4592","title":"一品香骨头王火锅","lon":"121.33584","lat":"31.13192","category":"86","category_name":"火锅店","address":"松江区九亭大街(近涞亭南路)"},{"poiid":"B2094757D16FA3F8429A","title":"上海通锐马自达4S店","lon":"121.34955483","lat":"31.134320117","category":"500","category_name":"未知分类","address":"上海闵行区中春路6800号"},{"poiid":"B2094655D36DA7FF469D","title":"中春路华茂路","lon":"121.34896","lat":"31.13518","category":"38","category_name":"公交车站","address":""},{"poiid":"B2094654DA64A7FB479C","title":"克丽缇娜特许丽妍美容中心NO.14078","lon":"121.33673","lat":"31.13287","category":"148","category_name":"美容美发店","address":""},{"poiid":"B2094757D16FA7F44899","title":"宝都江鲜菜馆","lon":"121.33517","lat":"31.13784","category":"76","category_name":"上海菜","address":"松江区九亭镇涞亭南路153-161号(近伴亭路)"},{"poiid":"B2094654DA64A0FC439D","title":"半岛花园(涞亭南路)","lon":"121.33548","lat":"31.13747","category":"47","category_name":"住宅区","address":"涞亭南路169弄1-151号"},{"poiid":"B2094757D469A5F9459B","title":"两岸咖啡 松江店 C straits Cafe","lon":"121.3370721","lat":"31.1327315","category":"260","category_name":"其他","address":"松江区九亭大街233号(近涞亭南路)"},{"poiid":"B2094757D66DAAF8469F","title":"林德(中国)叉车有限公司上海分公司","lon":"121.344854831","lat":"31.1373211825","category":"500","category_name":"未知分类","address":"上海闵行区中春路7039弄88号-1"},{"poiid":"B2094654DA64A7FB4899","title":"好德(九亭大街)","lon":"121.33583","lat":"31.13274","category":"117","category_name":"便民商店/便利店","address":""},{"poiid":"B2094654DA64A0FC4293","title":"复地爱伦坡","lon":"121.34288","lat":"31.126865","category":"47","category_name":"住宅区","address":"涞亭南路559弄"},{"poiid":"B2094654DA64A7F5419C","title":"海德公寓","lon":"121.33403","lat":"31.129597","category":"47","category_name":"住宅区","address":"海德公寓位于松江九亭镇虬泾路189弄"},{"poiid":"B2094655D26AAAFC449D","title":"春申驾校","lon":"121.34867","lat":"31.12489","category":"192","category_name":"驾校","address":"闵行区顾戴路3288号(近顾黎路)"},{"poiid":"B2094757D664A4FC4392","title":"统扬饮食店","lon":"121.34513","lat":"31.14085","category":"91","category_name":"台湾菜","address":"闵行区中春路7227号(近华茂路)"},{"poiid":"B2094750D06DA5FC409D","title":"上海师范大学剑桥国际中心","lon":"121.34085","lat":"31.130056","category":"500","category_name":"未知分类","address":"涞亭南路559号"},{"poiid":"B2094757D064A5F8459D","title":"中春路","lon":"121.352059","lat":"31.1307","category":"500","category_name":"未知分类","address":"上海闵行区中春路6629号"},{"poiid":"B2094757D069A6F44998","title":"明谷科技园","lon":"121.347367556","lat":"31.1373735461","category":"45","category_name":"产业园区","address":"上海中春路华茂路"},{"poiid":"B2094757D165A4FE4592","title":"上海悦隆酒店","lon":"121.34970983","lat":"31.132823085","category":"72","category_name":"广东菜","address":"上海闵行区中春路6699号(近华友路)"},{"poiid":"B2094757D06FA4F5459A","title":"三盛颐景园","lon":"121.33976","lat":"31.122334","category":"47","category_name":"住宅区","address":"松江区涞亭南路888弄(近顾戴路)"},{"poiid":"B2094757D16DA7FD419B","title":"象屿都城","lon":"121.338","lat":"31.1295","category":"47","category_name":"住宅区","address":"上海虬泾路851弄"},{"poiid":"B2094654DA64A7FB469B","title":"上海诗林","lon":"121.33868","lat":"31.13337","category":"47","category_name":"住宅区","address":"上海市松江区九亭镇九亭大街路181号"},{"poiid":"B2094757D66EA2FA4898","title":"凯斯国际宾馆","lon":"121.345081831","lat":"31.1413402693","category":"217","category_name":"旅馆招待所","address":"闵行区中春路7228号(近联民路)"},{"poiid":"B2094757D66EA4FD4498","title":"凯斯国际汽车用品中心商务楼","lon":"121.35054016","lat":"31.1391716","category":"500","category_name":"未知分类","address":"闵行区中春路7228号(近华茂路)"},{"poiid":"B2094655D26EAAFB409D","title":"碧林湾苑","lon":"121.35336","lat":"31.13963","category":"47","category_name":"住宅区","address":"闵行区中谊路888弄"},{"poiid":"B2094757D16FAAFC4093","title":"老北京涮羊肉","lon":"121.341167981","lat":"31.1331830931","category":"247","category_name":"餐饮美食","address":"松江区九亭镇虬泾路65号"},{"poiid":"B2094654DA64A4FB4298","title":"宝华花园","lon":"121.34855","lat":"31.131777","category":"47","category_name":"住宅区","address":"中春路6689弄"},{"poiid":"B2094654DA64A4F84298","title":"新上海弄里人家(涞亭南路)","lon":"121.33801","lat":"31.13126","category":"47","category_name":"住宅区","address":"上海近郊松江区九亭大街(近涞亭南路)"},{"poiid":"B2094757D068A2FB489A","title":"上海奥林匹克花园运动中心","lon":"121.33514404","lat":"31.145084381","category":"260","category_name":"其他","address":"上海沪淞公路"},{"poiid":"B2094654DB64A2FD499E","title":"嘉富丽花园","lon":"121.339","lat":"31.1331","category":"47","category_name":"住宅区","address":"上海市松江区松江沪亭南路85号"},{"poiid":"B2094752D365A3FF4098","title":"虹桥机场一号航站楼","lon":"121.351013","lat":"31.139806","category":"500","category_name":"未知分类","address":"上海市虹桥路2550号"},{"poiid":"B2094654DA64A7F44199","title":"九亭明珠苑(九亭大街)","lon":"121.3337","lat":"31.1314","category":"47","category_name":"住宅区","address":""},{"poiid":"B2094757D06AA4FD4193","title":"美丽星城","lon":"121.33378356218","lat":"31.14021382595","category":"500","category_name":"未知分类","address":"上海市松江区沪亭南路188号"},{"poiid":"B2094654DA64A6FD489F","title":"上海欧迪芬内衣精品有限公司","lon":"121.34303","lat":"31.13505","category":"263","category_name":"公司","address":""},{"poiid":"B2094757D568A1FD409A","title":"爱伦坡艺墅二期","lon":"121.34543460566","lat":"31.132710914973","category":"47","category_name":"住宅区","address":"上海市松江区涞亭南路599弄"},{"poiid":"B2094757D568A6F5469D","title":"福克斯商务大厦(中谊路)","lon":"121.34735786","lat":"31.13617025","category":"46","category_name":"楼宇","address":"中国上海市闵行区中谊路"},{"poiid":"B2094654DA64A0FC4292","title":"上海大学附属外国语中学","lon":"121.34035","lat":"31.12939","category":"55","category_name":"中学","address":"上海市松江区九亭镇涞亭南路559号"},{"poiid":"B2094654DA64A3FC419C","title":"上海凯斯国际汽车用品博览有限公司","lon":"121.34551","lat":"31.14116","category":"248","category_name":"生活娱乐","address":"中春路7210号1幢2层"},{"poiid":"B2094757D06AA3F5469F","title":"爱伦坡","lon":"121.343971831","lat":"31.1260349388","category":"47","category_name":"住宅区","address":"上海市松江区涞亭南路"},{"poiid":"B2094750D664ABFF4298","title":"重庆德庄火锅(涞亭南路店)","lon":"121.336","lat":"31.1357","category":"86","category_name":"火锅店","address":"松江区涞亭南路288号(近九亭大街)"},{"poiid":"B2094654DA64A4F84392","title":"九亭镇兴联中心村","lon":"121.338","lat":"31.135563","category":"47","category_name":"住宅区","address":"涞亭南路289弄"},{"poiid":"B2094655D265A7F44393","title":"莫泰168旅店九亭大街店","lon":"121.3347","lat":"31.13138","category":"216","category_name":"经济型连锁酒店","address":"松江区九亭镇九亭大街291-1号(近虬江路)"},{"poiid":"B2094654DA64A4FA469B","title":"上海七宝经济城","lon":"121.34698","lat":"31.13783","category":"45","category_name":"产业园区","address":"中春路7001号"},{"poiid":"B2094654DA64A7FB479B","title":"九亭派出所","lon":"121.33821","lat":"31.13364","category":"609","category_name":"警察局","address":"松江区九亭大街110"},{"poiid":"B2094757D568A1FB4993","title":"渔米之乡","lon":"121.33609","lat":"31.136178","category":"71","category_name":"四川菜","address":"松江区九亭涞亭南路191号"},{"poiid":"B2094655D36DA7FF469E","title":"中春路","lon":"121.34418","lat":"31.14329","category":"38","category_name":"公交车站","address":""},{"poiid":"B2094757D16DAAFF4399","title":"新上海花园洋房","lon":"121.33482283","lat":"31.136132156","category":"252","category_name":"楼宇机构","address":"新上海花园洋房(新上海里弄人家三期)位于松江涞亭南路290弄"},{"poiid":"B2094655D36CA0FC479A","title":"九亭大街上海里弄人家","lon":"121.33687","lat":"31.13269","category":"38","category_name":"公交车站","address":""},{"poiid":"B2094655D36DA7FF479A","title":"中春路联明路","lon":"121.34542","lat":"31.14092","category":"38","category_name":"公交车站","address":""},{"poiid":"B2094654DA64A7F4489E","title":"三品香","lon":"121.33066","lat":"31.13346","category":"70","category_name":"综合酒楼","address":"松江区九亭镇虬泾路102号"},{"poiid":"B2094757D168A2F44798","title":"咸丰酒店(九亭镇店)","lon":"121.32943","lat":"31.13206","category":"76","category_name":"上海菜","address":"松江区松江九亭镇九亭大街356号(近虬泾路)"},{"poiid":"B2094753D465A6F94493","title":"外滩18号","lon":"121.347198","lat":"31.134679","category":"500","category_name":"未知分类","address":"上海市 黄埔区中山东一路"},{"poiid":"B2094654DA64A7FB4592","title":"一品香骨头王火锅","lon":"121.33584","lat":"31.13192","category":"86","category_name":"火锅店","address":"松江区九亭大街(近涞亭南路)"},{"poiid":"B2094757D16FA3F8429A","title":"上海通锐马自达4S店","lon":"121.34955483","lat":"31.134320117","category":"500","category_name":"未知分类","address":"上海闵行区中春路6800号"},{"poiid":"B2094655D36DA7FF469D","title":"中春路华茂路","lon":"121.34896","lat":"31.13518","category":"38","category_name":"公交车站","address":""},{"poiid":"B2094654DA64A7FB479C","title":"克丽缇娜特许丽妍美容中心NO.14078","lon":"121.33673","lat":"31.13287","category":"148","category_name":"美容美发店","address":""},{"poiid":"B2094757D16FA7F44899","title":"宝都江鲜菜馆","lon":"121.33517","lat":"31.13784","category":"76","category_name":"上海菜","address":"松江区九亭镇涞亭南路153-161号(近伴亭路)"},{"poiid":"B2094654DA64A0FC439D","title":"半岛花园(涞亭南路)","lon":"121.33548","lat":"31.13747","category":"47","category_name":"住宅区","address":"涞亭南路169弄1-151号"},{"poiid":"B2094757D469A5F9459B","title":"两岸咖啡 松江店 C straits Cafe","lon":"121.3370721","lat":"31.1327315","category":"260","category_name":"其他","address":"松江区九亭大街233号(近涞亭南路)"},{"poiid":"B2094757D66DAAF8469F","title":"林德(中国)叉车有限公司上海分公司","lon":"121.344854831","lat":"31.1373211825","category":"500","category_name":"未知分类","address":"上海闵行区中春路7039弄88号-1"},{"poiid":"B2094654DA64A7FB4899","title":"好德(九亭大街)","lon":"121.33583","lat":"31.13274","category":"117","category_name":"便民商店/便利店","address":""},{"poiid":"B2094654DA64A0FC4293","title":"复地爱伦坡","lon":"121.34288","lat":"31.126865","category":"47","category_name":"住宅区","address":"涞亭南路559弄"},{"poiid":"B2094654DA64A7F5419C","title":"海德公寓","lon":"121.33403","lat":"31.129597","category":"47","category_name":"住宅区","address":"海德公寓位于松江九亭镇虬泾路189弄"},{"poiid":"B2094655D26AAAFC449D","title":"春申驾校","lon":"121.34867","lat":"31.12489","category":"192","category_name":"驾校","address":"闵行区顾戴路3288号(近顾黎路)"},{"poiid":"B2094757D664A4FC4392","title":"统扬饮食店","lon":"121.34513","lat":"31.14085","category":"91","category_name":"台湾菜","address":"闵行区中春路7227号(近华茂路)"},{"poiid":"B2094750D06DA5FC409D","title":"上海师范大学剑桥国际中心","lon":"121.34085","lat":"31.130056","category":"500","category_name":"未知分类","address":"涞亭南路559号"},{"poiid":"B2094757D064A5F8459D","title":"中春路","lon":"121.352059","lat":"31.1307","category":"500","category_name":"未知分类","address":"上海闵行区中春路6629号"}]