[{"poiid":"B2094654DB64A1F4439C","title":"上海天马乡村俱乐部","lon":"121.14453","lat":"31.06156","category":"206","category_name":"高尔夫相关","address":"松江区赵昆公路3958号"},{"poiid":"B2094757D069A5F4419D","title":"小昆山","lon":"121.138390942","lat":"31.0353309115","category":"47","category_name":"住宅区","address":"上海市松江区"},{"poiid":"B2094654DB64A0FD4798","title":"小昆山服务区(昆港公路)","lon":"121.13387","lat":"31.05421","category":"250","category_name":"公园户外","address":""},{"poiid":"B2094757D66EA4FB4093","title":"横山","lon":"121.145145109","lat":"31.055012943","category":"500","category_name":"未知分类","address":"上海松江区天横公路"},{"poiid":"B2094654DB6EA0FE469E","title":"(小昆山服务区)餐厅","lon":"121.13352","lat":"31.05307","category":"257","category_name":"中餐厅","address":""},{"poiid":"B2094757D06FA7F5449B","title":"小昆山驾校","lon":"121.14039349","lat":"31.040477357","category":"253","category_name":"校园生活","address":"上海小昆山"},{"poiid":"B2094757D66FA0FE4598","title":"昆山","lon":"121.135193","lat":"31.052703","category":"500","category_name":"未知分类","address":"上海昆山高速"},{"poiid":"B2094654DB6EA0FE469B","title":"(小昆山服务区)便利店","lon":"121.13346","lat":"31.05326","category":"117","category_name":"便民商店/便利店","address":""},{"poiid":"B2094654DB6DA4FD419B","title":"九峰寺","lon":"121.12906","lat":"31.04988","category":"244","category_name":"寺庙道观","address":""},{"poiid":"B2094655D26BA2F9409E","title":"天马镇","lon":"121.14818","lat":"31.06948","category":"38","category_name":"公交车站","address":""},{"poiid":"B2094757D06BA1F9409D","title":"华夏公墓","lon":"121.13536","lat":"31.03628","category":"620","category_name":"丧葬","address":"松江区小昆山镇荡湾村(鹤溪路佘天昆公路)"},{"poiid":"B2094654DB6DA4FA449E","title":"逸峰小区","lon":"121.14438","lat":"31.06623","category":"47","category_name":"住宅区","address":"天马山镇"},{"poiid":"B2094654DB6DA4FA4499","title":"小区(新宅路)","lon":"121.14347","lat":"31.06704","category":"47","category_name":"住宅区","address":""},{"poiid":"B209475DDB65A7F84299","title":"天马赛车场","lon":"121.137512","lat":"31.041851","category":"627","category_name":"一般地点标志","address":"上海市松江区沈砖公路3000号"},{"poiid":"B2094654DB6DA4FE4193","title":"天马山学校","lon":"121.14467","lat":"31.06706","category":"55","category_name":"中学","address":""},{"poiid":"B2094654DB6DA4FF479E","title":"天马山中学","lon":"121.14354","lat":"31.0685","category":"55","category_name":"中学","address":"松江区天马山镇花园弄5号"},{"poiid":"B2094655D26BA2FD439E","title":"文俊路鼎盛路","lon":"121.14229","lat":"31.0381","category":"38","category_name":"公交车站","address":""},{"poiid":"B2094654DB6DA4FB4599","title":"醉仙楼酒店","lon":"121.14305","lat":"31.06928","category":"257","category_name":"中餐厅","address":"天马山镇"},{"poiid":"B2094655D36DA2FF419F","title":"山东南桥","lon":"121.13705","lat":"31.03879","category":"250","category_name":"公园户外","address":""},{"poiid":"B2094655D26BABFE479B","title":"颐山公馆","lon":"121.144713","lat":"31.037584","category":"47","category_name":"住宅区","address":"上海市松江区小昆山镇鹤溪街50号"},{"poiid":"B2094654DB6DA4F9499D","title":"中国电信天马营业处","lon":"121.14363","lat":"31.06921","category":"151","category_name":"电讯营业厅","address":"新宅路63号"},{"poiid":"B2094654DB6DA4FA469E","title":"小昆山汽车站","lon":"121.13824","lat":"31.03563","category":"35","category_name":"长途汽车站","address":""},{"poiid":"B2094654DB6DA5F54698","title":"荡湾","lon":"121.12419","lat":"31.05363","category":"248","category_name":"生活娱乐","address":""},{"poiid":"B2094757D16AA4FA4498","title":"小昆山教练场","lon":"121.133474942","lat":"31.0354009129","category":"253","category_name":"校园生活","address":"上海小昆山"},{"poiid":"B2094654DB69A7FA459C","title":"邮政储蓄天马支所","lon":"121.14189","lat":"31.06874","category":"150","category_name":"银行","address":"松江区天马镇天新路36号"},{"poiid":"B2094654DB6DA4FA4492","title":"九峰影剧院","lon":"121.136392","lat":"31.034965","category":"178","category_name":"电影院","address":"小昆山镇鹤溪路63号"},{"poiid":"B2094654DB6DA4F8419D","title":"松江科技园区社区卫生服务中心","lon":"121.13579","lat":"31.03585","category":"162","category_name":"医院","address":"小昆山镇"},{"poiid":"B2094654DB6DA4F84992","title":"快客NO.6533","lon":"121.13674","lat":"31.03376","category":"117","category_name":"便民商店/便利店","address":"小昆山镇"},{"poiid":"B2094654DB6DA4FA489F","title":"博联百货商场","lon":"121.13617","lat":"31.03525","category":"119","category_name":"商场","address":"松江区清河街101号"},{"poiid":"B2094654DB6DA4FA489C","title":"昆冈食品商场","lon":"121.13624","lat":"31.03526","category":"119","category_name":"商场","address":""},{"poiid":"B2094654DB6DA4FF479D","title":"云峰小区","lon":"121.1466","lat":"31.07102","category":"47","category_name":"住宅区","address":"天马山镇"},{"poiid":"B2094654DB6DA4FA4493","title":"松江科技园区社会保障服务中心","lon":"121.13649","lat":"31.03471","category":"45","category_name":"产业园区","address":""},{"poiid":"B2094757D168A0F9479F","title":"佘山工商所","lon":"121.144354","lat":"31.069437","category":"500","category_name":"未知分类","address":"上海松江区佘山镇天马天新路81号"},{"poiid":"B2094654DB6DA4FE489D","title":"中国农业银行松江区昆冈支行","lon":"121.13822","lat":"31.03602","category":"150","category_name":"银行","address":"松江区小昆山清河街4号(鹤溪路佘天昆公路)"},{"poiid":"B2094654DB6DA4F8479A","title":"上海宇培实业建材分公司","lon":"121.14099","lat":"31.03455","category":"123","category_name":"家具建材市场","address":""},{"poiid":"B2094757D168A2F9449F","title":"小昆山镇社区事务受理服务中心","lon":"121.136487","lat":"31.034717","category":"500","category_name":"未知分类","address":"上海鹤溪街57号"},{"poiid":"B2094654DB6DA4F84598","title":"林佳浴室","lon":"121.13981","lat":"31.03355","category":"149","category_name":"洗浴推拿场所","address":""}]