[{"poiid":"B2094655D36DA0FE409D","title":"新闸路地铁站","lon":"121.46668","lat":"31.23916","category":"36","category_name":"地铁站","address":""},{"poiid":"B2094757D06BA1FC4992","title":"WeeCoffee微咖","lon":"121.467156","lat":"31.239803901236","category":"65","category_name":"咖啡厅","address":"上海静安区新闸路356号102(近乌镇桥)"},{"poiid":"B2094654DA68A3F84993","title":"麦当劳(新闸路店)","lon":"121.46753","lat":"31.23901","category":"68","category_name":"快餐厅","address":"黄浦区新闸路245号(近新昌路)"},{"poiid":"B2094753D76FAAFA449C","title":"上海滩国泰旗舰店","lon":"121.466011","lat":"31.216125","category":"249","category_name":"购物服务","address":"淮海中路868号"},{"poiid":"B209475CD564A7F84292","title":"上海滩新天地店","lon":"121.47463","lat":"31.22164","category":"119","category_name":"商场","address":"\"太仓路181弄新天地北里15号\r\n\""},{"poiid":"B209475CD564A7F8439E","title":"上海滩中信泰富店","lon":"121.45602","lat":"31.22851","category":"119","category_name":"商场","address":"\"南京西路1168号中信泰富广场，店铺号221.\r\n\""},{"poiid":"B2094757D06FA0F94492","title":"上海新东方学校(黄河路校区)","lon":"121.46896","lat":"31.23809","category":"260","category_name":"其他","address":"上海黄浦区黄河路355号1号楼3楼﹑4楼"},{"poiid":"B2094757D069A6F8419C","title":"上海广场嘉廷酒店","lon":"121.4709877","lat":"31.2382483","category":"217","category_name":"旅馆招待所","address":"黄浦区新闸路126号(长沙路路口)"},{"poiid":"B2094757D06BA2F4429D","title":"苏州河","lon":"121.468566895","lat":"31.2386283875","category":"234","category_name":"海滨浴场","address":"上海黄浦区"},{"poiid":"B2094655D36DA6FE489C","title":"新闸路","lon":"121.46793","lat":"31.23845","category":"38","category_name":"公交车站","address":""},{"poiid":"B2094757D06FA0F4439D","title":"南北高架（新闸路口）","lon":"121.46787262","lat":"31.237960815","category":"500","category_name":"未知分类","address":"上海南北高架（新闸路口）"},{"poiid":"B2094751D565ABFB4192","title":"年代秀飯堂","lon":"121.468833","lat":"31.237828","category":"247","category_name":"餐饮美食","address":"西藏中路525號3樓308"},{"poiid":"B2094757D06FA1FB469C","title":"DQ冰雪皇后(人民广场店)","lon":"121.469444486","lat":"31.2386640104","category":"113","category_name":"冷饮店","address":"黄浦区地铁一号线人民广场站换乘大厅(汉口路西藏中路)"},{"poiid":"B2094757D069ABFB469B","title":"雕刻时光咖啡馆(创意仓库店)","lon":"121.46884","lat":"31.239848","category":"260","category_name":"其他","address":"闸北区光复路181号四行仓库创意园区301室"},{"poiid":"B2094654DA6CA2FA419A","title":"博爱大厦","lon":"121.469","lat":"31.2373","category":"46","category_name":"楼宇","address":"静安区南京西路758"},{"poiid":"B2094752D069A0F54599","title":"新白鹿餐厅","lon":"121.47047","lat":"31.237137","category":"247","category_name":"餐饮美食","address":"上海市黄浦区南京东路800号(东方商厦九楼)"},{"poiid":"B2094655D26AA0FA4792","title":"地铁新闸路站","lon":"121.46793","lat":"31.23845","category":"36","category_name":"地铁站","address":""},{"poiid":"B2094757DB68A7FF439C","title":"韩善宫","lon":"121.468888","lat":"31.239294","category":"500","category_name":"未知分类","address":"新世界"},{"poiid":"B2094757D16AA7F4479B","title":"浦东机场 T1航站楼 D215登机口","lon":"121.469346231","lat":"31.2374821213","category":"21","category_name":"飞机场","address":"上海浦东机场"},{"poiid":"B2094654DB6AA3F8459C","title":"Odeli","lon":"121.468173054","lat":"31.238717793","category":"94","category_name":"西餐厅","address":"黄浦区黄河路355-2号(近新闸路)"},{"poiid":"B2094655D26CAAF8409C","title":"雅州大楼","lon":"121.46875","lat":"31.23845","category":"46","category_name":"楼宇","address":"黄河路355"},{"poiid":"B2094654DA68A3F8489B","title":"雅珠大酒店","lon":"121.46924","lat":"31.23778","category":"72","category_name":"广东菜","address":"黄浦区黃河路288号3楼(新闸路口)"},{"poiid":"B2094757D065A2F44393","title":"一伍一拾(新闸路店)","lon":"121.4686492","lat":"31.2385937","category":"119","category_name":"商场","address":"黄浦区新闸路213号(近黄河路)"},{"poiid":"B2094757D069A2F84392","title":"都可茶饮 新闸店","lon":"121.468871","lat":"31.238784","category":"113","category_name":"冷饮店","address":"黄浦区新闸路207号(近黄河路)"},{"poiid":"B2094757D06AAAF94993","title":"上海地铁第一运营有限公司","lon":"121.468539152","lat":"31.2385206533","category":"46","category_name":"楼宇","address":"上海市黄河路355号3号楼"},{"poiid":"B2094757D064A1F5419B","title":"金色家园","lon":"121.46828","lat":"31.237923","category":"500","category_name":"未知分类","address":"上海市浦东新区上南路3024号"},{"poiid":"B2094757D16EA6F44599","title":"南翔小笼 新闸路店","lon":"121.46887077044","lat":"31.238637533086","category":"257","category_name":"中餐厅","address":"黄浦区南京东路(近南京东路步行街)"},{"poiid":"B2094750D26CA2F4489B","title":"新世界","lon":"121.467319","lat":"31.238781","category":"248","category_name":"生活娱乐","address":null},{"poiid":"B2094757D068A1FE4492","title":"苏州河创意仓库","lon":"121.468460083","lat":"31.2399692535","category":"260","category_name":"其他","address":"闸北区光复路195号"},{"poiid":"B2094757D468A4FB419F","title":"苹果花园 新闸路店","lon":"121.467496054","lat":"31.238927793","category":"47","category_name":"住宅区","address":"黄浦区新闸路249号(近一号线新闸路站)"},{"poiid":"B2094654DB64A4FD419C","title":"南京东路街道少儿图书馆","lon":"121.46822","lat":"31.23875","category":"181","category_name":"图书馆","address":"新闸路219"},{"poiid":"B2094757D069A0FF459E","title":"雅州大厦1号楼","lon":"121.468699","lat":"31.23836","category":"252","category_name":"楼宇机构","address":"上海黄浦区黄河路355号"},{"poiid":"B2094654DA68A3F8499D","title":"农之尚食品七宝老街特产专卖","lon":"121.46765","lat":"31.23897","category":"68","category_name":"快餐厅","address":"黄浦区新闸路239号(近新昌路)"},{"poiid":"B2094757D66CA0FF419B","title":"天堂","lon":"121.46853678","lat":"31.238780722","category":"500","category_name":"未知分类","address":"上海天堂"},{"poiid":"B2094655D26AA5FD4592","title":"联华超市新闸路店","lon":"121.46782","lat":"31.23891","category":"247","category_name":"餐饮美食","address":"黄浦区新闸路233号(近新昌路)"},{"poiid":"B2094655D26DABF5479E","title":"雅州商务中心","lon":"121.46734","lat":"31.23897","category":"46","category_name":"楼宇","address":""},{"poiid":"B2094753D268A7FB4199","title":"五木铁板烧","lon":"121.469331","lat":"31.238282","category":"247","category_name":"餐饮美食","address":"上海市 上海市黄浦区西藏中500号"},{"poiid":"B2094757D06AA0FD459C","title":"新东方人民广场校区","lon":"121.46692657","lat":"31.239282608","category":"500","category_name":"未知分类","address":"上海新闸路355号"},{"poiid":"B2094757D16DA4FA499C","title":"人力资源前沿网","lon":"121.468782","lat":"31.238369","category":"500","category_name":"未知分类","address":"上海黄浦区黄河路355号雅州大楼一号楼523室"},{"poiid":"B2094654DA6CA2F84992","title":"光通大厦","lon":"121.47","lat":"31.2379","category":"46","category_name":"楼宇","address":"卫清西路139_149号等"},{"poiid":"B2094752D36FA4F5499F","title":"上海世茂百联三星galaxy studio","lon":"121.47055108707599","lat":"31.237403496785618","category":"249","category_name":"购物服务","address":"上海南京东路819号"},{"poiid":"B2094757D064A1FB489D","title":"中国工商银行新闸路支行","lon":"121.467998717","lat":"31.2385515963","category":"150","category_name":"银行","address":"上海市黄浦区新闸路235号"},{"poiid":"B2094757D16EA1FF409C","title":"c大调diy烘焙坊","lon":"121.46952991","lat":"31.237459674","category":"247","category_name":"餐饮美食","address":"上海黄河路288号"},{"poiid":"B2094751D364ABFF449A","title":"丰收日","lon":"121.468889","lat":"31.237357","category":"500","category_name":"未知分类","address":"丰收日"},{"poiid":"B2094655D26AA2F9419E","title":"新雅粤菜馆食品连锁新闸路店","lon":"121.46765","lat":"31.23897","category":"247","category_name":"餐饮美食","address":"静安区新闸路249号(近昌化路)"},{"poiid":"B2094757D568A0FB4093","title":"金色家园二期","lon":"121.4685286","lat":"31.23776028","category":"47","category_name":"住宅区","address":"金色家园二期位于黄浦黄河路345号"},{"poiid":"B2094757D164A4FE419D","title":"黑森林(新闸店)","lon":"121.46832","lat":"31.23888","category":"500","category_name":"未知分类","address":"上海黄浦区新闸路370号(近新昌路)  "},{"poiid":"B2094757D065A5FB489C","title":"八号线老西门","lon":"121.468695738","lat":"31.2403505158","category":"500","category_name":"未知分类","address":"上海老西门站"},{"poiid":"B2094757D16DA3F44699","title":"上行线(新闸路店)","lon":"121.46803917","lat":"31.238429181","category":"125","category_name":"书店","address":"上海黄浦区地铁一号线新闸路站"},{"poiid":"B2094654DA68A3F84998","title":"中国建设银行上海市黄河路支行","lon":"121.46813","lat":"31.23879","category":"150","category_name":"银行","address":"新闸路225号"},{"poiid":"B2094655D36DA0FE409D","title":"新闸路地铁站","lon":"121.46668","lat":"31.23916","category":"36","category_name":"地铁站","address":""},{"poiid":"B2094757D06BA1FC4992","title":"WeeCoffee微咖","lon":"121.467156","lat":"31.239803901236","category":"65","category_name":"咖啡厅","address":"上海静安区新闸路356号102(近乌镇桥)"},{"poiid":"B2094654DA68A3F84993","title":"麦当劳(新闸路店)","lon":"121.46753","lat":"31.23901","category":"68","category_name":"快餐厅","address":"黄浦区新闸路245号(近新昌路)"},{"poiid":"B2094753D76FAAFA449C","title":"上海滩国泰旗舰店","lon":"121.466011","lat":"31.216125","category":"249","category_name":"购物服务","address":"淮海中路868号"},{"poiid":"B209475CD564A7F84292","title":"上海滩新天地店","lon":"121.47463","lat":"31.22164","category":"119","category_name":"商场","address":"\"太仓路181弄新天地北里15号\r\n\""},{"poiid":"B209475CD564A7F8439E","title":"上海滩中信泰富店","lon":"121.45602","lat":"31.22851","category":"119","category_name":"商场","address":"\"南京西路1168号中信泰富广场，店铺号221.\r\n\""},{"poiid":"B2094757D06FA0F94492","title":"上海新东方学校(黄河路校区)","lon":"121.46896","lat":"31.23809","category":"260","category_name":"其他","address":"上海黄浦区黄河路355号1号楼3楼﹑4楼"},{"poiid":"B2094757D069A6F8419C","title":"上海广场嘉廷酒店","lon":"121.4709877","lat":"31.2382483","category":"217","category_name":"旅馆招待所","address":"黄浦区新闸路126号(长沙路路口)"},{"poiid":"B2094757D06BA2F4429D","title":"苏州河","lon":"121.468566895","lat":"31.2386283875","category":"234","category_name":"海滨浴场","address":"上海黄浦区"},{"poiid":"B2094655D36DA6FE489C","title":"新闸路","lon":"121.46793","lat":"31.23845","category":"38","category_name":"公交车站","address":""},{"poiid":"B2094757D06FA0F4439D","title":"南北高架（新闸路口）","lon":"121.46787262","lat":"31.237960815","category":"500","category_name":"未知分类","address":"上海南北高架（新闸路口）"},{"poiid":"B2094751D565ABFB4192","title":"年代秀飯堂","lon":"121.468833","lat":"31.237828","category":"247","category_name":"餐饮美食","address":"西藏中路525號3樓308"},{"poiid":"B2094757D06FA1FB469C","title":"DQ冰雪皇后(人民广场店)","lon":"121.469444486","lat":"31.2386640104","category":"113","category_name":"冷饮店","address":"黄浦区地铁一号线人民广场站换乘大厅(汉口路西藏中路)"},{"poiid":"B2094757D069ABFB469B","title":"雕刻时光咖啡馆(创意仓库店)","lon":"121.46884","lat":"31.239848","category":"260","category_name":"其他","address":"闸北区光复路181号四行仓库创意园区301室"},{"poiid":"B2094654DA6CA2FA419A","title":"博爱大厦","lon":"121.469","lat":"31.2373","category":"46","category_name":"楼宇","address":"静安区南京西路758"},{"poiid":"B2094752D069A0F54599","title":"新白鹿餐厅","lon":"121.47047","lat":"31.237137","category":"247","category_name":"餐饮美食","address":"上海市黄浦区南京东路800号(东方商厦九楼)"},{"poiid":"B2094655D26AA0FA4792","title":"地铁新闸路站","lon":"121.46793","lat":"31.23845","category":"36","category_name":"地铁站","address":""},{"poiid":"B2094757DB68A7FF439C","title":"韩善宫","lon":"121.468888","lat":"31.239294","category":"500","category_name":"未知分类","address":"新世界"},{"poiid":"B2094757D16AA7F4479B","title":"浦东机场 T1航站楼 D215登机口","lon":"121.469346231","lat":"31.2374821213","category":"21","category_name":"飞机场","address":"上海浦东机场"},{"poiid":"B2094654DB6AA3F8459C","title":"Odeli","lon":"121.468173054","lat":"31.238717793","category":"94","category_name":"西餐厅","address":"黄浦区黄河路355-2号(近新闸路)"},{"poiid":"B2094655D26CAAF8409C","title":"雅州大楼","lon":"121.46875","lat":"31.23845","category":"46","category_name":"楼宇","address":"黄河路355"},{"poiid":"B2094654DA68A3F8489B","title":"雅珠大酒店","lon":"121.46924","lat":"31.23778","category":"72","category_name":"广东菜","address":"黄浦区黃河路288号3楼(新闸路口)"},{"poiid":"B2094757D065A2F44393","title":"一伍一拾(新闸路店)","lon":"121.4686492","lat":"31.2385937","category":"119","category_name":"商场","address":"黄浦区新闸路213号(近黄河路)"},{"poiid":"B2094757D069A2F84392","title":"都可茶饮 新闸店","lon":"121.468871","lat":"31.238784","category":"113","category_name":"冷饮店","address":"黄浦区新闸路207号(近黄河路)"},{"poiid":"B2094757D06AAAF94993","title":"上海地铁第一运营有限公司","lon":"121.468539152","lat":"31.2385206533","category":"46","category_name":"楼宇","address":"上海市黄河路355号3号楼"},{"poiid":"B2094757D064A1F5419B","title":"金色家园","lon":"121.46828","lat":"31.237923","category":"500","category_name":"未知分类","address":"上海市浦东新区上南路3024号"},{"poiid":"B2094757D16EA6F44599","title":"南翔小笼 新闸路店","lon":"121.46887077044","lat":"31.238637533086","category":"257","category_name":"中餐厅","address":"黄浦区南京东路(近南京东路步行街)"},{"poiid":"B2094750D26CA2F4489B","title":"新世界","lon":"121.467319","lat":"31.238781","category":"248","category_name":"生活娱乐","address":null},{"poiid":"B2094757D068A1FE4492","title":"苏州河创意仓库","lon":"121.468460083","lat":"31.2399692535","category":"260","category_name":"其他","address":"闸北区光复路195号"},{"poiid":"B2094757D468A4FB419F","title":"苹果花园 新闸路店","lon":"121.467496054","lat":"31.238927793","category":"47","category_name":"住宅区","address":"黄浦区新闸路249号(近一号线新闸路站)"},{"poiid":"B2094654DB64A4FD419C","title":"南京东路街道少儿图书馆","lon":"121.46822","lat":"31.23875","category":"181","category_name":"图书馆","address":"新闸路219"},{"poiid":"B2094757D069A0FF459E","title":"雅州大厦1号楼","lon":"121.468699","lat":"31.23836","category":"252","category_name":"楼宇机构","address":"上海黄浦区黄河路355号"},{"poiid":"B2094654DA68A3F8499D","title":"农之尚食品七宝老街特产专卖","lon":"121.46765","lat":"31.23897","category":"68","category_name":"快餐厅","address":"黄浦区新闸路239号(近新昌路)"},{"poiid":"B2094757D66CA0FF419B","title":"天堂","lon":"121.46853678","lat":"31.238780722","category":"500","category_name":"未知分类","address":"上海天堂"},{"poiid":"B2094655D26AA5FD4592","title":"联华超市新闸路店","lon":"121.46782","lat":"31.23891","category":"247","category_name":"餐饮美食","address":"黄浦区新闸路233号(近新昌路)"},{"poiid":"B2094655D26DABF5479E","title":"雅州商务中心","lon":"121.46734","lat":"31.23897","category":"46","category_name":"楼宇","address":""},{"poiid":"B2094753D268A7FB4199","title":"五木铁板烧","lon":"121.469331","lat":"31.238282","category":"247","category_name":"餐饮美食","address":"上海市 上海市黄浦区西藏中500号"},{"poiid":"B2094757D06AA0FD459C","title":"新东方人民广场校区","lon":"121.46692657","lat":"31.239282608","category":"500","category_name":"未知分类","address":"上海新闸路355号"},{"poiid":"B2094757D16DA4FA499C","title":"人力资源前沿网","lon":"121.468782","lat":"31.238369","category":"500","category_name":"未知分类","address":"上海黄浦区黄河路355号雅州大楼一号楼523室"},{"poiid":"B2094654DA6CA2F84992","title":"光通大厦","lon":"121.47","lat":"31.2379","category":"46","category_name":"楼宇","address":"卫清西路139_149号等"},{"poiid":"B2094752D36FA4F5499F","title":"上海世茂百联三星galaxy studio","lon":"121.47055108707599","lat":"31.237403496785618","category":"249","category_name":"购物服务","address":"上海南京东路819号"},{"poiid":"B2094757D064A1FB489D","title":"中国工商银行新闸路支行","lon":"121.467998717","lat":"31.2385515963","category":"150","category_name":"银行","address":"上海市黄浦区新闸路235号"},{"poiid":"B2094757D16EA1FF409C","title":"c大调diy烘焙坊","lon":"121.46952991","lat":"31.237459674","category":"247","category_name":"餐饮美食","address":"上海黄河路288号"},{"poiid":"B2094751D364ABFF449A","title":"丰收日","lon":"121.468889","lat":"31.237357","category":"500","category_name":"未知分类","address":"丰收日"},{"poiid":"B2094655D26AA2F9419E","title":"新雅粤菜馆食品连锁新闸路店","lon":"121.46765","lat":"31.23897","category":"247","category_name":"餐饮美食","address":"静安区新闸路249号(近昌化路)"},{"poiid":"B2094757D568A0FB4093","title":"金色家园二期","lon":"121.4685286","lat":"31.23776028","category":"47","category_name":"住宅区","address":"金色家园二期位于黄浦黄河路345号"},{"poiid":"B2094757D164A4FE419D","title":"黑森林(新闸店)","lon":"121.46832","lat":"31.23888","category":"500","category_name":"未知分类","address":"上海黄浦区新闸路370号(近新昌路)  "},{"poiid":"B2094757D065A5FB489C","title":"八号线老西门","lon":"121.468695738","lat":"31.2403505158","category":"500","category_name":"未知分类","address":"上海老西门站"},{"poiid":"B2094757D16DA3F44699","title":"上行线(新闸路店)","lon":"121.46803917","lat":"31.238429181","category":"125","category_name":"书店","address":"上海黄浦区地铁一号线新闸路站"},{"poiid":"B2094654DA68A3F84998","title":"中国建设银行上海市黄河路支行","lon":"121.46813","lat":"31.23879","category":"150","category_name":"银行","address":"新闸路225号"},{"poiid":"B2094655D36DA0FE409D","title":"新闸路地铁站","lon":"121.46668","lat":"31.23916","category":"36","category_name":"地铁站","address":""},{"poiid":"B2094757D06BA1FC4992","title":"WeeCoffee微咖","lon":"121.467156","lat":"31.239803901236","category":"65","category_name":"咖啡厅","address":"上海静安区新闸路356号102(近乌镇桥)"},{"poiid":"B2094654DA68A3F84993","title":"麦当劳(新闸路店)","lon":"121.46753","lat":"31.23901","category":"68","category_name":"快餐厅","address":"黄浦区新闸路245号(近新昌路)"},{"poiid":"B2094753D76FAAFA449C","title":"上海滩国泰旗舰店","lon":"121.466011","lat":"31.216125","category":"249","category_name":"购物服务","address":"淮海中路868号"},{"poiid":"B209475CD564A7F84292","title":"上海滩新天地店","lon":"121.47463","lat":"31.22164","category":"119","category_name":"商场","address":"\"太仓路181弄新天地北里15号\r\n\""},{"poiid":"B209475CD564A7F8439E","title":"上海滩中信泰富店","lon":"121.45602","lat":"31.22851","category":"119","category_name":"商场","address":"\"南京西路1168号中信泰富广场，店铺号221.\r\n\""},{"poiid":"B2094757D06FA0F94492","title":"上海新东方学校(黄河路校区)","lon":"121.46896","lat":"31.23809","category":"260","category_name":"其他","address":"上海黄浦区黄河路355号1号楼3楼﹑4楼"},{"poiid":"B2094757D069A6F8419C","title":"上海广场嘉廷酒店","lon":"121.4709877","lat":"31.2382483","category":"217","category_name":"旅馆招待所","address":"黄浦区新闸路126号(长沙路路口)"},{"poiid":"B2094757D06BA2F4429D","title":"苏州河","lon":"121.468566895","lat":"31.2386283875","category":"234","category_name":"海滨浴场","address":"上海黄浦区"},{"poiid":"B2094655D36DA6FE489C","title":"新闸路","lon":"121.46793","lat":"31.23845","category":"38","category_name":"公交车站","address":""},{"poiid":"B2094757D06FA0F4439D","title":"南北高架（新闸路口）","lon":"121.46787262","lat":"31.237960815","category":"500","category_name":"未知分类","address":"上海南北高架（新闸路口）"},{"poiid":"B2094751D565ABFB4192","title":"年代秀飯堂","lon":"121.468833","lat":"31.237828","category":"247","category_name":"餐饮美食","address":"西藏中路525號3樓308"},{"poiid":"B2094757D06FA1FB469C","title":"DQ冰雪皇后(人民广场店)","lon":"121.469444486","lat":"31.2386640104","category":"113","category_name":"冷饮店","address":"黄浦区地铁一号线人民广场站换乘大厅(汉口路西藏中路)"},{"poiid":"B2094757D069ABFB469B","title":"雕刻时光咖啡馆(创意仓库店)","lon":"121.46884","lat":"31.239848","category":"260","category_name":"其他","address":"闸北区光复路181号四行仓库创意园区301室"},{"poiid":"B2094654DA6CA2FA419A","title":"博爱大厦","lon":"121.469","lat":"31.2373","category":"46","category_name":"楼宇","address":"静安区南京西路758"},{"poiid":"B2094752D069A0F54599","title":"新白鹿餐厅","lon":"121.47047","lat":"31.237137","category":"247","category_name":"餐饮美食","address":"上海市黄浦区南京东路800号(东方商厦九楼)"},{"poiid":"B2094655D26AA0FA4792","title":"地铁新闸路站","lon":"121.46793","lat":"31.23845","category":"36","category_name":"地铁站","address":""},{"poiid":"B2094757DB68A7FF439C","title":"韩善宫","lon":"121.468888","lat":"31.239294","category":"500","category_name":"未知分类","address":"新世界"},{"poiid":"B2094757D16AA7F4479B","title":"浦东机场 T1航站楼 D215登机口","lon":"121.469346231","lat":"31.2374821213","category":"21","category_name":"飞机场","address":"上海浦东机场"},{"poiid":"B2094654DB6AA3F8459C","title":"Odeli","lon":"121.468173054","lat":"31.238717793","category":"94","category_name":"西餐厅","address":"黄浦区黄河路355-2号(近新闸路)"},{"poiid":"B2094655D26CAAF8409C","title":"雅州大楼","lon":"121.46875","lat":"31.23845","category":"46","category_name":"楼宇","address":"黄河路355"},{"poiid":"B2094654DA68A3F8489B","title":"雅珠大酒店","lon":"121.46924","lat":"31.23778","category":"72","category_name":"广东菜","address":"黄浦区黃河路288号3楼(新闸路口)"},{"poiid":"B2094757D065A2F44393","title":"一伍一拾(新闸路店)","lon":"121.4686492","lat":"31.2385937","category":"119","category_name":"商场","address":"黄浦区新闸路213号(近黄河路)"},{"poiid":"B2094757D069A2F84392","title":"都可茶饮 新闸店","lon":"121.468871","lat":"31.238784","category":"113","category_name":"冷饮店","address":"黄浦区新闸路207号(近黄河路)"},{"poiid":"B2094757D06AAAF94993","title":"上海地铁第一运营有限公司","lon":"121.468539152","lat":"31.2385206533","category":"46","category_name":"楼宇","address":"上海市黄河路355号3号楼"},{"poiid":"B2094757D064A1F5419B","title":"金色家园","lon":"121.46828","lat":"31.237923","category":"500","category_name":"未知分类","address":"上海市浦东新区上南路3024号"},{"poiid":"B2094757D16EA6F44599","title":"南翔小笼 新闸路店","lon":"121.46887077044","lat":"31.238637533086","category":"257","category_name":"中餐厅","address":"黄浦区南京东路(近南京东路步行街)"},{"poiid":"B2094750D26CA2F4489B","title":"新世界","lon":"121.467319","lat":"31.238781","category":"248","category_name":"生活娱乐","address":null},{"poiid":"B2094757D068A1FE4492","title":"苏州河创意仓库","lon":"121.468460083","lat":"31.2399692535","category":"260","category_name":"其他","address":"闸北区光复路195号"},{"poiid":"B2094757D468A4FB419F","title":"苹果花园 新闸路店","lon":"121.467496054","lat":"31.238927793","category":"47","category_name":"住宅区","address":"黄浦区新闸路249号(近一号线新闸路站)"},{"poiid":"B2094654DB64A4FD419C","title":"南京东路街道少儿图书馆","lon":"121.46822","lat":"31.23875","category":"181","category_name":"图书馆","address":"新闸路219"},{"poiid":"B2094757D069A0FF459E","title":"雅州大厦1号楼","lon":"121.468699","lat":"31.23836","category":"252","category_name":"楼宇机构","address":"上海黄浦区黄河路355号"},{"poiid":"B2094654DA68A3F8499D","title":"农之尚食品七宝老街特产专卖","lon":"121.46765","lat":"31.23897","category":"68","category_name":"快餐厅","address":"黄浦区新闸路239号(近新昌路)"},{"poiid":"B2094757D66CA0FF419B","title":"天堂","lon":"121.46853678","lat":"31.238780722","category":"500","category_name":"未知分类","address":"上海天堂"},{"poiid":"B2094655D26AA5FD4592","title":"联华超市新闸路店","lon":"121.46782","lat":"31.23891","category":"247","category_name":"餐饮美食","address":"黄浦区新闸路233号(近新昌路)"},{"poiid":"B2094655D26DABF5479E","title":"雅州商务中心","lon":"121.46734","lat":"31.23897","category":"46","category_name":"楼宇","address":""},{"poiid":"B2094753D268A7FB4199","title":"五木铁板烧","lon":"121.469331","lat":"31.238282","category":"247","category_name":"餐饮美食","address":"上海市 上海市黄浦区西藏中500号"},{"poiid":"B2094757D06AA0FD459C","title":"新东方人民广场校区","lon":"121.46692657","lat":"31.239282608","category":"500","category_name":"未知分类","address":"上海新闸路355号"},{"poiid":"B2094757D16DA4FA499C","title":"人力资源前沿网","lon":"121.468782","lat":"31.238369","category":"500","category_name":"未知分类","address":"上海黄浦区黄河路355号雅州大楼一号楼523室"},{"poiid":"B2094654DA6CA2F84992","title":"光通大厦","lon":"121.47","lat":"31.2379","category":"46","category_name":"楼宇","address":"卫清西路139_149号等"},{"poiid":"B2094752D36FA4F5499F","title":"上海世茂百联三星galaxy studio","lon":"121.47055108707599","lat":"31.237403496785618","category":"249","category_name":"购物服务","address":"上海南京东路819号"},{"poiid":"B2094757D064A1FB489D","title":"中国工商银行新闸路支行","lon":"121.467998717","lat":"31.2385515963","category":"150","category_name":"银行","address":"上海市黄浦区新闸路235号"},{"poiid":"B2094757D16EA1FF409C","title":"c大调diy烘焙坊","lon":"121.46952991","lat":"31.237459674","category":"247","category_name":"餐饮美食","address":"上海黄河路288号"},{"poiid":"B2094751D364ABFF449A","title":"丰收日","lon":"121.468889","lat":"31.237357","category":"500","category_name":"未知分类","address":"丰收日"},{"poiid":"B2094655D26AA2F9419E","title":"新雅粤菜馆食品连锁新闸路店","lon":"121.46765","lat":"31.23897","category":"247","category_name":"餐饮美食","address":"静安区新闸路249号(近昌化路)"},{"poiid":"B2094757D568A0FB4093","title":"金色家园二期","lon":"121.4685286","lat":"31.23776028","category":"47","category_name":"住宅区","address":"金色家园二期位于黄浦黄河路345号"},{"poiid":"B2094757D164A4FE419D","title":"黑森林(新闸店)","lon":"121.46832","lat":"31.23888","category":"500","category_name":"未知分类","address":"上海黄浦区新闸路370号(近新昌路)  "},{"poiid":"B2094757D065A5FB489C","title":"八号线老西门","lon":"121.468695738","lat":"31.2403505158","category":"500","category_name":"未知分类","address":"上海老西门站"},{"poiid":"B2094757D16DA3F44699","title":"上行线(新闸路店)","lon":"121.46803917","lat":"31.238429181","category":"125","category_name":"书店","address":"上海黄浦区地铁一号线新闸路站"},{"poiid":"B2094654DA68A3F84998","title":"中国建设银行上海市黄河路支行","lon":"121.46813","lat":"31.23879","category":"150","category_name":"银行","address":"新闸路225号"}]