[{"poiid":"B2094757D06FA2F8409B","title":"上海商学院(奉浦校区)","lon":"121.45717","lat":"30.94149","category":"52","category_name":"高等院校","address":"近郊奉浦大道123号(近奉浦大厦)"},{"poiid":"B2094757D065AAFB419B","title":"上海南桥绿地逸东华酒店","lon":"121.46080291","lat":"30.941811546","category":"217","category_name":"旅馆招待所","address":"上海市奉贤区南桥环城东路473号(近奉浦大道)"},{"poiid":"B2094757D165A2FA419C","title":"上海商学院女生宿舍","lon":"121.45836891","lat":"30.940309512","category":"500","category_name":"未知分类","address":"上海市奉贤区奉浦大道"},{"poiid":"B2094654DB68A2F9499B","title":"老街绿地南桥新苑","lon":"121.47113","lat":"30.92874","category":"47","category_name":"住宅区","address":"上海市奉贤区环城东路885弄"},{"poiid":"B2094757D069A3FE4193","title":"奉贤区国家税务局","lon":"121.45956130971331","lat":"30.942345027487875","category":"617","category_name":"政府机构","address":"上海奉贤区南桥镇奉浦工业区奉浦大道111号"},{"poiid":"B2094654DB6FAAF8489D","title":"塞纳河畔 奉浦店","lon":"121.46427","lat":"30.92857","category":"75","category_name":"浙江菜","address":"近郊奉贤奉浦环城东路696号(近航南路)"},{"poiid":"B2094757D06BA7F94298","title":"上海丽洲休闲俱乐部","lon":"121.45841091","lat":"30.947153668","category":"500","category_name":"未知分类","address":"上海市奉贤区环城东路383-399号(近奉浦大道)"},{"poiid":"B2094757D16CAAFB409B","title":"森勤国际大酒店","lon":"121.461094916","lat":"30.9326253365","category":"217","category_name":"旅馆招待所","address":"上海市奉贤区团南公路南桥路"},{"poiid":"B2094654DB68A2FE409F","title":"迪豪小田园酒店","lon":"121.46408","lat":"30.93087","category":"75","category_name":"浙江菜","address":"近郊奉贤区奉浦环城东路781号(南桥环城东路韩村路)"},{"poiid":"B2094757D065AAF44098","title":"韩村路小吃街","lon":"121.459640503","lat":"30.9418373108","category":"247","category_name":"餐饮美食","address":"奉贤区韩村路（近上海商学院）"},{"poiid":"B2094757D06BA0F8459E","title":"上海商学院图文信息楼","lon":"121.45964","lat":"30.941838","category":"500","category_name":"未知分类","address":"上海商学院奉贤校区"},{"poiid":"B2094654DB69A7F9479F","title":"聚贤煌都","lon":"121.46578","lat":"30.940882","category":"47","category_name":"住宅区","address":"奉贤区奉浦大道95弄"},{"poiid":"B2094750D26FA7FB409B","title":"赛露维","lon":"121.465347","lat":"30.927162","category":"76","category_name":"上海菜","address":"近郊奉贤区南桥镇环城东路883弄63号(近南桥老街)"},{"poiid":"B2094757D16DA1F44198","title":"悦圣渔港","lon":"121.46122","lat":"30.93901","category":"76","category_name":"上海菜","address":"近郊奉贤区奉浦开发区环城东路525号(近八字桥路)"},{"poiid":"B2094757D16EA5F44998","title":"家渔沪晓","lon":"121.46188","lat":"30.93676","category":"76","category_name":"上海菜","address":"近郊奉贤区环城东路611号(近八字桥路)"},{"poiid":"B2094757D665A2FE469D","title":"湘乡人家","lon":"121.4615841","lat":"30.9366226","category":"77","category_name":"湖南菜","address":"近郊奉贤区环城东路600,606号(近八字桥路)"},{"poiid":"B2094655D264A1FB4392","title":"小元国(环城东路店)","lon":"121.46386","lat":"30.93107","category":"76","category_name":"上海菜","address":"近郊奉贤区环城东路777号(近航南公路)"},{"poiid":"B2094654DB6FAAF84798","title":"奉浦大厦","lon":"121.45932","lat":"30.94281","category":"46","category_name":"楼宇","address":"上海奉浦大道111号"},{"poiid":"B2094757D064A7FA499B","title":"多多米线","lon":"121.45991","lat":"30.93948","category":"68","category_name":"快餐厅","address":"近郊奉贤区韩村路548号(近上海商学院)"},{"poiid":"B2094757D064A7FA409A","title":"奉浦四季生态园","lon":"121.47242491","lat":"30.935544403","category":"500","category_name":"未知分类","address":"近郊奉贤航南公路(近韩谊路)"},{"poiid":"B2094654DB6FAAF84899","title":"奉贤中等专业学校","lon":"121.46009","lat":"30.93631","category":"54","category_name":"职业技术学校","address":"近郊奉贤区八字桥路626号"},{"poiid":"B2094757D16EABFA479E","title":"锦逸大酒店","lon":"121.45285876","lat":"30.930010531","category":"76","category_name":"上海菜","address":"近郊奉贤区沪杭公路1818号"},{"poiid":"B2094655D264A7FD4293","title":"九华新园","lon":"121.45996","lat":"30.931997","category":"47","category_name":"住宅区","address":"上海市奉贤区国顺路369弄"},{"poiid":"B2094757D16DA6FB409B","title":"九华苑","lon":"121.46101","lat":"30.933996","category":"252","category_name":"楼宇机构","address":"上海奉浦国顺路318号"},{"poiid":"B2094753D468ABF44398","title":"新都汇","lon":"121.461578","lat":"30.935951","category":"500","category_name":"未知分类","address":"上海市 环城东路630号"},{"poiid":"B2094757D465A1F94899","title":"永和豆浆 环城东路店","lon":"121.459204054","lat":"30.937173793","category":"68","category_name":"快餐厅","address":"近郊奉贤区环城东路619号(近八字桥路)"},{"poiid":"B2094757D164AAFB459A","title":"上海商学院4号楼","lon":"121.455162916","lat":"30.9380934615","category":"500","category_name":"未知分类","address":"上海商学院4号楼"},{"poiid":"B2094757D16EA0F44092","title":"百合苑","lon":"121.470248929","lat":"30.9390231194","category":"500","category_name":"未知分类","address":"上海八字桥路158号"},{"poiid":"B2094757D464A7FC499B","title":"金福缘三江野生大鱼坊","lon":"121.46082","lat":"30.940162","category":"82","category_name":"东北菜","address":"近郊奉贤区奉浦工业区韩村路498号(近奉浦大厦)"},{"poiid":"B2094757D06EAAF5459F","title":"绿地万豪酒店","lon":"121.46538383","lat":"30.939536039","category":"213","category_name":"五星级宾馆","address":"上海卢湾区江滨路99号"},{"poiid":"B2094654DB6FAAF94892","title":"千代温泉","lon":"121.46211","lat":"30.93602","category":"149","category_name":"洗浴推拿场所","address":""},{"poiid":"B2094654DB6FAAFB4193","title":"半岛海鲜酒家","lon":"121.45987","lat":"30.94099","category":"88","category_name":"海鲜酒楼","address":"近郊奉贤环城东路478号(南桥环城东路运河北路)"},{"poiid":"B2094757D16BA2FB449A","title":"景怡佳苑","lon":"121.46146","lat":"30.941189","category":"252","category_name":"楼宇机构","address":"上海市奉贤区环城东路499弄"},{"poiid":"B2094655D26EA5F94999","title":"皇品大酒楼","lon":"121.46086","lat":"30.93989","category":"247","category_name":"餐饮美食","address":"奉贤区环城东路515号"},{"poiid":"B2094757D06FA4FE4393","title":"凯桥绿地","lon":"121.465383832","lat":"30.939536039","category":"196","category_name":"公园","address":"上海长宁区延安西路凯旋路口  "},{"poiid":"B2094655D36CA7FB479A","title":"国顺路站","lon":"121.46158","lat":"30.93698","category":"38","category_name":"公交车站","address":""},{"poiid":"B2094753D76AA5FB4993","title":"草帽牛蛙","lon":"121.46116","lat":"30.93708","category":"71","category_name":"四川菜","address":"上海市奉贤区环城东路600号(近八字桥路)"},{"poiid":"B2094757D568A1FC4399","title":"奉浦幼儿园","lon":"121.4633157","lat":"30.93665446","category":"57","category_name":"幼儿园","address":"近郊奉浦开发区奉浦苑4号"},{"poiid":"B2094757D66CA2F44599","title":"奉浦玫瑰苑","lon":"121.466213","lat":"30.937641","category":"500","category_name":"未知分类","address":"上海奉贤区环城东路八字桥路"},{"poiid":"B2094655D36CA7FB4799","title":"国顺路","lon":"121.46249","lat":"30.93408","category":"38","category_name":"公交车站","address":""},{"poiid":"B2094757D66AA5FA489C","title":"永逸农家烤鱼馆","lon":"121.461504","lat":"30.936961","category":"269","category_name":"烧烤","address":"南桥镇环城东路660号近八字桥路"},{"poiid":"B2094757D66EA4FB449A","title":"奉浦苑","lon":"121.46478","lat":"30.934446","category":"500","category_name":"未知分类","address":"八字桥路219号"},{"poiid":"B2094757D06BA2F44499","title":"上海商学院食堂","lon":"121.45833","lat":"30.94127","category":"68","category_name":"快餐厅","address":"上海近郊奉贤区奉浦大道123号  "},{"poiid":"B2094655D26FA6FF499C","title":"锦江之星(奉贤南桥店)","lon":"121.46498","lat":"30.93118","category":"216","category_name":"经济型连锁酒店","address":"近郊奉贤区南桥镇航南公路5499号"},{"poiid":"B2094655D36CA7FF409A","title":"沪杭公路团南路","lon":"121.46176","lat":"30.93606","category":"38","category_name":"公交车站","address":""},{"poiid":"B2094757D66CA2FE429E","title":"三江野生大鱼坊","lon":"121.460721","lat":"30.940292","category":"247","category_name":"餐饮美食","address":"上海环城东路韩村路498号"},{"poiid":"B209475CD46FA5F4499F","title":"南桥新都汇","lon":"121.461418","lat":"30.93592","category":"47","category_name":"住宅区","address":"上海市 奉浦环城东路"},{"poiid":"B2094757D568A1F8499A","title":"百俪","lon":"121.46046224","lat":"30.9392711","category":"148","category_name":"美容美发店","address":"中国上海市奉贤区环城东路"},{"poiid":"B2094654DB69A7F94999","title":"福兴大厦","lon":"121.46161","lat":"30.93587","category":"46","category_name":"楼宇","address":"浦东新区同福东路498号"},{"poiid":"B209475CDA65A4F5489C","title":"侬好蛙干锅传奇（南桥店）","lon":"121.461967","lat":"30.935638","category":"247","category_name":"餐饮美食","address":"上海市 上海市奉贤区南桥环城东路665号新都汇B2"},{"poiid":"B2094757D06FA2F8409B","title":"上海商学院(奉浦校区)","lon":"121.45717","lat":"30.94149","category":"52","category_name":"高等院校","address":"近郊奉浦大道123号(近奉浦大厦)"},{"poiid":"B2094757D065AAFB419B","title":"上海南桥绿地逸东华酒店","lon":"121.46080291","lat":"30.941811546","category":"217","category_name":"旅馆招待所","address":"上海市奉贤区南桥环城东路473号(近奉浦大道)"},{"poiid":"B2094757D165A2FA419C","title":"上海商学院女生宿舍","lon":"121.45836891","lat":"30.940309512","category":"500","category_name":"未知分类","address":"上海市奉贤区奉浦大道"},{"poiid":"B2094654DB68A2F9499B","title":"老街绿地南桥新苑","lon":"121.47113","lat":"30.92874","category":"47","category_name":"住宅区","address":"上海市奉贤区环城东路885弄"},{"poiid":"B2094757D069A3FE4193","title":"奉贤区国家税务局","lon":"121.45956130971331","lat":"30.942345027487875","category":"617","category_name":"政府机构","address":"上海奉贤区南桥镇奉浦工业区奉浦大道111号"},{"poiid":"B2094654DB6FAAF8489D","title":"塞纳河畔 奉浦店","lon":"121.46427","lat":"30.92857","category":"75","category_name":"浙江菜","address":"近郊奉贤奉浦环城东路696号(近航南路)"},{"poiid":"B2094757D06BA7F94298","title":"上海丽洲休闲俱乐部","lon":"121.45841091","lat":"30.947153668","category":"500","category_name":"未知分类","address":"上海市奉贤区环城东路383-399号(近奉浦大道)"},{"poiid":"B2094757D16CAAFB409B","title":"森勤国际大酒店","lon":"121.461094916","lat":"30.9326253365","category":"217","category_name":"旅馆招待所","address":"上海市奉贤区团南公路南桥路"},{"poiid":"B2094654DB68A2FE409F","title":"迪豪小田园酒店","lon":"121.46408","lat":"30.93087","category":"75","category_name":"浙江菜","address":"近郊奉贤区奉浦环城东路781号(南桥环城东路韩村路)"},{"poiid":"B2094757D065AAF44098","title":"韩村路小吃街","lon":"121.459640503","lat":"30.9418373108","category":"247","category_name":"餐饮美食","address":"奉贤区韩村路（近上海商学院）"},{"poiid":"B2094757D06BA0F8459E","title":"上海商学院图文信息楼","lon":"121.45964","lat":"30.941838","category":"500","category_name":"未知分类","address":"上海商学院奉贤校区"},{"poiid":"B2094654DB69A7F9479F","title":"聚贤煌都","lon":"121.46578","lat":"30.940882","category":"47","category_name":"住宅区","address":"奉贤区奉浦大道95弄"},{"poiid":"B2094750D26FA7FB409B","title":"赛露维","lon":"121.465347","lat":"30.927162","category":"76","category_name":"上海菜","address":"近郊奉贤区南桥镇环城东路883弄63号(近南桥老街)"},{"poiid":"B2094757D16DA1F44198","title":"悦圣渔港","lon":"121.46122","lat":"30.93901","category":"76","category_name":"上海菜","address":"近郊奉贤区奉浦开发区环城东路525号(近八字桥路)"},{"poiid":"B2094757D16EA5F44998","title":"家渔沪晓","lon":"121.46188","lat":"30.93676","category":"76","category_name":"上海菜","address":"近郊奉贤区环城东路611号(近八字桥路)"},{"poiid":"B2094757D665A2FE469D","title":"湘乡人家","lon":"121.4615841","lat":"30.9366226","category":"77","category_name":"湖南菜","address":"近郊奉贤区环城东路600,606号(近八字桥路)"},{"poiid":"B2094655D264A1FB4392","title":"小元国(环城东路店)","lon":"121.46386","lat":"30.93107","category":"76","category_name":"上海菜","address":"近郊奉贤区环城东路777号(近航南公路)"},{"poiid":"B2094654DB6FAAF84798","title":"奉浦大厦","lon":"121.45932","lat":"30.94281","category":"46","category_name":"楼宇","address":"上海奉浦大道111号"},{"poiid":"B2094757D064A7FA499B","title":"多多米线","lon":"121.45991","lat":"30.93948","category":"68","category_name":"快餐厅","address":"近郊奉贤区韩村路548号(近上海商学院)"},{"poiid":"B2094757D064A7FA409A","title":"奉浦四季生态园","lon":"121.47242491","lat":"30.935544403","category":"500","category_name":"未知分类","address":"近郊奉贤航南公路(近韩谊路)"},{"poiid":"B2094654DB6FAAF84899","title":"奉贤中等专业学校","lon":"121.46009","lat":"30.93631","category":"54","category_name":"职业技术学校","address":"近郊奉贤区八字桥路626号"},{"poiid":"B2094757D16EABFA479E","title":"锦逸大酒店","lon":"121.45285876","lat":"30.930010531","category":"76","category_name":"上海菜","address":"近郊奉贤区沪杭公路1818号"},{"poiid":"B2094655D264A7FD4293","title":"九华新园","lon":"121.45996","lat":"30.931997","category":"47","category_name":"住宅区","address":"上海市奉贤区国顺路369弄"},{"poiid":"B2094757D16DA6FB409B","title":"九华苑","lon":"121.46101","lat":"30.933996","category":"252","category_name":"楼宇机构","address":"上海奉浦国顺路318号"},{"poiid":"B2094753D468ABF44398","title":"新都汇","lon":"121.461578","lat":"30.935951","category":"500","category_name":"未知分类","address":"上海市 环城东路630号"},{"poiid":"B2094757D465A1F94899","title":"永和豆浆 环城东路店","lon":"121.459204054","lat":"30.937173793","category":"68","category_name":"快餐厅","address":"近郊奉贤区环城东路619号(近八字桥路)"},{"poiid":"B2094757D164AAFB459A","title":"上海商学院4号楼","lon":"121.455162916","lat":"30.9380934615","category":"500","category_name":"未知分类","address":"上海商学院4号楼"},{"poiid":"B2094757D16EA0F44092","title":"百合苑","lon":"121.470248929","lat":"30.9390231194","category":"500","category_name":"未知分类","address":"上海八字桥路158号"},{"poiid":"B2094757D464A7FC499B","title":"金福缘三江野生大鱼坊","lon":"121.46082","lat":"30.940162","category":"82","category_name":"东北菜","address":"近郊奉贤区奉浦工业区韩村路498号(近奉浦大厦)"},{"poiid":"B2094757D06EAAF5459F","title":"绿地万豪酒店","lon":"121.46538383","lat":"30.939536039","category":"213","category_name":"五星级宾馆","address":"上海卢湾区江滨路99号"},{"poiid":"B2094654DB6FAAF94892","title":"千代温泉","lon":"121.46211","lat":"30.93602","category":"149","category_name":"洗浴推拿场所","address":""},{"poiid":"B2094654DB6FAAFB4193","title":"半岛海鲜酒家","lon":"121.45987","lat":"30.94099","category":"88","category_name":"海鲜酒楼","address":"近郊奉贤环城东路478号(南桥环城东路运河北路)"},{"poiid":"B2094757D16BA2FB449A","title":"景怡佳苑","lon":"121.46146","lat":"30.941189","category":"252","category_name":"楼宇机构","address":"上海市奉贤区环城东路499弄"},{"poiid":"B2094655D26EA5F94999","title":"皇品大酒楼","lon":"121.46086","lat":"30.93989","category":"247","category_name":"餐饮美食","address":"奉贤区环城东路515号"},{"poiid":"B2094757D06FA4FE4393","title":"凯桥绿地","lon":"121.465383832","lat":"30.939536039","category":"196","category_name":"公园","address":"上海长宁区延安西路凯旋路口  "},{"poiid":"B2094655D36CA7FB479A","title":"国顺路站","lon":"121.46158","lat":"30.93698","category":"38","category_name":"公交车站","address":""},{"poiid":"B2094753D76AA5FB4993","title":"草帽牛蛙","lon":"121.46116","lat":"30.93708","category":"71","category_name":"四川菜","address":"上海市奉贤区环城东路600号(近八字桥路)"},{"poiid":"B2094757D568A1FC4399","title":"奉浦幼儿园","lon":"121.4633157","lat":"30.93665446","category":"57","category_name":"幼儿园","address":"近郊奉浦开发区奉浦苑4号"},{"poiid":"B2094757D66CA2F44599","title":"奉浦玫瑰苑","lon":"121.466213","lat":"30.937641","category":"500","category_name":"未知分类","address":"上海奉贤区环城东路八字桥路"},{"poiid":"B2094655D36CA7FB4799","title":"国顺路","lon":"121.46249","lat":"30.93408","category":"38","category_name":"公交车站","address":""},{"poiid":"B2094757D66AA5FA489C","title":"永逸农家烤鱼馆","lon":"121.461504","lat":"30.936961","category":"269","category_name":"烧烤","address":"南桥镇环城东路660号近八字桥路"},{"poiid":"B2094757D66EA4FB449A","title":"奉浦苑","lon":"121.46478","lat":"30.934446","category":"500","category_name":"未知分类","address":"八字桥路219号"},{"poiid":"B2094757D06BA2F44499","title":"上海商学院食堂","lon":"121.45833","lat":"30.94127","category":"68","category_name":"快餐厅","address":"上海近郊奉贤区奉浦大道123号  "},{"poiid":"B2094655D26FA6FF499C","title":"锦江之星(奉贤南桥店)","lon":"121.46498","lat":"30.93118","category":"216","category_name":"经济型连锁酒店","address":"近郊奉贤区南桥镇航南公路5499号"},{"poiid":"B2094655D36CA7FF409A","title":"沪杭公路团南路","lon":"121.46176","lat":"30.93606","category":"38","category_name":"公交车站","address":""},{"poiid":"B2094757D66CA2FE429E","title":"三江野生大鱼坊","lon":"121.460721","lat":"30.940292","category":"247","category_name":"餐饮美食","address":"上海环城东路韩村路498号"},{"poiid":"B209475CD46FA5F4499F","title":"南桥新都汇","lon":"121.461418","lat":"30.93592","category":"47","category_name":"住宅区","address":"上海市 奉浦环城东路"},{"poiid":"B2094757D568A1F8499A","title":"百俪","lon":"121.46046224","lat":"30.9392711","category":"148","category_name":"美容美发店","address":"中国上海市奉贤区环城东路"},{"poiid":"B2094654DB69A7F94999","title":"福兴大厦","lon":"121.46161","lat":"30.93587","category":"46","category_name":"楼宇","address":"浦东新区同福东路498号"},{"poiid":"B209475CDA65A4F5489C","title":"侬好蛙干锅传奇（南桥店）","lon":"121.461967","lat":"30.935638","category":"247","category_name":"餐饮美食","address":"上海市 上海市奉贤区南桥环城东路665号新都汇B2"},{"poiid":"B2094757D06FA2F8409B","title":"上海商学院(奉浦校区)","lon":"121.45717","lat":"30.94149","category":"52","category_name":"高等院校","address":"近郊奉浦大道123号(近奉浦大厦)"},{"poiid":"B2094757D065AAFB419B","title":"上海南桥绿地逸东华酒店","lon":"121.46080291","lat":"30.941811546","category":"217","category_name":"旅馆招待所","address":"上海市奉贤区南桥环城东路473号(近奉浦大道)"},{"poiid":"B2094757D165A2FA419C","title":"上海商学院女生宿舍","lon":"121.45836891","lat":"30.940309512","category":"500","category_name":"未知分类","address":"上海市奉贤区奉浦大道"},{"poiid":"B2094654DB68A2F9499B","title":"老街绿地南桥新苑","lon":"121.47113","lat":"30.92874","category":"47","category_name":"住宅区","address":"上海市奉贤区环城东路885弄"},{"poiid":"B2094757D069A3FE4193","title":"奉贤区国家税务局","lon":"121.45956130971331","lat":"30.942345027487875","category":"617","category_name":"政府机构","address":"上海奉贤区南桥镇奉浦工业区奉浦大道111号"},{"poiid":"B2094654DB6FAAF8489D","title":"塞纳河畔 奉浦店","lon":"121.46427","lat":"30.92857","category":"75","category_name":"浙江菜","address":"近郊奉贤奉浦环城东路696号(近航南路)"},{"poiid":"B2094757D06BA7F94298","title":"上海丽洲休闲俱乐部","lon":"121.45841091","lat":"30.947153668","category":"500","category_name":"未知分类","address":"上海市奉贤区环城东路383-399号(近奉浦大道)"},{"poiid":"B2094757D16CAAFB409B","title":"森勤国际大酒店","lon":"121.461094916","lat":"30.9326253365","category":"217","category_name":"旅馆招待所","address":"上海市奉贤区团南公路南桥路"},{"poiid":"B2094654DB68A2FE409F","title":"迪豪小田园酒店","lon":"121.46408","lat":"30.93087","category":"75","category_name":"浙江菜","address":"近郊奉贤区奉浦环城东路781号(南桥环城东路韩村路)"},{"poiid":"B2094757D065AAF44098","title":"韩村路小吃街","lon":"121.459640503","lat":"30.9418373108","category":"247","category_name":"餐饮美食","address":"奉贤区韩村路（近上海商学院）"},{"poiid":"B2094757D06BA0F8459E","title":"上海商学院图文信息楼","lon":"121.45964","lat":"30.941838","category":"500","category_name":"未知分类","address":"上海商学院奉贤校区"},{"poiid":"B2094654DB69A7F9479F","title":"聚贤煌都","lon":"121.46578","lat":"30.940882","category":"47","category_name":"住宅区","address":"奉贤区奉浦大道95弄"},{"poiid":"B2094750D26FA7FB409B","title":"赛露维","lon":"121.465347","lat":"30.927162","category":"76","category_name":"上海菜","address":"近郊奉贤区南桥镇环城东路883弄63号(近南桥老街)"},{"poiid":"B2094757D16DA1F44198","title":"悦圣渔港","lon":"121.46122","lat":"30.93901","category":"76","category_name":"上海菜","address":"近郊奉贤区奉浦开发区环城东路525号(近八字桥路)"},{"poiid":"B2094757D16EA5F44998","title":"家渔沪晓","lon":"121.46188","lat":"30.93676","category":"76","category_name":"上海菜","address":"近郊奉贤区环城东路611号(近八字桥路)"},{"poiid":"B2094757D665A2FE469D","title":"湘乡人家","lon":"121.4615841","lat":"30.9366226","category":"77","category_name":"湖南菜","address":"近郊奉贤区环城东路600,606号(近八字桥路)"},{"poiid":"B2094655D264A1FB4392","title":"小元国(环城东路店)","lon":"121.46386","lat":"30.93107","category":"76","category_name":"上海菜","address":"近郊奉贤区环城东路777号(近航南公路)"},{"poiid":"B2094654DB6FAAF84798","title":"奉浦大厦","lon":"121.45932","lat":"30.94281","category":"46","category_name":"楼宇","address":"上海奉浦大道111号"},{"poiid":"B2094757D064A7FA499B","title":"多多米线","lon":"121.45991","lat":"30.93948","category":"68","category_name":"快餐厅","address":"近郊奉贤区韩村路548号(近上海商学院)"},{"poiid":"B2094757D064A7FA409A","title":"奉浦四季生态园","lon":"121.47242491","lat":"30.935544403","category":"500","category_name":"未知分类","address":"近郊奉贤航南公路(近韩谊路)"},{"poiid":"B2094654DB6FAAF84899","title":"奉贤中等专业学校","lon":"121.46009","lat":"30.93631","category":"54","category_name":"职业技术学校","address":"近郊奉贤区八字桥路626号"},{"poiid":"B2094757D16EABFA479E","title":"锦逸大酒店","lon":"121.45285876","lat":"30.930010531","category":"76","category_name":"上海菜","address":"近郊奉贤区沪杭公路1818号"},{"poiid":"B2094655D264A7FD4293","title":"九华新园","lon":"121.45996","lat":"30.931997","category":"47","category_name":"住宅区","address":"上海市奉贤区国顺路369弄"},{"poiid":"B2094757D16DA6FB409B","title":"九华苑","lon":"121.46101","lat":"30.933996","category":"252","category_name":"楼宇机构","address":"上海奉浦国顺路318号"},{"poiid":"B2094753D468ABF44398","title":"新都汇","lon":"121.461578","lat":"30.935951","category":"500","category_name":"未知分类","address":"上海市 环城东路630号"},{"poiid":"B2094757D465A1F94899","title":"永和豆浆 环城东路店","lon":"121.459204054","lat":"30.937173793","category":"68","category_name":"快餐厅","address":"近郊奉贤区环城东路619号(近八字桥路)"},{"poiid":"B2094757D164AAFB459A","title":"上海商学院4号楼","lon":"121.455162916","lat":"30.9380934615","category":"500","category_name":"未知分类","address":"上海商学院4号楼"},{"poiid":"B2094757D16EA0F44092","title":"百合苑","lon":"121.470248929","lat":"30.9390231194","category":"500","category_name":"未知分类","address":"上海八字桥路158号"},{"poiid":"B2094757D464A7FC499B","title":"金福缘三江野生大鱼坊","lon":"121.46082","lat":"30.940162","category":"82","category_name":"东北菜","address":"近郊奉贤区奉浦工业区韩村路498号(近奉浦大厦)"},{"poiid":"B2094757D06EAAF5459F","title":"绿地万豪酒店","lon":"121.46538383","lat":"30.939536039","category":"213","category_name":"五星级宾馆","address":"上海卢湾区江滨路99号"},{"poiid":"B2094654DB6FAAF94892","title":"千代温泉","lon":"121.46211","lat":"30.93602","category":"149","category_name":"洗浴推拿场所","address":""},{"poiid":"B2094654DB6FAAFB4193","title":"半岛海鲜酒家","lon":"121.45987","lat":"30.94099","category":"88","category_name":"海鲜酒楼","address":"近郊奉贤环城东路478号(南桥环城东路运河北路)"},{"poiid":"B2094757D16BA2FB449A","title":"景怡佳苑","lon":"121.46146","lat":"30.941189","category":"252","category_name":"楼宇机构","address":"上海市奉贤区环城东路499弄"},{"poiid":"B2094655D26EA5F94999","title":"皇品大酒楼","lon":"121.46086","lat":"30.93989","category":"247","category_name":"餐饮美食","address":"奉贤区环城东路515号"},{"poiid":"B2094757D06FA4FE4393","title":"凯桥绿地","lon":"121.465383832","lat":"30.939536039","category":"196","category_name":"公园","address":"上海长宁区延安西路凯旋路口  "},{"poiid":"B2094655D36CA7FB479A","title":"国顺路站","lon":"121.46158","lat":"30.93698","category":"38","category_name":"公交车站","address":""},{"poiid":"B2094753D76AA5FB4993","title":"草帽牛蛙","lon":"121.46116","lat":"30.93708","category":"71","category_name":"四川菜","address":"上海市奉贤区环城东路600号(近八字桥路)"},{"poiid":"B2094757D568A1FC4399","title":"奉浦幼儿园","lon":"121.4633157","lat":"30.93665446","category":"57","category_name":"幼儿园","address":"近郊奉浦开发区奉浦苑4号"},{"poiid":"B2094757D66CA2F44599","title":"奉浦玫瑰苑","lon":"121.466213","lat":"30.937641","category":"500","category_name":"未知分类","address":"上海奉贤区环城东路八字桥路"},{"poiid":"B2094655D36CA7FB4799","title":"国顺路","lon":"121.46249","lat":"30.93408","category":"38","category_name":"公交车站","address":""},{"poiid":"B2094757D66AA5FA489C","title":"永逸农家烤鱼馆","lon":"121.461504","lat":"30.936961","category":"269","category_name":"烧烤","address":"南桥镇环城东路660号近八字桥路"},{"poiid":"B2094757D66EA4FB449A","title":"奉浦苑","lon":"121.46478","lat":"30.934446","category":"500","category_name":"未知分类","address":"八字桥路219号"},{"poiid":"B2094757D06BA2F44499","title":"上海商学院食堂","lon":"121.45833","lat":"30.94127","category":"68","category_name":"快餐厅","address":"上海近郊奉贤区奉浦大道123号  "},{"poiid":"B2094655D26FA6FF499C","title":"锦江之星(奉贤南桥店)","lon":"121.46498","lat":"30.93118","category":"216","category_name":"经济型连锁酒店","address":"近郊奉贤区南桥镇航南公路5499号"},{"poiid":"B2094655D36CA7FF409A","title":"沪杭公路团南路","lon":"121.46176","lat":"30.93606","category":"38","category_name":"公交车站","address":""},{"poiid":"B2094757D66CA2FE429E","title":"三江野生大鱼坊","lon":"121.460721","lat":"30.940292","category":"247","category_name":"餐饮美食","address":"上海环城东路韩村路498号"},{"poiid":"B209475CD46FA5F4499F","title":"南桥新都汇","lon":"121.461418","lat":"30.93592","category":"47","category_name":"住宅区","address":"上海市 奉浦环城东路"},{"poiid":"B2094757D568A1F8499A","title":"百俪","lon":"121.46046224","lat":"30.9392711","category":"148","category_name":"美容美发店","address":"中国上海市奉贤区环城东路"},{"poiid":"B2094654DB69A7F94999","title":"福兴大厦","lon":"121.46161","lat":"30.93587","category":"46","category_name":"楼宇","address":"浦东新区同福东路498号"},{"poiid":"B209475CDA65A4F5489C","title":"侬好蛙干锅传奇（南桥店）","lon":"121.461967","lat":"30.935638","category":"247","category_name":"餐饮美食","address":"上海市 上海市奉贤区南桥环城东路665号新都汇B2"},{"poiid":"B2094757D06FA2F8409B","title":"上海商学院(奉浦校区)","lon":"121.45717","lat":"30.94149","category":"52","category_name":"高等院校","address":"近郊奉浦大道123号(近奉浦大厦)"},{"poiid":"B2094757D065AAFB419B","title":"上海南桥绿地逸东华酒店","lon":"121.46080291","lat":"30.941811546","category":"217","category_name":"旅馆招待所","address":"上海市奉贤区南桥环城东路473号(近奉浦大道)"},{"poiid":"B2094757D165A2FA419C","title":"上海商学院女生宿舍","lon":"121.45836891","lat":"30.940309512","category":"500","category_name":"未知分类","address":"上海市奉贤区奉浦大道"},{"poiid":"B2094654DB68A2F9499B","title":"老街绿地南桥新苑","lon":"121.47113","lat":"30.92874","category":"47","category_name":"住宅区","address":"上海市奉贤区环城东路885弄"},{"poiid":"B2094757D069A3FE4193","title":"奉贤区国家税务局","lon":"121.45956130971331","lat":"30.942345027487875","category":"617","category_name":"政府机构","address":"上海奉贤区南桥镇奉浦工业区奉浦大道111号"},{"poiid":"B2094654DB6FAAF8489D","title":"塞纳河畔 奉浦店","lon":"121.46427","lat":"30.92857","category":"75","category_name":"浙江菜","address":"近郊奉贤奉浦环城东路696号(近航南路)"},{"poiid":"B2094757D06BA7F94298","title":"上海丽洲休闲俱乐部","lon":"121.45841091","lat":"30.947153668","category":"500","category_name":"未知分类","address":"上海市奉贤区环城东路383-399号(近奉浦大道)"},{"poiid":"B2094757D16CAAFB409B","title":"森勤国际大酒店","lon":"121.461094916","lat":"30.9326253365","category":"217","category_name":"旅馆招待所","address":"上海市奉贤区团南公路南桥路"},{"poiid":"B2094654DB68A2FE409F","title":"迪豪小田园酒店","lon":"121.46408","lat":"30.93087","category":"75","category_name":"浙江菜","address":"近郊奉贤区奉浦环城东路781号(南桥环城东路韩村路)"},{"poiid":"B2094757D065AAF44098","title":"韩村路小吃街","lon":"121.459640503","lat":"30.9418373108","category":"247","category_name":"餐饮美食","address":"奉贤区韩村路（近上海商学院）"},{"poiid":"B2094757D06BA0F8459E","title":"上海商学院图文信息楼","lon":"121.45964","lat":"30.941838","category":"500","category_name":"未知分类","address":"上海商学院奉贤校区"},{"poiid":"B2094654DB69A7F9479F","title":"聚贤煌都","lon":"121.46578","lat":"30.940882","category":"47","category_name":"住宅区","address":"奉贤区奉浦大道95弄"},{"poiid":"B2094750D26FA7FB409B","title":"赛露维","lon":"121.465347","lat":"30.927162","category":"76","category_name":"上海菜","address":"近郊奉贤区南桥镇环城东路883弄63号(近南桥老街)"},{"poiid":"B2094757D16DA1F44198","title":"悦圣渔港","lon":"121.46122","lat":"30.93901","category":"76","category_name":"上海菜","address":"近郊奉贤区奉浦开发区环城东路525号(近八字桥路)"},{"poiid":"B2094757D16EA5F44998","title":"家渔沪晓","lon":"121.46188","lat":"30.93676","category":"76","category_name":"上海菜","address":"近郊奉贤区环城东路611号(近八字桥路)"},{"poiid":"B2094757D665A2FE469D","title":"湘乡人家","lon":"121.4615841","lat":"30.9366226","category":"77","category_name":"湖南菜","address":"近郊奉贤区环城东路600,606号(近八字桥路)"},{"poiid":"B2094655D264A1FB4392","title":"小元国(环城东路店)","lon":"121.46386","lat":"30.93107","category":"76","category_name":"上海菜","address":"近郊奉贤区环城东路777号(近航南公路)"},{"poiid":"B2094654DB6FAAF84798","title":"奉浦大厦","lon":"121.45932","lat":"30.94281","category":"46","category_name":"楼宇","address":"上海奉浦大道111号"},{"poiid":"B2094757D064A7FA499B","title":"多多米线","lon":"121.45991","lat":"30.93948","category":"68","category_name":"快餐厅","address":"近郊奉贤区韩村路548号(近上海商学院)"},{"poiid":"B2094757D064A7FA409A","title":"奉浦四季生态园","lon":"121.47242491","lat":"30.935544403","category":"500","category_name":"未知分类","address":"近郊奉贤航南公路(近韩谊路)"},{"poiid":"B2094654DB6FAAF84899","title":"奉贤中等专业学校","lon":"121.46009","lat":"30.93631","category":"54","category_name":"职业技术学校","address":"近郊奉贤区八字桥路626号"},{"poiid":"B2094757D16EABFA479E","title":"锦逸大酒店","lon":"121.45285876","lat":"30.930010531","category":"76","category_name":"上海菜","address":"近郊奉贤区沪杭公路1818号"},{"poiid":"B2094655D264A7FD4293","title":"九华新园","lon":"121.45996","lat":"30.931997","category":"47","category_name":"住宅区","address":"上海市奉贤区国顺路369弄"},{"poiid":"B2094757D16DA6FB409B","title":"九华苑","lon":"121.46101","lat":"30.933996","category":"252","category_name":"楼宇机构","address":"上海奉浦国顺路318号"},{"poiid":"B2094753D468ABF44398","title":"新都汇","lon":"121.461578","lat":"30.935951","category":"500","category_name":"未知分类","address":"上海市 环城东路630号"},{"poiid":"B2094757D465A1F94899","title":"永和豆浆 环城东路店","lon":"121.459204054","lat":"30.937173793","category":"68","category_name":"快餐厅","address":"近郊奉贤区环城东路619号(近八字桥路)"},{"poiid":"B2094757D164AAFB459A","title":"上海商学院4号楼","lon":"121.455162916","lat":"30.9380934615","category":"500","category_name":"未知分类","address":"上海商学院4号楼"},{"poiid":"B2094757D16EA0F44092","title":"百合苑","lon":"121.470248929","lat":"30.9390231194","category":"500","category_name":"未知分类","address":"上海八字桥路158号"},{"poiid":"B2094757D464A7FC499B","title":"金福缘三江野生大鱼坊","lon":"121.46082","lat":"30.940162","category":"82","category_name":"东北菜","address":"近郊奉贤区奉浦工业区韩村路498号(近奉浦大厦)"},{"poiid":"B2094757D06EAAF5459F","title":"绿地万豪酒店","lon":"121.46538383","lat":"30.939536039","category":"213","category_name":"五星级宾馆","address":"上海卢湾区江滨路99号"},{"poiid":"B2094654DB6FAAF94892","title":"千代温泉","lon":"121.46211","lat":"30.93602","category":"149","category_name":"洗浴推拿场所","address":""},{"poiid":"B2094654DB6FAAFB4193","title":"半岛海鲜酒家","lon":"121.45987","lat":"30.94099","category":"88","category_name":"海鲜酒楼","address":"近郊奉贤环城东路478号(南桥环城东路运河北路)"},{"poiid":"B2094757D16BA2FB449A","title":"景怡佳苑","lon":"121.46146","lat":"30.941189","category":"252","category_name":"楼宇机构","address":"上海市奉贤区环城东路499弄"},{"poiid":"B2094655D26EA5F94999","title":"皇品大酒楼","lon":"121.46086","lat":"30.93989","category":"247","category_name":"餐饮美食","address":"奉贤区环城东路515号"},{"poiid":"B2094757D06FA4FE4393","title":"凯桥绿地","lon":"121.465383832","lat":"30.939536039","category":"196","category_name":"公园","address":"上海长宁区延安西路凯旋路口  "},{"poiid":"B2094655D36CA7FB479A","title":"国顺路站","lon":"121.46158","lat":"30.93698","category":"38","category_name":"公交车站","address":""},{"poiid":"B2094753D76AA5FB4993","title":"草帽牛蛙","lon":"121.46116","lat":"30.93708","category":"71","category_name":"四川菜","address":"上海市奉贤区环城东路600号(近八字桥路)"},{"poiid":"B2094757D568A1FC4399","title":"奉浦幼儿园","lon":"121.4633157","lat":"30.93665446","category":"57","category_name":"幼儿园","address":"近郊奉浦开发区奉浦苑4号"},{"poiid":"B2094757D66CA2F44599","title":"奉浦玫瑰苑","lon":"121.466213","lat":"30.937641","category":"500","category_name":"未知分类","address":"上海奉贤区环城东路八字桥路"},{"poiid":"B2094655D36CA7FB4799","title":"国顺路","lon":"121.46249","lat":"30.93408","category":"38","category_name":"公交车站","address":""},{"poiid":"B2094757D66AA5FA489C","title":"永逸农家烤鱼馆","lon":"121.461504","lat":"30.936961","category":"269","category_name":"烧烤","address":"南桥镇环城东路660号近八字桥路"},{"poiid":"B2094757D66EA4FB449A","title":"奉浦苑","lon":"121.46478","lat":"30.934446","category":"500","category_name":"未知分类","address":"八字桥路219号"},{"poiid":"B2094757D06BA2F44499","title":"上海商学院食堂","lon":"121.45833","lat":"30.94127","category":"68","category_name":"快餐厅","address":"上海近郊奉贤区奉浦大道123号  "},{"poiid":"B2094655D26FA6FF499C","title":"锦江之星(奉贤南桥店)","lon":"121.46498","lat":"30.93118","category":"216","category_name":"经济型连锁酒店","address":"近郊奉贤区南桥镇航南公路5499号"},{"poiid":"B2094655D36CA7FF409A","title":"沪杭公路团南路","lon":"121.46176","lat":"30.93606","category":"38","category_name":"公交车站","address":""},{"poiid":"B2094757D66CA2FE429E","title":"三江野生大鱼坊","lon":"121.460721","lat":"30.940292","category":"247","category_name":"餐饮美食","address":"上海环城东路韩村路498号"},{"poiid":"B209475CD46FA5F4499F","title":"南桥新都汇","lon":"121.461418","lat":"30.93592","category":"47","category_name":"住宅区","address":"上海市 奉浦环城东路"},{"poiid":"B2094757D568A1F8499A","title":"百俪","lon":"121.46046224","lat":"30.9392711","category":"148","category_name":"美容美发店","address":"中国上海市奉贤区环城东路"},{"poiid":"B2094654DB69A7F94999","title":"福兴大厦","lon":"121.46161","lat":"30.93587","category":"46","category_name":"楼宇","address":"浦东新区同福东路498号"},{"poiid":"B209475CDA65A4F5489C","title":"侬好蛙干锅传奇（南桥店）","lon":"121.461967","lat":"30.935638","category":"247","category_name":"餐饮美食","address":"上海市 上海市奉贤区南桥环城东路665号新都汇B2"}]