[{"poiid":"B2094655D26FAAF84693","title":"上海斯格威铂尔曼大酒店","lon":"121.47106","lat":"31.20432","category":"72","category_name":"广东菜","address":"卢湾区打浦路15号(近徐家汇路)"},{"poiid":"B2094757D06FA4F4439A","title":"海底捞","lon":"121.470195738","lat":"31.2057517786","category":"86","category_name":"火锅店","address":"上海市卢湾区徐家汇路"},{"poiid":"B2094750D76FA3FE4692","title":"小贝壳自助火锅(打浦路店)","lon":"121.471","lat":"31.2053","category":"86","category_name":"火锅店","address":"卢湾区打浦路1号金玉兰广场4楼(近日月光广场)"},{"poiid":"B2094753D76FAAFA449C","title":"上海滩国泰旗舰店","lon":"121.466011","lat":"31.216125","category":"249","category_name":"购物服务","address":"淮海中路868号"},{"poiid":"B209475CD564A7F84292","title":"上海滩新天地店","lon":"121.47463","lat":"31.22164","category":"119","category_name":"商场","address":"\"太仓路181弄新天地北里15号\r\n\""},{"poiid":"B2094654DA6EA3FB469C","title":"顺风大酒店(金玉兰店)","lon":"121.47104","lat":"31.20487","category":"70","category_name":"综合酒楼","address":"卢湾区打浦路1号金玉兰广场2楼(徐家汇路口)"},{"poiid":"B2094757D06EAAF54299","title":"和记小菜 金玉兰店","lon":"121.47043927308","lat":"31.205163725256","category":"76","category_name":"上海菜","address":"卢湾区打浦路1号金玉兰广场3-4楼(徐家汇路口)"},{"poiid":"B2094655D26EA1F5489C","title":"避风塘(打浦店)","lon":"121.47128","lat":"31.20544","category":"72","category_name":"广东菜","address":"卢湾区打浦路1号金玉兰广场1楼(徐家汇路口)"},{"poiid":"B2094750DB6DA1FD4999","title":"三月间生活餐厅","lon":"121.47051","lat":"31.20595","category":"76","category_name":"上海菜","address":"卢湾区徐家汇路618号日月光中心广场5楼C区(近瑞金二路)"},{"poiid":"B2094757D06FA2FA409B","title":"新开元大酒店(卢湾店)","lon":"121.47065","lat":"31.2054","category":"75","category_name":"浙江菜","address":"卢湾区徐家汇路560号(近打浦路)"},{"poiid":"B2094654DA6EA3FB409B","title":"金玉兰广场","lon":"121.47017","lat":"31.20476","category":"119","category_name":"商场","address":"卢湾区打浦路1号(徐家汇路口)"},{"poiid":"B2094757D06FA1F94298","title":"ME &amp; JOE","lon":"121.473350467","lat":"31.20664897","category":"94","category_name":"西餐厅","address":"上海卢湾区鲁班路100号大同花园170室(近丽园路)"},{"poiid":"B2094654DB6BA5FB4693","title":"新旺茶餐厅 打浦店","lon":"121.470363054","lat":"31.205739793","category":"72","category_name":"广东菜","address":"卢湾区徐家汇路550弄1号宝鼎大厦101室(打浦路口)"},{"poiid":"B2094654DB64A6FF429F","title":"星巴克(大同店)","lon":"121.472754","lat":"31.206316","category":"260","category_name":"其他","address":"卢湾区斜徐路593号(近鲁班路)"},{"poiid":"B2094757D06FA2F94998","title":"自由港量贩式KTV(打浦店)","lon":"121.47076","lat":"31.20595","category":"170","category_name":"KTV","address":"卢湾区徐家汇路550号宝鼎大厦4楼(近打浦路)"},{"poiid":"B2094757D06FA7F94299","title":"翠丽汤馆","lon":"121.46813","lat":"31.20648","category":"72","category_name":"广东菜","address":"卢湾区徐家汇路618号日月光中心广场4楼F09号商铺(近瑞金二路)"},{"poiid":"B2094757D06FA5FA499B","title":"馔巴黎海鲜百汇餐厅","lon":"121.47101","lat":"31.20384","category":"268","category_name":"自助","address":"卢湾区打浦路15号斯格威铂尔曼大酒店B1楼(南塘浜路与徐家汇路之间)"},{"poiid":"B2094757D06FA6F44398","title":"大班休闲SPA(斜徐路店)","lon":"121.47339","lat":"31.20613","category":"149","category_name":"洗浴推拿场所","address":"上海卢湾区斜徐路595号(近丽园路)"},{"poiid":"B2094757D06FA6F8409D","title":"Skyway Pullman Hotel","lon":"121.471072","lat":"31.20432","category":"217","category_name":"旅馆招待所","address":"上海卢湾区打浦路15号(近徐家汇路)"},{"poiid":"B2094757D06FA0FF499A","title":"若叶日式料理(打浦桥店)","lon":"121.47139","lat":"31.20655","category":"95","category_name":"日本料理","address":"上海卢湾区徐家汇路548-3号(近泰康路)  "},{"poiid":"B2094750D76DAAFC449E","title":"家有好面(日月光广场店)","lon":"121.471","lat":"31.2059","category":"68","category_name":"快餐厅","address":"卢湾区徐家汇路618号日月光中心广场B2楼B区26室(近瑞金二路)"},{"poiid":"B2094751D16AAAF94899","title":"香港谭仔三哥餐厅（打浦路店）","lon":"121.471463","lat":"31.20537","category":"72","category_name":"广东菜","address":"卢湾区打浦路1号金玉兰广场2楼(近徐家汇路)"},{"poiid":"B2094757D06FA2FC4699","title":"大同花园","lon":"121.47351521","lat":"31.204857882","category":"47","category_name":"住宅区","address":"上海卢湾区鲁班路88弄(近丽园路)"},{"poiid":"B2094757D06FAAFD419F","title":"天天渔港(打浦店)","lon":"121.47148","lat":"31.20581","category":"72","category_name":"广东菜","address":"卢湾区徐家汇路548号(近泰康路)"},{"poiid":"B209475CD46CA3FD489A","title":"年代秀飯堂(日月光店)","lon":"121.472831","lat":"31.205135","category":"247","category_name":"餐饮美食","address":"上海市 徐家汇路618号日月光中心广场5F-TK02-03号铺(近泰康路)"},{"poiid":"B2094655D269ABFE459E","title":"斯格威铂尔曼大酒店华府轩","lon":"121.47116","lat":"31.20434","category":"76","category_name":"上海菜","address":"卢湾区打浦路15号斯格威铂尔曼大酒店3楼(近徐家汇路)"},{"poiid":"B2094750D665A1FF4292","title":"大鼓米线(日月光店)","lon":"121.471","lat":"31.2059","category":"68","category_name":"快餐厅","address":"卢湾区徐家汇路618号日月光中心广场B2楼F区39号(近田子坊)"},{"poiid":"B2094654DA6EA3FB4898","title":"上海交通大学医学院附属瑞金医院(分部)","lon":"121.4719","lat":"31.20651","category":"162","category_name":"医院","address":"卢湾区徐家汇路573号"},{"poiid":"B2094750D76DA5FC4693","title":"吉亨面馆(日月光广场店)","lon":"121.471","lat":"31.2059","category":"68","category_name":"快餐厅","address":"卢湾区徐家汇路618号日月光广场B2楼C区台湾馆bt-04号铺(近瑞金二路)"},{"poiid":"B2094757D068A2FB4492","title":"潮泰清迈泰国餐厅","lon":"121.4729","lat":"31.20606","category":"99","category_name":"泰国／越南菜品餐厅","address":"卢湾区斜徐路591号(近丽园路)"},{"poiid":"B209475DD268A6F54299","title":"南小馆（日月光店）","lon":"121.473121","lat":"31.205419","category":"247","category_name":"餐饮美食","address":"卢湾区徐家汇路618号日月光中心广场1楼TK-03号商铺"},{"poiid":"B2094654DB6AA6F8429D","title":"上海天诚大酒店","lon":"121.47126","lat":"31.20521","category":"214","category_name":"四星级宾馆","address":"卢湾区打浦路1号金玉兰广场东座(徐家汇路口)"},{"poiid":"B2094655D26AA7FE439A","title":"申普宠物医院徐家汇路店","lon":"121.47192","lat":"31.20703","category":"247","category_name":"餐饮美食","address":"上海卢湾区徐家汇路565号(近打浦路)"},{"poiid":"B2094753D765A0FD4292","title":"掌上韩品","lon":"121.471473","lat":"31.205774","category":"247","category_name":"餐饮美食","address":"上海市 上海日月光广场B2"},{"poiid":"B2094750D664A0FD4792","title":"麟笼坊特色小笼包(日月光广场店)","lon":"121.471","lat":"31.2059","category":"68","category_name":"快餐厅","address":"卢湾区徐家汇路618号日月光广场B2楼B33室(近瑞金二路)"},{"poiid":"B2094750D565A1F4419B","title":"鼎鼎有鸣日式烧烤金玉兰广场店","lon":"121.470382","lat":"31.205125","category":"247","category_name":"餐饮美食","address":null},{"poiid":"B2094750D768ABF84893","title":"市长胡椒饼","lon":"121.471","lat":"31.2059","category":"68","category_name":"快餐厅","address":"卢湾区徐家汇路618号日月光中心广场B2楼台湾馆BT12室(近九号线打浦桥站2号口)"},{"poiid":"B2094750DB68AAF44699","title":"小滨楼 日月光广场","lon":"121.470306","lat":"31.205396","category":"247","category_name":"餐饮美食","address":"打浦桥地铁站"},{"poiid":"B2094757D068A7FB409B","title":"小花牛(丽园店)","lon":"121.47199","lat":"31.20524","category":"260","category_name":"其他","address":"卢湾区丽园路1030号(近鲁班路)"},{"poiid":"B2094757D66DA5FE409B","title":"一哥火锅","lon":"121.472383738","lat":"31.2058777813","category":"247","category_name":"餐饮美食","address":"上海市卢湾区打浦路"},{"poiid":"B2094757D068ABFE449D","title":"FULL HOUSE coffee bar","lon":"121.47051","lat":"31.20595","category":"67","category_name":"甜品店","address":"徐汇区衡山路(安亭路永嘉路)"},{"poiid":"B2094654DA6EA3F5409B","title":"行运港式茶餐厅 斜徐路店","lon":"121.47282235576","lat":"31.205848725097","category":"72","category_name":"广东菜","address":"卢湾区斜徐路583号(近丽园路)"},{"poiid":"B2094757D068A2F84892","title":"康友四季保健会所(打浦桥店)","lon":"121.47098","lat":"31.20558","category":"149","category_name":"洗浴推拿场所","address":"卢湾区徐家汇路550弄1号宝鼎大厦1楼(近打浦路)"},{"poiid":"B2094750D76FA2FE4092","title":"小马哥起司马铃薯(日月光店)","lon":"121.471","lat":"31.2059","category":"68","category_name":"快餐厅","address":"卢湾区徐家汇路618号日月光中心广场B2楼T-15号铺"},{"poiid":"B2094757D16FA5F9489A","title":"中国农业银行上海市分行","lon":"121.47054273","lat":"31.205682177","category":"500","category_name":"未知分类","address":"上海市徐家汇路599号"},{"poiid":"B209475CD06AA7F8439A","title":"海底捞火锅店 打浦路店","lon":"121.47037","lat":"31.20516","category":"86","category_name":"火锅店","address":"打浦路1号金玉兰广场4楼(徐家汇路口)"},{"poiid":"B2094757D06FA7FC459C","title":"上海市微创外科临床医学中心(瑞金医院分部)","lon":"121.471727","lat":"31.206563","category":"162","category_name":"医院","address":"上海市卢湾区徐家汇路573号"},{"poiid":"B2094654DA6EA3F5479C","title":"景泰大厦","lon":"121.472","lat":"31.2061","category":"46","category_name":"楼宇","address":"铁西兴华南街与十马路交汇处"},{"poiid":"B2094757D068A5F8439F","title":"中国建设银行(卢湾支行)","lon":"121.47144","lat":"31.20685","category":"150","category_name":"银行","address":"卢湾区徐家汇路530号二楼(思南路泰康路)"},{"poiid":"B2094751D26CA2FC409D","title":"台北纯K（日月光店¥","lon":"121.473396","lat":"31.205162","category":"500","category_name":"未知分类","address":"日月光"},{"poiid":"B2094655D26FAAF84693","title":"上海斯格威铂尔曼大酒店","lon":"121.47106","lat":"31.20432","category":"72","category_name":"广东菜","address":"卢湾区打浦路15号(近徐家汇路)"},{"poiid":"B2094757D06FA4F4439A","title":"海底捞","lon":"121.470195738","lat":"31.2057517786","category":"86","category_name":"火锅店","address":"上海市卢湾区徐家汇路"},{"poiid":"B2094750D76FA3FE4692","title":"小贝壳自助火锅(打浦路店)","lon":"121.471","lat":"31.2053","category":"86","category_name":"火锅店","address":"卢湾区打浦路1号金玉兰广场4楼(近日月光广场)"},{"poiid":"B2094753D76FAAFA449C","title":"上海滩国泰旗舰店","lon":"121.466011","lat":"31.216125","category":"249","category_name":"购物服务","address":"淮海中路868号"},{"poiid":"B209475CD564A7F84292","title":"上海滩新天地店","lon":"121.47463","lat":"31.22164","category":"119","category_name":"商场","address":"\"太仓路181弄新天地北里15号\r\n\""},{"poiid":"B2094654DA6EA3FB469C","title":"顺风大酒店(金玉兰店)","lon":"121.47104","lat":"31.20487","category":"70","category_name":"综合酒楼","address":"卢湾区打浦路1号金玉兰广场2楼(徐家汇路口)"},{"poiid":"B2094757D06EAAF54299","title":"和记小菜 金玉兰店","lon":"121.47043927308","lat":"31.205163725256","category":"76","category_name":"上海菜","address":"卢湾区打浦路1号金玉兰广场3-4楼(徐家汇路口)"},{"poiid":"B2094655D26EA1F5489C","title":"避风塘(打浦店)","lon":"121.47128","lat":"31.20544","category":"72","category_name":"广东菜","address":"卢湾区打浦路1号金玉兰广场1楼(徐家汇路口)"},{"poiid":"B2094750DB6DA1FD4999","title":"三月间生活餐厅","lon":"121.47051","lat":"31.20595","category":"76","category_name":"上海菜","address":"卢湾区徐家汇路618号日月光中心广场5楼C区(近瑞金二路)"},{"poiid":"B2094757D06FA2FA409B","title":"新开元大酒店(卢湾店)","lon":"121.47065","lat":"31.2054","category":"75","category_name":"浙江菜","address":"卢湾区徐家汇路560号(近打浦路)"},{"poiid":"B2094654DA6EA3FB409B","title":"金玉兰广场","lon":"121.47017","lat":"31.20476","category":"119","category_name":"商场","address":"卢湾区打浦路1号(徐家汇路口)"},{"poiid":"B2094757D06FA1F94298","title":"ME &amp; JOE","lon":"121.473350467","lat":"31.20664897","category":"94","category_name":"西餐厅","address":"上海卢湾区鲁班路100号大同花园170室(近丽园路)"},{"poiid":"B2094654DB6BA5FB4693","title":"新旺茶餐厅 打浦店","lon":"121.470363054","lat":"31.205739793","category":"72","category_name":"广东菜","address":"卢湾区徐家汇路550弄1号宝鼎大厦101室(打浦路口)"},{"poiid":"B2094654DB64A6FF429F","title":"星巴克(大同店)","lon":"121.472754","lat":"31.206316","category":"260","category_name":"其他","address":"卢湾区斜徐路593号(近鲁班路)"},{"poiid":"B2094757D06FA2F94998","title":"自由港量贩式KTV(打浦店)","lon":"121.47076","lat":"31.20595","category":"170","category_name":"KTV","address":"卢湾区徐家汇路550号宝鼎大厦4楼(近打浦路)"},{"poiid":"B2094757D06FA7F94299","title":"翠丽汤馆","lon":"121.46813","lat":"31.20648","category":"72","category_name":"广东菜","address":"卢湾区徐家汇路618号日月光中心广场4楼F09号商铺(近瑞金二路)"},{"poiid":"B2094757D06FA5FA499B","title":"馔巴黎海鲜百汇餐厅","lon":"121.47101","lat":"31.20384","category":"268","category_name":"自助","address":"卢湾区打浦路15号斯格威铂尔曼大酒店B1楼(南塘浜路与徐家汇路之间)"},{"poiid":"B2094757D06FA6F44398","title":"大班休闲SPA(斜徐路店)","lon":"121.47339","lat":"31.20613","category":"149","category_name":"洗浴推拿场所","address":"上海卢湾区斜徐路595号(近丽园路)"},{"poiid":"B2094757D06FA6F8409D","title":"Skyway Pullman Hotel","lon":"121.471072","lat":"31.20432","category":"217","category_name":"旅馆招待所","address":"上海卢湾区打浦路15号(近徐家汇路)"},{"poiid":"B2094757D06FA0FF499A","title":"若叶日式料理(打浦桥店)","lon":"121.47139","lat":"31.20655","category":"95","category_name":"日本料理","address":"上海卢湾区徐家汇路548-3号(近泰康路)  "},{"poiid":"B2094750D76DAAFC449E","title":"家有好面(日月光广场店)","lon":"121.471","lat":"31.2059","category":"68","category_name":"快餐厅","address":"卢湾区徐家汇路618号日月光中心广场B2楼B区26室(近瑞金二路)"},{"poiid":"B2094751D16AAAF94899","title":"香港谭仔三哥餐厅（打浦路店）","lon":"121.471463","lat":"31.20537","category":"72","category_name":"广东菜","address":"卢湾区打浦路1号金玉兰广场2楼(近徐家汇路)"},{"poiid":"B2094757D06FA2FC4699","title":"大同花园","lon":"121.47351521","lat":"31.204857882","category":"47","category_name":"住宅区","address":"上海卢湾区鲁班路88弄(近丽园路)"},{"poiid":"B2094757D06FAAFD419F","title":"天天渔港(打浦店)","lon":"121.47148","lat":"31.20581","category":"72","category_name":"广东菜","address":"卢湾区徐家汇路548号(近泰康路)"},{"poiid":"B209475CD46CA3FD489A","title":"年代秀飯堂(日月光店)","lon":"121.472831","lat":"31.205135","category":"247","category_name":"餐饮美食","address":"上海市 徐家汇路618号日月光中心广场5F-TK02-03号铺(近泰康路)"},{"poiid":"B2094655D269ABFE459E","title":"斯格威铂尔曼大酒店华府轩","lon":"121.47116","lat":"31.20434","category":"76","category_name":"上海菜","address":"卢湾区打浦路15号斯格威铂尔曼大酒店3楼(近徐家汇路)"},{"poiid":"B2094750D665A1FF4292","title":"大鼓米线(日月光店)","lon":"121.471","lat":"31.2059","category":"68","category_name":"快餐厅","address":"卢湾区徐家汇路618号日月光中心广场B2楼F区39号(近田子坊)"},{"poiid":"B2094654DA6EA3FB4898","title":"上海交通大学医学院附属瑞金医院(分部)","lon":"121.4719","lat":"31.20651","category":"162","category_name":"医院","address":"卢湾区徐家汇路573号"},{"poiid":"B2094750D76DA5FC4693","title":"吉亨面馆(日月光广场店)","lon":"121.471","lat":"31.2059","category":"68","category_name":"快餐厅","address":"卢湾区徐家汇路618号日月光广场B2楼C区台湾馆bt-04号铺(近瑞金二路)"},{"poiid":"B2094757D068A2FB4492","title":"潮泰清迈泰国餐厅","lon":"121.4729","lat":"31.20606","category":"99","category_name":"泰国／越南菜品餐厅","address":"卢湾区斜徐路591号(近丽园路)"},{"poiid":"B209475DD268A6F54299","title":"南小馆（日月光店）","lon":"121.473121","lat":"31.205419","category":"247","category_name":"餐饮美食","address":"卢湾区徐家汇路618号日月光中心广场1楼TK-03号商铺"},{"poiid":"B2094654DB6AA6F8429D","title":"上海天诚大酒店","lon":"121.47126","lat":"31.20521","category":"214","category_name":"四星级宾馆","address":"卢湾区打浦路1号金玉兰广场东座(徐家汇路口)"},{"poiid":"B2094655D26AA7FE439A","title":"申普宠物医院徐家汇路店","lon":"121.47192","lat":"31.20703","category":"247","category_name":"餐饮美食","address":"上海卢湾区徐家汇路565号(近打浦路)"},{"poiid":"B2094753D765A0FD4292","title":"掌上韩品","lon":"121.471473","lat":"31.205774","category":"247","category_name":"餐饮美食","address":"上海市 上海日月光广场B2"},{"poiid":"B2094750D664A0FD4792","title":"麟笼坊特色小笼包(日月光广场店)","lon":"121.471","lat":"31.2059","category":"68","category_name":"快餐厅","address":"卢湾区徐家汇路618号日月光广场B2楼B33室(近瑞金二路)"},{"poiid":"B2094750D565A1F4419B","title":"鼎鼎有鸣日式烧烤金玉兰广场店","lon":"121.470382","lat":"31.205125","category":"247","category_name":"餐饮美食","address":null},{"poiid":"B2094750D768ABF84893","title":"市长胡椒饼","lon":"121.471","lat":"31.2059","category":"68","category_name":"快餐厅","address":"卢湾区徐家汇路618号日月光中心广场B2楼台湾馆BT12室(近九号线打浦桥站2号口)"},{"poiid":"B2094750DB68AAF44699","title":"小滨楼 日月光广场","lon":"121.470306","lat":"31.205396","category":"247","category_name":"餐饮美食","address":"打浦桥地铁站"},{"poiid":"B2094757D068A7FB409B","title":"小花牛(丽园店)","lon":"121.47199","lat":"31.20524","category":"260","category_name":"其他","address":"卢湾区丽园路1030号(近鲁班路)"},{"poiid":"B2094757D66DA5FE409B","title":"一哥火锅","lon":"121.472383738","lat":"31.2058777813","category":"247","category_name":"餐饮美食","address":"上海市卢湾区打浦路"},{"poiid":"B2094757D068ABFE449D","title":"FULL HOUSE coffee bar","lon":"121.47051","lat":"31.20595","category":"67","category_name":"甜品店","address":"徐汇区衡山路(安亭路永嘉路)"},{"poiid":"B2094654DA6EA3F5409B","title":"行运港式茶餐厅 斜徐路店","lon":"121.47282235576","lat":"31.205848725097","category":"72","category_name":"广东菜","address":"卢湾区斜徐路583号(近丽园路)"},{"poiid":"B2094757D068A2F84892","title":"康友四季保健会所(打浦桥店)","lon":"121.47098","lat":"31.20558","category":"149","category_name":"洗浴推拿场所","address":"卢湾区徐家汇路550弄1号宝鼎大厦1楼(近打浦路)"},{"poiid":"B2094750D76FA2FE4092","title":"小马哥起司马铃薯(日月光店)","lon":"121.471","lat":"31.2059","category":"68","category_name":"快餐厅","address":"卢湾区徐家汇路618号日月光中心广场B2楼T-15号铺"},{"poiid":"B2094757D16FA5F9489A","title":"中国农业银行上海市分行","lon":"121.47054273","lat":"31.205682177","category":"500","category_name":"未知分类","address":"上海市徐家汇路599号"},{"poiid":"B209475CD06AA7F8439A","title":"海底捞火锅店 打浦路店","lon":"121.47037","lat":"31.20516","category":"86","category_name":"火锅店","address":"打浦路1号金玉兰广场4楼(徐家汇路口)"},{"poiid":"B2094757D06FA7FC459C","title":"上海市微创外科临床医学中心(瑞金医院分部)","lon":"121.471727","lat":"31.206563","category":"162","category_name":"医院","address":"上海市卢湾区徐家汇路573号"},{"poiid":"B2094654DA6EA3F5479C","title":"景泰大厦","lon":"121.472","lat":"31.2061","category":"46","category_name":"楼宇","address":"铁西兴华南街与十马路交汇处"},{"poiid":"B2094757D068A5F8439F","title":"中国建设银行(卢湾支行)","lon":"121.47144","lat":"31.20685","category":"150","category_name":"银行","address":"卢湾区徐家汇路530号二楼(思南路泰康路)"},{"poiid":"B2094751D26CA2FC409D","title":"台北纯K（日月光店¥","lon":"121.473396","lat":"31.205162","category":"500","category_name":"未知分类","address":"日月光"},{"poiid":"B2094655D26FAAF84693","title":"上海斯格威铂尔曼大酒店","lon":"121.47106","lat":"31.20432","category":"72","category_name":"广东菜","address":"卢湾区打浦路15号(近徐家汇路)"},{"poiid":"B2094757D06FA4F4439A","title":"海底捞","lon":"121.470195738","lat":"31.2057517786","category":"86","category_name":"火锅店","address":"上海市卢湾区徐家汇路"},{"poiid":"B2094750D76FA3FE4692","title":"小贝壳自助火锅(打浦路店)","lon":"121.471","lat":"31.2053","category":"86","category_name":"火锅店","address":"卢湾区打浦路1号金玉兰广场4楼(近日月光广场)"},{"poiid":"B2094753D76FAAFA449C","title":"上海滩国泰旗舰店","lon":"121.466011","lat":"31.216125","category":"249","category_name":"购物服务","address":"淮海中路868号"},{"poiid":"B209475CD564A7F84292","title":"上海滩新天地店","lon":"121.47463","lat":"31.22164","category":"119","category_name":"商场","address":"\"太仓路181弄新天地北里15号\r\n\""},{"poiid":"B2094654DA6EA3FB469C","title":"顺风大酒店(金玉兰店)","lon":"121.47104","lat":"31.20487","category":"70","category_name":"综合酒楼","address":"卢湾区打浦路1号金玉兰广场2楼(徐家汇路口)"},{"poiid":"B2094757D06EAAF54299","title":"和记小菜 金玉兰店","lon":"121.47043927308","lat":"31.205163725256","category":"76","category_name":"上海菜","address":"卢湾区打浦路1号金玉兰广场3-4楼(徐家汇路口)"},{"poiid":"B2094655D26EA1F5489C","title":"避风塘(打浦店)","lon":"121.47128","lat":"31.20544","category":"72","category_name":"广东菜","address":"卢湾区打浦路1号金玉兰广场1楼(徐家汇路口)"},{"poiid":"B2094750DB6DA1FD4999","title":"三月间生活餐厅","lon":"121.47051","lat":"31.20595","category":"76","category_name":"上海菜","address":"卢湾区徐家汇路618号日月光中心广场5楼C区(近瑞金二路)"},{"poiid":"B2094757D06FA2FA409B","title":"新开元大酒店(卢湾店)","lon":"121.47065","lat":"31.2054","category":"75","category_name":"浙江菜","address":"卢湾区徐家汇路560号(近打浦路)"},{"poiid":"B2094654DA6EA3FB409B","title":"金玉兰广场","lon":"121.47017","lat":"31.20476","category":"119","category_name":"商场","address":"卢湾区打浦路1号(徐家汇路口)"},{"poiid":"B2094757D06FA1F94298","title":"ME &amp; JOE","lon":"121.473350467","lat":"31.20664897","category":"94","category_name":"西餐厅","address":"上海卢湾区鲁班路100号大同花园170室(近丽园路)"},{"poiid":"B2094654DB6BA5FB4693","title":"新旺茶餐厅 打浦店","lon":"121.470363054","lat":"31.205739793","category":"72","category_name":"广东菜","address":"卢湾区徐家汇路550弄1号宝鼎大厦101室(打浦路口)"},{"poiid":"B2094654DB64A6FF429F","title":"星巴克(大同店)","lon":"121.472754","lat":"31.206316","category":"260","category_name":"其他","address":"卢湾区斜徐路593号(近鲁班路)"},{"poiid":"B2094757D06FA2F94998","title":"自由港量贩式KTV(打浦店)","lon":"121.47076","lat":"31.20595","category":"170","category_name":"KTV","address":"卢湾区徐家汇路550号宝鼎大厦4楼(近打浦路)"},{"poiid":"B2094757D06FA7F94299","title":"翠丽汤馆","lon":"121.46813","lat":"31.20648","category":"72","category_name":"广东菜","address":"卢湾区徐家汇路618号日月光中心广场4楼F09号商铺(近瑞金二路)"},{"poiid":"B2094757D06FA5FA499B","title":"馔巴黎海鲜百汇餐厅","lon":"121.47101","lat":"31.20384","category":"268","category_name":"自助","address":"卢湾区打浦路15号斯格威铂尔曼大酒店B1楼(南塘浜路与徐家汇路之间)"},{"poiid":"B2094757D06FA6F44398","title":"大班休闲SPA(斜徐路店)","lon":"121.47339","lat":"31.20613","category":"149","category_name":"洗浴推拿场所","address":"上海卢湾区斜徐路595号(近丽园路)"},{"poiid":"B2094757D06FA6F8409D","title":"Skyway Pullman Hotel","lon":"121.471072","lat":"31.20432","category":"217","category_name":"旅馆招待所","address":"上海卢湾区打浦路15号(近徐家汇路)"},{"poiid":"B2094757D06FA0FF499A","title":"若叶日式料理(打浦桥店)","lon":"121.47139","lat":"31.20655","category":"95","category_name":"日本料理","address":"上海卢湾区徐家汇路548-3号(近泰康路)  "},{"poiid":"B2094750D76DAAFC449E","title":"家有好面(日月光广场店)","lon":"121.471","lat":"31.2059","category":"68","category_name":"快餐厅","address":"卢湾区徐家汇路618号日月光中心广场B2楼B区26室(近瑞金二路)"},{"poiid":"B2094751D16AAAF94899","title":"香港谭仔三哥餐厅（打浦路店）","lon":"121.471463","lat":"31.20537","category":"72","category_name":"广东菜","address":"卢湾区打浦路1号金玉兰广场2楼(近徐家汇路)"},{"poiid":"B2094757D06FA2FC4699","title":"大同花园","lon":"121.47351521","lat":"31.204857882","category":"47","category_name":"住宅区","address":"上海卢湾区鲁班路88弄(近丽园路)"},{"poiid":"B2094757D06FAAFD419F","title":"天天渔港(打浦店)","lon":"121.47148","lat":"31.20581","category":"72","category_name":"广东菜","address":"卢湾区徐家汇路548号(近泰康路)"},{"poiid":"B209475CD46CA3FD489A","title":"年代秀飯堂(日月光店)","lon":"121.472831","lat":"31.205135","category":"247","category_name":"餐饮美食","address":"上海市 徐家汇路618号日月光中心广场5F-TK02-03号铺(近泰康路)"},{"poiid":"B2094655D269ABFE459E","title":"斯格威铂尔曼大酒店华府轩","lon":"121.47116","lat":"31.20434","category":"76","category_name":"上海菜","address":"卢湾区打浦路15号斯格威铂尔曼大酒店3楼(近徐家汇路)"},{"poiid":"B2094750D665A1FF4292","title":"大鼓米线(日月光店)","lon":"121.471","lat":"31.2059","category":"68","category_name":"快餐厅","address":"卢湾区徐家汇路618号日月光中心广场B2楼F区39号(近田子坊)"},{"poiid":"B2094654DA6EA3FB4898","title":"上海交通大学医学院附属瑞金医院(分部)","lon":"121.4719","lat":"31.20651","category":"162","category_name":"医院","address":"卢湾区徐家汇路573号"},{"poiid":"B2094750D76DA5FC4693","title":"吉亨面馆(日月光广场店)","lon":"121.471","lat":"31.2059","category":"68","category_name":"快餐厅","address":"卢湾区徐家汇路618号日月光广场B2楼C区台湾馆bt-04号铺(近瑞金二路)"},{"poiid":"B2094757D068A2FB4492","title":"潮泰清迈泰国餐厅","lon":"121.4729","lat":"31.20606","category":"99","category_name":"泰国／越南菜品餐厅","address":"卢湾区斜徐路591号(近丽园路)"},{"poiid":"B209475DD268A6F54299","title":"南小馆（日月光店）","lon":"121.473121","lat":"31.205419","category":"247","category_name":"餐饮美食","address":"卢湾区徐家汇路618号日月光中心广场1楼TK-03号商铺"},{"poiid":"B2094654DB6AA6F8429D","title":"上海天诚大酒店","lon":"121.47126","lat":"31.20521","category":"214","category_name":"四星级宾馆","address":"卢湾区打浦路1号金玉兰广场东座(徐家汇路口)"},{"poiid":"B2094655D26AA7FE439A","title":"申普宠物医院徐家汇路店","lon":"121.47192","lat":"31.20703","category":"247","category_name":"餐饮美食","address":"上海卢湾区徐家汇路565号(近打浦路)"},{"poiid":"B2094753D765A0FD4292","title":"掌上韩品","lon":"121.471473","lat":"31.205774","category":"247","category_name":"餐饮美食","address":"上海市 上海日月光广场B2"},{"poiid":"B2094750D664A0FD4792","title":"麟笼坊特色小笼包(日月光广场店)","lon":"121.471","lat":"31.2059","category":"68","category_name":"快餐厅","address":"卢湾区徐家汇路618号日月光广场B2楼B33室(近瑞金二路)"},{"poiid":"B2094750D565A1F4419B","title":"鼎鼎有鸣日式烧烤金玉兰广场店","lon":"121.470382","lat":"31.205125","category":"247","category_name":"餐饮美食","address":null},{"poiid":"B2094750D768ABF84893","title":"市长胡椒饼","lon":"121.471","lat":"31.2059","category":"68","category_name":"快餐厅","address":"卢湾区徐家汇路618号日月光中心广场B2楼台湾馆BT12室(近九号线打浦桥站2号口)"},{"poiid":"B2094750DB68AAF44699","title":"小滨楼 日月光广场","lon":"121.470306","lat":"31.205396","category":"247","category_name":"餐饮美食","address":"打浦桥地铁站"},{"poiid":"B2094757D068A7FB409B","title":"小花牛(丽园店)","lon":"121.47199","lat":"31.20524","category":"260","category_name":"其他","address":"卢湾区丽园路1030号(近鲁班路)"},{"poiid":"B2094757D66DA5FE409B","title":"一哥火锅","lon":"121.472383738","lat":"31.2058777813","category":"247","category_name":"餐饮美食","address":"上海市卢湾区打浦路"},{"poiid":"B2094757D068ABFE449D","title":"FULL HOUSE coffee bar","lon":"121.47051","lat":"31.20595","category":"67","category_name":"甜品店","address":"徐汇区衡山路(安亭路永嘉路)"},{"poiid":"B2094654DA6EA3F5409B","title":"行运港式茶餐厅 斜徐路店","lon":"121.47282235576","lat":"31.205848725097","category":"72","category_name":"广东菜","address":"卢湾区斜徐路583号(近丽园路)"},{"poiid":"B2094757D068A2F84892","title":"康友四季保健会所(打浦桥店)","lon":"121.47098","lat":"31.20558","category":"149","category_name":"洗浴推拿场所","address":"卢湾区徐家汇路550弄1号宝鼎大厦1楼(近打浦路)"},{"poiid":"B2094750D76FA2FE4092","title":"小马哥起司马铃薯(日月光店)","lon":"121.471","lat":"31.2059","category":"68","category_name":"快餐厅","address":"卢湾区徐家汇路618号日月光中心广场B2楼T-15号铺"},{"poiid":"B2094757D16FA5F9489A","title":"中国农业银行上海市分行","lon":"121.47054273","lat":"31.205682177","category":"500","category_name":"未知分类","address":"上海市徐家汇路599号"},{"poiid":"B209475CD06AA7F8439A","title":"海底捞火锅店 打浦路店","lon":"121.47037","lat":"31.20516","category":"86","category_name":"火锅店","address":"打浦路1号金玉兰广场4楼(徐家汇路口)"},{"poiid":"B2094757D06FA7FC459C","title":"上海市微创外科临床医学中心(瑞金医院分部)","lon":"121.471727","lat":"31.206563","category":"162","category_name":"医院","address":"上海市卢湾区徐家汇路573号"},{"poiid":"B2094654DA6EA3F5479C","title":"景泰大厦","lon":"121.472","lat":"31.2061","category":"46","category_name":"楼宇","address":"铁西兴华南街与十马路交汇处"},{"poiid":"B2094757D068A5F8439F","title":"中国建设银行(卢湾支行)","lon":"121.47144","lat":"31.20685","category":"150","category_name":"银行","address":"卢湾区徐家汇路530号二楼(思南路泰康路)"},{"poiid":"B2094751D26CA2FC409D","title":"台北纯K（日月光店¥","lon":"121.473396","lat":"31.205162","category":"500","category_name":"未知分类","address":"日月光"},{"poiid":"B2094655D26FAAF84693","title":"上海斯格威铂尔曼大酒店","lon":"121.47106","lat":"31.20432","category":"72","category_name":"广东菜","address":"卢湾区打浦路15号(近徐家汇路)"},{"poiid":"B2094757D06FA4F4439A","title":"海底捞","lon":"121.470195738","lat":"31.2057517786","category":"86","category_name":"火锅店","address":"上海市卢湾区徐家汇路"},{"poiid":"B2094750D76FA3FE4692","title":"小贝壳自助火锅(打浦路店)","lon":"121.471","lat":"31.2053","category":"86","category_name":"火锅店","address":"卢湾区打浦路1号金玉兰广场4楼(近日月光广场)"},{"poiid":"B2094753D76FAAFA449C","title":"上海滩国泰旗舰店","lon":"121.466011","lat":"31.216125","category":"249","category_name":"购物服务","address":"淮海中路868号"},{"poiid":"B209475CD564A7F84292","title":"上海滩新天地店","lon":"121.47463","lat":"31.22164","category":"119","category_name":"商场","address":"\"太仓路181弄新天地北里15号\r\n\""},{"poiid":"B2094654DA6EA3FB469C","title":"顺风大酒店(金玉兰店)","lon":"121.47104","lat":"31.20487","category":"70","category_name":"综合酒楼","address":"卢湾区打浦路1号金玉兰广场2楼(徐家汇路口)"},{"poiid":"B2094757D06EAAF54299","title":"和记小菜 金玉兰店","lon":"121.47043927308","lat":"31.205163725256","category":"76","category_name":"上海菜","address":"卢湾区打浦路1号金玉兰广场3-4楼(徐家汇路口)"},{"poiid":"B2094655D26EA1F5489C","title":"避风塘(打浦店)","lon":"121.47128","lat":"31.20544","category":"72","category_name":"广东菜","address":"卢湾区打浦路1号金玉兰广场1楼(徐家汇路口)"},{"poiid":"B2094750DB6DA1FD4999","title":"三月间生活餐厅","lon":"121.47051","lat":"31.20595","category":"76","category_name":"上海菜","address":"卢湾区徐家汇路618号日月光中心广场5楼C区(近瑞金二路)"},{"poiid":"B2094757D06FA2FA409B","title":"新开元大酒店(卢湾店)","lon":"121.47065","lat":"31.2054","category":"75","category_name":"浙江菜","address":"卢湾区徐家汇路560号(近打浦路)"},{"poiid":"B2094654DA6EA3FB409B","title":"金玉兰广场","lon":"121.47017","lat":"31.20476","category":"119","category_name":"商场","address":"卢湾区打浦路1号(徐家汇路口)"},{"poiid":"B2094757D06FA1F94298","title":"ME &amp; JOE","lon":"121.473350467","lat":"31.20664897","category":"94","category_name":"西餐厅","address":"上海卢湾区鲁班路100号大同花园170室(近丽园路)"},{"poiid":"B2094654DB6BA5FB4693","title":"新旺茶餐厅 打浦店","lon":"121.470363054","lat":"31.205739793","category":"72","category_name":"广东菜","address":"卢湾区徐家汇路550弄1号宝鼎大厦101室(打浦路口)"},{"poiid":"B2094654DB64A6FF429F","title":"星巴克(大同店)","lon":"121.472754","lat":"31.206316","category":"260","category_name":"其他","address":"卢湾区斜徐路593号(近鲁班路)"},{"poiid":"B2094757D06FA2F94998","title":"自由港量贩式KTV(打浦店)","lon":"121.47076","lat":"31.20595","category":"170","category_name":"KTV","address":"卢湾区徐家汇路550号宝鼎大厦4楼(近打浦路)"},{"poiid":"B2094757D06FA7F94299","title":"翠丽汤馆","lon":"121.46813","lat":"31.20648","category":"72","category_name":"广东菜","address":"卢湾区徐家汇路618号日月光中心广场4楼F09号商铺(近瑞金二路)"},{"poiid":"B2094757D06FA5FA499B","title":"馔巴黎海鲜百汇餐厅","lon":"121.47101","lat":"31.20384","category":"268","category_name":"自助","address":"卢湾区打浦路15号斯格威铂尔曼大酒店B1楼(南塘浜路与徐家汇路之间)"},{"poiid":"B2094757D06FA6F44398","title":"大班休闲SPA(斜徐路店)","lon":"121.47339","lat":"31.20613","category":"149","category_name":"洗浴推拿场所","address":"上海卢湾区斜徐路595号(近丽园路)"},{"poiid":"B2094757D06FA6F8409D","title":"Skyway Pullman Hotel","lon":"121.471072","lat":"31.20432","category":"217","category_name":"旅馆招待所","address":"上海卢湾区打浦路15号(近徐家汇路)"},{"poiid":"B2094757D06FA0FF499A","title":"若叶日式料理(打浦桥店)","lon":"121.47139","lat":"31.20655","category":"95","category_name":"日本料理","address":"上海卢湾区徐家汇路548-3号(近泰康路)  "},{"poiid":"B2094750D76DAAFC449E","title":"家有好面(日月光广场店)","lon":"121.471","lat":"31.2059","category":"68","category_name":"快餐厅","address":"卢湾区徐家汇路618号日月光中心广场B2楼B区26室(近瑞金二路)"},{"poiid":"B2094751D16AAAF94899","title":"香港谭仔三哥餐厅（打浦路店）","lon":"121.471463","lat":"31.20537","category":"72","category_name":"广东菜","address":"卢湾区打浦路1号金玉兰广场2楼(近徐家汇路)"},{"poiid":"B2094757D06FA2FC4699","title":"大同花园","lon":"121.47351521","lat":"31.204857882","category":"47","category_name":"住宅区","address":"上海卢湾区鲁班路88弄(近丽园路)"},{"poiid":"B2094757D06FAAFD419F","title":"天天渔港(打浦店)","lon":"121.47148","lat":"31.20581","category":"72","category_name":"广东菜","address":"卢湾区徐家汇路548号(近泰康路)"},{"poiid":"B209475CD46CA3FD489A","title":"年代秀飯堂(日月光店)","lon":"121.472831","lat":"31.205135","category":"247","category_name":"餐饮美食","address":"上海市 徐家汇路618号日月光中心广场5F-TK02-03号铺(近泰康路)"},{"poiid":"B2094655D269ABFE459E","title":"斯格威铂尔曼大酒店华府轩","lon":"121.47116","lat":"31.20434","category":"76","category_name":"上海菜","address":"卢湾区打浦路15号斯格威铂尔曼大酒店3楼(近徐家汇路)"},{"poiid":"B2094750D665A1FF4292","title":"大鼓米线(日月光店)","lon":"121.471","lat":"31.2059","category":"68","category_name":"快餐厅","address":"卢湾区徐家汇路618号日月光中心广场B2楼F区39号(近田子坊)"},{"poiid":"B2094654DA6EA3FB4898","title":"上海交通大学医学院附属瑞金医院(分部)","lon":"121.4719","lat":"31.20651","category":"162","category_name":"医院","address":"卢湾区徐家汇路573号"},{"poiid":"B2094750D76DA5FC4693","title":"吉亨面馆(日月光广场店)","lon":"121.471","lat":"31.2059","category":"68","category_name":"快餐厅","address":"卢湾区徐家汇路618号日月光广场B2楼C区台湾馆bt-04号铺(近瑞金二路)"},{"poiid":"B2094757D068A2FB4492","title":"潮泰清迈泰国餐厅","lon":"121.4729","lat":"31.20606","category":"99","category_name":"泰国／越南菜品餐厅","address":"卢湾区斜徐路591号(近丽园路)"},{"poiid":"B209475DD268A6F54299","title":"南小馆（日月光店）","lon":"121.473121","lat":"31.205419","category":"247","category_name":"餐饮美食","address":"卢湾区徐家汇路618号日月光中心广场1楼TK-03号商铺"},{"poiid":"B2094654DB6AA6F8429D","title":"上海天诚大酒店","lon":"121.47126","lat":"31.20521","category":"214","category_name":"四星级宾馆","address":"卢湾区打浦路1号金玉兰广场东座(徐家汇路口)"},{"poiid":"B2094655D26AA7FE439A","title":"申普宠物医院徐家汇路店","lon":"121.47192","lat":"31.20703","category":"247","category_name":"餐饮美食","address":"上海卢湾区徐家汇路565号(近打浦路)"},{"poiid":"B2094753D765A0FD4292","title":"掌上韩品","lon":"121.471473","lat":"31.205774","category":"247","category_name":"餐饮美食","address":"上海市 上海日月光广场B2"},{"poiid":"B2094750D664A0FD4792","title":"麟笼坊特色小笼包(日月光广场店)","lon":"121.471","lat":"31.2059","category":"68","category_name":"快餐厅","address":"卢湾区徐家汇路618号日月光广场B2楼B33室(近瑞金二路)"},{"poiid":"B2094750D565A1F4419B","title":"鼎鼎有鸣日式烧烤金玉兰广场店","lon":"121.470382","lat":"31.205125","category":"247","category_name":"餐饮美食","address":null},{"poiid":"B2094750D768ABF84893","title":"市长胡椒饼","lon":"121.471","lat":"31.2059","category":"68","category_name":"快餐厅","address":"卢湾区徐家汇路618号日月光中心广场B2楼台湾馆BT12室(近九号线打浦桥站2号口)"},{"poiid":"B2094750DB68AAF44699","title":"小滨楼 日月光广场","lon":"121.470306","lat":"31.205396","category":"247","category_name":"餐饮美食","address":"打浦桥地铁站"},{"poiid":"B2094757D068A7FB409B","title":"小花牛(丽园店)","lon":"121.47199","lat":"31.20524","category":"260","category_name":"其他","address":"卢湾区丽园路1030号(近鲁班路)"},{"poiid":"B2094757D66DA5FE409B","title":"一哥火锅","lon":"121.472383738","lat":"31.2058777813","category":"247","category_name":"餐饮美食","address":"上海市卢湾区打浦路"},{"poiid":"B2094757D068ABFE449D","title":"FULL HOUSE coffee bar","lon":"121.47051","lat":"31.20595","category":"67","category_name":"甜品店","address":"徐汇区衡山路(安亭路永嘉路)"},{"poiid":"B2094654DA6EA3F5409B","title":"行运港式茶餐厅 斜徐路店","lon":"121.47282235576","lat":"31.205848725097","category":"72","category_name":"广东菜","address":"卢湾区斜徐路583号(近丽园路)"},{"poiid":"B2094757D068A2F84892","title":"康友四季保健会所(打浦桥店)","lon":"121.47098","lat":"31.20558","category":"149","category_name":"洗浴推拿场所","address":"卢湾区徐家汇路550弄1号宝鼎大厦1楼(近打浦路)"},{"poiid":"B2094750D76FA2FE4092","title":"小马哥起司马铃薯(日月光店)","lon":"121.471","lat":"31.2059","category":"68","category_name":"快餐厅","address":"卢湾区徐家汇路618号日月光中心广场B2楼T-15号铺"},{"poiid":"B2094757D16FA5F9489A","title":"中国农业银行上海市分行","lon":"121.47054273","lat":"31.205682177","category":"500","category_name":"未知分类","address":"上海市徐家汇路599号"},{"poiid":"B209475CD06AA7F8439A","title":"海底捞火锅店 打浦路店","lon":"121.47037","lat":"31.20516","category":"86","category_name":"火锅店","address":"打浦路1号金玉兰广场4楼(徐家汇路口)"},{"poiid":"B2094757D06FA7FC459C","title":"上海市微创外科临床医学中心(瑞金医院分部)","lon":"121.471727","lat":"31.206563","category":"162","category_name":"医院","address":"上海市卢湾区徐家汇路573号"},{"poiid":"B2094654DA6EA3F5479C","title":"景泰大厦","lon":"121.472","lat":"31.2061","category":"46","category_name":"楼宇","address":"铁西兴华南街与十马路交汇处"},{"poiid":"B2094757D068A5F8439F","title":"中国建设银行(卢湾支行)","lon":"121.47144","lat":"31.20685","category":"150","category_name":"银行","address":"卢湾区徐家汇路530号二楼(思南路泰康路)"},{"poiid":"B2094751D26CA2FC409D","title":"台北纯K（日月光店¥","lon":"121.473396","lat":"31.205162","category":"500","category_name":"未知分类","address":"日月光"},{"poiid":"B2094655D26FAAF84693","title":"上海斯格威铂尔曼大酒店","lon":"121.47106","lat":"31.20432","category":"72","category_name":"广东菜","address":"卢湾区打浦路15号(近徐家汇路)"},{"poiid":"B2094757D06FA4F4439A","title":"海底捞","lon":"121.470195738","lat":"31.2057517786","category":"86","category_name":"火锅店","address":"上海市卢湾区徐家汇路"},{"poiid":"B2094750D76FA3FE4692","title":"小贝壳自助火锅(打浦路店)","lon":"121.471","lat":"31.2053","category":"86","category_name":"火锅店","address":"卢湾区打浦路1号金玉兰广场4楼(近日月光广场)"},{"poiid":"B2094753D76FAAFA449C","title":"上海滩国泰旗舰店","lon":"121.466011","lat":"31.216125","category":"249","category_name":"购物服务","address":"淮海中路868号"},{"poiid":"B209475CD564A7F84292","title":"上海滩新天地店","lon":"121.47463","lat":"31.22164","category":"119","category_name":"商场","address":"\"太仓路181弄新天地北里15号\r\n\""},{"poiid":"B2094654DA6EA3FB469C","title":"顺风大酒店(金玉兰店)","lon":"121.47104","lat":"31.20487","category":"70","category_name":"综合酒楼","address":"卢湾区打浦路1号金玉兰广场2楼(徐家汇路口)"},{"poiid":"B2094757D06EAAF54299","title":"和记小菜 金玉兰店","lon":"121.47043927308","lat":"31.205163725256","category":"76","category_name":"上海菜","address":"卢湾区打浦路1号金玉兰广场3-4楼(徐家汇路口)"},{"poiid":"B2094655D26EA1F5489C","title":"避风塘(打浦店)","lon":"121.47128","lat":"31.20544","category":"72","category_name":"广东菜","address":"卢湾区打浦路1号金玉兰广场1楼(徐家汇路口)"},{"poiid":"B2094750DB6DA1FD4999","title":"三月间生活餐厅","lon":"121.47051","lat":"31.20595","category":"76","category_name":"上海菜","address":"卢湾区徐家汇路618号日月光中心广场5楼C区(近瑞金二路)"},{"poiid":"B2094757D06FA2FA409B","title":"新开元大酒店(卢湾店)","lon":"121.47065","lat":"31.2054","category":"75","category_name":"浙江菜","address":"卢湾区徐家汇路560号(近打浦路)"},{"poiid":"B2094654DA6EA3FB409B","title":"金玉兰广场","lon":"121.47017","lat":"31.20476","category":"119","category_name":"商场","address":"卢湾区打浦路1号(徐家汇路口)"},{"poiid":"B2094757D06FA1F94298","title":"ME &amp; JOE","lon":"121.473350467","lat":"31.20664897","category":"94","category_name":"西餐厅","address":"上海卢湾区鲁班路100号大同花园170室(近丽园路)"},{"poiid":"B2094654DB6BA5FB4693","title":"新旺茶餐厅 打浦店","lon":"121.470363054","lat":"31.205739793","category":"72","category_name":"广东菜","address":"卢湾区徐家汇路550弄1号宝鼎大厦101室(打浦路口)"},{"poiid":"B2094654DB64A6FF429F","title":"星巴克(大同店)","lon":"121.472754","lat":"31.206316","category":"260","category_name":"其他","address":"卢湾区斜徐路593号(近鲁班路)"},{"poiid":"B2094757D06FA2F94998","title":"自由港量贩式KTV(打浦店)","lon":"121.47076","lat":"31.20595","category":"170","category_name":"KTV","address":"卢湾区徐家汇路550号宝鼎大厦4楼(近打浦路)"},{"poiid":"B2094757D06FA7F94299","title":"翠丽汤馆","lon":"121.46813","lat":"31.20648","category":"72","category_name":"广东菜","address":"卢湾区徐家汇路618号日月光中心广场4楼F09号商铺(近瑞金二路)"},{"poiid":"B2094757D06FA5FA499B","title":"馔巴黎海鲜百汇餐厅","lon":"121.47101","lat":"31.20384","category":"268","category_name":"自助","address":"卢湾区打浦路15号斯格威铂尔曼大酒店B1楼(南塘浜路与徐家汇路之间)"},{"poiid":"B2094757D06FA6F44398","title":"大班休闲SPA(斜徐路店)","lon":"121.47339","lat":"31.20613","category":"149","category_name":"洗浴推拿场所","address":"上海卢湾区斜徐路595号(近丽园路)"},{"poiid":"B2094757D06FA6F8409D","title":"Skyway Pullman Hotel","lon":"121.471072","lat":"31.20432","category":"217","category_name":"旅馆招待所","address":"上海卢湾区打浦路15号(近徐家汇路)"},{"poiid":"B2094757D06FA0FF499A","title":"若叶日式料理(打浦桥店)","lon":"121.47139","lat":"31.20655","category":"95","category_name":"日本料理","address":"上海卢湾区徐家汇路548-3号(近泰康路)  "},{"poiid":"B2094750D76DAAFC449E","title":"家有好面(日月光广场店)","lon":"121.471","lat":"31.2059","category":"68","category_name":"快餐厅","address":"卢湾区徐家汇路618号日月光中心广场B2楼B区26室(近瑞金二路)"},{"poiid":"B2094751D16AAAF94899","title":"香港谭仔三哥餐厅（打浦路店）","lon":"121.471463","lat":"31.20537","category":"72","category_name":"广东菜","address":"卢湾区打浦路1号金玉兰广场2楼(近徐家汇路)"},{"poiid":"B2094757D06FA2FC4699","title":"大同花园","lon":"121.47351521","lat":"31.204857882","category":"47","category_name":"住宅区","address":"上海卢湾区鲁班路88弄(近丽园路)"},{"poiid":"B2094757D06FAAFD419F","title":"天天渔港(打浦店)","lon":"121.47148","lat":"31.20581","category":"72","category_name":"广东菜","address":"卢湾区徐家汇路548号(近泰康路)"},{"poiid":"B209475CD46CA3FD489A","title":"年代秀飯堂(日月光店)","lon":"121.472831","lat":"31.205135","category":"247","category_name":"餐饮美食","address":"上海市 徐家汇路618号日月光中心广场5F-TK02-03号铺(近泰康路)"},{"poiid":"B2094655D269ABFE459E","title":"斯格威铂尔曼大酒店华府轩","lon":"121.47116","lat":"31.20434","category":"76","category_name":"上海菜","address":"卢湾区打浦路15号斯格威铂尔曼大酒店3楼(近徐家汇路)"},{"poiid":"B2094750D665A1FF4292","title":"大鼓米线(日月光店)","lon":"121.471","lat":"31.2059","category":"68","category_name":"快餐厅","address":"卢湾区徐家汇路618号日月光中心广场B2楼F区39号(近田子坊)"},{"poiid":"B2094654DA6EA3FB4898","title":"上海交通大学医学院附属瑞金医院(分部)","lon":"121.4719","lat":"31.20651","category":"162","category_name":"医院","address":"卢湾区徐家汇路573号"},{"poiid":"B2094750D76DA5FC4693","title":"吉亨面馆(日月光广场店)","lon":"121.471","lat":"31.2059","category":"68","category_name":"快餐厅","address":"卢湾区徐家汇路618号日月光广场B2楼C区台湾馆bt-04号铺(近瑞金二路)"},{"poiid":"B2094757D068A2FB4492","title":"潮泰清迈泰国餐厅","lon":"121.4729","lat":"31.20606","category":"99","category_name":"泰国／越南菜品餐厅","address":"卢湾区斜徐路591号(近丽园路)"},{"poiid":"B209475DD268A6F54299","title":"南小馆（日月光店）","lon":"121.473121","lat":"31.205419","category":"247","category_name":"餐饮美食","address":"卢湾区徐家汇路618号日月光中心广场1楼TK-03号商铺"},{"poiid":"B2094654DB6AA6F8429D","title":"上海天诚大酒店","lon":"121.47126","lat":"31.20521","category":"214","category_name":"四星级宾馆","address":"卢湾区打浦路1号金玉兰广场东座(徐家汇路口)"},{"poiid":"B2094655D26AA7FE439A","title":"申普宠物医院徐家汇路店","lon":"121.47192","lat":"31.20703","category":"247","category_name":"餐饮美食","address":"上海卢湾区徐家汇路565号(近打浦路)"},{"poiid":"B2094753D765A0FD4292","title":"掌上韩品","lon":"121.471473","lat":"31.205774","category":"247","category_name":"餐饮美食","address":"上海市 上海日月光广场B2"},{"poiid":"B2094750D664A0FD4792","title":"麟笼坊特色小笼包(日月光广场店)","lon":"121.471","lat":"31.2059","category":"68","category_name":"快餐厅","address":"卢湾区徐家汇路618号日月光广场B2楼B33室(近瑞金二路)"},{"poiid":"B2094750D565A1F4419B","title":"鼎鼎有鸣日式烧烤金玉兰广场店","lon":"121.470382","lat":"31.205125","category":"247","category_name":"餐饮美食","address":null},{"poiid":"B2094750D768ABF84893","title":"市长胡椒饼","lon":"121.471","lat":"31.2059","category":"68","category_name":"快餐厅","address":"卢湾区徐家汇路618号日月光中心广场B2楼台湾馆BT12室(近九号线打浦桥站2号口)"},{"poiid":"B2094750DB68AAF44699","title":"小滨楼 日月光广场","lon":"121.470306","lat":"31.205396","category":"247","category_name":"餐饮美食","address":"打浦桥地铁站"},{"poiid":"B2094757D068A7FB409B","title":"小花牛(丽园店)","lon":"121.47199","lat":"31.20524","category":"260","category_name":"其他","address":"卢湾区丽园路1030号(近鲁班路)"},{"poiid":"B2094757D66DA5FE409B","title":"一哥火锅","lon":"121.472383738","lat":"31.2058777813","category":"247","category_name":"餐饮美食","address":"上海市卢湾区打浦路"},{"poiid":"B2094757D068ABFE449D","title":"FULL HOUSE coffee bar","lon":"121.47051","lat":"31.20595","category":"67","category_name":"甜品店","address":"徐汇区衡山路(安亭路永嘉路)"},{"poiid":"B2094654DA6EA3F5409B","title":"行运港式茶餐厅 斜徐路店","lon":"121.47282235576","lat":"31.205848725097","category":"72","category_name":"广东菜","address":"卢湾区斜徐路583号(近丽园路)"},{"poiid":"B2094757D068A2F84892","title":"康友四季保健会所(打浦桥店)","lon":"121.47098","lat":"31.20558","category":"149","category_name":"洗浴推拿场所","address":"卢湾区徐家汇路550弄1号宝鼎大厦1楼(近打浦路)"},{"poiid":"B2094750D76FA2FE4092","title":"小马哥起司马铃薯(日月光店)","lon":"121.471","lat":"31.2059","category":"68","category_name":"快餐厅","address":"卢湾区徐家汇路618号日月光中心广场B2楼T-15号铺"},{"poiid":"B2094757D16FA5F9489A","title":"中国农业银行上海市分行","lon":"121.47054273","lat":"31.205682177","category":"500","category_name":"未知分类","address":"上海市徐家汇路599号"},{"poiid":"B209475CD06AA7F8439A","title":"海底捞火锅店 打浦路店","lon":"121.47037","lat":"31.20516","category":"86","category_name":"火锅店","address":"打浦路1号金玉兰广场4楼(徐家汇路口)"},{"poiid":"B2094757D06FA7FC459C","title":"上海市微创外科临床医学中心(瑞金医院分部)","lon":"121.471727","lat":"31.206563","category":"162","category_name":"医院","address":"上海市卢湾区徐家汇路573号"},{"poiid":"B2094654DA6EA3F5479C","title":"景泰大厦","lon":"121.472","lat":"31.2061","category":"46","category_name":"楼宇","address":"铁西兴华南街与十马路交汇处"},{"poiid":"B2094757D068A5F8439F","title":"中国建设银行(卢湾支行)","lon":"121.47144","lat":"31.20685","category":"150","category_name":"银行","address":"卢湾区徐家汇路530号二楼(思南路泰康路)"},{"poiid":"B2094751D26CA2FC409D","title":"台北纯K（日月光店¥","lon":"121.473396","lat":"31.205162","category":"500","category_name":"未知分类","address":"日月光"}]