[{"poiid":"B2094654DA6EA2F4499A","title":"上海中医药大学附属龙华医院","lon":"121.45011","lat":"31.18796","category":"162","category_name":"医院","address":"徐汇区零陵路532号"},{"poiid":"B2094757DA68A1F9429C","title":"蜀地香天下火锅","lon":"121.446033","lat":"31.188724","category":"86","category_name":"火锅店","address":"徐汇区双峰北路1号2楼(近斜土路)"},{"poiid":"B2094655D36CA1F8439D","title":"龙华医院","lon":"121.44931","lat":"31.18777","category":"162","category_name":"医院","address":""},{"poiid":"B2094757D06FA3FB439A","title":"上海市精神卫生中心","lon":"121.44868469","lat":"31.188173294","category":"162","category_name":"医院","address":"徐汇区宛平南路600号(零陵路宛平南路)"},{"poiid":"B2094750DA69ABF94299","title":"宛平剧院","lon":"121.448257","lat":"31.187332","category":"248","category_name":"生活娱乐","address":"徐汇区中山南二路859号(近宛平南路)"},{"poiid":"B2094655D36DA7F84693","title":"中山南二路宛平南路","lon":"121.44991","lat":"31.18488","category":"38","category_name":"公交车站","address":""},{"poiid":"B2094757D06FA1FE489F","title":"唐韵秦风(天钥桥店)","lon":"121.44374","lat":"31.18525","category":"84","category_name":"西北菜","address":"徐汇区天钥桥路580号星游城4楼(近零陵路)"},{"poiid":"B2094757D06FA6F8439B","title":"龙山新村","lon":"121.44658451","lat":"31.18313221","category":"252","category_name":"楼宇机构","address":"上海八万人体育场"},{"poiid":"B2094655D36CA1FE4393","title":"双峰路中山南二路","lon":"121.44847","lat":"31.18264","category":"38","category_name":"公交车站","address":""},{"poiid":"B2094757D16CA1FF4999","title":"龙华医院急诊","lon":"121.446744536","lat":"31.1877531506","category":"162","category_name":"医院","address":"上海徐汇区宛平南路725号"},{"poiid":"B2094757D06FA6FC4899","title":"厚街粤菜馆","lon":"121.44548158","lat":"31.1877636","category":"72","category_name":"广东菜","address":"徐汇区天钥桥路325-327号华美达酒店内(近南丹东路)"},{"poiid":"B2094654DA6DA1FC4198","title":"天钥新村(中山南二路)","lon":"121.44714","lat":"31.18537","category":"47","category_name":"住宅区","address":"中山南二路918弄1-5号"},{"poiid":"B2094757D06BA1FC419B","title":"上海地铁四号线（上海体育场站）","lon":"121.44398340081932","lat":"31.18566485512449","category":"36","category_name":"地铁站","address":"徐汇区零陵路近漕溪北路"},{"poiid":"B2094757D16EA5FE4592","title":"内环高架","lon":"121.446675586","lat":"31.182659501","category":"500","category_name":"未知分类","address":"上海市徐汇区零陵路"},{"poiid":"B2094655D268A1F4419F","title":"上海中医药大学学生公寓","lon":"121.44953","lat":"31.18661","category":"47","category_name":"住宅区","address":""},{"poiid":"B2094757D169A0FF4393","title":"天钥新村","lon":"121.446525304","lat":"31.1853354701","category":"252","category_name":"楼宇机构","address":"上海天钥新村66号"},{"poiid":"B2094655D26CA4FB4799","title":"上海交通大学医学院附属精神卫生中心","lon":"121.44866","lat":"31.18754","category":"52","category_name":"高等院校","address":"宛平南路600"},{"poiid":"B2094654DA6DA0F54293","title":"东亚大厦","lon":"121.44641755121","lat":"31.186094978075","category":"46","category_name":"楼宇","address":"上海中山南二路1500号"},{"poiid":"B2094757D464A7FF489E","title":"星期五 しゃぶしゃぶ食放題 Friday","lon":"121.44661382236","lat":"31.187398429974","category":"95","category_name":"日本料理","address":"零陵路627号近双峰北路"},{"poiid":"B2094757D469A0FE4693","title":"SHABUSHABU","lon":"121.446388","lat":"31.187724","category":"95","category_name":"日本料理","address":"徐汇区零陵路631号"},{"poiid":"B2094654DB64A5F54198","title":"苏州福东鑫","lon":"121.450175054","lat":"31.186587793","category":"68","category_name":"快餐厅","address":"徐汇区宛平南路735号(近中山南二路)"},{"poiid":"B2094757D16FA5F9419E","title":"一茶一座星游城店","lon":"121.445595786","lat":"31.1884724146","category":"86","category_name":"火锅店","address":"上海徐汇区星游城2楼"},{"poiid":"B2094655D26AA6FE429D","title":"圆苑酒家宛平南路店","lon":"121.44832","lat":"31.18921","category":"76","category_name":"上海菜","address":"徐汇区宛平南路550号(近零陵路)"},{"poiid":"B2094654DB69A7FC429F","title":"Friday火锅","lon":"121.44673","lat":"31.18781","category":"86","category_name":"火锅店","address":"徐汇区零陵路631号爱建城1楼(近双峰北路)"},{"poiid":"B2094757D06AA3FC4793","title":"华富大厦","lon":"121.448","lat":"31.1834","category":"252","category_name":"楼宇机构","address":"北一环与亳州路交叉口(庐阳区政府对面)"},{"poiid":"B2094753D669A1F94893","title":"掌上韩品（星游城店）","lon":"121.447349","lat":"31.18342","category":"247","category_name":"餐饮美食","address":"上海市 上海体育场"},{"poiid":"B2094655D36CA1F94699","title":"零陵路双峰北路","lon":"121.44557","lat":"31.18717","category":"38","category_name":"公交车站","address":"上海零陵路双峰北路"},{"poiid":"B2094654DA6DA2FB499A","title":"海洋石油大厦","lon":"121.44766","lat":"31.18876","category":"46","category_name":"楼宇","address":"北一环与亳州路交叉口(庐阳区政府对面)"},{"poiid":"B2094757D06FAAF4409F","title":"国泰广告","lon":"121.44706726","lat":"31.186986923","category":"46","category_name":"楼宇","address":"上海天钥桥路333号腾飞大厦25楼"},{"poiid":"B2094757D769A7F54193","title":"东北四季饺子王 宛平南路店","lon":"121.44769328637","lat":"31.189409271872","category":"82","category_name":"东北菜","address":"徐汇区宛平南路520号(近零陵路)"},{"poiid":"B2094654DA6DA1FC449D","title":"上海市针灸经络研究所门诊部","lon":"121.44977","lat":"31.1865","category":"162","category_name":"医院","address":"徐汇区宛平南路650号"},{"poiid":"B2094655D26EA1FD4893","title":"上海市精神卫生中心老年期痴呆诊疗中心","lon":"121.44867","lat":"31.18754","category":"162","category_name":"医院","address":"宛平南路600号"},{"poiid":"B2094654DA6DA2FB4899","title":"爱乐大厦","lon":"121.44646","lat":"31.18799","category":"46","category_name":"楼宇","address":"零陵路631"},{"poiid":"B2094757D068A7F44899","title":"上海中医药大学","lon":"121.449485","lat":"31.188716","category":"671","category_name":"高校中心点","address":"上海市浦东新区蔡伦路1200号"},{"poiid":"B2094757D068A4F5499A","title":"上海针灸研究所","lon":"121.44957295","lat":"31.186136422","category":"260","category_name":"其他","address":"上海宛平南路650号"},{"poiid":"B2094757D568ABFD419D","title":"Friday日本料理","lon":"121.4460736","lat":"31.18858472","category":"95","category_name":"日本料理","address":"徐汇区双峰北路1号(近斜土路)"},{"poiid":"B2094750D768A0FF4198","title":"老五烧烤","lon":"121.446","lat":"31.1874","category":"68","category_name":"快餐厅","address":"徐汇区零陵路(双峰北路口)"},{"poiid":"B2094757D06BABFF479B","title":"小阁楼酒家","lon":"121.4504","lat":"31.18523","category":"76","category_name":"上海菜","address":"徐汇区宛平南路750号(近中山南二路)"},{"poiid":"B2094654DA6DA2FB429F","title":"家常饭(零陵路)","lon":"121.4461","lat":"31.18763","category":"76","category_name":"上海菜","address":"徐汇区零陵路637号(近双峰北路)"},{"poiid":"B2094757D064ABFA4498","title":"龙华医院远志楼","lon":"121.44994","lat":"31.186949","category":"162","category_name":"医院","address":"上海宛平南路725号"},{"poiid":"B2094757D065A4FB499B","title":"吴越人家","lon":"121.45047","lat":"31.18522","category":"76","category_name":"上海菜","address":"徐汇区宛平南路740号(近中山南二路)"},{"poiid":"B2094654DA6DA1FC449E","title":"爱中爱华公寓","lon":"121.44948","lat":"31.186041","category":"47","category_name":"住宅区","address":"宛平南路656-658"},{"poiid":"B2094757D065A0FE419D","title":"上海市心理咨询与治疗中心","lon":"121.447723","lat":"31.187773","category":"162","category_name":"医院","address":"上海徐汇区零陵路604号"},{"poiid":"B209475DDA6FA5FA4992","title":"上海八万人体育馆","lon":"121.447906","lat":"31.189407","category":"250","category_name":"公园户外","address":"上海市 天钥桥路666号"},{"poiid":"B2094654DB65A3FA499D","title":"龙山公寓","lon":"121.44788","lat":"31.183867","category":"47","category_name":"住宅区","address":"中山南二路932弄6号"},{"poiid":"B2094655D26FA6FF409A","title":"东安四村","lon":"121.45087","lat":"31.186504","category":"47","category_name":"住宅区","address":"宛平南路727号"},{"poiid":"B2094757D164A3FA4492","title":"赵记食为天","lon":"121.44465","lat":"31.18664","category":"68","category_name":"快餐厅","address":"徐汇区零陵路663号(近天钥桥路)"},{"poiid":"B2094654DB65A1FC429D","title":"天四小区","lon":"121.44845","lat":"31.18462","category":"47","category_name":"住宅区","address":""},{"poiid":"B209475CDB6AA2F9459F","title":"上海体育场","lon":"121.450096","lat":"31.18581","category":"500","category_name":"未知分类","address":"上海市 上海体育场"},{"poiid":"B2094757D16FA0FB409E","title":"湖滨人家","lon":"121.45091","lat":"31.18471","category":"257","category_name":"中餐厅","address":"徐汇区宛平南路810号(近中山南二路)"},{"poiid":"B2094654DA6EA2F4499A","title":"上海中医药大学附属龙华医院","lon":"121.45011","lat":"31.18796","category":"162","category_name":"医院","address":"徐汇区零陵路532号"},{"poiid":"B2094757DA68A1F9429C","title":"蜀地香天下火锅","lon":"121.446033","lat":"31.188724","category":"86","category_name":"火锅店","address":"徐汇区双峰北路1号2楼(近斜土路)"},{"poiid":"B2094655D36CA1F8439D","title":"龙华医院","lon":"121.44931","lat":"31.18777","category":"162","category_name":"医院","address":""},{"poiid":"B2094757D06FA3FB439A","title":"上海市精神卫生中心","lon":"121.44868469","lat":"31.188173294","category":"162","category_name":"医院","address":"徐汇区宛平南路600号(零陵路宛平南路)"},{"poiid":"B2094750DA69ABF94299","title":"宛平剧院","lon":"121.448257","lat":"31.187332","category":"248","category_name":"生活娱乐","address":"徐汇区中山南二路859号(近宛平南路)"},{"poiid":"B2094655D36DA7F84693","title":"中山南二路宛平南路","lon":"121.44991","lat":"31.18488","category":"38","category_name":"公交车站","address":""},{"poiid":"B2094757D06FA1FE489F","title":"唐韵秦风(天钥桥店)","lon":"121.44374","lat":"31.18525","category":"84","category_name":"西北菜","address":"徐汇区天钥桥路580号星游城4楼(近零陵路)"},{"poiid":"B2094757D06FA6F8439B","title":"龙山新村","lon":"121.44658451","lat":"31.18313221","category":"252","category_name":"楼宇机构","address":"上海八万人体育场"},{"poiid":"B2094655D36CA1FE4393","title":"双峰路中山南二路","lon":"121.44847","lat":"31.18264","category":"38","category_name":"公交车站","address":""},{"poiid":"B2094757D16CA1FF4999","title":"龙华医院急诊","lon":"121.446744536","lat":"31.1877531506","category":"162","category_name":"医院","address":"上海徐汇区宛平南路725号"},{"poiid":"B2094757D06FA6FC4899","title":"厚街粤菜馆","lon":"121.44548158","lat":"31.1877636","category":"72","category_name":"广东菜","address":"徐汇区天钥桥路325-327号华美达酒店内(近南丹东路)"},{"poiid":"B2094654DA6DA1FC4198","title":"天钥新村(中山南二路)","lon":"121.44714","lat":"31.18537","category":"47","category_name":"住宅区","address":"中山南二路918弄1-5号"},{"poiid":"B2094757D06BA1FC419B","title":"上海地铁四号线（上海体育场站）","lon":"121.44398340081932","lat":"31.18566485512449","category":"36","category_name":"地铁站","address":"徐汇区零陵路近漕溪北路"},{"poiid":"B2094757D16EA5FE4592","title":"内环高架","lon":"121.446675586","lat":"31.182659501","category":"500","category_name":"未知分类","address":"上海市徐汇区零陵路"},{"poiid":"B2094655D268A1F4419F","title":"上海中医药大学学生公寓","lon":"121.44953","lat":"31.18661","category":"47","category_name":"住宅区","address":""},{"poiid":"B2094757D169A0FF4393","title":"天钥新村","lon":"121.446525304","lat":"31.1853354701","category":"252","category_name":"楼宇机构","address":"上海天钥新村66号"},{"poiid":"B2094655D26CA4FB4799","title":"上海交通大学医学院附属精神卫生中心","lon":"121.44866","lat":"31.18754","category":"52","category_name":"高等院校","address":"宛平南路600"},{"poiid":"B2094654DA6DA0F54293","title":"东亚大厦","lon":"121.44641755121","lat":"31.186094978075","category":"46","category_name":"楼宇","address":"上海中山南二路1500号"},{"poiid":"B2094757D464A7FF489E","title":"星期五 しゃぶしゃぶ食放題 Friday","lon":"121.44661382236","lat":"31.187398429974","category":"95","category_name":"日本料理","address":"零陵路627号近双峰北路"},{"poiid":"B2094757D469A0FE4693","title":"SHABUSHABU","lon":"121.446388","lat":"31.187724","category":"95","category_name":"日本料理","address":"徐汇区零陵路631号"},{"poiid":"B2094654DB64A5F54198","title":"苏州福东鑫","lon":"121.450175054","lat":"31.186587793","category":"68","category_name":"快餐厅","address":"徐汇区宛平南路735号(近中山南二路)"},{"poiid":"B2094757D16FA5F9419E","title":"一茶一座星游城店","lon":"121.445595786","lat":"31.1884724146","category":"86","category_name":"火锅店","address":"上海徐汇区星游城2楼"},{"poiid":"B2094655D26AA6FE429D","title":"圆苑酒家宛平南路店","lon":"121.44832","lat":"31.18921","category":"76","category_name":"上海菜","address":"徐汇区宛平南路550号(近零陵路)"},{"poiid":"B2094654DB69A7FC429F","title":"Friday火锅","lon":"121.44673","lat":"31.18781","category":"86","category_name":"火锅店","address":"徐汇区零陵路631号爱建城1楼(近双峰北路)"},{"poiid":"B2094757D06AA3FC4793","title":"华富大厦","lon":"121.448","lat":"31.1834","category":"252","category_name":"楼宇机构","address":"北一环与亳州路交叉口(庐阳区政府对面)"},{"poiid":"B2094753D669A1F94893","title":"掌上韩品（星游城店）","lon":"121.447349","lat":"31.18342","category":"247","category_name":"餐饮美食","address":"上海市 上海体育场"},{"poiid":"B2094655D36CA1F94699","title":"零陵路双峰北路","lon":"121.44557","lat":"31.18717","category":"38","category_name":"公交车站","address":"上海零陵路双峰北路"},{"poiid":"B2094654DA6DA2FB499A","title":"海洋石油大厦","lon":"121.44766","lat":"31.18876","category":"46","category_name":"楼宇","address":"北一环与亳州路交叉口(庐阳区政府对面)"},{"poiid":"B2094757D06FAAF4409F","title":"国泰广告","lon":"121.44706726","lat":"31.186986923","category":"46","category_name":"楼宇","address":"上海天钥桥路333号腾飞大厦25楼"},{"poiid":"B2094757D769A7F54193","title":"东北四季饺子王 宛平南路店","lon":"121.44769328637","lat":"31.189409271872","category":"82","category_name":"东北菜","address":"徐汇区宛平南路520号(近零陵路)"},{"poiid":"B2094654DA6DA1FC449D","title":"上海市针灸经络研究所门诊部","lon":"121.44977","lat":"31.1865","category":"162","category_name":"医院","address":"徐汇区宛平南路650号"},{"poiid":"B2094655D26EA1FD4893","title":"上海市精神卫生中心老年期痴呆诊疗中心","lon":"121.44867","lat":"31.18754","category":"162","category_name":"医院","address":"宛平南路600号"},{"poiid":"B2094654DA6DA2FB4899","title":"爱乐大厦","lon":"121.44646","lat":"31.18799","category":"46","category_name":"楼宇","address":"零陵路631"},{"poiid":"B2094757D068A7F44899","title":"上海中医药大学","lon":"121.449485","lat":"31.188716","category":"671","category_name":"高校中心点","address":"上海市浦东新区蔡伦路1200号"},{"poiid":"B2094757D068A4F5499A","title":"上海针灸研究所","lon":"121.44957295","lat":"31.186136422","category":"260","category_name":"其他","address":"上海宛平南路650号"},{"poiid":"B2094757D568ABFD419D","title":"Friday日本料理","lon":"121.4460736","lat":"31.18858472","category":"95","category_name":"日本料理","address":"徐汇区双峰北路1号(近斜土路)"},{"poiid":"B2094750D768A0FF4198","title":"老五烧烤","lon":"121.446","lat":"31.1874","category":"68","category_name":"快餐厅","address":"徐汇区零陵路(双峰北路口)"},{"poiid":"B2094757D06BABFF479B","title":"小阁楼酒家","lon":"121.4504","lat":"31.18523","category":"76","category_name":"上海菜","address":"徐汇区宛平南路750号(近中山南二路)"},{"poiid":"B2094654DA6DA2FB429F","title":"家常饭(零陵路)","lon":"121.4461","lat":"31.18763","category":"76","category_name":"上海菜","address":"徐汇区零陵路637号(近双峰北路)"},{"poiid":"B2094757D064ABFA4498","title":"龙华医院远志楼","lon":"121.44994","lat":"31.186949","category":"162","category_name":"医院","address":"上海宛平南路725号"},{"poiid":"B2094757D065A4FB499B","title":"吴越人家","lon":"121.45047","lat":"31.18522","category":"76","category_name":"上海菜","address":"徐汇区宛平南路740号(近中山南二路)"},{"poiid":"B2094654DA6DA1FC449E","title":"爱中爱华公寓","lon":"121.44948","lat":"31.186041","category":"47","category_name":"住宅区","address":"宛平南路656-658"},{"poiid":"B2094757D065A0FE419D","title":"上海市心理咨询与治疗中心","lon":"121.447723","lat":"31.187773","category":"162","category_name":"医院","address":"上海徐汇区零陵路604号"},{"poiid":"B209475DDA6FA5FA4992","title":"上海八万人体育馆","lon":"121.447906","lat":"31.189407","category":"250","category_name":"公园户外","address":"上海市 天钥桥路666号"},{"poiid":"B2094654DB65A3FA499D","title":"龙山公寓","lon":"121.44788","lat":"31.183867","category":"47","category_name":"住宅区","address":"中山南二路932弄6号"},{"poiid":"B2094655D26FA6FF409A","title":"东安四村","lon":"121.45087","lat":"31.186504","category":"47","category_name":"住宅区","address":"宛平南路727号"},{"poiid":"B2094757D164A3FA4492","title":"赵记食为天","lon":"121.44465","lat":"31.18664","category":"68","category_name":"快餐厅","address":"徐汇区零陵路663号(近天钥桥路)"},{"poiid":"B2094654DB65A1FC429D","title":"天四小区","lon":"121.44845","lat":"31.18462","category":"47","category_name":"住宅区","address":""},{"poiid":"B209475CDB6AA2F9459F","title":"上海体育场","lon":"121.450096","lat":"31.18581","category":"500","category_name":"未知分类","address":"上海市 上海体育场"},{"poiid":"B2094757D16FA0FB409E","title":"湖滨人家","lon":"121.45091","lat":"31.18471","category":"257","category_name":"中餐厅","address":"徐汇区宛平南路810号(近中山南二路)"},{"poiid":"B2094654DA6EA2F4499A","title":"上海中医药大学附属龙华医院","lon":"121.45011","lat":"31.18796","category":"162","category_name":"医院","address":"徐汇区零陵路532号"},{"poiid":"B2094757DA68A1F9429C","title":"蜀地香天下火锅","lon":"121.446033","lat":"31.188724","category":"86","category_name":"火锅店","address":"徐汇区双峰北路1号2楼(近斜土路)"},{"poiid":"B2094655D36CA1F8439D","title":"龙华医院","lon":"121.44931","lat":"31.18777","category":"162","category_name":"医院","address":""},{"poiid":"B2094757D06FA3FB439A","title":"上海市精神卫生中心","lon":"121.44868469","lat":"31.188173294","category":"162","category_name":"医院","address":"徐汇区宛平南路600号(零陵路宛平南路)"},{"poiid":"B2094750DA69ABF94299","title":"宛平剧院","lon":"121.448257","lat":"31.187332","category":"248","category_name":"生活娱乐","address":"徐汇区中山南二路859号(近宛平南路)"},{"poiid":"B2094655D36DA7F84693","title":"中山南二路宛平南路","lon":"121.44991","lat":"31.18488","category":"38","category_name":"公交车站","address":""},{"poiid":"B2094757D06FA1FE489F","title":"唐韵秦风(天钥桥店)","lon":"121.44374","lat":"31.18525","category":"84","category_name":"西北菜","address":"徐汇区天钥桥路580号星游城4楼(近零陵路)"},{"poiid":"B2094757D06FA6F8439B","title":"龙山新村","lon":"121.44658451","lat":"31.18313221","category":"252","category_name":"楼宇机构","address":"上海八万人体育场"},{"poiid":"B2094655D36CA1FE4393","title":"双峰路中山南二路","lon":"121.44847","lat":"31.18264","category":"38","category_name":"公交车站","address":""},{"poiid":"B2094757D16CA1FF4999","title":"龙华医院急诊","lon":"121.446744536","lat":"31.1877531506","category":"162","category_name":"医院","address":"上海徐汇区宛平南路725号"},{"poiid":"B2094757D06FA6FC4899","title":"厚街粤菜馆","lon":"121.44548158","lat":"31.1877636","category":"72","category_name":"广东菜","address":"徐汇区天钥桥路325-327号华美达酒店内(近南丹东路)"},{"poiid":"B2094654DA6DA1FC4198","title":"天钥新村(中山南二路)","lon":"121.44714","lat":"31.18537","category":"47","category_name":"住宅区","address":"中山南二路918弄1-5号"},{"poiid":"B2094757D06BA1FC419B","title":"上海地铁四号线（上海体育场站）","lon":"121.44398340081932","lat":"31.18566485512449","category":"36","category_name":"地铁站","address":"徐汇区零陵路近漕溪北路"},{"poiid":"B2094757D16EA5FE4592","title":"内环高架","lon":"121.446675586","lat":"31.182659501","category":"500","category_name":"未知分类","address":"上海市徐汇区零陵路"},{"poiid":"B2094655D268A1F4419F","title":"上海中医药大学学生公寓","lon":"121.44953","lat":"31.18661","category":"47","category_name":"住宅区","address":""},{"poiid":"B2094757D169A0FF4393","title":"天钥新村","lon":"121.446525304","lat":"31.1853354701","category":"252","category_name":"楼宇机构","address":"上海天钥新村66号"},{"poiid":"B2094655D26CA4FB4799","title":"上海交通大学医学院附属精神卫生中心","lon":"121.44866","lat":"31.18754","category":"52","category_name":"高等院校","address":"宛平南路600"},{"poiid":"B2094654DA6DA0F54293","title":"东亚大厦","lon":"121.44641755121","lat":"31.186094978075","category":"46","category_name":"楼宇","address":"上海中山南二路1500号"},{"poiid":"B2094757D464A7FF489E","title":"星期五 しゃぶしゃぶ食放題 Friday","lon":"121.44661382236","lat":"31.187398429974","category":"95","category_name":"日本料理","address":"零陵路627号近双峰北路"},{"poiid":"B2094757D469A0FE4693","title":"SHABUSHABU","lon":"121.446388","lat":"31.187724","category":"95","category_name":"日本料理","address":"徐汇区零陵路631号"},{"poiid":"B2094654DB64A5F54198","title":"苏州福东鑫","lon":"121.450175054","lat":"31.186587793","category":"68","category_name":"快餐厅","address":"徐汇区宛平南路735号(近中山南二路)"},{"poiid":"B2094757D16FA5F9419E","title":"一茶一座星游城店","lon":"121.445595786","lat":"31.1884724146","category":"86","category_name":"火锅店","address":"上海徐汇区星游城2楼"},{"poiid":"B2094655D26AA6FE429D","title":"圆苑酒家宛平南路店","lon":"121.44832","lat":"31.18921","category":"76","category_name":"上海菜","address":"徐汇区宛平南路550号(近零陵路)"},{"poiid":"B2094654DB69A7FC429F","title":"Friday火锅","lon":"121.44673","lat":"31.18781","category":"86","category_name":"火锅店","address":"徐汇区零陵路631号爱建城1楼(近双峰北路)"},{"poiid":"B2094757D06AA3FC4793","title":"华富大厦","lon":"121.448","lat":"31.1834","category":"252","category_name":"楼宇机构","address":"北一环与亳州路交叉口(庐阳区政府对面)"},{"poiid":"B2094753D669A1F94893","title":"掌上韩品（星游城店）","lon":"121.447349","lat":"31.18342","category":"247","category_name":"餐饮美食","address":"上海市 上海体育场"},{"poiid":"B2094655D36CA1F94699","title":"零陵路双峰北路","lon":"121.44557","lat":"31.18717","category":"38","category_name":"公交车站","address":"上海零陵路双峰北路"},{"poiid":"B2094654DA6DA2FB499A","title":"海洋石油大厦","lon":"121.44766","lat":"31.18876","category":"46","category_name":"楼宇","address":"北一环与亳州路交叉口(庐阳区政府对面)"},{"poiid":"B2094757D06FAAF4409F","title":"国泰广告","lon":"121.44706726","lat":"31.186986923","category":"46","category_name":"楼宇","address":"上海天钥桥路333号腾飞大厦25楼"},{"poiid":"B2094757D769A7F54193","title":"东北四季饺子王 宛平南路店","lon":"121.44769328637","lat":"31.189409271872","category":"82","category_name":"东北菜","address":"徐汇区宛平南路520号(近零陵路)"},{"poiid":"B2094654DA6DA1FC449D","title":"上海市针灸经络研究所门诊部","lon":"121.44977","lat":"31.1865","category":"162","category_name":"医院","address":"徐汇区宛平南路650号"},{"poiid":"B2094655D26EA1FD4893","title":"上海市精神卫生中心老年期痴呆诊疗中心","lon":"121.44867","lat":"31.18754","category":"162","category_name":"医院","address":"宛平南路600号"},{"poiid":"B2094654DA6DA2FB4899","title":"爱乐大厦","lon":"121.44646","lat":"31.18799","category":"46","category_name":"楼宇","address":"零陵路631"},{"poiid":"B2094757D068A7F44899","title":"上海中医药大学","lon":"121.449485","lat":"31.188716","category":"671","category_name":"高校中心点","address":"上海市浦东新区蔡伦路1200号"},{"poiid":"B2094757D068A4F5499A","title":"上海针灸研究所","lon":"121.44957295","lat":"31.186136422","category":"260","category_name":"其他","address":"上海宛平南路650号"},{"poiid":"B2094757D568ABFD419D","title":"Friday日本料理","lon":"121.4460736","lat":"31.18858472","category":"95","category_name":"日本料理","address":"徐汇区双峰北路1号(近斜土路)"},{"poiid":"B2094750D768A0FF4198","title":"老五烧烤","lon":"121.446","lat":"31.1874","category":"68","category_name":"快餐厅","address":"徐汇区零陵路(双峰北路口)"},{"poiid":"B2094757D06BABFF479B","title":"小阁楼酒家","lon":"121.4504","lat":"31.18523","category":"76","category_name":"上海菜","address":"徐汇区宛平南路750号(近中山南二路)"},{"poiid":"B2094654DA6DA2FB429F","title":"家常饭(零陵路)","lon":"121.4461","lat":"31.18763","category":"76","category_name":"上海菜","address":"徐汇区零陵路637号(近双峰北路)"},{"poiid":"B2094757D064ABFA4498","title":"龙华医院远志楼","lon":"121.44994","lat":"31.186949","category":"162","category_name":"医院","address":"上海宛平南路725号"},{"poiid":"B2094757D065A4FB499B","title":"吴越人家","lon":"121.45047","lat":"31.18522","category":"76","category_name":"上海菜","address":"徐汇区宛平南路740号(近中山南二路)"},{"poiid":"B2094654DA6DA1FC449E","title":"爱中爱华公寓","lon":"121.44948","lat":"31.186041","category":"47","category_name":"住宅区","address":"宛平南路656-658"},{"poiid":"B2094757D065A0FE419D","title":"上海市心理咨询与治疗中心","lon":"121.447723","lat":"31.187773","category":"162","category_name":"医院","address":"上海徐汇区零陵路604号"},{"poiid":"B209475DDA6FA5FA4992","title":"上海八万人体育馆","lon":"121.447906","lat":"31.189407","category":"250","category_name":"公园户外","address":"上海市 天钥桥路666号"},{"poiid":"B2094654DB65A3FA499D","title":"龙山公寓","lon":"121.44788","lat":"31.183867","category":"47","category_name":"住宅区","address":"中山南二路932弄6号"},{"poiid":"B2094655D26FA6FF409A","title":"东安四村","lon":"121.45087","lat":"31.186504","category":"47","category_name":"住宅区","address":"宛平南路727号"},{"poiid":"B2094757D164A3FA4492","title":"赵记食为天","lon":"121.44465","lat":"31.18664","category":"68","category_name":"快餐厅","address":"徐汇区零陵路663号(近天钥桥路)"},{"poiid":"B2094654DB65A1FC429D","title":"天四小区","lon":"121.44845","lat":"31.18462","category":"47","category_name":"住宅区","address":""},{"poiid":"B209475CDB6AA2F9459F","title":"上海体育场","lon":"121.450096","lat":"31.18581","category":"500","category_name":"未知分类","address":"上海市 上海体育场"},{"poiid":"B2094757D16FA0FB409E","title":"湖滨人家","lon":"121.45091","lat":"31.18471","category":"257","category_name":"中餐厅","address":"徐汇区宛平南路810号(近中山南二路)"},{"poiid":"B2094654DA6EA2F4499A","title":"上海中医药大学附属龙华医院","lon":"121.45011","lat":"31.18796","category":"162","category_name":"医院","address":"徐汇区零陵路532号"},{"poiid":"B2094757DA68A1F9429C","title":"蜀地香天下火锅","lon":"121.446033","lat":"31.188724","category":"86","category_name":"火锅店","address":"徐汇区双峰北路1号2楼(近斜土路)"},{"poiid":"B2094655D36CA1F8439D","title":"龙华医院","lon":"121.44931","lat":"31.18777","category":"162","category_name":"医院","address":""},{"poiid":"B2094757D06FA3FB439A","title":"上海市精神卫生中心","lon":"121.44868469","lat":"31.188173294","category":"162","category_name":"医院","address":"徐汇区宛平南路600号(零陵路宛平南路)"},{"poiid":"B2094750DA69ABF94299","title":"宛平剧院","lon":"121.448257","lat":"31.187332","category":"248","category_name":"生活娱乐","address":"徐汇区中山南二路859号(近宛平南路)"},{"poiid":"B2094655D36DA7F84693","title":"中山南二路宛平南路","lon":"121.44991","lat":"31.18488","category":"38","category_name":"公交车站","address":""},{"poiid":"B2094757D06FA1FE489F","title":"唐韵秦风(天钥桥店)","lon":"121.44374","lat":"31.18525","category":"84","category_name":"西北菜","address":"徐汇区天钥桥路580号星游城4楼(近零陵路)"},{"poiid":"B2094757D06FA6F8439B","title":"龙山新村","lon":"121.44658451","lat":"31.18313221","category":"252","category_name":"楼宇机构","address":"上海八万人体育场"},{"poiid":"B2094655D36CA1FE4393","title":"双峰路中山南二路","lon":"121.44847","lat":"31.18264","category":"38","category_name":"公交车站","address":""},{"poiid":"B2094757D16CA1FF4999","title":"龙华医院急诊","lon":"121.446744536","lat":"31.1877531506","category":"162","category_name":"医院","address":"上海徐汇区宛平南路725号"},{"poiid":"B2094757D06FA6FC4899","title":"厚街粤菜馆","lon":"121.44548158","lat":"31.1877636","category":"72","category_name":"广东菜","address":"徐汇区天钥桥路325-327号华美达酒店内(近南丹东路)"},{"poiid":"B2094654DA6DA1FC4198","title":"天钥新村(中山南二路)","lon":"121.44714","lat":"31.18537","category":"47","category_name":"住宅区","address":"中山南二路918弄1-5号"},{"poiid":"B2094757D06BA1FC419B","title":"上海地铁四号线（上海体育场站）","lon":"121.44398340081932","lat":"31.18566485512449","category":"36","category_name":"地铁站","address":"徐汇区零陵路近漕溪北路"},{"poiid":"B2094757D16EA5FE4592","title":"内环高架","lon":"121.446675586","lat":"31.182659501","category":"500","category_name":"未知分类","address":"上海市徐汇区零陵路"},{"poiid":"B2094655D268A1F4419F","title":"上海中医药大学学生公寓","lon":"121.44953","lat":"31.18661","category":"47","category_name":"住宅区","address":""},{"poiid":"B2094757D169A0FF4393","title":"天钥新村","lon":"121.446525304","lat":"31.1853354701","category":"252","category_name":"楼宇机构","address":"上海天钥新村66号"},{"poiid":"B2094655D26CA4FB4799","title":"上海交通大学医学院附属精神卫生中心","lon":"121.44866","lat":"31.18754","category":"52","category_name":"高等院校","address":"宛平南路600"},{"poiid":"B2094654DA6DA0F54293","title":"东亚大厦","lon":"121.44641755121","lat":"31.186094978075","category":"46","category_name":"楼宇","address":"上海中山南二路1500号"},{"poiid":"B2094757D464A7FF489E","title":"星期五 しゃぶしゃぶ食放題 Friday","lon":"121.44661382236","lat":"31.187398429974","category":"95","category_name":"日本料理","address":"零陵路627号近双峰北路"},{"poiid":"B2094757D469A0FE4693","title":"SHABUSHABU","lon":"121.446388","lat":"31.187724","category":"95","category_name":"日本料理","address":"徐汇区零陵路631号"},{"poiid":"B2094654DB64A5F54198","title":"苏州福东鑫","lon":"121.450175054","lat":"31.186587793","category":"68","category_name":"快餐厅","address":"徐汇区宛平南路735号(近中山南二路)"},{"poiid":"B2094757D16FA5F9419E","title":"一茶一座星游城店","lon":"121.445595786","lat":"31.1884724146","category":"86","category_name":"火锅店","address":"上海徐汇区星游城2楼"},{"poiid":"B2094655D26AA6FE429D","title":"圆苑酒家宛平南路店","lon":"121.44832","lat":"31.18921","category":"76","category_name":"上海菜","address":"徐汇区宛平南路550号(近零陵路)"},{"poiid":"B2094654DB69A7FC429F","title":"Friday火锅","lon":"121.44673","lat":"31.18781","category":"86","category_name":"火锅店","address":"徐汇区零陵路631号爱建城1楼(近双峰北路)"},{"poiid":"B2094757D06AA3FC4793","title":"华富大厦","lon":"121.448","lat":"31.1834","category":"252","category_name":"楼宇机构","address":"北一环与亳州路交叉口(庐阳区政府对面)"},{"poiid":"B2094753D669A1F94893","title":"掌上韩品（星游城店）","lon":"121.447349","lat":"31.18342","category":"247","category_name":"餐饮美食","address":"上海市 上海体育场"},{"poiid":"B2094655D36CA1F94699","title":"零陵路双峰北路","lon":"121.44557","lat":"31.18717","category":"38","category_name":"公交车站","address":"上海零陵路双峰北路"},{"poiid":"B2094654DA6DA2FB499A","title":"海洋石油大厦","lon":"121.44766","lat":"31.18876","category":"46","category_name":"楼宇","address":"北一环与亳州路交叉口(庐阳区政府对面)"},{"poiid":"B2094757D06FAAF4409F","title":"国泰广告","lon":"121.44706726","lat":"31.186986923","category":"46","category_name":"楼宇","address":"上海天钥桥路333号腾飞大厦25楼"},{"poiid":"B2094757D769A7F54193","title":"东北四季饺子王 宛平南路店","lon":"121.44769328637","lat":"31.189409271872","category":"82","category_name":"东北菜","address":"徐汇区宛平南路520号(近零陵路)"},{"poiid":"B2094654DA6DA1FC449D","title":"上海市针灸经络研究所门诊部","lon":"121.44977","lat":"31.1865","category":"162","category_name":"医院","address":"徐汇区宛平南路650号"},{"poiid":"B2094655D26EA1FD4893","title":"上海市精神卫生中心老年期痴呆诊疗中心","lon":"121.44867","lat":"31.18754","category":"162","category_name":"医院","address":"宛平南路600号"},{"poiid":"B2094654DA6DA2FB4899","title":"爱乐大厦","lon":"121.44646","lat":"31.18799","category":"46","category_name":"楼宇","address":"零陵路631"},{"poiid":"B2094757D068A7F44899","title":"上海中医药大学","lon":"121.449485","lat":"31.188716","category":"671","category_name":"高校中心点","address":"上海市浦东新区蔡伦路1200号"},{"poiid":"B2094757D068A4F5499A","title":"上海针灸研究所","lon":"121.44957295","lat":"31.186136422","category":"260","category_name":"其他","address":"上海宛平南路650号"},{"poiid":"B2094757D568ABFD419D","title":"Friday日本料理","lon":"121.4460736","lat":"31.18858472","category":"95","category_name":"日本料理","address":"徐汇区双峰北路1号(近斜土路)"},{"poiid":"B2094750D768A0FF4198","title":"老五烧烤","lon":"121.446","lat":"31.1874","category":"68","category_name":"快餐厅","address":"徐汇区零陵路(双峰北路口)"},{"poiid":"B2094757D06BABFF479B","title":"小阁楼酒家","lon":"121.4504","lat":"31.18523","category":"76","category_name":"上海菜","address":"徐汇区宛平南路750号(近中山南二路)"},{"poiid":"B2094654DA6DA2FB429F","title":"家常饭(零陵路)","lon":"121.4461","lat":"31.18763","category":"76","category_name":"上海菜","address":"徐汇区零陵路637号(近双峰北路)"},{"poiid":"B2094757D064ABFA4498","title":"龙华医院远志楼","lon":"121.44994","lat":"31.186949","category":"162","category_name":"医院","address":"上海宛平南路725号"},{"poiid":"B2094757D065A4FB499B","title":"吴越人家","lon":"121.45047","lat":"31.18522","category":"76","category_name":"上海菜","address":"徐汇区宛平南路740号(近中山南二路)"},{"poiid":"B2094654DA6DA1FC449E","title":"爱中爱华公寓","lon":"121.44948","lat":"31.186041","category":"47","category_name":"住宅区","address":"宛平南路656-658"},{"poiid":"B2094757D065A0FE419D","title":"上海市心理咨询与治疗中心","lon":"121.447723","lat":"31.187773","category":"162","category_name":"医院","address":"上海徐汇区零陵路604号"},{"poiid":"B209475DDA6FA5FA4992","title":"上海八万人体育馆","lon":"121.447906","lat":"31.189407","category":"250","category_name":"公园户外","address":"上海市 天钥桥路666号"},{"poiid":"B2094654DB65A3FA499D","title":"龙山公寓","lon":"121.44788","lat":"31.183867","category":"47","category_name":"住宅区","address":"中山南二路932弄6号"},{"poiid":"B2094655D26FA6FF409A","title":"东安四村","lon":"121.45087","lat":"31.186504","category":"47","category_name":"住宅区","address":"宛平南路727号"},{"poiid":"B2094757D164A3FA4492","title":"赵记食为天","lon":"121.44465","lat":"31.18664","category":"68","category_name":"快餐厅","address":"徐汇区零陵路663号(近天钥桥路)"},{"poiid":"B2094654DB65A1FC429D","title":"天四小区","lon":"121.44845","lat":"31.18462","category":"47","category_name":"住宅区","address":""},{"poiid":"B209475CDB6AA2F9459F","title":"上海体育场","lon":"121.450096","lat":"31.18581","category":"500","category_name":"未知分类","address":"上海市 上海体育场"},{"poiid":"B2094757D16FA0FB409E","title":"湖滨人家","lon":"121.45091","lat":"31.18471","category":"257","category_name":"中餐厅","address":"徐汇区宛平南路810号(近中山南二路)"}]