[{"poiid":"B2094655D26FA4FC479E","title":"五龙禅寺","lon":"121.18193","lat":"30.85701","category":"244","category_name":"寺庙道观","address":"新农镇"},{"poiid":"B2094655D265ABF5429B","title":"新天鸿高尔夫别墅","lon":"121.19522","lat":"30.87106","category":"47","category_name":"住宅区","address":"金山区金石北路6618弄"},{"poiid":"B2094655D26AA1F9499C","title":"新天鴻名高爾夫度假村","lon":"121.19413","lat":"30.87107","category":"206","category_name":"高尔夫相关","address":"上海市南郊金山区新农镇金石公路6666号"},{"poiid":"B2094655D26BA3F5479C","title":"五龙桥","lon":"121.1811","lat":"30.85767","category":"38","category_name":"公交车站","address":""},{"poiid":"B2094757D568A0FE4992","title":"施普都市桃源","lon":"121.177847","lat":"30.856744","category":"257","category_name":"中餐厅","address":"近郊金山区吕巷镇姚家村"},{"poiid":"B2094655D36CA2FB449C","title":"三浜村","lon":"121.18024","lat":"30.8755","category":"38","category_name":"公交车站","address":""},{"poiid":"B2094750D66AA0FF4693","title":"金山殡仪馆","lon":"121.17958","lat":"30.873552","category":"620","category_name":"丧葬","address":null}]