[{"poiid":"B2094655D264A4F8419E","title":"上海欢乐谷","lon":"121.21698","lat":"31.0948","category":"195","category_name":"游乐场","address":"上海松江区林湖路888号"},{"poiid":"B2094757D06FA1FD479B","title":"欢乐谷 绝顶雄风","lon":"121.22014617","lat":"31.098506927","category":"195","category_name":"游乐场","address":"松江区佘山镇林湖路888号上海欢乐谷内"},{"poiid":"B2094757D06EAAFC4193","title":"佘山地铁站","lon":"121.229661","lat":"31.105242","category":"36","category_name":"地铁站","address":"上海轨道交通 九号线 轨交佘山站 9"},{"poiid":"B2094757D064AAFA4693","title":"欢乐谷 古木游龙","lon":"121.221438196","lat":"31.098652128","category":"500","category_name":"未知分类","address":"上海市松江区林荫新路"},{"poiid":"B2094757D06EAAFA499C","title":"上海东方佘山索菲特大酒店","lon":"121.22456062","lat":"31.113434248","category":"217","category_name":"旅馆招待所","address":"松江区泗陈公路3388弄"},{"poiid":"B2094757D06FA2FC4293","title":"月湖雕塑公园","lon":"121.21370491","lat":"31.102339066","category":"196","category_name":"公园","address":"松江区佘山镇村荫新路1158号"},{"poiid":"B2094757D06FA0FB4492","title":"洞泾地铁站","lon":"121.231169","lat":"31.084672","category":"36","category_name":"地铁站","address":"上海轨道交通 九号线 轨交洞泾站 9"},{"poiid":"B2094757D06FABF94293","title":"欢乐谷 大摆锤","lon":"121.22387695","lat":"31.098340988","category":"195","category_name":"游乐场","address":"松江区佘山镇林湖路888号上海欢乐谷内"},{"poiid":"B2094654DA6BABF8479C","title":"新凯家园","lon":"121.23679","lat":"31.104221","category":"47","category_name":"住宅区","address":"松江区古楼公路1858弄"},{"poiid":"B2094757D06FA4FD4992","title":"上海佘山国际高尔夫俱乐部","lon":"121.228","lat":"31.11","category":"500","category_name":"未知分类","address":"上海市松江区佘山旅游度假区林荫新路288弄"},{"poiid":"B2094757D068A1FE439E","title":"欢乐谷 蓝月飞车","lon":"121.21751619","lat":"31.099986156","category":"195","category_name":"游乐场","address":"松江区佘山镇林湖路888号上海欢乐谷内"},{"poiid":"B2094757D468ABF84792","title":"佘山索菲特大酒店自助餐厅 全天候餐厅","lon":"121.22442146469791","lat":"31.114018076927728","category":"268","category_name":"自助","address":"泗泾镇泗陈公路3388弄黄河佘山索菲特大酒店1楼近嘉松公路"},{"poiid":"B2094757D068A6F54892","title":"激流勇进","lon":"121.21955871","lat":"31.090198516","category":"500","category_name":"未知分类","address":"上海欢乐谷内"},{"poiid":"B2094757D069A5F4469D","title":"新凯家园二期","lon":"121.238588196","lat":"31.1074093156","category":"47","category_name":"住宅区","address":"上海市新家园路"},{"poiid":"B2094757D068A5F9459B","title":"必胜客(欢乐谷店)","lon":"121.21677202","lat":"31.095382224","category":"94","category_name":"西餐厅","address":"松江区林湖路888号上海欢乐谷阳光港8号"},{"poiid":"B2094655D265A4F5499F","title":"佘山假日半岛","lon":"121.231685","lat":"31.085686","category":"47","category_name":"住宅区","address":"上海市松江区嘉松公路沈砖路口"},{"poiid":"B2094757D568ABFF4493","title":"佘山国家旅游度假区","lon":"121.22851698","lat":"31.10490424","category":"207","category_name":"度假疗养场所","address":"中国上海市松江区林荫大道"},{"poiid":"B2094750D665A7FC409D","title":"千江月海鲜大酒店","lon":"121.238","lat":"31.1043","category":"260","category_name":"其他","address":"松江区古楼路1886号(近9号线佘山站)"},{"poiid":"B2094757D06FA6F9499E","title":"谷木游龙","lon":"121.223876953","lat":"31.0983409882","category":"500","category_name":"未知分类","address":"上海欢乐谷内"},{"poiid":"B2094757D06AABFD439E","title":"上海人家私房菜--佘山店","lon":"121.22350719","lat":"31.113488445","category":"76","category_name":"上海菜","address":"松江区泗陈公路3388号佘山索菲特酒店(近嘉松公路)"},{"poiid":"B2094655D36DA2F9449A","title":"嘉松南路庄津桥","lon":"121.23028","lat":"31.09819","category":"250","category_name":"公园户外","address":""},{"poiid":"B2094757D06AA4FE429C","title":"欢乐谷 蚂蚁城堡","lon":"121.23590457","lat":"31.101645835","category":"195","category_name":"游乐场","address":"松江区佘山镇林湖路888号上海欢乐谷内"},{"poiid":"B2094757D569A2FA489A","title":"佘山月湖山庄","lon":"121.22485","lat":"31.102179","category":"47","category_name":"住宅区","address":"林荫道1888号"},{"poiid":"B2094757D064ABFF429B","title":"旋转木马","lon":"121.21832019","lat":"31.095685064","category":"247","category_name":"餐饮美食","address":"上海欢乐谷内"},{"poiid":"B2094757D66EA0FA479E","title":"嘉松中路","lon":"121.22887679","lat":"31.097567904","category":"500","category_name":"未知分类","address":"上海松江"},{"poiid":"B2094655D26AA0FA459F","title":"地铁佘山站","lon":"121.22966","lat":"31.10525","category":"36","category_name":"地铁站","address":""},{"poiid":"B2094757DA6FA3FE439D","title":"龙湖好望山","lon":"121.22830682175","lat":"31.095928196908","category":"252","category_name":"楼宇机构","address":"松江区人民北路2908弄"},{"poiid":"B2094654DA6BABFB479A","title":"圣塔路斯","lon":"121.24774","lat":"31.105677","category":"47","category_name":"住宅区","address":"松江区泗泾古楼公路1198号"},{"poiid":"B2094757D66BA7F84193","title":"哈里欧咖啡 Hecto Coffee","lon":"121.229454054","lat":"31.104683793","category":"65","category_name":"咖啡厅","address":"松江区嘉松南路2699号(佘山地铁站对面)"},{"poiid":"B2094751DA6EA7FF489D","title":"星濠国际影城","lon":"121.233539","lat":"31.104018","category":"178","category_name":"电影院","address":"松江区泗泾镇古楼公路1886号"},{"poiid":"B2094757D569A2FF439F","title":"佘山东郡","lon":"121.23667209","lat":"31.10390652","category":"47","category_name":"住宅区","address":"松江区泗泾古楼路1269弄(近嘉松南路)"},{"poiid":"B2094753D46AA1FE4692","title":"玛雅水上公园","lon":"121.234367","lat":"31.101167","category":"500","category_name":"未知分类","address":"上海市 佘山"},{"poiid":"B2094753D469A1FB469A","title":"上海玛雅海滩水公园","lon":"121.220901","lat":"31.090871","category":"500","category_name":"未知分类","address":"上海市 林湖路"},{"poiid":"B2094750DB6CA2F44893","title":"松江大学城三期","lon":"121.2238628196236","lat":"31.09795576719501","category":"253","category_name":"校园生活","address":null},{"poiid":"B2094757D069A6F8439C","title":"湖光山色舫","lon":"121.24426","lat":"31.11","category":"76","category_name":"上海菜","address":"松江区泗泾镇泗凤路588号"},{"poiid":"B209475DD66AA0FB469B","title":"上海欢乐谷","lon":"121.230773","lat":"31.090551","category":"250","category_name":"公园户外","address":"上海市 上海佘山"},{"poiid":"B2094757D66FA2FC4999","title":"华润佘山九里","lon":"121.22936419","lat":"31.09271","category":"500","category_name":"未知分类","address":"上海市松江区古楼公路"},{"poiid":"B2094757D168A6FC4098","title":"田字坊","lon":"121.229928376","lat":"31.1039230509","category":"500","category_name":"未知分类","address":"上海泰康路"},{"poiid":"B2094757D569A0F5499B","title":"佘山E谷","lon":"121.2276078","lat":"31.08899389","category":"47","category_name":"住宅区","address":"松江区沈砖公路5398号"},{"poiid":"B2094757D06AA5F4409F","title":"飞行影院","lon":"121.21821873","lat":"31.095593592","category":"178","category_name":"电影院","address":"上海欢乐谷内"},{"poiid":"B2094654DA6BA4FB479E","title":"佘山高尔夫郡","lon":"121.21918","lat":"31.102373","category":"47","category_name":"住宅区","address":"松江区佘山旅游度假区林荫新路288弄"},{"poiid":"B2094757D16FA7F4439F","title":"欢乐谷碰碰车","lon":"121.219136796","lat":"31.0963143279","category":"500","category_name":"未知分类","address":"上海市松江区欢乐谷"},{"poiid":"B2094757D065AAFC4292","title":"四维影院","lon":"121.21938119","lat":"31.094362036","category":"178","category_name":"电影院","address":"上海欢乐谷内"},{"poiid":"B2094757D065ABF4489D","title":"上海欢乐谷 异度空间","lon":"121.217376296","lat":"31.0970593439","category":"500","category_name":"未知分类","address":"上海市松江区欢乐谷"},{"poiid":"B2094751D568A2FD439A","title":"上海星濠国际影城","lon":"121.233195","lat":"31.105209","category":"248","category_name":"生活娱乐","address":"松江区泗泾镇古楼路1876-1886号(近9号线佘山地铁站)"},{"poiid":"B2094654DA6BABFF479F","title":"幽篁","lon":"121.22407","lat":"31.10376","category":"47","category_name":"住宅区","address":"林荫新路255弄"},{"poiid":"B2094757D06BA0FE499F","title":"肯德基(欢乐谷店)","lon":"121.2154077","lat":"31.1010105","category":"68","category_name":"快餐厅","address":"松江区林湖路888号欢乐谷金矿镇"},{"poiid":"B2094757D06AA7FA4193","title":"上海欢乐谷 峡谷漂流","lon":"121.24267782","lat":"31.103349371","category":"500","category_name":"未知分类","address":"上海松江区佘山镇林湖路888号"},{"poiid":"B2094757D16AABFC469B","title":"蚂蚁王国","lon":"121.21432409","lat":"31.093664821","category":"500","category_name":"未知分类","address":"上海欢乐谷"},{"poiid":"B2094654DA6BA4F84892","title":"天安别墅","lon":"121.24156724335","lat":"31.097382086272","category":"47","category_name":"住宅区","address":"嘉松南路3888弄"},{"poiid":"B2094655D264A4F8419E","title":"上海欢乐谷","lon":"121.21698","lat":"31.0948","category":"195","category_name":"游乐场","address":"上海松江区林湖路888号"},{"poiid":"B2094757D06FA1FD479B","title":"欢乐谷 绝顶雄风","lon":"121.22014617","lat":"31.098506927","category":"195","category_name":"游乐场","address":"松江区佘山镇林湖路888号上海欢乐谷内"},{"poiid":"B2094757D06EAAFC4193","title":"佘山地铁站","lon":"121.229661","lat":"31.105242","category":"36","category_name":"地铁站","address":"上海轨道交通 九号线 轨交佘山站 9"},{"poiid":"B2094757D064AAFA4693","title":"欢乐谷 古木游龙","lon":"121.221438196","lat":"31.098652128","category":"500","category_name":"未知分类","address":"上海市松江区林荫新路"},{"poiid":"B2094757D06EAAFA499C","title":"上海东方佘山索菲特大酒店","lon":"121.22456062","lat":"31.113434248","category":"217","category_name":"旅馆招待所","address":"松江区泗陈公路3388弄"},{"poiid":"B2094757D06FA2FC4293","title":"月湖雕塑公园","lon":"121.21370491","lat":"31.102339066","category":"196","category_name":"公园","address":"松江区佘山镇村荫新路1158号"},{"poiid":"B2094757D06FA0FB4492","title":"洞泾地铁站","lon":"121.231169","lat":"31.084672","category":"36","category_name":"地铁站","address":"上海轨道交通 九号线 轨交洞泾站 9"},{"poiid":"B2094757D06FABF94293","title":"欢乐谷 大摆锤","lon":"121.22387695","lat":"31.098340988","category":"195","category_name":"游乐场","address":"松江区佘山镇林湖路888号上海欢乐谷内"},{"poiid":"B2094654DA6BABF8479C","title":"新凯家园","lon":"121.23679","lat":"31.104221","category":"47","category_name":"住宅区","address":"松江区古楼公路1858弄"},{"poiid":"B2094757D06FA4FD4992","title":"上海佘山国际高尔夫俱乐部","lon":"121.228","lat":"31.11","category":"500","category_name":"未知分类","address":"上海市松江区佘山旅游度假区林荫新路288弄"},{"poiid":"B2094757D068A1FE439E","title":"欢乐谷 蓝月飞车","lon":"121.21751619","lat":"31.099986156","category":"195","category_name":"游乐场","address":"松江区佘山镇林湖路888号上海欢乐谷内"},{"poiid":"B2094757D468ABF84792","title":"佘山索菲特大酒店自助餐厅 全天候餐厅","lon":"121.22442146469791","lat":"31.114018076927728","category":"268","category_name":"自助","address":"泗泾镇泗陈公路3388弄黄河佘山索菲特大酒店1楼近嘉松公路"},{"poiid":"B2094757D068A6F54892","title":"激流勇进","lon":"121.21955871","lat":"31.090198516","category":"500","category_name":"未知分类","address":"上海欢乐谷内"},{"poiid":"B2094757D069A5F4469D","title":"新凯家园二期","lon":"121.238588196","lat":"31.1074093156","category":"47","category_name":"住宅区","address":"上海市新家园路"},{"poiid":"B2094757D068A5F9459B","title":"必胜客(欢乐谷店)","lon":"121.21677202","lat":"31.095382224","category":"94","category_name":"西餐厅","address":"松江区林湖路888号上海欢乐谷阳光港8号"},{"poiid":"B2094655D265A4F5499F","title":"佘山假日半岛","lon":"121.231685","lat":"31.085686","category":"47","category_name":"住宅区","address":"上海市松江区嘉松公路沈砖路口"},{"poiid":"B2094757D568ABFF4493","title":"佘山国家旅游度假区","lon":"121.22851698","lat":"31.10490424","category":"207","category_name":"度假疗养场所","address":"中国上海市松江区林荫大道"},{"poiid":"B2094750D665A7FC409D","title":"千江月海鲜大酒店","lon":"121.238","lat":"31.1043","category":"260","category_name":"其他","address":"松江区古楼路1886号(近9号线佘山站)"},{"poiid":"B2094757D06FA6F9499E","title":"谷木游龙","lon":"121.223876953","lat":"31.0983409882","category":"500","category_name":"未知分类","address":"上海欢乐谷内"},{"poiid":"B2094757D06AABFD439E","title":"上海人家私房菜--佘山店","lon":"121.22350719","lat":"31.113488445","category":"76","category_name":"上海菜","address":"松江区泗陈公路3388号佘山索菲特酒店(近嘉松公路)"},{"poiid":"B2094655D36DA2F9449A","title":"嘉松南路庄津桥","lon":"121.23028","lat":"31.09819","category":"250","category_name":"公园户外","address":""},{"poiid":"B2094757D06AA4FE429C","title":"欢乐谷 蚂蚁城堡","lon":"121.23590457","lat":"31.101645835","category":"195","category_name":"游乐场","address":"松江区佘山镇林湖路888号上海欢乐谷内"},{"poiid":"B2094757D569A2FA489A","title":"佘山月湖山庄","lon":"121.22485","lat":"31.102179","category":"47","category_name":"住宅区","address":"林荫道1888号"},{"poiid":"B2094757D064ABFF429B","title":"旋转木马","lon":"121.21832019","lat":"31.095685064","category":"247","category_name":"餐饮美食","address":"上海欢乐谷内"},{"poiid":"B2094757D66EA0FA479E","title":"嘉松中路","lon":"121.22887679","lat":"31.097567904","category":"500","category_name":"未知分类","address":"上海松江"},{"poiid":"B2094655D26AA0FA459F","title":"地铁佘山站","lon":"121.22966","lat":"31.10525","category":"36","category_name":"地铁站","address":""},{"poiid":"B2094757DA6FA3FE439D","title":"龙湖好望山","lon":"121.22830682175","lat":"31.095928196908","category":"252","category_name":"楼宇机构","address":"松江区人民北路2908弄"},{"poiid":"B2094654DA6BABFB479A","title":"圣塔路斯","lon":"121.24774","lat":"31.105677","category":"47","category_name":"住宅区","address":"松江区泗泾古楼公路1198号"},{"poiid":"B2094757D66BA7F84193","title":"哈里欧咖啡 Hecto Coffee","lon":"121.229454054","lat":"31.104683793","category":"65","category_name":"咖啡厅","address":"松江区嘉松南路2699号(佘山地铁站对面)"},{"poiid":"B2094751DA6EA7FF489D","title":"星濠国际影城","lon":"121.233539","lat":"31.104018","category":"178","category_name":"电影院","address":"松江区泗泾镇古楼公路1886号"},{"poiid":"B2094757D569A2FF439F","title":"佘山东郡","lon":"121.23667209","lat":"31.10390652","category":"47","category_name":"住宅区","address":"松江区泗泾古楼路1269弄(近嘉松南路)"},{"poiid":"B2094753D46AA1FE4692","title":"玛雅水上公园","lon":"121.234367","lat":"31.101167","category":"500","category_name":"未知分类","address":"上海市 佘山"},{"poiid":"B2094753D469A1FB469A","title":"上海玛雅海滩水公园","lon":"121.220901","lat":"31.090871","category":"500","category_name":"未知分类","address":"上海市 林湖路"},{"poiid":"B2094750DB6CA2F44893","title":"松江大学城三期","lon":"121.2238628196236","lat":"31.09795576719501","category":"253","category_name":"校园生活","address":null},{"poiid":"B2094757D069A6F8439C","title":"湖光山色舫","lon":"121.24426","lat":"31.11","category":"76","category_name":"上海菜","address":"松江区泗泾镇泗凤路588号"},{"poiid":"B209475DD66AA0FB469B","title":"上海欢乐谷","lon":"121.230773","lat":"31.090551","category":"250","category_name":"公园户外","address":"上海市 上海佘山"},{"poiid":"B2094757D66FA2FC4999","title":"华润佘山九里","lon":"121.22936419","lat":"31.09271","category":"500","category_name":"未知分类","address":"上海市松江区古楼公路"},{"poiid":"B2094757D168A6FC4098","title":"田字坊","lon":"121.229928376","lat":"31.1039230509","category":"500","category_name":"未知分类","address":"上海泰康路"},{"poiid":"B2094757D569A0F5499B","title":"佘山E谷","lon":"121.2276078","lat":"31.08899389","category":"47","category_name":"住宅区","address":"松江区沈砖公路5398号"},{"poiid":"B2094757D06AA5F4409F","title":"飞行影院","lon":"121.21821873","lat":"31.095593592","category":"178","category_name":"电影院","address":"上海欢乐谷内"},{"poiid":"B2094654DA6BA4FB479E","title":"佘山高尔夫郡","lon":"121.21918","lat":"31.102373","category":"47","category_name":"住宅区","address":"松江区佘山旅游度假区林荫新路288弄"},{"poiid":"B2094757D16FA7F4439F","title":"欢乐谷碰碰车","lon":"121.219136796","lat":"31.0963143279","category":"500","category_name":"未知分类","address":"上海市松江区欢乐谷"},{"poiid":"B2094757D065AAFC4292","title":"四维影院","lon":"121.21938119","lat":"31.094362036","category":"178","category_name":"电影院","address":"上海欢乐谷内"},{"poiid":"B2094757D065ABF4489D","title":"上海欢乐谷 异度空间","lon":"121.217376296","lat":"31.0970593439","category":"500","category_name":"未知分类","address":"上海市松江区欢乐谷"},{"poiid":"B2094751D568A2FD439A","title":"上海星濠国际影城","lon":"121.233195","lat":"31.105209","category":"248","category_name":"生活娱乐","address":"松江区泗泾镇古楼路1876-1886号(近9号线佘山地铁站)"},{"poiid":"B2094654DA6BABFF479F","title":"幽篁","lon":"121.22407","lat":"31.10376","category":"47","category_name":"住宅区","address":"林荫新路255弄"},{"poiid":"B2094757D06BA0FE499F","title":"肯德基(欢乐谷店)","lon":"121.2154077","lat":"31.1010105","category":"68","category_name":"快餐厅","address":"松江区林湖路888号欢乐谷金矿镇"},{"poiid":"B2094757D06AA7FA4193","title":"上海欢乐谷 峡谷漂流","lon":"121.24267782","lat":"31.103349371","category":"500","category_name":"未知分类","address":"上海松江区佘山镇林湖路888号"},{"poiid":"B2094757D16AABFC469B","title":"蚂蚁王国","lon":"121.21432409","lat":"31.093664821","category":"500","category_name":"未知分类","address":"上海欢乐谷"},{"poiid":"B2094654DA6BA4F84892","title":"天安别墅","lon":"121.24156724335","lat":"31.097382086272","category":"47","category_name":"住宅区","address":"嘉松南路3888弄"},{"poiid":"B2094655D264A4F8419E","title":"上海欢乐谷","lon":"121.21698","lat":"31.0948","category":"195","category_name":"游乐场","address":"上海松江区林湖路888号"},{"poiid":"B2094757D06FA1FD479B","title":"欢乐谷 绝顶雄风","lon":"121.22014617","lat":"31.098506927","category":"195","category_name":"游乐场","address":"松江区佘山镇林湖路888号上海欢乐谷内"},{"poiid":"B2094757D06EAAFC4193","title":"佘山地铁站","lon":"121.229661","lat":"31.105242","category":"36","category_name":"地铁站","address":"上海轨道交通 九号线 轨交佘山站 9"},{"poiid":"B2094757D064AAFA4693","title":"欢乐谷 古木游龙","lon":"121.221438196","lat":"31.098652128","category":"500","category_name":"未知分类","address":"上海市松江区林荫新路"},{"poiid":"B2094757D06EAAFA499C","title":"上海东方佘山索菲特大酒店","lon":"121.22456062","lat":"31.113434248","category":"217","category_name":"旅馆招待所","address":"松江区泗陈公路3388弄"},{"poiid":"B2094757D06FA2FC4293","title":"月湖雕塑公园","lon":"121.21370491","lat":"31.102339066","category":"196","category_name":"公园","address":"松江区佘山镇村荫新路1158号"},{"poiid":"B2094757D06FA0FB4492","title":"洞泾地铁站","lon":"121.231169","lat":"31.084672","category":"36","category_name":"地铁站","address":"上海轨道交通 九号线 轨交洞泾站 9"},{"poiid":"B2094757D06FABF94293","title":"欢乐谷 大摆锤","lon":"121.22387695","lat":"31.098340988","category":"195","category_name":"游乐场","address":"松江区佘山镇林湖路888号上海欢乐谷内"},{"poiid":"B2094654DA6BABF8479C","title":"新凯家园","lon":"121.23679","lat":"31.104221","category":"47","category_name":"住宅区","address":"松江区古楼公路1858弄"},{"poiid":"B2094757D06FA4FD4992","title":"上海佘山国际高尔夫俱乐部","lon":"121.228","lat":"31.11","category":"500","category_name":"未知分类","address":"上海市松江区佘山旅游度假区林荫新路288弄"},{"poiid":"B2094757D068A1FE439E","title":"欢乐谷 蓝月飞车","lon":"121.21751619","lat":"31.099986156","category":"195","category_name":"游乐场","address":"松江区佘山镇林湖路888号上海欢乐谷内"},{"poiid":"B2094757D468ABF84792","title":"佘山索菲特大酒店自助餐厅 全天候餐厅","lon":"121.22442146469791","lat":"31.114018076927728","category":"268","category_name":"自助","address":"泗泾镇泗陈公路3388弄黄河佘山索菲特大酒店1楼近嘉松公路"},{"poiid":"B2094757D068A6F54892","title":"激流勇进","lon":"121.21955871","lat":"31.090198516","category":"500","category_name":"未知分类","address":"上海欢乐谷内"},{"poiid":"B2094757D069A5F4469D","title":"新凯家园二期","lon":"121.238588196","lat":"31.1074093156","category":"47","category_name":"住宅区","address":"上海市新家园路"},{"poiid":"B2094757D068A5F9459B","title":"必胜客(欢乐谷店)","lon":"121.21677202","lat":"31.095382224","category":"94","category_name":"西餐厅","address":"松江区林湖路888号上海欢乐谷阳光港8号"},{"poiid":"B2094655D265A4F5499F","title":"佘山假日半岛","lon":"121.231685","lat":"31.085686","category":"47","category_name":"住宅区","address":"上海市松江区嘉松公路沈砖路口"},{"poiid":"B2094757D568ABFF4493","title":"佘山国家旅游度假区","lon":"121.22851698","lat":"31.10490424","category":"207","category_name":"度假疗养场所","address":"中国上海市松江区林荫大道"},{"poiid":"B2094750D665A7FC409D","title":"千江月海鲜大酒店","lon":"121.238","lat":"31.1043","category":"260","category_name":"其他","address":"松江区古楼路1886号(近9号线佘山站)"},{"poiid":"B2094757D06FA6F9499E","title":"谷木游龙","lon":"121.223876953","lat":"31.0983409882","category":"500","category_name":"未知分类","address":"上海欢乐谷内"},{"poiid":"B2094757D06AABFD439E","title":"上海人家私房菜--佘山店","lon":"121.22350719","lat":"31.113488445","category":"76","category_name":"上海菜","address":"松江区泗陈公路3388号佘山索菲特酒店(近嘉松公路)"},{"poiid":"B2094655D36DA2F9449A","title":"嘉松南路庄津桥","lon":"121.23028","lat":"31.09819","category":"250","category_name":"公园户外","address":""},{"poiid":"B2094757D06AA4FE429C","title":"欢乐谷 蚂蚁城堡","lon":"121.23590457","lat":"31.101645835","category":"195","category_name":"游乐场","address":"松江区佘山镇林湖路888号上海欢乐谷内"},{"poiid":"B2094757D569A2FA489A","title":"佘山月湖山庄","lon":"121.22485","lat":"31.102179","category":"47","category_name":"住宅区","address":"林荫道1888号"},{"poiid":"B2094757D064ABFF429B","title":"旋转木马","lon":"121.21832019","lat":"31.095685064","category":"247","category_name":"餐饮美食","address":"上海欢乐谷内"},{"poiid":"B2094757D66EA0FA479E","title":"嘉松中路","lon":"121.22887679","lat":"31.097567904","category":"500","category_name":"未知分类","address":"上海松江"},{"poiid":"B2094655D26AA0FA459F","title":"地铁佘山站","lon":"121.22966","lat":"31.10525","category":"36","category_name":"地铁站","address":""},{"poiid":"B2094757DA6FA3FE439D","title":"龙湖好望山","lon":"121.22830682175","lat":"31.095928196908","category":"252","category_name":"楼宇机构","address":"松江区人民北路2908弄"},{"poiid":"B2094654DA6BABFB479A","title":"圣塔路斯","lon":"121.24774","lat":"31.105677","category":"47","category_name":"住宅区","address":"松江区泗泾古楼公路1198号"},{"poiid":"B2094757D66BA7F84193","title":"哈里欧咖啡 Hecto Coffee","lon":"121.229454054","lat":"31.104683793","category":"65","category_name":"咖啡厅","address":"松江区嘉松南路2699号(佘山地铁站对面)"},{"poiid":"B2094751DA6EA7FF489D","title":"星濠国际影城","lon":"121.233539","lat":"31.104018","category":"178","category_name":"电影院","address":"松江区泗泾镇古楼公路1886号"},{"poiid":"B2094757D569A2FF439F","title":"佘山东郡","lon":"121.23667209","lat":"31.10390652","category":"47","category_name":"住宅区","address":"松江区泗泾古楼路1269弄(近嘉松南路)"},{"poiid":"B2094753D46AA1FE4692","title":"玛雅水上公园","lon":"121.234367","lat":"31.101167","category":"500","category_name":"未知分类","address":"上海市 佘山"},{"poiid":"B2094753D469A1FB469A","title":"上海玛雅海滩水公园","lon":"121.220901","lat":"31.090871","category":"500","category_name":"未知分类","address":"上海市 林湖路"},{"poiid":"B2094750DB6CA2F44893","title":"松江大学城三期","lon":"121.2238628196236","lat":"31.09795576719501","category":"253","category_name":"校园生活","address":null},{"poiid":"B2094757D069A6F8439C","title":"湖光山色舫","lon":"121.24426","lat":"31.11","category":"76","category_name":"上海菜","address":"松江区泗泾镇泗凤路588号"},{"poiid":"B209475DD66AA0FB469B","title":"上海欢乐谷","lon":"121.230773","lat":"31.090551","category":"250","category_name":"公园户外","address":"上海市 上海佘山"},{"poiid":"B2094757D66FA2FC4999","title":"华润佘山九里","lon":"121.22936419","lat":"31.09271","category":"500","category_name":"未知分类","address":"上海市松江区古楼公路"},{"poiid":"B2094757D168A6FC4098","title":"田字坊","lon":"121.229928376","lat":"31.1039230509","category":"500","category_name":"未知分类","address":"上海泰康路"},{"poiid":"B2094757D569A0F5499B","title":"佘山E谷","lon":"121.2276078","lat":"31.08899389","category":"47","category_name":"住宅区","address":"松江区沈砖公路5398号"},{"poiid":"B2094757D06AA5F4409F","title":"飞行影院","lon":"121.21821873","lat":"31.095593592","category":"178","category_name":"电影院","address":"上海欢乐谷内"},{"poiid":"B2094654DA6BA4FB479E","title":"佘山高尔夫郡","lon":"121.21918","lat":"31.102373","category":"47","category_name":"住宅区","address":"松江区佘山旅游度假区林荫新路288弄"},{"poiid":"B2094757D16FA7F4439F","title":"欢乐谷碰碰车","lon":"121.219136796","lat":"31.0963143279","category":"500","category_name":"未知分类","address":"上海市松江区欢乐谷"},{"poiid":"B2094757D065AAFC4292","title":"四维影院","lon":"121.21938119","lat":"31.094362036","category":"178","category_name":"电影院","address":"上海欢乐谷内"},{"poiid":"B2094757D065ABF4489D","title":"上海欢乐谷 异度空间","lon":"121.217376296","lat":"31.0970593439","category":"500","category_name":"未知分类","address":"上海市松江区欢乐谷"},{"poiid":"B2094751D568A2FD439A","title":"上海星濠国际影城","lon":"121.233195","lat":"31.105209","category":"248","category_name":"生活娱乐","address":"松江区泗泾镇古楼路1876-1886号(近9号线佘山地铁站)"},{"poiid":"B2094654DA6BABFF479F","title":"幽篁","lon":"121.22407","lat":"31.10376","category":"47","category_name":"住宅区","address":"林荫新路255弄"},{"poiid":"B2094757D06BA0FE499F","title":"肯德基(欢乐谷店)","lon":"121.2154077","lat":"31.1010105","category":"68","category_name":"快餐厅","address":"松江区林湖路888号欢乐谷金矿镇"},{"poiid":"B2094757D06AA7FA4193","title":"上海欢乐谷 峡谷漂流","lon":"121.24267782","lat":"31.103349371","category":"500","category_name":"未知分类","address":"上海松江区佘山镇林湖路888号"},{"poiid":"B2094757D16AABFC469B","title":"蚂蚁王国","lon":"121.21432409","lat":"31.093664821","category":"500","category_name":"未知分类","address":"上海欢乐谷"},{"poiid":"B2094654DA6BA4F84892","title":"天安别墅","lon":"121.24156724335","lat":"31.097382086272","category":"47","category_name":"住宅区","address":"嘉松南路3888弄"}]