[{"poiid":"B2094757D06FA6FF459F","title":"上井(吴中店)","lon":"121.39815","lat":"31.18179","category":"95","category_name":"日本料理","address":"闵行区吴中路638号(近虹许路)"},{"poiid":"B2094757D06FA7F94692","title":"唐宫壹号(虹许路店)","lon":"121.39554","lat":"31.18129","category":"72","category_name":"广东菜","address":"闵行区虹许路358号天禧嘉福璞缇客酒店2楼(近吴中路)"},{"poiid":"B2094757D06FA6FF429C","title":"天禧嘉福璞缇客酒店","lon":"121.39571","lat":"31.18139","category":"217","category_name":"旅馆招待所","address":"上海市闵行区虹许路358号(虹桥地区,吴中路口)"},{"poiid":"B2094654DB6AA6FF4593","title":"上海大众美林阁大酒店","lon":"121.39614","lat":"31.18052","category":"213","category_name":"五星级宾馆","address":"上海市闵行区吴中路699号(吴中路虹许路口)"},{"poiid":"B2094757D16EABFD4198","title":"老外街","lon":"121.392657","lat":"31.180644","category":"116","category_name":"特色商业街","address":"上海虹梅路"},{"poiid":"B2094757D06FA2FF469C","title":"古北新城","lon":"121.40343","lat":"31.183628","category":"47","category_name":"住宅区","address":"上海吴中路511弄"},{"poiid":"B2094654D564A2FA429A","title":"虹桥盛世莲花广场","lon":"121.395","lat":"31.1835","category":"119","category_name":"商场","address":"吴中路1050弄"},{"poiid":"B2094757D06FA1F9439C","title":"美林阁(吴中路店)","lon":"121.3961","lat":"31.18063","category":"76","category_name":"上海菜","address":"闵行区吴中路699号美林阁大酒店1-2楼(近虹许路)"},{"poiid":"B2094757D06FA0F4449F","title":"吴中路","lon":"121.393310547","lat":"31.1797122955","category":"500","category_name":"未知分类","address":"上海市吴中路"},{"poiid":"B2094757D068A5F4419A","title":"上海爱信诺航天信息有限公司","lon":"121.399977617","lat":"31.1777739822","category":"46","category_name":"楼宇","address":"上海徐汇区钦州北路1198号82栋"},{"poiid":"B2094757D069A3FB4999","title":"沈记靓汤(虹许店)","lon":"121.3952","lat":"31.18143","category":"76","category_name":"上海菜","address":"闵行区虹许路368号东侧1-2楼(近吴中路)"},{"poiid":"B2094757D06FA4FE4792","title":"虹桥镇","lon":"121.392628","lat":"31.181317","category":"500","category_name":"未知分类","address":"上海虹梅路吴中路"},{"poiid":"B2094654D56BABF5469F","title":"上海漕河泾开发区新汇园","lon":"121.40301","lat":"31.17879","category":"45","category_name":"产业园区","address":"钦州北路1122"},{"poiid":"B2094757D069A4F54293","title":"幸河日本料理","lon":"121.39766","lat":"31.18169","category":"268","category_name":"自助","address":"闵行区吴中路668号(近虹许路)"},{"poiid":"B2094757D06AABF8439C","title":"亚繁国际广场","lon":"121.40377958","lat":"31.185292552","category":"500","category_name":"未知分类","address":"上海古北路1881号"},{"poiid":"B2094757D069A6F5469C","title":"豪元轩","lon":"121.39341","lat":"31.18455","category":"72","category_name":"广东菜","address":"闵行区虹许路366号(近吴中路)"},{"poiid":"B2094757D06FA6FB4393","title":"光明乳业","lon":"121.403303","lat":"31.184719","category":"249","category_name":"购物服务","address":"上海吴中路578号"},{"poiid":"B2094757D168A5FB499A","title":"小吉士","lon":"121.396904586","lat":"31.181888486","category":"76","category_name":"上海菜","address":"闵行区吴中路682号金虹桥广场(近中环)"},{"poiid":"B2094654D564A1FB4893","title":"金虹桥广场","lon":"121.40261835433","lat":"31.187232228823","category":"46","category_name":"楼宇","address":"闵行区七莘路联明路"},{"poiid":"B2094757D465A0FA4893","title":"天禧嘉福璞缇客酒店咖啡厅","lon":"121.39496420445","lat":"31.180596255007","category":"65","category_name":"咖啡厅","address":"闵行区虹许路358号天禧嘉福璞缇客酒店1楼(近吴中路)"},{"poiid":"B2094757D16CA5F8409D","title":"苏宁电器闵行第一店","lon":"121.394157386","lat":"31.1817534833","category":"138","category_name":"家电电子卖场","address":"上海中环线吴中路路口"},{"poiid":"B2094757D66EA5FE459A","title":"潮州府砂锅粥","lon":"121.396678","lat":"31.181774","category":"72","category_name":"广东菜","address":"闵行区吴中路682号金虹桥广场(近中环)"},{"poiid":"B2094757D065A1FD459C","title":"豪享来上海吴中店","lon":"121.3962","lat":"31.1815","category":"247","category_name":"餐饮美食","address":"上海市闵行区吴中路695号"},{"poiid":"B2094654D56BAAFD4592","title":"上海漕河泾开发区智汇园A座","lon":"121.40055","lat":"31.17803","category":"46","category_name":"楼宇","address":"钦州北路1198"},{"poiid":"B2094655D26EA6FF449B","title":"汉庭快捷酒店(上海古北店)","lon":"121.39782","lat":"31.18262","category":"216","category_name":"经济型连锁酒店","address":"闵行区吴中路638号(近虹许路)"},{"poiid":"B2094654DB65A1FF449B","title":"祥利港式茶餐厅","lon":"121.39521691359","lat":"31.181161131988","category":"72","category_name":"广东菜","address":"闵行区吴中路686弄2号金虹桥广场1楼E1(近虹许路)"},{"poiid":"B2094757D16FA0FB4593","title":"中环路吴中路出入口","lon":"121.395128541","lat":"31.1801158149","category":"260","category_name":"其他","address":"上海中环路吴中路出入口"},{"poiid":"B2094757DA6EAAF5499E","title":"肯德基(虹桥机场二店)","lon":"121.394481","lat":"31.1795100000002","category":"68","category_name":"快餐厅","address":"闵行区吴中路781号(近虹梅路)"},{"poiid":"B2094750D768AAFC499B","title":"鱼町居酒屋","lon":"121.393","lat":"31.1813","category":"268","category_name":"自助","address":"闵行区虹梅路2988号(吴中路口)"},{"poiid":"B2094654D564A1FA429B","title":"苹果园","lon":"121.397","lat":"31.1812","category":"47","category_name":"住宅区","address":"苹果园位于长宁虹桥环镇南路88弄"},{"poiid":"B2094757D16FA2FC4792","title":"吴中大厦","lon":"121.398724","lat":"31.18267","category":"46","category_name":"楼宇","address":"上海吴中路618号"},{"poiid":"B2094752D76DA6FF429E","title":"Beans Bins","lon":"121.397301","lat":"31.188191","category":"247","category_name":"餐饮美食","address":"红松东路1000号1F"},{"poiid":"B2094655D26FA6FA419A","title":"虹兴苑","lon":"121.4","lat":"31.181","category":"47","category_name":"住宅区","address":"虹梅路2555弄"},{"poiid":"B2094757D065A6FA4698","title":"虹桥派出所","lon":"121.398741","lat":"31.182673","category":"609","category_name":"警察局","address":"闵行区吴中路600号"},{"poiid":"B2094757D06BA2FE4799","title":"明申花园","lon":"121.39806","lat":"31.181097","category":"252","category_name":"楼宇机构","address":"上海市闵行区吴中路630号"},{"poiid":"B2094655D26AA6F4479A","title":"天圣酸菜鱼火锅 吴中路店","lon":"121.3954705076","lat":"31.181120220201","category":"86","category_name":"火锅店","address":"闵行区吴中路685号(近虹许路)"},{"poiid":"B2094757D165AAF5469D","title":"吴中路明申花园","lon":"121.39930858","lat":"31.181474477","category":"500","category_name":"未知分类","address":"上海市闵行区吴中路"},{"poiid":"B2094655D26FA6FA4599","title":"金虹大厦","lon":"121.39977","lat":"31.183357","category":"47","category_name":"住宅区","address":"上海市卢湾区徐家汇路515弄"},{"poiid":"B2094757D068A2F94499","title":"漕河泾开发区智汇园","lon":"121.399838","lat":"31.177512","category":"260","category_name":"其他","address":"上海徐汇区钦州北路1199号"},{"poiid":"B2094654D56BAAFF449E","title":"文峰美发美容(吴中路)","lon":"121.39962","lat":"31.18258","category":"148","category_name":"美容美发店","address":"吴中路607"},{"poiid":"B2094654DB6BA7F84298","title":"康骏推拿足道(吴中路)","lon":"121.39746","lat":"31.18159","category":"149","category_name":"洗浴推拿场所","address":"吴中路661号"},{"poiid":"B2094757D06AA5FF4398","title":"申生动物医院(吴中路店)","lon":"121.403459327","lat":"31.1841683832","category":"162","category_name":"医院","address":"闵行区吴中路507号(近古北南路)"},{"poiid":"B2094655D269AAFE409F","title":"金沙夜总会","lon":"121.39677","lat":"31.18181","category":"247","category_name":"餐饮美食","address":"上海闵行区吴中路688号(近虹许路)  "},{"poiid":"B2094654D564A1F44099","title":"金虹桥广场E座","lon":"121.39669","lat":"31.18276","category":"46","category_name":"楼宇","address":"吴中路686弄2号"},{"poiid":"B2094757D068ABF4469F","title":"薇爱精品时尚酒店(吴中店)","lon":"121.39688702","lat":"31.182149797","category":"217","category_name":"旅馆招待所","address":"上海闵行区吴中路682号金虹桥广场虹桥C座8楼(近虹许路)"},{"poiid":"B2094654D56BAAFD449F","title":"立明","lon":"121.40399","lat":"31.1774","category":"46","category_name":"楼宇","address":"桂箐路111号"},{"poiid":"B2094654D564A1FB489C","title":"好德No.008","lon":"121.39739","lat":"31.18196","category":"117","category_name":"便民商店/便利店","address":"吴中路668"},{"poiid":"B2094655D26FA7F44898","title":"明申花园北门","lon":"121.39768","lat":"31.18172","category":"47","category_name":"住宅区","address":"吴中路633弄"},{"poiid":"B2094654D564A1F4459E","title":"金虹桥广场D座","lon":"121.39606","lat":"31.18263","category":"46","category_name":"楼宇","address":""},{"poiid":"B2094757D16CA7F5419E","title":"潮州府","lon":"121.396775","lat":"31.181816","category":"247","category_name":"餐饮美食","address":"上海吴中路682号"},{"poiid":"B2094757D06FA6FF459F","title":"上井(吴中店)","lon":"121.39815","lat":"31.18179","category":"95","category_name":"日本料理","address":"闵行区吴中路638号(近虹许路)"},{"poiid":"B2094757D06FA7F94692","title":"唐宫壹号(虹许路店)","lon":"121.39554","lat":"31.18129","category":"72","category_name":"广东菜","address":"闵行区虹许路358号天禧嘉福璞缇客酒店2楼(近吴中路)"},{"poiid":"B2094757D06FA6FF429C","title":"天禧嘉福璞缇客酒店","lon":"121.39571","lat":"31.18139","category":"217","category_name":"旅馆招待所","address":"上海市闵行区虹许路358号(虹桥地区,吴中路口)"},{"poiid":"B2094654DB6AA6FF4593","title":"上海大众美林阁大酒店","lon":"121.39614","lat":"31.18052","category":"213","category_name":"五星级宾馆","address":"上海市闵行区吴中路699号(吴中路虹许路口)"},{"poiid":"B2094757D16EABFD4198","title":"老外街","lon":"121.392657","lat":"31.180644","category":"116","category_name":"特色商业街","address":"上海虹梅路"},{"poiid":"B2094757D06FA2FF469C","title":"古北新城","lon":"121.40343","lat":"31.183628","category":"47","category_name":"住宅区","address":"上海吴中路511弄"},{"poiid":"B2094654D564A2FA429A","title":"虹桥盛世莲花广场","lon":"121.395","lat":"31.1835","category":"119","category_name":"商场","address":"吴中路1050弄"},{"poiid":"B2094757D06FA1F9439C","title":"美林阁(吴中路店)","lon":"121.3961","lat":"31.18063","category":"76","category_name":"上海菜","address":"闵行区吴中路699号美林阁大酒店1-2楼(近虹许路)"},{"poiid":"B2094757D06FA0F4449F","title":"吴中路","lon":"121.393310547","lat":"31.1797122955","category":"500","category_name":"未知分类","address":"上海市吴中路"},{"poiid":"B2094757D068A5F4419A","title":"上海爱信诺航天信息有限公司","lon":"121.399977617","lat":"31.1777739822","category":"46","category_name":"楼宇","address":"上海徐汇区钦州北路1198号82栋"},{"poiid":"B2094757D069A3FB4999","title":"沈记靓汤(虹许店)","lon":"121.3952","lat":"31.18143","category":"76","category_name":"上海菜","address":"闵行区虹许路368号东侧1-2楼(近吴中路)"},{"poiid":"B2094757D06FA4FE4792","title":"虹桥镇","lon":"121.392628","lat":"31.181317","category":"500","category_name":"未知分类","address":"上海虹梅路吴中路"},{"poiid":"B2094654D56BABF5469F","title":"上海漕河泾开发区新汇园","lon":"121.40301","lat":"31.17879","category":"45","category_name":"产业园区","address":"钦州北路1122"},{"poiid":"B2094757D069A4F54293","title":"幸河日本料理","lon":"121.39766","lat":"31.18169","category":"268","category_name":"自助","address":"闵行区吴中路668号(近虹许路)"},{"poiid":"B2094757D06AABF8439C","title":"亚繁国际广场","lon":"121.40377958","lat":"31.185292552","category":"500","category_name":"未知分类","address":"上海古北路1881号"},{"poiid":"B2094757D069A6F5469C","title":"豪元轩","lon":"121.39341","lat":"31.18455","category":"72","category_name":"广东菜","address":"闵行区虹许路366号(近吴中路)"},{"poiid":"B2094757D06FA6FB4393","title":"光明乳业","lon":"121.403303","lat":"31.184719","category":"249","category_name":"购物服务","address":"上海吴中路578号"},{"poiid":"B2094757D168A5FB499A","title":"小吉士","lon":"121.396904586","lat":"31.181888486","category":"76","category_name":"上海菜","address":"闵行区吴中路682号金虹桥广场(近中环)"},{"poiid":"B2094654D564A1FB4893","title":"金虹桥广场","lon":"121.40261835433","lat":"31.187232228823","category":"46","category_name":"楼宇","address":"闵行区七莘路联明路"},{"poiid":"B2094757D465A0FA4893","title":"天禧嘉福璞缇客酒店咖啡厅","lon":"121.39496420445","lat":"31.180596255007","category":"65","category_name":"咖啡厅","address":"闵行区虹许路358号天禧嘉福璞缇客酒店1楼(近吴中路)"},{"poiid":"B2094757D16CA5F8409D","title":"苏宁电器闵行第一店","lon":"121.394157386","lat":"31.1817534833","category":"138","category_name":"家电电子卖场","address":"上海中环线吴中路路口"},{"poiid":"B2094757D66EA5FE459A","title":"潮州府砂锅粥","lon":"121.396678","lat":"31.181774","category":"72","category_name":"广东菜","address":"闵行区吴中路682号金虹桥广场(近中环)"},{"poiid":"B2094757D065A1FD459C","title":"豪享来上海吴中店","lon":"121.3962","lat":"31.1815","category":"247","category_name":"餐饮美食","address":"上海市闵行区吴中路695号"},{"poiid":"B2094654D56BAAFD4592","title":"上海漕河泾开发区智汇园A座","lon":"121.40055","lat":"31.17803","category":"46","category_name":"楼宇","address":"钦州北路1198"},{"poiid":"B2094655D26EA6FF449B","title":"汉庭快捷酒店(上海古北店)","lon":"121.39782","lat":"31.18262","category":"216","category_name":"经济型连锁酒店","address":"闵行区吴中路638号(近虹许路)"},{"poiid":"B2094654DB65A1FF449B","title":"祥利港式茶餐厅","lon":"121.39521691359","lat":"31.181161131988","category":"72","category_name":"广东菜","address":"闵行区吴中路686弄2号金虹桥广场1楼E1(近虹许路)"},{"poiid":"B2094757D16FA0FB4593","title":"中环路吴中路出入口","lon":"121.395128541","lat":"31.1801158149","category":"260","category_name":"其他","address":"上海中环路吴中路出入口"},{"poiid":"B2094757DA6EAAF5499E","title":"肯德基(虹桥机场二店)","lon":"121.394481","lat":"31.1795100000002","category":"68","category_name":"快餐厅","address":"闵行区吴中路781号(近虹梅路)"},{"poiid":"B2094750D768AAFC499B","title":"鱼町居酒屋","lon":"121.393","lat":"31.1813","category":"268","category_name":"自助","address":"闵行区虹梅路2988号(吴中路口)"},{"poiid":"B2094654D564A1FA429B","title":"苹果园","lon":"121.397","lat":"31.1812","category":"47","category_name":"住宅区","address":"苹果园位于长宁虹桥环镇南路88弄"},{"poiid":"B2094757D16FA2FC4792","title":"吴中大厦","lon":"121.398724","lat":"31.18267","category":"46","category_name":"楼宇","address":"上海吴中路618号"},{"poiid":"B2094752D76DA6FF429E","title":"Beans Bins","lon":"121.397301","lat":"31.188191","category":"247","category_name":"餐饮美食","address":"红松东路1000号1F"},{"poiid":"B2094655D26FA6FA419A","title":"虹兴苑","lon":"121.4","lat":"31.181","category":"47","category_name":"住宅区","address":"虹梅路2555弄"},{"poiid":"B2094757D065A6FA4698","title":"虹桥派出所","lon":"121.398741","lat":"31.182673","category":"609","category_name":"警察局","address":"闵行区吴中路600号"},{"poiid":"B2094757D06BA2FE4799","title":"明申花园","lon":"121.39806","lat":"31.181097","category":"252","category_name":"楼宇机构","address":"上海市闵行区吴中路630号"},{"poiid":"B2094655D26AA6F4479A","title":"天圣酸菜鱼火锅 吴中路店","lon":"121.3954705076","lat":"31.181120220201","category":"86","category_name":"火锅店","address":"闵行区吴中路685号(近虹许路)"},{"poiid":"B2094757D165AAF5469D","title":"吴中路明申花园","lon":"121.39930858","lat":"31.181474477","category":"500","category_name":"未知分类","address":"上海市闵行区吴中路"},{"poiid":"B2094655D26FA6FA4599","title":"金虹大厦","lon":"121.39977","lat":"31.183357","category":"47","category_name":"住宅区","address":"上海市卢湾区徐家汇路515弄"},{"poiid":"B2094757D068A2F94499","title":"漕河泾开发区智汇园","lon":"121.399838","lat":"31.177512","category":"260","category_name":"其他","address":"上海徐汇区钦州北路1199号"},{"poiid":"B2094654D56BAAFF449E","title":"文峰美发美容(吴中路)","lon":"121.39962","lat":"31.18258","category":"148","category_name":"美容美发店","address":"吴中路607"},{"poiid":"B2094654DB6BA7F84298","title":"康骏推拿足道(吴中路)","lon":"121.39746","lat":"31.18159","category":"149","category_name":"洗浴推拿场所","address":"吴中路661号"},{"poiid":"B2094757D06AA5FF4398","title":"申生动物医院(吴中路店)","lon":"121.403459327","lat":"31.1841683832","category":"162","category_name":"医院","address":"闵行区吴中路507号(近古北南路)"},{"poiid":"B2094655D269AAFE409F","title":"金沙夜总会","lon":"121.39677","lat":"31.18181","category":"247","category_name":"餐饮美食","address":"上海闵行区吴中路688号(近虹许路)  "},{"poiid":"B2094654D564A1F44099","title":"金虹桥广场E座","lon":"121.39669","lat":"31.18276","category":"46","category_name":"楼宇","address":"吴中路686弄2号"},{"poiid":"B2094757D068ABF4469F","title":"薇爱精品时尚酒店(吴中店)","lon":"121.39688702","lat":"31.182149797","category":"217","category_name":"旅馆招待所","address":"上海闵行区吴中路682号金虹桥广场虹桥C座8楼(近虹许路)"},{"poiid":"B2094654D56BAAFD449F","title":"立明","lon":"121.40399","lat":"31.1774","category":"46","category_name":"楼宇","address":"桂箐路111号"},{"poiid":"B2094654D564A1FB489C","title":"好德No.008","lon":"121.39739","lat":"31.18196","category":"117","category_name":"便民商店/便利店","address":"吴中路668"},{"poiid":"B2094655D26FA7F44898","title":"明申花园北门","lon":"121.39768","lat":"31.18172","category":"47","category_name":"住宅区","address":"吴中路633弄"},{"poiid":"B2094654D564A1F4459E","title":"金虹桥广场D座","lon":"121.39606","lat":"31.18263","category":"46","category_name":"楼宇","address":""},{"poiid":"B2094757D16CA7F5419E","title":"潮州府","lon":"121.396775","lat":"31.181816","category":"247","category_name":"餐饮美食","address":"上海吴中路682号"},{"poiid":"B2094757D06FA6FF459F","title":"上井(吴中店)","lon":"121.39815","lat":"31.18179","category":"95","category_name":"日本料理","address":"闵行区吴中路638号(近虹许路)"},{"poiid":"B2094757D06FA7F94692","title":"唐宫壹号(虹许路店)","lon":"121.39554","lat":"31.18129","category":"72","category_name":"广东菜","address":"闵行区虹许路358号天禧嘉福璞缇客酒店2楼(近吴中路)"},{"poiid":"B2094757D06FA6FF429C","title":"天禧嘉福璞缇客酒店","lon":"121.39571","lat":"31.18139","category":"217","category_name":"旅馆招待所","address":"上海市闵行区虹许路358号(虹桥地区,吴中路口)"},{"poiid":"B2094654DB6AA6FF4593","title":"上海大众美林阁大酒店","lon":"121.39614","lat":"31.18052","category":"213","category_name":"五星级宾馆","address":"上海市闵行区吴中路699号(吴中路虹许路口)"},{"poiid":"B2094757D16EABFD4198","title":"老外街","lon":"121.392657","lat":"31.180644","category":"116","category_name":"特色商业街","address":"上海虹梅路"},{"poiid":"B2094757D06FA2FF469C","title":"古北新城","lon":"121.40343","lat":"31.183628","category":"47","category_name":"住宅区","address":"上海吴中路511弄"},{"poiid":"B2094654D564A2FA429A","title":"虹桥盛世莲花广场","lon":"121.395","lat":"31.1835","category":"119","category_name":"商场","address":"吴中路1050弄"},{"poiid":"B2094757D06FA1F9439C","title":"美林阁(吴中路店)","lon":"121.3961","lat":"31.18063","category":"76","category_name":"上海菜","address":"闵行区吴中路699号美林阁大酒店1-2楼(近虹许路)"},{"poiid":"B2094757D06FA0F4449F","title":"吴中路","lon":"121.393310547","lat":"31.1797122955","category":"500","category_name":"未知分类","address":"上海市吴中路"},{"poiid":"B2094757D068A5F4419A","title":"上海爱信诺航天信息有限公司","lon":"121.399977617","lat":"31.1777739822","category":"46","category_name":"楼宇","address":"上海徐汇区钦州北路1198号82栋"},{"poiid":"B2094757D069A3FB4999","title":"沈记靓汤(虹许店)","lon":"121.3952","lat":"31.18143","category":"76","category_name":"上海菜","address":"闵行区虹许路368号东侧1-2楼(近吴中路)"},{"poiid":"B2094757D06FA4FE4792","title":"虹桥镇","lon":"121.392628","lat":"31.181317","category":"500","category_name":"未知分类","address":"上海虹梅路吴中路"},{"poiid":"B2094654D56BABF5469F","title":"上海漕河泾开发区新汇园","lon":"121.40301","lat":"31.17879","category":"45","category_name":"产业园区","address":"钦州北路1122"},{"poiid":"B2094757D069A4F54293","title":"幸河日本料理","lon":"121.39766","lat":"31.18169","category":"268","category_name":"自助","address":"闵行区吴中路668号(近虹许路)"},{"poiid":"B2094757D06AABF8439C","title":"亚繁国际广场","lon":"121.40377958","lat":"31.185292552","category":"500","category_name":"未知分类","address":"上海古北路1881号"},{"poiid":"B2094757D069A6F5469C","title":"豪元轩","lon":"121.39341","lat":"31.18455","category":"72","category_name":"广东菜","address":"闵行区虹许路366号(近吴中路)"},{"poiid":"B2094757D06FA6FB4393","title":"光明乳业","lon":"121.403303","lat":"31.184719","category":"249","category_name":"购物服务","address":"上海吴中路578号"},{"poiid":"B2094757D168A5FB499A","title":"小吉士","lon":"121.396904586","lat":"31.181888486","category":"76","category_name":"上海菜","address":"闵行区吴中路682号金虹桥广场(近中环)"},{"poiid":"B2094654D564A1FB4893","title":"金虹桥广场","lon":"121.40261835433","lat":"31.187232228823","category":"46","category_name":"楼宇","address":"闵行区七莘路联明路"},{"poiid":"B2094757D465A0FA4893","title":"天禧嘉福璞缇客酒店咖啡厅","lon":"121.39496420445","lat":"31.180596255007","category":"65","category_name":"咖啡厅","address":"闵行区虹许路358号天禧嘉福璞缇客酒店1楼(近吴中路)"},{"poiid":"B2094757D16CA5F8409D","title":"苏宁电器闵行第一店","lon":"121.394157386","lat":"31.1817534833","category":"138","category_name":"家电电子卖场","address":"上海中环线吴中路路口"},{"poiid":"B2094757D66EA5FE459A","title":"潮州府砂锅粥","lon":"121.396678","lat":"31.181774","category":"72","category_name":"广东菜","address":"闵行区吴中路682号金虹桥广场(近中环)"},{"poiid":"B2094757D065A1FD459C","title":"豪享来上海吴中店","lon":"121.3962","lat":"31.1815","category":"247","category_name":"餐饮美食","address":"上海市闵行区吴中路695号"},{"poiid":"B2094654D56BAAFD4592","title":"上海漕河泾开发区智汇园A座","lon":"121.40055","lat":"31.17803","category":"46","category_name":"楼宇","address":"钦州北路1198"},{"poiid":"B2094655D26EA6FF449B","title":"汉庭快捷酒店(上海古北店)","lon":"121.39782","lat":"31.18262","category":"216","category_name":"经济型连锁酒店","address":"闵行区吴中路638号(近虹许路)"},{"poiid":"B2094654DB65A1FF449B","title":"祥利港式茶餐厅","lon":"121.39521691359","lat":"31.181161131988","category":"72","category_name":"广东菜","address":"闵行区吴中路686弄2号金虹桥广场1楼E1(近虹许路)"},{"poiid":"B2094757D16FA0FB4593","title":"中环路吴中路出入口","lon":"121.395128541","lat":"31.1801158149","category":"260","category_name":"其他","address":"上海中环路吴中路出入口"},{"poiid":"B2094757DA6EAAF5499E","title":"肯德基(虹桥机场二店)","lon":"121.394481","lat":"31.1795100000002","category":"68","category_name":"快餐厅","address":"闵行区吴中路781号(近虹梅路)"},{"poiid":"B2094750D768AAFC499B","title":"鱼町居酒屋","lon":"121.393","lat":"31.1813","category":"268","category_name":"自助","address":"闵行区虹梅路2988号(吴中路口)"},{"poiid":"B2094654D564A1FA429B","title":"苹果园","lon":"121.397","lat":"31.1812","category":"47","category_name":"住宅区","address":"苹果园位于长宁虹桥环镇南路88弄"},{"poiid":"B2094757D16FA2FC4792","title":"吴中大厦","lon":"121.398724","lat":"31.18267","category":"46","category_name":"楼宇","address":"上海吴中路618号"},{"poiid":"B2094752D76DA6FF429E","title":"Beans Bins","lon":"121.397301","lat":"31.188191","category":"247","category_name":"餐饮美食","address":"红松东路1000号1F"},{"poiid":"B2094655D26FA6FA419A","title":"虹兴苑","lon":"121.4","lat":"31.181","category":"47","category_name":"住宅区","address":"虹梅路2555弄"},{"poiid":"B2094757D065A6FA4698","title":"虹桥派出所","lon":"121.398741","lat":"31.182673","category":"609","category_name":"警察局","address":"闵行区吴中路600号"},{"poiid":"B2094757D06BA2FE4799","title":"明申花园","lon":"121.39806","lat":"31.181097","category":"252","category_name":"楼宇机构","address":"上海市闵行区吴中路630号"},{"poiid":"B2094655D26AA6F4479A","title":"天圣酸菜鱼火锅 吴中路店","lon":"121.3954705076","lat":"31.181120220201","category":"86","category_name":"火锅店","address":"闵行区吴中路685号(近虹许路)"},{"poiid":"B2094757D165AAF5469D","title":"吴中路明申花园","lon":"121.39930858","lat":"31.181474477","category":"500","category_name":"未知分类","address":"上海市闵行区吴中路"},{"poiid":"B2094655D26FA6FA4599","title":"金虹大厦","lon":"121.39977","lat":"31.183357","category":"47","category_name":"住宅区","address":"上海市卢湾区徐家汇路515弄"},{"poiid":"B2094757D068A2F94499","title":"漕河泾开发区智汇园","lon":"121.399838","lat":"31.177512","category":"260","category_name":"其他","address":"上海徐汇区钦州北路1199号"},{"poiid":"B2094654D56BAAFF449E","title":"文峰美发美容(吴中路)","lon":"121.39962","lat":"31.18258","category":"148","category_name":"美容美发店","address":"吴中路607"},{"poiid":"B2094654DB6BA7F84298","title":"康骏推拿足道(吴中路)","lon":"121.39746","lat":"31.18159","category":"149","category_name":"洗浴推拿场所","address":"吴中路661号"},{"poiid":"B2094757D06AA5FF4398","title":"申生动物医院(吴中路店)","lon":"121.403459327","lat":"31.1841683832","category":"162","category_name":"医院","address":"闵行区吴中路507号(近古北南路)"},{"poiid":"B2094655D269AAFE409F","title":"金沙夜总会","lon":"121.39677","lat":"31.18181","category":"247","category_name":"餐饮美食","address":"上海闵行区吴中路688号(近虹许路)  "},{"poiid":"B2094654D564A1F44099","title":"金虹桥广场E座","lon":"121.39669","lat":"31.18276","category":"46","category_name":"楼宇","address":"吴中路686弄2号"},{"poiid":"B2094757D068ABF4469F","title":"薇爱精品时尚酒店(吴中店)","lon":"121.39688702","lat":"31.182149797","category":"217","category_name":"旅馆招待所","address":"上海闵行区吴中路682号金虹桥广场虹桥C座8楼(近虹许路)"},{"poiid":"B2094654D56BAAFD449F","title":"立明","lon":"121.40399","lat":"31.1774","category":"46","category_name":"楼宇","address":"桂箐路111号"},{"poiid":"B2094654D564A1FB489C","title":"好德No.008","lon":"121.39739","lat":"31.18196","category":"117","category_name":"便民商店/便利店","address":"吴中路668"},{"poiid":"B2094655D26FA7F44898","title":"明申花园北门","lon":"121.39768","lat":"31.18172","category":"47","category_name":"住宅区","address":"吴中路633弄"},{"poiid":"B2094654D564A1F4459E","title":"金虹桥广场D座","lon":"121.39606","lat":"31.18263","category":"46","category_name":"楼宇","address":""},{"poiid":"B2094757D16CA7F5419E","title":"潮州府","lon":"121.396775","lat":"31.181816","category":"247","category_name":"餐饮美食","address":"上海吴中路682号"},{"poiid":"B2094757D06FA6FF459F","title":"上井(吴中店)","lon":"121.39815","lat":"31.18179","category":"95","category_name":"日本料理","address":"闵行区吴中路638号(近虹许路)"},{"poiid":"B2094757D06FA7F94692","title":"唐宫壹号(虹许路店)","lon":"121.39554","lat":"31.18129","category":"72","category_name":"广东菜","address":"闵行区虹许路358号天禧嘉福璞缇客酒店2楼(近吴中路)"},{"poiid":"B2094757D06FA6FF429C","title":"天禧嘉福璞缇客酒店","lon":"121.39571","lat":"31.18139","category":"217","category_name":"旅馆招待所","address":"上海市闵行区虹许路358号(虹桥地区,吴中路口)"},{"poiid":"B2094654DB6AA6FF4593","title":"上海大众美林阁大酒店","lon":"121.39614","lat":"31.18052","category":"213","category_name":"五星级宾馆","address":"上海市闵行区吴中路699号(吴中路虹许路口)"},{"poiid":"B2094757D16EABFD4198","title":"老外街","lon":"121.392657","lat":"31.180644","category":"116","category_name":"特色商业街","address":"上海虹梅路"},{"poiid":"B2094757D06FA2FF469C","title":"古北新城","lon":"121.40343","lat":"31.183628","category":"47","category_name":"住宅区","address":"上海吴中路511弄"},{"poiid":"B2094654D564A2FA429A","title":"虹桥盛世莲花广场","lon":"121.395","lat":"31.1835","category":"119","category_name":"商场","address":"吴中路1050弄"},{"poiid":"B2094757D06FA1F9439C","title":"美林阁(吴中路店)","lon":"121.3961","lat":"31.18063","category":"76","category_name":"上海菜","address":"闵行区吴中路699号美林阁大酒店1-2楼(近虹许路)"},{"poiid":"B2094757D06FA0F4449F","title":"吴中路","lon":"121.393310547","lat":"31.1797122955","category":"500","category_name":"未知分类","address":"上海市吴中路"},{"poiid":"B2094757D068A5F4419A","title":"上海爱信诺航天信息有限公司","lon":"121.399977617","lat":"31.1777739822","category":"46","category_name":"楼宇","address":"上海徐汇区钦州北路1198号82栋"},{"poiid":"B2094757D069A3FB4999","title":"沈记靓汤(虹许店)","lon":"121.3952","lat":"31.18143","category":"76","category_name":"上海菜","address":"闵行区虹许路368号东侧1-2楼(近吴中路)"},{"poiid":"B2094757D06FA4FE4792","title":"虹桥镇","lon":"121.392628","lat":"31.181317","category":"500","category_name":"未知分类","address":"上海虹梅路吴中路"},{"poiid":"B2094654D56BABF5469F","title":"上海漕河泾开发区新汇园","lon":"121.40301","lat":"31.17879","category":"45","category_name":"产业园区","address":"钦州北路1122"},{"poiid":"B2094757D069A4F54293","title":"幸河日本料理","lon":"121.39766","lat":"31.18169","category":"268","category_name":"自助","address":"闵行区吴中路668号(近虹许路)"},{"poiid":"B2094757D06AABF8439C","title":"亚繁国际广场","lon":"121.40377958","lat":"31.185292552","category":"500","category_name":"未知分类","address":"上海古北路1881号"},{"poiid":"B2094757D069A6F5469C","title":"豪元轩","lon":"121.39341","lat":"31.18455","category":"72","category_name":"广东菜","address":"闵行区虹许路366号(近吴中路)"},{"poiid":"B2094757D06FA6FB4393","title":"光明乳业","lon":"121.403303","lat":"31.184719","category":"249","category_name":"购物服务","address":"上海吴中路578号"},{"poiid":"B2094757D168A5FB499A","title":"小吉士","lon":"121.396904586","lat":"31.181888486","category":"76","category_name":"上海菜","address":"闵行区吴中路682号金虹桥广场(近中环)"},{"poiid":"B2094654D564A1FB4893","title":"金虹桥广场","lon":"121.40261835433","lat":"31.187232228823","category":"46","category_name":"楼宇","address":"闵行区七莘路联明路"},{"poiid":"B2094757D465A0FA4893","title":"天禧嘉福璞缇客酒店咖啡厅","lon":"121.39496420445","lat":"31.180596255007","category":"65","category_name":"咖啡厅","address":"闵行区虹许路358号天禧嘉福璞缇客酒店1楼(近吴中路)"},{"poiid":"B2094757D16CA5F8409D","title":"苏宁电器闵行第一店","lon":"121.394157386","lat":"31.1817534833","category":"138","category_name":"家电电子卖场","address":"上海中环线吴中路路口"},{"poiid":"B2094757D66EA5FE459A","title":"潮州府砂锅粥","lon":"121.396678","lat":"31.181774","category":"72","category_name":"广东菜","address":"闵行区吴中路682号金虹桥广场(近中环)"},{"poiid":"B2094757D065A1FD459C","title":"豪享来上海吴中店","lon":"121.3962","lat":"31.1815","category":"247","category_name":"餐饮美食","address":"上海市闵行区吴中路695号"},{"poiid":"B2094654D56BAAFD4592","title":"上海漕河泾开发区智汇园A座","lon":"121.40055","lat":"31.17803","category":"46","category_name":"楼宇","address":"钦州北路1198"},{"poiid":"B2094655D26EA6FF449B","title":"汉庭快捷酒店(上海古北店)","lon":"121.39782","lat":"31.18262","category":"216","category_name":"经济型连锁酒店","address":"闵行区吴中路638号(近虹许路)"},{"poiid":"B2094654DB65A1FF449B","title":"祥利港式茶餐厅","lon":"121.39521691359","lat":"31.181161131988","category":"72","category_name":"广东菜","address":"闵行区吴中路686弄2号金虹桥广场1楼E1(近虹许路)"},{"poiid":"B2094757D16FA0FB4593","title":"中环路吴中路出入口","lon":"121.395128541","lat":"31.1801158149","category":"260","category_name":"其他","address":"上海中环路吴中路出入口"},{"poiid":"B2094757DA6EAAF5499E","title":"肯德基(虹桥机场二店)","lon":"121.394481","lat":"31.1795100000002","category":"68","category_name":"快餐厅","address":"闵行区吴中路781号(近虹梅路)"},{"poiid":"B2094750D768AAFC499B","title":"鱼町居酒屋","lon":"121.393","lat":"31.1813","category":"268","category_name":"自助","address":"闵行区虹梅路2988号(吴中路口)"},{"poiid":"B2094654D564A1FA429B","title":"苹果园","lon":"121.397","lat":"31.1812","category":"47","category_name":"住宅区","address":"苹果园位于长宁虹桥环镇南路88弄"},{"poiid":"B2094757D16FA2FC4792","title":"吴中大厦","lon":"121.398724","lat":"31.18267","category":"46","category_name":"楼宇","address":"上海吴中路618号"},{"poiid":"B2094752D76DA6FF429E","title":"Beans Bins","lon":"121.397301","lat":"31.188191","category":"247","category_name":"餐饮美食","address":"红松东路1000号1F"},{"poiid":"B2094655D26FA6FA419A","title":"虹兴苑","lon":"121.4","lat":"31.181","category":"47","category_name":"住宅区","address":"虹梅路2555弄"},{"poiid":"B2094757D065A6FA4698","title":"虹桥派出所","lon":"121.398741","lat":"31.182673","category":"609","category_name":"警察局","address":"闵行区吴中路600号"},{"poiid":"B2094757D06BA2FE4799","title":"明申花园","lon":"121.39806","lat":"31.181097","category":"252","category_name":"楼宇机构","address":"上海市闵行区吴中路630号"},{"poiid":"B2094655D26AA6F4479A","title":"天圣酸菜鱼火锅 吴中路店","lon":"121.3954705076","lat":"31.181120220201","category":"86","category_name":"火锅店","address":"闵行区吴中路685号(近虹许路)"},{"poiid":"B2094757D165AAF5469D","title":"吴中路明申花园","lon":"121.39930858","lat":"31.181474477","category":"500","category_name":"未知分类","address":"上海市闵行区吴中路"},{"poiid":"B2094655D26FA6FA4599","title":"金虹大厦","lon":"121.39977","lat":"31.183357","category":"47","category_name":"住宅区","address":"上海市卢湾区徐家汇路515弄"},{"poiid":"B2094757D068A2F94499","title":"漕河泾开发区智汇园","lon":"121.399838","lat":"31.177512","category":"260","category_name":"其他","address":"上海徐汇区钦州北路1199号"},{"poiid":"B2094654D56BAAFF449E","title":"文峰美发美容(吴中路)","lon":"121.39962","lat":"31.18258","category":"148","category_name":"美容美发店","address":"吴中路607"},{"poiid":"B2094654DB6BA7F84298","title":"康骏推拿足道(吴中路)","lon":"121.39746","lat":"31.18159","category":"149","category_name":"洗浴推拿场所","address":"吴中路661号"},{"poiid":"B2094757D06AA5FF4398","title":"申生动物医院(吴中路店)","lon":"121.403459327","lat":"31.1841683832","category":"162","category_name":"医院","address":"闵行区吴中路507号(近古北南路)"},{"poiid":"B2094655D269AAFE409F","title":"金沙夜总会","lon":"121.39677","lat":"31.18181","category":"247","category_name":"餐饮美食","address":"上海闵行区吴中路688号(近虹许路)  "},{"poiid":"B2094654D564A1F44099","title":"金虹桥广场E座","lon":"121.39669","lat":"31.18276","category":"46","category_name":"楼宇","address":"吴中路686弄2号"},{"poiid":"B2094757D068ABF4469F","title":"薇爱精品时尚酒店(吴中店)","lon":"121.39688702","lat":"31.182149797","category":"217","category_name":"旅馆招待所","address":"上海闵行区吴中路682号金虹桥广场虹桥C座8楼(近虹许路)"},{"poiid":"B2094654D56BAAFD449F","title":"立明","lon":"121.40399","lat":"31.1774","category":"46","category_name":"楼宇","address":"桂箐路111号"},{"poiid":"B2094654D564A1FB489C","title":"好德No.008","lon":"121.39739","lat":"31.18196","category":"117","category_name":"便民商店/便利店","address":"吴中路668"},{"poiid":"B2094655D26FA7F44898","title":"明申花园北门","lon":"121.39768","lat":"31.18172","category":"47","category_name":"住宅区","address":"吴中路633弄"},{"poiid":"B2094654D564A1F4459E","title":"金虹桥广场D座","lon":"121.39606","lat":"31.18263","category":"46","category_name":"楼宇","address":""},{"poiid":"B2094757D16CA7F5419E","title":"潮州府","lon":"121.396775","lat":"31.181816","category":"247","category_name":"餐饮美食","address":"上海吴中路682号"}]