[{"poiid":"B2094757D06FA2F84392","title":"斯波特大酒店","lon":"121.43583","lat":"31.18869","category":"214","category_name":"四星级宾馆","address":"徐汇区南丹路15号(近漕溪北路)"},{"poiid":"B2094654DA6CAAFE459B","title":"徐家汇天主教堂","lon":"121.43605","lat":"31.19117","category":"245","category_name":"教堂","address":"上海市徐汇区蒲西路158号"},{"poiid":"B2094654DB6BA5FE4298","title":"小肥羊火锅(南丹路店)","lon":"121.43357","lat":"31.18927","category":"86","category_name":"火锅店","address":"徐汇区南丹路169号(近文定路)"},{"poiid":"B2094757D06FABFC489F","title":"徐家匯天主堂","lon":"121.43679046","lat":"31.191080093","category":"500","category_name":"未知分类","address":"中国上海市徐匯區蒲西路158号"},{"poiid":"B2094757D069AAFF449A","title":"一号线徐家汇站","lon":"121.437045586","lat":"31.1880640066","category":"500","category_name":"未知分类","address":"上海徐家汇"},{"poiid":"B2094757D06FA4FE4592","title":"COSTA COFFEE(百脑汇店)","lon":"121.43794","lat":"31.19023","category":"65","category_name":"咖啡厅","address":"徐汇区漕溪北路8号东方商厦2楼B03-F02-1-047铺(近虹桥路)"},{"poiid":"B2094757D068A7FC419D","title":"徐汇区人民政府","lon":"121.43708249","lat":"31.188646284","category":"500","category_name":"未知分类","address":"上海漕溪北路336号"},{"poiid":"B2094757D06FA7F44192","title":"永升大厦","lon":"121.434","lat":"31.1889","category":"46","category_name":"楼宇","address":"上海市徐汇区中山西路2025号"},{"poiid":"B2094753D56AA6FD479F","title":"鱼酷活鱼现烤","lon":"121.437927","lat":"31.189521","category":"247","category_name":"餐饮美食","address":"上海市 百脑汇二期三楼"},{"poiid":"B2094752D26EA1FA4393","title":"掌上韩品","lon":"121.435135","lat":"31.190304","category":"247","category_name":"餐饮美食","address":"星游城"},{"poiid":"B2094655D26EABFD4292","title":"建国宾馆九州厅","lon":"121.43804629194","lat":"31.189785273911","category":"247","category_name":"餐饮美食","address":"徐汇区漕溪北路439号建国宾馆查看地图"},{"poiid":"B2094757D068A7FA4193","title":"光启公园","lon":"121.43457277","lat":"31.1895627398","category":"196","category_name":"公园","address":"徐汇区南丹路17号(近汇站路)"},{"poiid":"B2094654DA6CAAFE479F","title":"大韩民国驻上海总领事馆文化处","lon":"121.43652","lat":"31.18747","category":"252","category_name":"楼宇机构","address":"漕溪北路396-398号汇智大厦"},{"poiid":"B2094757D464A7FE469D","title":"箸味三样菜 漕溪北路店","lon":"121.43695218209","lat":"31.188963779422","category":"71","category_name":"四川菜","address":"徐汇区漕溪北路451号(近南丹路)"},{"poiid":"B2094751D364A6FB4993","title":"东来顺","lon":"121.4370822","lat":"31.1895184","category":"500","category_name":"未知分类","address":"徐汇区天钥桥路333号腾飞大厦二楼"},{"poiid":"B2094757D66DABF9409B","title":"上海建国宾馆(葵园)","lon":"121.437653586","lat":"31.1898036406","category":"217","category_name":"旅馆招待所","address":"上海市徐汇区漕溪北路439号(徐家汇地区 近南丹东路)"},{"poiid":"B2094752D768ABFB4793","title":"上海虹桥机场T2航站楼","lon":"121.436425","lat":"31.189399","category":"500","category_name":"未知分类","address":null},{"poiid":"B2094654DB6BA5FE4093","title":"两岸咖啡徐汇店","lon":"121.43383","lat":"31.18841","category":"65","category_name":"咖啡厅","address":"徐汇区文定路77-79号(近南丹东路)"},{"poiid":"B2094757D06BA2F9499C","title":"粥全潮汕砂锅粥馆","lon":"121.435680353","lat":"31.1875320962","category":"72","category_name":"广东菜","address":"徐汇区蒲汇塘路98号4楼(近漕溪北路)"},{"poiid":"B2094757D06FAAFB439F","title":"肯德基 KFC (中金店)","lon":"121.43775484","lat":"31.190009297","category":"68","category_name":"快餐厅","address":"徐汇区漕溪北路339号百脑汇B1楼(近虹桥路)"},{"poiid":"B2094751D56CA7FD4299","title":"平壤玉流酒家","lon":"121.43799","lat":"31.18973","category":"96","category_name":"韩国料理","address":"徐汇区漕溪北路439号建国宾馆3楼(南丹路口)"},{"poiid":"B2094757DA6FA2FC439B","title":"韩国文化院","lon":"121.436972000002","lat":"31.1879380000003","category":"253","category_name":"校园生活","address":"徐汇区漕溪北路396号汇智大厦裙楼2-3楼(近虹桥路)"},{"poiid":"B2094757D169A6F9449E","title":"气象宾馆","lon":"121.436887586","lat":"31.1898273411","category":"36","category_name":"地铁站","address":"徐汇区蒲西路166号(近漕溪北路)"},{"poiid":"B2094757D065A2FC489E","title":"风尚*秀","lon":"121.437647","lat":"31.189299","category":"148","category_name":"美容美发店","address":"上海徐汇区南丹东路386号(近漕溪北路)"},{"poiid":"B2094757D065A2FA469D","title":"10號線陝西南路站","lon":"121.434292386","lat":"31.1892307294","category":"36","category_name":"地铁站","address":"上海10號線陝西南路站"},{"poiid":"B2094757D06FA6FF429D","title":"上海市气象局","lon":"121.43695531","lat":"31.189891106","category":"253","category_name":"校园生活","address":"上海市徐汇区蒲西路166号"},{"poiid":"B2094655D26EA6FB4899","title":"MJ ITALIAN RESTAURANT","lon":"121.436769054","lat":"31.189211793","category":"247","category_name":"餐饮美食","address":"南丹路15号斯波特大酒店1楼近漕溪北路"},{"poiid":"B2094757D06FABFD4692","title":"快乐柠檬(飞洲国际店)","lon":"121.43687","lat":"31.18839","category":"113","category_name":"冷饮店","address":"徐汇区零陵路899号飞洲国际广场B1楼"},{"poiid":"B2094655D26BA1F8419D","title":"南丹路漕溪路","lon":"121.43591","lat":"31.18903","category":"38","category_name":"公交车站","address":""},{"poiid":"B2094750D769A3FA4292","title":"鲜缘GOFRESH","lon":"121.437","lat":"31.1913","category":"74","category_name":"江苏菜","address":"徐汇区漕溪北路88号圣爱大厦2-3楼(近徐家汇教堂)"},{"poiid":"B2094757D56CABF8419D","title":"LeJoliBistro周-法意餐厅 斯波特店 Le Joli Bistro  Zhou","lon":"121.436769054","lat":"31.189211793","category":"94","category_name":"西餐厅","address":"徐汇区南丹路15号斯波特大酒店1楼(近漕溪北路)"},{"poiid":"B2094654DA6CABF5449A","title":"新旺大厦","lon":"121.43336","lat":"31.18933","category":"46","category_name":"楼宇","address":"闸北区江场西路38号(近共和新路)"},{"poiid":"B2094655D26BA1F84298","title":"南丹路文定路","lon":"121.43506","lat":"31.18889","category":"38","category_name":"公交车站","address":""},{"poiid":"B2094654DA6DA0F94499","title":"一杯屋","lon":"121.43788213161","lat":"31.189451008452","category":"269","category_name":"烧烤","address":"徐汇区漕溪北路577号101(近南丹路)"},{"poiid":"B2094654DA6CAAFC439F","title":"徐汇区羽毛球训练中心","lon":"121.43556","lat":"31.18918","category":"220","category_name":"运动场所","address":"南丹路15号上海斯波特大酒店"},{"poiid":"B2094654DB6AA7FA4998","title":"伊藤家(建国店)","lon":"121.43812","lat":"31.18977","category":"95","category_name":"日本料理","address":"徐汇区漕溪北路439号建国宾馆3楼(南丹路口)"},{"poiid":"B2094654DB69AAF9429A","title":"中科院上海天文台","lon":"121.43436","lat":"31.1888","category":"187","category_name":"天文馆","address":"徐汇区南丹路80号"},{"poiid":"B2094752D46AA6FF4193","title":"陈鱼落宴","lon":"121.434618","lat":"31.18994","category":"247","category_name":"餐饮美食","address":"星游城4F"},{"poiid":"B2094757D068A3F4439F","title":"上海图书馆徐家汇藏书楼","lon":"121.437481517","lat":"31.1905439206","category":"181","category_name":"图书馆","address":"徐汇区漕溪北路80号(近蒲西路)"},{"poiid":"B2094654DA6CAAFC459A","title":"太阳岛便利店","lon":"121.43598","lat":"31.18915","category":"117","category_name":"便民商店/便利店","address":"徐汇区南丹路1号(漕溪北路南丹路)"},{"poiid":"B2094654DA6CAAFC439D","title":"徐汇区篮球训练中心","lon":"121.43556","lat":"31.18918","category":"220","category_name":"运动场所","address":"南丹路15号上海斯波特大酒店"},{"poiid":"B209475CD76CA5FF4198","title":"港汇恒隆广场","lon":"121.437339","lat":"31.188234","category":"500","category_name":"未知分类","address":"上海市 徐家汇"},{"poiid":"B2094654DA6CAAFC439C","title":"徐汇区体操训练中心","lon":"121.43556","lat":"31.18918","category":"220","category_name":"运动场所","address":"南丹路15号上海斯波特大酒店"},{"poiid":"B2094757D06AAAF94393","title":"斯波特酒店游泳池","lon":"121.43582","lat":"31.18888","category":"217","category_name":"旅馆招待所","address":"徐汇区南丹路15号B1楼(近漕溪北路)"},{"poiid":"B2094757D46BAAFF409A","title":"永和大王 漕溪路店","lon":"121.43656","lat":"31.18864","category":"68","category_name":"快餐厅","address":"徐汇区地铁三号线漕溪路站1号口(近宜家家居)"},{"poiid":"B2094752D46CA5FD4999","title":"eleven cafe 徐汇店","lon":"121.437391","lat":"31.187878","category":"247","category_name":"餐饮美食","address":"斜土路2899号甲B栋101"},{"poiid":"B2094654DB65A1FE489D","title":"明徐光启墓","lon":"121.4349","lat":"31.1891","category":"250","category_name":"公园户外","address":"南丹路17号"},{"poiid":"B2094757D16EA6FA459E","title":"绿云轩","lon":"121.43712","lat":"31.18869","category":"76","category_name":"上海菜","address":"徐汇区南丹路1号(近漕溪路)"},{"poiid":"B2094654DA6CAAFC4493","title":"气象大楼","lon":"121.43696","lat":"31.18988","category":"46","category_name":"楼宇","address":"漕溪北路280"},{"poiid":"B2094757D16FA3FB489D","title":"徐光启纪念馆","lon":"121.437608586","lat":"31.1898276411","category":"179","category_name":"音乐厅","address":"徐汇区南丹路17号(南丹路文定路)"},{"poiid":"B2094757D06FA2F84392","title":"斯波特大酒店","lon":"121.43583","lat":"31.18869","category":"214","category_name":"四星级宾馆","address":"徐汇区南丹路15号(近漕溪北路)"},{"poiid":"B2094654DA6CAAFE459B","title":"徐家汇天主教堂","lon":"121.43605","lat":"31.19117","category":"245","category_name":"教堂","address":"上海市徐汇区蒲西路158号"},{"poiid":"B2094654DB6BA5FE4298","title":"小肥羊火锅(南丹路店)","lon":"121.43357","lat":"31.18927","category":"86","category_name":"火锅店","address":"徐汇区南丹路169号(近文定路)"},{"poiid":"B2094757D06FABFC489F","title":"徐家匯天主堂","lon":"121.43679046","lat":"31.191080093","category":"500","category_name":"未知分类","address":"中国上海市徐匯區蒲西路158号"},{"poiid":"B2094757D069AAFF449A","title":"一号线徐家汇站","lon":"121.437045586","lat":"31.1880640066","category":"500","category_name":"未知分类","address":"上海徐家汇"},{"poiid":"B2094757D06FA4FE4592","title":"COSTA COFFEE(百脑汇店)","lon":"121.43794","lat":"31.19023","category":"65","category_name":"咖啡厅","address":"徐汇区漕溪北路8号东方商厦2楼B03-F02-1-047铺(近虹桥路)"},{"poiid":"B2094757D068A7FC419D","title":"徐汇区人民政府","lon":"121.43708249","lat":"31.188646284","category":"500","category_name":"未知分类","address":"上海漕溪北路336号"},{"poiid":"B2094757D06FA7F44192","title":"永升大厦","lon":"121.434","lat":"31.1889","category":"46","category_name":"楼宇","address":"上海市徐汇区中山西路2025号"},{"poiid":"B2094753D56AA6FD479F","title":"鱼酷活鱼现烤","lon":"121.437927","lat":"31.189521","category":"247","category_name":"餐饮美食","address":"上海市 百脑汇二期三楼"},{"poiid":"B2094752D26EA1FA4393","title":"掌上韩品","lon":"121.435135","lat":"31.190304","category":"247","category_name":"餐饮美食","address":"星游城"},{"poiid":"B2094655D26EABFD4292","title":"建国宾馆九州厅","lon":"121.43804629194","lat":"31.189785273911","category":"247","category_name":"餐饮美食","address":"徐汇区漕溪北路439号建国宾馆查看地图"},{"poiid":"B2094757D068A7FA4193","title":"光启公园","lon":"121.43457277","lat":"31.1895627398","category":"196","category_name":"公园","address":"徐汇区南丹路17号(近汇站路)"},{"poiid":"B2094654DA6CAAFE479F","title":"大韩民国驻上海总领事馆文化处","lon":"121.43652","lat":"31.18747","category":"252","category_name":"楼宇机构","address":"漕溪北路396-398号汇智大厦"},{"poiid":"B2094757D464A7FE469D","title":"箸味三样菜 漕溪北路店","lon":"121.43695218209","lat":"31.188963779422","category":"71","category_name":"四川菜","address":"徐汇区漕溪北路451号(近南丹路)"},{"poiid":"B2094751D364A6FB4993","title":"东来顺","lon":"121.4370822","lat":"31.1895184","category":"500","category_name":"未知分类","address":"徐汇区天钥桥路333号腾飞大厦二楼"},{"poiid":"B2094757D66DABF9409B","title":"上海建国宾馆(葵园)","lon":"121.437653586","lat":"31.1898036406","category":"217","category_name":"旅馆招待所","address":"上海市徐汇区漕溪北路439号(徐家汇地区 近南丹东路)"},{"poiid":"B2094752D768ABFB4793","title":"上海虹桥机场T2航站楼","lon":"121.436425","lat":"31.189399","category":"500","category_name":"未知分类","address":null},{"poiid":"B2094654DB6BA5FE4093","title":"两岸咖啡徐汇店","lon":"121.43383","lat":"31.18841","category":"65","category_name":"咖啡厅","address":"徐汇区文定路77-79号(近南丹东路)"},{"poiid":"B2094757D06BA2F9499C","title":"粥全潮汕砂锅粥馆","lon":"121.435680353","lat":"31.1875320962","category":"72","category_name":"广东菜","address":"徐汇区蒲汇塘路98号4楼(近漕溪北路)"},{"poiid":"B2094757D06FAAFB439F","title":"肯德基 KFC (中金店)","lon":"121.43775484","lat":"31.190009297","category":"68","category_name":"快餐厅","address":"徐汇区漕溪北路339号百脑汇B1楼(近虹桥路)"},{"poiid":"B2094751D56CA7FD4299","title":"平壤玉流酒家","lon":"121.43799","lat":"31.18973","category":"96","category_name":"韩国料理","address":"徐汇区漕溪北路439号建国宾馆3楼(南丹路口)"},{"poiid":"B2094757DA6FA2FC439B","title":"韩国文化院","lon":"121.436972000002","lat":"31.1879380000003","category":"253","category_name":"校园生活","address":"徐汇区漕溪北路396号汇智大厦裙楼2-3楼(近虹桥路)"},{"poiid":"B2094757D169A6F9449E","title":"气象宾馆","lon":"121.436887586","lat":"31.1898273411","category":"36","category_name":"地铁站","address":"徐汇区蒲西路166号(近漕溪北路)"},{"poiid":"B2094757D065A2FC489E","title":"风尚*秀","lon":"121.437647","lat":"31.189299","category":"148","category_name":"美容美发店","address":"上海徐汇区南丹东路386号(近漕溪北路)"},{"poiid":"B2094757D065A2FA469D","title":"10號線陝西南路站","lon":"121.434292386","lat":"31.1892307294","category":"36","category_name":"地铁站","address":"上海10號線陝西南路站"},{"poiid":"B2094757D06FA6FF429D","title":"上海市气象局","lon":"121.43695531","lat":"31.189891106","category":"253","category_name":"校园生活","address":"上海市徐汇区蒲西路166号"},{"poiid":"B2094655D26EA6FB4899","title":"MJ ITALIAN RESTAURANT","lon":"121.436769054","lat":"31.189211793","category":"247","category_name":"餐饮美食","address":"南丹路15号斯波特大酒店1楼近漕溪北路"},{"poiid":"B2094757D06FABFD4692","title":"快乐柠檬(飞洲国际店)","lon":"121.43687","lat":"31.18839","category":"113","category_name":"冷饮店","address":"徐汇区零陵路899号飞洲国际广场B1楼"},{"poiid":"B2094655D26BA1F8419D","title":"南丹路漕溪路","lon":"121.43591","lat":"31.18903","category":"38","category_name":"公交车站","address":""},{"poiid":"B2094750D769A3FA4292","title":"鲜缘GOFRESH","lon":"121.437","lat":"31.1913","category":"74","category_name":"江苏菜","address":"徐汇区漕溪北路88号圣爱大厦2-3楼(近徐家汇教堂)"},{"poiid":"B2094757D56CABF8419D","title":"LeJoliBistro周-法意餐厅 斯波特店 Le Joli Bistro  Zhou","lon":"121.436769054","lat":"31.189211793","category":"94","category_name":"西餐厅","address":"徐汇区南丹路15号斯波特大酒店1楼(近漕溪北路)"},{"poiid":"B2094654DA6CABF5449A","title":"新旺大厦","lon":"121.43336","lat":"31.18933","category":"46","category_name":"楼宇","address":"闸北区江场西路38号(近共和新路)"},{"poiid":"B2094655D26BA1F84298","title":"南丹路文定路","lon":"121.43506","lat":"31.18889","category":"38","category_name":"公交车站","address":""},{"poiid":"B2094654DA6DA0F94499","title":"一杯屋","lon":"121.43788213161","lat":"31.189451008452","category":"269","category_name":"烧烤","address":"徐汇区漕溪北路577号101(近南丹路)"},{"poiid":"B2094654DA6CAAFC439F","title":"徐汇区羽毛球训练中心","lon":"121.43556","lat":"31.18918","category":"220","category_name":"运动场所","address":"南丹路15号上海斯波特大酒店"},{"poiid":"B2094654DB6AA7FA4998","title":"伊藤家(建国店)","lon":"121.43812","lat":"31.18977","category":"95","category_name":"日本料理","address":"徐汇区漕溪北路439号建国宾馆3楼(南丹路口)"},{"poiid":"B2094654DB69AAF9429A","title":"中科院上海天文台","lon":"121.43436","lat":"31.1888","category":"187","category_name":"天文馆","address":"徐汇区南丹路80号"},{"poiid":"B2094752D46AA6FF4193","title":"陈鱼落宴","lon":"121.434618","lat":"31.18994","category":"247","category_name":"餐饮美食","address":"星游城4F"},{"poiid":"B2094757D068A3F4439F","title":"上海图书馆徐家汇藏书楼","lon":"121.437481517","lat":"31.1905439206","category":"181","category_name":"图书馆","address":"徐汇区漕溪北路80号(近蒲西路)"},{"poiid":"B2094654DA6CAAFC459A","title":"太阳岛便利店","lon":"121.43598","lat":"31.18915","category":"117","category_name":"便民商店/便利店","address":"徐汇区南丹路1号(漕溪北路南丹路)"},{"poiid":"B2094654DA6CAAFC439D","title":"徐汇区篮球训练中心","lon":"121.43556","lat":"31.18918","category":"220","category_name":"运动场所","address":"南丹路15号上海斯波特大酒店"},{"poiid":"B209475CD76CA5FF4198","title":"港汇恒隆广场","lon":"121.437339","lat":"31.188234","category":"500","category_name":"未知分类","address":"上海市 徐家汇"},{"poiid":"B2094654DA6CAAFC439C","title":"徐汇区体操训练中心","lon":"121.43556","lat":"31.18918","category":"220","category_name":"运动场所","address":"南丹路15号上海斯波特大酒店"},{"poiid":"B2094757D06AAAF94393","title":"斯波特酒店游泳池","lon":"121.43582","lat":"31.18888","category":"217","category_name":"旅馆招待所","address":"徐汇区南丹路15号B1楼(近漕溪北路)"},{"poiid":"B2094757D46BAAFF409A","title":"永和大王 漕溪路店","lon":"121.43656","lat":"31.18864","category":"68","category_name":"快餐厅","address":"徐汇区地铁三号线漕溪路站1号口(近宜家家居)"},{"poiid":"B2094752D46CA5FD4999","title":"eleven cafe 徐汇店","lon":"121.437391","lat":"31.187878","category":"247","category_name":"餐饮美食","address":"斜土路2899号甲B栋101"},{"poiid":"B2094654DB65A1FE489D","title":"明徐光启墓","lon":"121.4349","lat":"31.1891","category":"250","category_name":"公园户外","address":"南丹路17号"},{"poiid":"B2094757D16EA6FA459E","title":"绿云轩","lon":"121.43712","lat":"31.18869","category":"76","category_name":"上海菜","address":"徐汇区南丹路1号(近漕溪路)"},{"poiid":"B2094654DA6CAAFC4493","title":"气象大楼","lon":"121.43696","lat":"31.18988","category":"46","category_name":"楼宇","address":"漕溪北路280"},{"poiid":"B2094757D16FA3FB489D","title":"徐光启纪念馆","lon":"121.437608586","lat":"31.1898276411","category":"179","category_name":"音乐厅","address":"徐汇区南丹路17号(南丹路文定路)"},{"poiid":"B2094757D06FA2F84392","title":"斯波特大酒店","lon":"121.43583","lat":"31.18869","category":"214","category_name":"四星级宾馆","address":"徐汇区南丹路15号(近漕溪北路)"},{"poiid":"B2094654DA6CAAFE459B","title":"徐家汇天主教堂","lon":"121.43605","lat":"31.19117","category":"245","category_name":"教堂","address":"上海市徐汇区蒲西路158号"},{"poiid":"B2094654DB6BA5FE4298","title":"小肥羊火锅(南丹路店)","lon":"121.43357","lat":"31.18927","category":"86","category_name":"火锅店","address":"徐汇区南丹路169号(近文定路)"},{"poiid":"B2094757D06FABFC489F","title":"徐家匯天主堂","lon":"121.43679046","lat":"31.191080093","category":"500","category_name":"未知分类","address":"中国上海市徐匯區蒲西路158号"},{"poiid":"B2094757D069AAFF449A","title":"一号线徐家汇站","lon":"121.437045586","lat":"31.1880640066","category":"500","category_name":"未知分类","address":"上海徐家汇"},{"poiid":"B2094757D06FA4FE4592","title":"COSTA COFFEE(百脑汇店)","lon":"121.43794","lat":"31.19023","category":"65","category_name":"咖啡厅","address":"徐汇区漕溪北路8号东方商厦2楼B03-F02-1-047铺(近虹桥路)"},{"poiid":"B2094757D068A7FC419D","title":"徐汇区人民政府","lon":"121.43708249","lat":"31.188646284","category":"500","category_name":"未知分类","address":"上海漕溪北路336号"},{"poiid":"B2094757D06FA7F44192","title":"永升大厦","lon":"121.434","lat":"31.1889","category":"46","category_name":"楼宇","address":"上海市徐汇区中山西路2025号"},{"poiid":"B2094753D56AA6FD479F","title":"鱼酷活鱼现烤","lon":"121.437927","lat":"31.189521","category":"247","category_name":"餐饮美食","address":"上海市 百脑汇二期三楼"},{"poiid":"B2094752D26EA1FA4393","title":"掌上韩品","lon":"121.435135","lat":"31.190304","category":"247","category_name":"餐饮美食","address":"星游城"},{"poiid":"B2094655D26EABFD4292","title":"建国宾馆九州厅","lon":"121.43804629194","lat":"31.189785273911","category":"247","category_name":"餐饮美食","address":"徐汇区漕溪北路439号建国宾馆查看地图"},{"poiid":"B2094757D068A7FA4193","title":"光启公园","lon":"121.43457277","lat":"31.1895627398","category":"196","category_name":"公园","address":"徐汇区南丹路17号(近汇站路)"},{"poiid":"B2094654DA6CAAFE479F","title":"大韩民国驻上海总领事馆文化处","lon":"121.43652","lat":"31.18747","category":"252","category_name":"楼宇机构","address":"漕溪北路396-398号汇智大厦"},{"poiid":"B2094757D464A7FE469D","title":"箸味三样菜 漕溪北路店","lon":"121.43695218209","lat":"31.188963779422","category":"71","category_name":"四川菜","address":"徐汇区漕溪北路451号(近南丹路)"},{"poiid":"B2094751D364A6FB4993","title":"东来顺","lon":"121.4370822","lat":"31.1895184","category":"500","category_name":"未知分类","address":"徐汇区天钥桥路333号腾飞大厦二楼"},{"poiid":"B2094757D66DABF9409B","title":"上海建国宾馆(葵园)","lon":"121.437653586","lat":"31.1898036406","category":"217","category_name":"旅馆招待所","address":"上海市徐汇区漕溪北路439号(徐家汇地区 近南丹东路)"},{"poiid":"B2094752D768ABFB4793","title":"上海虹桥机场T2航站楼","lon":"121.436425","lat":"31.189399","category":"500","category_name":"未知分类","address":null},{"poiid":"B2094654DB6BA5FE4093","title":"两岸咖啡徐汇店","lon":"121.43383","lat":"31.18841","category":"65","category_name":"咖啡厅","address":"徐汇区文定路77-79号(近南丹东路)"},{"poiid":"B2094757D06BA2F9499C","title":"粥全潮汕砂锅粥馆","lon":"121.435680353","lat":"31.1875320962","category":"72","category_name":"广东菜","address":"徐汇区蒲汇塘路98号4楼(近漕溪北路)"},{"poiid":"B2094757D06FAAFB439F","title":"肯德基 KFC (中金店)","lon":"121.43775484","lat":"31.190009297","category":"68","category_name":"快餐厅","address":"徐汇区漕溪北路339号百脑汇B1楼(近虹桥路)"},{"poiid":"B2094751D56CA7FD4299","title":"平壤玉流酒家","lon":"121.43799","lat":"31.18973","category":"96","category_name":"韩国料理","address":"徐汇区漕溪北路439号建国宾馆3楼(南丹路口)"},{"poiid":"B2094757DA6FA2FC439B","title":"韩国文化院","lon":"121.436972000002","lat":"31.1879380000003","category":"253","category_name":"校园生活","address":"徐汇区漕溪北路396号汇智大厦裙楼2-3楼(近虹桥路)"},{"poiid":"B2094757D169A6F9449E","title":"气象宾馆","lon":"121.436887586","lat":"31.1898273411","category":"36","category_name":"地铁站","address":"徐汇区蒲西路166号(近漕溪北路)"},{"poiid":"B2094757D065A2FC489E","title":"风尚*秀","lon":"121.437647","lat":"31.189299","category":"148","category_name":"美容美发店","address":"上海徐汇区南丹东路386号(近漕溪北路)"},{"poiid":"B2094757D065A2FA469D","title":"10號線陝西南路站","lon":"121.434292386","lat":"31.1892307294","category":"36","category_name":"地铁站","address":"上海10號線陝西南路站"},{"poiid":"B2094757D06FA6FF429D","title":"上海市气象局","lon":"121.43695531","lat":"31.189891106","category":"253","category_name":"校园生活","address":"上海市徐汇区蒲西路166号"},{"poiid":"B2094655D26EA6FB4899","title":"MJ ITALIAN RESTAURANT","lon":"121.436769054","lat":"31.189211793","category":"247","category_name":"餐饮美食","address":"南丹路15号斯波特大酒店1楼近漕溪北路"},{"poiid":"B2094757D06FABFD4692","title":"快乐柠檬(飞洲国际店)","lon":"121.43687","lat":"31.18839","category":"113","category_name":"冷饮店","address":"徐汇区零陵路899号飞洲国际广场B1楼"},{"poiid":"B2094655D26BA1F8419D","title":"南丹路漕溪路","lon":"121.43591","lat":"31.18903","category":"38","category_name":"公交车站","address":""},{"poiid":"B2094750D769A3FA4292","title":"鲜缘GOFRESH","lon":"121.437","lat":"31.1913","category":"74","category_name":"江苏菜","address":"徐汇区漕溪北路88号圣爱大厦2-3楼(近徐家汇教堂)"},{"poiid":"B2094757D56CABF8419D","title":"LeJoliBistro周-法意餐厅 斯波特店 Le Joli Bistro  Zhou","lon":"121.436769054","lat":"31.189211793","category":"94","category_name":"西餐厅","address":"徐汇区南丹路15号斯波特大酒店1楼(近漕溪北路)"},{"poiid":"B2094654DA6CABF5449A","title":"新旺大厦","lon":"121.43336","lat":"31.18933","category":"46","category_name":"楼宇","address":"闸北区江场西路38号(近共和新路)"},{"poiid":"B2094655D26BA1F84298","title":"南丹路文定路","lon":"121.43506","lat":"31.18889","category":"38","category_name":"公交车站","address":""},{"poiid":"B2094654DA6DA0F94499","title":"一杯屋","lon":"121.43788213161","lat":"31.189451008452","category":"269","category_name":"烧烤","address":"徐汇区漕溪北路577号101(近南丹路)"},{"poiid":"B2094654DA6CAAFC439F","title":"徐汇区羽毛球训练中心","lon":"121.43556","lat":"31.18918","category":"220","category_name":"运动场所","address":"南丹路15号上海斯波特大酒店"},{"poiid":"B2094654DB6AA7FA4998","title":"伊藤家(建国店)","lon":"121.43812","lat":"31.18977","category":"95","category_name":"日本料理","address":"徐汇区漕溪北路439号建国宾馆3楼(南丹路口)"},{"poiid":"B2094654DB69AAF9429A","title":"中科院上海天文台","lon":"121.43436","lat":"31.1888","category":"187","category_name":"天文馆","address":"徐汇区南丹路80号"},{"poiid":"B2094752D46AA6FF4193","title":"陈鱼落宴","lon":"121.434618","lat":"31.18994","category":"247","category_name":"餐饮美食","address":"星游城4F"},{"poiid":"B2094757D068A3F4439F","title":"上海图书馆徐家汇藏书楼","lon":"121.437481517","lat":"31.1905439206","category":"181","category_name":"图书馆","address":"徐汇区漕溪北路80号(近蒲西路)"},{"poiid":"B2094654DA6CAAFC459A","title":"太阳岛便利店","lon":"121.43598","lat":"31.18915","category":"117","category_name":"便民商店/便利店","address":"徐汇区南丹路1号(漕溪北路南丹路)"},{"poiid":"B2094654DA6CAAFC439D","title":"徐汇区篮球训练中心","lon":"121.43556","lat":"31.18918","category":"220","category_name":"运动场所","address":"南丹路15号上海斯波特大酒店"},{"poiid":"B209475CD76CA5FF4198","title":"港汇恒隆广场","lon":"121.437339","lat":"31.188234","category":"500","category_name":"未知分类","address":"上海市 徐家汇"},{"poiid":"B2094654DA6CAAFC439C","title":"徐汇区体操训练中心","lon":"121.43556","lat":"31.18918","category":"220","category_name":"运动场所","address":"南丹路15号上海斯波特大酒店"},{"poiid":"B2094757D06AAAF94393","title":"斯波特酒店游泳池","lon":"121.43582","lat":"31.18888","category":"217","category_name":"旅馆招待所","address":"徐汇区南丹路15号B1楼(近漕溪北路)"},{"poiid":"B2094757D46BAAFF409A","title":"永和大王 漕溪路店","lon":"121.43656","lat":"31.18864","category":"68","category_name":"快餐厅","address":"徐汇区地铁三号线漕溪路站1号口(近宜家家居)"},{"poiid":"B2094752D46CA5FD4999","title":"eleven cafe 徐汇店","lon":"121.437391","lat":"31.187878","category":"247","category_name":"餐饮美食","address":"斜土路2899号甲B栋101"},{"poiid":"B2094654DB65A1FE489D","title":"明徐光启墓","lon":"121.4349","lat":"31.1891","category":"250","category_name":"公园户外","address":"南丹路17号"},{"poiid":"B2094757D16EA6FA459E","title":"绿云轩","lon":"121.43712","lat":"31.18869","category":"76","category_name":"上海菜","address":"徐汇区南丹路1号(近漕溪路)"},{"poiid":"B2094654DA6CAAFC4493","title":"气象大楼","lon":"121.43696","lat":"31.18988","category":"46","category_name":"楼宇","address":"漕溪北路280"},{"poiid":"B2094757D16FA3FB489D","title":"徐光启纪念馆","lon":"121.437608586","lat":"31.1898276411","category":"179","category_name":"音乐厅","address":"徐汇区南丹路17号(南丹路文定路)"}]