[{"poiid":"B2094655D269ABFC419D","title":"华东理工大学徐汇校区","lon":"121.42857","lat":"31.14331","category":"247","category_name":"餐饮美食","address":"徐汇区梅陇路130号华东理工大学内(近天等路)"},{"poiid":"B2094757D06FA2FF439A","title":"麦当劳(长桥好又多店)","lon":"121.43198","lat":"31.13688","category":"68","category_name":"快餐厅","address":"徐汇区老沪闵路809号好又多正门附近(近上中西路)"},{"poiid":"B2094757D06FA3FB4398","title":"上海中学","lon":"121.43307885","lat":"31.138910141","category":"55","category_name":"中学","address":"徐汇区上中路400号(龙川北路上中路)"},{"poiid":"B2094654DA65AAFC449A","title":"嘉登道大饭店","lon":"121.42839","lat":"31.14289","category":"213","category_name":"五星级宾馆","address":"老沪闵路689号嘉登道大饭店1楼、3楼、4楼近梅陇路西南角"},{"poiid":"B2094757D06FA2FC429A","title":"沃尔玛(凌云店)","lon":"121.43214","lat":"31.13748","category":"118","category_name":"超级市场","address":"徐汇区老沪闵路809号(近上中西路)"},{"poiid":"B2094757D06FA5F4429A","title":"天都火锅","lon":"121.42788","lat":"31.1346","category":"86","category_name":"火锅店","address":"徐汇区上中西路211号(近天等路)"},{"poiid":"B2094757D06FA2F44192","title":"华东理工大学七教","lon":"121.42448527","lat":"31.141593448","category":"253","category_name":"校园生活","address":"上海徐汇区梅陇路130号"},{"poiid":"B2094757D068A3FC4998","title":"金沙渔港","lon":"121.4277676274","lat":"31.135187256717","category":"75","category_name":"浙江菜","address":"徐汇区天等路400号(近丹棱路)"},{"poiid":"B2094757D068A5F84998","title":"上海市卫生学校","lon":"121.427007","lat":"31.140889","category":"55","category_name":"中学","address":"上海徐汇区梅陇路21号"},{"poiid":"B2094654DA65ABF44893","title":"上海市经济管理干部学院","lon":"121.42602","lat":"31.14","category":"671","category_name":"高校中心点","address":"徐汇区梅陇路161号(近天等路)"},{"poiid":"B2094757D06FA7FA489D","title":"上海职工医学院","lon":"121.42727","lat":"31.14061","category":"671","category_name":"高校中心点","address":"上海徐汇区梅陇路21号(近天等路)  "},{"poiid":"B2094654DB6CA1F4499B","title":"上海体育职业学院","lon":"121.43032","lat":"31.14226","category":"671","category_name":"高校中心点","address":"上海百色路1333号"},{"poiid":"B2094757D06FA7FF449C","title":"九头鸟烧烤","lon":"121.42878","lat":"31.14408","category":"68","category_name":"快餐厅","address":"徐汇区老沪闵路712号对面(近华东理工大学)"},{"poiid":"B2094757D068ABFE409B","title":"新侨职业技术学院(徐汇分校)","lon":"121.4264","lat":"31.1386","category":"54","category_name":"职业技术学校","address":"徐汇区天等路465号(近梅陇路)"},{"poiid":"B2094757D069A5F4409C","title":"上海健康职业技术学院","lon":"121.42435945","lat":"31.139170946","category":"253","category_name":"校园生活","address":"徐汇区梅陇路21号(近天等路)"},{"poiid":"B2094757D16BA2FD459E","title":"味千拉面(老沪闵路分店)","lon":"121.432204557","lat":"31.1369011012","category":"247","category_name":"餐饮美食","address":"徐汇区老沪闵路809号沃尔玛超市(近上中路)"},{"poiid":"B2094757D069A0FF459A","title":"华东理工大学研究生楼","lon":"121.42620086","lat":"31.141109466","category":"500","category_name":"未知分类","address":"上海徐汇区梅陇路130号华东理工大学徐汇校区"},{"poiid":"B2094757D069A0FB409A","title":"上海市邮电学校","lon":"121.429689","lat":"31.14032","category":"500","category_name":"未知分类","address":"徐汇区老沪闵路777号"},{"poiid":"B2094654DB64A2FB4892","title":"上海体育职业学院西部校区","lon":"121.42909","lat":"31.14099","category":"52","category_name":"高等院校","address":"徐汇区老沪闵路775"},{"poiid":"B2094750D76EA3FC4398","title":"新石器烤肉(梅陇好又多店)","lon":"121.432","lat":"31.137","category":"68","category_name":"快餐厅","address":"徐汇区老沪闵路809号沃尔玛1楼(近上中西路)"},{"poiid":"B2094757D068AAFD4298","title":"阳光绿园","lon":"121.42924","lat":"31.137108","category":"47","category_name":"住宅区","address":"上海市徐汇区老沪闵路799号"},{"poiid":"B2094757D068A3FB4793","title":"华东理工大学八教","lon":"121.426987","lat":"31.142914","category":"253","category_name":"校园生活","address":"上海徐汇区梅陇路130号"},{"poiid":"B2094655D268A2F84093","title":"尚苑宾馆","lon":"121.42662","lat":"31.13831","category":"250","category_name":"公园户外","address":"徐汇区天等路469号(近梅陇路)"},{"poiid":"B2094757D06FA6F8459C","title":"85度C(凌云店)","lon":"121.4322","lat":"31.13682","category":"112","category_name":"糕饼店","address":"徐汇区老沪闵路809号好又多超市1楼(近上中西路)"},{"poiid":"B2094654DB64A6FA4998","title":"汉庭快捷(南站店)","lon":"121.42759","lat":"31.13726","category":"216","category_name":"经济型连锁酒店","address":"上海市徐汇区天等路400号(近华东理工大学正门)"},{"poiid":"B2094757D06AA5F5449B","title":"梅陇六村","lon":"121.42579480056","lat":"31.139487689707","category":"252","category_name":"楼宇机构","address":"上海上中西路凌云路"},{"poiid":"B2094757D06FA7F44392","title":"光华园","lon":"121.43165","lat":"31.139774","category":"47","category_name":"住宅区","address":"上海老沪闵路790弄"},{"poiid":"B2094757D06AA1FD469C","title":"市国资委党校","lon":"121.42493438","lat":"31.140525817","category":"500","category_name":"未知分类","address":"上海徐汇区天等路501号"},{"poiid":"B2094757D068AAF94293","title":"华东理工大学五教","lon":"121.425336","lat":"31.140846","category":"253","category_name":"校园生活","address":"上海徐汇区梅陇路130号"},{"poiid":"B2094751D26BABFD469A","title":"新伶达港骨头皇火锅","lon":"121.427612","lat":"31.137207","category":"86","category_name":"火锅店","address":"徐汇区上中西路150号(近天等路)"},{"poiid":"B2094757D16BA6F84699","title":"上海市社会主义学院","lon":"121.426991857","lat":"31.1384291318","category":"500","category_name":"未知分类","address":"上海市徐汇区天等路469号"},{"poiid":"B2094654DB64A2FB469E","title":"上海新侨学院(天等路)","lon":"121.42682","lat":"31.13916","category":"68","category_name":"快餐厅","address":"徐汇区天等路465号(近梅陇路)"},{"poiid":"B2094757D065A4F84599","title":"上海邮政培训中心","lon":"121.429996","lat":"31.140409","category":"253","category_name":"校园生活","address":"上海老沪闵路777号近百色路"},{"poiid":"B2094654DB64A2FB479C","title":"上海科汇高新技术创业服务中心科汇孵化基地(嘉川路)","lon":"121.42893","lat":"31.13894","category":"45","category_name":"产业园区","address":"嘉川路245"},{"poiid":"B2094757D069A2F54898","title":"音乐之声大酒店(梅陇路店)","lon":"121.42882","lat":"31.14306","category":"76","category_name":"上海菜","address":"徐汇区老沪闵路689号嘉登道2楼(近梅陇路)"},{"poiid":"B2094750D76DA1F44793","title":"斗香园(老沪闵路店)","lon":"121.432","lat":"31.1367","category":"68","category_name":"快餐厅","address":"徐汇区老沪闵路809号沃尔玛1楼(上中路口)"},{"poiid":"B2094655D268A2F84092","title":"上海市经济管理干部学院(东门)","lon":"121.4261","lat":"31.14001","category":"52","category_name":"高等院校","address":"天等路501号"},{"poiid":"B2094655D26BA2F9419F","title":"天等路华东理工大学","lon":"121.42597","lat":"31.14047","category":"38","category_name":"公交车站","address":""},{"poiid":"B2094757D169A6F44198","title":"百乐迪量贩KTV","lon":"121.425118857","lat":"31.1414194918","category":"170","category_name":"KTV","address":"徐汇区龙州路995号华轻轻纺市场4楼(近梅陇路)"},{"poiid":"B2094655D26AA7FC419E","title":"金磐桌球俱乐部","lon":"121.4276","lat":"31.13709","category":"247","category_name":"餐饮美食","address":"徐汇区天等路400号3楼(近梅陇路)"},{"poiid":"B2094654DB6CA2FD4193","title":"家乐苑","lon":"121.43154","lat":"31.135004","category":"47","category_name":"住宅区","address":"上海上中西路55弄"},{"poiid":"B2094757D069A5F5419E","title":"天等路","lon":"121.4278757","lat":"31.1359372","category":"500","category_name":"未知分类","address":"上海徐汇区天等路"},{"poiid":"B2094654DB6CA2FC4092","title":"梅陇十村","lon":"121.431","lat":"31.1362","category":"47","category_name":"住宅区","address":"罗秀路1164弄77-136号"},{"poiid":"B2094655D36CA3F5449C","title":"如家快捷酒店","lon":"121.42963","lat":"31.14365","category":"216","category_name":"经济型连锁酒店","address":"徐汇区老沪闵路714号(近梅陇路)"},{"poiid":"B2094757D168A5FA459D","title":"吉龙豆捞","lon":"121.42448","lat":"31.13532","category":"86","category_name":"火锅店","address":"徐汇区龙州路925号(梅陇七村对面)"},{"poiid":"B2094654DA65ABF5489C","title":"游子老鸭粉丝 天等路店","lon":"121.426038","lat":"31.140721","category":"68","category_name":"快餐厅","address":"徐汇区天等路482号(华东理工大学正门对面)"},{"poiid":"B2094654DA65ABF54893","title":"世好吉祥馄饨天等店","lon":"121.42628","lat":"31.14012","category":"68","category_name":"快餐厅","address":"徐汇区天等路150号23室(近梅陇路)"},{"poiid":"B2094757D16CA2F9469D","title":"嘉川路245号","lon":"121.428935","lat":"31.138941","category":"500","category_name":"未知分类","address":"上海嘉川路245号"},{"poiid":"B2094757D469A0FE4098","title":"郁金香中餐厅","lon":"121.426338054","lat":"31.139419793","category":"76","category_name":"上海菜","address":"徐汇区天等路469号尚苑宾馆2楼(近梅陇路)"},{"poiid":"B2094757D065A0FC4893","title":"书香苑","lon":"121.42776","lat":"31.138142","category":"500","category_name":"未知分类","address":"上海嘉川路天等路430弄"},{"poiid":"B2094655D269ABFC419D","title":"华东理工大学徐汇校区","lon":"121.42857","lat":"31.14331","category":"247","category_name":"餐饮美食","address":"徐汇区梅陇路130号华东理工大学内(近天等路)"},{"poiid":"B2094757D06FA2FF439A","title":"麦当劳(长桥好又多店)","lon":"121.43198","lat":"31.13688","category":"68","category_name":"快餐厅","address":"徐汇区老沪闵路809号好又多正门附近(近上中西路)"},{"poiid":"B2094757D06FA3FB4398","title":"上海中学","lon":"121.43307885","lat":"31.138910141","category":"55","category_name":"中学","address":"徐汇区上中路400号(龙川北路上中路)"},{"poiid":"B2094654DA65AAFC449A","title":"嘉登道大饭店","lon":"121.42839","lat":"31.14289","category":"213","category_name":"五星级宾馆","address":"老沪闵路689号嘉登道大饭店1楼、3楼、4楼近梅陇路西南角"},{"poiid":"B2094757D06FA2FC429A","title":"沃尔玛(凌云店)","lon":"121.43214","lat":"31.13748","category":"118","category_name":"超级市场","address":"徐汇区老沪闵路809号(近上中西路)"},{"poiid":"B2094757D06FA5F4429A","title":"天都火锅","lon":"121.42788","lat":"31.1346","category":"86","category_name":"火锅店","address":"徐汇区上中西路211号(近天等路)"},{"poiid":"B2094757D06FA2F44192","title":"华东理工大学七教","lon":"121.42448527","lat":"31.141593448","category":"253","category_name":"校园生活","address":"上海徐汇区梅陇路130号"},{"poiid":"B2094757D068A3FC4998","title":"金沙渔港","lon":"121.4277676274","lat":"31.135187256717","category":"75","category_name":"浙江菜","address":"徐汇区天等路400号(近丹棱路)"},{"poiid":"B2094757D068A5F84998","title":"上海市卫生学校","lon":"121.427007","lat":"31.140889","category":"55","category_name":"中学","address":"上海徐汇区梅陇路21号"},{"poiid":"B2094654DA65ABF44893","title":"上海市经济管理干部学院","lon":"121.42602","lat":"31.14","category":"671","category_name":"高校中心点","address":"徐汇区梅陇路161号(近天等路)"},{"poiid":"B2094757D06FA7FA489D","title":"上海职工医学院","lon":"121.42727","lat":"31.14061","category":"671","category_name":"高校中心点","address":"上海徐汇区梅陇路21号(近天等路)  "},{"poiid":"B2094654DB6CA1F4499B","title":"上海体育职业学院","lon":"121.43032","lat":"31.14226","category":"671","category_name":"高校中心点","address":"上海百色路1333号"},{"poiid":"B2094757D06FA7FF449C","title":"九头鸟烧烤","lon":"121.42878","lat":"31.14408","category":"68","category_name":"快餐厅","address":"徐汇区老沪闵路712号对面(近华东理工大学)"},{"poiid":"B2094757D068ABFE409B","title":"新侨职业技术学院(徐汇分校)","lon":"121.4264","lat":"31.1386","category":"54","category_name":"职业技术学校","address":"徐汇区天等路465号(近梅陇路)"},{"poiid":"B2094757D069A5F4409C","title":"上海健康职业技术学院","lon":"121.42435945","lat":"31.139170946","category":"253","category_name":"校园生活","address":"徐汇区梅陇路21号(近天等路)"},{"poiid":"B2094757D16BA2FD459E","title":"味千拉面(老沪闵路分店)","lon":"121.432204557","lat":"31.1369011012","category":"247","category_name":"餐饮美食","address":"徐汇区老沪闵路809号沃尔玛超市(近上中路)"},{"poiid":"B2094757D069A0FF459A","title":"华东理工大学研究生楼","lon":"121.42620086","lat":"31.141109466","category":"500","category_name":"未知分类","address":"上海徐汇区梅陇路130号华东理工大学徐汇校区"},{"poiid":"B2094757D069A0FB409A","title":"上海市邮电学校","lon":"121.429689","lat":"31.14032","category":"500","category_name":"未知分类","address":"徐汇区老沪闵路777号"},{"poiid":"B2094654DB64A2FB4892","title":"上海体育职业学院西部校区","lon":"121.42909","lat":"31.14099","category":"52","category_name":"高等院校","address":"徐汇区老沪闵路775"},{"poiid":"B2094750D76EA3FC4398","title":"新石器烤肉(梅陇好又多店)","lon":"121.432","lat":"31.137","category":"68","category_name":"快餐厅","address":"徐汇区老沪闵路809号沃尔玛1楼(近上中西路)"},{"poiid":"B2094757D068AAFD4298","title":"阳光绿园","lon":"121.42924","lat":"31.137108","category":"47","category_name":"住宅区","address":"上海市徐汇区老沪闵路799号"},{"poiid":"B2094757D068A3FB4793","title":"华东理工大学八教","lon":"121.426987","lat":"31.142914","category":"253","category_name":"校园生活","address":"上海徐汇区梅陇路130号"},{"poiid":"B2094655D268A2F84093","title":"尚苑宾馆","lon":"121.42662","lat":"31.13831","category":"250","category_name":"公园户外","address":"徐汇区天等路469号(近梅陇路)"},{"poiid":"B2094757D06FA6F8459C","title":"85度C(凌云店)","lon":"121.4322","lat":"31.13682","category":"112","category_name":"糕饼店","address":"徐汇区老沪闵路809号好又多超市1楼(近上中西路)"},{"poiid":"B2094654DB64A6FA4998","title":"汉庭快捷(南站店)","lon":"121.42759","lat":"31.13726","category":"216","category_name":"经济型连锁酒店","address":"上海市徐汇区天等路400号(近华东理工大学正门)"},{"poiid":"B2094757D06AA5F5449B","title":"梅陇六村","lon":"121.42579480056","lat":"31.139487689707","category":"252","category_name":"楼宇机构","address":"上海上中西路凌云路"},{"poiid":"B2094757D06FA7F44392","title":"光华园","lon":"121.43165","lat":"31.139774","category":"47","category_name":"住宅区","address":"上海老沪闵路790弄"},{"poiid":"B2094757D06AA1FD469C","title":"市国资委党校","lon":"121.42493438","lat":"31.140525817","category":"500","category_name":"未知分类","address":"上海徐汇区天等路501号"},{"poiid":"B2094757D068AAF94293","title":"华东理工大学五教","lon":"121.425336","lat":"31.140846","category":"253","category_name":"校园生活","address":"上海徐汇区梅陇路130号"},{"poiid":"B2094751D26BABFD469A","title":"新伶达港骨头皇火锅","lon":"121.427612","lat":"31.137207","category":"86","category_name":"火锅店","address":"徐汇区上中西路150号(近天等路)"},{"poiid":"B2094757D16BA6F84699","title":"上海市社会主义学院","lon":"121.426991857","lat":"31.1384291318","category":"500","category_name":"未知分类","address":"上海市徐汇区天等路469号"},{"poiid":"B2094654DB64A2FB469E","title":"上海新侨学院(天等路)","lon":"121.42682","lat":"31.13916","category":"68","category_name":"快餐厅","address":"徐汇区天等路465号(近梅陇路)"},{"poiid":"B2094757D065A4F84599","title":"上海邮政培训中心","lon":"121.429996","lat":"31.140409","category":"253","category_name":"校园生活","address":"上海老沪闵路777号近百色路"},{"poiid":"B2094654DB64A2FB479C","title":"上海科汇高新技术创业服务中心科汇孵化基地(嘉川路)","lon":"121.42893","lat":"31.13894","category":"45","category_name":"产业园区","address":"嘉川路245"},{"poiid":"B2094757D069A2F54898","title":"音乐之声大酒店(梅陇路店)","lon":"121.42882","lat":"31.14306","category":"76","category_name":"上海菜","address":"徐汇区老沪闵路689号嘉登道2楼(近梅陇路)"},{"poiid":"B2094750D76DA1F44793","title":"斗香园(老沪闵路店)","lon":"121.432","lat":"31.1367","category":"68","category_name":"快餐厅","address":"徐汇区老沪闵路809号沃尔玛1楼(上中路口)"},{"poiid":"B2094655D268A2F84092","title":"上海市经济管理干部学院(东门)","lon":"121.4261","lat":"31.14001","category":"52","category_name":"高等院校","address":"天等路501号"},{"poiid":"B2094655D26BA2F9419F","title":"天等路华东理工大学","lon":"121.42597","lat":"31.14047","category":"38","category_name":"公交车站","address":""},{"poiid":"B2094757D169A6F44198","title":"百乐迪量贩KTV","lon":"121.425118857","lat":"31.1414194918","category":"170","category_name":"KTV","address":"徐汇区龙州路995号华轻轻纺市场4楼(近梅陇路)"},{"poiid":"B2094655D26AA7FC419E","title":"金磐桌球俱乐部","lon":"121.4276","lat":"31.13709","category":"247","category_name":"餐饮美食","address":"徐汇区天等路400号3楼(近梅陇路)"},{"poiid":"B2094654DB6CA2FD4193","title":"家乐苑","lon":"121.43154","lat":"31.135004","category":"47","category_name":"住宅区","address":"上海上中西路55弄"},{"poiid":"B2094757D069A5F5419E","title":"天等路","lon":"121.4278757","lat":"31.1359372","category":"500","category_name":"未知分类","address":"上海徐汇区天等路"},{"poiid":"B2094654DB6CA2FC4092","title":"梅陇十村","lon":"121.431","lat":"31.1362","category":"47","category_name":"住宅区","address":"罗秀路1164弄77-136号"},{"poiid":"B2094655D36CA3F5449C","title":"如家快捷酒店","lon":"121.42963","lat":"31.14365","category":"216","category_name":"经济型连锁酒店","address":"徐汇区老沪闵路714号(近梅陇路)"},{"poiid":"B2094757D168A5FA459D","title":"吉龙豆捞","lon":"121.42448","lat":"31.13532","category":"86","category_name":"火锅店","address":"徐汇区龙州路925号(梅陇七村对面)"},{"poiid":"B2094654DA65ABF5489C","title":"游子老鸭粉丝 天等路店","lon":"121.426038","lat":"31.140721","category":"68","category_name":"快餐厅","address":"徐汇区天等路482号(华东理工大学正门对面)"},{"poiid":"B2094654DA65ABF54893","title":"世好吉祥馄饨天等店","lon":"121.42628","lat":"31.14012","category":"68","category_name":"快餐厅","address":"徐汇区天等路150号23室(近梅陇路)"},{"poiid":"B2094757D16CA2F9469D","title":"嘉川路245号","lon":"121.428935","lat":"31.138941","category":"500","category_name":"未知分类","address":"上海嘉川路245号"},{"poiid":"B2094757D469A0FE4098","title":"郁金香中餐厅","lon":"121.426338054","lat":"31.139419793","category":"76","category_name":"上海菜","address":"徐汇区天等路469号尚苑宾馆2楼(近梅陇路)"},{"poiid":"B2094757D065A0FC4893","title":"书香苑","lon":"121.42776","lat":"31.138142","category":"500","category_name":"未知分类","address":"上海嘉川路天等路430弄"},{"poiid":"B2094655D269ABFC419D","title":"华东理工大学徐汇校区","lon":"121.42857","lat":"31.14331","category":"247","category_name":"餐饮美食","address":"徐汇区梅陇路130号华东理工大学内(近天等路)"},{"poiid":"B2094757D06FA2FF439A","title":"麦当劳(长桥好又多店)","lon":"121.43198","lat":"31.13688","category":"68","category_name":"快餐厅","address":"徐汇区老沪闵路809号好又多正门附近(近上中西路)"},{"poiid":"B2094757D06FA3FB4398","title":"上海中学","lon":"121.43307885","lat":"31.138910141","category":"55","category_name":"中学","address":"徐汇区上中路400号(龙川北路上中路)"},{"poiid":"B2094654DA65AAFC449A","title":"嘉登道大饭店","lon":"121.42839","lat":"31.14289","category":"213","category_name":"五星级宾馆","address":"老沪闵路689号嘉登道大饭店1楼、3楼、4楼近梅陇路西南角"},{"poiid":"B2094757D06FA2FC429A","title":"沃尔玛(凌云店)","lon":"121.43214","lat":"31.13748","category":"118","category_name":"超级市场","address":"徐汇区老沪闵路809号(近上中西路)"},{"poiid":"B2094757D06FA5F4429A","title":"天都火锅","lon":"121.42788","lat":"31.1346","category":"86","category_name":"火锅店","address":"徐汇区上中西路211号(近天等路)"},{"poiid":"B2094757D06FA2F44192","title":"华东理工大学七教","lon":"121.42448527","lat":"31.141593448","category":"253","category_name":"校园生活","address":"上海徐汇区梅陇路130号"},{"poiid":"B2094757D068A3FC4998","title":"金沙渔港","lon":"121.4277676274","lat":"31.135187256717","category":"75","category_name":"浙江菜","address":"徐汇区天等路400号(近丹棱路)"},{"poiid":"B2094757D068A5F84998","title":"上海市卫生学校","lon":"121.427007","lat":"31.140889","category":"55","category_name":"中学","address":"上海徐汇区梅陇路21号"},{"poiid":"B2094654DA65ABF44893","title":"上海市经济管理干部学院","lon":"121.42602","lat":"31.14","category":"671","category_name":"高校中心点","address":"徐汇区梅陇路161号(近天等路)"},{"poiid":"B2094757D06FA7FA489D","title":"上海职工医学院","lon":"121.42727","lat":"31.14061","category":"671","category_name":"高校中心点","address":"上海徐汇区梅陇路21号(近天等路)  "},{"poiid":"B2094654DB6CA1F4499B","title":"上海体育职业学院","lon":"121.43032","lat":"31.14226","category":"671","category_name":"高校中心点","address":"上海百色路1333号"},{"poiid":"B2094757D06FA7FF449C","title":"九头鸟烧烤","lon":"121.42878","lat":"31.14408","category":"68","category_name":"快餐厅","address":"徐汇区老沪闵路712号对面(近华东理工大学)"},{"poiid":"B2094757D068ABFE409B","title":"新侨职业技术学院(徐汇分校)","lon":"121.4264","lat":"31.1386","category":"54","category_name":"职业技术学校","address":"徐汇区天等路465号(近梅陇路)"},{"poiid":"B2094757D069A5F4409C","title":"上海健康职业技术学院","lon":"121.42435945","lat":"31.139170946","category":"253","category_name":"校园生活","address":"徐汇区梅陇路21号(近天等路)"},{"poiid":"B2094757D16BA2FD459E","title":"味千拉面(老沪闵路分店)","lon":"121.432204557","lat":"31.1369011012","category":"247","category_name":"餐饮美食","address":"徐汇区老沪闵路809号沃尔玛超市(近上中路)"},{"poiid":"B2094757D069A0FF459A","title":"华东理工大学研究生楼","lon":"121.42620086","lat":"31.141109466","category":"500","category_name":"未知分类","address":"上海徐汇区梅陇路130号华东理工大学徐汇校区"},{"poiid":"B2094757D069A0FB409A","title":"上海市邮电学校","lon":"121.429689","lat":"31.14032","category":"500","category_name":"未知分类","address":"徐汇区老沪闵路777号"},{"poiid":"B2094654DB64A2FB4892","title":"上海体育职业学院西部校区","lon":"121.42909","lat":"31.14099","category":"52","category_name":"高等院校","address":"徐汇区老沪闵路775"},{"poiid":"B2094750D76EA3FC4398","title":"新石器烤肉(梅陇好又多店)","lon":"121.432","lat":"31.137","category":"68","category_name":"快餐厅","address":"徐汇区老沪闵路809号沃尔玛1楼(近上中西路)"},{"poiid":"B2094757D068AAFD4298","title":"阳光绿园","lon":"121.42924","lat":"31.137108","category":"47","category_name":"住宅区","address":"上海市徐汇区老沪闵路799号"},{"poiid":"B2094757D068A3FB4793","title":"华东理工大学八教","lon":"121.426987","lat":"31.142914","category":"253","category_name":"校园生活","address":"上海徐汇区梅陇路130号"},{"poiid":"B2094655D268A2F84093","title":"尚苑宾馆","lon":"121.42662","lat":"31.13831","category":"250","category_name":"公园户外","address":"徐汇区天等路469号(近梅陇路)"},{"poiid":"B2094757D06FA6F8459C","title":"85度C(凌云店)","lon":"121.4322","lat":"31.13682","category":"112","category_name":"糕饼店","address":"徐汇区老沪闵路809号好又多超市1楼(近上中西路)"},{"poiid":"B2094654DB64A6FA4998","title":"汉庭快捷(南站店)","lon":"121.42759","lat":"31.13726","category":"216","category_name":"经济型连锁酒店","address":"上海市徐汇区天等路400号(近华东理工大学正门)"},{"poiid":"B2094757D06AA5F5449B","title":"梅陇六村","lon":"121.42579480056","lat":"31.139487689707","category":"252","category_name":"楼宇机构","address":"上海上中西路凌云路"},{"poiid":"B2094757D06FA7F44392","title":"光华园","lon":"121.43165","lat":"31.139774","category":"47","category_name":"住宅区","address":"上海老沪闵路790弄"},{"poiid":"B2094757D06AA1FD469C","title":"市国资委党校","lon":"121.42493438","lat":"31.140525817","category":"500","category_name":"未知分类","address":"上海徐汇区天等路501号"},{"poiid":"B2094757D068AAF94293","title":"华东理工大学五教","lon":"121.425336","lat":"31.140846","category":"253","category_name":"校园生活","address":"上海徐汇区梅陇路130号"},{"poiid":"B2094751D26BABFD469A","title":"新伶达港骨头皇火锅","lon":"121.427612","lat":"31.137207","category":"86","category_name":"火锅店","address":"徐汇区上中西路150号(近天等路)"},{"poiid":"B2094757D16BA6F84699","title":"上海市社会主义学院","lon":"121.426991857","lat":"31.1384291318","category":"500","category_name":"未知分类","address":"上海市徐汇区天等路469号"},{"poiid":"B2094654DB64A2FB469E","title":"上海新侨学院(天等路)","lon":"121.42682","lat":"31.13916","category":"68","category_name":"快餐厅","address":"徐汇区天等路465号(近梅陇路)"},{"poiid":"B2094757D065A4F84599","title":"上海邮政培训中心","lon":"121.429996","lat":"31.140409","category":"253","category_name":"校园生活","address":"上海老沪闵路777号近百色路"},{"poiid":"B2094654DB64A2FB479C","title":"上海科汇高新技术创业服务中心科汇孵化基地(嘉川路)","lon":"121.42893","lat":"31.13894","category":"45","category_name":"产业园区","address":"嘉川路245"},{"poiid":"B2094757D069A2F54898","title":"音乐之声大酒店(梅陇路店)","lon":"121.42882","lat":"31.14306","category":"76","category_name":"上海菜","address":"徐汇区老沪闵路689号嘉登道2楼(近梅陇路)"},{"poiid":"B2094750D76DA1F44793","title":"斗香园(老沪闵路店)","lon":"121.432","lat":"31.1367","category":"68","category_name":"快餐厅","address":"徐汇区老沪闵路809号沃尔玛1楼(上中路口)"},{"poiid":"B2094655D268A2F84092","title":"上海市经济管理干部学院(东门)","lon":"121.4261","lat":"31.14001","category":"52","category_name":"高等院校","address":"天等路501号"},{"poiid":"B2094655D26BA2F9419F","title":"天等路华东理工大学","lon":"121.42597","lat":"31.14047","category":"38","category_name":"公交车站","address":""},{"poiid":"B2094757D169A6F44198","title":"百乐迪量贩KTV","lon":"121.425118857","lat":"31.1414194918","category":"170","category_name":"KTV","address":"徐汇区龙州路995号华轻轻纺市场4楼(近梅陇路)"},{"poiid":"B2094655D26AA7FC419E","title":"金磐桌球俱乐部","lon":"121.4276","lat":"31.13709","category":"247","category_name":"餐饮美食","address":"徐汇区天等路400号3楼(近梅陇路)"},{"poiid":"B2094654DB6CA2FD4193","title":"家乐苑","lon":"121.43154","lat":"31.135004","category":"47","category_name":"住宅区","address":"上海上中西路55弄"},{"poiid":"B2094757D069A5F5419E","title":"天等路","lon":"121.4278757","lat":"31.1359372","category":"500","category_name":"未知分类","address":"上海徐汇区天等路"},{"poiid":"B2094654DB6CA2FC4092","title":"梅陇十村","lon":"121.431","lat":"31.1362","category":"47","category_name":"住宅区","address":"罗秀路1164弄77-136号"},{"poiid":"B2094655D36CA3F5449C","title":"如家快捷酒店","lon":"121.42963","lat":"31.14365","category":"216","category_name":"经济型连锁酒店","address":"徐汇区老沪闵路714号(近梅陇路)"},{"poiid":"B2094757D168A5FA459D","title":"吉龙豆捞","lon":"121.42448","lat":"31.13532","category":"86","category_name":"火锅店","address":"徐汇区龙州路925号(梅陇七村对面)"},{"poiid":"B2094654DA65ABF5489C","title":"游子老鸭粉丝 天等路店","lon":"121.426038","lat":"31.140721","category":"68","category_name":"快餐厅","address":"徐汇区天等路482号(华东理工大学正门对面)"},{"poiid":"B2094654DA65ABF54893","title":"世好吉祥馄饨天等店","lon":"121.42628","lat":"31.14012","category":"68","category_name":"快餐厅","address":"徐汇区天等路150号23室(近梅陇路)"},{"poiid":"B2094757D16CA2F9469D","title":"嘉川路245号","lon":"121.428935","lat":"31.138941","category":"500","category_name":"未知分类","address":"上海嘉川路245号"},{"poiid":"B2094757D469A0FE4098","title":"郁金香中餐厅","lon":"121.426338054","lat":"31.139419793","category":"76","category_name":"上海菜","address":"徐汇区天等路469号尚苑宾馆2楼(近梅陇路)"},{"poiid":"B2094757D065A0FC4893","title":"书香苑","lon":"121.42776","lat":"31.138142","category":"500","category_name":"未知分类","address":"上海嘉川路天等路430弄"},{"poiid":"B2094655D269ABFC419D","title":"华东理工大学徐汇校区","lon":"121.42857","lat":"31.14331","category":"247","category_name":"餐饮美食","address":"徐汇区梅陇路130号华东理工大学内(近天等路)"},{"poiid":"B2094757D06FA2FF439A","title":"麦当劳(长桥好又多店)","lon":"121.43198","lat":"31.13688","category":"68","category_name":"快餐厅","address":"徐汇区老沪闵路809号好又多正门附近(近上中西路)"},{"poiid":"B2094757D06FA3FB4398","title":"上海中学","lon":"121.43307885","lat":"31.138910141","category":"55","category_name":"中学","address":"徐汇区上中路400号(龙川北路上中路)"},{"poiid":"B2094654DA65AAFC449A","title":"嘉登道大饭店","lon":"121.42839","lat":"31.14289","category":"213","category_name":"五星级宾馆","address":"老沪闵路689号嘉登道大饭店1楼、3楼、4楼近梅陇路西南角"},{"poiid":"B2094757D06FA2FC429A","title":"沃尔玛(凌云店)","lon":"121.43214","lat":"31.13748","category":"118","category_name":"超级市场","address":"徐汇区老沪闵路809号(近上中西路)"},{"poiid":"B2094757D06FA5F4429A","title":"天都火锅","lon":"121.42788","lat":"31.1346","category":"86","category_name":"火锅店","address":"徐汇区上中西路211号(近天等路)"},{"poiid":"B2094757D06FA2F44192","title":"华东理工大学七教","lon":"121.42448527","lat":"31.141593448","category":"253","category_name":"校园生活","address":"上海徐汇区梅陇路130号"},{"poiid":"B2094757D068A3FC4998","title":"金沙渔港","lon":"121.4277676274","lat":"31.135187256717","category":"75","category_name":"浙江菜","address":"徐汇区天等路400号(近丹棱路)"},{"poiid":"B2094757D068A5F84998","title":"上海市卫生学校","lon":"121.427007","lat":"31.140889","category":"55","category_name":"中学","address":"上海徐汇区梅陇路21号"},{"poiid":"B2094654DA65ABF44893","title":"上海市经济管理干部学院","lon":"121.42602","lat":"31.14","category":"671","category_name":"高校中心点","address":"徐汇区梅陇路161号(近天等路)"},{"poiid":"B2094757D06FA7FA489D","title":"上海职工医学院","lon":"121.42727","lat":"31.14061","category":"671","category_name":"高校中心点","address":"上海徐汇区梅陇路21号(近天等路)  "},{"poiid":"B2094654DB6CA1F4499B","title":"上海体育职业学院","lon":"121.43032","lat":"31.14226","category":"671","category_name":"高校中心点","address":"上海百色路1333号"},{"poiid":"B2094757D06FA7FF449C","title":"九头鸟烧烤","lon":"121.42878","lat":"31.14408","category":"68","category_name":"快餐厅","address":"徐汇区老沪闵路712号对面(近华东理工大学)"},{"poiid":"B2094757D068ABFE409B","title":"新侨职业技术学院(徐汇分校)","lon":"121.4264","lat":"31.1386","category":"54","category_name":"职业技术学校","address":"徐汇区天等路465号(近梅陇路)"},{"poiid":"B2094757D069A5F4409C","title":"上海健康职业技术学院","lon":"121.42435945","lat":"31.139170946","category":"253","category_name":"校园生活","address":"徐汇区梅陇路21号(近天等路)"},{"poiid":"B2094757D16BA2FD459E","title":"味千拉面(老沪闵路分店)","lon":"121.432204557","lat":"31.1369011012","category":"247","category_name":"餐饮美食","address":"徐汇区老沪闵路809号沃尔玛超市(近上中路)"},{"poiid":"B2094757D069A0FF459A","title":"华东理工大学研究生楼","lon":"121.42620086","lat":"31.141109466","category":"500","category_name":"未知分类","address":"上海徐汇区梅陇路130号华东理工大学徐汇校区"},{"poiid":"B2094757D069A0FB409A","title":"上海市邮电学校","lon":"121.429689","lat":"31.14032","category":"500","category_name":"未知分类","address":"徐汇区老沪闵路777号"},{"poiid":"B2094654DB64A2FB4892","title":"上海体育职业学院西部校区","lon":"121.42909","lat":"31.14099","category":"52","category_name":"高等院校","address":"徐汇区老沪闵路775"},{"poiid":"B2094750D76EA3FC4398","title":"新石器烤肉(梅陇好又多店)","lon":"121.432","lat":"31.137","category":"68","category_name":"快餐厅","address":"徐汇区老沪闵路809号沃尔玛1楼(近上中西路)"},{"poiid":"B2094757D068AAFD4298","title":"阳光绿园","lon":"121.42924","lat":"31.137108","category":"47","category_name":"住宅区","address":"上海市徐汇区老沪闵路799号"},{"poiid":"B2094757D068A3FB4793","title":"华东理工大学八教","lon":"121.426987","lat":"31.142914","category":"253","category_name":"校园生活","address":"上海徐汇区梅陇路130号"},{"poiid":"B2094655D268A2F84093","title":"尚苑宾馆","lon":"121.42662","lat":"31.13831","category":"250","category_name":"公园户外","address":"徐汇区天等路469号(近梅陇路)"},{"poiid":"B2094757D06FA6F8459C","title":"85度C(凌云店)","lon":"121.4322","lat":"31.13682","category":"112","category_name":"糕饼店","address":"徐汇区老沪闵路809号好又多超市1楼(近上中西路)"},{"poiid":"B2094654DB64A6FA4998","title":"汉庭快捷(南站店)","lon":"121.42759","lat":"31.13726","category":"216","category_name":"经济型连锁酒店","address":"上海市徐汇区天等路400号(近华东理工大学正门)"},{"poiid":"B2094757D06AA5F5449B","title":"梅陇六村","lon":"121.42579480056","lat":"31.139487689707","category":"252","category_name":"楼宇机构","address":"上海上中西路凌云路"},{"poiid":"B2094757D06FA7F44392","title":"光华园","lon":"121.43165","lat":"31.139774","category":"47","category_name":"住宅区","address":"上海老沪闵路790弄"},{"poiid":"B2094757D06AA1FD469C","title":"市国资委党校","lon":"121.42493438","lat":"31.140525817","category":"500","category_name":"未知分类","address":"上海徐汇区天等路501号"},{"poiid":"B2094757D068AAF94293","title":"华东理工大学五教","lon":"121.425336","lat":"31.140846","category":"253","category_name":"校园生活","address":"上海徐汇区梅陇路130号"},{"poiid":"B2094751D26BABFD469A","title":"新伶达港骨头皇火锅","lon":"121.427612","lat":"31.137207","category":"86","category_name":"火锅店","address":"徐汇区上中西路150号(近天等路)"},{"poiid":"B2094757D16BA6F84699","title":"上海市社会主义学院","lon":"121.426991857","lat":"31.1384291318","category":"500","category_name":"未知分类","address":"上海市徐汇区天等路469号"},{"poiid":"B2094654DB64A2FB469E","title":"上海新侨学院(天等路)","lon":"121.42682","lat":"31.13916","category":"68","category_name":"快餐厅","address":"徐汇区天等路465号(近梅陇路)"},{"poiid":"B2094757D065A4F84599","title":"上海邮政培训中心","lon":"121.429996","lat":"31.140409","category":"253","category_name":"校园生活","address":"上海老沪闵路777号近百色路"},{"poiid":"B2094654DB64A2FB479C","title":"上海科汇高新技术创业服务中心科汇孵化基地(嘉川路)","lon":"121.42893","lat":"31.13894","category":"45","category_name":"产业园区","address":"嘉川路245"},{"poiid":"B2094757D069A2F54898","title":"音乐之声大酒店(梅陇路店)","lon":"121.42882","lat":"31.14306","category":"76","category_name":"上海菜","address":"徐汇区老沪闵路689号嘉登道2楼(近梅陇路)"},{"poiid":"B2094750D76DA1F44793","title":"斗香园(老沪闵路店)","lon":"121.432","lat":"31.1367","category":"68","category_name":"快餐厅","address":"徐汇区老沪闵路809号沃尔玛1楼(上中路口)"},{"poiid":"B2094655D268A2F84092","title":"上海市经济管理干部学院(东门)","lon":"121.4261","lat":"31.14001","category":"52","category_name":"高等院校","address":"天等路501号"},{"poiid":"B2094655D26BA2F9419F","title":"天等路华东理工大学","lon":"121.42597","lat":"31.14047","category":"38","category_name":"公交车站","address":""},{"poiid":"B2094757D169A6F44198","title":"百乐迪量贩KTV","lon":"121.425118857","lat":"31.1414194918","category":"170","category_name":"KTV","address":"徐汇区龙州路995号华轻轻纺市场4楼(近梅陇路)"},{"poiid":"B2094655D26AA7FC419E","title":"金磐桌球俱乐部","lon":"121.4276","lat":"31.13709","category":"247","category_name":"餐饮美食","address":"徐汇区天等路400号3楼(近梅陇路)"},{"poiid":"B2094654DB6CA2FD4193","title":"家乐苑","lon":"121.43154","lat":"31.135004","category":"47","category_name":"住宅区","address":"上海上中西路55弄"},{"poiid":"B2094757D069A5F5419E","title":"天等路","lon":"121.4278757","lat":"31.1359372","category":"500","category_name":"未知分类","address":"上海徐汇区天等路"},{"poiid":"B2094654DB6CA2FC4092","title":"梅陇十村","lon":"121.431","lat":"31.1362","category":"47","category_name":"住宅区","address":"罗秀路1164弄77-136号"},{"poiid":"B2094655D36CA3F5449C","title":"如家快捷酒店","lon":"121.42963","lat":"31.14365","category":"216","category_name":"经济型连锁酒店","address":"徐汇区老沪闵路714号(近梅陇路)"},{"poiid":"B2094757D168A5FA459D","title":"吉龙豆捞","lon":"121.42448","lat":"31.13532","category":"86","category_name":"火锅店","address":"徐汇区龙州路925号(梅陇七村对面)"},{"poiid":"B2094654DA65ABF5489C","title":"游子老鸭粉丝 天等路店","lon":"121.426038","lat":"31.140721","category":"68","category_name":"快餐厅","address":"徐汇区天等路482号(华东理工大学正门对面)"},{"poiid":"B2094654DA65ABF54893","title":"世好吉祥馄饨天等店","lon":"121.42628","lat":"31.14012","category":"68","category_name":"快餐厅","address":"徐汇区天等路150号23室(近梅陇路)"},{"poiid":"B2094757D16CA2F9469D","title":"嘉川路245号","lon":"121.428935","lat":"31.138941","category":"500","category_name":"未知分类","address":"上海嘉川路245号"},{"poiid":"B2094757D469A0FE4098","title":"郁金香中餐厅","lon":"121.426338054","lat":"31.139419793","category":"76","category_name":"上海菜","address":"徐汇区天等路469号尚苑宾馆2楼(近梅陇路)"},{"poiid":"B2094757D065A0FC4893","title":"书香苑","lon":"121.42776","lat":"31.138142","category":"500","category_name":"未知分类","address":"上海嘉川路天等路430弄"}]