[{"poiid":"B2094757D06EAAFE479D","title":"星巴克(赵巷店)","lon":"121.227365","lat":"31.156241","category":"65","category_name":"咖啡厅","address":"青浦区沪青平公路2888号奥特莱斯B区101室(沪青平公路嘉松中路)"},{"poiid":"B2094655D36CA4FD4493","title":"奥特莱斯","lon":"121.22841","lat":"31.15331","category":"249","category_name":"购物服务","address":"青浦区沪青平公路2888号(嘉松中路5555号)"},{"poiid":"B2094654DA6BABFE409D","title":"上海奥特莱斯品牌直销广场","lon":"121.22722","lat":"31.15367","category":"248","category_name":"生活娱乐","address":"上海市青浦区嘉松中路附近"},{"poiid":"B2094757D068AAF5419B","title":"哈根达斯(奥特莱斯店)","lon":"121.22758","lat":"31.15359","category":"113","category_name":"冷饮店","address":"青浦区沪青平公路2888号奥特莱斯B181商铺(近嘉松中路)"},{"poiid":"B2094655D265A7F4489A","title":"奥特莱斯青浦店","lon":"121.21584","lat":"31.15184","category":"141","category_name":"服装鞋帽皮具店","address":"沪青平公路2888号"},{"poiid":"B2094654DA6BABFE4399","title":"上海奥特莱斯品牌直销广场有限公司","lon":"121.22695","lat":"31.15676","category":"263","category_name":"公司","address":"上海市青浦区嘉松中路附近"},{"poiid":"B2094757DA64A1FE429E","title":"米格天地","lon":"121.227844","lat":"31.149844","category":"637","category_name":"房地产类公司","address":"青浦区嘉松中路5999弄（G50高速赵巷出口）"},{"poiid":"B2094654DA6BABFE4093","title":"吉盛伟邦绿地国际家具村","lon":"121.2264","lat":"31.1594","category":"123","category_name":"家具建材市场","address":"青浦区赵巷镇嘉松中路5369号"},{"poiid":"B2094757D06FA7FE409A","title":"避风塘(青浦店)","lon":"121.22686","lat":"31.14628","category":"111","category_name":"休闲餐饮场所","address":"青浦区沪青平公路2888号奥特莱斯C区4楼419号商铺(近嘉松中路)"},{"poiid":"B2094757D06FA6FB479B","title":"甜蜜蜜(青浦店)","lon":"121.22873","lat":"31.1572","category":"67","category_name":"甜品店","address":"青浦区沪青平公路奥特莱斯品牌直销广场B区(嘉松中路口)"},{"poiid":"B2094757D065AAF84399","title":"BURBERRY Outlets","lon":"121.22810856","lat":"31.156409862","category":"141","category_name":"服装鞋帽皮具店","address":"上海青浦奥特莱斯"},{"poiid":"B2094757D16FA5FC439B","title":"小杨生煎(青浦奥特莱斯店)","lon":"121.22584556","lat":"31.1545468234","category":"87","category_name":"特色／地方风味餐厅","address":"青浦区沪青平公路2888号奥特莱斯C区4楼"},{"poiid":"B2094751D368A7FC469D","title":"人然合一现代农业生态园","lon":"121.21682","lat":"31.152","category":"76","category_name":"上海菜","address":"青浦区赵巷镇沪青平公路3098号(近318国道)"},{"poiid":"B2094757D069A5FC449A","title":"Coach(奥特莱斯店)","lon":"121.22728","lat":"31.154269","category":"141","category_name":"服装鞋帽皮具店","address":"青浦区沪青平公路2888号奥特莱斯B107"},{"poiid":"B2094757D16BA1FE4892","title":"元祖公司","lon":"121.22762056","lat":"31.152236775","category":"263","category_name":"公司","address":"上海嘉松中路6088号"},{"poiid":"B2094757D06BA0F84598","title":"I.T(奥特莱斯店)","lon":"121.22838256","lat":"31.1558548508","category":"141","category_name":"服装鞋帽皮具店","address":"青浦区沪青平公路2888号奥特莱斯B105室(沪青平公路嘉松中路)"},{"poiid":"B2094751D36FA3F54999","title":"爱茜茜里意大利手工冰淇淋(奥特莱斯店)","lon":"121.22736","lat":"31.15624","category":"113","category_name":"冷饮店","address":"青浦区沪青平公路2888号奥特莱斯(沪青平公路嘉松中路)"},{"poiid":"B2094757D165A7F4439F","title":"爱茜茜里iceason","lon":"121.22802056","lat":"31.156384861","category":"247","category_name":"餐饮美食","address":"上海市青浦区嘉松中路奥特莱斯B区"},{"poiid":"B2094751D56DA7FC499B","title":"麦当劳(奥特莱斯店)","lon":"121.22731","lat":"31.15385","category":"68","category_name":"快餐厅","address":"青浦区嘉松中路5555号奥特莱斯C区二楼215号铺(近沪青平公路)"},{"poiid":"B2094757D06FA6F84393","title":"G2京沪G42沪蓉高速嘉松公路收费站","lon":"121.229527","lat":"31.148911","category":"267","category_name":"收费站","address":"上海G2京沪G42沪蓉高速嘉松公路收费站"},{"poiid":"B2094757D06AA6FE499C","title":"奥特莱斯 Polo RalphLauren","lon":"121.2280735","lat":"31.1556442264","category":"500","category_name":"未知分类","address":"上海B102"},{"poiid":"B2094750DA6FA2FA479A","title":"米格天地 MEGA MILLS","lon":"121.22863","lat":"31.154169","category":"500","category_name":"未知分类","address":"嘉松中路5559弄"},{"poiid":"B2094757D06BAAFE459F","title":"绿野农家乐","lon":"121.2261219","lat":"31.1632315952","category":"250","category_name":"公园户外","address":"上海嘉松公路上靠近松泽大道"},{"poiid":"B2094757D06BA6F44498","title":"Calvin Klein Jeans(奥特莱斯店)","lon":"121.22804","lat":"31.1558","category":"141","category_name":"服装鞋帽皮具店","address":"上海近郊青浦沪青平公路2888号奥特莱斯B175(近嘉松中路)  "},{"poiid":"B2094757D66BA7FD429A","title":"肯德基 沪青平店 KFC","lon":"121.227509054","lat":"31.153748793","category":"68","category_name":"快餐厅","address":"青浦区沪青平公路2888号C区213号(近奥特莱斯)"},{"poiid":"B2094757D164A4FD409E","title":"G50赵巷出口","lon":"121.23211756","lat":"31.149778723","category":"500","category_name":"未知分类","address":"上海青浦区赵巷"},{"poiid":"B2094757D169ABFB459A","title":"杰尼亚(青浦奥特莱斯店)","lon":"121.22779906","lat":"31.1567169688","category":"141","category_name":"服装鞋帽皮具店","address":"青浦区沪青平公路2888号奥特莱斯A111(沪青平公路嘉松中路)"},{"poiid":"B2094750D365A0F9479E","title":"青浦奥特莱斯","lon":"121.229751","lat":"31.156759","category":"249","category_name":"购物服务","address":null},{"poiid":"B2094654DA6BABFE4198","title":"NAUTICA","lon":"121.22737","lat":"31.15629","category":"141","category_name":"服装鞋帽皮具店","address":""},{"poiid":"B2094757D069A6F8409E","title":"吴越人家面馆（奥特莱斯店）","lon":"121.2326489","lat":"31.1556459644","category":"75","category_name":"浙江菜","address":"青浦区沪青平公路2888号奥特莱斯广场C214(近嘉松中路)"},{"poiid":"B2094757D66CA0FC479D","title":"宝大祥","lon":"121.22809756","lat":"31.1566238669","category":"500","category_name":"未知分类","address":"上海市青浦区嘉松中路"},{"poiid":"B2094757D16FA5FE449D","title":"DKNY(奥特莱斯店)","lon":"121.22749028","lat":"31.157307142","category":"141","category_name":"服装鞋帽皮具店","address":"青浦区沪青平公路2888号奥特莱斯(沪青平公路嘉松中路)"},{"poiid":"B2094757D069AAFC439F","title":"Nike工厂店(青浦二店)","lon":"121.22819","lat":"31.15746","category":"140","category_name":"体育用品店","address":"上海近郊青浦区嘉松中路5555号奥特莱斯C210号(近沪青平公路)"},{"poiid":"B2094757D465A7FE4593","title":"永和大王 徐泾店","lon":"121.226577054","lat":"31.153854793","category":"68","category_name":"快餐厅","address":"青浦区沪青平公路2888号C110(近嘉松中路)"},{"poiid":"B2094757D165ABF5449B","title":"Vans(奥特莱斯店)","lon":"121.227365","lat":"31.156241","category":"500","category_name":"未知分类","address":"上海青浦区沪青平公路2888号奥特莱斯B288室"},{"poiid":"B2094757D16DA5F8499B","title":"北竿山国际艺术中心","lon":"121.234","lat":"31.1471","category":"179","category_name":"音乐厅","address":"青浦区赵巷业辉路222弄(业辉路置达路)"},{"poiid":"B2094654DA6BABFE4299","title":"yamamay","lon":"121.22732","lat":"31.15771","category":"141","category_name":"服装鞋帽皮具店","address":""},{"poiid":"B2094757D164A0F94399","title":"Max Mara(奥特莱斯店)","lon":"121.22724686","lat":"31.1538829095","category":"141","category_name":"服装鞋帽皮具店","address":"上海近郊青浦沪青平公路2888号奥特莱斯  "},{"poiid":"B2094757D16FA5F54698","title":"Guess","lon":"121.227216","lat":"31.153672","category":"500","category_name":"未知分类","address":"上海奥特莱斯"},{"poiid":"B2094757D069A6FC459E","title":"阿迪达斯(青浦店)","lon":"121.22717256","lat":"31.1538606091","category":"140","category_name":"体育用品店","address":"青浦区沪青平公路2888号奥特莱斯B111号(近嘉松中路)"},{"poiid":"B2094752D164A7F9419C","title":"朱家角","lon":"121.227912","lat":"31.153373","category":"500","category_name":"未知分类","address":null},{"poiid":"B2094757D06AA2FC4292","title":"CAT(奥克莱斯店)","lon":"121.22748","lat":"31.15339","category":"140","category_name":"体育用品店","address":"上海近郊青浦区沪青平公路2888号奥克莱斯C区  "},{"poiid":"B2094655D264A4F94898","title":"G50嘉松中路收费站","lon":"121.22953","lat":"31.14891","category":"267","category_name":"收费站","address":""},{"poiid":"B2094654DB69A6FC4592","title":"恒联名人世家","lon":"121.228","lat":"31.1502","category":"47","category_name":"住宅区","address":"上海市杨浦区平凉路2691号"},{"poiid":"B2094753D36FA2FA439D","title":"太平洋咖啡（米格天地）","lon":"121.228573","lat":"31.152102","category":"500","category_name":"未知分类","address":"上海市 嘉松中路"},{"poiid":"B2094757D56EA6FD4298","title":"达芙妮-奥特莱斯二店","lon":"121.227581","lat":"31.153599","category":"249","category_name":"购物服务","address":"沪青平公路2888号B198"},{"poiid":"B2094654DB69A7FF499C","title":"御宫艺墅","lon":"121.22915","lat":"31.150449","category":"47","category_name":"住宅区","address":"上海市青浦区赵巷置发路138号"},{"poiid":"B2094655D36CA6F94093","title":"方家窑","lon":"121.23364","lat":"31.15323","category":"38","category_name":"公交车站","address":""},{"poiid":"B2094757D66CAAFC4299","title":"Italsofa","lon":"121.22661","lat":"31.1594","category":"500","category_name":"未知分类","address":"青浦区赵巷镇嘉松中路5369号吉盛伟邦国际家具村A3-106"},{"poiid":"B2094757D66EA2F44193","title":"金葫芦十二区","lon":"121.22368126","lat":"31.1615786706","category":"47","category_name":"住宅区","address":"上海青浦区赵巷镇"},{"poiid":"B2094757D06EAAFE479D","title":"星巴克(赵巷店)","lon":"121.227365","lat":"31.156241","category":"65","category_name":"咖啡厅","address":"青浦区沪青平公路2888号奥特莱斯B区101室(沪青平公路嘉松中路)"},{"poiid":"B2094655D36CA4FD4493","title":"奥特莱斯","lon":"121.22841","lat":"31.15331","category":"249","category_name":"购物服务","address":"青浦区沪青平公路2888号(嘉松中路5555号)"},{"poiid":"B2094654DA6BABFE409D","title":"上海奥特莱斯品牌直销广场","lon":"121.22722","lat":"31.15367","category":"248","category_name":"生活娱乐","address":"上海市青浦区嘉松中路附近"},{"poiid":"B2094757D068AAF5419B","title":"哈根达斯(奥特莱斯店)","lon":"121.22758","lat":"31.15359","category":"113","category_name":"冷饮店","address":"青浦区沪青平公路2888号奥特莱斯B181商铺(近嘉松中路)"},{"poiid":"B2094655D265A7F4489A","title":"奥特莱斯青浦店","lon":"121.21584","lat":"31.15184","category":"141","category_name":"服装鞋帽皮具店","address":"沪青平公路2888号"},{"poiid":"B2094654DA6BABFE4399","title":"上海奥特莱斯品牌直销广场有限公司","lon":"121.22695","lat":"31.15676","category":"263","category_name":"公司","address":"上海市青浦区嘉松中路附近"},{"poiid":"B2094757DA64A1FE429E","title":"米格天地","lon":"121.227844","lat":"31.149844","category":"637","category_name":"房地产类公司","address":"青浦区嘉松中路5999弄（G50高速赵巷出口）"},{"poiid":"B2094654DA6BABFE4093","title":"吉盛伟邦绿地国际家具村","lon":"121.2264","lat":"31.1594","category":"123","category_name":"家具建材市场","address":"青浦区赵巷镇嘉松中路5369号"},{"poiid":"B2094757D06FA7FE409A","title":"避风塘(青浦店)","lon":"121.22686","lat":"31.14628","category":"111","category_name":"休闲餐饮场所","address":"青浦区沪青平公路2888号奥特莱斯C区4楼419号商铺(近嘉松中路)"},{"poiid":"B2094757D06FA6FB479B","title":"甜蜜蜜(青浦店)","lon":"121.22873","lat":"31.1572","category":"67","category_name":"甜品店","address":"青浦区沪青平公路奥特莱斯品牌直销广场B区(嘉松中路口)"},{"poiid":"B2094757D065AAF84399","title":"BURBERRY Outlets","lon":"121.22810856","lat":"31.156409862","category":"141","category_name":"服装鞋帽皮具店","address":"上海青浦奥特莱斯"},{"poiid":"B2094757D16FA5FC439B","title":"小杨生煎(青浦奥特莱斯店)","lon":"121.22584556","lat":"31.1545468234","category":"87","category_name":"特色／地方风味餐厅","address":"青浦区沪青平公路2888号奥特莱斯C区4楼"},{"poiid":"B2094751D368A7FC469D","title":"人然合一现代农业生态园","lon":"121.21682","lat":"31.152","category":"76","category_name":"上海菜","address":"青浦区赵巷镇沪青平公路3098号(近318国道)"},{"poiid":"B2094757D069A5FC449A","title":"Coach(奥特莱斯店)","lon":"121.22728","lat":"31.154269","category":"141","category_name":"服装鞋帽皮具店","address":"青浦区沪青平公路2888号奥特莱斯B107"},{"poiid":"B2094757D16BA1FE4892","title":"元祖公司","lon":"121.22762056","lat":"31.152236775","category":"263","category_name":"公司","address":"上海嘉松中路6088号"},{"poiid":"B2094757D06BA0F84598","title":"I.T(奥特莱斯店)","lon":"121.22838256","lat":"31.1558548508","category":"141","category_name":"服装鞋帽皮具店","address":"青浦区沪青平公路2888号奥特莱斯B105室(沪青平公路嘉松中路)"},{"poiid":"B2094751D36FA3F54999","title":"爱茜茜里意大利手工冰淇淋(奥特莱斯店)","lon":"121.22736","lat":"31.15624","category":"113","category_name":"冷饮店","address":"青浦区沪青平公路2888号奥特莱斯(沪青平公路嘉松中路)"},{"poiid":"B2094757D165A7F4439F","title":"爱茜茜里iceason","lon":"121.22802056","lat":"31.156384861","category":"247","category_name":"餐饮美食","address":"上海市青浦区嘉松中路奥特莱斯B区"},{"poiid":"B2094751D56DA7FC499B","title":"麦当劳(奥特莱斯店)","lon":"121.22731","lat":"31.15385","category":"68","category_name":"快餐厅","address":"青浦区嘉松中路5555号奥特莱斯C区二楼215号铺(近沪青平公路)"},{"poiid":"B2094757D06FA6F84393","title":"G2京沪G42沪蓉高速嘉松公路收费站","lon":"121.229527","lat":"31.148911","category":"267","category_name":"收费站","address":"上海G2京沪G42沪蓉高速嘉松公路收费站"},{"poiid":"B2094757D06AA6FE499C","title":"奥特莱斯 Polo RalphLauren","lon":"121.2280735","lat":"31.1556442264","category":"500","category_name":"未知分类","address":"上海B102"},{"poiid":"B2094750DA6FA2FA479A","title":"米格天地 MEGA MILLS","lon":"121.22863","lat":"31.154169","category":"500","category_name":"未知分类","address":"嘉松中路5559弄"},{"poiid":"B2094757D06BAAFE459F","title":"绿野农家乐","lon":"121.2261219","lat":"31.1632315952","category":"250","category_name":"公园户外","address":"上海嘉松公路上靠近松泽大道"},{"poiid":"B2094757D06BA6F44498","title":"Calvin Klein Jeans(奥特莱斯店)","lon":"121.22804","lat":"31.1558","category":"141","category_name":"服装鞋帽皮具店","address":"上海近郊青浦沪青平公路2888号奥特莱斯B175(近嘉松中路)  "},{"poiid":"B2094757D66BA7FD429A","title":"肯德基 沪青平店 KFC","lon":"121.227509054","lat":"31.153748793","category":"68","category_name":"快餐厅","address":"青浦区沪青平公路2888号C区213号(近奥特莱斯)"},{"poiid":"B2094757D164A4FD409E","title":"G50赵巷出口","lon":"121.23211756","lat":"31.149778723","category":"500","category_name":"未知分类","address":"上海青浦区赵巷"},{"poiid":"B2094757D169ABFB459A","title":"杰尼亚(青浦奥特莱斯店)","lon":"121.22779906","lat":"31.1567169688","category":"141","category_name":"服装鞋帽皮具店","address":"青浦区沪青平公路2888号奥特莱斯A111(沪青平公路嘉松中路)"},{"poiid":"B2094750D365A0F9479E","title":"青浦奥特莱斯","lon":"121.229751","lat":"31.156759","category":"249","category_name":"购物服务","address":null},{"poiid":"B2094654DA6BABFE4198","title":"NAUTICA","lon":"121.22737","lat":"31.15629","category":"141","category_name":"服装鞋帽皮具店","address":""},{"poiid":"B2094757D069A6F8409E","title":"吴越人家面馆（奥特莱斯店）","lon":"121.2326489","lat":"31.1556459644","category":"75","category_name":"浙江菜","address":"青浦区沪青平公路2888号奥特莱斯广场C214(近嘉松中路)"},{"poiid":"B2094757D66CA0FC479D","title":"宝大祥","lon":"121.22809756","lat":"31.1566238669","category":"500","category_name":"未知分类","address":"上海市青浦区嘉松中路"},{"poiid":"B2094757D16FA5FE449D","title":"DKNY(奥特莱斯店)","lon":"121.22749028","lat":"31.157307142","category":"141","category_name":"服装鞋帽皮具店","address":"青浦区沪青平公路2888号奥特莱斯(沪青平公路嘉松中路)"},{"poiid":"B2094757D069AAFC439F","title":"Nike工厂店(青浦二店)","lon":"121.22819","lat":"31.15746","category":"140","category_name":"体育用品店","address":"上海近郊青浦区嘉松中路5555号奥特莱斯C210号(近沪青平公路)"},{"poiid":"B2094757D465A7FE4593","title":"永和大王 徐泾店","lon":"121.226577054","lat":"31.153854793","category":"68","category_name":"快餐厅","address":"青浦区沪青平公路2888号C110(近嘉松中路)"},{"poiid":"B2094757D165ABF5449B","title":"Vans(奥特莱斯店)","lon":"121.227365","lat":"31.156241","category":"500","category_name":"未知分类","address":"上海青浦区沪青平公路2888号奥特莱斯B288室"},{"poiid":"B2094757D16DA5F8499B","title":"北竿山国际艺术中心","lon":"121.234","lat":"31.1471","category":"179","category_name":"音乐厅","address":"青浦区赵巷业辉路222弄(业辉路置达路)"},{"poiid":"B2094654DA6BABFE4299","title":"yamamay","lon":"121.22732","lat":"31.15771","category":"141","category_name":"服装鞋帽皮具店","address":""},{"poiid":"B2094757D164A0F94399","title":"Max Mara(奥特莱斯店)","lon":"121.22724686","lat":"31.1538829095","category":"141","category_name":"服装鞋帽皮具店","address":"上海近郊青浦沪青平公路2888号奥特莱斯  "},{"poiid":"B2094757D16FA5F54698","title":"Guess","lon":"121.227216","lat":"31.153672","category":"500","category_name":"未知分类","address":"上海奥特莱斯"},{"poiid":"B2094757D069A6FC459E","title":"阿迪达斯(青浦店)","lon":"121.22717256","lat":"31.1538606091","category":"140","category_name":"体育用品店","address":"青浦区沪青平公路2888号奥特莱斯B111号(近嘉松中路)"},{"poiid":"B2094752D164A7F9419C","title":"朱家角","lon":"121.227912","lat":"31.153373","category":"500","category_name":"未知分类","address":null},{"poiid":"B2094757D06AA2FC4292","title":"CAT(奥克莱斯店)","lon":"121.22748","lat":"31.15339","category":"140","category_name":"体育用品店","address":"上海近郊青浦区沪青平公路2888号奥克莱斯C区  "},{"poiid":"B2094655D264A4F94898","title":"G50嘉松中路收费站","lon":"121.22953","lat":"31.14891","category":"267","category_name":"收费站","address":""},{"poiid":"B2094654DB69A6FC4592","title":"恒联名人世家","lon":"121.228","lat":"31.1502","category":"47","category_name":"住宅区","address":"上海市杨浦区平凉路2691号"},{"poiid":"B2094753D36FA2FA439D","title":"太平洋咖啡（米格天地）","lon":"121.228573","lat":"31.152102","category":"500","category_name":"未知分类","address":"上海市 嘉松中路"},{"poiid":"B2094757D56EA6FD4298","title":"达芙妮-奥特莱斯二店","lon":"121.227581","lat":"31.153599","category":"249","category_name":"购物服务","address":"沪青平公路2888号B198"},{"poiid":"B2094654DB69A7FF499C","title":"御宫艺墅","lon":"121.22915","lat":"31.150449","category":"47","category_name":"住宅区","address":"上海市青浦区赵巷置发路138号"},{"poiid":"B2094655D36CA6F94093","title":"方家窑","lon":"121.23364","lat":"31.15323","category":"38","category_name":"公交车站","address":""},{"poiid":"B2094757D66CAAFC4299","title":"Italsofa","lon":"121.22661","lat":"31.1594","category":"500","category_name":"未知分类","address":"青浦区赵巷镇嘉松中路5369号吉盛伟邦国际家具村A3-106"},{"poiid":"B2094757D66EA2F44193","title":"金葫芦十二区","lon":"121.22368126","lat":"31.1615786706","category":"47","category_name":"住宅区","address":"上海青浦区赵巷镇"},{"poiid":"B2094757D06EAAFE479D","title":"星巴克(赵巷店)","lon":"121.227365","lat":"31.156241","category":"65","category_name":"咖啡厅","address":"青浦区沪青平公路2888号奥特莱斯B区101室(沪青平公路嘉松中路)"},{"poiid":"B2094655D36CA4FD4493","title":"奥特莱斯","lon":"121.22841","lat":"31.15331","category":"249","category_name":"购物服务","address":"青浦区沪青平公路2888号(嘉松中路5555号)"},{"poiid":"B2094654DA6BABFE409D","title":"上海奥特莱斯品牌直销广场","lon":"121.22722","lat":"31.15367","category":"248","category_name":"生活娱乐","address":"上海市青浦区嘉松中路附近"},{"poiid":"B2094757D068AAF5419B","title":"哈根达斯(奥特莱斯店)","lon":"121.22758","lat":"31.15359","category":"113","category_name":"冷饮店","address":"青浦区沪青平公路2888号奥特莱斯B181商铺(近嘉松中路)"},{"poiid":"B2094655D265A7F4489A","title":"奥特莱斯青浦店","lon":"121.21584","lat":"31.15184","category":"141","category_name":"服装鞋帽皮具店","address":"沪青平公路2888号"},{"poiid":"B2094654DA6BABFE4399","title":"上海奥特莱斯品牌直销广场有限公司","lon":"121.22695","lat":"31.15676","category":"263","category_name":"公司","address":"上海市青浦区嘉松中路附近"},{"poiid":"B2094757DA64A1FE429E","title":"米格天地","lon":"121.227844","lat":"31.149844","category":"637","category_name":"房地产类公司","address":"青浦区嘉松中路5999弄（G50高速赵巷出口）"},{"poiid":"B2094654DA6BABFE4093","title":"吉盛伟邦绿地国际家具村","lon":"121.2264","lat":"31.1594","category":"123","category_name":"家具建材市场","address":"青浦区赵巷镇嘉松中路5369号"},{"poiid":"B2094757D06FA7FE409A","title":"避风塘(青浦店)","lon":"121.22686","lat":"31.14628","category":"111","category_name":"休闲餐饮场所","address":"青浦区沪青平公路2888号奥特莱斯C区4楼419号商铺(近嘉松中路)"},{"poiid":"B2094757D06FA6FB479B","title":"甜蜜蜜(青浦店)","lon":"121.22873","lat":"31.1572","category":"67","category_name":"甜品店","address":"青浦区沪青平公路奥特莱斯品牌直销广场B区(嘉松中路口)"},{"poiid":"B2094757D065AAF84399","title":"BURBERRY Outlets","lon":"121.22810856","lat":"31.156409862","category":"141","category_name":"服装鞋帽皮具店","address":"上海青浦奥特莱斯"},{"poiid":"B2094757D16FA5FC439B","title":"小杨生煎(青浦奥特莱斯店)","lon":"121.22584556","lat":"31.1545468234","category":"87","category_name":"特色／地方风味餐厅","address":"青浦区沪青平公路2888号奥特莱斯C区4楼"},{"poiid":"B2094751D368A7FC469D","title":"人然合一现代农业生态园","lon":"121.21682","lat":"31.152","category":"76","category_name":"上海菜","address":"青浦区赵巷镇沪青平公路3098号(近318国道)"},{"poiid":"B2094757D069A5FC449A","title":"Coach(奥特莱斯店)","lon":"121.22728","lat":"31.154269","category":"141","category_name":"服装鞋帽皮具店","address":"青浦区沪青平公路2888号奥特莱斯B107"},{"poiid":"B2094757D16BA1FE4892","title":"元祖公司","lon":"121.22762056","lat":"31.152236775","category":"263","category_name":"公司","address":"上海嘉松中路6088号"},{"poiid":"B2094757D06BA0F84598","title":"I.T(奥特莱斯店)","lon":"121.22838256","lat":"31.1558548508","category":"141","category_name":"服装鞋帽皮具店","address":"青浦区沪青平公路2888号奥特莱斯B105室(沪青平公路嘉松中路)"},{"poiid":"B2094751D36FA3F54999","title":"爱茜茜里意大利手工冰淇淋(奥特莱斯店)","lon":"121.22736","lat":"31.15624","category":"113","category_name":"冷饮店","address":"青浦区沪青平公路2888号奥特莱斯(沪青平公路嘉松中路)"},{"poiid":"B2094757D165A7F4439F","title":"爱茜茜里iceason","lon":"121.22802056","lat":"31.156384861","category":"247","category_name":"餐饮美食","address":"上海市青浦区嘉松中路奥特莱斯B区"},{"poiid":"B2094751D56DA7FC499B","title":"麦当劳(奥特莱斯店)","lon":"121.22731","lat":"31.15385","category":"68","category_name":"快餐厅","address":"青浦区嘉松中路5555号奥特莱斯C区二楼215号铺(近沪青平公路)"},{"poiid":"B2094757D06FA6F84393","title":"G2京沪G42沪蓉高速嘉松公路收费站","lon":"121.229527","lat":"31.148911","category":"267","category_name":"收费站","address":"上海G2京沪G42沪蓉高速嘉松公路收费站"},{"poiid":"B2094757D06AA6FE499C","title":"奥特莱斯 Polo RalphLauren","lon":"121.2280735","lat":"31.1556442264","category":"500","category_name":"未知分类","address":"上海B102"},{"poiid":"B2094750DA6FA2FA479A","title":"米格天地 MEGA MILLS","lon":"121.22863","lat":"31.154169","category":"500","category_name":"未知分类","address":"嘉松中路5559弄"},{"poiid":"B2094757D06BAAFE459F","title":"绿野农家乐","lon":"121.2261219","lat":"31.1632315952","category":"250","category_name":"公园户外","address":"上海嘉松公路上靠近松泽大道"},{"poiid":"B2094757D06BA6F44498","title":"Calvin Klein Jeans(奥特莱斯店)","lon":"121.22804","lat":"31.1558","category":"141","category_name":"服装鞋帽皮具店","address":"上海近郊青浦沪青平公路2888号奥特莱斯B175(近嘉松中路)  "},{"poiid":"B2094757D66BA7FD429A","title":"肯德基 沪青平店 KFC","lon":"121.227509054","lat":"31.153748793","category":"68","category_name":"快餐厅","address":"青浦区沪青平公路2888号C区213号(近奥特莱斯)"},{"poiid":"B2094757D164A4FD409E","title":"G50赵巷出口","lon":"121.23211756","lat":"31.149778723","category":"500","category_name":"未知分类","address":"上海青浦区赵巷"},{"poiid":"B2094757D169ABFB459A","title":"杰尼亚(青浦奥特莱斯店)","lon":"121.22779906","lat":"31.1567169688","category":"141","category_name":"服装鞋帽皮具店","address":"青浦区沪青平公路2888号奥特莱斯A111(沪青平公路嘉松中路)"},{"poiid":"B2094750D365A0F9479E","title":"青浦奥特莱斯","lon":"121.229751","lat":"31.156759","category":"249","category_name":"购物服务","address":null},{"poiid":"B2094654DA6BABFE4198","title":"NAUTICA","lon":"121.22737","lat":"31.15629","category":"141","category_name":"服装鞋帽皮具店","address":""},{"poiid":"B2094757D069A6F8409E","title":"吴越人家面馆（奥特莱斯店）","lon":"121.2326489","lat":"31.1556459644","category":"75","category_name":"浙江菜","address":"青浦区沪青平公路2888号奥特莱斯广场C214(近嘉松中路)"},{"poiid":"B2094757D66CA0FC479D","title":"宝大祥","lon":"121.22809756","lat":"31.1566238669","category":"500","category_name":"未知分类","address":"上海市青浦区嘉松中路"},{"poiid":"B2094757D16FA5FE449D","title":"DKNY(奥特莱斯店)","lon":"121.22749028","lat":"31.157307142","category":"141","category_name":"服装鞋帽皮具店","address":"青浦区沪青平公路2888号奥特莱斯(沪青平公路嘉松中路)"},{"poiid":"B2094757D069AAFC439F","title":"Nike工厂店(青浦二店)","lon":"121.22819","lat":"31.15746","category":"140","category_name":"体育用品店","address":"上海近郊青浦区嘉松中路5555号奥特莱斯C210号(近沪青平公路)"},{"poiid":"B2094757D465A7FE4593","title":"永和大王 徐泾店","lon":"121.226577054","lat":"31.153854793","category":"68","category_name":"快餐厅","address":"青浦区沪青平公路2888号C110(近嘉松中路)"},{"poiid":"B2094757D165ABF5449B","title":"Vans(奥特莱斯店)","lon":"121.227365","lat":"31.156241","category":"500","category_name":"未知分类","address":"上海青浦区沪青平公路2888号奥特莱斯B288室"},{"poiid":"B2094757D16DA5F8499B","title":"北竿山国际艺术中心","lon":"121.234","lat":"31.1471","category":"179","category_name":"音乐厅","address":"青浦区赵巷业辉路222弄(业辉路置达路)"},{"poiid":"B2094654DA6BABFE4299","title":"yamamay","lon":"121.22732","lat":"31.15771","category":"141","category_name":"服装鞋帽皮具店","address":""},{"poiid":"B2094757D164A0F94399","title":"Max Mara(奥特莱斯店)","lon":"121.22724686","lat":"31.1538829095","category":"141","category_name":"服装鞋帽皮具店","address":"上海近郊青浦沪青平公路2888号奥特莱斯  "},{"poiid":"B2094757D16FA5F54698","title":"Guess","lon":"121.227216","lat":"31.153672","category":"500","category_name":"未知分类","address":"上海奥特莱斯"},{"poiid":"B2094757D069A6FC459E","title":"阿迪达斯(青浦店)","lon":"121.22717256","lat":"31.1538606091","category":"140","category_name":"体育用品店","address":"青浦区沪青平公路2888号奥特莱斯B111号(近嘉松中路)"},{"poiid":"B2094752D164A7F9419C","title":"朱家角","lon":"121.227912","lat":"31.153373","category":"500","category_name":"未知分类","address":null},{"poiid":"B2094757D06AA2FC4292","title":"CAT(奥克莱斯店)","lon":"121.22748","lat":"31.15339","category":"140","category_name":"体育用品店","address":"上海近郊青浦区沪青平公路2888号奥克莱斯C区  "},{"poiid":"B2094655D264A4F94898","title":"G50嘉松中路收费站","lon":"121.22953","lat":"31.14891","category":"267","category_name":"收费站","address":""},{"poiid":"B2094654DB69A6FC4592","title":"恒联名人世家","lon":"121.228","lat":"31.1502","category":"47","category_name":"住宅区","address":"上海市杨浦区平凉路2691号"},{"poiid":"B2094753D36FA2FA439D","title":"太平洋咖啡（米格天地）","lon":"121.228573","lat":"31.152102","category":"500","category_name":"未知分类","address":"上海市 嘉松中路"},{"poiid":"B2094757D56EA6FD4298","title":"达芙妮-奥特莱斯二店","lon":"121.227581","lat":"31.153599","category":"249","category_name":"购物服务","address":"沪青平公路2888号B198"},{"poiid":"B2094654DB69A7FF499C","title":"御宫艺墅","lon":"121.22915","lat":"31.150449","category":"47","category_name":"住宅区","address":"上海市青浦区赵巷置发路138号"},{"poiid":"B2094655D36CA6F94093","title":"方家窑","lon":"121.23364","lat":"31.15323","category":"38","category_name":"公交车站","address":""},{"poiid":"B2094757D66CAAFC4299","title":"Italsofa","lon":"121.22661","lat":"31.1594","category":"500","category_name":"未知分类","address":"青浦区赵巷镇嘉松中路5369号吉盛伟邦国际家具村A3-106"},{"poiid":"B2094757D66EA2F44193","title":"金葫芦十二区","lon":"121.22368126","lat":"31.1615786706","category":"47","category_name":"住宅区","address":"上海青浦区赵巷镇"}]