[{"poiid":"B2094655D36CA7FD449D","title":"花木","lon":"121.54541","lat":"31.20232","category":"38","category_name":"公交车站","address":""},{"poiid":"B2094757D064A5F4439C","title":"东城新村","lon":"121.545023959","lat":"31.2015203635","category":"47","category_name":"住宅区","address":"上海市浦东新区锦绣路"},{"poiid":"B2094757D06FAAFC489A","title":"东昌别克上海陆家嘴店","lon":"121.5433428","lat":"31.2050985","category":"158","category_name":"汽车销售","address":"上海浦东新区浦建路1281-1285号"},{"poiid":"B2094757D06AA7FE429B","title":"金色港湾","lon":"121.542232682","lat":"31.2024024111","category":"76","category_name":"上海菜","address":"浦东新区东建路800号(近锦安东路)"},{"poiid":"B2094750D36BA5FC4499","title":"极乐汤碧云温泉馆","lon":"121.600574","lat":"31.250259","category":"250","category_name":"公园户外","address":"上海市新金桥路600号（靠近金藏路）"},{"poiid":"B2094655D26AA7FD4099","title":"格林豪泰酒店浦建路店","lon":"121.54429","lat":"31.20257","category":"247","category_name":"餐饮美食","address":"上海市浦东新区浦建路1352号（近东建路）"},{"poiid":"B2094654DA69A2F8499C","title":"上海大众汽车东昌销售服务有限公司","lon":"121.54382","lat":"31.20529","category":"158","category_name":"汽车销售","address":"浦东新区浦建路1289号(近樱花路)"},{"poiid":"B2094757D06AA5F44392","title":"上海东昌一汽丰田特约店","lon":"121.544039","lat":"31.204762","category":"500","category_name":"未知分类","address":"上海浦建路1317号"},{"poiid":"B2094757D064ABF5489F","title":"北京现代4s 东昌店","lon":"121.546502","lat":"31.202044","category":"500","category_name":"未知分类","address":"上海浦建路1509号"},{"poiid":"B2094757D069A0F4419F","title":"锦绣满堂花园","lon":"121.54043051","lat":"31.203865868","category":"500","category_name":"未知分类","address":"上海市浦东新区锦安东路88弄"},{"poiid":"B2094654DB69A6F9479E","title":"2335","lon":"121.54575","lat":"31.20163","category":"46","category_name":"楼宇","address":"杨浦区大学路33号"},{"poiid":"B2094655D268A3FC429B","title":"花木派出所","lon":"121.54245","lat":"31.20351","category":"609","category_name":"警察局","address":"浦建路1207"},{"poiid":"B2094757D164A1FB409E","title":"超级奶爸(花木店)","lon":"121.544778943","lat":"31.2033740356","category":"113","category_name":"冷饮店","address":"浦东新区东建路921号(近浦建路)"},{"poiid":"B2094752D269A2FD4298","title":"大饭堂","lon":"121.54233","lat":"31.205898","category":"247","category_name":"餐饮美食","address":"浦建路"},{"poiid":"B2094654DA68A4FD469D","title":"志豪公寓","lon":"121.54445","lat":"31.202225","category":"47","category_name":"住宅区","address":"志豪公寓位于浦东浦东浦建路1458号"},{"poiid":"B2094654DA69A2F94998","title":"花木中心小学","lon":"121.54914","lat":"31.20189","category":"56","category_name":"小学","address":"浦东新区杜鹃路152号(近龙阳路地铁站)"},{"poiid":"B2094757D469A5F9499A","title":"凯司令西点房 东建路店","lon":"121.5436339","lat":"31.2041368","category":"67","category_name":"甜品店","address":"浦东新区东建路927-2号(近浦建路)"},{"poiid":"B2094757D16BA1F4489E","title":"锦霞包子店","lon":"121.54368","lat":"31.2022","category":"68","category_name":"快餐厅","address":"浦东新区锦安东路242号(近菜市场)"},{"poiid":"B2094750D669A2FF409B","title":"大饭堂花木店","lon":"121.543617","lat":"31.206312","category":"76","category_name":"上海菜","address":"浦东新区浦建路1207号(近锦绣路)"},{"poiid":"B2094655D26BA0FD499A","title":"广泽裕","lon":"121.543161054","lat":"31.203554793","category":"67","category_name":"甜品店","address":"浦东新区锦安东路242号锦安菜市场内(近东城新村)"},{"poiid":"B2094655D26FABFC469D","title":"志豪公寓(边门)","lon":"121.54429","lat":"31.20242","category":"47","category_name":"住宅区","address":"浦建路1458弄1-4号"},{"poiid":"B2094752D36CA4F94198","title":"上海外滩","lon":"121.5427777","lat":"31.2041992","category":"500","category_name":"未知分类","address":null},{"poiid":"B2094655D268A6FE4392","title":"志豪公寓(侧门)","lon":"121.54409","lat":"31.20207","category":"47","category_name":"住宅区","address":""},{"poiid":"B2094757D66EA6FC469D","title":"香吧岛龙虾","lon":"121.54371","lat":"31.20256","category":"247","category_name":"餐饮美食","address":"上海浦东新区锦安东路(近花木车站)  "},{"poiid":"B2094757DA69A2FB4192","title":"永恒之塔游戏官博","lon":"121.54775","lat":"31.20623","category":"634","category_name":"IT类公司","address":"上海市碧波路690号"},{"poiid":"B2094750D16AA0FC4292","title":"嘉里城","lon":"121.547752","lat":"31.200065","category":"500","category_name":"未知分类","address":null},{"poiid":"B2094654DA68A4FD4898","title":"龙昌苑","lon":"121.54518","lat":"31.200457","category":"47","category_name":"住宅区","address":"上海市浦东新区浦建路1558号"},{"poiid":"B2094655D268A6F8489B","title":"锦绣前程阳光苑","lon":"121.54734","lat":"31.20098","category":"47","category_name":"住宅区","address":"上海市浦东新区杜鹃路58弄"},{"poiid":"B2094757D065A4FA4093","title":"香梅中学","lon":"121.54227","lat":"31.2026","category":"55","category_name":"中学","address":"浦东新区东建路785号(近锦安东路)"},{"poiid":"B2094757D068A5FD469C","title":"绍兴饭店(牡丹路店)","lon":"121.54452","lat":"31.20521","category":"75","category_name":"浙江菜","address":"上海浦东新区牡丹路60号(近浦建路)  "},{"poiid":"B2094751DB69A7FA459E","title":"紫竹国际大厦","lon":"121.543325","lat":"31.2019299","category":"500","category_name":"未知分类","address":"上海市浦东新区芳甸路1088号"},{"poiid":"B2094757D06BA5FE4398","title":"平安车险理赔中心","lon":"121.54679252","lat":"31.2012685081","category":"500","category_name":"未知分类","address":"上海浦东浦建路1539号"},{"poiid":"B2094757D065A7F5469D","title":"锦绣花木公寓","lon":"121.54377","lat":"31.203274","category":"500","category_name":"未知分类","address":"上海市浦东新区锦安东路219弄"},{"poiid":"B2094654DA68A4FD4593","title":"永琪美容美发(东建路)","lon":"121.54286","lat":"31.20394","category":"148","category_name":"美容美发店","address":"浦东新区东建路(锦安东路口)"},{"poiid":"B2094655D268A6F8489E","title":"杜鹃路55弄小区","lon":"121.54718","lat":"31.2026","category":"47","category_name":"住宅区","address":"杜鹃路55弄"},{"poiid":"B2094757D66CA1FC469E","title":"天使丽人按摩会所","lon":"121.54419","lat":"31.20171","category":"149","category_name":"洗浴推拿场所","address":"浦东新区锦安东路280弄"},{"poiid":"B2094757D16EA0F44592","title":"锦安东路排挡","lon":"121.54353","lat":"31.20252","category":"500","category_name":"未知分类","address":"上海浦东新区锦安东路(近锦安菜市场)  "},{"poiid":"B2094757D16CABF54792","title":"多凌茶楼","lon":"121.5445","lat":"31.20532","category":"72","category_name":"广东菜","address":"浦东新区牡丹路60号东辰大厦22楼(牡丹路浦建路)"},{"poiid":"B2094752D068A4FD4493","title":"龙阳路地铁站","lon":"121.545966","lat":"31.200537","category":"36","category_name":"地铁站","address":"上海市，浦东新区，白杨路"},{"poiid":"B2094654DB69A6FF489D","title":"玉兰大厦","lon":"121.54929","lat":"31.2035","category":"46","category_name":"楼宇","address":"静安区长寿路(万航渡路口)"},{"poiid":"B2094757D06AA7FA479D","title":"公交746牡丹路玉兰路站","lon":"121.546605138","lat":"31.2042067457","category":"38","category_name":"公交车站","address":"上海牡丹路玉兰路站（靠近克莉丝汀）"},{"poiid":"B2094655D26AA3F44392","title":"瀚意汽车修理服务中心","lon":"121.54236","lat":"31.20267","category":"247","category_name":"餐饮美食","address":"浦东新区东建路806号(东建路锦和路)"},{"poiid":"B2094655D26DA1FB4593","title":"锦绣花木公寓(南门)","lon":"121.54439","lat":"31.20258","category":"656","category_name":"大门","address":"锦安东路219弄1-11号"},{"poiid":"B2094757D165A2FA439B","title":"闸北分局三泉派出所","lon":"121.54615573","lat":"31.201891696","category":"609","category_name":"警察局","address":"上海市闸北区曲沃路460号"},{"poiid":"B2094757DA69A3F5499F","title":"卓美亚喜玛拉雅酒店","lon":"121.54775","lat":"31.20623","category":"604","category_name":"旅游咨询","address":"梅花路1108号(近芳甸路)"},{"poiid":"B2094757D568AAFB459A","title":"联华","lon":"121.547164","lat":"31.201656","category":"118","category_name":"超级市场","address":"杜鹃路52"},{"poiid":"B2094757D465A1FD4393","title":"异乡口福","lon":"121.54787753928","lat":"31.199054122061","category":"247","category_name":"餐饮美食","address":"浦东新区龙汇路346号(近白杨路)"},{"poiid":"B2094750DB6DA1F5429C","title":"海上国际影城","lon":"121.54376","lat":"31.199733","category":"178","category_name":"电影院","address":"芳甸路"},{"poiid":"B2094757D168ABFD459E","title":"欢庆「六.一」","lon":"121.54604473","lat":"31.201444686","category":"500","category_name":"未知分类","address":null},{"poiid":"B2094757D064AAFA4698","title":"迪亚天天(锦安东路店)","lon":"121.54341","lat":"31.20238","category":"249","category_name":"购物服务","address":"浦东新区锦安东路232号(近锦绣路)"},{"poiid":"B2094655D36CA7FD449D","title":"花木","lon":"121.54541","lat":"31.20232","category":"38","category_name":"公交车站","address":""},{"poiid":"B2094757D064A5F4439C","title":"东城新村","lon":"121.545023959","lat":"31.2015203635","category":"47","category_name":"住宅区","address":"上海市浦东新区锦绣路"},{"poiid":"B2094757D06FAAFC489A","title":"东昌别克上海陆家嘴店","lon":"121.5433428","lat":"31.2050985","category":"158","category_name":"汽车销售","address":"上海浦东新区浦建路1281-1285号"},{"poiid":"B2094757D06AA7FE429B","title":"金色港湾","lon":"121.542232682","lat":"31.2024024111","category":"76","category_name":"上海菜","address":"浦东新区东建路800号(近锦安东路)"},{"poiid":"B2094750D36BA5FC4499","title":"极乐汤碧云温泉馆","lon":"121.600574","lat":"31.250259","category":"250","category_name":"公园户外","address":"上海市新金桥路600号（靠近金藏路）"},{"poiid":"B2094655D26AA7FD4099","title":"格林豪泰酒店浦建路店","lon":"121.54429","lat":"31.20257","category":"247","category_name":"餐饮美食","address":"上海市浦东新区浦建路1352号（近东建路）"},{"poiid":"B2094654DA69A2F8499C","title":"上海大众汽车东昌销售服务有限公司","lon":"121.54382","lat":"31.20529","category":"158","category_name":"汽车销售","address":"浦东新区浦建路1289号(近樱花路)"},{"poiid":"B2094757D06AA5F44392","title":"上海东昌一汽丰田特约店","lon":"121.544039","lat":"31.204762","category":"500","category_name":"未知分类","address":"上海浦建路1317号"},{"poiid":"B2094757D064ABF5489F","title":"北京现代4s 东昌店","lon":"121.546502","lat":"31.202044","category":"500","category_name":"未知分类","address":"上海浦建路1509号"},{"poiid":"B2094757D069A0F4419F","title":"锦绣满堂花园","lon":"121.54043051","lat":"31.203865868","category":"500","category_name":"未知分类","address":"上海市浦东新区锦安东路88弄"},{"poiid":"B2094654DB69A6F9479E","title":"2335","lon":"121.54575","lat":"31.20163","category":"46","category_name":"楼宇","address":"杨浦区大学路33号"},{"poiid":"B2094655D268A3FC429B","title":"花木派出所","lon":"121.54245","lat":"31.20351","category":"609","category_name":"警察局","address":"浦建路1207"},{"poiid":"B2094757D164A1FB409E","title":"超级奶爸(花木店)","lon":"121.544778943","lat":"31.2033740356","category":"113","category_name":"冷饮店","address":"浦东新区东建路921号(近浦建路)"},{"poiid":"B2094752D269A2FD4298","title":"大饭堂","lon":"121.54233","lat":"31.205898","category":"247","category_name":"餐饮美食","address":"浦建路"},{"poiid":"B2094654DA68A4FD469D","title":"志豪公寓","lon":"121.54445","lat":"31.202225","category":"47","category_name":"住宅区","address":"志豪公寓位于浦东浦东浦建路1458号"},{"poiid":"B2094654DA69A2F94998","title":"花木中心小学","lon":"121.54914","lat":"31.20189","category":"56","category_name":"小学","address":"浦东新区杜鹃路152号(近龙阳路地铁站)"},{"poiid":"B2094757D469A5F9499A","title":"凯司令西点房 东建路店","lon":"121.5436339","lat":"31.2041368","category":"67","category_name":"甜品店","address":"浦东新区东建路927-2号(近浦建路)"},{"poiid":"B2094757D16BA1F4489E","title":"锦霞包子店","lon":"121.54368","lat":"31.2022","category":"68","category_name":"快餐厅","address":"浦东新区锦安东路242号(近菜市场)"},{"poiid":"B2094750D669A2FF409B","title":"大饭堂花木店","lon":"121.543617","lat":"31.206312","category":"76","category_name":"上海菜","address":"浦东新区浦建路1207号(近锦绣路)"},{"poiid":"B2094655D26BA0FD499A","title":"广泽裕","lon":"121.543161054","lat":"31.203554793","category":"67","category_name":"甜品店","address":"浦东新区锦安东路242号锦安菜市场内(近东城新村)"},{"poiid":"B2094655D26FABFC469D","title":"志豪公寓(边门)","lon":"121.54429","lat":"31.20242","category":"47","category_name":"住宅区","address":"浦建路1458弄1-4号"},{"poiid":"B2094752D36CA4F94198","title":"上海外滩","lon":"121.5427777","lat":"31.2041992","category":"500","category_name":"未知分类","address":null},{"poiid":"B2094655D268A6FE4392","title":"志豪公寓(侧门)","lon":"121.54409","lat":"31.20207","category":"47","category_name":"住宅区","address":""},{"poiid":"B2094757D66EA6FC469D","title":"香吧岛龙虾","lon":"121.54371","lat":"31.20256","category":"247","category_name":"餐饮美食","address":"上海浦东新区锦安东路(近花木车站)  "},{"poiid":"B2094757DA69A2FB4192","title":"永恒之塔游戏官博","lon":"121.54775","lat":"31.20623","category":"634","category_name":"IT类公司","address":"上海市碧波路690号"},{"poiid":"B2094750D16AA0FC4292","title":"嘉里城","lon":"121.547752","lat":"31.200065","category":"500","category_name":"未知分类","address":null},{"poiid":"B2094654DA68A4FD4898","title":"龙昌苑","lon":"121.54518","lat":"31.200457","category":"47","category_name":"住宅区","address":"上海市浦东新区浦建路1558号"},{"poiid":"B2094655D268A6F8489B","title":"锦绣前程阳光苑","lon":"121.54734","lat":"31.20098","category":"47","category_name":"住宅区","address":"上海市浦东新区杜鹃路58弄"},{"poiid":"B2094757D065A4FA4093","title":"香梅中学","lon":"121.54227","lat":"31.2026","category":"55","category_name":"中学","address":"浦东新区东建路785号(近锦安东路)"},{"poiid":"B2094757D068A5FD469C","title":"绍兴饭店(牡丹路店)","lon":"121.54452","lat":"31.20521","category":"75","category_name":"浙江菜","address":"上海浦东新区牡丹路60号(近浦建路)  "},{"poiid":"B2094751DB69A7FA459E","title":"紫竹国际大厦","lon":"121.543325","lat":"31.2019299","category":"500","category_name":"未知分类","address":"上海市浦东新区芳甸路1088号"},{"poiid":"B2094757D06BA5FE4398","title":"平安车险理赔中心","lon":"121.54679252","lat":"31.2012685081","category":"500","category_name":"未知分类","address":"上海浦东浦建路1539号"},{"poiid":"B2094757D065A7F5469D","title":"锦绣花木公寓","lon":"121.54377","lat":"31.203274","category":"500","category_name":"未知分类","address":"上海市浦东新区锦安东路219弄"},{"poiid":"B2094654DA68A4FD4593","title":"永琪美容美发(东建路)","lon":"121.54286","lat":"31.20394","category":"148","category_name":"美容美发店","address":"浦东新区东建路(锦安东路口)"},{"poiid":"B2094655D268A6F8489E","title":"杜鹃路55弄小区","lon":"121.54718","lat":"31.2026","category":"47","category_name":"住宅区","address":"杜鹃路55弄"},{"poiid":"B2094757D66CA1FC469E","title":"天使丽人按摩会所","lon":"121.54419","lat":"31.20171","category":"149","category_name":"洗浴推拿场所","address":"浦东新区锦安东路280弄"},{"poiid":"B2094757D16EA0F44592","title":"锦安东路排挡","lon":"121.54353","lat":"31.20252","category":"500","category_name":"未知分类","address":"上海浦东新区锦安东路(近锦安菜市场)  "},{"poiid":"B2094757D16CABF54792","title":"多凌茶楼","lon":"121.5445","lat":"31.20532","category":"72","category_name":"广东菜","address":"浦东新区牡丹路60号东辰大厦22楼(牡丹路浦建路)"},{"poiid":"B2094752D068A4FD4493","title":"龙阳路地铁站","lon":"121.545966","lat":"31.200537","category":"36","category_name":"地铁站","address":"上海市，浦东新区，白杨路"},{"poiid":"B2094654DB69A6FF489D","title":"玉兰大厦","lon":"121.54929","lat":"31.2035","category":"46","category_name":"楼宇","address":"静安区长寿路(万航渡路口)"},{"poiid":"B2094757D06AA7FA479D","title":"公交746牡丹路玉兰路站","lon":"121.546605138","lat":"31.2042067457","category":"38","category_name":"公交车站","address":"上海牡丹路玉兰路站（靠近克莉丝汀）"},{"poiid":"B2094655D26AA3F44392","title":"瀚意汽车修理服务中心","lon":"121.54236","lat":"31.20267","category":"247","category_name":"餐饮美食","address":"浦东新区东建路806号(东建路锦和路)"},{"poiid":"B2094655D26DA1FB4593","title":"锦绣花木公寓(南门)","lon":"121.54439","lat":"31.20258","category":"656","category_name":"大门","address":"锦安东路219弄1-11号"},{"poiid":"B2094757D165A2FA439B","title":"闸北分局三泉派出所","lon":"121.54615573","lat":"31.201891696","category":"609","category_name":"警察局","address":"上海市闸北区曲沃路460号"},{"poiid":"B2094757DA69A3F5499F","title":"卓美亚喜玛拉雅酒店","lon":"121.54775","lat":"31.20623","category":"604","category_name":"旅游咨询","address":"梅花路1108号(近芳甸路)"},{"poiid":"B2094757D568AAFB459A","title":"联华","lon":"121.547164","lat":"31.201656","category":"118","category_name":"超级市场","address":"杜鹃路52"},{"poiid":"B2094757D465A1FD4393","title":"异乡口福","lon":"121.54787753928","lat":"31.199054122061","category":"247","category_name":"餐饮美食","address":"浦东新区龙汇路346号(近白杨路)"},{"poiid":"B2094750DB6DA1F5429C","title":"海上国际影城","lon":"121.54376","lat":"31.199733","category":"178","category_name":"电影院","address":"芳甸路"},{"poiid":"B2094757D168ABFD459E","title":"欢庆「六.一」","lon":"121.54604473","lat":"31.201444686","category":"500","category_name":"未知分类","address":null},{"poiid":"B2094757D064AAFA4698","title":"迪亚天天(锦安东路店)","lon":"121.54341","lat":"31.20238","category":"249","category_name":"购物服务","address":"浦东新区锦安东路232号(近锦绣路)"},{"poiid":"B2094655D36CA7FD449D","title":"花木","lon":"121.54541","lat":"31.20232","category":"38","category_name":"公交车站","address":""},{"poiid":"B2094757D064A5F4439C","title":"东城新村","lon":"121.545023959","lat":"31.2015203635","category":"47","category_name":"住宅区","address":"上海市浦东新区锦绣路"},{"poiid":"B2094757D06FAAFC489A","title":"东昌别克上海陆家嘴店","lon":"121.5433428","lat":"31.2050985","category":"158","category_name":"汽车销售","address":"上海浦东新区浦建路1281-1285号"},{"poiid":"B2094757D06AA7FE429B","title":"金色港湾","lon":"121.542232682","lat":"31.2024024111","category":"76","category_name":"上海菜","address":"浦东新区东建路800号(近锦安东路)"},{"poiid":"B2094750D36BA5FC4499","title":"极乐汤碧云温泉馆","lon":"121.600574","lat":"31.250259","category":"250","category_name":"公园户外","address":"上海市新金桥路600号（靠近金藏路）"},{"poiid":"B2094655D26AA7FD4099","title":"格林豪泰酒店浦建路店","lon":"121.54429","lat":"31.20257","category":"247","category_name":"餐饮美食","address":"上海市浦东新区浦建路1352号（近东建路）"},{"poiid":"B2094654DA69A2F8499C","title":"上海大众汽车东昌销售服务有限公司","lon":"121.54382","lat":"31.20529","category":"158","category_name":"汽车销售","address":"浦东新区浦建路1289号(近樱花路)"},{"poiid":"B2094757D06AA5F44392","title":"上海东昌一汽丰田特约店","lon":"121.544039","lat":"31.204762","category":"500","category_name":"未知分类","address":"上海浦建路1317号"},{"poiid":"B2094757D064ABF5489F","title":"北京现代4s 东昌店","lon":"121.546502","lat":"31.202044","category":"500","category_name":"未知分类","address":"上海浦建路1509号"},{"poiid":"B2094757D069A0F4419F","title":"锦绣满堂花园","lon":"121.54043051","lat":"31.203865868","category":"500","category_name":"未知分类","address":"上海市浦东新区锦安东路88弄"},{"poiid":"B2094654DB69A6F9479E","title":"2335","lon":"121.54575","lat":"31.20163","category":"46","category_name":"楼宇","address":"杨浦区大学路33号"},{"poiid":"B2094655D268A3FC429B","title":"花木派出所","lon":"121.54245","lat":"31.20351","category":"609","category_name":"警察局","address":"浦建路1207"},{"poiid":"B2094757D164A1FB409E","title":"超级奶爸(花木店)","lon":"121.544778943","lat":"31.2033740356","category":"113","category_name":"冷饮店","address":"浦东新区东建路921号(近浦建路)"},{"poiid":"B2094752D269A2FD4298","title":"大饭堂","lon":"121.54233","lat":"31.205898","category":"247","category_name":"餐饮美食","address":"浦建路"},{"poiid":"B2094654DA68A4FD469D","title":"志豪公寓","lon":"121.54445","lat":"31.202225","category":"47","category_name":"住宅区","address":"志豪公寓位于浦东浦东浦建路1458号"},{"poiid":"B2094654DA69A2F94998","title":"花木中心小学","lon":"121.54914","lat":"31.20189","category":"56","category_name":"小学","address":"浦东新区杜鹃路152号(近龙阳路地铁站)"},{"poiid":"B2094757D469A5F9499A","title":"凯司令西点房 东建路店","lon":"121.5436339","lat":"31.2041368","category":"67","category_name":"甜品店","address":"浦东新区东建路927-2号(近浦建路)"},{"poiid":"B2094757D16BA1F4489E","title":"锦霞包子店","lon":"121.54368","lat":"31.2022","category":"68","category_name":"快餐厅","address":"浦东新区锦安东路242号(近菜市场)"},{"poiid":"B2094750D669A2FF409B","title":"大饭堂花木店","lon":"121.543617","lat":"31.206312","category":"76","category_name":"上海菜","address":"浦东新区浦建路1207号(近锦绣路)"},{"poiid":"B2094655D26BA0FD499A","title":"广泽裕","lon":"121.543161054","lat":"31.203554793","category":"67","category_name":"甜品店","address":"浦东新区锦安东路242号锦安菜市场内(近东城新村)"},{"poiid":"B2094655D26FABFC469D","title":"志豪公寓(边门)","lon":"121.54429","lat":"31.20242","category":"47","category_name":"住宅区","address":"浦建路1458弄1-4号"},{"poiid":"B2094752D36CA4F94198","title":"上海外滩","lon":"121.5427777","lat":"31.2041992","category":"500","category_name":"未知分类","address":null},{"poiid":"B2094655D268A6FE4392","title":"志豪公寓(侧门)","lon":"121.54409","lat":"31.20207","category":"47","category_name":"住宅区","address":""},{"poiid":"B2094757D66EA6FC469D","title":"香吧岛龙虾","lon":"121.54371","lat":"31.20256","category":"247","category_name":"餐饮美食","address":"上海浦东新区锦安东路(近花木车站)  "},{"poiid":"B2094757DA69A2FB4192","title":"永恒之塔游戏官博","lon":"121.54775","lat":"31.20623","category":"634","category_name":"IT类公司","address":"上海市碧波路690号"},{"poiid":"B2094750D16AA0FC4292","title":"嘉里城","lon":"121.547752","lat":"31.200065","category":"500","category_name":"未知分类","address":null},{"poiid":"B2094654DA68A4FD4898","title":"龙昌苑","lon":"121.54518","lat":"31.200457","category":"47","category_name":"住宅区","address":"上海市浦东新区浦建路1558号"},{"poiid":"B2094655D268A6F8489B","title":"锦绣前程阳光苑","lon":"121.54734","lat":"31.20098","category":"47","category_name":"住宅区","address":"上海市浦东新区杜鹃路58弄"},{"poiid":"B2094757D065A4FA4093","title":"香梅中学","lon":"121.54227","lat":"31.2026","category":"55","category_name":"中学","address":"浦东新区东建路785号(近锦安东路)"},{"poiid":"B2094757D068A5FD469C","title":"绍兴饭店(牡丹路店)","lon":"121.54452","lat":"31.20521","category":"75","category_name":"浙江菜","address":"上海浦东新区牡丹路60号(近浦建路)  "},{"poiid":"B2094751DB69A7FA459E","title":"紫竹国际大厦","lon":"121.543325","lat":"31.2019299","category":"500","category_name":"未知分类","address":"上海市浦东新区芳甸路1088号"},{"poiid":"B2094757D06BA5FE4398","title":"平安车险理赔中心","lon":"121.54679252","lat":"31.2012685081","category":"500","category_name":"未知分类","address":"上海浦东浦建路1539号"},{"poiid":"B2094757D065A7F5469D","title":"锦绣花木公寓","lon":"121.54377","lat":"31.203274","category":"500","category_name":"未知分类","address":"上海市浦东新区锦安东路219弄"},{"poiid":"B2094654DA68A4FD4593","title":"永琪美容美发(东建路)","lon":"121.54286","lat":"31.20394","category":"148","category_name":"美容美发店","address":"浦东新区东建路(锦安东路口)"},{"poiid":"B2094655D268A6F8489E","title":"杜鹃路55弄小区","lon":"121.54718","lat":"31.2026","category":"47","category_name":"住宅区","address":"杜鹃路55弄"},{"poiid":"B2094757D66CA1FC469E","title":"天使丽人按摩会所","lon":"121.54419","lat":"31.20171","category":"149","category_name":"洗浴推拿场所","address":"浦东新区锦安东路280弄"},{"poiid":"B2094757D16EA0F44592","title":"锦安东路排挡","lon":"121.54353","lat":"31.20252","category":"500","category_name":"未知分类","address":"上海浦东新区锦安东路(近锦安菜市场)  "},{"poiid":"B2094757D16CABF54792","title":"多凌茶楼","lon":"121.5445","lat":"31.20532","category":"72","category_name":"广东菜","address":"浦东新区牡丹路60号东辰大厦22楼(牡丹路浦建路)"},{"poiid":"B2094752D068A4FD4493","title":"龙阳路地铁站","lon":"121.545966","lat":"31.200537","category":"36","category_name":"地铁站","address":"上海市，浦东新区，白杨路"},{"poiid":"B2094654DB69A6FF489D","title":"玉兰大厦","lon":"121.54929","lat":"31.2035","category":"46","category_name":"楼宇","address":"静安区长寿路(万航渡路口)"},{"poiid":"B2094757D06AA7FA479D","title":"公交746牡丹路玉兰路站","lon":"121.546605138","lat":"31.2042067457","category":"38","category_name":"公交车站","address":"上海牡丹路玉兰路站（靠近克莉丝汀）"},{"poiid":"B2094655D26AA3F44392","title":"瀚意汽车修理服务中心","lon":"121.54236","lat":"31.20267","category":"247","category_name":"餐饮美食","address":"浦东新区东建路806号(东建路锦和路)"},{"poiid":"B2094655D26DA1FB4593","title":"锦绣花木公寓(南门)","lon":"121.54439","lat":"31.20258","category":"656","category_name":"大门","address":"锦安东路219弄1-11号"},{"poiid":"B2094757D165A2FA439B","title":"闸北分局三泉派出所","lon":"121.54615573","lat":"31.201891696","category":"609","category_name":"警察局","address":"上海市闸北区曲沃路460号"},{"poiid":"B2094757DA69A3F5499F","title":"卓美亚喜玛拉雅酒店","lon":"121.54775","lat":"31.20623","category":"604","category_name":"旅游咨询","address":"梅花路1108号(近芳甸路)"},{"poiid":"B2094757D568AAFB459A","title":"联华","lon":"121.547164","lat":"31.201656","category":"118","category_name":"超级市场","address":"杜鹃路52"},{"poiid":"B2094757D465A1FD4393","title":"异乡口福","lon":"121.54787753928","lat":"31.199054122061","category":"247","category_name":"餐饮美食","address":"浦东新区龙汇路346号(近白杨路)"},{"poiid":"B2094750DB6DA1F5429C","title":"海上国际影城","lon":"121.54376","lat":"31.199733","category":"178","category_name":"电影院","address":"芳甸路"},{"poiid":"B2094757D168ABFD459E","title":"欢庆「六.一」","lon":"121.54604473","lat":"31.201444686","category":"500","category_name":"未知分类","address":null},{"poiid":"B2094757D064AAFA4698","title":"迪亚天天(锦安东路店)","lon":"121.54341","lat":"31.20238","category":"249","category_name":"购物服务","address":"浦东新区锦安东路232号(近锦绣路)"},{"poiid":"B2094655D36CA7FD449D","title":"花木","lon":"121.54541","lat":"31.20232","category":"38","category_name":"公交车站","address":""},{"poiid":"B2094757D064A5F4439C","title":"东城新村","lon":"121.545023959","lat":"31.2015203635","category":"47","category_name":"住宅区","address":"上海市浦东新区锦绣路"},{"poiid":"B2094757D06FAAFC489A","title":"东昌别克上海陆家嘴店","lon":"121.5433428","lat":"31.2050985","category":"158","category_name":"汽车销售","address":"上海浦东新区浦建路1281-1285号"},{"poiid":"B2094757D06AA7FE429B","title":"金色港湾","lon":"121.542232682","lat":"31.2024024111","category":"76","category_name":"上海菜","address":"浦东新区东建路800号(近锦安东路)"},{"poiid":"B2094750D36BA5FC4499","title":"极乐汤碧云温泉馆","lon":"121.600574","lat":"31.250259","category":"250","category_name":"公园户外","address":"上海市新金桥路600号（靠近金藏路）"},{"poiid":"B2094655D26AA7FD4099","title":"格林豪泰酒店浦建路店","lon":"121.54429","lat":"31.20257","category":"247","category_name":"餐饮美食","address":"上海市浦东新区浦建路1352号（近东建路）"},{"poiid":"B2094654DA69A2F8499C","title":"上海大众汽车东昌销售服务有限公司","lon":"121.54382","lat":"31.20529","category":"158","category_name":"汽车销售","address":"浦东新区浦建路1289号(近樱花路)"},{"poiid":"B2094757D06AA5F44392","title":"上海东昌一汽丰田特约店","lon":"121.544039","lat":"31.204762","category":"500","category_name":"未知分类","address":"上海浦建路1317号"},{"poiid":"B2094757D064ABF5489F","title":"北京现代4s 东昌店","lon":"121.546502","lat":"31.202044","category":"500","category_name":"未知分类","address":"上海浦建路1509号"},{"poiid":"B2094757D069A0F4419F","title":"锦绣满堂花园","lon":"121.54043051","lat":"31.203865868","category":"500","category_name":"未知分类","address":"上海市浦东新区锦安东路88弄"},{"poiid":"B2094654DB69A6F9479E","title":"2335","lon":"121.54575","lat":"31.20163","category":"46","category_name":"楼宇","address":"杨浦区大学路33号"},{"poiid":"B2094655D268A3FC429B","title":"花木派出所","lon":"121.54245","lat":"31.20351","category":"609","category_name":"警察局","address":"浦建路1207"},{"poiid":"B2094757D164A1FB409E","title":"超级奶爸(花木店)","lon":"121.544778943","lat":"31.2033740356","category":"113","category_name":"冷饮店","address":"浦东新区东建路921号(近浦建路)"},{"poiid":"B2094752D269A2FD4298","title":"大饭堂","lon":"121.54233","lat":"31.205898","category":"247","category_name":"餐饮美食","address":"浦建路"},{"poiid":"B2094654DA68A4FD469D","title":"志豪公寓","lon":"121.54445","lat":"31.202225","category":"47","category_name":"住宅区","address":"志豪公寓位于浦东浦东浦建路1458号"},{"poiid":"B2094654DA69A2F94998","title":"花木中心小学","lon":"121.54914","lat":"31.20189","category":"56","category_name":"小学","address":"浦东新区杜鹃路152号(近龙阳路地铁站)"},{"poiid":"B2094757D469A5F9499A","title":"凯司令西点房 东建路店","lon":"121.5436339","lat":"31.2041368","category":"67","category_name":"甜品店","address":"浦东新区东建路927-2号(近浦建路)"},{"poiid":"B2094757D16BA1F4489E","title":"锦霞包子店","lon":"121.54368","lat":"31.2022","category":"68","category_name":"快餐厅","address":"浦东新区锦安东路242号(近菜市场)"},{"poiid":"B2094750D669A2FF409B","title":"大饭堂花木店","lon":"121.543617","lat":"31.206312","category":"76","category_name":"上海菜","address":"浦东新区浦建路1207号(近锦绣路)"},{"poiid":"B2094655D26BA0FD499A","title":"广泽裕","lon":"121.543161054","lat":"31.203554793","category":"67","category_name":"甜品店","address":"浦东新区锦安东路242号锦安菜市场内(近东城新村)"},{"poiid":"B2094655D26FABFC469D","title":"志豪公寓(边门)","lon":"121.54429","lat":"31.20242","category":"47","category_name":"住宅区","address":"浦建路1458弄1-4号"},{"poiid":"B2094752D36CA4F94198","title":"上海外滩","lon":"121.5427777","lat":"31.2041992","category":"500","category_name":"未知分类","address":null},{"poiid":"B2094655D268A6FE4392","title":"志豪公寓(侧门)","lon":"121.54409","lat":"31.20207","category":"47","category_name":"住宅区","address":""},{"poiid":"B2094757D66EA6FC469D","title":"香吧岛龙虾","lon":"121.54371","lat":"31.20256","category":"247","category_name":"餐饮美食","address":"上海浦东新区锦安东路(近花木车站)  "},{"poiid":"B2094757DA69A2FB4192","title":"永恒之塔游戏官博","lon":"121.54775","lat":"31.20623","category":"634","category_name":"IT类公司","address":"上海市碧波路690号"},{"poiid":"B2094750D16AA0FC4292","title":"嘉里城","lon":"121.547752","lat":"31.200065","category":"500","category_name":"未知分类","address":null},{"poiid":"B2094654DA68A4FD4898","title":"龙昌苑","lon":"121.54518","lat":"31.200457","category":"47","category_name":"住宅区","address":"上海市浦东新区浦建路1558号"},{"poiid":"B2094655D268A6F8489B","title":"锦绣前程阳光苑","lon":"121.54734","lat":"31.20098","category":"47","category_name":"住宅区","address":"上海市浦东新区杜鹃路58弄"},{"poiid":"B2094757D065A4FA4093","title":"香梅中学","lon":"121.54227","lat":"31.2026","category":"55","category_name":"中学","address":"浦东新区东建路785号(近锦安东路)"},{"poiid":"B2094757D068A5FD469C","title":"绍兴饭店(牡丹路店)","lon":"121.54452","lat":"31.20521","category":"75","category_name":"浙江菜","address":"上海浦东新区牡丹路60号(近浦建路)  "},{"poiid":"B2094751DB69A7FA459E","title":"紫竹国际大厦","lon":"121.543325","lat":"31.2019299","category":"500","category_name":"未知分类","address":"上海市浦东新区芳甸路1088号"},{"poiid":"B2094757D06BA5FE4398","title":"平安车险理赔中心","lon":"121.54679252","lat":"31.2012685081","category":"500","category_name":"未知分类","address":"上海浦东浦建路1539号"},{"poiid":"B2094757D065A7F5469D","title":"锦绣花木公寓","lon":"121.54377","lat":"31.203274","category":"500","category_name":"未知分类","address":"上海市浦东新区锦安东路219弄"},{"poiid":"B2094654DA68A4FD4593","title":"永琪美容美发(东建路)","lon":"121.54286","lat":"31.20394","category":"148","category_name":"美容美发店","address":"浦东新区东建路(锦安东路口)"},{"poiid":"B2094655D268A6F8489E","title":"杜鹃路55弄小区","lon":"121.54718","lat":"31.2026","category":"47","category_name":"住宅区","address":"杜鹃路55弄"},{"poiid":"B2094757D66CA1FC469E","title":"天使丽人按摩会所","lon":"121.54419","lat":"31.20171","category":"149","category_name":"洗浴推拿场所","address":"浦东新区锦安东路280弄"},{"poiid":"B2094757D16EA0F44592","title":"锦安东路排挡","lon":"121.54353","lat":"31.20252","category":"500","category_name":"未知分类","address":"上海浦东新区锦安东路(近锦安菜市场)  "},{"poiid":"B2094757D16CABF54792","title":"多凌茶楼","lon":"121.5445","lat":"31.20532","category":"72","category_name":"广东菜","address":"浦东新区牡丹路60号东辰大厦22楼(牡丹路浦建路)"},{"poiid":"B2094752D068A4FD4493","title":"龙阳路地铁站","lon":"121.545966","lat":"31.200537","category":"36","category_name":"地铁站","address":"上海市，浦东新区，白杨路"},{"poiid":"B2094654DB69A6FF489D","title":"玉兰大厦","lon":"121.54929","lat":"31.2035","category":"46","category_name":"楼宇","address":"静安区长寿路(万航渡路口)"},{"poiid":"B2094757D06AA7FA479D","title":"公交746牡丹路玉兰路站","lon":"121.546605138","lat":"31.2042067457","category":"38","category_name":"公交车站","address":"上海牡丹路玉兰路站（靠近克莉丝汀）"},{"poiid":"B2094655D26AA3F44392","title":"瀚意汽车修理服务中心","lon":"121.54236","lat":"31.20267","category":"247","category_name":"餐饮美食","address":"浦东新区东建路806号(东建路锦和路)"},{"poiid":"B2094655D26DA1FB4593","title":"锦绣花木公寓(南门)","lon":"121.54439","lat":"31.20258","category":"656","category_name":"大门","address":"锦安东路219弄1-11号"},{"poiid":"B2094757D165A2FA439B","title":"闸北分局三泉派出所","lon":"121.54615573","lat":"31.201891696","category":"609","category_name":"警察局","address":"上海市闸北区曲沃路460号"},{"poiid":"B2094757DA69A3F5499F","title":"卓美亚喜玛拉雅酒店","lon":"121.54775","lat":"31.20623","category":"604","category_name":"旅游咨询","address":"梅花路1108号(近芳甸路)"},{"poiid":"B2094757D568AAFB459A","title":"联华","lon":"121.547164","lat":"31.201656","category":"118","category_name":"超级市场","address":"杜鹃路52"},{"poiid":"B2094757D465A1FD4393","title":"异乡口福","lon":"121.54787753928","lat":"31.199054122061","category":"247","category_name":"餐饮美食","address":"浦东新区龙汇路346号(近白杨路)"},{"poiid":"B2094750DB6DA1F5429C","title":"海上国际影城","lon":"121.54376","lat":"31.199733","category":"178","category_name":"电影院","address":"芳甸路"},{"poiid":"B2094757D168ABFD459E","title":"欢庆「六.一」","lon":"121.54604473","lat":"31.201444686","category":"500","category_name":"未知分类","address":null},{"poiid":"B2094757D064AAFA4698","title":"迪亚天天(锦安东路店)","lon":"121.54341","lat":"31.20238","category":"249","category_name":"购物服务","address":"浦东新区锦安东路232号(近锦绣路)"}]