[{"poiid":"B2094757D06EABF5409E","title":"西贝莜面村(东方路店)","lon":"121.52699","lat":"31.20819","category":"84","category_name":"西北菜","address":"浦东新区东方路1535号(浦建路口)"},{"poiid":"B2094655D26DA7FB4199","title":"卜蜂莲花购物中心(杨高南路)","lon":"121.53021","lat":"31.20626","category":"118","category_name":"超级市场","address":"浦东新区杨高南路1126-1128号(近浦建路)"},{"poiid":"B2094757D06FA3FD469C","title":"东方城市花园二期","lon":"121.527896","lat":"31.204892","category":"47","category_name":"住宅区","address":"上海浦东新区东方路1881弄"},{"poiid":"B2094757D06FA7FC489B","title":"上海绿城","lon":"121.53364","lat":"31.205667","category":"47","category_name":"住宅区","address":"上海浦东新区锦和路99弄"},{"poiid":"B2094757D068A7FF409E","title":"丽晟假日酒店","lon":"121.528429325","lat":"31.2068004771","category":"217","category_name":"旅馆招待所","address":"上海市浦东新区环龙路55号(近浦建路)"},{"poiid":"B2094655D26EA3FF429E","title":"仁济医院(东门)","lon":"121.52515","lat":"31.20711","category":"656","category_name":"大门","address":"东方路1630"},{"poiid":"B2094655D36CA6FB489D","title":"东方路蓝村路","lon":"121.52706","lat":"31.21041","category":"38","category_name":"公交车站","address":"上海市浦东新区蓝村大厦28楼"},{"poiid":"B2094757D06FA2F9449D","title":"文建中学","lon":"121.52579","lat":"31.20856","category":"55","category_name":"中学","address":"浦东新区东方路1600弄(东方路浦建路)"},{"poiid":"B2094655D26AA6FC4892","title":"双季花艺园艺市场","lon":"121.52958","lat":"31.20749","category":"247","category_name":"餐饮美食","address":"浦东新区浦建路620号(近杨高南路)"},{"poiid":"B2094757D06FA2FB4892","title":"新新潘晓婷撞球馆(杨高南路店)","lon":"121.53098","lat":"31.20649","category":"171","category_name":"台球厅","address":"浦东新区杨高南路1122号双季花艺4楼(浦建路口)"},{"poiid":"B2094757D06FA4FF459E","title":"东方城市花园一期","lon":"121.527032","lat":"31.209243","category":"47","category_name":"住宅区","address":"上海市浦东新区东方路1881弄"},{"poiid":"B2094750D36FA3FE459F","title":"陆家嘴","lon":"121.528472","lat":"31.207599","category":"500","category_name":"未知分类","address":null},{"poiid":"B2094757D06BA4F54692","title":"杨高南路浦建路","lon":"121.53193973","lat":"31.207346812","category":"500","category_name":"未知分类","address":"上海市浦东新区东方路"},{"poiid":"B2094757D169ABFF489B","title":"仁济医院东院二号楼一楼PET-CT","lon":"121.52850073","lat":"31.2067958","category":"162","category_name":"医院","address":"上海东方路1630号"},{"poiid":"B2094757D068A0FF419B","title":"爱婴室(浦建路店)","lon":"121.52985","lat":"31.20722","category":"128","category_name":"儿童用品店","address":"浦东新区浦建路620号双季花艺西区3楼(近杨高南路)"},{"poiid":"B2094750D76FA3FC419B","title":"滇道橡木餐厅酒吧(环龙路店)","lon":"121.528","lat":"31.2064","category":"269","category_name":"烧烤","address":"环龙路65弄111号(近交通银行)"},{"poiid":"B2094654DA6AA1FF4098","title":"华南大厦","lon":"121.52678154289","lat":"31.204592331508","category":"46","category_name":"楼宇","address":"浦东区东方路1988号"},{"poiid":"B2094757D06AA1FE4893","title":"贵龙园","lon":"121.52592","lat":"31.205503","category":"500","category_name":"未知分类","address":"贵龙园位于浦东东方路1669弄"},{"poiid":"B2094757D069A4F8419E","title":"苏宁电器(浦建路店)","lon":"121.529882","lat":"31.207768","category":"138","category_name":"家电电子卖场","address":"浦东新区浦建路620号(近东方路)"},{"poiid":"B2094654DA69A6F9439C","title":"吉野家  杨高店","lon":"121.5302","lat":"31.20651","category":"95","category_name":"日本料理","address":"浦东新区杨高南路1126号卜蜂莲花2楼(近浦建路)"},{"poiid":"B2094757D16DA3FB4692","title":"怡东花园","lon":"121.52715","lat":"31.203518","category":"47","category_name":"住宅区","address":"上海市浦东新区环龙路263弄1号"},{"poiid":"B2094751D36FA1FC4099","title":"滇道橡木云南餐吧(环龙路店)","lon":"121.5283","lat":"31.20644","category":"247","category_name":"餐饮美食","address":"浦东新区环龙路55号丽晟假日酒店2楼(近浦建路)"},{"poiid":"B2094757D068A0F9449B","title":"国美电器(东方路店)","lon":"121.527978","lat":"31.207394","category":"138","category_name":"家电电子卖场","address":"上海市浦东新区浦建路348号"},{"poiid":"B2094655D36DA0FA469B","title":"易初莲花","lon":"121.53076","lat":"31.20785","category":"38","category_name":"公交车站","address":""},{"poiid":"B2094654DA69A6F94398","title":"双季花艺","lon":"121.53101","lat":"31.20693","category":"117","category_name":"便民商店/便利店","address":"杨高南路1122号"},{"poiid":"B2094655D26DA7FB4298","title":"交通银行上海环龙路支行","lon":"121.52827","lat":"31.20632","category":"150","category_name":"银行","address":""},{"poiid":"B2094757D068A6FD4793","title":"顶鲜汤包 浦建路店","lon":"121.524676","lat":"31.208249","category":"68","category_name":"快餐厅","address":"浦东新区浦建路243号(东方路口)"},{"poiid":"B2094757D66FA3FF419D","title":"银座造型","lon":"121.529114938","lat":"31.2059146821","category":"148","category_name":"美容美发店","address":"浦东新区东方路1663弄贵龙园会所1号"},{"poiid":"B2094757D165AAFE499A","title":"970路杨高南路浦建路(易初莲花)站","lon":"121.530931399","lat":"31.206442837","category":"38","category_name":"公交车站","address":"上海市浦东新区杨高南路近浦建路"},{"poiid":"B2094757D16EABFE4793","title":"千味拉面","lon":"121.52731","lat":"31.20748","category":"68","category_name":"快餐厅","address":"浦东新区浦建路(近东方路)"},{"poiid":"B2094757D06AA1F84992","title":"艺林盲人按摩院(浦东店)","lon":"121.52711","lat":"31.2034","category":"149","category_name":"洗浴推拿场所","address":"浦东新区环龙路263弄1号怡东会所内(近地铁6号线儿童医学中心地铁站1号出口)"},{"poiid":"B2094752D26AAAF44692","title":"星河湾","lon":"121.529907","lat":"31.206024","category":"500","category_name":"未知分类","address":"锦绣路2588弄"},{"poiid":"B2094751DA65A0FF479F","title":"纽斯","lon":"121.530596","lat":"31.207155","category":"249","category_name":"购物服务","address":"东绣路288号"},{"poiid":"B2094757D568A6FC4598","title":"多瑙河咖啡厅","lon":"121.5287619","lat":"31.20652111","category":"260","category_name":"其他","address":"浦东新区环龙路55号上海丽晟酒店1楼(近杨高南路)"},{"poiid":"B2094757D06BA6FC449C","title":"仁济医院食堂","lon":"121.52539","lat":"31.20697","category":"68","category_name":"快餐厅","address":"浦东新区东方路1630号仁济医院东部(近浦建路)"},{"poiid":"B2094757D065A2FE489B","title":"新里程台球俱乐部","lon":"121.53081","lat":"31.20702","category":"171","category_name":"台球厅","address":"浦东新区杨高南路1122号(浦建路口)"},{"poiid":"B2094655D264A1FB409E","title":"世博东座酒店公寓","lon":"121.53068","lat":"31.20831","category":"47","category_name":"住宅区","address":"浦东新区浦建路727号(杨高南路口)"},{"poiid":"B2094655D26FA7F84093","title":"行家服务公寓","lon":"121.52931","lat":"31.20319","category":"47","category_name":"住宅区","address":"浦东新区杨高南路1288号"},{"poiid":"B2094757D065ABF4409F","title":"东方龙苑","lon":"121.53238","lat":"31.202164","category":"47","category_name":"住宅区","address":"上海市浦东新区东建路228弄"},{"poiid":"B2094654DB69A4F4489D","title":"永乐电器(东方店)","lon":"121.52854","lat":"31.20833","category":"138","category_name":"家电电子卖场","address":"上海市浦东新区浦建路365号(易初莲花对面)"},{"poiid":"B2094757D16CA0FF499E","title":"仁济医院放射科","lon":"121.528291738","lat":"31.2049157608","category":"500","category_name":"未知分类","address":null},{"poiid":"B2094757D66CA6F5429F","title":"全国各省市自治区在沪商会办公中心","lon":"121.528453738","lat":"31.20628679","category":"500","category_name":"未知分类","address":"上海浦东新区环龙路57号"},{"poiid":"B2094655D26DA1FF499E","title":"绿城广场","lon":"121.53175","lat":"31.20634","category":"202","category_name":"公园广场","address":""},{"poiid":"B2094655D26AA2FC4498","title":"考拉乐家居浦建路店","lon":"121.52958","lat":"31.20749","category":"247","category_name":"餐饮美食","address":"浦东新区浦建路620号2楼(环龙路浦建路)"},{"poiid":"B2094757DB6CA5F94399","title":"达美乐比萨（东建店）","lon":"121.5303503178","lat":"31.202503588955","category":"247","category_name":"餐饮美食","address":"浦东新区东建路371号(近东绣路)"},{"poiid":"B2094757D66DAAF8479E","title":"交通银行","lon":"121.528223738","lat":"31.2069378039","category":"150","category_name":"银行","address":"上海市浦东新区浦建路环龙路"},{"poiid":"B2094757D06AA2F84298","title":"怡东会所","lon":"121.52649","lat":"31.20372","category":"500","category_name":"未知分类","address":"浦东新区环龙路263弄1号怡东会所内(近东方路)"},{"poiid":"B2094757D068A5FC4893","title":"上海仁济医院教学楼","lon":"121.52515","lat":"31.207117","category":"253","category_name":"校园生活","address":"上海市东方路1630号上海仁济医院教学楼"},{"poiid":"B2094757D568ABFC459B","title":"中远龙阳公寓(中远行家)","lon":"121.528425","lat":"31.20794278","category":"47","category_name":"住宅区","address":"中远龙阳公寓(中远行家)位于浦东浦建路588号"},{"poiid":"B2094757D169A0FE489C","title":"东方金座","lon":"121.53086","lat":"31.208364","category":"46","category_name":"楼宇","address":"上海市浦东新区浦建路727号"},{"poiid":"B2094757D06EABF5409E","title":"西贝莜面村(东方路店)","lon":"121.52699","lat":"31.20819","category":"84","category_name":"西北菜","address":"浦东新区东方路1535号(浦建路口)"},{"poiid":"B2094655D26DA7FB4199","title":"卜蜂莲花购物中心(杨高南路)","lon":"121.53021","lat":"31.20626","category":"118","category_name":"超级市场","address":"浦东新区杨高南路1126-1128号(近浦建路)"},{"poiid":"B2094757D06FA3FD469C","title":"东方城市花园二期","lon":"121.527896","lat":"31.204892","category":"47","category_name":"住宅区","address":"上海浦东新区东方路1881弄"},{"poiid":"B2094757D06FA7FC489B","title":"上海绿城","lon":"121.53364","lat":"31.205667","category":"47","category_name":"住宅区","address":"上海浦东新区锦和路99弄"},{"poiid":"B2094757D068A7FF409E","title":"丽晟假日酒店","lon":"121.528429325","lat":"31.2068004771","category":"217","category_name":"旅馆招待所","address":"上海市浦东新区环龙路55号(近浦建路)"},{"poiid":"B2094655D26EA3FF429E","title":"仁济医院(东门)","lon":"121.52515","lat":"31.20711","category":"656","category_name":"大门","address":"东方路1630"},{"poiid":"B2094655D36CA6FB489D","title":"东方路蓝村路","lon":"121.52706","lat":"31.21041","category":"38","category_name":"公交车站","address":"上海市浦东新区蓝村大厦28楼"},{"poiid":"B2094757D06FA2F9449D","title":"文建中学","lon":"121.52579","lat":"31.20856","category":"55","category_name":"中学","address":"浦东新区东方路1600弄(东方路浦建路)"},{"poiid":"B2094655D26AA6FC4892","title":"双季花艺园艺市场","lon":"121.52958","lat":"31.20749","category":"247","category_name":"餐饮美食","address":"浦东新区浦建路620号(近杨高南路)"},{"poiid":"B2094757D06FA2FB4892","title":"新新潘晓婷撞球馆(杨高南路店)","lon":"121.53098","lat":"31.20649","category":"171","category_name":"台球厅","address":"浦东新区杨高南路1122号双季花艺4楼(浦建路口)"},{"poiid":"B2094757D06FA4FF459E","title":"东方城市花园一期","lon":"121.527032","lat":"31.209243","category":"47","category_name":"住宅区","address":"上海市浦东新区东方路1881弄"},{"poiid":"B2094750D36FA3FE459F","title":"陆家嘴","lon":"121.528472","lat":"31.207599","category":"500","category_name":"未知分类","address":null},{"poiid":"B2094757D06BA4F54692","title":"杨高南路浦建路","lon":"121.53193973","lat":"31.207346812","category":"500","category_name":"未知分类","address":"上海市浦东新区东方路"},{"poiid":"B2094757D169ABFF489B","title":"仁济医院东院二号楼一楼PET-CT","lon":"121.52850073","lat":"31.2067958","category":"162","category_name":"医院","address":"上海东方路1630号"},{"poiid":"B2094757D068A0FF419B","title":"爱婴室(浦建路店)","lon":"121.52985","lat":"31.20722","category":"128","category_name":"儿童用品店","address":"浦东新区浦建路620号双季花艺西区3楼(近杨高南路)"},{"poiid":"B2094750D76FA3FC419B","title":"滇道橡木餐厅酒吧(环龙路店)","lon":"121.528","lat":"31.2064","category":"269","category_name":"烧烤","address":"环龙路65弄111号(近交通银行)"},{"poiid":"B2094654DA6AA1FF4098","title":"华南大厦","lon":"121.52678154289","lat":"31.204592331508","category":"46","category_name":"楼宇","address":"浦东区东方路1988号"},{"poiid":"B2094757D06AA1FE4893","title":"贵龙园","lon":"121.52592","lat":"31.205503","category":"500","category_name":"未知分类","address":"贵龙园位于浦东东方路1669弄"},{"poiid":"B2094757D069A4F8419E","title":"苏宁电器(浦建路店)","lon":"121.529882","lat":"31.207768","category":"138","category_name":"家电电子卖场","address":"浦东新区浦建路620号(近东方路)"},{"poiid":"B2094654DA69A6F9439C","title":"吉野家  杨高店","lon":"121.5302","lat":"31.20651","category":"95","category_name":"日本料理","address":"浦东新区杨高南路1126号卜蜂莲花2楼(近浦建路)"},{"poiid":"B2094757D16DA3FB4692","title":"怡东花园","lon":"121.52715","lat":"31.203518","category":"47","category_name":"住宅区","address":"上海市浦东新区环龙路263弄1号"},{"poiid":"B2094751D36FA1FC4099","title":"滇道橡木云南餐吧(环龙路店)","lon":"121.5283","lat":"31.20644","category":"247","category_name":"餐饮美食","address":"浦东新区环龙路55号丽晟假日酒店2楼(近浦建路)"},{"poiid":"B2094757D068A0F9449B","title":"国美电器(东方路店)","lon":"121.527978","lat":"31.207394","category":"138","category_name":"家电电子卖场","address":"上海市浦东新区浦建路348号"},{"poiid":"B2094655D36DA0FA469B","title":"易初莲花","lon":"121.53076","lat":"31.20785","category":"38","category_name":"公交车站","address":""},{"poiid":"B2094654DA69A6F94398","title":"双季花艺","lon":"121.53101","lat":"31.20693","category":"117","category_name":"便民商店/便利店","address":"杨高南路1122号"},{"poiid":"B2094655D26DA7FB4298","title":"交通银行上海环龙路支行","lon":"121.52827","lat":"31.20632","category":"150","category_name":"银行","address":""},{"poiid":"B2094757D068A6FD4793","title":"顶鲜汤包 浦建路店","lon":"121.524676","lat":"31.208249","category":"68","category_name":"快餐厅","address":"浦东新区浦建路243号(东方路口)"},{"poiid":"B2094757D66FA3FF419D","title":"银座造型","lon":"121.529114938","lat":"31.2059146821","category":"148","category_name":"美容美发店","address":"浦东新区东方路1663弄贵龙园会所1号"},{"poiid":"B2094757D165AAFE499A","title":"970路杨高南路浦建路(易初莲花)站","lon":"121.530931399","lat":"31.206442837","category":"38","category_name":"公交车站","address":"上海市浦东新区杨高南路近浦建路"},{"poiid":"B2094757D16EABFE4793","title":"千味拉面","lon":"121.52731","lat":"31.20748","category":"68","category_name":"快餐厅","address":"浦东新区浦建路(近东方路)"},{"poiid":"B2094757D06AA1F84992","title":"艺林盲人按摩院(浦东店)","lon":"121.52711","lat":"31.2034","category":"149","category_name":"洗浴推拿场所","address":"浦东新区环龙路263弄1号怡东会所内(近地铁6号线儿童医学中心地铁站1号出口)"},{"poiid":"B2094752D26AAAF44692","title":"星河湾","lon":"121.529907","lat":"31.206024","category":"500","category_name":"未知分类","address":"锦绣路2588弄"},{"poiid":"B2094751DA65A0FF479F","title":"纽斯","lon":"121.530596","lat":"31.207155","category":"249","category_name":"购物服务","address":"东绣路288号"},{"poiid":"B2094757D568A6FC4598","title":"多瑙河咖啡厅","lon":"121.5287619","lat":"31.20652111","category":"260","category_name":"其他","address":"浦东新区环龙路55号上海丽晟酒店1楼(近杨高南路)"},{"poiid":"B2094757D06BA6FC449C","title":"仁济医院食堂","lon":"121.52539","lat":"31.20697","category":"68","category_name":"快餐厅","address":"浦东新区东方路1630号仁济医院东部(近浦建路)"},{"poiid":"B2094757D065A2FE489B","title":"新里程台球俱乐部","lon":"121.53081","lat":"31.20702","category":"171","category_name":"台球厅","address":"浦东新区杨高南路1122号(浦建路口)"},{"poiid":"B2094655D264A1FB409E","title":"世博东座酒店公寓","lon":"121.53068","lat":"31.20831","category":"47","category_name":"住宅区","address":"浦东新区浦建路727号(杨高南路口)"},{"poiid":"B2094655D26FA7F84093","title":"行家服务公寓","lon":"121.52931","lat":"31.20319","category":"47","category_name":"住宅区","address":"浦东新区杨高南路1288号"},{"poiid":"B2094757D065ABF4409F","title":"东方龙苑","lon":"121.53238","lat":"31.202164","category":"47","category_name":"住宅区","address":"上海市浦东新区东建路228弄"},{"poiid":"B2094654DB69A4F4489D","title":"永乐电器(东方店)","lon":"121.52854","lat":"31.20833","category":"138","category_name":"家电电子卖场","address":"上海市浦东新区浦建路365号(易初莲花对面)"},{"poiid":"B2094757D16CA0FF499E","title":"仁济医院放射科","lon":"121.528291738","lat":"31.2049157608","category":"500","category_name":"未知分类","address":null},{"poiid":"B2094757D66CA6F5429F","title":"全国各省市自治区在沪商会办公中心","lon":"121.528453738","lat":"31.20628679","category":"500","category_name":"未知分类","address":"上海浦东新区环龙路57号"},{"poiid":"B2094655D26DA1FF499E","title":"绿城广场","lon":"121.53175","lat":"31.20634","category":"202","category_name":"公园广场","address":""},{"poiid":"B2094655D26AA2FC4498","title":"考拉乐家居浦建路店","lon":"121.52958","lat":"31.20749","category":"247","category_name":"餐饮美食","address":"浦东新区浦建路620号2楼(环龙路浦建路)"},{"poiid":"B2094757DB6CA5F94399","title":"达美乐比萨（东建店）","lon":"121.5303503178","lat":"31.202503588955","category":"247","category_name":"餐饮美食","address":"浦东新区东建路371号(近东绣路)"},{"poiid":"B2094757D66DAAF8479E","title":"交通银行","lon":"121.528223738","lat":"31.2069378039","category":"150","category_name":"银行","address":"上海市浦东新区浦建路环龙路"},{"poiid":"B2094757D06AA2F84298","title":"怡东会所","lon":"121.52649","lat":"31.20372","category":"500","category_name":"未知分类","address":"浦东新区环龙路263弄1号怡东会所内(近东方路)"},{"poiid":"B2094757D068A5FC4893","title":"上海仁济医院教学楼","lon":"121.52515","lat":"31.207117","category":"253","category_name":"校园生活","address":"上海市东方路1630号上海仁济医院教学楼"},{"poiid":"B2094757D568ABFC459B","title":"中远龙阳公寓(中远行家)","lon":"121.528425","lat":"31.20794278","category":"47","category_name":"住宅区","address":"中远龙阳公寓(中远行家)位于浦东浦建路588号"},{"poiid":"B2094757D169A0FE489C","title":"东方金座","lon":"121.53086","lat":"31.208364","category":"46","category_name":"楼宇","address":"上海市浦东新区浦建路727号"},{"poiid":"B2094757D06EABF5409E","title":"西贝莜面村(东方路店)","lon":"121.52699","lat":"31.20819","category":"84","category_name":"西北菜","address":"浦东新区东方路1535号(浦建路口)"},{"poiid":"B2094655D26DA7FB4199","title":"卜蜂莲花购物中心(杨高南路)","lon":"121.53021","lat":"31.20626","category":"118","category_name":"超级市场","address":"浦东新区杨高南路1126-1128号(近浦建路)"},{"poiid":"B2094757D06FA3FD469C","title":"东方城市花园二期","lon":"121.527896","lat":"31.204892","category":"47","category_name":"住宅区","address":"上海浦东新区东方路1881弄"},{"poiid":"B2094757D06FA7FC489B","title":"上海绿城","lon":"121.53364","lat":"31.205667","category":"47","category_name":"住宅区","address":"上海浦东新区锦和路99弄"},{"poiid":"B2094757D068A7FF409E","title":"丽晟假日酒店","lon":"121.528429325","lat":"31.2068004771","category":"217","category_name":"旅馆招待所","address":"上海市浦东新区环龙路55号(近浦建路)"},{"poiid":"B2094655D26EA3FF429E","title":"仁济医院(东门)","lon":"121.52515","lat":"31.20711","category":"656","category_name":"大门","address":"东方路1630"},{"poiid":"B2094655D36CA6FB489D","title":"东方路蓝村路","lon":"121.52706","lat":"31.21041","category":"38","category_name":"公交车站","address":"上海市浦东新区蓝村大厦28楼"},{"poiid":"B2094757D06FA2F9449D","title":"文建中学","lon":"121.52579","lat":"31.20856","category":"55","category_name":"中学","address":"浦东新区东方路1600弄(东方路浦建路)"},{"poiid":"B2094655D26AA6FC4892","title":"双季花艺园艺市场","lon":"121.52958","lat":"31.20749","category":"247","category_name":"餐饮美食","address":"浦东新区浦建路620号(近杨高南路)"},{"poiid":"B2094757D06FA2FB4892","title":"新新潘晓婷撞球馆(杨高南路店)","lon":"121.53098","lat":"31.20649","category":"171","category_name":"台球厅","address":"浦东新区杨高南路1122号双季花艺4楼(浦建路口)"},{"poiid":"B2094757D06FA4FF459E","title":"东方城市花园一期","lon":"121.527032","lat":"31.209243","category":"47","category_name":"住宅区","address":"上海市浦东新区东方路1881弄"},{"poiid":"B2094750D36FA3FE459F","title":"陆家嘴","lon":"121.528472","lat":"31.207599","category":"500","category_name":"未知分类","address":null},{"poiid":"B2094757D06BA4F54692","title":"杨高南路浦建路","lon":"121.53193973","lat":"31.207346812","category":"500","category_name":"未知分类","address":"上海市浦东新区东方路"},{"poiid":"B2094757D169ABFF489B","title":"仁济医院东院二号楼一楼PET-CT","lon":"121.52850073","lat":"31.2067958","category":"162","category_name":"医院","address":"上海东方路1630号"},{"poiid":"B2094757D068A0FF419B","title":"爱婴室(浦建路店)","lon":"121.52985","lat":"31.20722","category":"128","category_name":"儿童用品店","address":"浦东新区浦建路620号双季花艺西区3楼(近杨高南路)"},{"poiid":"B2094750D76FA3FC419B","title":"滇道橡木餐厅酒吧(环龙路店)","lon":"121.528","lat":"31.2064","category":"269","category_name":"烧烤","address":"环龙路65弄111号(近交通银行)"},{"poiid":"B2094654DA6AA1FF4098","title":"华南大厦","lon":"121.52678154289","lat":"31.204592331508","category":"46","category_name":"楼宇","address":"浦东区东方路1988号"},{"poiid":"B2094757D06AA1FE4893","title":"贵龙园","lon":"121.52592","lat":"31.205503","category":"500","category_name":"未知分类","address":"贵龙园位于浦东东方路1669弄"},{"poiid":"B2094757D069A4F8419E","title":"苏宁电器(浦建路店)","lon":"121.529882","lat":"31.207768","category":"138","category_name":"家电电子卖场","address":"浦东新区浦建路620号(近东方路)"},{"poiid":"B2094654DA69A6F9439C","title":"吉野家  杨高店","lon":"121.5302","lat":"31.20651","category":"95","category_name":"日本料理","address":"浦东新区杨高南路1126号卜蜂莲花2楼(近浦建路)"},{"poiid":"B2094757D16DA3FB4692","title":"怡东花园","lon":"121.52715","lat":"31.203518","category":"47","category_name":"住宅区","address":"上海市浦东新区环龙路263弄1号"},{"poiid":"B2094751D36FA1FC4099","title":"滇道橡木云南餐吧(环龙路店)","lon":"121.5283","lat":"31.20644","category":"247","category_name":"餐饮美食","address":"浦东新区环龙路55号丽晟假日酒店2楼(近浦建路)"},{"poiid":"B2094757D068A0F9449B","title":"国美电器(东方路店)","lon":"121.527978","lat":"31.207394","category":"138","category_name":"家电电子卖场","address":"上海市浦东新区浦建路348号"},{"poiid":"B2094655D36DA0FA469B","title":"易初莲花","lon":"121.53076","lat":"31.20785","category":"38","category_name":"公交车站","address":""},{"poiid":"B2094654DA69A6F94398","title":"双季花艺","lon":"121.53101","lat":"31.20693","category":"117","category_name":"便民商店/便利店","address":"杨高南路1122号"},{"poiid":"B2094655D26DA7FB4298","title":"交通银行上海环龙路支行","lon":"121.52827","lat":"31.20632","category":"150","category_name":"银行","address":""},{"poiid":"B2094757D068A6FD4793","title":"顶鲜汤包 浦建路店","lon":"121.524676","lat":"31.208249","category":"68","category_name":"快餐厅","address":"浦东新区浦建路243号(东方路口)"},{"poiid":"B2094757D66FA3FF419D","title":"银座造型","lon":"121.529114938","lat":"31.2059146821","category":"148","category_name":"美容美发店","address":"浦东新区东方路1663弄贵龙园会所1号"},{"poiid":"B2094757D165AAFE499A","title":"970路杨高南路浦建路(易初莲花)站","lon":"121.530931399","lat":"31.206442837","category":"38","category_name":"公交车站","address":"上海市浦东新区杨高南路近浦建路"},{"poiid":"B2094757D16EABFE4793","title":"千味拉面","lon":"121.52731","lat":"31.20748","category":"68","category_name":"快餐厅","address":"浦东新区浦建路(近东方路)"},{"poiid":"B2094757D06AA1F84992","title":"艺林盲人按摩院(浦东店)","lon":"121.52711","lat":"31.2034","category":"149","category_name":"洗浴推拿场所","address":"浦东新区环龙路263弄1号怡东会所内(近地铁6号线儿童医学中心地铁站1号出口)"},{"poiid":"B2094752D26AAAF44692","title":"星河湾","lon":"121.529907","lat":"31.206024","category":"500","category_name":"未知分类","address":"锦绣路2588弄"},{"poiid":"B2094751DA65A0FF479F","title":"纽斯","lon":"121.530596","lat":"31.207155","category":"249","category_name":"购物服务","address":"东绣路288号"},{"poiid":"B2094757D568A6FC4598","title":"多瑙河咖啡厅","lon":"121.5287619","lat":"31.20652111","category":"260","category_name":"其他","address":"浦东新区环龙路55号上海丽晟酒店1楼(近杨高南路)"},{"poiid":"B2094757D06BA6FC449C","title":"仁济医院食堂","lon":"121.52539","lat":"31.20697","category":"68","category_name":"快餐厅","address":"浦东新区东方路1630号仁济医院东部(近浦建路)"},{"poiid":"B2094757D065A2FE489B","title":"新里程台球俱乐部","lon":"121.53081","lat":"31.20702","category":"171","category_name":"台球厅","address":"浦东新区杨高南路1122号(浦建路口)"},{"poiid":"B2094655D264A1FB409E","title":"世博东座酒店公寓","lon":"121.53068","lat":"31.20831","category":"47","category_name":"住宅区","address":"浦东新区浦建路727号(杨高南路口)"},{"poiid":"B2094655D26FA7F84093","title":"行家服务公寓","lon":"121.52931","lat":"31.20319","category":"47","category_name":"住宅区","address":"浦东新区杨高南路1288号"},{"poiid":"B2094757D065ABF4409F","title":"东方龙苑","lon":"121.53238","lat":"31.202164","category":"47","category_name":"住宅区","address":"上海市浦东新区东建路228弄"},{"poiid":"B2094654DB69A4F4489D","title":"永乐电器(东方店)","lon":"121.52854","lat":"31.20833","category":"138","category_name":"家电电子卖场","address":"上海市浦东新区浦建路365号(易初莲花对面)"},{"poiid":"B2094757D16CA0FF499E","title":"仁济医院放射科","lon":"121.528291738","lat":"31.2049157608","category":"500","category_name":"未知分类","address":null},{"poiid":"B2094757D66CA6F5429F","title":"全国各省市自治区在沪商会办公中心","lon":"121.528453738","lat":"31.20628679","category":"500","category_name":"未知分类","address":"上海浦东新区环龙路57号"},{"poiid":"B2094655D26DA1FF499E","title":"绿城广场","lon":"121.53175","lat":"31.20634","category":"202","category_name":"公园广场","address":""},{"poiid":"B2094655D26AA2FC4498","title":"考拉乐家居浦建路店","lon":"121.52958","lat":"31.20749","category":"247","category_name":"餐饮美食","address":"浦东新区浦建路620号2楼(环龙路浦建路)"},{"poiid":"B2094757DB6CA5F94399","title":"达美乐比萨（东建店）","lon":"121.5303503178","lat":"31.202503588955","category":"247","category_name":"餐饮美食","address":"浦东新区东建路371号(近东绣路)"},{"poiid":"B2094757D66DAAF8479E","title":"交通银行","lon":"121.528223738","lat":"31.2069378039","category":"150","category_name":"银行","address":"上海市浦东新区浦建路环龙路"},{"poiid":"B2094757D06AA2F84298","title":"怡东会所","lon":"121.52649","lat":"31.20372","category":"500","category_name":"未知分类","address":"浦东新区环龙路263弄1号怡东会所内(近东方路)"},{"poiid":"B2094757D068A5FC4893","title":"上海仁济医院教学楼","lon":"121.52515","lat":"31.207117","category":"253","category_name":"校园生活","address":"上海市东方路1630号上海仁济医院教学楼"},{"poiid":"B2094757D568ABFC459B","title":"中远龙阳公寓(中远行家)","lon":"121.528425","lat":"31.20794278","category":"47","category_name":"住宅区","address":"中远龙阳公寓(中远行家)位于浦东浦建路588号"},{"poiid":"B2094757D169A0FE489C","title":"东方金座","lon":"121.53086","lat":"31.208364","category":"46","category_name":"楼宇","address":"上海市浦东新区浦建路727号"},{"poiid":"B2094757D06EABF5409E","title":"西贝莜面村(东方路店)","lon":"121.52699","lat":"31.20819","category":"84","category_name":"西北菜","address":"浦东新区东方路1535号(浦建路口)"},{"poiid":"B2094655D26DA7FB4199","title":"卜蜂莲花购物中心(杨高南路)","lon":"121.53021","lat":"31.20626","category":"118","category_name":"超级市场","address":"浦东新区杨高南路1126-1128号(近浦建路)"},{"poiid":"B2094757D06FA3FD469C","title":"东方城市花园二期","lon":"121.527896","lat":"31.204892","category":"47","category_name":"住宅区","address":"上海浦东新区东方路1881弄"},{"poiid":"B2094757D06FA7FC489B","title":"上海绿城","lon":"121.53364","lat":"31.205667","category":"47","category_name":"住宅区","address":"上海浦东新区锦和路99弄"},{"poiid":"B2094757D068A7FF409E","title":"丽晟假日酒店","lon":"121.528429325","lat":"31.2068004771","category":"217","category_name":"旅馆招待所","address":"上海市浦东新区环龙路55号(近浦建路)"},{"poiid":"B2094655D26EA3FF429E","title":"仁济医院(东门)","lon":"121.52515","lat":"31.20711","category":"656","category_name":"大门","address":"东方路1630"},{"poiid":"B2094655D36CA6FB489D","title":"东方路蓝村路","lon":"121.52706","lat":"31.21041","category":"38","category_name":"公交车站","address":"上海市浦东新区蓝村大厦28楼"},{"poiid":"B2094757D06FA2F9449D","title":"文建中学","lon":"121.52579","lat":"31.20856","category":"55","category_name":"中学","address":"浦东新区东方路1600弄(东方路浦建路)"},{"poiid":"B2094655D26AA6FC4892","title":"双季花艺园艺市场","lon":"121.52958","lat":"31.20749","category":"247","category_name":"餐饮美食","address":"浦东新区浦建路620号(近杨高南路)"},{"poiid":"B2094757D06FA2FB4892","title":"新新潘晓婷撞球馆(杨高南路店)","lon":"121.53098","lat":"31.20649","category":"171","category_name":"台球厅","address":"浦东新区杨高南路1122号双季花艺4楼(浦建路口)"},{"poiid":"B2094757D06FA4FF459E","title":"东方城市花园一期","lon":"121.527032","lat":"31.209243","category":"47","category_name":"住宅区","address":"上海市浦东新区东方路1881弄"},{"poiid":"B2094750D36FA3FE459F","title":"陆家嘴","lon":"121.528472","lat":"31.207599","category":"500","category_name":"未知分类","address":null},{"poiid":"B2094757D06BA4F54692","title":"杨高南路浦建路","lon":"121.53193973","lat":"31.207346812","category":"500","category_name":"未知分类","address":"上海市浦东新区东方路"},{"poiid":"B2094757D169ABFF489B","title":"仁济医院东院二号楼一楼PET-CT","lon":"121.52850073","lat":"31.2067958","category":"162","category_name":"医院","address":"上海东方路1630号"},{"poiid":"B2094757D068A0FF419B","title":"爱婴室(浦建路店)","lon":"121.52985","lat":"31.20722","category":"128","category_name":"儿童用品店","address":"浦东新区浦建路620号双季花艺西区3楼(近杨高南路)"},{"poiid":"B2094750D76FA3FC419B","title":"滇道橡木餐厅酒吧(环龙路店)","lon":"121.528","lat":"31.2064","category":"269","category_name":"烧烤","address":"环龙路65弄111号(近交通银行)"},{"poiid":"B2094654DA6AA1FF4098","title":"华南大厦","lon":"121.52678154289","lat":"31.204592331508","category":"46","category_name":"楼宇","address":"浦东区东方路1988号"},{"poiid":"B2094757D06AA1FE4893","title":"贵龙园","lon":"121.52592","lat":"31.205503","category":"500","category_name":"未知分类","address":"贵龙园位于浦东东方路1669弄"},{"poiid":"B2094757D069A4F8419E","title":"苏宁电器(浦建路店)","lon":"121.529882","lat":"31.207768","category":"138","category_name":"家电电子卖场","address":"浦东新区浦建路620号(近东方路)"},{"poiid":"B2094654DA69A6F9439C","title":"吉野家  杨高店","lon":"121.5302","lat":"31.20651","category":"95","category_name":"日本料理","address":"浦东新区杨高南路1126号卜蜂莲花2楼(近浦建路)"},{"poiid":"B2094757D16DA3FB4692","title":"怡东花园","lon":"121.52715","lat":"31.203518","category":"47","category_name":"住宅区","address":"上海市浦东新区环龙路263弄1号"},{"poiid":"B2094751D36FA1FC4099","title":"滇道橡木云南餐吧(环龙路店)","lon":"121.5283","lat":"31.20644","category":"247","category_name":"餐饮美食","address":"浦东新区环龙路55号丽晟假日酒店2楼(近浦建路)"},{"poiid":"B2094757D068A0F9449B","title":"国美电器(东方路店)","lon":"121.527978","lat":"31.207394","category":"138","category_name":"家电电子卖场","address":"上海市浦东新区浦建路348号"},{"poiid":"B2094655D36DA0FA469B","title":"易初莲花","lon":"121.53076","lat":"31.20785","category":"38","category_name":"公交车站","address":""},{"poiid":"B2094654DA69A6F94398","title":"双季花艺","lon":"121.53101","lat":"31.20693","category":"117","category_name":"便民商店/便利店","address":"杨高南路1122号"},{"poiid":"B2094655D26DA7FB4298","title":"交通银行上海环龙路支行","lon":"121.52827","lat":"31.20632","category":"150","category_name":"银行","address":""},{"poiid":"B2094757D068A6FD4793","title":"顶鲜汤包 浦建路店","lon":"121.524676","lat":"31.208249","category":"68","category_name":"快餐厅","address":"浦东新区浦建路243号(东方路口)"},{"poiid":"B2094757D66FA3FF419D","title":"银座造型","lon":"121.529114938","lat":"31.2059146821","category":"148","category_name":"美容美发店","address":"浦东新区东方路1663弄贵龙园会所1号"},{"poiid":"B2094757D165AAFE499A","title":"970路杨高南路浦建路(易初莲花)站","lon":"121.530931399","lat":"31.206442837","category":"38","category_name":"公交车站","address":"上海市浦东新区杨高南路近浦建路"},{"poiid":"B2094757D16EABFE4793","title":"千味拉面","lon":"121.52731","lat":"31.20748","category":"68","category_name":"快餐厅","address":"浦东新区浦建路(近东方路)"},{"poiid":"B2094757D06AA1F84992","title":"艺林盲人按摩院(浦东店)","lon":"121.52711","lat":"31.2034","category":"149","category_name":"洗浴推拿场所","address":"浦东新区环龙路263弄1号怡东会所内(近地铁6号线儿童医学中心地铁站1号出口)"},{"poiid":"B2094752D26AAAF44692","title":"星河湾","lon":"121.529907","lat":"31.206024","category":"500","category_name":"未知分类","address":"锦绣路2588弄"},{"poiid":"B2094751DA65A0FF479F","title":"纽斯","lon":"121.530596","lat":"31.207155","category":"249","category_name":"购物服务","address":"东绣路288号"},{"poiid":"B2094757D568A6FC4598","title":"多瑙河咖啡厅","lon":"121.5287619","lat":"31.20652111","category":"260","category_name":"其他","address":"浦东新区环龙路55号上海丽晟酒店1楼(近杨高南路)"},{"poiid":"B2094757D06BA6FC449C","title":"仁济医院食堂","lon":"121.52539","lat":"31.20697","category":"68","category_name":"快餐厅","address":"浦东新区东方路1630号仁济医院东部(近浦建路)"},{"poiid":"B2094757D065A2FE489B","title":"新里程台球俱乐部","lon":"121.53081","lat":"31.20702","category":"171","category_name":"台球厅","address":"浦东新区杨高南路1122号(浦建路口)"},{"poiid":"B2094655D264A1FB409E","title":"世博东座酒店公寓","lon":"121.53068","lat":"31.20831","category":"47","category_name":"住宅区","address":"浦东新区浦建路727号(杨高南路口)"},{"poiid":"B2094655D26FA7F84093","title":"行家服务公寓","lon":"121.52931","lat":"31.20319","category":"47","category_name":"住宅区","address":"浦东新区杨高南路1288号"},{"poiid":"B2094757D065ABF4409F","title":"东方龙苑","lon":"121.53238","lat":"31.202164","category":"47","category_name":"住宅区","address":"上海市浦东新区东建路228弄"},{"poiid":"B2094654DB69A4F4489D","title":"永乐电器(东方店)","lon":"121.52854","lat":"31.20833","category":"138","category_name":"家电电子卖场","address":"上海市浦东新区浦建路365号(易初莲花对面)"},{"poiid":"B2094757D16CA0FF499E","title":"仁济医院放射科","lon":"121.528291738","lat":"31.2049157608","category":"500","category_name":"未知分类","address":null},{"poiid":"B2094757D66CA6F5429F","title":"全国各省市自治区在沪商会办公中心","lon":"121.528453738","lat":"31.20628679","category":"500","category_name":"未知分类","address":"上海浦东新区环龙路57号"},{"poiid":"B2094655D26DA1FF499E","title":"绿城广场","lon":"121.53175","lat":"31.20634","category":"202","category_name":"公园广场","address":""},{"poiid":"B2094655D26AA2FC4498","title":"考拉乐家居浦建路店","lon":"121.52958","lat":"31.20749","category":"247","category_name":"餐饮美食","address":"浦东新区浦建路620号2楼(环龙路浦建路)"},{"poiid":"B2094757DB6CA5F94399","title":"达美乐比萨（东建店）","lon":"121.5303503178","lat":"31.202503588955","category":"247","category_name":"餐饮美食","address":"浦东新区东建路371号(近东绣路)"},{"poiid":"B2094757D66DAAF8479E","title":"交通银行","lon":"121.528223738","lat":"31.2069378039","category":"150","category_name":"银行","address":"上海市浦东新区浦建路环龙路"},{"poiid":"B2094757D06AA2F84298","title":"怡东会所","lon":"121.52649","lat":"31.20372","category":"500","category_name":"未知分类","address":"浦东新区环龙路263弄1号怡东会所内(近东方路)"},{"poiid":"B2094757D068A5FC4893","title":"上海仁济医院教学楼","lon":"121.52515","lat":"31.207117","category":"253","category_name":"校园生活","address":"上海市东方路1630号上海仁济医院教学楼"},{"poiid":"B2094757D568ABFC459B","title":"中远龙阳公寓(中远行家)","lon":"121.528425","lat":"31.20794278","category":"47","category_name":"住宅区","address":"中远龙阳公寓(中远行家)位于浦东浦建路588号"},{"poiid":"B2094757D169A0FE489C","title":"东方金座","lon":"121.53086","lat":"31.208364","category":"46","category_name":"楼宇","address":"上海市浦东新区浦建路727号"}]