[{"poiid":"B2094757D16FA4FB409C","title":"莲盛","lon":"120.987449","lat":"31.049423","category":"500","category_name":"未知分类","address":"上海青浦区金泽镇莲盛社区"},{"poiid":"B2094757D16DA0FC489C","title":"青浦西岑锦绣园中学","lon":"120.97364727","lat":"31.037253713","category":"500","category_name":"未知分类","address":"上海青浦西岑"},{"poiid":"B2094654DB6DA5F8469C","title":"莲盛初级中学","lon":"120.99078","lat":"31.05333","category":"55","category_name":"中学","address":"上海市青浦区金泽镇莲湖路129号"},{"poiid":"B2094655D36CA1FA449B","title":"练西路泥墙头","lon":"120.97774","lat":"31.0553","category":"38","category_name":"公交车站","address":""},{"poiid":"B2094757D16FA7FD439E","title":"上海青城会务中心(淀山湖)拓展训练基地","lon":"120.96877724","lat":"31.049268434","category":"500","category_name":"未知分类","address":"上海青浦金泽镇"},{"poiid":"B2094654DB6DA5F8469F","title":"锦绣园中学","lon":"120.97074","lat":"31.05143","category":"55","category_name":"中学","address":"青浦区莲龚路8号(近南京东路)"},{"poiid":"B2094655D36CA5F44893","title":"北任","lon":"120.97446","lat":"31.05552","category":"38","category_name":"公交车站","address":""},{"poiid":"B2094654DB6DA5F9439B","title":"上海安信企业发展有限公司","lon":"120.97747","lat":"31.05547","category":"263","category_name":"公司","address":""},{"poiid":"B2094655D26BA7F8499F","title":"涵璧湾","lon":"120.983","lat":"31.0624","category":"47","category_name":"住宅区","address":"练西公路3585弄"},{"poiid":"B2094757D064A0F4479E","title":"淀山湖金龟岛渔村","lon":"120.97373114","lat":"31.05134538","category":"260","category_name":"其他","address":"上海近郊青浦区金泽镇建国村(A9金泽出口大转100米)"},{"poiid":"B2094757D66FA1FC4093","title":"青浦供电公司35kv莲盛变电站","lon":"121.0017932","lat":"31.0484611","category":"500","category_name":"未知分类","address":"上海青浦区练西公路莲金路"},{"poiid":"B2094654DB6DA5F84699","title":"上海市纺织职工淀山湖疗养院","lon":"120.96827","lat":"31.06189","category":"207","category_name":"度假疗养场所","address":"莲西路4085号"}]