[{"poiid":"B2094757D16AA7FF4899","title":"上海喜来春农业观光旅游区","lon":"121.73930218","lat":"31.219346543","category":"500","category_name":"未知分类","address":"上海市浦东新区合庆镇三甲路537号"},{"poiid":"B2094757D068A7FA499B","title":"蔡路","lon":"121.727589","lat":"31.21622","category":"500","category_name":"未知分类","address":"上海东川公路"},{"poiid":"B2094655D36CA4FD429D","title":"白龙港","lon":"121.74451","lat":"31.23305","category":"38","category_name":"公交车站","address":""},{"poiid":"B2094757D06AA4FF4492","title":"林克司高尔夫乡村俱乐部","lon":"121.75157","lat":"31.23538","category":"220","category_name":"运动场所","address":"中国上海市浦东新区凌白路1600号"},{"poiid":"B2094757D064AAFC439E","title":"众合农家乐","lon":"121.72867558","lat":"31.229271511","category":"247","category_name":"餐饮美食","address":"上海浦东合庆镇凌杨路463号"},{"poiid":"B2094655D26BA5F9459F","title":"海湾新城","lon":"121.72569","lat":"31.231733","category":"47","category_name":"住宅区","address":"庆利路425弄"},{"poiid":"B2094654DA6AA4FE4292","title":"上海色线浦东生产基地","lon":"121.73852","lat":"31.22569","category":"45","category_name":"产业园区","address":""},{"poiid":"B2094655D36CA5FD4292","title":"春雷村","lon":"121.74336","lat":"31.22077","category":"38","category_name":"公交车站","address":"上海,上海市,春雷村5队郭家宅"},{"poiid":"B2094654DA6AAAF94899","title":"浦东合庆新苗小学","lon":"121.73797","lat":"31.22356","category":"56","category_name":"小学","address":"浦东新区合庆镇友谊村（远东大道到联星路再过100米左右）"},{"poiid":"B2094654DA6AAAF9489E","title":"浦东新区合庆镇友谊村社区卫生服务站","lon":"121.73524","lat":"31.22537","category":"162","category_name":"医院","address":""},{"poiid":"B2094654DA6AAAF94492","title":"东宇酒家","lon":"121.74576","lat":"31.23338","category":"75","category_name":"浙江菜","address":"浦东新区宋家嘴30号白龙港临白路桥东首(合庆镇)"},{"poiid":"B2094654DA6AAAF9459D","title":"联华超市(凌白公路)","lon":"121.74373","lat":"31.23311","category":"118","category_name":"超级市场","address":""},{"poiid":"B2094757D66FA0FB419E","title":"凌白公路辉煌路","lon":"121.7432964","lat":"31.2328838","category":"500","category_name":"未知分类","address":"上海凌白公路辉煌路"},{"poiid":"B2094655D36DA2F8429B","title":"G1501合庆服务区","lon":"121.73424","lat":"31.22412","category":"250","category_name":"公园户外","address":""},{"poiid":"B2094655D26FA1FD4292","title":"曼德利别墅","lon":"121.74947","lat":"31.23374","category":"47","category_name":"住宅区","address":""},{"poiid":"B2094654DA6AAAF9489F","title":"合庆镇友谊村村民活动中心","lon":"121.73524","lat":"31.22537","category":"248","category_name":"生活娱乐","address":""},{"poiid":"B2094655D36CA1F94698","title":"凌白公路前哨公路","lon":"121.7317","lat":"31.23173","category":"38","category_name":"公交车站","address":""},{"poiid":"B2094655D36DA7FF459C","title":"直属村","lon":"121.75214","lat":"31.22117","category":"38","category_name":"公交车站","address":""},{"poiid":"B2094654DA6AAAF9479E","title":"世纪华联超市直属分店No.1246","lon":"121.75146","lat":"31.22148","category":"118","category_name":"超级市场","address":"合庆镇"},{"poiid":"B2094654DA6AAAF9479F","title":"上海河口海岸科学研究中心","lon":"121.74759","lat":"31.22142","category":"191","category_name":"科研机构","address":"星升路1045号"},{"poiid":"B2094757D064A4FB479D","title":"上海美国学校","lon":"121.75890974","lat":"31.231311869","category":"253","category_name":"校园生活","address":"浦东新区凌白公路(近林克斯高尔夫球场)"},{"poiid":"B2094757D16DABFA409C","title":"Links golf club","lon":"121.756834","lat":"31.230776","category":"500","category_name":"未知分类","address":"上海浦东新区凌白路1600号"},{"poiid":"B2094655D264A6FD4399","title":"海馨苑","lon":"121.72405","lat":"31.232328","category":"47","category_name":"住宅区","address":"上海市浦东新区合庆镇庆滨路155弄"},{"poiid":"B2094654DA6AAAF9449B","title":"上海畅成滨江工业区","lon":"121.75141","lat":"31.2359","category":"45","category_name":"产业园区","address":""},{"poiid":"B2094654DA6AAAFA4492","title":"燕宇生态林","lon":"121.74273","lat":"31.21526","category":"248","category_name":"生活娱乐","address":""},{"poiid":"B2094757D66EA0F54193","title":"上海勤昌烟草机械配件厂","lon":"121.738917085","lat":"31.2160617711","category":"500","category_name":"未知分类","address":"上海市浦东新区合庆镇三甲路516号"},{"poiid":"B2094654DA6AAAFA479E","title":"远东小区","lon":"121.73181","lat":"31.213169","category":"47","category_name":"住宅区","address":"塘东街178弄"},{"poiid":"B2094655D36CA2FF449E","title":"前哨基地","lon":"121.73051","lat":"31.23871","category":"38","category_name":"公交车站","address":""},{"poiid":"B2094655D36CA0F94993","title":"建光","lon":"121.74253","lat":"31.21213","category":"38","category_name":"公交车站","address":""},{"poiid":"B2094654DA6AA5F5449B","title":"上海川沙欣欣商场","lon":"121.72915","lat":"31.21697","category":"119","category_name":"商场","address":"东川公路3号"},{"poiid":"B2094654DA6AAAFA409D","title":"友谊小区","lon":"121.72643","lat":"31.223179","category":"47","category_name":"住宅区","address":"玉屏南路113弄"},{"poiid":"B2094757D16CAAFE429F","title":"芳汇广场辛香汇","lon":"121.731002385","lat":"31.2362554151","category":"500","category_name":"未知分类","address":"上海长寿路"},{"poiid":"B2094654DB69ABFE4599","title":"农工商超市(蔡路店)","lon":"121.72671","lat":"31.21987","category":"118","category_name":"超级市场","address":"浦东新区蔡路镇东川公路7858号"},{"poiid":"B2094654DA6AA4FD449C","title":"上海浦东合庆经济发展园区员工之家","lon":"121.73209","lat":"31.239599","category":"47","category_name":"住宅区","address":"前哨路717号"},{"poiid":"B2094752D168AAF84793","title":"浦东机场","lon":"121.724913","lat":"31.228575","category":"251","category_name":"出行住宿","address":"上海浦东国际机场"},{"poiid":"B2094655D36DA2F84199","title":"海塘桥","lon":"121.75462","lat":"31.215","category":"250","category_name":"公园户外","address":""},{"poiid":"B2094757D569A0FA489B","title":"荣华苑","lon":"121.731","lat":"31.2432","category":"47","category_name":"住宅区","address":"上海市浦东新区庆荣路485弄"},{"poiid":"B2094655D36CA7FB409F","title":"海塘","lon":"121.75539","lat":"31.21454","category":"38","category_name":"公交车站","address":""},{"poiid":"B2094654DA6AAAF84293","title":"庆华花苑","lon":"121.72365","lat":"31.23394","category":"47","category_name":"住宅区","address":"环庆中路323弄1-28号"},{"poiid":"B2094654DA6BA3FD459F","title":"国妹妹冷饮站","lon":"121.73068","lat":"31.21375","category":"113","category_name":"冷饮店","address":""},{"poiid":"B2094654DA6AAAFA4792","title":"上海市蔡路中学","lon":"121.72817","lat":"31.21432","category":"55","category_name":"中学","address":"浦东新区合庆镇蔡路东川公路7851号(庆利路庆荣路)"},{"poiid":"B2094655D36DA2FB419E","title":"水闸港桥","lon":"121.7257","lat":"31.21956","category":"250","category_name":"公园户外","address":""},{"poiid":"B2094655D26EA1F5429E","title":"上海市蔡路中学体育馆","lon":"121.72841","lat":"31.21435","category":"224","category_name":"综合体育馆","address":"东川公路7851"},{"poiid":"B2094654DA6BA3FD459B","title":"蔡路菜市场","lon":"121.73043","lat":"31.21373","category":"117","category_name":"便民商店/便利店","address":""},{"poiid":"B2094654DB65A0FA4093","title":"合庆镇蔡路逸夫小学","lon":"121.72949","lat":"31.21251","category":"56","category_name":"小学","address":"浦东新区蔡路镇东川公路7947弄28号"},{"poiid":"B2094757D065A4F4489A","title":"竖新镇","lon":"121.733817","lat":"31.240949","category":"500","category_name":"未知分类","address":"上海市崇明县竖新镇"},{"poiid":"B2094655D26EA0FC4798","title":"上海市蔡路中学体育馆(西门)","lon":"121.72817","lat":"31.21428","category":"224","category_name":"综合体育馆","address":"东川公路7851"},{"poiid":"B2094654DA6AA4FC429C","title":"名流大酒店","lon":"121.72831","lat":"31.214","category":"250","category_name":"公园户外","address":"东川公路1746号"},{"poiid":"B2094655D264ABF94199","title":"易捷便利店","lon":"121.74469","lat":"31.20782","category":"117","category_name":"便民商店/便利店","address":"合庆镇"},{"poiid":"B2094757D16BA4FA419C","title":"崇明南门新崇北路","lon":"121.72847808","lat":"31.239846994","category":"500","category_name":"未知分类","address":"上海新崇北路"},{"poiid":"B2094757D16AA7FF4899","title":"上海喜来春农业观光旅游区","lon":"121.73930218","lat":"31.219346543","category":"500","category_name":"未知分类","address":"上海市浦东新区合庆镇三甲路537号"},{"poiid":"B2094757D068A7FA499B","title":"蔡路","lon":"121.727589","lat":"31.21622","category":"500","category_name":"未知分类","address":"上海东川公路"},{"poiid":"B2094655D36CA4FD429D","title":"白龙港","lon":"121.74451","lat":"31.23305","category":"38","category_name":"公交车站","address":""},{"poiid":"B2094757D06AA4FF4492","title":"林克司高尔夫乡村俱乐部","lon":"121.75157","lat":"31.23538","category":"220","category_name":"运动场所","address":"中国上海市浦东新区凌白路1600号"},{"poiid":"B2094757D064AAFC439E","title":"众合农家乐","lon":"121.72867558","lat":"31.229271511","category":"247","category_name":"餐饮美食","address":"上海浦东合庆镇凌杨路463号"},{"poiid":"B2094655D26BA5F9459F","title":"海湾新城","lon":"121.72569","lat":"31.231733","category":"47","category_name":"住宅区","address":"庆利路425弄"},{"poiid":"B2094654DA6AA4FE4292","title":"上海色线浦东生产基地","lon":"121.73852","lat":"31.22569","category":"45","category_name":"产业园区","address":""},{"poiid":"B2094655D36CA5FD4292","title":"春雷村","lon":"121.74336","lat":"31.22077","category":"38","category_name":"公交车站","address":"上海,上海市,春雷村5队郭家宅"},{"poiid":"B2094654DA6AAAF94899","title":"浦东合庆新苗小学","lon":"121.73797","lat":"31.22356","category":"56","category_name":"小学","address":"浦东新区合庆镇友谊村（远东大道到联星路再过100米左右）"},{"poiid":"B2094654DA6AAAF9489E","title":"浦东新区合庆镇友谊村社区卫生服务站","lon":"121.73524","lat":"31.22537","category":"162","category_name":"医院","address":""},{"poiid":"B2094654DA6AAAF94492","title":"东宇酒家","lon":"121.74576","lat":"31.23338","category":"75","category_name":"浙江菜","address":"浦东新区宋家嘴30号白龙港临白路桥东首(合庆镇)"},{"poiid":"B2094654DA6AAAF9459D","title":"联华超市(凌白公路)","lon":"121.74373","lat":"31.23311","category":"118","category_name":"超级市场","address":""},{"poiid":"B2094757D66FA0FB419E","title":"凌白公路辉煌路","lon":"121.7432964","lat":"31.2328838","category":"500","category_name":"未知分类","address":"上海凌白公路辉煌路"},{"poiid":"B2094655D36DA2F8429B","title":"G1501合庆服务区","lon":"121.73424","lat":"31.22412","category":"250","category_name":"公园户外","address":""},{"poiid":"B2094655D26FA1FD4292","title":"曼德利别墅","lon":"121.74947","lat":"31.23374","category":"47","category_name":"住宅区","address":""},{"poiid":"B2094654DA6AAAF9489F","title":"合庆镇友谊村村民活动中心","lon":"121.73524","lat":"31.22537","category":"248","category_name":"生活娱乐","address":""},{"poiid":"B2094655D36CA1F94698","title":"凌白公路前哨公路","lon":"121.7317","lat":"31.23173","category":"38","category_name":"公交车站","address":""},{"poiid":"B2094655D36DA7FF459C","title":"直属村","lon":"121.75214","lat":"31.22117","category":"38","category_name":"公交车站","address":""},{"poiid":"B2094654DA6AAAF9479E","title":"世纪华联超市直属分店No.1246","lon":"121.75146","lat":"31.22148","category":"118","category_name":"超级市场","address":"合庆镇"},{"poiid":"B2094654DA6AAAF9479F","title":"上海河口海岸科学研究中心","lon":"121.74759","lat":"31.22142","category":"191","category_name":"科研机构","address":"星升路1045号"},{"poiid":"B2094757D064A4FB479D","title":"上海美国学校","lon":"121.75890974","lat":"31.231311869","category":"253","category_name":"校园生活","address":"浦东新区凌白公路(近林克斯高尔夫球场)"},{"poiid":"B2094757D16DABFA409C","title":"Links golf club","lon":"121.756834","lat":"31.230776","category":"500","category_name":"未知分类","address":"上海浦东新区凌白路1600号"},{"poiid":"B2094655D264A6FD4399","title":"海馨苑","lon":"121.72405","lat":"31.232328","category":"47","category_name":"住宅区","address":"上海市浦东新区合庆镇庆滨路155弄"},{"poiid":"B2094654DA6AAAF9449B","title":"上海畅成滨江工业区","lon":"121.75141","lat":"31.2359","category":"45","category_name":"产业园区","address":""},{"poiid":"B2094654DA6AAAFA4492","title":"燕宇生态林","lon":"121.74273","lat":"31.21526","category":"248","category_name":"生活娱乐","address":""},{"poiid":"B2094757D66EA0F54193","title":"上海勤昌烟草机械配件厂","lon":"121.738917085","lat":"31.2160617711","category":"500","category_name":"未知分类","address":"上海市浦东新区合庆镇三甲路516号"},{"poiid":"B2094654DA6AAAFA479E","title":"远东小区","lon":"121.73181","lat":"31.213169","category":"47","category_name":"住宅区","address":"塘东街178弄"},{"poiid":"B2094655D36CA2FF449E","title":"前哨基地","lon":"121.73051","lat":"31.23871","category":"38","category_name":"公交车站","address":""},{"poiid":"B2094655D36CA0F94993","title":"建光","lon":"121.74253","lat":"31.21213","category":"38","category_name":"公交车站","address":""},{"poiid":"B2094654DA6AA5F5449B","title":"上海川沙欣欣商场","lon":"121.72915","lat":"31.21697","category":"119","category_name":"商场","address":"东川公路3号"},{"poiid":"B2094654DA6AAAFA409D","title":"友谊小区","lon":"121.72643","lat":"31.223179","category":"47","category_name":"住宅区","address":"玉屏南路113弄"},{"poiid":"B2094757D16CAAFE429F","title":"芳汇广场辛香汇","lon":"121.731002385","lat":"31.2362554151","category":"500","category_name":"未知分类","address":"上海长寿路"},{"poiid":"B2094654DB69ABFE4599","title":"农工商超市(蔡路店)","lon":"121.72671","lat":"31.21987","category":"118","category_name":"超级市场","address":"浦东新区蔡路镇东川公路7858号"},{"poiid":"B2094654DA6AA4FD449C","title":"上海浦东合庆经济发展园区员工之家","lon":"121.73209","lat":"31.239599","category":"47","category_name":"住宅区","address":"前哨路717号"},{"poiid":"B2094752D168AAF84793","title":"浦东机场","lon":"121.724913","lat":"31.228575","category":"251","category_name":"出行住宿","address":"上海浦东国际机场"},{"poiid":"B2094655D36DA2F84199","title":"海塘桥","lon":"121.75462","lat":"31.215","category":"250","category_name":"公园户外","address":""},{"poiid":"B2094757D569A0FA489B","title":"荣华苑","lon":"121.731","lat":"31.2432","category":"47","category_name":"住宅区","address":"上海市浦东新区庆荣路485弄"},{"poiid":"B2094655D36CA7FB409F","title":"海塘","lon":"121.75539","lat":"31.21454","category":"38","category_name":"公交车站","address":""},{"poiid":"B2094654DA6AAAF84293","title":"庆华花苑","lon":"121.72365","lat":"31.23394","category":"47","category_name":"住宅区","address":"环庆中路323弄1-28号"},{"poiid":"B2094654DA6BA3FD459F","title":"国妹妹冷饮站","lon":"121.73068","lat":"31.21375","category":"113","category_name":"冷饮店","address":""},{"poiid":"B2094654DA6AAAFA4792","title":"上海市蔡路中学","lon":"121.72817","lat":"31.21432","category":"55","category_name":"中学","address":"浦东新区合庆镇蔡路东川公路7851号(庆利路庆荣路)"},{"poiid":"B2094655D36DA2FB419E","title":"水闸港桥","lon":"121.7257","lat":"31.21956","category":"250","category_name":"公园户外","address":""},{"poiid":"B2094655D26EA1F5429E","title":"上海市蔡路中学体育馆","lon":"121.72841","lat":"31.21435","category":"224","category_name":"综合体育馆","address":"东川公路7851"},{"poiid":"B2094654DA6BA3FD459B","title":"蔡路菜市场","lon":"121.73043","lat":"31.21373","category":"117","category_name":"便民商店/便利店","address":""},{"poiid":"B2094654DB65A0FA4093","title":"合庆镇蔡路逸夫小学","lon":"121.72949","lat":"31.21251","category":"56","category_name":"小学","address":"浦东新区蔡路镇东川公路7947弄28号"},{"poiid":"B2094757D065A4F4489A","title":"竖新镇","lon":"121.733817","lat":"31.240949","category":"500","category_name":"未知分类","address":"上海市崇明县竖新镇"},{"poiid":"B2094655D26EA0FC4798","title":"上海市蔡路中学体育馆(西门)","lon":"121.72817","lat":"31.21428","category":"224","category_name":"综合体育馆","address":"东川公路7851"},{"poiid":"B2094654DA6AA4FC429C","title":"名流大酒店","lon":"121.72831","lat":"31.214","category":"250","category_name":"公园户外","address":"东川公路1746号"},{"poiid":"B2094655D264ABF94199","title":"易捷便利店","lon":"121.74469","lat":"31.20782","category":"117","category_name":"便民商店/便利店","address":"合庆镇"},{"poiid":"B2094757D16BA4FA419C","title":"崇明南门新崇北路","lon":"121.72847808","lat":"31.239846994","category":"500","category_name":"未知分类","address":"上海新崇北路"}]