[{"poiid":"B2094750DB6BA7FB499B","title":"顺风大酒店（吴中路店）","lon":"121.41641","lat":"31.18793","category":"75","category_name":"浙江菜","address":"徐汇区吴中路52号(近桂林路)"},{"poiid":"B2094750D365A0FE419E","title":"花嫁丽舍私人婚礼会所（吴中店）","lon":"121.417551","lat":"31.188712","category":"248","category_name":"生活娱乐","address":"徐汇区吴中路52号4楼(10月份开业)查看地图"},{"poiid":"B2094757D06FA1FC429B","title":"中山西路虹橋路","lon":"121.41738","lat":"31.194231","category":"500","category_name":"未知分类","address":"上海中山西路虹橋路"},{"poiid":"B2094757D06FA4FB4099","title":"御香海 宋园店 Gokohai","lon":"121.41368969936","lat":"31.190034480628","category":"95","category_name":"日本料理","address":"长宁区宋园路85号(近古羊路)"},{"poiid":"B2094757D06FABF4469F","title":"上海市第一中级人民法院","lon":"121.41495811","lat":"31.195533261","category":"608","category_name":"法院","address":"上海市长宁区虹桥路1200号"},{"poiid":"B2094654D56BABF94193","title":"上海市疾病预防控制中心","lon":"121.41779","lat":"31.19329","category":"162","category_name":"医院","address":"上海市长宁区中山西路1380号"},{"poiid":"B2094655D26BA4FB4299","title":"百丽时尚中心","lon":"121.42039","lat":"31.19241","category":"46","category_name":"楼宇","address":"中山西路1279弄2"},{"poiid":"B2094753D46BA3F94193","title":"月星·环球港","lon":"121.416976","lat":"31.196382","category":"500","category_name":"未知分类","address":"上海市 中山北路3300号"},{"poiid":"B2094757D069A0FE469A","title":"新概念大厦","lon":"121.419595295","lat":"31.1881998638","category":"46","category_name":"楼宇","address":"北一环与亳州路交叉口(庐阳区政府对面)"},{"poiid":"B2094757D56EA1F4469B","title":"星巴克","lon":"121.41682099017935","lat":"31.18908598862775","category":"247","category_name":"餐饮美食","address":"徐汇区中山西路1602号宏汇国际广场B座1楼(近吴中路)"},{"poiid":"B2094757D065A2FA4393","title":"紋兵衛","lon":"121.41381215","lat":"31.192454142","category":"95","category_name":"日本料理","address":"长宁区宋园路79号(近古羊路)"},{"poiid":"B2094655D26BABFD4992","title":"小鹭鹭酒家宋园店","lon":"121.41328","lat":"31.19241","category":"71","category_name":"四川菜","address":"长宁区宋园路71-73号(黄金城道古羊路间)"},{"poiid":"B2094757D068A0FE4398","title":"ESPRIT CHINA","lon":"121.42015183","lat":"31.193534303","category":"500","category_name":"未知分类","address":"上海虹桥路996弄71号甲"},{"poiid":"B2094654DA6DA2FF419A","title":"丽池(虹桥)会所","lon":"121.41874","lat":"31.19545","category":"248","category_name":"生活娱乐","address":"虹桥路1030"},{"poiid":"B2094750D365A6F8439B","title":"上海外灘","lon":"121.41497","lat":"31.18865","category":"250","category_name":"公园户外","address":null},{"poiid":"B2094654DB6BA7FF479C","title":"虹欣小区","lon":"121.41825","lat":"31.1926","category":"47","category_name":"住宅区","address":"中山西路1410弄1-29号"},{"poiid":"B2094757D065A0F44393","title":"虹南小区","lon":"121.41888","lat":"31.191803","category":"252","category_name":"楼宇机构","address":"上海中山西路1432弄"},{"poiid":"B2094655D265A2F4439D","title":"筷莫停 中山西路店","lon":"121.41969","lat":"31.1916","category":"77","category_name":"湖南菜","address":"长宁区中山西路1257号(近虹桥路)"},{"poiid":"B2094654DA6DA2FF489A","title":"钟记小馆","lon":"121.41946","lat":"31.19242","category":"68","category_name":"快餐厅","address":"长宁区中山西路(近吴中路)"},{"poiid":"B2094757D069ABFB489F","title":"湘江大厦","lon":"121.420207","lat":"31.192691","category":"252","category_name":"楼宇机构","address":"上海市长宁区中山西路1265弄18号"},{"poiid":"B209475DD36FA6FE459E","title":"人民广场","lon":"121.41809","lat":"31.191297","category":"500","category_name":"未知分类","address":"上海市 人民广场"},{"poiid":"B2094750DB6CA4FC4398","title":"上海动物园","lon":"121.416801","lat":"31.194623","category":"500","category_name":"未知分类","address":null},{"poiid":"B2094655D268A3F94892","title":"古北首席","lon":"121.418","lat":"31.1901","category":"47","category_name":"住宅区","address":"吴中路405弄100支弄"},{"poiid":"B2094655D265A2F9439C","title":"圣骊虹桥创意园","lon":"121.42069","lat":"31.1935","category":"45","category_name":"产业园区","address":"上海虹桥路996弄161号"},{"poiid":"B2094655D26FA5FD409B","title":"九九园","lon":"121.41926","lat":"31.193438","category":"47","category_name":"住宅区","address":"上海市长宁区中山西路1251号"},{"poiid":"B2094655D268A6F5429D","title":"芙蓉阁","lon":"121.41686585848","lat":"31.195169471921","category":"77","category_name":"湖南菜","address":"长宁区中山西路1243号三湘大厦2楼(近虹桥路口)"},{"poiid":"B2094654D56BABFA439C","title":"磐石虹三大厦","lon":"121.41619","lat":"31.19133","category":"46","category_name":"楼宇","address":"古羊路158"},{"poiid":"B2094654DB65A1F94793","title":"好德便利No.677","lon":"121.41894","lat":"31.19294","category":"117","category_name":"便民商店/便利店","address":"虹桥"},{"poiid":"B2094654D56BABF9489B","title":"上海雷允上药业有限公司营销中心(后门)","lon":"121.41814","lat":"31.19082","category":"162","category_name":"医院","address":"古井路173"},{"poiid":"B2094654DB6BA7FF4999","title":"振宏苑","lon":"121.416","lat":"31.1934","category":"47","category_name":"住宅区","address":"姚虹路108弄"},{"poiid":"B2094655D26FA5FF489E","title":"长虹小区","lon":"121.42102","lat":"31.194775","category":"47","category_name":"住宅区","address":"虹桥路996弄"},{"poiid":"B2094752DB6FA2FD469F","title":"纳东云南小菜","lon":"121.416415","lat":"31.191194","category":"500","category_name":"未知分类","address":"上海市 徐汇区柳州路928号2F"},{"poiid":"B2094757D16FA0F8479C","title":"中星美华村","lon":"121.417229","lat":"31.193576","category":"500","category_name":"未知分类","address":"长宁区镇宁路111号"},{"poiid":"B2094757D66BA2F5429B","title":"AROMA日式家庭料理","lon":"121.4135171","lat":"31.1928983","category":"95","category_name":"日本料理","address":"长宁区宋园路52号(近黄金城道)"},{"poiid":"B2094752D064A7FC4993","title":"宜家家居（上海徐汇商场店）","lon":"121.419233","lat":"31.192485","category":"249","category_name":"购物服务","address":null},{"poiid":"B2094654DB64A4F4429A","title":"住安中山办公楼B座","lon":"121.41965","lat":"31.19255","category":"46","category_name":"楼宇","address":"中山西路1257"},{"poiid":"B2094757D66CA4FE419E","title":"包旺锅贴","lon":"121.41934458","lat":"31.192126686","category":"247","category_name":"餐饮美食","address":"上海中山西路1257号"},{"poiid":"B2094757D569A7FE409B","title":"全家便利店(内环高架路入口)","lon":"121.41984945","lat":"31.19173313","category":"117","category_name":"便民商店/便利店","address":"中山西路1277-13"},{"poiid":"B2094757D66EA6F94699","title":"强生世博车","lon":"121.41749158","lat":"31.192163686","category":"249","category_name":"购物服务","address":"上海市"},{"poiid":"B2094757D069AAFA439E","title":"同昆数码彩印(虹桥路店)","lon":"121.41739","lat":"31.19542","category":"500","category_name":"未知分类","address":"长宁区虹桥路1112号丽景苑(近中山西路)"},{"poiid":"B2094654DB65A1F9489B","title":"游子老鸭粉丝馆中山西路店","lon":"121.41941","lat":"31.19267","category":"257","category_name":"中餐厅","address":"长宁区中山西路1257号(近虹桥路)"},{"poiid":"B2094655D265A6F4429A","title":"国大药房中山西路店","lon":"121.41953","lat":"31.19213","category":"162","category_name":"医院","address":"中山西路1277-5临"},{"poiid":"B2094655D265A2FC409F","title":"72面馆","lon":"121.41959","lat":"31.19253","category":"257","category_name":"中餐厅","address":"长宁区中山西路1257号(近湘江大厦)"},{"poiid":"B2094757D16FAAFF479D","title":"徐汇艺术幼儿园","lon":"121.41871968","lat":"31.188931823","category":"57","category_name":"幼儿园","address":"上海古井路160号"},{"poiid":"B2094757D068A6F44598","title":"上海泸定中学","lon":"121.419763","lat":"31.194645","category":"55","category_name":"中学","address":"长宁区中山西路911弄1号"},{"poiid":"B2094757D06BABFC419B","title":"宋园路黄金城道","lon":"121.41876649","lat":"31.194507502","category":"500","category_name":"未知分类","address":"上海宋园路黄金城道"},{"poiid":"B2094655D264A0F8479F","title":"圣骊创意园","lon":"121.42068","lat":"31.19375","category":"252","category_name":"楼宇机构","address":"闸北区中山北路470号（临近西藏北路）"},{"poiid":"B2094757D164A7F8439B","title":"中山西路1440号","lon":"121.419373","lat":"31.191082","category":"162","category_name":"医院","address":"上海市长宁区中山西路1440号"},{"poiid":"B2094655D26AA3FB419A","title":"南洋医院中山西路分部","lon":"121.41955","lat":"31.19116","category":"247","category_name":"餐饮美食","address":"长宁区中山西路1440号(近虹桥路地铁站)"},{"poiid":"B2094757D468A4FC459F","title":"樱川日本料理","lon":"121.4170033","lat":"31.1963432","category":"95","category_name":"日本料理","address":"长宁区中山西路888号银河宾馆2楼"},{"poiid":"B2094750DB6BA7FB499B","title":"顺风大酒店（吴中路店）","lon":"121.41641","lat":"31.18793","category":"75","category_name":"浙江菜","address":"徐汇区吴中路52号(近桂林路)"},{"poiid":"B2094750D365A0FE419E","title":"花嫁丽舍私人婚礼会所（吴中店）","lon":"121.417551","lat":"31.188712","category":"248","category_name":"生活娱乐","address":"徐汇区吴中路52号4楼(10月份开业)查看地图"},{"poiid":"B2094757D06FA1FC429B","title":"中山西路虹橋路","lon":"121.41738","lat":"31.194231","category":"500","category_name":"未知分类","address":"上海中山西路虹橋路"},{"poiid":"B2094757D06FA4FB4099","title":"御香海 宋园店 Gokohai","lon":"121.41368969936","lat":"31.190034480628","category":"95","category_name":"日本料理","address":"长宁区宋园路85号(近古羊路)"},{"poiid":"B2094757D06FABF4469F","title":"上海市第一中级人民法院","lon":"121.41495811","lat":"31.195533261","category":"608","category_name":"法院","address":"上海市长宁区虹桥路1200号"},{"poiid":"B2094654D56BABF94193","title":"上海市疾病预防控制中心","lon":"121.41779","lat":"31.19329","category":"162","category_name":"医院","address":"上海市长宁区中山西路1380号"},{"poiid":"B2094655D26BA4FB4299","title":"百丽时尚中心","lon":"121.42039","lat":"31.19241","category":"46","category_name":"楼宇","address":"中山西路1279弄2"},{"poiid":"B2094753D46BA3F94193","title":"月星·环球港","lon":"121.416976","lat":"31.196382","category":"500","category_name":"未知分类","address":"上海市 中山北路3300号"},{"poiid":"B2094757D069A0FE469A","title":"新概念大厦","lon":"121.419595295","lat":"31.1881998638","category":"46","category_name":"楼宇","address":"北一环与亳州路交叉口(庐阳区政府对面)"},{"poiid":"B2094757D56EA1F4469B","title":"星巴克","lon":"121.41682099017935","lat":"31.18908598862775","category":"247","category_name":"餐饮美食","address":"徐汇区中山西路1602号宏汇国际广场B座1楼(近吴中路)"},{"poiid":"B2094757D065A2FA4393","title":"紋兵衛","lon":"121.41381215","lat":"31.192454142","category":"95","category_name":"日本料理","address":"长宁区宋园路79号(近古羊路)"},{"poiid":"B2094655D26BABFD4992","title":"小鹭鹭酒家宋园店","lon":"121.41328","lat":"31.19241","category":"71","category_name":"四川菜","address":"长宁区宋园路71-73号(黄金城道古羊路间)"},{"poiid":"B2094757D068A0FE4398","title":"ESPRIT CHINA","lon":"121.42015183","lat":"31.193534303","category":"500","category_name":"未知分类","address":"上海虹桥路996弄71号甲"},{"poiid":"B2094654DA6DA2FF419A","title":"丽池(虹桥)会所","lon":"121.41874","lat":"31.19545","category":"248","category_name":"生活娱乐","address":"虹桥路1030"},{"poiid":"B2094750D365A6F8439B","title":"上海外灘","lon":"121.41497","lat":"31.18865","category":"250","category_name":"公园户外","address":null},{"poiid":"B2094654DB6BA7FF479C","title":"虹欣小区","lon":"121.41825","lat":"31.1926","category":"47","category_name":"住宅区","address":"中山西路1410弄1-29号"},{"poiid":"B2094757D065A0F44393","title":"虹南小区","lon":"121.41888","lat":"31.191803","category":"252","category_name":"楼宇机构","address":"上海中山西路1432弄"},{"poiid":"B2094655D265A2F4439D","title":"筷莫停 中山西路店","lon":"121.41969","lat":"31.1916","category":"77","category_name":"湖南菜","address":"长宁区中山西路1257号(近虹桥路)"},{"poiid":"B2094654DA6DA2FF489A","title":"钟记小馆","lon":"121.41946","lat":"31.19242","category":"68","category_name":"快餐厅","address":"长宁区中山西路(近吴中路)"},{"poiid":"B2094757D069ABFB489F","title":"湘江大厦","lon":"121.420207","lat":"31.192691","category":"252","category_name":"楼宇机构","address":"上海市长宁区中山西路1265弄18号"},{"poiid":"B209475DD36FA6FE459E","title":"人民广场","lon":"121.41809","lat":"31.191297","category":"500","category_name":"未知分类","address":"上海市 人民广场"},{"poiid":"B2094750DB6CA4FC4398","title":"上海动物园","lon":"121.416801","lat":"31.194623","category":"500","category_name":"未知分类","address":null},{"poiid":"B2094655D268A3F94892","title":"古北首席","lon":"121.418","lat":"31.1901","category":"47","category_name":"住宅区","address":"吴中路405弄100支弄"},{"poiid":"B2094655D265A2F9439C","title":"圣骊虹桥创意园","lon":"121.42069","lat":"31.1935","category":"45","category_name":"产业园区","address":"上海虹桥路996弄161号"},{"poiid":"B2094655D26FA5FD409B","title":"九九园","lon":"121.41926","lat":"31.193438","category":"47","category_name":"住宅区","address":"上海市长宁区中山西路1251号"},{"poiid":"B2094655D268A6F5429D","title":"芙蓉阁","lon":"121.41686585848","lat":"31.195169471921","category":"77","category_name":"湖南菜","address":"长宁区中山西路1243号三湘大厦2楼(近虹桥路口)"},{"poiid":"B2094654D56BABFA439C","title":"磐石虹三大厦","lon":"121.41619","lat":"31.19133","category":"46","category_name":"楼宇","address":"古羊路158"},{"poiid":"B2094654DB65A1F94793","title":"好德便利No.677","lon":"121.41894","lat":"31.19294","category":"117","category_name":"便民商店/便利店","address":"虹桥"},{"poiid":"B2094654D56BABF9489B","title":"上海雷允上药业有限公司营销中心(后门)","lon":"121.41814","lat":"31.19082","category":"162","category_name":"医院","address":"古井路173"},{"poiid":"B2094654DB6BA7FF4999","title":"振宏苑","lon":"121.416","lat":"31.1934","category":"47","category_name":"住宅区","address":"姚虹路108弄"},{"poiid":"B2094655D26FA5FF489E","title":"长虹小区","lon":"121.42102","lat":"31.194775","category":"47","category_name":"住宅区","address":"虹桥路996弄"},{"poiid":"B2094752DB6FA2FD469F","title":"纳东云南小菜","lon":"121.416415","lat":"31.191194","category":"500","category_name":"未知分类","address":"上海市 徐汇区柳州路928号2F"},{"poiid":"B2094757D16FA0F8479C","title":"中星美华村","lon":"121.417229","lat":"31.193576","category":"500","category_name":"未知分类","address":"长宁区镇宁路111号"},{"poiid":"B2094757D66BA2F5429B","title":"AROMA日式家庭料理","lon":"121.4135171","lat":"31.1928983","category":"95","category_name":"日本料理","address":"长宁区宋园路52号(近黄金城道)"},{"poiid":"B2094752D064A7FC4993","title":"宜家家居（上海徐汇商场店）","lon":"121.419233","lat":"31.192485","category":"249","category_name":"购物服务","address":null},{"poiid":"B2094654DB64A4F4429A","title":"住安中山办公楼B座","lon":"121.41965","lat":"31.19255","category":"46","category_name":"楼宇","address":"中山西路1257"},{"poiid":"B2094757D66CA4FE419E","title":"包旺锅贴","lon":"121.41934458","lat":"31.192126686","category":"247","category_name":"餐饮美食","address":"上海中山西路1257号"},{"poiid":"B2094757D569A7FE409B","title":"全家便利店(内环高架路入口)","lon":"121.41984945","lat":"31.19173313","category":"117","category_name":"便民商店/便利店","address":"中山西路1277-13"},{"poiid":"B2094757D66EA6F94699","title":"强生世博车","lon":"121.41749158","lat":"31.192163686","category":"249","category_name":"购物服务","address":"上海市"},{"poiid":"B2094757D069AAFA439E","title":"同昆数码彩印(虹桥路店)","lon":"121.41739","lat":"31.19542","category":"500","category_name":"未知分类","address":"长宁区虹桥路1112号丽景苑(近中山西路)"},{"poiid":"B2094654DB65A1F9489B","title":"游子老鸭粉丝馆中山西路店","lon":"121.41941","lat":"31.19267","category":"257","category_name":"中餐厅","address":"长宁区中山西路1257号(近虹桥路)"},{"poiid":"B2094655D265A6F4429A","title":"国大药房中山西路店","lon":"121.41953","lat":"31.19213","category":"162","category_name":"医院","address":"中山西路1277-5临"},{"poiid":"B2094655D265A2FC409F","title":"72面馆","lon":"121.41959","lat":"31.19253","category":"257","category_name":"中餐厅","address":"长宁区中山西路1257号(近湘江大厦)"},{"poiid":"B2094757D16FAAFF479D","title":"徐汇艺术幼儿园","lon":"121.41871968","lat":"31.188931823","category":"57","category_name":"幼儿园","address":"上海古井路160号"},{"poiid":"B2094757D068A6F44598","title":"上海泸定中学","lon":"121.419763","lat":"31.194645","category":"55","category_name":"中学","address":"长宁区中山西路911弄1号"},{"poiid":"B2094757D06BABFC419B","title":"宋园路黄金城道","lon":"121.41876649","lat":"31.194507502","category":"500","category_name":"未知分类","address":"上海宋园路黄金城道"},{"poiid":"B2094655D264A0F8479F","title":"圣骊创意园","lon":"121.42068","lat":"31.19375","category":"252","category_name":"楼宇机构","address":"闸北区中山北路470号（临近西藏北路）"},{"poiid":"B2094757D164A7F8439B","title":"中山西路1440号","lon":"121.419373","lat":"31.191082","category":"162","category_name":"医院","address":"上海市长宁区中山西路1440号"},{"poiid":"B2094655D26AA3FB419A","title":"南洋医院中山西路分部","lon":"121.41955","lat":"31.19116","category":"247","category_name":"餐饮美食","address":"长宁区中山西路1440号(近虹桥路地铁站)"},{"poiid":"B2094757D468A4FC459F","title":"樱川日本料理","lon":"121.4170033","lat":"31.1963432","category":"95","category_name":"日本料理","address":"长宁区中山西路888号银河宾馆2楼"},{"poiid":"B2094750DB6BA7FB499B","title":"顺风大酒店（吴中路店）","lon":"121.41641","lat":"31.18793","category":"75","category_name":"浙江菜","address":"徐汇区吴中路52号(近桂林路)"},{"poiid":"B2094750D365A0FE419E","title":"花嫁丽舍私人婚礼会所（吴中店）","lon":"121.417551","lat":"31.188712","category":"248","category_name":"生活娱乐","address":"徐汇区吴中路52号4楼(10月份开业)查看地图"},{"poiid":"B2094757D06FA1FC429B","title":"中山西路虹橋路","lon":"121.41738","lat":"31.194231","category":"500","category_name":"未知分类","address":"上海中山西路虹橋路"},{"poiid":"B2094757D06FA4FB4099","title":"御香海 宋园店 Gokohai","lon":"121.41368969936","lat":"31.190034480628","category":"95","category_name":"日本料理","address":"长宁区宋园路85号(近古羊路)"},{"poiid":"B2094757D06FABF4469F","title":"上海市第一中级人民法院","lon":"121.41495811","lat":"31.195533261","category":"608","category_name":"法院","address":"上海市长宁区虹桥路1200号"},{"poiid":"B2094654D56BABF94193","title":"上海市疾病预防控制中心","lon":"121.41779","lat":"31.19329","category":"162","category_name":"医院","address":"上海市长宁区中山西路1380号"},{"poiid":"B2094655D26BA4FB4299","title":"百丽时尚中心","lon":"121.42039","lat":"31.19241","category":"46","category_name":"楼宇","address":"中山西路1279弄2"},{"poiid":"B2094753D46BA3F94193","title":"月星·环球港","lon":"121.416976","lat":"31.196382","category":"500","category_name":"未知分类","address":"上海市 中山北路3300号"},{"poiid":"B2094757D069A0FE469A","title":"新概念大厦","lon":"121.419595295","lat":"31.1881998638","category":"46","category_name":"楼宇","address":"北一环与亳州路交叉口(庐阳区政府对面)"},{"poiid":"B2094757D56EA1F4469B","title":"星巴克","lon":"121.41682099017935","lat":"31.18908598862775","category":"247","category_name":"餐饮美食","address":"徐汇区中山西路1602号宏汇国际广场B座1楼(近吴中路)"},{"poiid":"B2094757D065A2FA4393","title":"紋兵衛","lon":"121.41381215","lat":"31.192454142","category":"95","category_name":"日本料理","address":"长宁区宋园路79号(近古羊路)"},{"poiid":"B2094655D26BABFD4992","title":"小鹭鹭酒家宋园店","lon":"121.41328","lat":"31.19241","category":"71","category_name":"四川菜","address":"长宁区宋园路71-73号(黄金城道古羊路间)"},{"poiid":"B2094757D068A0FE4398","title":"ESPRIT CHINA","lon":"121.42015183","lat":"31.193534303","category":"500","category_name":"未知分类","address":"上海虹桥路996弄71号甲"},{"poiid":"B2094654DA6DA2FF419A","title":"丽池(虹桥)会所","lon":"121.41874","lat":"31.19545","category":"248","category_name":"生活娱乐","address":"虹桥路1030"},{"poiid":"B2094750D365A6F8439B","title":"上海外灘","lon":"121.41497","lat":"31.18865","category":"250","category_name":"公园户外","address":null},{"poiid":"B2094654DB6BA7FF479C","title":"虹欣小区","lon":"121.41825","lat":"31.1926","category":"47","category_name":"住宅区","address":"中山西路1410弄1-29号"},{"poiid":"B2094757D065A0F44393","title":"虹南小区","lon":"121.41888","lat":"31.191803","category":"252","category_name":"楼宇机构","address":"上海中山西路1432弄"},{"poiid":"B2094655D265A2F4439D","title":"筷莫停 中山西路店","lon":"121.41969","lat":"31.1916","category":"77","category_name":"湖南菜","address":"长宁区中山西路1257号(近虹桥路)"},{"poiid":"B2094654DA6DA2FF489A","title":"钟记小馆","lon":"121.41946","lat":"31.19242","category":"68","category_name":"快餐厅","address":"长宁区中山西路(近吴中路)"},{"poiid":"B2094757D069ABFB489F","title":"湘江大厦","lon":"121.420207","lat":"31.192691","category":"252","category_name":"楼宇机构","address":"上海市长宁区中山西路1265弄18号"},{"poiid":"B209475DD36FA6FE459E","title":"人民广场","lon":"121.41809","lat":"31.191297","category":"500","category_name":"未知分类","address":"上海市 人民广场"},{"poiid":"B2094750DB6CA4FC4398","title":"上海动物园","lon":"121.416801","lat":"31.194623","category":"500","category_name":"未知分类","address":null},{"poiid":"B2094655D268A3F94892","title":"古北首席","lon":"121.418","lat":"31.1901","category":"47","category_name":"住宅区","address":"吴中路405弄100支弄"},{"poiid":"B2094655D265A2F9439C","title":"圣骊虹桥创意园","lon":"121.42069","lat":"31.1935","category":"45","category_name":"产业园区","address":"上海虹桥路996弄161号"},{"poiid":"B2094655D26FA5FD409B","title":"九九园","lon":"121.41926","lat":"31.193438","category":"47","category_name":"住宅区","address":"上海市长宁区中山西路1251号"},{"poiid":"B2094655D268A6F5429D","title":"芙蓉阁","lon":"121.41686585848","lat":"31.195169471921","category":"77","category_name":"湖南菜","address":"长宁区中山西路1243号三湘大厦2楼(近虹桥路口)"},{"poiid":"B2094654D56BABFA439C","title":"磐石虹三大厦","lon":"121.41619","lat":"31.19133","category":"46","category_name":"楼宇","address":"古羊路158"},{"poiid":"B2094654DB65A1F94793","title":"好德便利No.677","lon":"121.41894","lat":"31.19294","category":"117","category_name":"便民商店/便利店","address":"虹桥"},{"poiid":"B2094654D56BABF9489B","title":"上海雷允上药业有限公司营销中心(后门)","lon":"121.41814","lat":"31.19082","category":"162","category_name":"医院","address":"古井路173"},{"poiid":"B2094654DB6BA7FF4999","title":"振宏苑","lon":"121.416","lat":"31.1934","category":"47","category_name":"住宅区","address":"姚虹路108弄"},{"poiid":"B2094655D26FA5FF489E","title":"长虹小区","lon":"121.42102","lat":"31.194775","category":"47","category_name":"住宅区","address":"虹桥路996弄"},{"poiid":"B2094752DB6FA2FD469F","title":"纳东云南小菜","lon":"121.416415","lat":"31.191194","category":"500","category_name":"未知分类","address":"上海市 徐汇区柳州路928号2F"},{"poiid":"B2094757D16FA0F8479C","title":"中星美华村","lon":"121.417229","lat":"31.193576","category":"500","category_name":"未知分类","address":"长宁区镇宁路111号"},{"poiid":"B2094757D66BA2F5429B","title":"AROMA日式家庭料理","lon":"121.4135171","lat":"31.1928983","category":"95","category_name":"日本料理","address":"长宁区宋园路52号(近黄金城道)"},{"poiid":"B2094752D064A7FC4993","title":"宜家家居（上海徐汇商场店）","lon":"121.419233","lat":"31.192485","category":"249","category_name":"购物服务","address":null},{"poiid":"B2094654DB64A4F4429A","title":"住安中山办公楼B座","lon":"121.41965","lat":"31.19255","category":"46","category_name":"楼宇","address":"中山西路1257"},{"poiid":"B2094757D66CA4FE419E","title":"包旺锅贴","lon":"121.41934458","lat":"31.192126686","category":"247","category_name":"餐饮美食","address":"上海中山西路1257号"},{"poiid":"B2094757D569A7FE409B","title":"全家便利店(内环高架路入口)","lon":"121.41984945","lat":"31.19173313","category":"117","category_name":"便民商店/便利店","address":"中山西路1277-13"},{"poiid":"B2094757D66EA6F94699","title":"强生世博车","lon":"121.41749158","lat":"31.192163686","category":"249","category_name":"购物服务","address":"上海市"},{"poiid":"B2094757D069AAFA439E","title":"同昆数码彩印(虹桥路店)","lon":"121.41739","lat":"31.19542","category":"500","category_name":"未知分类","address":"长宁区虹桥路1112号丽景苑(近中山西路)"},{"poiid":"B2094654DB65A1F9489B","title":"游子老鸭粉丝馆中山西路店","lon":"121.41941","lat":"31.19267","category":"257","category_name":"中餐厅","address":"长宁区中山西路1257号(近虹桥路)"},{"poiid":"B2094655D265A6F4429A","title":"国大药房中山西路店","lon":"121.41953","lat":"31.19213","category":"162","category_name":"医院","address":"中山西路1277-5临"},{"poiid":"B2094655D265A2FC409F","title":"72面馆","lon":"121.41959","lat":"31.19253","category":"257","category_name":"中餐厅","address":"长宁区中山西路1257号(近湘江大厦)"},{"poiid":"B2094757D16FAAFF479D","title":"徐汇艺术幼儿园","lon":"121.41871968","lat":"31.188931823","category":"57","category_name":"幼儿园","address":"上海古井路160号"},{"poiid":"B2094757D068A6F44598","title":"上海泸定中学","lon":"121.419763","lat":"31.194645","category":"55","category_name":"中学","address":"长宁区中山西路911弄1号"},{"poiid":"B2094757D06BABFC419B","title":"宋园路黄金城道","lon":"121.41876649","lat":"31.194507502","category":"500","category_name":"未知分类","address":"上海宋园路黄金城道"},{"poiid":"B2094655D264A0F8479F","title":"圣骊创意园","lon":"121.42068","lat":"31.19375","category":"252","category_name":"楼宇机构","address":"闸北区中山北路470号（临近西藏北路）"},{"poiid":"B2094757D164A7F8439B","title":"中山西路1440号","lon":"121.419373","lat":"31.191082","category":"162","category_name":"医院","address":"上海市长宁区中山西路1440号"},{"poiid":"B2094655D26AA3FB419A","title":"南洋医院中山西路分部","lon":"121.41955","lat":"31.19116","category":"247","category_name":"餐饮美食","address":"长宁区中山西路1440号(近虹桥路地铁站)"},{"poiid":"B2094757D468A4FC459F","title":"樱川日本料理","lon":"121.4170033","lat":"31.1963432","category":"95","category_name":"日本料理","address":"长宁区中山西路888号银河宾馆2楼"},{"poiid":"B2094750DB6BA7FB499B","title":"顺风大酒店（吴中路店）","lon":"121.41641","lat":"31.18793","category":"75","category_name":"浙江菜","address":"徐汇区吴中路52号(近桂林路)"},{"poiid":"B2094750D365A0FE419E","title":"花嫁丽舍私人婚礼会所（吴中店）","lon":"121.417551","lat":"31.188712","category":"248","category_name":"生活娱乐","address":"徐汇区吴中路52号4楼(10月份开业)查看地图"},{"poiid":"B2094757D06FA1FC429B","title":"中山西路虹橋路","lon":"121.41738","lat":"31.194231","category":"500","category_name":"未知分类","address":"上海中山西路虹橋路"},{"poiid":"B2094757D06FA4FB4099","title":"御香海 宋园店 Gokohai","lon":"121.41368969936","lat":"31.190034480628","category":"95","category_name":"日本料理","address":"长宁区宋园路85号(近古羊路)"},{"poiid":"B2094757D06FABF4469F","title":"上海市第一中级人民法院","lon":"121.41495811","lat":"31.195533261","category":"608","category_name":"法院","address":"上海市长宁区虹桥路1200号"},{"poiid":"B2094654D56BABF94193","title":"上海市疾病预防控制中心","lon":"121.41779","lat":"31.19329","category":"162","category_name":"医院","address":"上海市长宁区中山西路1380号"},{"poiid":"B2094655D26BA4FB4299","title":"百丽时尚中心","lon":"121.42039","lat":"31.19241","category":"46","category_name":"楼宇","address":"中山西路1279弄2"},{"poiid":"B2094753D46BA3F94193","title":"月星·环球港","lon":"121.416976","lat":"31.196382","category":"500","category_name":"未知分类","address":"上海市 中山北路3300号"},{"poiid":"B2094757D069A0FE469A","title":"新概念大厦","lon":"121.419595295","lat":"31.1881998638","category":"46","category_name":"楼宇","address":"北一环与亳州路交叉口(庐阳区政府对面)"},{"poiid":"B2094757D56EA1F4469B","title":"星巴克","lon":"121.41682099017935","lat":"31.18908598862775","category":"247","category_name":"餐饮美食","address":"徐汇区中山西路1602号宏汇国际广场B座1楼(近吴中路)"},{"poiid":"B2094757D065A2FA4393","title":"紋兵衛","lon":"121.41381215","lat":"31.192454142","category":"95","category_name":"日本料理","address":"长宁区宋园路79号(近古羊路)"},{"poiid":"B2094655D26BABFD4992","title":"小鹭鹭酒家宋园店","lon":"121.41328","lat":"31.19241","category":"71","category_name":"四川菜","address":"长宁区宋园路71-73号(黄金城道古羊路间)"},{"poiid":"B2094757D068A0FE4398","title":"ESPRIT CHINA","lon":"121.42015183","lat":"31.193534303","category":"500","category_name":"未知分类","address":"上海虹桥路996弄71号甲"},{"poiid":"B2094654DA6DA2FF419A","title":"丽池(虹桥)会所","lon":"121.41874","lat":"31.19545","category":"248","category_name":"生活娱乐","address":"虹桥路1030"},{"poiid":"B2094750D365A6F8439B","title":"上海外灘","lon":"121.41497","lat":"31.18865","category":"250","category_name":"公园户外","address":null},{"poiid":"B2094654DB6BA7FF479C","title":"虹欣小区","lon":"121.41825","lat":"31.1926","category":"47","category_name":"住宅区","address":"中山西路1410弄1-29号"},{"poiid":"B2094757D065A0F44393","title":"虹南小区","lon":"121.41888","lat":"31.191803","category":"252","category_name":"楼宇机构","address":"上海中山西路1432弄"},{"poiid":"B2094655D265A2F4439D","title":"筷莫停 中山西路店","lon":"121.41969","lat":"31.1916","category":"77","category_name":"湖南菜","address":"长宁区中山西路1257号(近虹桥路)"},{"poiid":"B2094654DA6DA2FF489A","title":"钟记小馆","lon":"121.41946","lat":"31.19242","category":"68","category_name":"快餐厅","address":"长宁区中山西路(近吴中路)"},{"poiid":"B2094757D069ABFB489F","title":"湘江大厦","lon":"121.420207","lat":"31.192691","category":"252","category_name":"楼宇机构","address":"上海市长宁区中山西路1265弄18号"},{"poiid":"B209475DD36FA6FE459E","title":"人民广场","lon":"121.41809","lat":"31.191297","category":"500","category_name":"未知分类","address":"上海市 人民广场"},{"poiid":"B2094750DB6CA4FC4398","title":"上海动物园","lon":"121.416801","lat":"31.194623","category":"500","category_name":"未知分类","address":null},{"poiid":"B2094655D268A3F94892","title":"古北首席","lon":"121.418","lat":"31.1901","category":"47","category_name":"住宅区","address":"吴中路405弄100支弄"},{"poiid":"B2094655D265A2F9439C","title":"圣骊虹桥创意园","lon":"121.42069","lat":"31.1935","category":"45","category_name":"产业园区","address":"上海虹桥路996弄161号"},{"poiid":"B2094655D26FA5FD409B","title":"九九园","lon":"121.41926","lat":"31.193438","category":"47","category_name":"住宅区","address":"上海市长宁区中山西路1251号"},{"poiid":"B2094655D268A6F5429D","title":"芙蓉阁","lon":"121.41686585848","lat":"31.195169471921","category":"77","category_name":"湖南菜","address":"长宁区中山西路1243号三湘大厦2楼(近虹桥路口)"},{"poiid":"B2094654D56BABFA439C","title":"磐石虹三大厦","lon":"121.41619","lat":"31.19133","category":"46","category_name":"楼宇","address":"古羊路158"},{"poiid":"B2094654DB65A1F94793","title":"好德便利No.677","lon":"121.41894","lat":"31.19294","category":"117","category_name":"便民商店/便利店","address":"虹桥"},{"poiid":"B2094654D56BABF9489B","title":"上海雷允上药业有限公司营销中心(后门)","lon":"121.41814","lat":"31.19082","category":"162","category_name":"医院","address":"古井路173"},{"poiid":"B2094654DB6BA7FF4999","title":"振宏苑","lon":"121.416","lat":"31.1934","category":"47","category_name":"住宅区","address":"姚虹路108弄"},{"poiid":"B2094655D26FA5FF489E","title":"长虹小区","lon":"121.42102","lat":"31.194775","category":"47","category_name":"住宅区","address":"虹桥路996弄"},{"poiid":"B2094752DB6FA2FD469F","title":"纳东云南小菜","lon":"121.416415","lat":"31.191194","category":"500","category_name":"未知分类","address":"上海市 徐汇区柳州路928号2F"},{"poiid":"B2094757D16FA0F8479C","title":"中星美华村","lon":"121.417229","lat":"31.193576","category":"500","category_name":"未知分类","address":"长宁区镇宁路111号"},{"poiid":"B2094757D66BA2F5429B","title":"AROMA日式家庭料理","lon":"121.4135171","lat":"31.1928983","category":"95","category_name":"日本料理","address":"长宁区宋园路52号(近黄金城道)"},{"poiid":"B2094752D064A7FC4993","title":"宜家家居（上海徐汇商场店）","lon":"121.419233","lat":"31.192485","category":"249","category_name":"购物服务","address":null},{"poiid":"B2094654DB64A4F4429A","title":"住安中山办公楼B座","lon":"121.41965","lat":"31.19255","category":"46","category_name":"楼宇","address":"中山西路1257"},{"poiid":"B2094757D66CA4FE419E","title":"包旺锅贴","lon":"121.41934458","lat":"31.192126686","category":"247","category_name":"餐饮美食","address":"上海中山西路1257号"},{"poiid":"B2094757D569A7FE409B","title":"全家便利店(内环高架路入口)","lon":"121.41984945","lat":"31.19173313","category":"117","category_name":"便民商店/便利店","address":"中山西路1277-13"},{"poiid":"B2094757D66EA6F94699","title":"强生世博车","lon":"121.41749158","lat":"31.192163686","category":"249","category_name":"购物服务","address":"上海市"},{"poiid":"B2094757D069AAFA439E","title":"同昆数码彩印(虹桥路店)","lon":"121.41739","lat":"31.19542","category":"500","category_name":"未知分类","address":"长宁区虹桥路1112号丽景苑(近中山西路)"},{"poiid":"B2094654DB65A1F9489B","title":"游子老鸭粉丝馆中山西路店","lon":"121.41941","lat":"31.19267","category":"257","category_name":"中餐厅","address":"长宁区中山西路1257号(近虹桥路)"},{"poiid":"B2094655D265A6F4429A","title":"国大药房中山西路店","lon":"121.41953","lat":"31.19213","category":"162","category_name":"医院","address":"中山西路1277-5临"},{"poiid":"B2094655D265A2FC409F","title":"72面馆","lon":"121.41959","lat":"31.19253","category":"257","category_name":"中餐厅","address":"长宁区中山西路1257号(近湘江大厦)"},{"poiid":"B2094757D16FAAFF479D","title":"徐汇艺术幼儿园","lon":"121.41871968","lat":"31.188931823","category":"57","category_name":"幼儿园","address":"上海古井路160号"},{"poiid":"B2094757D068A6F44598","title":"上海泸定中学","lon":"121.419763","lat":"31.194645","category":"55","category_name":"中学","address":"长宁区中山西路911弄1号"},{"poiid":"B2094757D06BABFC419B","title":"宋园路黄金城道","lon":"121.41876649","lat":"31.194507502","category":"500","category_name":"未知分类","address":"上海宋园路黄金城道"},{"poiid":"B2094655D264A0F8479F","title":"圣骊创意园","lon":"121.42068","lat":"31.19375","category":"252","category_name":"楼宇机构","address":"闸北区中山北路470号（临近西藏北路）"},{"poiid":"B2094757D164A7F8439B","title":"中山西路1440号","lon":"121.419373","lat":"31.191082","category":"162","category_name":"医院","address":"上海市长宁区中山西路1440号"},{"poiid":"B2094655D26AA3FB419A","title":"南洋医院中山西路分部","lon":"121.41955","lat":"31.19116","category":"247","category_name":"餐饮美食","address":"长宁区中山西路1440号(近虹桥路地铁站)"},{"poiid":"B2094757D468A4FC459F","title":"樱川日本料理","lon":"121.4170033","lat":"31.1963432","category":"95","category_name":"日本料理","address":"长宁区中山西路888号银河宾馆2楼"}]