[{"poiid":"B2094757D06EAAFD4093","title":"铜川路炸猪排","lon":"121.37832","lat":"31.25411","category":"68","category_name":"快餐厅","address":"普陀区铜川路2555弄嘉秀坊门口处(近安边路)"},{"poiid":"B2094757D06FA5F4409D","title":"同君福大酒楼(曹安路店)","lon":"121.37076","lat":"31.2519","category":"76","category_name":"上海菜","address":"嘉定区曹安路1500号(近祁连山路)"},{"poiid":"B2094655D26BA2FF449A","title":"铜川路万镇路","lon":"121.37869","lat":"31.25432","category":"38","category_name":"公交车站","address":""},{"poiid":"B2094655D26EA1F5419E","title":"阳光威尼斯(提香湾)","lon":"121.37471033527845","lat":"31.26017739566505","category":"47","category_name":"住宅区","address":"普陀区祁连山南路2727弄"},{"poiid":"B2094750DB6DABFA439A","title":"谈阿姨炸猪排","lon":"121.379821","lat":"31.254615","category":"68","category_name":"快餐厅","address":"嘉定区丰庄路(肯德基对面)"},{"poiid":"B2094757D068A0FD439E","title":"新世界生活广场","lon":"121.375626","lat":"31.258542","category":"119","category_name":"商场","address":"嘉定区曹安公路2378号(近华江支路沃尔玛)"},{"poiid":"B2094757D068A6F8459A","title":"新王府酒店(祁连山店)","lon":"121.3728","lat":"31.25293","category":"72","category_name":"广东菜","address":"嘉定区祁连山南路2199号(近曹安路口)"},{"poiid":"B2094655D26FA1FB4892","title":"阳光威尼斯AB区(东门)","lon":"121.37495","lat":"31.26017","category":"656","category_name":"大门","address":"祁连山南路2727弄"},{"poiid":"B2094654DB65A4FD469E","title":"真光新村第四小区","lon":"121.38151","lat":"31.25481","category":"47","category_name":"住宅区","address":"铜川路2060弄1-156号"},{"poiid":"B2094654D46BA6FF4998","title":"嘉善坊","lon":"121.37454","lat":"31.25315","category":"47","category_name":"住宅区","address":"卢湾区陕西南路550弄37号(近绍兴路)"},{"poiid":"B2094654D46BA6FF419E","title":"香樟苑(桃浦路)","lon":"121.37712","lat":"31.26046","category":"47","category_name":"住宅区","address":"桃浦路1341弄1-152号"},{"poiid":"B2094654D46BA6FE4798","title":"安盛苑","lon":"121.37709","lat":"31.258755","category":"47","category_name":"住宅区","address":"双河路437弄"},{"poiid":"B2094757D068A6FE469F","title":"汇丰佳苑","lon":"121.37","lat":"31.2537","category":"47","category_name":"住宅区","address":"汇丰佳苑位于嘉定丰庄路339弄"},{"poiid":"B2094757D469A5F94698","title":"湘府酒楼 双河路店","lon":"121.37894","lat":"31.26103","category":"77","category_name":"湖南菜","address":"普陀区双河路588号(桃浦路口)"},{"poiid":"B2094757D068A7F5479F","title":"嘉美坊","lon":"121.3754","lat":"31.255497","category":"500","category_name":"未知分类","address":"上海铜川路2288弄"},{"poiid":"B2094757D068A5FA489C","title":"嘉利坊","lon":"121.37836","lat":"31.255146","category":"500","category_name":"未知分类","address":"上海市嘉定区祁连山南路"},{"poiid":"B2094654D46BA7F54399","title":"好乐厚生商业广场","lon":"121.373","lat":"31.2581","category":"119","category_name":"商场","address":"曹安路1685号(丰庄路口)"},{"poiid":"B2094655D36CA1FE449A","title":"双河路金鼎路","lon":"121.37741","lat":"31.25732","category":"38","category_name":"公交车站","address":""},{"poiid":"B2094654D46BA6FE469F","title":"鑫园热气羊肉馆","lon":"121.37792","lat":"31.25831","category":"86","category_name":"火锅店","address":"普陀区双河路金鼎路(近祁连山路)"},{"poiid":"B2094757D06BA7FA439B","title":"董大师金牌稻香蛙","lon":"121.37847177","lat":"31.258619864","category":"71","category_name":"四川菜","address":"普陀区双河路451号(近桃浦路)"},{"poiid":"B2094757D16AA0F8419E","title":"铜川路一品香特色炸猪排","lon":"121.37807495","lat":"31.2542867599","category":"247","category_name":"餐饮美食","address":"上海铜川路万镇路 嘉里坊门口"},{"poiid":"B2094757D16FA5FD469C","title":"牧羊郎烧烤","lon":"121.3724","lat":"31.2615","category":"68","category_name":"快餐厅","address":"普陀区双河路"},{"poiid":"B2094654D46BA6FE469C","title":"阿三烧鸡公 双河路店","lon":"121.377850054","lat":"31.258145793","category":"71","category_name":"四川菜","address":"嘉定区双河路456号(金鼎路双河路)"},{"poiid":"B2094757D068A3F9479D","title":"卜蜂莲花(曹安路店)","lon":"121.37048","lat":"31.25168","category":"118","category_name":"超级市场","address":"普陀区曹安路1538号(近安边路)"},{"poiid":"B2094654DB6AA2FC499E","title":"国际花园","lon":"121.37375","lat":"31.2574","category":"47","category_name":"住宅区","address":"祁连山南路2039号"},{"poiid":"B2094654DB65A7FD4199","title":"嘉善坊(北门)","lon":"121.37508","lat":"31.25465","category":"47","category_name":"住宅区","address":"铜川路2285弄"},{"poiid":"B2094654DB65A0F4409A","title":"嘉利坊(南门)","lon":"121.37792","lat":"31.25448","category":"47","category_name":"住宅区","address":"铜川路2188弄"},{"poiid":"B2094757D069A3FB4498","title":"真光五街坊","lon":"121.38059","lat":"31.253047","category":"47","category_name":"住宅区","address":"上海铜川路2059弄"},{"poiid":"B2094654DB65A0FB4993","title":"快客No.5189","lon":"121.37583","lat":"31.2583","category":"117","category_name":"便民商店/便利店","address":"金鼎路1368"},{"poiid":"B2094654D46BA7F5449F","title":"上海国际鞋城","lon":"121.37009865982","lat":"31.259068806056","category":"141","category_name":"服装鞋帽皮具店","address":"嘉定区曹安路1777号(轻纺市场对面)"},{"poiid":"B2094654D46BA7FB479A","title":"三元及地苑","lon":"121.36945","lat":"31.256847","category":"47","category_name":"住宅区","address":"上海市嘉定区铜川路2558号"},{"poiid":"B2094655D26BA6F54398","title":"福瑞大厦","lon":"121.37085","lat":"31.25142","category":"46","category_name":"楼宇","address":"沈河北站路与北京街的交汇处"},{"poiid":"B2094757D66CA0FE429C","title":"铜川路祁连山南路公交站点","lon":"121.37468885","lat":"31.255145876","category":"38","category_name":"公交车站","address":"上海铜川路靠近祁连山南路"},{"poiid":"B2094654D46BA6FD489B","title":"祁连社区","lon":"121.376","lat":"31.2547","category":"47","category_name":"住宅区","address":"丰庄北路480弄"},{"poiid":"B2094655D26BA7F4499E","title":"鼎秀园","lon":"121.379727","lat":"31.260312","category":"47","category_name":"住宅区","address":"嘉定区铜川路2655弄"},{"poiid":"B2094655D26BA2FF4499","title":"铜川路祁连山南路","lon":"121.37251","lat":"31.25527","category":"38","category_name":"公交车站","address":""},{"poiid":"B2094750DA6AA1F84393","title":"百联中环","lon":"121.376548","lat":"31.259023","category":"248","category_name":"生活娱乐","address":"梅川路"},{"poiid":"B2094654DB6AA4FF4498","title":"真新小吃店","lon":"121.37667","lat":"31.25436","category":"68","category_name":"快餐厅","address":"普陀区铜川路2255号(近双河路)"},{"poiid":"B2094654D46BA7FB4992","title":"真新新村嘉和坊(铜川路)","lon":"121.3713","lat":"31.25409","category":"47","category_name":"住宅区","address":"铜川路2395弄"},{"poiid":"B2094655D264A4F5479F","title":"恒盛提香湾","lon":"121.37491","lat":"31.26077","category":"46","category_name":"楼宇","address":"普陀区祁连山南路2727弄,近金鼎路"},{"poiid":"B2094654D46BA7F4419C","title":"真新新村嘉秀坊","lon":"121.36843","lat":"31.25489","category":"47","category_name":"住宅区","address":"铜川路2555弄"},{"poiid":"B2094655D36CA4FD499D","title":"安边路","lon":"121.37199","lat":"31.25533","category":"38","category_name":"公交车站","address":""},{"poiid":"B2094654DB65A7FD479B","title":"嘉美坊(南门)","lon":"121.37514","lat":"31.25487","category":"47","category_name":"住宅区","address":"铜川路2288弄"},{"poiid":"B2094757D168A0F5479B","title":"农乐福酒楼","lon":"121.37820075","lat":"31.2609706875","category":"87","category_name":"特色／地方风味餐厅","address":"普陀区桃浦路1208号"},{"poiid":"B2094757D16DA3F5479B","title":"金鼎中学","lon":"121.37792","lat":"31.25773","category":"55","category_name":"中学","address":"普陀区双河路(近金鼎路)"},{"poiid":"B2094757D068ABF5459C","title":"嘉泰花园","lon":"121.38","lat":"31.2536","category":"47","category_name":"住宅区","address":"上海梅川路1725弄"},{"poiid":"B2094654DB6AA4FE4793","title":"阳光威尼斯AB区","lon":"121.37145","lat":"31.26122","category":"47","category_name":"住宅区","address":"桃浦路1599号"},{"poiid":"B2094655D26CA2F4459A","title":"帮帮酒家","lon":"121.38001","lat":"31.2546","category":"257","category_name":"中餐厅","address":"普陀区万镇路(近铜川路)"},{"poiid":"B2094757D16DA7FB439D","title":"嘉利小吃","lon":"121.37984","lat":"31.2538","category":"68","category_name":"快餐厅","address":"普陀区铜川路(近万镇路)"},{"poiid":"B2094654DB65A7FD419E","title":"双河绿地","lon":"121.37899","lat":"31.25675","category":"196","category_name":"公园","address":""},{"poiid":"B2094757D06EAAFD4093","title":"铜川路炸猪排","lon":"121.37832","lat":"31.25411","category":"68","category_name":"快餐厅","address":"普陀区铜川路2555弄嘉秀坊门口处(近安边路)"},{"poiid":"B2094757D06FA5F4409D","title":"同君福大酒楼(曹安路店)","lon":"121.37076","lat":"31.2519","category":"76","category_name":"上海菜","address":"嘉定区曹安路1500号(近祁连山路)"},{"poiid":"B2094655D26BA2FF449A","title":"铜川路万镇路","lon":"121.37869","lat":"31.25432","category":"38","category_name":"公交车站","address":""},{"poiid":"B2094655D26EA1F5419E","title":"阳光威尼斯(提香湾)","lon":"121.37471033527845","lat":"31.26017739566505","category":"47","category_name":"住宅区","address":"普陀区祁连山南路2727弄"},{"poiid":"B2094750DB6DABFA439A","title":"谈阿姨炸猪排","lon":"121.379821","lat":"31.254615","category":"68","category_name":"快餐厅","address":"嘉定区丰庄路(肯德基对面)"},{"poiid":"B2094757D068A0FD439E","title":"新世界生活广场","lon":"121.375626","lat":"31.258542","category":"119","category_name":"商场","address":"嘉定区曹安公路2378号(近华江支路沃尔玛)"},{"poiid":"B2094757D068A6F8459A","title":"新王府酒店(祁连山店)","lon":"121.3728","lat":"31.25293","category":"72","category_name":"广东菜","address":"嘉定区祁连山南路2199号(近曹安路口)"},{"poiid":"B2094655D26FA1FB4892","title":"阳光威尼斯AB区(东门)","lon":"121.37495","lat":"31.26017","category":"656","category_name":"大门","address":"祁连山南路2727弄"},{"poiid":"B2094654DB65A4FD469E","title":"真光新村第四小区","lon":"121.38151","lat":"31.25481","category":"47","category_name":"住宅区","address":"铜川路2060弄1-156号"},{"poiid":"B2094654D46BA6FF4998","title":"嘉善坊","lon":"121.37454","lat":"31.25315","category":"47","category_name":"住宅区","address":"卢湾区陕西南路550弄37号(近绍兴路)"},{"poiid":"B2094654D46BA6FF419E","title":"香樟苑(桃浦路)","lon":"121.37712","lat":"31.26046","category":"47","category_name":"住宅区","address":"桃浦路1341弄1-152号"},{"poiid":"B2094654D46BA6FE4798","title":"安盛苑","lon":"121.37709","lat":"31.258755","category":"47","category_name":"住宅区","address":"双河路437弄"},{"poiid":"B2094757D068A6FE469F","title":"汇丰佳苑","lon":"121.37","lat":"31.2537","category":"47","category_name":"住宅区","address":"汇丰佳苑位于嘉定丰庄路339弄"},{"poiid":"B2094757D469A5F94698","title":"湘府酒楼 双河路店","lon":"121.37894","lat":"31.26103","category":"77","category_name":"湖南菜","address":"普陀区双河路588号(桃浦路口)"},{"poiid":"B2094757D068A7F5479F","title":"嘉美坊","lon":"121.3754","lat":"31.255497","category":"500","category_name":"未知分类","address":"上海铜川路2288弄"},{"poiid":"B2094757D068A5FA489C","title":"嘉利坊","lon":"121.37836","lat":"31.255146","category":"500","category_name":"未知分类","address":"上海市嘉定区祁连山南路"},{"poiid":"B2094654D46BA7F54399","title":"好乐厚生商业广场","lon":"121.373","lat":"31.2581","category":"119","category_name":"商场","address":"曹安路1685号(丰庄路口)"},{"poiid":"B2094655D36CA1FE449A","title":"双河路金鼎路","lon":"121.37741","lat":"31.25732","category":"38","category_name":"公交车站","address":""},{"poiid":"B2094654D46BA6FE469F","title":"鑫园热气羊肉馆","lon":"121.37792","lat":"31.25831","category":"86","category_name":"火锅店","address":"普陀区双河路金鼎路(近祁连山路)"},{"poiid":"B2094757D06BA7FA439B","title":"董大师金牌稻香蛙","lon":"121.37847177","lat":"31.258619864","category":"71","category_name":"四川菜","address":"普陀区双河路451号(近桃浦路)"},{"poiid":"B2094757D16AA0F8419E","title":"铜川路一品香特色炸猪排","lon":"121.37807495","lat":"31.2542867599","category":"247","category_name":"餐饮美食","address":"上海铜川路万镇路 嘉里坊门口"},{"poiid":"B2094757D16FA5FD469C","title":"牧羊郎烧烤","lon":"121.3724","lat":"31.2615","category":"68","category_name":"快餐厅","address":"普陀区双河路"},{"poiid":"B2094654D46BA6FE469C","title":"阿三烧鸡公 双河路店","lon":"121.377850054","lat":"31.258145793","category":"71","category_name":"四川菜","address":"嘉定区双河路456号(金鼎路双河路)"},{"poiid":"B2094757D068A3F9479D","title":"卜蜂莲花(曹安路店)","lon":"121.37048","lat":"31.25168","category":"118","category_name":"超级市场","address":"普陀区曹安路1538号(近安边路)"},{"poiid":"B2094654DB6AA2FC499E","title":"国际花园","lon":"121.37375","lat":"31.2574","category":"47","category_name":"住宅区","address":"祁连山南路2039号"},{"poiid":"B2094654DB65A7FD4199","title":"嘉善坊(北门)","lon":"121.37508","lat":"31.25465","category":"47","category_name":"住宅区","address":"铜川路2285弄"},{"poiid":"B2094654DB65A0F4409A","title":"嘉利坊(南门)","lon":"121.37792","lat":"31.25448","category":"47","category_name":"住宅区","address":"铜川路2188弄"},{"poiid":"B2094757D069A3FB4498","title":"真光五街坊","lon":"121.38059","lat":"31.253047","category":"47","category_name":"住宅区","address":"上海铜川路2059弄"},{"poiid":"B2094654DB65A0FB4993","title":"快客No.5189","lon":"121.37583","lat":"31.2583","category":"117","category_name":"便民商店/便利店","address":"金鼎路1368"},{"poiid":"B2094654D46BA7F5449F","title":"上海国际鞋城","lon":"121.37009865982","lat":"31.259068806056","category":"141","category_name":"服装鞋帽皮具店","address":"嘉定区曹安路1777号(轻纺市场对面)"},{"poiid":"B2094654D46BA7FB479A","title":"三元及地苑","lon":"121.36945","lat":"31.256847","category":"47","category_name":"住宅区","address":"上海市嘉定区铜川路2558号"},{"poiid":"B2094655D26BA6F54398","title":"福瑞大厦","lon":"121.37085","lat":"31.25142","category":"46","category_name":"楼宇","address":"沈河北站路与北京街的交汇处"},{"poiid":"B2094757D66CA0FE429C","title":"铜川路祁连山南路公交站点","lon":"121.37468885","lat":"31.255145876","category":"38","category_name":"公交车站","address":"上海铜川路靠近祁连山南路"},{"poiid":"B2094654D46BA6FD489B","title":"祁连社区","lon":"121.376","lat":"31.2547","category":"47","category_name":"住宅区","address":"丰庄北路480弄"},{"poiid":"B2094655D26BA7F4499E","title":"鼎秀园","lon":"121.379727","lat":"31.260312","category":"47","category_name":"住宅区","address":"嘉定区铜川路2655弄"},{"poiid":"B2094655D26BA2FF4499","title":"铜川路祁连山南路","lon":"121.37251","lat":"31.25527","category":"38","category_name":"公交车站","address":""},{"poiid":"B2094750DA6AA1F84393","title":"百联中环","lon":"121.376548","lat":"31.259023","category":"248","category_name":"生活娱乐","address":"梅川路"},{"poiid":"B2094654DB6AA4FF4498","title":"真新小吃店","lon":"121.37667","lat":"31.25436","category":"68","category_name":"快餐厅","address":"普陀区铜川路2255号(近双河路)"},{"poiid":"B2094654D46BA7FB4992","title":"真新新村嘉和坊(铜川路)","lon":"121.3713","lat":"31.25409","category":"47","category_name":"住宅区","address":"铜川路2395弄"},{"poiid":"B2094655D264A4F5479F","title":"恒盛提香湾","lon":"121.37491","lat":"31.26077","category":"46","category_name":"楼宇","address":"普陀区祁连山南路2727弄,近金鼎路"},{"poiid":"B2094654D46BA7F4419C","title":"真新新村嘉秀坊","lon":"121.36843","lat":"31.25489","category":"47","category_name":"住宅区","address":"铜川路2555弄"},{"poiid":"B2094655D36CA4FD499D","title":"安边路","lon":"121.37199","lat":"31.25533","category":"38","category_name":"公交车站","address":""},{"poiid":"B2094654DB65A7FD479B","title":"嘉美坊(南门)","lon":"121.37514","lat":"31.25487","category":"47","category_name":"住宅区","address":"铜川路2288弄"},{"poiid":"B2094757D168A0F5479B","title":"农乐福酒楼","lon":"121.37820075","lat":"31.2609706875","category":"87","category_name":"特色／地方风味餐厅","address":"普陀区桃浦路1208号"},{"poiid":"B2094757D16DA3F5479B","title":"金鼎中学","lon":"121.37792","lat":"31.25773","category":"55","category_name":"中学","address":"普陀区双河路(近金鼎路)"},{"poiid":"B2094757D068ABF5459C","title":"嘉泰花园","lon":"121.38","lat":"31.2536","category":"47","category_name":"住宅区","address":"上海梅川路1725弄"},{"poiid":"B2094654DB6AA4FE4793","title":"阳光威尼斯AB区","lon":"121.37145","lat":"31.26122","category":"47","category_name":"住宅区","address":"桃浦路1599号"},{"poiid":"B2094655D26CA2F4459A","title":"帮帮酒家","lon":"121.38001","lat":"31.2546","category":"257","category_name":"中餐厅","address":"普陀区万镇路(近铜川路)"},{"poiid":"B2094757D16DA7FB439D","title":"嘉利小吃","lon":"121.37984","lat":"31.2538","category":"68","category_name":"快餐厅","address":"普陀区铜川路(近万镇路)"},{"poiid":"B2094654DB65A7FD419E","title":"双河绿地","lon":"121.37899","lat":"31.25675","category":"196","category_name":"公园","address":""},{"poiid":"B2094757D06EAAFD4093","title":"铜川路炸猪排","lon":"121.37832","lat":"31.25411","category":"68","category_name":"快餐厅","address":"普陀区铜川路2555弄嘉秀坊门口处(近安边路)"},{"poiid":"B2094757D06FA5F4409D","title":"同君福大酒楼(曹安路店)","lon":"121.37076","lat":"31.2519","category":"76","category_name":"上海菜","address":"嘉定区曹安路1500号(近祁连山路)"},{"poiid":"B2094655D26BA2FF449A","title":"铜川路万镇路","lon":"121.37869","lat":"31.25432","category":"38","category_name":"公交车站","address":""},{"poiid":"B2094655D26EA1F5419E","title":"阳光威尼斯(提香湾)","lon":"121.37471033527845","lat":"31.26017739566505","category":"47","category_name":"住宅区","address":"普陀区祁连山南路2727弄"},{"poiid":"B2094750DB6DABFA439A","title":"谈阿姨炸猪排","lon":"121.379821","lat":"31.254615","category":"68","category_name":"快餐厅","address":"嘉定区丰庄路(肯德基对面)"},{"poiid":"B2094757D068A0FD439E","title":"新世界生活广场","lon":"121.375626","lat":"31.258542","category":"119","category_name":"商场","address":"嘉定区曹安公路2378号(近华江支路沃尔玛)"},{"poiid":"B2094757D068A6F8459A","title":"新王府酒店(祁连山店)","lon":"121.3728","lat":"31.25293","category":"72","category_name":"广东菜","address":"嘉定区祁连山南路2199号(近曹安路口)"},{"poiid":"B2094655D26FA1FB4892","title":"阳光威尼斯AB区(东门)","lon":"121.37495","lat":"31.26017","category":"656","category_name":"大门","address":"祁连山南路2727弄"},{"poiid":"B2094654DB65A4FD469E","title":"真光新村第四小区","lon":"121.38151","lat":"31.25481","category":"47","category_name":"住宅区","address":"铜川路2060弄1-156号"},{"poiid":"B2094654D46BA6FF4998","title":"嘉善坊","lon":"121.37454","lat":"31.25315","category":"47","category_name":"住宅区","address":"卢湾区陕西南路550弄37号(近绍兴路)"},{"poiid":"B2094654D46BA6FF419E","title":"香樟苑(桃浦路)","lon":"121.37712","lat":"31.26046","category":"47","category_name":"住宅区","address":"桃浦路1341弄1-152号"},{"poiid":"B2094654D46BA6FE4798","title":"安盛苑","lon":"121.37709","lat":"31.258755","category":"47","category_name":"住宅区","address":"双河路437弄"},{"poiid":"B2094757D068A6FE469F","title":"汇丰佳苑","lon":"121.37","lat":"31.2537","category":"47","category_name":"住宅区","address":"汇丰佳苑位于嘉定丰庄路339弄"},{"poiid":"B2094757D469A5F94698","title":"湘府酒楼 双河路店","lon":"121.37894","lat":"31.26103","category":"77","category_name":"湖南菜","address":"普陀区双河路588号(桃浦路口)"},{"poiid":"B2094757D068A7F5479F","title":"嘉美坊","lon":"121.3754","lat":"31.255497","category":"500","category_name":"未知分类","address":"上海铜川路2288弄"},{"poiid":"B2094757D068A5FA489C","title":"嘉利坊","lon":"121.37836","lat":"31.255146","category":"500","category_name":"未知分类","address":"上海市嘉定区祁连山南路"},{"poiid":"B2094654D46BA7F54399","title":"好乐厚生商业广场","lon":"121.373","lat":"31.2581","category":"119","category_name":"商场","address":"曹安路1685号(丰庄路口)"},{"poiid":"B2094655D36CA1FE449A","title":"双河路金鼎路","lon":"121.37741","lat":"31.25732","category":"38","category_name":"公交车站","address":""},{"poiid":"B2094654D46BA6FE469F","title":"鑫园热气羊肉馆","lon":"121.37792","lat":"31.25831","category":"86","category_name":"火锅店","address":"普陀区双河路金鼎路(近祁连山路)"},{"poiid":"B2094757D06BA7FA439B","title":"董大师金牌稻香蛙","lon":"121.37847177","lat":"31.258619864","category":"71","category_name":"四川菜","address":"普陀区双河路451号(近桃浦路)"},{"poiid":"B2094757D16AA0F8419E","title":"铜川路一品香特色炸猪排","lon":"121.37807495","lat":"31.2542867599","category":"247","category_name":"餐饮美食","address":"上海铜川路万镇路 嘉里坊门口"},{"poiid":"B2094757D16FA5FD469C","title":"牧羊郎烧烤","lon":"121.3724","lat":"31.2615","category":"68","category_name":"快餐厅","address":"普陀区双河路"},{"poiid":"B2094654D46BA6FE469C","title":"阿三烧鸡公 双河路店","lon":"121.377850054","lat":"31.258145793","category":"71","category_name":"四川菜","address":"嘉定区双河路456号(金鼎路双河路)"},{"poiid":"B2094757D068A3F9479D","title":"卜蜂莲花(曹安路店)","lon":"121.37048","lat":"31.25168","category":"118","category_name":"超级市场","address":"普陀区曹安路1538号(近安边路)"},{"poiid":"B2094654DB6AA2FC499E","title":"国际花园","lon":"121.37375","lat":"31.2574","category":"47","category_name":"住宅区","address":"祁连山南路2039号"},{"poiid":"B2094654DB65A7FD4199","title":"嘉善坊(北门)","lon":"121.37508","lat":"31.25465","category":"47","category_name":"住宅区","address":"铜川路2285弄"},{"poiid":"B2094654DB65A0F4409A","title":"嘉利坊(南门)","lon":"121.37792","lat":"31.25448","category":"47","category_name":"住宅区","address":"铜川路2188弄"},{"poiid":"B2094757D069A3FB4498","title":"真光五街坊","lon":"121.38059","lat":"31.253047","category":"47","category_name":"住宅区","address":"上海铜川路2059弄"},{"poiid":"B2094654DB65A0FB4993","title":"快客No.5189","lon":"121.37583","lat":"31.2583","category":"117","category_name":"便民商店/便利店","address":"金鼎路1368"},{"poiid":"B2094654D46BA7F5449F","title":"上海国际鞋城","lon":"121.37009865982","lat":"31.259068806056","category":"141","category_name":"服装鞋帽皮具店","address":"嘉定区曹安路1777号(轻纺市场对面)"},{"poiid":"B2094654D46BA7FB479A","title":"三元及地苑","lon":"121.36945","lat":"31.256847","category":"47","category_name":"住宅区","address":"上海市嘉定区铜川路2558号"},{"poiid":"B2094655D26BA6F54398","title":"福瑞大厦","lon":"121.37085","lat":"31.25142","category":"46","category_name":"楼宇","address":"沈河北站路与北京街的交汇处"},{"poiid":"B2094757D66CA0FE429C","title":"铜川路祁连山南路公交站点","lon":"121.37468885","lat":"31.255145876","category":"38","category_name":"公交车站","address":"上海铜川路靠近祁连山南路"},{"poiid":"B2094654D46BA6FD489B","title":"祁连社区","lon":"121.376","lat":"31.2547","category":"47","category_name":"住宅区","address":"丰庄北路480弄"},{"poiid":"B2094655D26BA7F4499E","title":"鼎秀园","lon":"121.379727","lat":"31.260312","category":"47","category_name":"住宅区","address":"嘉定区铜川路2655弄"},{"poiid":"B2094655D26BA2FF4499","title":"铜川路祁连山南路","lon":"121.37251","lat":"31.25527","category":"38","category_name":"公交车站","address":""},{"poiid":"B2094750DA6AA1F84393","title":"百联中环","lon":"121.376548","lat":"31.259023","category":"248","category_name":"生活娱乐","address":"梅川路"},{"poiid":"B2094654DB6AA4FF4498","title":"真新小吃店","lon":"121.37667","lat":"31.25436","category":"68","category_name":"快餐厅","address":"普陀区铜川路2255号(近双河路)"},{"poiid":"B2094654D46BA7FB4992","title":"真新新村嘉和坊(铜川路)","lon":"121.3713","lat":"31.25409","category":"47","category_name":"住宅区","address":"铜川路2395弄"},{"poiid":"B2094655D264A4F5479F","title":"恒盛提香湾","lon":"121.37491","lat":"31.26077","category":"46","category_name":"楼宇","address":"普陀区祁连山南路2727弄,近金鼎路"},{"poiid":"B2094654D46BA7F4419C","title":"真新新村嘉秀坊","lon":"121.36843","lat":"31.25489","category":"47","category_name":"住宅区","address":"铜川路2555弄"},{"poiid":"B2094655D36CA4FD499D","title":"安边路","lon":"121.37199","lat":"31.25533","category":"38","category_name":"公交车站","address":""},{"poiid":"B2094654DB65A7FD479B","title":"嘉美坊(南门)","lon":"121.37514","lat":"31.25487","category":"47","category_name":"住宅区","address":"铜川路2288弄"},{"poiid":"B2094757D168A0F5479B","title":"农乐福酒楼","lon":"121.37820075","lat":"31.2609706875","category":"87","category_name":"特色／地方风味餐厅","address":"普陀区桃浦路1208号"},{"poiid":"B2094757D16DA3F5479B","title":"金鼎中学","lon":"121.37792","lat":"31.25773","category":"55","category_name":"中学","address":"普陀区双河路(近金鼎路)"},{"poiid":"B2094757D068ABF5459C","title":"嘉泰花园","lon":"121.38","lat":"31.2536","category":"47","category_name":"住宅区","address":"上海梅川路1725弄"},{"poiid":"B2094654DB6AA4FE4793","title":"阳光威尼斯AB区","lon":"121.37145","lat":"31.26122","category":"47","category_name":"住宅区","address":"桃浦路1599号"},{"poiid":"B2094655D26CA2F4459A","title":"帮帮酒家","lon":"121.38001","lat":"31.2546","category":"257","category_name":"中餐厅","address":"普陀区万镇路(近铜川路)"},{"poiid":"B2094757D16DA7FB439D","title":"嘉利小吃","lon":"121.37984","lat":"31.2538","category":"68","category_name":"快餐厅","address":"普陀区铜川路(近万镇路)"},{"poiid":"B2094654DB65A7FD419E","title":"双河绿地","lon":"121.37899","lat":"31.25675","category":"196","category_name":"公园","address":""},{"poiid":"B2094757D06EAAFD4093","title":"铜川路炸猪排","lon":"121.37832","lat":"31.25411","category":"68","category_name":"快餐厅","address":"普陀区铜川路2555弄嘉秀坊门口处(近安边路)"},{"poiid":"B2094757D06FA5F4409D","title":"同君福大酒楼(曹安路店)","lon":"121.37076","lat":"31.2519","category":"76","category_name":"上海菜","address":"嘉定区曹安路1500号(近祁连山路)"},{"poiid":"B2094655D26BA2FF449A","title":"铜川路万镇路","lon":"121.37869","lat":"31.25432","category":"38","category_name":"公交车站","address":""},{"poiid":"B2094655D26EA1F5419E","title":"阳光威尼斯(提香湾)","lon":"121.37471033527845","lat":"31.26017739566505","category":"47","category_name":"住宅区","address":"普陀区祁连山南路2727弄"},{"poiid":"B2094750DB6DABFA439A","title":"谈阿姨炸猪排","lon":"121.379821","lat":"31.254615","category":"68","category_name":"快餐厅","address":"嘉定区丰庄路(肯德基对面)"},{"poiid":"B2094757D068A0FD439E","title":"新世界生活广场","lon":"121.375626","lat":"31.258542","category":"119","category_name":"商场","address":"嘉定区曹安公路2378号(近华江支路沃尔玛)"},{"poiid":"B2094757D068A6F8459A","title":"新王府酒店(祁连山店)","lon":"121.3728","lat":"31.25293","category":"72","category_name":"广东菜","address":"嘉定区祁连山南路2199号(近曹安路口)"},{"poiid":"B2094655D26FA1FB4892","title":"阳光威尼斯AB区(东门)","lon":"121.37495","lat":"31.26017","category":"656","category_name":"大门","address":"祁连山南路2727弄"},{"poiid":"B2094654DB65A4FD469E","title":"真光新村第四小区","lon":"121.38151","lat":"31.25481","category":"47","category_name":"住宅区","address":"铜川路2060弄1-156号"},{"poiid":"B2094654D46BA6FF4998","title":"嘉善坊","lon":"121.37454","lat":"31.25315","category":"47","category_name":"住宅区","address":"卢湾区陕西南路550弄37号(近绍兴路)"},{"poiid":"B2094654D46BA6FF419E","title":"香樟苑(桃浦路)","lon":"121.37712","lat":"31.26046","category":"47","category_name":"住宅区","address":"桃浦路1341弄1-152号"},{"poiid":"B2094654D46BA6FE4798","title":"安盛苑","lon":"121.37709","lat":"31.258755","category":"47","category_name":"住宅区","address":"双河路437弄"},{"poiid":"B2094757D068A6FE469F","title":"汇丰佳苑","lon":"121.37","lat":"31.2537","category":"47","category_name":"住宅区","address":"汇丰佳苑位于嘉定丰庄路339弄"},{"poiid":"B2094757D469A5F94698","title":"湘府酒楼 双河路店","lon":"121.37894","lat":"31.26103","category":"77","category_name":"湖南菜","address":"普陀区双河路588号(桃浦路口)"},{"poiid":"B2094757D068A7F5479F","title":"嘉美坊","lon":"121.3754","lat":"31.255497","category":"500","category_name":"未知分类","address":"上海铜川路2288弄"},{"poiid":"B2094757D068A5FA489C","title":"嘉利坊","lon":"121.37836","lat":"31.255146","category":"500","category_name":"未知分类","address":"上海市嘉定区祁连山南路"},{"poiid":"B2094654D46BA7F54399","title":"好乐厚生商业广场","lon":"121.373","lat":"31.2581","category":"119","category_name":"商场","address":"曹安路1685号(丰庄路口)"},{"poiid":"B2094655D36CA1FE449A","title":"双河路金鼎路","lon":"121.37741","lat":"31.25732","category":"38","category_name":"公交车站","address":""},{"poiid":"B2094654D46BA6FE469F","title":"鑫园热气羊肉馆","lon":"121.37792","lat":"31.25831","category":"86","category_name":"火锅店","address":"普陀区双河路金鼎路(近祁连山路)"},{"poiid":"B2094757D06BA7FA439B","title":"董大师金牌稻香蛙","lon":"121.37847177","lat":"31.258619864","category":"71","category_name":"四川菜","address":"普陀区双河路451号(近桃浦路)"},{"poiid":"B2094757D16AA0F8419E","title":"铜川路一品香特色炸猪排","lon":"121.37807495","lat":"31.2542867599","category":"247","category_name":"餐饮美食","address":"上海铜川路万镇路 嘉里坊门口"},{"poiid":"B2094757D16FA5FD469C","title":"牧羊郎烧烤","lon":"121.3724","lat":"31.2615","category":"68","category_name":"快餐厅","address":"普陀区双河路"},{"poiid":"B2094654D46BA6FE469C","title":"阿三烧鸡公 双河路店","lon":"121.377850054","lat":"31.258145793","category":"71","category_name":"四川菜","address":"嘉定区双河路456号(金鼎路双河路)"},{"poiid":"B2094757D068A3F9479D","title":"卜蜂莲花(曹安路店)","lon":"121.37048","lat":"31.25168","category":"118","category_name":"超级市场","address":"普陀区曹安路1538号(近安边路)"},{"poiid":"B2094654DB6AA2FC499E","title":"国际花园","lon":"121.37375","lat":"31.2574","category":"47","category_name":"住宅区","address":"祁连山南路2039号"},{"poiid":"B2094654DB65A7FD4199","title":"嘉善坊(北门)","lon":"121.37508","lat":"31.25465","category":"47","category_name":"住宅区","address":"铜川路2285弄"},{"poiid":"B2094654DB65A0F4409A","title":"嘉利坊(南门)","lon":"121.37792","lat":"31.25448","category":"47","category_name":"住宅区","address":"铜川路2188弄"},{"poiid":"B2094757D069A3FB4498","title":"真光五街坊","lon":"121.38059","lat":"31.253047","category":"47","category_name":"住宅区","address":"上海铜川路2059弄"},{"poiid":"B2094654DB65A0FB4993","title":"快客No.5189","lon":"121.37583","lat":"31.2583","category":"117","category_name":"便民商店/便利店","address":"金鼎路1368"},{"poiid":"B2094654D46BA7F5449F","title":"上海国际鞋城","lon":"121.37009865982","lat":"31.259068806056","category":"141","category_name":"服装鞋帽皮具店","address":"嘉定区曹安路1777号(轻纺市场对面)"},{"poiid":"B2094654D46BA7FB479A","title":"三元及地苑","lon":"121.36945","lat":"31.256847","category":"47","category_name":"住宅区","address":"上海市嘉定区铜川路2558号"},{"poiid":"B2094655D26BA6F54398","title":"福瑞大厦","lon":"121.37085","lat":"31.25142","category":"46","category_name":"楼宇","address":"沈河北站路与北京街的交汇处"},{"poiid":"B2094757D66CA0FE429C","title":"铜川路祁连山南路公交站点","lon":"121.37468885","lat":"31.255145876","category":"38","category_name":"公交车站","address":"上海铜川路靠近祁连山南路"},{"poiid":"B2094654D46BA6FD489B","title":"祁连社区","lon":"121.376","lat":"31.2547","category":"47","category_name":"住宅区","address":"丰庄北路480弄"},{"poiid":"B2094655D26BA7F4499E","title":"鼎秀园","lon":"121.379727","lat":"31.260312","category":"47","category_name":"住宅区","address":"嘉定区铜川路2655弄"},{"poiid":"B2094655D26BA2FF4499","title":"铜川路祁连山南路","lon":"121.37251","lat":"31.25527","category":"38","category_name":"公交车站","address":""},{"poiid":"B2094750DA6AA1F84393","title":"百联中环","lon":"121.376548","lat":"31.259023","category":"248","category_name":"生活娱乐","address":"梅川路"},{"poiid":"B2094654DB6AA4FF4498","title":"真新小吃店","lon":"121.37667","lat":"31.25436","category":"68","category_name":"快餐厅","address":"普陀区铜川路2255号(近双河路)"},{"poiid":"B2094654D46BA7FB4992","title":"真新新村嘉和坊(铜川路)","lon":"121.3713","lat":"31.25409","category":"47","category_name":"住宅区","address":"铜川路2395弄"},{"poiid":"B2094655D264A4F5479F","title":"恒盛提香湾","lon":"121.37491","lat":"31.26077","category":"46","category_name":"楼宇","address":"普陀区祁连山南路2727弄,近金鼎路"},{"poiid":"B2094654D46BA7F4419C","title":"真新新村嘉秀坊","lon":"121.36843","lat":"31.25489","category":"47","category_name":"住宅区","address":"铜川路2555弄"},{"poiid":"B2094655D36CA4FD499D","title":"安边路","lon":"121.37199","lat":"31.25533","category":"38","category_name":"公交车站","address":""},{"poiid":"B2094654DB65A7FD479B","title":"嘉美坊(南门)","lon":"121.37514","lat":"31.25487","category":"47","category_name":"住宅区","address":"铜川路2288弄"},{"poiid":"B2094757D168A0F5479B","title":"农乐福酒楼","lon":"121.37820075","lat":"31.2609706875","category":"87","category_name":"特色／地方风味餐厅","address":"普陀区桃浦路1208号"},{"poiid":"B2094757D16DA3F5479B","title":"金鼎中学","lon":"121.37792","lat":"31.25773","category":"55","category_name":"中学","address":"普陀区双河路(近金鼎路)"},{"poiid":"B2094757D068ABF5459C","title":"嘉泰花园","lon":"121.38","lat":"31.2536","category":"47","category_name":"住宅区","address":"上海梅川路1725弄"},{"poiid":"B2094654DB6AA4FE4793","title":"阳光威尼斯AB区","lon":"121.37145","lat":"31.26122","category":"47","category_name":"住宅区","address":"桃浦路1599号"},{"poiid":"B2094655D26CA2F4459A","title":"帮帮酒家","lon":"121.38001","lat":"31.2546","category":"257","category_name":"中餐厅","address":"普陀区万镇路(近铜川路)"},{"poiid":"B2094757D16DA7FB439D","title":"嘉利小吃","lon":"121.37984","lat":"31.2538","category":"68","category_name":"快餐厅","address":"普陀区铜川路(近万镇路)"},{"poiid":"B2094654DB65A7FD419E","title":"双河绿地","lon":"121.37899","lat":"31.25675","category":"196","category_name":"公园","address":""}]