[{"poiid":"B2094654DB69A4FE409A","title":"乐购超市(光新店)","lon":"121.43227","lat":"31.25043","category":"118","category_name":"超级市场","address":"中山北路1655号"},{"poiid":"B2094757D06FA1F84999","title":"踵香","lon":"121.43419","lat":"31.25137","category":"76","category_name":"上海菜","address":"普陀区中山北路1737号浦发大厦A301(光新路乐购对面)"},{"poiid":"B2094757D06FA0FC489D","title":"COSTA COFFEE(光新店)","lon":"121.43258","lat":"31.25038","category":"65","category_name":"咖啡厅","address":"普陀区中山北路1855号(近光新路)"},{"poiid":"B2094757D06FA3FF409E","title":"麦当劳(光新路乐购店)","lon":"121.43271","lat":"31.25014","category":"68","category_name":"快餐厅","address":"普陀区中山北路1855号光新乐购1楼(近光新路)"},{"poiid":"B2094654D464ABFA489D","title":"浦发广场","lon":"121.4343","lat":"31.25231","category":"46","category_name":"楼宇","address":"上海市普陀区光新路中山北路1619号"},{"poiid":"B2094655D265A3F44599","title":"悦蓉香锅牛蛙 中山北路店","lon":"121.43339","lat":"31.249916","category":"71","category_name":"四川菜","address":"普陀区中山北路1777号(近光新路乐购)"},{"poiid":"B2094757D068A0FE499A","title":"中一国际商务大厦","lon":"121.4330092","lat":"31.251112599","category":"46","category_name":"楼宇","address":"嘉定区真南路4500号(紧邻11号线南翔站)"},{"poiid":"B2094654DB6AABFA4592","title":"秋月枫舍","lon":"121.43522790295","lat":"31.254804192598","category":"47","category_name":"住宅区","address":"镇坪路176弄3-34号"},{"poiid":"B2094757D06FA1FB4899","title":"泰欣嘉园","lon":"121.44","lat":"31.2546","category":"47","category_name":"住宅区","address":"普陀区光复西路133弄泰欣家园会所内(近凯旋北路)"},{"poiid":"B2094757D165A6FB449C","title":"玫瑰婚典一号会馆","lon":"121.43842895","lat":"31.250425686","category":"500","category_name":"未知分类","address":"普陀区宜昌路100号梦清园内(近中潭路)查看地图"},{"poiid":"B2094757D068A0FC469F","title":"名宴汇","lon":"121.434297","lat":"31.252311","category":"75","category_name":"浙江菜","address":"普陀区中山北路1737号浦发广场2楼(近光新路)"},{"poiid":"B2094757D06FA4FF429C","title":"一茶一坐(光新乐购店)","lon":"121.432105","lat":"31.250933","category":"260","category_name":"其他","address":"普陀区中山北路1855号乐购光新店1楼(近光新路)"},{"poiid":"B2094757D068A4F44099","title":"中期大厦","lon":"121.438","lat":"31.2552","category":"46","category_name":"楼宇","address":"中山北路2000号"},{"poiid":"B2094654D465A7F5469B","title":"华源世界广场","lon":"121.439","lat":"31.256","category":"46","category_name":"楼宇","address":"行宫位于沈河北站一路41号"},{"poiid":"B2094757D16BAAFF449B","title":"地铁7号线","lon":"121.43630155","lat":"31.25586419","category":"36","category_name":"地铁站","address":"上海7号线 花木路—美兰湖"},{"poiid":"B2094757D06AA6FD4092","title":"交通路 上海商学院分部","lon":"121.43848419","lat":"31.256755828","category":"500","category_name":"未知分类","address":"上海交通路1933号"},{"poiid":"B2094757D068A5FB429B","title":"老友记新概念日式炭烧","lon":"121.43309","lat":"31.25002","category":"268","category_name":"自助","address":"普陀区中山北路1737号浦发大厦3楼(近光新路)"},{"poiid":"B2094757D168A7F8409D","title":"浦东机场T2航站楼北步行道","lon":"121.43789915","lat":"31.257590923","category":"21","category_name":"飞机场","address":"上海浦东机场2号航站楼"},{"poiid":"B2094757D168A7FA4993","title":"3号线镇坪路站","lon":"121.43886995","lat":"31.2523957238","category":"500","category_name":"未知分类","address":"上海市普陀区农林路"},{"poiid":"B2094757D06BA0FA4399","title":"光新路中山北路","lon":"121.43265895","lat":"31.251043698","category":"500","category_name":"未知分类","address":"上海市普陀区"},{"poiid":"B2094654DB69A6F94899","title":"浦发财富广场","lon":"121.43807","lat":"31.25418","category":"46","category_name":"楼宇","address":"上海市平凉路1398号"},{"poiid":"B2094757D464ABF84299","title":"味千拉面 中山北路店","lon":"121.432828","lat":"31.250304","category":"95","category_name":"日本料理","address":"普陀区中山北路1855号乐购1楼(光新路口)"},{"poiid":"B2094751D365A2F44399","title":"上海浅水湾文化艺术中心","lon":"121.4366563","lat":"31.2512422","category":"248","category_name":"生活娱乐","address":"宜昌路179号"},{"poiid":"B2094757D068ABFD4698","title":"东方既白(光新店)","lon":"121.432845342","lat":"31.2509434898","category":"68","category_name":"快餐厅","address":"普陀区中山北路1855号乐购光新店1楼(近光新路)"},{"poiid":"B2094654D464ABFA469D","title":"宝钢公寓","lon":"121.43562","lat":"31.254045","category":"47","category_name":"住宅区","address":"上海普陀区中山北路1655弄29支弄14号"},{"poiid":"B2094654DA6CA7FB4193","title":"万千大厦","lon":"121.437","lat":"31.2536","category":"46","category_name":"楼宇","address":"上海市平凉路1398号"},{"poiid":"B2094757D068A0F8489F","title":"京世美容美发连锁机构(光新店)","lon":"121.43208","lat":"31.25258","category":"148","category_name":"美容美发店","address":"上海普陀区光新路211号(近中山北路乐购)  "},{"poiid":"B2094757D06AA0FF459B","title":"美格菲香溢花城会所","lon":"121.433577153","lat":"31.2569792199","category":"500","category_name":"未知分类","address":"普陀区石泉东路228号(近光新路)"},{"poiid":"B2094654DA6CA7FA459E","title":"振源大厦","lon":"121.438","lat":"31.2542","category":"46","category_name":"楼宇","address":"上海市四川北路1851号"},{"poiid":"B2094654DB6AABFF409C","title":"上海商业会计学校(交通路)","lon":"121.43847","lat":"31.25675","category":"54","category_name":"职业技术学校","address":"交通路1933"},{"poiid":"B2094757D469A4FC409B","title":"湘霸王土菜馆 中山北路店","lon":"121.43283189362","lat":"31.250018113534","category":"77","category_name":"湖南菜","address":"普陀区中山北路1915号(近光新路)"},{"poiid":"B2094757D06AA2F8499C","title":"上海造币有限公司","lon":"121.434425","lat":"31.249994","category":"46","category_name":"楼宇","address":"上海光复西路17号"},{"poiid":"B2094655D26FA6F5419A","title":"石泉金融大厦","lon":"121.43231","lat":"31.25223","category":"46","category_name":"楼宇","address":"上海市普陀区光新路168号"},{"poiid":"B2094757D064A6FE499C","title":"美格菲健身会所","lon":"121.43238895","lat":"31.2532177395","category":"500","category_name":"未知分类","address":"上海市普陀区石泉东路"},{"poiid":"B2094654DB69A6FF469E","title":"浦发财富SMART","lon":"121.43638","lat":"31.25427","category":"46","category_name":"楼宇","address":"黄浦区中山北路1759"},{"poiid":"B2094757D16DABFD4798","title":"家里蹲","lon":"121.43771895","lat":"31.258147833","category":"500","category_name":"未知分类","address":null},{"poiid":"B2094654D465A7F54998","title":"中远实验学校(远景路)","lon":"121.43589","lat":"31.25164","category":"55","category_name":"中学","address":"普陀区远景路801号(近中远两湾城)"},{"poiid":"B2094655D36DA7F8429C","title":"中山北路铁路街","lon":"121.4357","lat":"31.25343","category":"38","category_name":"公交车站","address":""},{"poiid":"B2094654D464ABF8449B","title":"宜洛馨苑","lon":"121.4394","lat":"31.257336","category":"47","category_name":"住宅区","address":"交通路1913弄1-18号"},{"poiid":"B2094757D06BABFF4692","title":"上海银行(石泉支行)","lon":"121.43487495","lat":"31.251593708","category":"46","category_name":"楼宇","address":"上海市普陀区光新路168号"},{"poiid":"B2094655D26FA0F44193","title":"宝钢公寓(西门)","lon":"121.43517","lat":"31.25377","category":"47","category_name":"住宅区","address":"中山北路1655弄29支弄"},{"poiid":"B2094654D464ABFA4798","title":"良友金伴(农林路)","lon":"121.43511","lat":"31.25482","category":"117","category_name":"便民商店/便利店","address":"宜川路"},{"poiid":"B2094757D06FA7F4459E","title":"永乐生活电器(光新店)","lon":"121.432532","lat":"31.25158","category":"138","category_name":"家电电子卖场","address":"普陀区光新路132号(近中山北路)"},{"poiid":"B2094757D06FA1FB419B","title":"太浜巷","lon":"121.433","lat":"31.2534","category":"500","category_name":"未知分类","address":"上海岚皋路166弄"},{"poiid":"B2094655D265A3F44598","title":"香溢花城二期","lon":"121.43495","lat":"31.2559","category":"47","category_name":"住宅区","address":"石泉东路240号"},{"poiid":"B2094752D26FABF4439A","title":"中山公园龙之梦","lon":"121.434967","lat":"31.254318","category":"500","category_name":"未知分类","address":"望湘园"},{"poiid":"B2094751DA6DA1FA489E","title":"普陀区中心医院","lon":"121.437162","lat":"31.252644","category":"162","category_name":"医院","address":"普陀区兰溪路164号"},{"poiid":"B2094750D26FA4F8449B","title":"百联中环","lon":"121.436965","lat":"31.254943","category":"500","category_name":"未知分类","address":null},{"poiid":"B2094654D464ABF94493","title":"汪家井","lon":"121.43488","lat":"31.258587","category":"47","category_name":"住宅区","address":"交通路2285弄"},{"poiid":"B2094757D06FA7FD419D","title":"85度C 光新店","lon":"121.432199054","lat":"31.250060793","category":"112","category_name":"糕饼店","address":"普陀区中山北路1919号(近光新路)"},{"poiid":"B2094654DB69A4FE409A","title":"乐购超市(光新店)","lon":"121.43227","lat":"31.25043","category":"118","category_name":"超级市场","address":"中山北路1655号"},{"poiid":"B2094757D06FA1F84999","title":"踵香","lon":"121.43419","lat":"31.25137","category":"76","category_name":"上海菜","address":"普陀区中山北路1737号浦发大厦A301(光新路乐购对面)"},{"poiid":"B2094757D06FA0FC489D","title":"COSTA COFFEE(光新店)","lon":"121.43258","lat":"31.25038","category":"65","category_name":"咖啡厅","address":"普陀区中山北路1855号(近光新路)"},{"poiid":"B2094757D06FA3FF409E","title":"麦当劳(光新路乐购店)","lon":"121.43271","lat":"31.25014","category":"68","category_name":"快餐厅","address":"普陀区中山北路1855号光新乐购1楼(近光新路)"},{"poiid":"B2094654D464ABFA489D","title":"浦发广场","lon":"121.4343","lat":"31.25231","category":"46","category_name":"楼宇","address":"上海市普陀区光新路中山北路1619号"},{"poiid":"B2094655D265A3F44599","title":"悦蓉香锅牛蛙 中山北路店","lon":"121.43339","lat":"31.249916","category":"71","category_name":"四川菜","address":"普陀区中山北路1777号(近光新路乐购)"},{"poiid":"B2094757D068A0FE499A","title":"中一国际商务大厦","lon":"121.4330092","lat":"31.251112599","category":"46","category_name":"楼宇","address":"嘉定区真南路4500号(紧邻11号线南翔站)"},{"poiid":"B2094654DB6AABFA4592","title":"秋月枫舍","lon":"121.43522790295","lat":"31.254804192598","category":"47","category_name":"住宅区","address":"镇坪路176弄3-34号"},{"poiid":"B2094757D06FA1FB4899","title":"泰欣嘉园","lon":"121.44","lat":"31.2546","category":"47","category_name":"住宅区","address":"普陀区光复西路133弄泰欣家园会所内(近凯旋北路)"},{"poiid":"B2094757D165A6FB449C","title":"玫瑰婚典一号会馆","lon":"121.43842895","lat":"31.250425686","category":"500","category_name":"未知分类","address":"普陀区宜昌路100号梦清园内(近中潭路)查看地图"},{"poiid":"B2094757D068A0FC469F","title":"名宴汇","lon":"121.434297","lat":"31.252311","category":"75","category_name":"浙江菜","address":"普陀区中山北路1737号浦发广场2楼(近光新路)"},{"poiid":"B2094757D06FA4FF429C","title":"一茶一坐(光新乐购店)","lon":"121.432105","lat":"31.250933","category":"260","category_name":"其他","address":"普陀区中山北路1855号乐购光新店1楼(近光新路)"},{"poiid":"B2094757D068A4F44099","title":"中期大厦","lon":"121.438","lat":"31.2552","category":"46","category_name":"楼宇","address":"中山北路2000号"},{"poiid":"B2094654D465A7F5469B","title":"华源世界广场","lon":"121.439","lat":"31.256","category":"46","category_name":"楼宇","address":"行宫位于沈河北站一路41号"},{"poiid":"B2094757D16BAAFF449B","title":"地铁7号线","lon":"121.43630155","lat":"31.25586419","category":"36","category_name":"地铁站","address":"上海7号线 花木路—美兰湖"},{"poiid":"B2094757D06AA6FD4092","title":"交通路 上海商学院分部","lon":"121.43848419","lat":"31.256755828","category":"500","category_name":"未知分类","address":"上海交通路1933号"},{"poiid":"B2094757D068A5FB429B","title":"老友记新概念日式炭烧","lon":"121.43309","lat":"31.25002","category":"268","category_name":"自助","address":"普陀区中山北路1737号浦发大厦3楼(近光新路)"},{"poiid":"B2094757D168A7F8409D","title":"浦东机场T2航站楼北步行道","lon":"121.43789915","lat":"31.257590923","category":"21","category_name":"飞机场","address":"上海浦东机场2号航站楼"},{"poiid":"B2094757D168A7FA4993","title":"3号线镇坪路站","lon":"121.43886995","lat":"31.2523957238","category":"500","category_name":"未知分类","address":"上海市普陀区农林路"},{"poiid":"B2094757D06BA0FA4399","title":"光新路中山北路","lon":"121.43265895","lat":"31.251043698","category":"500","category_name":"未知分类","address":"上海市普陀区"},{"poiid":"B2094654DB69A6F94899","title":"浦发财富广场","lon":"121.43807","lat":"31.25418","category":"46","category_name":"楼宇","address":"上海市平凉路1398号"},{"poiid":"B2094757D464ABF84299","title":"味千拉面 中山北路店","lon":"121.432828","lat":"31.250304","category":"95","category_name":"日本料理","address":"普陀区中山北路1855号乐购1楼(光新路口)"},{"poiid":"B2094751D365A2F44399","title":"上海浅水湾文化艺术中心","lon":"121.4366563","lat":"31.2512422","category":"248","category_name":"生活娱乐","address":"宜昌路179号"},{"poiid":"B2094757D068ABFD4698","title":"东方既白(光新店)","lon":"121.432845342","lat":"31.2509434898","category":"68","category_name":"快餐厅","address":"普陀区中山北路1855号乐购光新店1楼(近光新路)"},{"poiid":"B2094654D464ABFA469D","title":"宝钢公寓","lon":"121.43562","lat":"31.254045","category":"47","category_name":"住宅区","address":"上海普陀区中山北路1655弄29支弄14号"},{"poiid":"B2094654DA6CA7FB4193","title":"万千大厦","lon":"121.437","lat":"31.2536","category":"46","category_name":"楼宇","address":"上海市平凉路1398号"},{"poiid":"B2094757D068A0F8489F","title":"京世美容美发连锁机构(光新店)","lon":"121.43208","lat":"31.25258","category":"148","category_name":"美容美发店","address":"上海普陀区光新路211号(近中山北路乐购)  "},{"poiid":"B2094757D06AA0FF459B","title":"美格菲香溢花城会所","lon":"121.433577153","lat":"31.2569792199","category":"500","category_name":"未知分类","address":"普陀区石泉东路228号(近光新路)"},{"poiid":"B2094654DA6CA7FA459E","title":"振源大厦","lon":"121.438","lat":"31.2542","category":"46","category_name":"楼宇","address":"上海市四川北路1851号"},{"poiid":"B2094654DB6AABFF409C","title":"上海商业会计学校(交通路)","lon":"121.43847","lat":"31.25675","category":"54","category_name":"职业技术学校","address":"交通路1933"},{"poiid":"B2094757D469A4FC409B","title":"湘霸王土菜馆 中山北路店","lon":"121.43283189362","lat":"31.250018113534","category":"77","category_name":"湖南菜","address":"普陀区中山北路1915号(近光新路)"},{"poiid":"B2094757D06AA2F8499C","title":"上海造币有限公司","lon":"121.434425","lat":"31.249994","category":"46","category_name":"楼宇","address":"上海光复西路17号"},{"poiid":"B2094655D26FA6F5419A","title":"石泉金融大厦","lon":"121.43231","lat":"31.25223","category":"46","category_name":"楼宇","address":"上海市普陀区光新路168号"},{"poiid":"B2094757D064A6FE499C","title":"美格菲健身会所","lon":"121.43238895","lat":"31.2532177395","category":"500","category_name":"未知分类","address":"上海市普陀区石泉东路"},{"poiid":"B2094654DB69A6FF469E","title":"浦发财富SMART","lon":"121.43638","lat":"31.25427","category":"46","category_name":"楼宇","address":"黄浦区中山北路1759"},{"poiid":"B2094757D16DABFD4798","title":"家里蹲","lon":"121.43771895","lat":"31.258147833","category":"500","category_name":"未知分类","address":null},{"poiid":"B2094654D465A7F54998","title":"中远实验学校(远景路)","lon":"121.43589","lat":"31.25164","category":"55","category_name":"中学","address":"普陀区远景路801号(近中远两湾城)"},{"poiid":"B2094655D36DA7F8429C","title":"中山北路铁路街","lon":"121.4357","lat":"31.25343","category":"38","category_name":"公交车站","address":""},{"poiid":"B2094654D464ABF8449B","title":"宜洛馨苑","lon":"121.4394","lat":"31.257336","category":"47","category_name":"住宅区","address":"交通路1913弄1-18号"},{"poiid":"B2094757D06BABFF4692","title":"上海银行(石泉支行)","lon":"121.43487495","lat":"31.251593708","category":"46","category_name":"楼宇","address":"上海市普陀区光新路168号"},{"poiid":"B2094655D26FA0F44193","title":"宝钢公寓(西门)","lon":"121.43517","lat":"31.25377","category":"47","category_name":"住宅区","address":"中山北路1655弄29支弄"},{"poiid":"B2094654D464ABFA4798","title":"良友金伴(农林路)","lon":"121.43511","lat":"31.25482","category":"117","category_name":"便民商店/便利店","address":"宜川路"},{"poiid":"B2094757D06FA7F4459E","title":"永乐生活电器(光新店)","lon":"121.432532","lat":"31.25158","category":"138","category_name":"家电电子卖场","address":"普陀区光新路132号(近中山北路)"},{"poiid":"B2094757D06FA1FB419B","title":"太浜巷","lon":"121.433","lat":"31.2534","category":"500","category_name":"未知分类","address":"上海岚皋路166弄"},{"poiid":"B2094655D265A3F44598","title":"香溢花城二期","lon":"121.43495","lat":"31.2559","category":"47","category_name":"住宅区","address":"石泉东路240号"},{"poiid":"B2094752D26FABF4439A","title":"中山公园龙之梦","lon":"121.434967","lat":"31.254318","category":"500","category_name":"未知分类","address":"望湘园"},{"poiid":"B2094751DA6DA1FA489E","title":"普陀区中心医院","lon":"121.437162","lat":"31.252644","category":"162","category_name":"医院","address":"普陀区兰溪路164号"},{"poiid":"B2094750D26FA4F8449B","title":"百联中环","lon":"121.436965","lat":"31.254943","category":"500","category_name":"未知分类","address":null},{"poiid":"B2094654D464ABF94493","title":"汪家井","lon":"121.43488","lat":"31.258587","category":"47","category_name":"住宅区","address":"交通路2285弄"},{"poiid":"B2094757D06FA7FD419D","title":"85度C 光新店","lon":"121.432199054","lat":"31.250060793","category":"112","category_name":"糕饼店","address":"普陀区中山北路1919号(近光新路)"},{"poiid":"B2094654DB69A4FE409A","title":"乐购超市(光新店)","lon":"121.43227","lat":"31.25043","category":"118","category_name":"超级市场","address":"中山北路1655号"},{"poiid":"B2094757D06FA1F84999","title":"踵香","lon":"121.43419","lat":"31.25137","category":"76","category_name":"上海菜","address":"普陀区中山北路1737号浦发大厦A301(光新路乐购对面)"},{"poiid":"B2094757D06FA0FC489D","title":"COSTA COFFEE(光新店)","lon":"121.43258","lat":"31.25038","category":"65","category_name":"咖啡厅","address":"普陀区中山北路1855号(近光新路)"},{"poiid":"B2094757D06FA3FF409E","title":"麦当劳(光新路乐购店)","lon":"121.43271","lat":"31.25014","category":"68","category_name":"快餐厅","address":"普陀区中山北路1855号光新乐购1楼(近光新路)"},{"poiid":"B2094654D464ABFA489D","title":"浦发广场","lon":"121.4343","lat":"31.25231","category":"46","category_name":"楼宇","address":"上海市普陀区光新路中山北路1619号"},{"poiid":"B2094655D265A3F44599","title":"悦蓉香锅牛蛙 中山北路店","lon":"121.43339","lat":"31.249916","category":"71","category_name":"四川菜","address":"普陀区中山北路1777号(近光新路乐购)"},{"poiid":"B2094757D068A0FE499A","title":"中一国际商务大厦","lon":"121.4330092","lat":"31.251112599","category":"46","category_name":"楼宇","address":"嘉定区真南路4500号(紧邻11号线南翔站)"},{"poiid":"B2094654DB6AABFA4592","title":"秋月枫舍","lon":"121.43522790295","lat":"31.254804192598","category":"47","category_name":"住宅区","address":"镇坪路176弄3-34号"},{"poiid":"B2094757D06FA1FB4899","title":"泰欣嘉园","lon":"121.44","lat":"31.2546","category":"47","category_name":"住宅区","address":"普陀区光复西路133弄泰欣家园会所内(近凯旋北路)"},{"poiid":"B2094757D165A6FB449C","title":"玫瑰婚典一号会馆","lon":"121.43842895","lat":"31.250425686","category":"500","category_name":"未知分类","address":"普陀区宜昌路100号梦清园内(近中潭路)查看地图"},{"poiid":"B2094757D068A0FC469F","title":"名宴汇","lon":"121.434297","lat":"31.252311","category":"75","category_name":"浙江菜","address":"普陀区中山北路1737号浦发广场2楼(近光新路)"},{"poiid":"B2094757D06FA4FF429C","title":"一茶一坐(光新乐购店)","lon":"121.432105","lat":"31.250933","category":"260","category_name":"其他","address":"普陀区中山北路1855号乐购光新店1楼(近光新路)"},{"poiid":"B2094757D068A4F44099","title":"中期大厦","lon":"121.438","lat":"31.2552","category":"46","category_name":"楼宇","address":"中山北路2000号"},{"poiid":"B2094654D465A7F5469B","title":"华源世界广场","lon":"121.439","lat":"31.256","category":"46","category_name":"楼宇","address":"行宫位于沈河北站一路41号"},{"poiid":"B2094757D16BAAFF449B","title":"地铁7号线","lon":"121.43630155","lat":"31.25586419","category":"36","category_name":"地铁站","address":"上海7号线 花木路—美兰湖"},{"poiid":"B2094757D06AA6FD4092","title":"交通路 上海商学院分部","lon":"121.43848419","lat":"31.256755828","category":"500","category_name":"未知分类","address":"上海交通路1933号"},{"poiid":"B2094757D068A5FB429B","title":"老友记新概念日式炭烧","lon":"121.43309","lat":"31.25002","category":"268","category_name":"自助","address":"普陀区中山北路1737号浦发大厦3楼(近光新路)"},{"poiid":"B2094757D168A7F8409D","title":"浦东机场T2航站楼北步行道","lon":"121.43789915","lat":"31.257590923","category":"21","category_name":"飞机场","address":"上海浦东机场2号航站楼"},{"poiid":"B2094757D168A7FA4993","title":"3号线镇坪路站","lon":"121.43886995","lat":"31.2523957238","category":"500","category_name":"未知分类","address":"上海市普陀区农林路"},{"poiid":"B2094757D06BA0FA4399","title":"光新路中山北路","lon":"121.43265895","lat":"31.251043698","category":"500","category_name":"未知分类","address":"上海市普陀区"},{"poiid":"B2094654DB69A6F94899","title":"浦发财富广场","lon":"121.43807","lat":"31.25418","category":"46","category_name":"楼宇","address":"上海市平凉路1398号"},{"poiid":"B2094757D464ABF84299","title":"味千拉面 中山北路店","lon":"121.432828","lat":"31.250304","category":"95","category_name":"日本料理","address":"普陀区中山北路1855号乐购1楼(光新路口)"},{"poiid":"B2094751D365A2F44399","title":"上海浅水湾文化艺术中心","lon":"121.4366563","lat":"31.2512422","category":"248","category_name":"生活娱乐","address":"宜昌路179号"},{"poiid":"B2094757D068ABFD4698","title":"东方既白(光新店)","lon":"121.432845342","lat":"31.2509434898","category":"68","category_name":"快餐厅","address":"普陀区中山北路1855号乐购光新店1楼(近光新路)"},{"poiid":"B2094654D464ABFA469D","title":"宝钢公寓","lon":"121.43562","lat":"31.254045","category":"47","category_name":"住宅区","address":"上海普陀区中山北路1655弄29支弄14号"},{"poiid":"B2094654DA6CA7FB4193","title":"万千大厦","lon":"121.437","lat":"31.2536","category":"46","category_name":"楼宇","address":"上海市平凉路1398号"},{"poiid":"B2094757D068A0F8489F","title":"京世美容美发连锁机构(光新店)","lon":"121.43208","lat":"31.25258","category":"148","category_name":"美容美发店","address":"上海普陀区光新路211号(近中山北路乐购)  "},{"poiid":"B2094757D06AA0FF459B","title":"美格菲香溢花城会所","lon":"121.433577153","lat":"31.2569792199","category":"500","category_name":"未知分类","address":"普陀区石泉东路228号(近光新路)"},{"poiid":"B2094654DA6CA7FA459E","title":"振源大厦","lon":"121.438","lat":"31.2542","category":"46","category_name":"楼宇","address":"上海市四川北路1851号"},{"poiid":"B2094654DB6AABFF409C","title":"上海商业会计学校(交通路)","lon":"121.43847","lat":"31.25675","category":"54","category_name":"职业技术学校","address":"交通路1933"},{"poiid":"B2094757D469A4FC409B","title":"湘霸王土菜馆 中山北路店","lon":"121.43283189362","lat":"31.250018113534","category":"77","category_name":"湖南菜","address":"普陀区中山北路1915号(近光新路)"},{"poiid":"B2094757D06AA2F8499C","title":"上海造币有限公司","lon":"121.434425","lat":"31.249994","category":"46","category_name":"楼宇","address":"上海光复西路17号"},{"poiid":"B2094655D26FA6F5419A","title":"石泉金融大厦","lon":"121.43231","lat":"31.25223","category":"46","category_name":"楼宇","address":"上海市普陀区光新路168号"},{"poiid":"B2094757D064A6FE499C","title":"美格菲健身会所","lon":"121.43238895","lat":"31.2532177395","category":"500","category_name":"未知分类","address":"上海市普陀区石泉东路"},{"poiid":"B2094654DB69A6FF469E","title":"浦发财富SMART","lon":"121.43638","lat":"31.25427","category":"46","category_name":"楼宇","address":"黄浦区中山北路1759"},{"poiid":"B2094757D16DABFD4798","title":"家里蹲","lon":"121.43771895","lat":"31.258147833","category":"500","category_name":"未知分类","address":null},{"poiid":"B2094654D465A7F54998","title":"中远实验学校(远景路)","lon":"121.43589","lat":"31.25164","category":"55","category_name":"中学","address":"普陀区远景路801号(近中远两湾城)"},{"poiid":"B2094655D36DA7F8429C","title":"中山北路铁路街","lon":"121.4357","lat":"31.25343","category":"38","category_name":"公交车站","address":""},{"poiid":"B2094654D464ABF8449B","title":"宜洛馨苑","lon":"121.4394","lat":"31.257336","category":"47","category_name":"住宅区","address":"交通路1913弄1-18号"},{"poiid":"B2094757D06BABFF4692","title":"上海银行(石泉支行)","lon":"121.43487495","lat":"31.251593708","category":"46","category_name":"楼宇","address":"上海市普陀区光新路168号"},{"poiid":"B2094655D26FA0F44193","title":"宝钢公寓(西门)","lon":"121.43517","lat":"31.25377","category":"47","category_name":"住宅区","address":"中山北路1655弄29支弄"},{"poiid":"B2094654D464ABFA4798","title":"良友金伴(农林路)","lon":"121.43511","lat":"31.25482","category":"117","category_name":"便民商店/便利店","address":"宜川路"},{"poiid":"B2094757D06FA7F4459E","title":"永乐生活电器(光新店)","lon":"121.432532","lat":"31.25158","category":"138","category_name":"家电电子卖场","address":"普陀区光新路132号(近中山北路)"},{"poiid":"B2094757D06FA1FB419B","title":"太浜巷","lon":"121.433","lat":"31.2534","category":"500","category_name":"未知分类","address":"上海岚皋路166弄"},{"poiid":"B2094655D265A3F44598","title":"香溢花城二期","lon":"121.43495","lat":"31.2559","category":"47","category_name":"住宅区","address":"石泉东路240号"},{"poiid":"B2094752D26FABF4439A","title":"中山公园龙之梦","lon":"121.434967","lat":"31.254318","category":"500","category_name":"未知分类","address":"望湘园"},{"poiid":"B2094751DA6DA1FA489E","title":"普陀区中心医院","lon":"121.437162","lat":"31.252644","category":"162","category_name":"医院","address":"普陀区兰溪路164号"},{"poiid":"B2094750D26FA4F8449B","title":"百联中环","lon":"121.436965","lat":"31.254943","category":"500","category_name":"未知分类","address":null},{"poiid":"B2094654D464ABF94493","title":"汪家井","lon":"121.43488","lat":"31.258587","category":"47","category_name":"住宅区","address":"交通路2285弄"},{"poiid":"B2094757D06FA7FD419D","title":"85度C 光新店","lon":"121.432199054","lat":"31.250060793","category":"112","category_name":"糕饼店","address":"普陀区中山北路1919号(近光新路)"},{"poiid":"B2094654DB69A4FE409A","title":"乐购超市(光新店)","lon":"121.43227","lat":"31.25043","category":"118","category_name":"超级市场","address":"中山北路1655号"},{"poiid":"B2094757D06FA1F84999","title":"踵香","lon":"121.43419","lat":"31.25137","category":"76","category_name":"上海菜","address":"普陀区中山北路1737号浦发大厦A301(光新路乐购对面)"},{"poiid":"B2094757D06FA0FC489D","title":"COSTA COFFEE(光新店)","lon":"121.43258","lat":"31.25038","category":"65","category_name":"咖啡厅","address":"普陀区中山北路1855号(近光新路)"},{"poiid":"B2094757D06FA3FF409E","title":"麦当劳(光新路乐购店)","lon":"121.43271","lat":"31.25014","category":"68","category_name":"快餐厅","address":"普陀区中山北路1855号光新乐购1楼(近光新路)"},{"poiid":"B2094654D464ABFA489D","title":"浦发广场","lon":"121.4343","lat":"31.25231","category":"46","category_name":"楼宇","address":"上海市普陀区光新路中山北路1619号"},{"poiid":"B2094655D265A3F44599","title":"悦蓉香锅牛蛙 中山北路店","lon":"121.43339","lat":"31.249916","category":"71","category_name":"四川菜","address":"普陀区中山北路1777号(近光新路乐购)"},{"poiid":"B2094757D068A0FE499A","title":"中一国际商务大厦","lon":"121.4330092","lat":"31.251112599","category":"46","category_name":"楼宇","address":"嘉定区真南路4500号(紧邻11号线南翔站)"},{"poiid":"B2094654DB6AABFA4592","title":"秋月枫舍","lon":"121.43522790295","lat":"31.254804192598","category":"47","category_name":"住宅区","address":"镇坪路176弄3-34号"},{"poiid":"B2094757D06FA1FB4899","title":"泰欣嘉园","lon":"121.44","lat":"31.2546","category":"47","category_name":"住宅区","address":"普陀区光复西路133弄泰欣家园会所内(近凯旋北路)"},{"poiid":"B2094757D165A6FB449C","title":"玫瑰婚典一号会馆","lon":"121.43842895","lat":"31.250425686","category":"500","category_name":"未知分类","address":"普陀区宜昌路100号梦清园内(近中潭路)查看地图"},{"poiid":"B2094757D068A0FC469F","title":"名宴汇","lon":"121.434297","lat":"31.252311","category":"75","category_name":"浙江菜","address":"普陀区中山北路1737号浦发广场2楼(近光新路)"},{"poiid":"B2094757D06FA4FF429C","title":"一茶一坐(光新乐购店)","lon":"121.432105","lat":"31.250933","category":"260","category_name":"其他","address":"普陀区中山北路1855号乐购光新店1楼(近光新路)"},{"poiid":"B2094757D068A4F44099","title":"中期大厦","lon":"121.438","lat":"31.2552","category":"46","category_name":"楼宇","address":"中山北路2000号"},{"poiid":"B2094654D465A7F5469B","title":"华源世界广场","lon":"121.439","lat":"31.256","category":"46","category_name":"楼宇","address":"行宫位于沈河北站一路41号"},{"poiid":"B2094757D16BAAFF449B","title":"地铁7号线","lon":"121.43630155","lat":"31.25586419","category":"36","category_name":"地铁站","address":"上海7号线 花木路—美兰湖"},{"poiid":"B2094757D06AA6FD4092","title":"交通路 上海商学院分部","lon":"121.43848419","lat":"31.256755828","category":"500","category_name":"未知分类","address":"上海交通路1933号"},{"poiid":"B2094757D068A5FB429B","title":"老友记新概念日式炭烧","lon":"121.43309","lat":"31.25002","category":"268","category_name":"自助","address":"普陀区中山北路1737号浦发大厦3楼(近光新路)"},{"poiid":"B2094757D168A7F8409D","title":"浦东机场T2航站楼北步行道","lon":"121.43789915","lat":"31.257590923","category":"21","category_name":"飞机场","address":"上海浦东机场2号航站楼"},{"poiid":"B2094757D168A7FA4993","title":"3号线镇坪路站","lon":"121.43886995","lat":"31.2523957238","category":"500","category_name":"未知分类","address":"上海市普陀区农林路"},{"poiid":"B2094757D06BA0FA4399","title":"光新路中山北路","lon":"121.43265895","lat":"31.251043698","category":"500","category_name":"未知分类","address":"上海市普陀区"},{"poiid":"B2094654DB69A6F94899","title":"浦发财富广场","lon":"121.43807","lat":"31.25418","category":"46","category_name":"楼宇","address":"上海市平凉路1398号"},{"poiid":"B2094757D464ABF84299","title":"味千拉面 中山北路店","lon":"121.432828","lat":"31.250304","category":"95","category_name":"日本料理","address":"普陀区中山北路1855号乐购1楼(光新路口)"},{"poiid":"B2094751D365A2F44399","title":"上海浅水湾文化艺术中心","lon":"121.4366563","lat":"31.2512422","category":"248","category_name":"生活娱乐","address":"宜昌路179号"},{"poiid":"B2094757D068ABFD4698","title":"东方既白(光新店)","lon":"121.432845342","lat":"31.2509434898","category":"68","category_name":"快餐厅","address":"普陀区中山北路1855号乐购光新店1楼(近光新路)"},{"poiid":"B2094654D464ABFA469D","title":"宝钢公寓","lon":"121.43562","lat":"31.254045","category":"47","category_name":"住宅区","address":"上海普陀区中山北路1655弄29支弄14号"},{"poiid":"B2094654DA6CA7FB4193","title":"万千大厦","lon":"121.437","lat":"31.2536","category":"46","category_name":"楼宇","address":"上海市平凉路1398号"},{"poiid":"B2094757D068A0F8489F","title":"京世美容美发连锁机构(光新店)","lon":"121.43208","lat":"31.25258","category":"148","category_name":"美容美发店","address":"上海普陀区光新路211号(近中山北路乐购)  "},{"poiid":"B2094757D06AA0FF459B","title":"美格菲香溢花城会所","lon":"121.433577153","lat":"31.2569792199","category":"500","category_name":"未知分类","address":"普陀区石泉东路228号(近光新路)"},{"poiid":"B2094654DA6CA7FA459E","title":"振源大厦","lon":"121.438","lat":"31.2542","category":"46","category_name":"楼宇","address":"上海市四川北路1851号"},{"poiid":"B2094654DB6AABFF409C","title":"上海商业会计学校(交通路)","lon":"121.43847","lat":"31.25675","category":"54","category_name":"职业技术学校","address":"交通路1933"},{"poiid":"B2094757D469A4FC409B","title":"湘霸王土菜馆 中山北路店","lon":"121.43283189362","lat":"31.250018113534","category":"77","category_name":"湖南菜","address":"普陀区中山北路1915号(近光新路)"},{"poiid":"B2094757D06AA2F8499C","title":"上海造币有限公司","lon":"121.434425","lat":"31.249994","category":"46","category_name":"楼宇","address":"上海光复西路17号"},{"poiid":"B2094655D26FA6F5419A","title":"石泉金融大厦","lon":"121.43231","lat":"31.25223","category":"46","category_name":"楼宇","address":"上海市普陀区光新路168号"},{"poiid":"B2094757D064A6FE499C","title":"美格菲健身会所","lon":"121.43238895","lat":"31.2532177395","category":"500","category_name":"未知分类","address":"上海市普陀区石泉东路"},{"poiid":"B2094654DB69A6FF469E","title":"浦发财富SMART","lon":"121.43638","lat":"31.25427","category":"46","category_name":"楼宇","address":"黄浦区中山北路1759"},{"poiid":"B2094757D16DABFD4798","title":"家里蹲","lon":"121.43771895","lat":"31.258147833","category":"500","category_name":"未知分类","address":null},{"poiid":"B2094654D465A7F54998","title":"中远实验学校(远景路)","lon":"121.43589","lat":"31.25164","category":"55","category_name":"中学","address":"普陀区远景路801号(近中远两湾城)"},{"poiid":"B2094655D36DA7F8429C","title":"中山北路铁路街","lon":"121.4357","lat":"31.25343","category":"38","category_name":"公交车站","address":""},{"poiid":"B2094654D464ABF8449B","title":"宜洛馨苑","lon":"121.4394","lat":"31.257336","category":"47","category_name":"住宅区","address":"交通路1913弄1-18号"},{"poiid":"B2094757D06BABFF4692","title":"上海银行(石泉支行)","lon":"121.43487495","lat":"31.251593708","category":"46","category_name":"楼宇","address":"上海市普陀区光新路168号"},{"poiid":"B2094655D26FA0F44193","title":"宝钢公寓(西门)","lon":"121.43517","lat":"31.25377","category":"47","category_name":"住宅区","address":"中山北路1655弄29支弄"},{"poiid":"B2094654D464ABFA4798","title":"良友金伴(农林路)","lon":"121.43511","lat":"31.25482","category":"117","category_name":"便民商店/便利店","address":"宜川路"},{"poiid":"B2094757D06FA7F4459E","title":"永乐生活电器(光新店)","lon":"121.432532","lat":"31.25158","category":"138","category_name":"家电电子卖场","address":"普陀区光新路132号(近中山北路)"},{"poiid":"B2094757D06FA1FB419B","title":"太浜巷","lon":"121.433","lat":"31.2534","category":"500","category_name":"未知分类","address":"上海岚皋路166弄"},{"poiid":"B2094655D265A3F44598","title":"香溢花城二期","lon":"121.43495","lat":"31.2559","category":"47","category_name":"住宅区","address":"石泉东路240号"},{"poiid":"B2094752D26FABF4439A","title":"中山公园龙之梦","lon":"121.434967","lat":"31.254318","category":"500","category_name":"未知分类","address":"望湘园"},{"poiid":"B2094751DA6DA1FA489E","title":"普陀区中心医院","lon":"121.437162","lat":"31.252644","category":"162","category_name":"医院","address":"普陀区兰溪路164号"},{"poiid":"B2094750D26FA4F8449B","title":"百联中环","lon":"121.436965","lat":"31.254943","category":"500","category_name":"未知分类","address":null},{"poiid":"B2094654D464ABF94493","title":"汪家井","lon":"121.43488","lat":"31.258587","category":"47","category_name":"住宅区","address":"交通路2285弄"},{"poiid":"B2094757D06FA7FD419D","title":"85度C 光新店","lon":"121.432199054","lat":"31.250060793","category":"112","category_name":"糕饼店","address":"普陀区中山北路1919号(近光新路)"}]