[{"poiid":"B2094655D26CA4FB4499","title":"上海滩国际大厦","lon":"121.499","lat":"31.2502","category":"46","category_name":"楼宇","address":"丰台学城海鹰路1号,3号"},{"poiid":"B2094757D06FA7FE419F","title":"上海国际港务大厦","lon":"121.49573516","lat":"31.246837616","category":"46","category_name":"楼宇","address":"上海东大名路358号"},{"poiid":"B2094654DA6FA7F8429F","title":"远洋海星旋转餐厅","lon":"121.49625","lat":"31.24696","category":"257","category_name":"中餐厅","address":"虹口区东大名路378号远洋大厦28楼(近旅顺路)"},{"poiid":"B209475CD564A7F84392","title":"上海滩浦东香格里拉店","lon":"121.50058","lat":"31.23634","category":"119","category_name":"商场","address":"浦东富成路33号香格里拉酒店内大堂层"},{"poiid":"B2094757D06AA1FC489E","title":"上海港","lon":"121.497051","lat":"31.247305","category":"500","category_name":"未知分类","address":"上海东大名路500号"},{"poiid":"B2094750D26AA6FB489F","title":"北外滩滨江绿地","lon":"121.499412","lat":"31.243846","category":"248","category_name":"生活娱乐","address":"东大名路新建路"},{"poiid":"B2094757D06FA4FE4999","title":"海湾大厦","lon":"121.498","lat":"31.2499","category":"46","category_name":"楼宇","address":"虹口区黄浦路53号(近外白渡桥)"},{"poiid":"B2094757D068A3F5469E","title":"海员医院(东长治路分院)","lon":"121.498129972","lat":"31.250511409","category":"162","category_name":"医院","address":"上海虹口区东长治路505号"},{"poiid":"B2094757D06FA6F54893","title":"上海港国际客运中心","lon":"121.50271","lat":"31.24954","category":"35","category_name":"长途汽车站","address":"虹口区东大名路800号(近高阳路)"},{"poiid":"B2094654DA6FA4F94593","title":"新黄浦金融大厦","lon":"121.495","lat":"31.2443","category":"46","category_name":"楼宇","address":"黄浦区南京东路61号"},{"poiid":"B2094757D064A3F8429D","title":"上海建工集团总公司","lon":"121.501623103","lat":"31.2491349775","category":"263","category_name":"公司","address":"上海市虹口区东大名路666号"},{"poiid":"B2094654DB6BA3F8449D","title":"定豪沈家门海鲜酒楼","lon":"121.49484","lat":"31.24854","category":"75","category_name":"浙江菜","address":"虹口区东长治路310号(近溧阳路)"},{"poiid":"B2094655D36CA6FB4992","title":"东大名路旅顺路","lon":"121.49738","lat":"31.24778","category":"38","category_name":"公交车站","address":""},{"poiid":"B2094752D66FAAFA439A","title":"Kathleen Waitan","lon":"121.494514","lat":"31.245559","category":"247","category_name":"餐饮美食","address":"黄浦路200号"},{"poiid":"B2094655D268A7FF449E","title":"上海北外滩白玉兰广场","lon":"121.49682","lat":"31.24851","category":"119","category_name":"商场","address":""},{"poiid":"B2094757D06BA4FC459F","title":"美年体检","lon":"121.49821","lat":"31.250433","category":"162","category_name":"医院","address":"虹口区东长治路505号"},{"poiid":"B2094655D268A7F5489F","title":"汉庭酒店（外滩外白渡桥店）","lon":"121.49462","lat":"31.24575","category":"216","category_name":"经济型连锁酒店","address":"上海虹口区黄浦路200号A(近外白渡桥)  "},{"poiid":"B2094655D26BA2F9479E","title":"唐山路新建路","lon":"121.49753","lat":"31.25193","category":"38","category_name":"公交车站","address":""},{"poiid":"B2094752D069A2FF419A","title":"新白鹿","lon":"121.4996283","lat":"31.2488492","category":"247","category_name":"餐饮美食","address":"南京东路800号东方商厦9楼"},{"poiid":"B2094752D36BABF8459D","title":"星巴克(国际港务大厦店)","lon":"121.49583","lat":"31.2467","category":"247","category_name":"餐饮美食","address":"虹口区东大名路358号国际港务大厦内(近太平路)"},{"poiid":"B2094757D06AA7FA409D","title":"东长治路","lon":"121.5008371","lat":"31.250816012","category":"500","category_name":"未知分类","address":"上海东长治路"},{"poiid":"B2094757D069A4FB4792","title":"小红楼","lon":"121.49729584","lat":"31.247755583","category":"46","category_name":"楼宇","address":"上海东大名路388号"},{"poiid":"B2094655D26BA1FB479F","title":"旅顺路","lon":"121.49766","lat":"31.24784","category":"38","category_name":"公交车站","address":""},{"poiid":"B2094757DA69A1FC4098","title":"皇家加勒比国际游轮","lon":"121.49591","lat":"31.24677","category":"254","category_name":"售票处","address":"东大名路358号国际港务大厦"},{"poiid":"B209475CD36CA3F5439D","title":"远洋海皇","lon":"121.49665","lat":"31.24716","category":"76","category_name":"上海菜","address":"东大名路378号远洋大厦28楼(近旅顺路)"},{"poiid":"B2094655D264A5F94099","title":"中国移动通信国客中心营业厅","lon":"121.4988","lat":"31.24843","category":"151","category_name":"电讯营业厅","address":"东大名路500号B1层28室候船大厅内"},{"poiid":"B2094757D16FA3FE429D","title":"上海现代服务业联合会","lon":"121.49942873","lat":"31.242220555","category":"500","category_name":"未知分类","address":"上海市滨江大道2525弄5号A幢"},{"poiid":"B2094757D16AA3F94698","title":"上港花园","lon":"121.49710173","lat":"31.247776974","category":"47","category_name":"住宅区","address":"虹口区东大名路358号"},{"poiid":"B2094750DA6AA7F8419F","title":"上海国际游轮码头","lon":"121.497894","lat":"31.246736","category":"251","category_name":"出行住宿","address":null},{"poiid":"B2094757DA6EABF84393","title":"宝钢资源大厦","lon":"121.499366700002","lat":"31.2487691999997","category":"252","category_name":"楼宇机构","address":"虹口区东大名路568号"},{"poiid":"B2094654D56DABFD499D","title":"上海海员医院体检中心","lon":"121.49774","lat":"31.25025","category":"162","category_name":"医院","address":"提篮桥"},{"poiid":"B2094655D36CA6F4439C","title":"东长治路旅顺路","lon":"121.49693","lat":"31.24975","category":"38","category_name":"公交车站","address":""},{"poiid":"B2094655D26FA1F9499A","title":"会议厅","lon":"121.49597","lat":"31.2473","category":"185","category_name":"会展中心","address":"东大名路359号4层"},{"poiid":"B2094752D064A6F84898","title":"上海东方明珠电视塔","lon":"121.500468","lat":"31.247754","category":"500","category_name":"未知分类","address":null},{"poiid":"B2094757D66EABF84792","title":"广东煲仔饭","lon":"121.496249738","lat":"31.2477826742","category":"247","category_name":"餐饮美食","address":"上海市虹口区塘沽路153号"},{"poiid":"B2094655D26FA4FA4292","title":"上海国际港务大厦(北门)","lon":"121.49592","lat":"31.24692","category":"49","category_name":"无中心点楼宇大门","address":"东大名路358号"},{"poiid":"B2094753D165AAFA489E","title":"黄浦江上","lon":"121.497714","lat":"31.248992","category":"500","category_name":"未知分类","address":"上海市 黄浦江"},{"poiid":"B2094750DB6CA1FB4199","title":"上海国际客运中心","lon":"121.496757","lat":"31.245241","category":"500","category_name":"未知分类","address":null},{"poiid":"B2094654DA6FA7F8459B","title":"中国光大银行上海北外滩支行","lon":"121.49649","lat":"31.24716","category":"150","category_name":"银行","address":"虹口区东大名路378号远洋大厦(东大名路旅顺路)"},{"poiid":"B2094750D365A0FB4292","title":"北外滩","lon":"121.495117","lat":"31.247106","category":"248","category_name":"生活娱乐","address":"溧阳路111号"},{"poiid":"B2094757D06BAAF84592","title":"东大名路359号海关","lon":"121.49558657","lat":"31.247575336","category":"500","category_name":"未知分类","address":"上海东大名路359号海关"},{"poiid":"B2094654DA6FA7F8429E","title":"上海中远国际货运有限公司","lon":"121.49625","lat":"31.24697","category":"248","category_name":"生活娱乐","address":"东大名路378号远洋大厦"},{"poiid":"B2094654DA6FA7F8429C","title":"中远集装箱运输有限公司","lon":"121.49625","lat":"31.24696","category":"248","category_name":"生活娱乐","address":"东大名路378号远洋大厦"},{"poiid":"B2094757D16AA6F9469B","title":"幸福路1314号","lon":"121.49660302","lat":"31.248285459","category":"500","category_name":"未知分类","address":"上海520室"},{"poiid":"B2094654DA6FA7F84493","title":"上海泛亚航运有限公司","lon":"121.49687","lat":"31.24737","category":"248","category_name":"生活娱乐","address":"东大名路388"},{"poiid":"B2094752D46AA2FE4099","title":"中国农业银行外滩支行","lon":"121.496523","lat":"31.24567","category":"150","category_name":"银行","address":"上海市黄浦区中山东一路26号"},{"poiid":"B2094654DA6FA7F8469C","title":"百福里","lon":"121.49566","lat":"31.247463","category":"47","category_name":"住宅区","address":"东大名路353号"},{"poiid":"B2094757D065A2FF459A","title":"上海海关业务三处","lon":"121.49644173","lat":"31.247886676","category":"500","category_name":"未知分类","address":"上海东大名路359号"},{"poiid":"B2094757D164A6FD499B","title":"中国农业银行(大名支行)","lon":"121.49616623","lat":"31.247207662","category":"150","category_name":"银行","address":"虹口区东大名路359号(东大名路旅顺路)"},{"poiid":"B2094654D56DABFD499F","title":"海顺商务楼","lon":"121.49787","lat":"31.25031","category":"46","category_name":"楼宇","address":"东长治路503"},{"poiid":"B2094655D26CA4FB4499","title":"上海滩国际大厦","lon":"121.499","lat":"31.2502","category":"46","category_name":"楼宇","address":"丰台学城海鹰路1号,3号"},{"poiid":"B2094757D06FA7FE419F","title":"上海国际港务大厦","lon":"121.49573516","lat":"31.246837616","category":"46","category_name":"楼宇","address":"上海东大名路358号"},{"poiid":"B2094654DA6FA7F8429F","title":"远洋海星旋转餐厅","lon":"121.49625","lat":"31.24696","category":"257","category_name":"中餐厅","address":"虹口区东大名路378号远洋大厦28楼(近旅顺路)"},{"poiid":"B209475CD564A7F84392","title":"上海滩浦东香格里拉店","lon":"121.50058","lat":"31.23634","category":"119","category_name":"商场","address":"浦东富成路33号香格里拉酒店内大堂层"},{"poiid":"B2094757D06AA1FC489E","title":"上海港","lon":"121.497051","lat":"31.247305","category":"500","category_name":"未知分类","address":"上海东大名路500号"},{"poiid":"B2094750D26AA6FB489F","title":"北外滩滨江绿地","lon":"121.499412","lat":"31.243846","category":"248","category_name":"生活娱乐","address":"东大名路新建路"},{"poiid":"B2094757D06FA4FE4999","title":"海湾大厦","lon":"121.498","lat":"31.2499","category":"46","category_name":"楼宇","address":"虹口区黄浦路53号(近外白渡桥)"},{"poiid":"B2094757D068A3F5469E","title":"海员医院(东长治路分院)","lon":"121.498129972","lat":"31.250511409","category":"162","category_name":"医院","address":"上海虹口区东长治路505号"},{"poiid":"B2094757D06FA6F54893","title":"上海港国际客运中心","lon":"121.50271","lat":"31.24954","category":"35","category_name":"长途汽车站","address":"虹口区东大名路800号(近高阳路)"},{"poiid":"B2094654DA6FA4F94593","title":"新黄浦金融大厦","lon":"121.495","lat":"31.2443","category":"46","category_name":"楼宇","address":"黄浦区南京东路61号"},{"poiid":"B2094757D064A3F8429D","title":"上海建工集团总公司","lon":"121.501623103","lat":"31.2491349775","category":"263","category_name":"公司","address":"上海市虹口区东大名路666号"},{"poiid":"B2094654DB6BA3F8449D","title":"定豪沈家门海鲜酒楼","lon":"121.49484","lat":"31.24854","category":"75","category_name":"浙江菜","address":"虹口区东长治路310号(近溧阳路)"},{"poiid":"B2094655D36CA6FB4992","title":"东大名路旅顺路","lon":"121.49738","lat":"31.24778","category":"38","category_name":"公交车站","address":""},{"poiid":"B2094752D66FAAFA439A","title":"Kathleen Waitan","lon":"121.494514","lat":"31.245559","category":"247","category_name":"餐饮美食","address":"黄浦路200号"},{"poiid":"B2094655D268A7FF449E","title":"上海北外滩白玉兰广场","lon":"121.49682","lat":"31.24851","category":"119","category_name":"商场","address":""},{"poiid":"B2094757D06BA4FC459F","title":"美年体检","lon":"121.49821","lat":"31.250433","category":"162","category_name":"医院","address":"虹口区东长治路505号"},{"poiid":"B2094655D268A7F5489F","title":"汉庭酒店（外滩外白渡桥店）","lon":"121.49462","lat":"31.24575","category":"216","category_name":"经济型连锁酒店","address":"上海虹口区黄浦路200号A(近外白渡桥)  "},{"poiid":"B2094655D26BA2F9479E","title":"唐山路新建路","lon":"121.49753","lat":"31.25193","category":"38","category_name":"公交车站","address":""},{"poiid":"B2094752D069A2FF419A","title":"新白鹿","lon":"121.4996283","lat":"31.2488492","category":"247","category_name":"餐饮美食","address":"南京东路800号东方商厦9楼"},{"poiid":"B2094752D36BABF8459D","title":"星巴克(国际港务大厦店)","lon":"121.49583","lat":"31.2467","category":"247","category_name":"餐饮美食","address":"虹口区东大名路358号国际港务大厦内(近太平路)"},{"poiid":"B2094757D06AA7FA409D","title":"东长治路","lon":"121.5008371","lat":"31.250816012","category":"500","category_name":"未知分类","address":"上海东长治路"},{"poiid":"B2094757D069A4FB4792","title":"小红楼","lon":"121.49729584","lat":"31.247755583","category":"46","category_name":"楼宇","address":"上海东大名路388号"},{"poiid":"B2094655D26BA1FB479F","title":"旅顺路","lon":"121.49766","lat":"31.24784","category":"38","category_name":"公交车站","address":""},{"poiid":"B2094757DA69A1FC4098","title":"皇家加勒比国际游轮","lon":"121.49591","lat":"31.24677","category":"254","category_name":"售票处","address":"东大名路358号国际港务大厦"},{"poiid":"B209475CD36CA3F5439D","title":"远洋海皇","lon":"121.49665","lat":"31.24716","category":"76","category_name":"上海菜","address":"东大名路378号远洋大厦28楼(近旅顺路)"},{"poiid":"B2094655D264A5F94099","title":"中国移动通信国客中心营业厅","lon":"121.4988","lat":"31.24843","category":"151","category_name":"电讯营业厅","address":"东大名路500号B1层28室候船大厅内"},{"poiid":"B2094757D16FA3FE429D","title":"上海现代服务业联合会","lon":"121.49942873","lat":"31.242220555","category":"500","category_name":"未知分类","address":"上海市滨江大道2525弄5号A幢"},{"poiid":"B2094757D16AA3F94698","title":"上港花园","lon":"121.49710173","lat":"31.247776974","category":"47","category_name":"住宅区","address":"虹口区东大名路358号"},{"poiid":"B2094750DA6AA7F8419F","title":"上海国际游轮码头","lon":"121.497894","lat":"31.246736","category":"251","category_name":"出行住宿","address":null},{"poiid":"B2094757DA6EABF84393","title":"宝钢资源大厦","lon":"121.499366700002","lat":"31.2487691999997","category":"252","category_name":"楼宇机构","address":"虹口区东大名路568号"},{"poiid":"B2094654D56DABFD499D","title":"上海海员医院体检中心","lon":"121.49774","lat":"31.25025","category":"162","category_name":"医院","address":"提篮桥"},{"poiid":"B2094655D36CA6F4439C","title":"东长治路旅顺路","lon":"121.49693","lat":"31.24975","category":"38","category_name":"公交车站","address":""},{"poiid":"B2094655D26FA1F9499A","title":"会议厅","lon":"121.49597","lat":"31.2473","category":"185","category_name":"会展中心","address":"东大名路359号4层"},{"poiid":"B2094752D064A6F84898","title":"上海东方明珠电视塔","lon":"121.500468","lat":"31.247754","category":"500","category_name":"未知分类","address":null},{"poiid":"B2094757D66EABF84792","title":"广东煲仔饭","lon":"121.496249738","lat":"31.2477826742","category":"247","category_name":"餐饮美食","address":"上海市虹口区塘沽路153号"},{"poiid":"B2094655D26FA4FA4292","title":"上海国际港务大厦(北门)","lon":"121.49592","lat":"31.24692","category":"49","category_name":"无中心点楼宇大门","address":"东大名路358号"},{"poiid":"B2094753D165AAFA489E","title":"黄浦江上","lon":"121.497714","lat":"31.248992","category":"500","category_name":"未知分类","address":"上海市 黄浦江"},{"poiid":"B2094750DB6CA1FB4199","title":"上海国际客运中心","lon":"121.496757","lat":"31.245241","category":"500","category_name":"未知分类","address":null},{"poiid":"B2094654DA6FA7F8459B","title":"中国光大银行上海北外滩支行","lon":"121.49649","lat":"31.24716","category":"150","category_name":"银行","address":"虹口区东大名路378号远洋大厦(东大名路旅顺路)"},{"poiid":"B2094750D365A0FB4292","title":"北外滩","lon":"121.495117","lat":"31.247106","category":"248","category_name":"生活娱乐","address":"溧阳路111号"},{"poiid":"B2094757D06BAAF84592","title":"东大名路359号海关","lon":"121.49558657","lat":"31.247575336","category":"500","category_name":"未知分类","address":"上海东大名路359号海关"},{"poiid":"B2094654DA6FA7F8429E","title":"上海中远国际货运有限公司","lon":"121.49625","lat":"31.24697","category":"248","category_name":"生活娱乐","address":"东大名路378号远洋大厦"},{"poiid":"B2094654DA6FA7F8429C","title":"中远集装箱运输有限公司","lon":"121.49625","lat":"31.24696","category":"248","category_name":"生活娱乐","address":"东大名路378号远洋大厦"},{"poiid":"B2094757D16AA6F9469B","title":"幸福路1314号","lon":"121.49660302","lat":"31.248285459","category":"500","category_name":"未知分类","address":"上海520室"},{"poiid":"B2094654DA6FA7F84493","title":"上海泛亚航运有限公司","lon":"121.49687","lat":"31.24737","category":"248","category_name":"生活娱乐","address":"东大名路388"},{"poiid":"B2094752D46AA2FE4099","title":"中国农业银行外滩支行","lon":"121.496523","lat":"31.24567","category":"150","category_name":"银行","address":"上海市黄浦区中山东一路26号"},{"poiid":"B2094654DA6FA7F8469C","title":"百福里","lon":"121.49566","lat":"31.247463","category":"47","category_name":"住宅区","address":"东大名路353号"},{"poiid":"B2094757D065A2FF459A","title":"上海海关业务三处","lon":"121.49644173","lat":"31.247886676","category":"500","category_name":"未知分类","address":"上海东大名路359号"},{"poiid":"B2094757D164A6FD499B","title":"中国农业银行(大名支行)","lon":"121.49616623","lat":"31.247207662","category":"150","category_name":"银行","address":"虹口区东大名路359号(东大名路旅顺路)"},{"poiid":"B2094654D56DABFD499F","title":"海顺商务楼","lon":"121.49787","lat":"31.25031","category":"46","category_name":"楼宇","address":"东长治路503"},{"poiid":"B2094655D26CA4FB4499","title":"上海滩国际大厦","lon":"121.499","lat":"31.2502","category":"46","category_name":"楼宇","address":"丰台学城海鹰路1号,3号"},{"poiid":"B2094757D06FA7FE419F","title":"上海国际港务大厦","lon":"121.49573516","lat":"31.246837616","category":"46","category_name":"楼宇","address":"上海东大名路358号"},{"poiid":"B2094654DA6FA7F8429F","title":"远洋海星旋转餐厅","lon":"121.49625","lat":"31.24696","category":"257","category_name":"中餐厅","address":"虹口区东大名路378号远洋大厦28楼(近旅顺路)"},{"poiid":"B209475CD564A7F84392","title":"上海滩浦东香格里拉店","lon":"121.50058","lat":"31.23634","category":"119","category_name":"商场","address":"浦东富成路33号香格里拉酒店内大堂层"},{"poiid":"B2094757D06AA1FC489E","title":"上海港","lon":"121.497051","lat":"31.247305","category":"500","category_name":"未知分类","address":"上海东大名路500号"},{"poiid":"B2094750D26AA6FB489F","title":"北外滩滨江绿地","lon":"121.499412","lat":"31.243846","category":"248","category_name":"生活娱乐","address":"东大名路新建路"},{"poiid":"B2094757D06FA4FE4999","title":"海湾大厦","lon":"121.498","lat":"31.2499","category":"46","category_name":"楼宇","address":"虹口区黄浦路53号(近外白渡桥)"},{"poiid":"B2094757D068A3F5469E","title":"海员医院(东长治路分院)","lon":"121.498129972","lat":"31.250511409","category":"162","category_name":"医院","address":"上海虹口区东长治路505号"},{"poiid":"B2094757D06FA6F54893","title":"上海港国际客运中心","lon":"121.50271","lat":"31.24954","category":"35","category_name":"长途汽车站","address":"虹口区东大名路800号(近高阳路)"},{"poiid":"B2094654DA6FA4F94593","title":"新黄浦金融大厦","lon":"121.495","lat":"31.2443","category":"46","category_name":"楼宇","address":"黄浦区南京东路61号"},{"poiid":"B2094757D064A3F8429D","title":"上海建工集团总公司","lon":"121.501623103","lat":"31.2491349775","category":"263","category_name":"公司","address":"上海市虹口区东大名路666号"},{"poiid":"B2094654DB6BA3F8449D","title":"定豪沈家门海鲜酒楼","lon":"121.49484","lat":"31.24854","category":"75","category_name":"浙江菜","address":"虹口区东长治路310号(近溧阳路)"},{"poiid":"B2094655D36CA6FB4992","title":"东大名路旅顺路","lon":"121.49738","lat":"31.24778","category":"38","category_name":"公交车站","address":""},{"poiid":"B2094752D66FAAFA439A","title":"Kathleen Waitan","lon":"121.494514","lat":"31.245559","category":"247","category_name":"餐饮美食","address":"黄浦路200号"},{"poiid":"B2094655D268A7FF449E","title":"上海北外滩白玉兰广场","lon":"121.49682","lat":"31.24851","category":"119","category_name":"商场","address":""},{"poiid":"B2094757D06BA4FC459F","title":"美年体检","lon":"121.49821","lat":"31.250433","category":"162","category_name":"医院","address":"虹口区东长治路505号"},{"poiid":"B2094655D268A7F5489F","title":"汉庭酒店（外滩外白渡桥店）","lon":"121.49462","lat":"31.24575","category":"216","category_name":"经济型连锁酒店","address":"上海虹口区黄浦路200号A(近外白渡桥)  "},{"poiid":"B2094655D26BA2F9479E","title":"唐山路新建路","lon":"121.49753","lat":"31.25193","category":"38","category_name":"公交车站","address":""},{"poiid":"B2094752D069A2FF419A","title":"新白鹿","lon":"121.4996283","lat":"31.2488492","category":"247","category_name":"餐饮美食","address":"南京东路800号东方商厦9楼"},{"poiid":"B2094752D36BABF8459D","title":"星巴克(国际港务大厦店)","lon":"121.49583","lat":"31.2467","category":"247","category_name":"餐饮美食","address":"虹口区东大名路358号国际港务大厦内(近太平路)"},{"poiid":"B2094757D06AA7FA409D","title":"东长治路","lon":"121.5008371","lat":"31.250816012","category":"500","category_name":"未知分类","address":"上海东长治路"},{"poiid":"B2094757D069A4FB4792","title":"小红楼","lon":"121.49729584","lat":"31.247755583","category":"46","category_name":"楼宇","address":"上海东大名路388号"},{"poiid":"B2094655D26BA1FB479F","title":"旅顺路","lon":"121.49766","lat":"31.24784","category":"38","category_name":"公交车站","address":""},{"poiid":"B2094757DA69A1FC4098","title":"皇家加勒比国际游轮","lon":"121.49591","lat":"31.24677","category":"254","category_name":"售票处","address":"东大名路358号国际港务大厦"},{"poiid":"B209475CD36CA3F5439D","title":"远洋海皇","lon":"121.49665","lat":"31.24716","category":"76","category_name":"上海菜","address":"东大名路378号远洋大厦28楼(近旅顺路)"},{"poiid":"B2094655D264A5F94099","title":"中国移动通信国客中心营业厅","lon":"121.4988","lat":"31.24843","category":"151","category_name":"电讯营业厅","address":"东大名路500号B1层28室候船大厅内"},{"poiid":"B2094757D16FA3FE429D","title":"上海现代服务业联合会","lon":"121.49942873","lat":"31.242220555","category":"500","category_name":"未知分类","address":"上海市滨江大道2525弄5号A幢"},{"poiid":"B2094757D16AA3F94698","title":"上港花园","lon":"121.49710173","lat":"31.247776974","category":"47","category_name":"住宅区","address":"虹口区东大名路358号"},{"poiid":"B2094750DA6AA7F8419F","title":"上海国际游轮码头","lon":"121.497894","lat":"31.246736","category":"251","category_name":"出行住宿","address":null},{"poiid":"B2094757DA6EABF84393","title":"宝钢资源大厦","lon":"121.499366700002","lat":"31.2487691999997","category":"252","category_name":"楼宇机构","address":"虹口区东大名路568号"},{"poiid":"B2094654D56DABFD499D","title":"上海海员医院体检中心","lon":"121.49774","lat":"31.25025","category":"162","category_name":"医院","address":"提篮桥"},{"poiid":"B2094655D36CA6F4439C","title":"东长治路旅顺路","lon":"121.49693","lat":"31.24975","category":"38","category_name":"公交车站","address":""},{"poiid":"B2094655D26FA1F9499A","title":"会议厅","lon":"121.49597","lat":"31.2473","category":"185","category_name":"会展中心","address":"东大名路359号4层"},{"poiid":"B2094752D064A6F84898","title":"上海东方明珠电视塔","lon":"121.500468","lat":"31.247754","category":"500","category_name":"未知分类","address":null},{"poiid":"B2094757D66EABF84792","title":"广东煲仔饭","lon":"121.496249738","lat":"31.2477826742","category":"247","category_name":"餐饮美食","address":"上海市虹口区塘沽路153号"},{"poiid":"B2094655D26FA4FA4292","title":"上海国际港务大厦(北门)","lon":"121.49592","lat":"31.24692","category":"49","category_name":"无中心点楼宇大门","address":"东大名路358号"},{"poiid":"B2094753D165AAFA489E","title":"黄浦江上","lon":"121.497714","lat":"31.248992","category":"500","category_name":"未知分类","address":"上海市 黄浦江"},{"poiid":"B2094750DB6CA1FB4199","title":"上海国际客运中心","lon":"121.496757","lat":"31.245241","category":"500","category_name":"未知分类","address":null},{"poiid":"B2094654DA6FA7F8459B","title":"中国光大银行上海北外滩支行","lon":"121.49649","lat":"31.24716","category":"150","category_name":"银行","address":"虹口区东大名路378号远洋大厦(东大名路旅顺路)"},{"poiid":"B2094750D365A0FB4292","title":"北外滩","lon":"121.495117","lat":"31.247106","category":"248","category_name":"生活娱乐","address":"溧阳路111号"},{"poiid":"B2094757D06BAAF84592","title":"东大名路359号海关","lon":"121.49558657","lat":"31.247575336","category":"500","category_name":"未知分类","address":"上海东大名路359号海关"},{"poiid":"B2094654DA6FA7F8429E","title":"上海中远国际货运有限公司","lon":"121.49625","lat":"31.24697","category":"248","category_name":"生活娱乐","address":"东大名路378号远洋大厦"},{"poiid":"B2094654DA6FA7F8429C","title":"中远集装箱运输有限公司","lon":"121.49625","lat":"31.24696","category":"248","category_name":"生活娱乐","address":"东大名路378号远洋大厦"},{"poiid":"B2094757D16AA6F9469B","title":"幸福路1314号","lon":"121.49660302","lat":"31.248285459","category":"500","category_name":"未知分类","address":"上海520室"},{"poiid":"B2094654DA6FA7F84493","title":"上海泛亚航运有限公司","lon":"121.49687","lat":"31.24737","category":"248","category_name":"生活娱乐","address":"东大名路388"},{"poiid":"B2094752D46AA2FE4099","title":"中国农业银行外滩支行","lon":"121.496523","lat":"31.24567","category":"150","category_name":"银行","address":"上海市黄浦区中山东一路26号"},{"poiid":"B2094654DA6FA7F8469C","title":"百福里","lon":"121.49566","lat":"31.247463","category":"47","category_name":"住宅区","address":"东大名路353号"},{"poiid":"B2094757D065A2FF459A","title":"上海海关业务三处","lon":"121.49644173","lat":"31.247886676","category":"500","category_name":"未知分类","address":"上海东大名路359号"},{"poiid":"B2094757D164A6FD499B","title":"中国农业银行(大名支行)","lon":"121.49616623","lat":"31.247207662","category":"150","category_name":"银行","address":"虹口区东大名路359号(东大名路旅顺路)"},{"poiid":"B2094654D56DABFD499F","title":"海顺商务楼","lon":"121.49787","lat":"31.25031","category":"46","category_name":"楼宇","address":"东长治路503"}]