[{"poiid":"B2094655D26FA2FB479A","title":"麦当劳(齐河路店)","lon":"121.50288","lat":"31.17886","category":"68","category_name":"快餐厅","address":"浦东新区齐河路258号(近云台路)"},{"poiid":"B2094757D06FA6FE409C","title":"昌里花园","lon":"121.50532","lat":"31.176899","category":"47","category_name":"住宅区","address":"上海市浦东新区昌里东路71弄"},{"poiid":"B2094757D06FA1F54398","title":"沃尔玛(上南齐河店)","lon":"121.503158536","lat":"31.1784074908","category":"118","category_name":"超级市场","address":"浦东新区齐河路258号(齐河路云台路)"},{"poiid":"B2094757D568A4F44398","title":"现代映象-昌里花园","lon":"121.5034481","lat":"31.17818","category":"47","category_name":"住宅区","address":"现代映象―昌里花园位于浦东云台路179号"},{"poiid":"B2094757D06BAAF4449E","title":"味千拉面(齐河路)","lon":"121.503808738","lat":"31.1803422377","category":"95","category_name":"日本料理","address":"上海浦东新区齐河路258号(沃尔玛齐河店楼下街面)"},{"poiid":"B2094655D268A2FE4592","title":"上海市实验学校","lon":"121.50804","lat":"31.18301","category":"55","category_name":"中学","address":"浦东新区东明路300号(近齐河路)"},{"poiid":"B2094757D06FABF4499F","title":"上南花苑","lon":"121.50368","lat":"31.180952","category":"47","category_name":"住宅区","address":"上海浦东新区齐河路257-259弄"},{"poiid":"B2094757D068A1FE409C","title":"星特利台球俱乐部(齐河路一店)","lon":"121.50717773","lat":"31.180657244","category":"171","category_name":"台球厅","address":"上海浦东新区齐河路300号  "},{"poiid":"B2094757D068A5FE409B","title":"京世造型(齐河路店)","lon":"121.50303073","lat":"31.179385217","category":"148","category_name":"美容美发店","address":"上海浦东新区齐河路258号沃尔玛超市1楼(近云台路)"},{"poiid":"B2094757D16FA7FD489E","title":"浦东新区周家渡地段医院","lon":"121.508960738","lat":"31.1768931643","category":"162","category_name":"医院","address":"上海浦东新"},{"poiid":"B2094757D06BA4F4469C","title":"85度C(齐河店)","lon":"121.503306929","lat":"31.1791645821","category":"67","category_name":"甜品店","address":"浦东新区齐河路258号沃尔玛超市1楼(近味千拉面)"},{"poiid":"B2094751D465A3FC4192","title":"新石器烤肉","lon":"121.503885","lat":"31.179362","category":"247","category_name":"餐饮美食","address":"浦东,齐河路"},{"poiid":"B2094655D26DA1F9419A","title":"都市庭院","lon":"121.5074","lat":"31.179399","category":"47","category_name":"住宅区","address":"上海市浦东新区齐河路438弄"},{"poiid":"B2094750D164ABFC4099","title":"三林体育中心","lon":"121.506317","lat":"31.182468","category":"250","category_name":"公园户外","address":"云莲路齐河路"},{"poiid":"B2094757D06AA0FC429A","title":"味之都 上南店","lon":"121.502757054","lat":"31.179184793","category":"68","category_name":"快餐厅","address":"浦东新区齐河路258号沃尔玛超市1楼(近云台路)"},{"poiid":"B2094654DA6AA2FF4692","title":"中国电信电信世界齐河路店","lon":"121.50522","lat":"31.17994","category":"151","category_name":"电讯营业厅","address":"齐河路295"},{"poiid":"B2094654DA68A6FA459C","title":"好又多(齐河路)","lon":"121.50395","lat":"31.1793","category":"118","category_name":"超级市场","address":"浦东新区齐河路258号"},{"poiid":"B2094655D36CA5FA419D","title":"昌里东路","lon":"121.50613","lat":"31.17877","category":"38","category_name":"公交车站","address":""},{"poiid":"B2094757D064A7F94799","title":"烹大师涮涮锅(上南沃尔玛店)","lon":"121.50344473","lat":"31.178229192","category":"86","category_name":"火锅店","address":"上海市浦东新区齐河路258号沃尔玛一层"},{"poiid":"B2094654DA6AA2FF459C","title":"中国联通齐河路营业厅","lon":"121.5045","lat":"31.17976","category":"151","category_name":"电讯营业厅","address":"浦东新区齐河路265号(近云台路)"},{"poiid":"B2094655D36CA2FE4792","title":"齐河路云台路","lon":"121.50423","lat":"31.17958","category":"38","category_name":"公交车站","address":""},{"poiid":"B2094654DA6AA2FF4998","title":"都市庭院(边门)","lon":"121.5063","lat":"31.17915","category":"47","category_name":"住宅区","address":""},{"poiid":"B2094654DA6AA2F8459C","title":"上南花苑西苑","lon":"121.50429","lat":"31.18305","category":"47","category_name":"住宅区","address":"浦东南路3885弄"},{"poiid":"B2094757D06BA7FD4298","title":"活力无限运动健身中心","lon":"121.506453","lat":"31.176359","category":"148","category_name":"美容美发店","address":"浦东新区昌里东路117号(近云莲路)"},{"poiid":"B2094753D46AA6F4449C","title":"三林体育中心","lon":"121.507141","lat":"31.18086","category":"500","category_name":"未知分类","address":"上海市 浦东新区齐河路471号"},{"poiid":"B2094655D26AA1FD469C","title":"水胭脂国际专业女子美容美体生活馆","lon":"121.50617","lat":"31.17985","category":"247","category_name":"餐饮美食","address":"浦东新区齐河路404号(近云莲路)"},{"poiid":"B2094757D16DABF94892","title":"工商银行","lon":"121.50528373","lat":"31.17952122","category":"150","category_name":"银行","address":"上海市齐河路308号(近云莲路)"},{"poiid":"B2094757D069A1FB4393","title":"周家渡派出所","lon":"121.50838473","lat":"31.176638158","category":"609","category_name":"警察局","address":"昌里东路185号-1"},{"poiid":"B2094654DB64A3F84093","title":"云莲苑(西门)","lon":"121.50665","lat":"31.17776","category":"47","category_name":"住宅区","address":"云莲路405弄1-23号"},{"poiid":"B2094655D26DA7F4409C","title":"现代映象(边门)","lon":"121.50451","lat":"31.17948","category":"47","category_name":"住宅区","address":"云台路183弄"},{"poiid":"B2094757D169A2FA4299","title":"云台幼儿园云天部","lon":"121.506320338","lat":"31.1785769001","category":"253","category_name":"校园生活","address":"上海昌里东路320弄"},{"poiid":"B2094654DA6AA2F8489D","title":"东明家园","lon":"121.50913","lat":"31.179401","category":"47","category_name":"住宅区","address":"上海市浦东新区东明路586号"},{"poiid":"B2094655D265A0F94192","title":"上海上野宠物诊所有限公司","lon":"121.5068","lat":"31.17999","category":"162","category_name":"医院","address":"齐河路432"},{"poiid":"B2094654DA6AA2FF489A","title":"可的(齐河路)","lon":"121.50674","lat":"31.18","category":"117","category_name":"便民商店/便利店","address":"浦东新区齐河路428号(齐河路云莲路)"},{"poiid":"B2094654DA68A6FA449C","title":"现代映象","lon":"121.5044","lat":"31.177847","category":"47","category_name":"住宅区","address":"浦东新区云台路183弄"},{"poiid":"B2094655D26EA3FE459F","title":"好德No.168","lon":"121.50436","lat":"31.17973","category":"117","category_name":"便民商店/便利店","address":"齐河路261"},{"poiid":"B2094757D168AAFF4793","title":"中国建设银行上海白莲泾支行","lon":"121.50529","lat":"31.17963","category":"500","category_name":"未知分类","address":"浦东新区齐河路306号(齐河路云莲路)"},{"poiid":"B2094654DA68A6FA469B","title":"元祖 齐河路店 Ganso","lon":"121.502943054","lat":"31.179788793","category":"112","category_name":"糕饼店","address":"齐河路241号近好又多超市"},{"poiid":"B2094654DB6BABF9499A","title":"必胜宅急送 齐河路店 Pizza Hut","lon":"121.502923054","lat":"31.179161793","category":"94","category_name":"西餐厅","address":"浦东新区齐河路258号(近云台路)"},{"poiid":"B2094654DA68A6FA469D","title":"永琪美容美发(齐河路)","lon":"121.50306","lat":"31.17944","category":"148","category_name":"美容美发店","address":"浦东新区齐河路(近云台路)"},{"poiid":"B2094757D66EA4FA4098","title":"大众汽车俱乐部","lon":"121.505280738","lat":"31.1794262182","category":"500","category_name":"未知分类","address":"上海市云台路"},{"poiid":"B2094654DB64A3F8409C","title":"华联典当(齐河路)","lon":"121.50457","lat":"31.17978","category":"249","category_name":"购物服务","address":"浦东新区齐河路271号(齐河路云莲路)"},{"poiid":"B2094753D56CA7F8429E","title":"三林体育中心","lon":"121.50581749073785","lat":"31.181123304096605","category":"224","category_name":"综合体育馆","address":"浦东新区云莲路201号"},{"poiid":"B2094655D26DA1F8489F","title":"都市庭院(北门)","lon":"121.50704","lat":"31.1801","category":"47","category_name":"住宅区","address":"齐河路438弄"},{"poiid":"B2094757D165A2FE489D","title":"佰瑞福养生堂","lon":"121.50516","lat":"31.17959","category":"149","category_name":"洗浴推拿场所","address":"上海浦东新区齐河路285号(近云莲路)  "},{"poiid":"B2094757D16CA5FD4793","title":"兴兴棋牌室","lon":"121.506656","lat":"31.180095","category":"248","category_name":"生活娱乐","address":"上海云莲路齐河路"},{"poiid":"B2094752D469A2FF4399","title":"港汇恒隆广场","lon":"121.504789","lat":"31.177718","category":"500","category_name":"未知分类","address":null},{"poiid":"B2094757D568A7FC459C","title":"秀域古方减肥(齐河路)","lon":"121.50381673","lat":"31.17964762","category":"148","category_name":"美容美发店","address":"浦东新区齐河路251号(近云台路)"},{"poiid":"B2094654DA68A6FA469A","title":"快客No.1421","lon":"121.50371","lat":"31.17961","category":"117","category_name":"便民商店/便利店","address":"齐河路245"},{"poiid":"B2094654DA6AA2FF4593","title":"中国光大银行昌里支行","lon":"121.50474","lat":"31.1795","category":"150","category_name":"银行","address":"齐河路280-284"},{"poiid":"B2094757D768A4FD479A","title":"麦咖啡 上南好又多店 McCafe","lon":"121.50256","lat":"31.17914","category":"68","category_name":"快餐厅","address":"浦东新区齐河路258号好又多(近云台路)"},{"poiid":"B2094757D16EA4FD489A","title":"番薯肉丸Bubble屋","lon":"121.50370363","lat":"31.178881006","category":"247","category_name":"餐饮美食","address":"上海杨新路80弄"},{"poiid":"B2094654DA6AA2FF499D","title":"昌里花园(东大门)","lon":"121.50607","lat":"31.17826","category":"48","category_name":"楼宇大门","address":"云莲路398弄"},{"poiid":"B2094753D56AA1FD449E","title":"飞扬滑冰场","lon":"121.506721","lat":"31.181941","category":"220","category_name":"运动场所","address":"上海市 齐河路471号"},{"poiid":"B2094654DA68A6FA469E","title":"文峰美发美容鑫研店","lon":"121.50328","lat":"31.1795","category":"148","category_name":"美容美发店","address":"齐河路225"},{"poiid":"B2094654DB6BABF9499B","title":"好又多(西门)","lon":"121.50299","lat":"31.17881","category":"118","category_name":"超级市场","address":"云台路167"},{"poiid":"B2094655D26BA4FD409E","title":"英雄棋牌","lon":"121.5061","lat":"31.17968","category":"175","category_name":"棋牌室","address":"云莲路241"},{"poiid":"B2094757D06AA4FA4392","title":"敦煌千子莲足道(齐河路店)","lon":"121.50279","lat":"31.17842","category":"149","category_name":"洗浴推拿场所","address":"浦东新区齐河路211号2楼(云台路口)"},{"poiid":"B2094757D16BABF84898","title":"云莲路","lon":"121.50665283","lat":"31.180095672","category":"500","category_name":"未知分类","address":"上海云莲路"},{"poiid":"B2094654DA6AA2F8409C","title":"周家渡社区卫生服务中心","lon":"121.50897","lat":"31.17708","category":"162","category_name":"医院","address":"浦东新区昌里东路239号(近南码头路)"},{"poiid":"B2094654DA68A6FA449D","title":"中国银行上海市周家渡支行","lon":"121.50344","lat":"31.17817","category":"150","category_name":"银行","address":"云台路179"},{"poiid":"B2094757D16AA0F8409E","title":"吉祥缘麻辣烫","lon":"121.503581338","lat":"31.1787748043","category":"247","category_name":"餐饮美食","address":"上海昌里东路89号"},{"poiid":"B2094757DA6EAAF94599","title":"顶鲜汤包(昌里路店)","lon":"121.505088000003","lat":"31.1759399999999","category":"68","category_name":"快餐厅","address":"浦东新区昌里东路38号(近云台路)"},{"poiid":"B2094757D16DA3FC489C","title":"爱婴室(齐河路店)","lon":"121.50427","lat":"31.17916","category":"500","category_name":"未知分类","address":"上海浦东新区齐河路278号(近云台路)  "},{"poiid":"B2094655D26FA6FB409D","title":"云莲苑","lon":"121.50767","lat":"31.177732","category":"47","category_name":"住宅区","address":"云莲路405弄1-23号"},{"poiid":"B2094655D26EA4F84698","title":"自然美沙龙SPA(上南店)","lon":"121.50358","lat":"31.17957","category":"148","category_name":"美容美发店","address":"浦东新区齐河路235号"},{"poiid":"B2094655D26BA6FF499A","title":"都市棋牌","lon":"121.50632","lat":"31.17902","category":"175","category_name":"棋牌室","address":"云莲路289"},{"poiid":"B2094655D36DA7FC4692","title":"云台路齐河路","lon":"121.50226","lat":"31.17994","category":"38","category_name":"公交车站","address":""},{"poiid":"B2094654DA6AA2FF459F","title":"正章洗染(静安寺)齐河连锁店","lon":"121.50445","lat":"31.17975","category":"249","category_name":"购物服务","address":"齐河路263"},{"poiid":"B2094753D468A4F94699","title":"三林游泳馆","lon":"121.505798","lat":"31.182657","category":"220","category_name":"运动场所","address":"上海市 云莲路201号（三林体育中心内）"},{"poiid":"B2094757D168A5FC4799","title":"周家渡社区文化中心","lon":"121.508837","lat":"31.180462","category":"500","category_name":"未知分类","address":"上海齐河路508号"},{"poiid":"B2094655D26DA1FF439F","title":"逸耘茶馆","lon":"121.510032054","lat":"31.179444793","category":"66","category_name":"茶艺馆","address":"东明路568号昌里路齐河路间"},{"poiid":"B2094757D069A1F84493","title":"现代映像","lon":"121.5044","lat":"31.177847","category":"500","category_name":"未知分类","address":"上海云台路183弄"},{"poiid":"B2094655D36CA5FA419B","title":"昌里路云莲路","lon":"121.50729","lat":"31.17635","category":"38","category_name":"公交车站","address":""},{"poiid":"B2094654DA6AA2F84899","title":"周家渡社区图书馆","lon":"121.50883","lat":"31.18045","category":"181","category_name":"图书馆","address":"浦东新区齐河路508号(东明路齐河路)"},{"poiid":"B2094655D26FA4FA4498","title":"上南花园(西门)","lon":"121.50261","lat":"31.17974","category":"47","category_name":"住宅区","address":""},{"poiid":"B2094654DB6BABF9499E","title":"现代映象(西门)","lon":"121.50347","lat":"31.17789","category":"47","category_name":"住宅区","address":"云台路183弄"},{"poiid":"B2094753D66BA3F44593","title":"三林体育中心","lon":"121.505561","lat":"31.182075","category":"500","category_name":"未知分类","address":"上海市 浦东新区云莲路201号"},{"poiid":"B209475DD36FA6F9419A","title":"上海飞扬冰上运动中心","lon":"121.505914","lat":"31.181856","category":"248","category_name":"生活娱乐","address":"上海浦东云莲路201号三林体育中心滑冰场"},{"poiid":"B2094757D165AAF94398","title":"文涛盲人按摩","lon":"121.503732","lat":"31.179552","category":"148","category_name":"美容美发店","address":"浦东新区齐河路36号(近云台路)"},{"poiid":"B2094757D068A1F94499","title":"上南四村","lon":"121.502","lat":"31.1786","category":"252","category_name":"楼宇机构","address":"上海上南路1251弄上南四村"},{"poiid":"B2094757D568A6F9489C","title":"巴黎三城齐河路店","lon":"121.5039589","lat":"31.17930889","category":"249","category_name":"购物服务","address":"浦东新区齐河路258号好又多超市1楼(齐河路云台路)"},{"poiid":"B2094655D26FA6FE489A","title":"昌盛新苑","lon":"121.50876","lat":"31.17768","category":"47","category_name":"住宅区","address":"东明路660弄1-20号"},{"poiid":"B2094757D66CA5F4489E","title":"隧道二线昌里东路云台路站","lon":"121.50371443","lat":"31.178801104","category":"500","category_name":"未知分类","address":"上海昌里东路云台路"},{"poiid":"B2094654DA6AA2FF499C","title":"五星棋牌","lon":"121.50663","lat":"31.17855","category":"175","category_name":"棋牌室","address":"云莲路321"},{"poiid":"B2094757D16CA6FA4499","title":"贝孚少儿教育","lon":"121.50991958","lat":"31.179690548","category":"500","category_name":"未知分类","address":"上海东明路齐河路"},{"poiid":"B2094750DB6BA4FF4592","title":"上海火车站","lon":"121.506927","lat":"31.178085","category":"627","category_name":"一般地点标志","address":null},{"poiid":"B2094757D66EA2FC459E","title":"兰村路","lon":"121.50347173","lat":"31.179434218","category":"500","category_name":"未知分类","address":"上海市兰村路"},{"poiid":"B2094655D268ABFC499C","title":"昌里花园(东一门)","lon":"121.50598","lat":"31.1785","category":"656","category_name":"大门","address":""},{"poiid":"B2094757D164A4FD429A","title":"玉春风美甲","lon":"121.50344673","lat":"31.179447218","category":"500","category_name":"未知分类","address":"上海市浦东南路"},{"poiid":"B2094655D36CA5FA419A","title":"昌里路云台路","lon":"121.50365","lat":"31.17576","category":"38","category_name":"公交车站","address":""},{"poiid":"B2094757D66EA6F84392","title":"上海泰正实业","lon":"121.503061738","lat":"31.1813952601","category":"46","category_name":"楼宇","address":"上海浏河路1号"},{"poiid":"B2094654DA68A6FA479B","title":"上南花苑(西大门)","lon":"121.50206","lat":"31.18084","category":"47","category_name":"住宅区","address":"齐河路257弄"},{"poiid":"B2094655D36CA6FA4999","title":"东明路","lon":"121.50985","lat":"31.17817","category":"38","category_name":"公交车站","address":""},{"poiid":"B2094757D169A5FE4493","title":"嘉年华七号线云台路6号口","lon":"121.50308373","lat":"31.179421218","category":"500","category_name":"未知分类","address":"上海市浦东南路"},{"poiid":"B2094655D36CA5FA419F","title":"昌里东路云台路","lon":"121.50507","lat":"31.17598","category":"38","category_name":"公交车站","address":""},{"poiid":"B2094757D66EA5F44799","title":"齊河路","lon":"121.502949738","lat":"31.1786032007","category":"500","category_name":"未知分类","address":"上海浦东新区雲台路"},{"poiid":"B2094757D065ABFE479B","title":"家得利超市(昌里店)","lon":"121.50717","lat":"31.17604","category":"118","category_name":"超级市场","address":"浦东新区昌里东路119号(近云莲路)"},{"poiid":"B2094654DA6AA2FF4199","title":"秦记汤包昌里店","lon":"121.50511","lat":"31.17582","category":"257","category_name":"中餐厅","address":"昌里东路38"},{"poiid":"B2094654DA6AA2F84098","title":"浦东公安分局交通警察支队三大队","lon":"121.50746","lat":"31.17654","category":"250","category_name":"公园户外","address":"昌里东路181"},{"poiid":"B2094757D66FA1F9409E","title":"大小姐家","lon":"121.50666573","lat":"31.177085168","category":"500","category_name":"未知分类","address":null},{"poiid":"B2094757D065A0FB499C","title":"招商银行ATM24小时自助服务","lon":"121.502991","lat":"31.178812","category":"500","category_name":"未知分类","address":"上海市浦东新区云台路167号"},{"poiid":"B2094654DA6AA2F8409F","title":"周家渡社区卫生服务中心预防保健部","lon":"121.50841","lat":"31.17678","category":"162","category_name":"医院","address":""},{"poiid":"B2094757D16CA2FA439C","title":"金呈河食府","lon":"121.5027","lat":"31.18155","category":"247","category_name":"餐饮美食","address":"上海浦东新区浏河路19号(近云台路)  "},{"poiid":"B2094655D26DA7FB429D","title":"中国邮政储蓄银行云莲路支行","lon":"121.50656","lat":"31.17687","category":"150","category_name":"银行","address":"云莲路420"},{"poiid":"B2094654DA6AA2F84598","title":"云台一小区","lon":"121.50602","lat":"31.17509","category":"47","category_name":"住宅区","address":"上海浦东新区昌里东路80弄"},{"poiid":"B2094655D268ABFC499B","title":"东明家园(边门)","lon":"121.50932","lat":"31.17888","category":"47","category_name":"住宅区","address":""},{"poiid":"B2094757D16EA3FF419C","title":"云莲路邮政所","lon":"121.506563","lat":"31.176878","category":"500","category_name":"未知分类","address":"上海云莲路420号"},{"poiid":"B2094757D164ABFB4192","title":"蘑菇宝贝(上南店)","lon":"121.50771173","lat":"31.177192404","category":"249","category_name":"购物服务","address":"上海浦东新区齐河路好又多一楼"},{"poiid":"B2094757D065ABF8419A","title":"来伊份(康桥店)","lon":"121.503559371","lat":"31.1775819875","category":"500","category_name":"未知分类","address":"上海浦东新区康桥路1045号近沪南路"},{"poiid":"B2094654DA68A0FF409C","title":"春宵保健品","lon":"121.50178","lat":"31.18032","category":"162","category_name":"医院","address":""},{"poiid":"B2094757DB6DA4FC469F","title":"上海金托商务酒店","lon":"121.502555","lat":"31.181996","category":"216","category_name":"经济型连锁酒店","address":"上海浦东新区浏河路19号(近云台路)"},{"poiid":"B2094654DB6BABF94999","title":"上南花苑(南门)","lon":"121.50421","lat":"31.17972","category":"656","category_name":"大门","address":"齐河路259弄1-44号"},{"poiid":"B2094757D16EA1FF429D","title":"成山路东明路","lon":"121.50825173","lat":"31.17670216","category":"500","category_name":"未知分类","address":"上海市浦东新区"},{"poiid":"B2094654DB6BABF84699","title":"上海市浦东新区新世界实验小学","lon":"121.50418","lat":"31.17506","category":"56","category_name":"小学","address":"浦东新区云台路230号(昌里东路昌里路)"},{"poiid":"B2094752DB6AAAF84199","title":"世博国际影城","lon":"121.502114","lat":"31.176767","category":"178","category_name":"电影院","address":"上海市 世博大道"},{"poiid":"B2094655D26DA7FB409F","title":"上南花苑东苑(西门)","lon":"121.50537","lat":"31.18278","category":"47","category_name":"住宅区","address":"云莲路101弄"},{"poiid":"B2094757D168A6F54693","title":"卡雨诗专业造型护肤中心","lon":"121.5063558","lat":"31.1763436","category":"148","category_name":"美容美发店","address":"上海昌里东路115号(近云莲路)"},{"poiid":"B2094752D66EA2F5429A","title":"上海海事大学东明路校区","lon":"121.509047","lat":"31.176164","category":"52","category_name":"高等院校","address":"上海市 浦东新区东明路1336号"},{"poiid":"B2094757D66FA0FD4498","title":"缘台茶道","lon":"121.50283","lat":"31.17887","category":"260","category_name":"其他","address":"浦东新区齐河路(云台路口)"},{"poiid":"B2094654DA6AA2F8459D","title":"上南花苑东苑","lon":"121.50611","lat":"31.18307","category":"47","category_name":"住宅区","address":"云莲路101弄"},{"poiid":"B2094757D16EA0FB459A","title":"Lynn's  Chamber","lon":"121.50351773","lat":"31.177059167","category":"500","category_name":"未知分类","address":"上海nowhere shanghai"},{"poiid":"B2094654DB64A3F8409F","title":"昌莲集贸市场(昌里东路)","lon":"121.5068","lat":"31.17607","category":"117","category_name":"便民商店/便利店","address":"浦东新区昌里路(云莲路口)"},{"poiid":"B2094757D16DA4FD489F","title":"浦东新世界实验小学","lon":"121.50419673","lat":"31.175625137","category":"500","category_name":"未知分类","address":"上海市浦东新区云台路230号"},{"poiid":"B2094654DA6AA2FF449D","title":"星宫台球馆","lon":"121.5062","lat":"31.17631","category":"171","category_name":"台球厅","address":""},{"poiid":"B2094655D268ABFC4892","title":"上南花园西苑(东一门)","lon":"121.50505","lat":"31.18278","category":"47","category_name":"住宅区","address":"浦东南路3885弄"},{"poiid":"B2094750DA6AA6FE4599","title":"周家渡","lon":"121.502792","lat":"31.177598","category":"500","category_name":"未知分类","address":null},{"poiid":"B2094655D26EA6FE4499","title":"昌盛新苑(东门)","lon":"121.50958","lat":"31.17749","category":"47","category_name":"住宅区","address":"东明路660弄1-20号"},{"poiid":"B2094655D26EA2FC419A","title":"上海九万里高尔夫俱乐部","lon":"121.50875","lat":"31.17767","category":"206","category_name":"高尔夫相关","address":"浦东新区东明路660弄4号"},{"poiid":"B2094757D169AAFE409A","title":"院长家","lon":"121.50346773","lat":"31.18141126","category":"500","category_name":"未知分类","address":null},{"poiid":"B2094654DA68A0F94498","title":"上海市上南五村小学","lon":"121.50108","lat":"31.17933","category":"56","category_name":"小学","address":"浦东新区齐河路27弄1号"},{"poiid":"B2094654DA6AA2F8459A","title":"上钢新村幼儿园海贝园","lon":"121.50534","lat":"31.17483","category":"57","category_name":"幼儿园","address":"昌里东路80弄62号"},{"poiid":"B2094757D068A6FD409D","title":"喜来公社(昌里店)","lon":"121.50699","lat":"31.17596","category":"500","category_name":"未知分类","address":"上海浦东新区昌里东路119号  "},{"poiid":"B2094752D668A0FF4598","title":"浦东游泳馆","lon":"121.501639","lat":"31.180254","category":"220","category_name":"运动场所","address":null},{"poiid":"B2094757D16AA6FE4098","title":"记忆橡皮擦","lon":"121.50840673","lat":"31.17672566","category":"500","category_name":"未知分类","address":"上海想抹去的，被抹去的记忆"},{"poiid":"B2094750DB6BA1F54292","title":"上海浦东新区昌里路","lon":"121.501434","lat":"31.179088","category":"500","category_name":"未知分类","address":null},{"poiid":"B2094655D26DA1FB4498","title":"东瑞公寓(西门)","lon":"121.50537","lat":"31.18336","category":"47","category_name":"住宅区","address":"云莲路95弄1-4号"},{"poiid":"B2094757D16CA4F8479E","title":"隧道二线东明路昌里东路站","lon":"121.508337738","lat":"31.1764341545","category":"500","category_name":"未知分类","address":"上海东明路昌里东路"},{"poiid":"B2094654DB6BABF8459B","title":"上南六村(东门)","lon":"121.50282","lat":"31.17821","category":"656","category_name":"大门","address":"齐河路28弄"},{"poiid":"B2094655D26EA3F9429D","title":"东瑞公寓","lon":"121.50574","lat":"31.183533","category":"47","category_name":"住宅区","address":"云莲路95弄1-4号"},{"poiid":"B2094655D26DA1F54899","title":"昌里花园(南门)","lon":"121.50563","lat":"31.17621","category":"656","category_name":"大门","address":"昌里东路71弄"},{"poiid":"B2094757D16EA5F4429C","title":"陈小霸霸霸家","lon":"121.508708038","lat":"31.1768994644","category":"500","category_name":"未知分类","address":null},{"poiid":"B2094753D669A5FC4599","title":"上海市商务委员会","lon":"121.502052","lat":"31.182008","category":"500","category_name":"未知分类","address":"上海市 上海市浦东新区世博村路300号7号楼"},{"poiid":"B2094655D268ABFC4999","title":"浦东公安分局居民身份证拍照点","lon":"121.50778","lat":"31.17658","category":"248","category_name":"生活娱乐","address":""},{"poiid":"B2094757D66EA5FD4292","title":"熠轩美容美","lon":"121.504797738","lat":"31.1755907366","category":"500","category_name":"未知分类","address":"上海浦东新区昌里东路38"},{"poiid":"B2094757D06BAAF8469F","title":"金星棋牌室","lon":"121.503880738","lat":"31.1831062965","category":"248","category_name":"生活娱乐","address":"上海市浦东新区云莲路"},{"poiid":"B2094654DA68A6FA4798","title":"上海银行周家渡支行","lon":"121.50183","lat":"31.18157","category":"150","category_name":"银行","address":"云台路161号"},{"poiid":"B2094654DA68A0FF439E","title":"上海银行昌里路支行","lon":"121.50306","lat":"31.17582","category":"150","category_name":"银行","address":"浦东新区昌里路89号"},{"poiid":"B2094757D66DA2FF4199","title":"大高加索山脉","lon":"121.50576373","lat":"31.183130297","category":"500","category_name":"未知分类","address":"冰窟窿"},{"poiid":"B2094655D26DABFD479D","title":"上南花苑西苑(南门)","lon":"121.50383","lat":"31.18216","category":"656","category_name":"大门","address":"浦东南路3885弄边门"},{"poiid":"B2094654DB64A3F84192","title":"上南花苑(北门)","lon":"121.5037","lat":"31.18188","category":"656","category_name":"大门","address":"齐河路259弄13幢38-39号"},{"poiid":"B2094757D169ABF9419A","title":"yo家","lon":"121.50329023","lat":"31.182881791","category":"500","category_name":"未知分类","address":"上海不就是yo的家咯"},{"poiid":"B2094655D26DA7FA499A","title":"云台二小区(北门)","lon":"121.50835","lat":"31.17634","category":"656","category_name":"大门","address":"昌里东路190弄1-36号"},{"poiid":"B2094655D26DA7FB439F","title":"东明家园(东门)","lon":"121.50969","lat":"31.1795","category":"656","category_name":"大门","address":"东明路560弄1-7号"},{"poiid":"B2094654DA6AA2F84599","title":"云台一小区(北门)","lon":"121.50579","lat":"31.17593","category":"656","category_name":"大门","address":"昌里东路80弄"},{"poiid":"B2094655D26FABF9499F","title":"上南六村(北一门)","lon":"121.50177","lat":"31.17867","category":"656","category_name":"大门","address":""},{"poiid":"B2094655D268A4FE459A","title":"上南五村(南二门)","lon":"121.50151","lat":"31.17886","category":"656","category_name":"大门","address":""},{"poiid":"B2094655D268ABFC4893","title":"东明家园(东一门)","lon":"121.50966","lat":"31.18035","category":"656","category_name":"大门","address":""},{"poiid":"B2094655D26DA7FB419C","title":"上南花苑西苑(东门)","lon":"121.50503","lat":"31.18315","category":"656","category_name":"大门","address":"浦东南路3885弄"},{"poiid":"B2094654DA68A0FF4198","title":"上南五村(东门)","lon":"121.50145","lat":"31.18087","category":"656","category_name":"大门","address":""}]