[{"poiid":"B2094654D568A1FD439C","title":"上海文峰广场","lon":"121.5874","lat":"31.27117","category":"119","category_name":"商场","address":"浦东新区张杨北路801号(近五莲路)"},{"poiid":"B2094757DA6EA4FB409E","title":"佰迦乐大光明影城","lon":"121.58738851547","lat":"31.2733974958802","category":"248","category_name":"生活娱乐","address":"浦东新区张杨北路801号文峰广场2楼(近地铁六号线五莲路站)"},{"poiid":"B2094757DB6CA0F44998","title":"避风塘","lon":"121.5870242699979","lat":"31.27240860002155","category":"72","category_name":"广东菜","address":"浦东新区张杨北路801号文峰广场2楼(近五莲路)"},{"poiid":"B2094654D568A1FD449C","title":"必胜客(文峰店)","lon":"121.58741","lat":"31.27096","category":"94","category_name":"西餐厅","address":"浦东新区张杨北路809号文峰广场1-2楼(近五莲路)"},{"poiid":"B2094757D06FA3F4409D","title":"五莲路地铁站","lon":"121.58799032571824","lat":"31.271918929860977","category":"36","category_name":"地铁站","address":"上海轨道交通 六号线 轨交五莲路站 6"},{"poiid":"B2094750D664A5F5489B","title":"大家乐(文峰广场店)","lon":"121.588","lat":"31.2709","category":"68","category_name":"快餐厅","address":"浦东新区张杨北路801号文峰广场1楼(近五莲路)"},{"poiid":"B2094757D069A1F94293","title":"莱阳路五莲路","lon":"121.58144153","lat":"31.274447559","category":"627","category_name":"一般地点标志","address":"上海五莲路莱阳路北小区"},{"poiid":"B2094757D06FA4F4439D","title":"盘古烤肉(文峰广场店)","lon":"121.58767","lat":"31.2709","category":"96","category_name":"韩国料理","address":"浦东新区张杨北路801号文峰广场1楼(近五莲路)"},{"poiid":"B2094750D66FA5F54092","title":"鲜芋仙文峰广场店","lon":"121.587638","lat":"31.272275","category":"67","category_name":"甜品店","address":"浦东新区张杨北路801号文峰广场1楼(近五莲路)"},{"poiid":"B2094757D068AAFF449D","title":"巴蜀传香","lon":"121.587501","lat":"31.271186","category":"71","category_name":"四川菜","address":"浦东新区张杨北路801号文峰广场3楼"},{"poiid":"B2094757D068A0F5499D","title":"沪东新村","lon":"121.59076173881","lat":"31.276090782708","category":"47","category_name":"住宅区","address":"上海市浦东新区五莲路"},{"poiid":"B2094655D269AAFA439C","title":"味千拉面 文峰广场店","lon":"121.587287054","lat":"31.270835793","category":"95","category_name":"日本料理","address":"浦东新区张杨北路801号文峰广场2楼(近五莲路)"},{"poiid":"B2094757D068A0F9409A","title":"巴贝拉(文峰广场店)","lon":"121.58799743","lat":"31.270900726","category":"94","category_name":"西餐厅","address":"浦东新区张杨北路801号文峰广场1楼(近五莲路)"},{"poiid":"B2094757D06FA1F5449C","title":"爱法新城","lon":"121.586","lat":"31.277746","category":"47","category_name":"住宅区","address":"上海浦东新区利津路385弄"},{"poiid":"B2094655D26FA0FA469F","title":"中大丽都","lon":"121.58921","lat":"31.272518","category":"47","category_name":"住宅区","address":"浦东荷泽路58弄"},{"poiid":"B2094757D069A0F8419F","title":"丽都成品","lon":"121.58979","lat":"31.275686","category":"47","category_name":"住宅区","address":"上海浦东新区利津路729弄"},{"poiid":"B2094655D26AA0FA4393","title":"地铁巨峰路站","lon":"121.58832","lat":"31.27956","category":"36","category_name":"地铁站","address":""},{"poiid":"B2094757D068A7F5489C","title":"DQ冰雪皇后(五莲店)","lon":"121.58721256","lat":"31.270400894","category":"113","category_name":"冷饮店","address":"浦东新区张杨北路801号文峰广场1楼(近五莲路)"},{"poiid":"B2094757D16CA7FC409E","title":"肯德基(文峄店)","lon":"121.5879199","lat":"31.272435246","category":"68","category_name":"快餐厅","address":"浦东新区张杨北路801号文峰广场1楼北(近五莲路)"},{"poiid":"B2094654D568A1FD449A","title":"苏宴大酒店","lon":"121.587306054","lat":"31.270897793","category":"76","category_name":"上海菜","address":"浦东新区张杨北路801号文峰广场3楼南侧(近五莲路)"},{"poiid":"B2094757D06FA5F94392","title":"CoCo都可茶饮(文峰广场店)","lon":"121.58740874","lat":"31.271173678","category":"113","category_name":"冷饮店","address":"浦东新区张杨北路801号文峰广场1楼(近五莲路)"},{"poiid":"B2094757D06FA6F44092","title":"江南山水","lon":"121.585902","lat":"31.2737423","category":"500","category_name":"未知分类","address":"江南山水位于浦东寿光路78弄"},{"poiid":"B2094757D06AA2FE489A","title":"颐品居(五莲店)","lon":"121.58343","lat":"31.27162","category":"86","category_name":"火锅店","address":"浦东新区五莲路423号(寿光路五莲路)"},{"poiid":"B2094757D06BA7FF4492","title":"沪东地段医院","lon":"121.5834","lat":"31.27535","category":"162","category_name":"医院","address":"浦东新区东波路195弄46号"},{"poiid":"B2094655D26AA5F94099","title":"新黄鸡","lon":"121.587287054","lat":"31.270835793","category":"76","category_name":"上海菜","address":"浦东新区张杨北路801号文峰广场1楼(近五莲路)"},{"poiid":"B2094757D068A1F4499C","title":"莱阳路利津路","lon":"121.583519","lat":"31.278671","category":"500","category_name":"未知分类","address":"上海莱阳路利津路"},{"poiid":"B2094655D26BA7FF429C","title":"爱茜茜里 文峰店 ICEASON","lon":"121.587287054","lat":"31.270835793","category":"67","category_name":"甜品店","address":"浦东新区张杨北路801号文峰广场1楼F1-114号(近五莲路)"},{"poiid":"B2094654D568A1FD4098","title":"璞真园","lon":"121.58741","lat":"31.275459","category":"47","category_name":"住宅区","address":"上海市浦东新区利津路555弄"},{"poiid":"B2094757D168AAFF429D","title":"老王家烧烤","lon":"121.58641033","lat":"31.274344356","category":"68","category_name":"快餐厅","address":"浦东新区利津路461号(利津路寿光路)"},{"poiid":"B2094655D26BA3F5489A","title":"五莲路莱阳路","lon":"121.58162","lat":"31.27387","category":"38","category_name":"公交车站","address":"莱阳小区"},{"poiid":"B2094757D065A1F44298","title":"浦东大道五莲路","lon":"121.580873339","lat":"31.2747013651","category":"500","category_name":"未知分类","address":"上海市浦东新区浦东大道"},{"poiid":"B2094757D76AA6FF429D","title":"顺缘牛味餐馆","lon":"121.585813","lat":"31.275338","category":"68","category_name":"快餐厅","address":"浦东新区利津路455号(近寿光路)"},{"poiid":"B2094750D26CA7FC479E","title":"文峰广场","lon":"121.583047","lat":"31.273177","category":"247","category_name":"餐饮美食","address":"五莲路张杨北路"},{"poiid":"B2094757D068A7F84293","title":"五莲路兰城路","lon":"121.58526","lat":"31.269981","category":"500","category_name":"未知分类","address":"上海浦东新区五莲路兰城路口"},{"poiid":"B2094655D265A2F84092","title":"江南山水小区","lon":"121.586255","lat":"31.272205","category":"47","category_name":"住宅区","address":"寿光路78弄1-54号"},{"poiid":"B2094750D56DA5F4489C","title":"仙芋鲜","lon":"121.588676","lat":"31.271657","category":"247","category_name":"餐饮美食","address":"文峰广场"},{"poiid":"B2094757D66CAAF5479D","title":"火之舞","lon":"121.588741439","lat":"31.2712114849","category":"95","category_name":"日本料理","address":"浦东新区张杨北路801号文峰广场5楼(近五莲路)"},{"poiid":"B2094654D568A1FC4999","title":"克丽缇娜NO.9013","lon":"121.58654","lat":"31.27456","category":"148","category_name":"美容美发店","address":"利津路497"},{"poiid":"B2094655D36CA1FB4792","title":"利津路张杨北路","lon":"121.58685","lat":"31.27428","category":"38","category_name":"公交车站","address":""},{"poiid":"B2094654D568A2F54493","title":"上海开元骨科医院","lon":"121.59049","lat":"31.27219","category":"162","category_name":"医院","address":"浦东新区菏泽路88号(近五莲路)"},{"poiid":"B2094655D269AAFA439F","title":"面包新语 文峰广场店 BreadTalk","lon":"121.587287054","lat":"31.270835793","category":"112","category_name":"糕饼店","address":"浦东新区张杨北路801号文峰广场1楼北区(近五莲路)"},{"poiid":"B2094757D06BA6F5409F","title":"爱茜茜里","lon":"121.58791833","lat":"31.271589293","category":"247","category_name":"餐饮美食","address":"上海市浦东新区文峰广场"},{"poiid":"B2094753D66FA7F5499C","title":"新石器烤肉(文峰店)","lon":"121.587267","lat":"31.271168","category":"96","category_name":"韩国料理","address":"张杨北路801号文峰广场"},{"poiid":"B2094757D16BA1F5489D","title":"淮扬菜馆","lon":"121.58438","lat":"31.27676","category":"74","category_name":"江苏菜","address":"浦东新区利津路357号(莱阳路利津路)"},{"poiid":"B2094655D36CA1FE409F","title":"寿光路利津路","lon":"121.58524","lat":"31.27331","category":"38","category_name":"公交车站","address":""},{"poiid":"B2094654DB6BA2F5449A","title":"江南山水菜市场(利津路)","lon":"121.58625","lat":"31.27431","category":"117","category_name":"便民商店/便利店","address":""},{"poiid":"B209475DD46EA3FF479D","title":"星巴克文峰广场店","lon":"121.587799","lat":"31.271595","category":"247","category_name":"餐饮美食","address":"上海市 文峰广场一楼"},{"poiid":"B2094757D06BA6F8459A","title":"缘喜寿司关东煮(文峰广场店)","lon":"121.58792","lat":"31.27103","category":"247","category_name":"餐饮美食","address":"上海浦东新区张杨北路801号文峰广场1楼(近五莲路)  "},{"poiid":"B2094757D065AAFD429A","title":"寿光小区","lon":"121.582989239","lat":"31.2739759484","category":"47","category_name":"住宅区","address":"寿光路31弄1-34号,75弄1-36号"},{"poiid":"B2094753D26AA1FE479A","title":"上海国金中心IFC","lon":"121.58968","lat":"31.276527","category":"500","category_name":"未知分类","address":"上海市 上海市，浦东新区，陆家嘴环路"},{"poiid":"B2094654D568A1FD439C","title":"上海文峰广场","lon":"121.5874","lat":"31.27117","category":"119","category_name":"商场","address":"浦东新区张杨北路801号(近五莲路)"},{"poiid":"B2094757DA6EA4FB409E","title":"佰迦乐大光明影城","lon":"121.58738851547","lat":"31.2733974958802","category":"248","category_name":"生活娱乐","address":"浦东新区张杨北路801号文峰广场2楼(近地铁六号线五莲路站)"},{"poiid":"B2094757DB6CA0F44998","title":"避风塘","lon":"121.5870242699979","lat":"31.27240860002155","category":"72","category_name":"广东菜","address":"浦东新区张杨北路801号文峰广场2楼(近五莲路)"},{"poiid":"B2094654D568A1FD449C","title":"必胜客(文峰店)","lon":"121.58741","lat":"31.27096","category":"94","category_name":"西餐厅","address":"浦东新区张杨北路809号文峰广场1-2楼(近五莲路)"},{"poiid":"B2094757D06FA3F4409D","title":"五莲路地铁站","lon":"121.58799032571824","lat":"31.271918929860977","category":"36","category_name":"地铁站","address":"上海轨道交通 六号线 轨交五莲路站 6"},{"poiid":"B2094750D664A5F5489B","title":"大家乐(文峰广场店)","lon":"121.588","lat":"31.2709","category":"68","category_name":"快餐厅","address":"浦东新区张杨北路801号文峰广场1楼(近五莲路)"},{"poiid":"B2094757D069A1F94293","title":"莱阳路五莲路","lon":"121.58144153","lat":"31.274447559","category":"627","category_name":"一般地点标志","address":"上海五莲路莱阳路北小区"},{"poiid":"B2094757D06FA4F4439D","title":"盘古烤肉(文峰广场店)","lon":"121.58767","lat":"31.2709","category":"96","category_name":"韩国料理","address":"浦东新区张杨北路801号文峰广场1楼(近五莲路)"},{"poiid":"B2094750D66FA5F54092","title":"鲜芋仙文峰广场店","lon":"121.587638","lat":"31.272275","category":"67","category_name":"甜品店","address":"浦东新区张杨北路801号文峰广场1楼(近五莲路)"},{"poiid":"B2094757D068AAFF449D","title":"巴蜀传香","lon":"121.587501","lat":"31.271186","category":"71","category_name":"四川菜","address":"浦东新区张杨北路801号文峰广场3楼"},{"poiid":"B2094757D068A0F5499D","title":"沪东新村","lon":"121.59076173881","lat":"31.276090782708","category":"47","category_name":"住宅区","address":"上海市浦东新区五莲路"},{"poiid":"B2094655D269AAFA439C","title":"味千拉面 文峰广场店","lon":"121.587287054","lat":"31.270835793","category":"95","category_name":"日本料理","address":"浦东新区张杨北路801号文峰广场2楼(近五莲路)"},{"poiid":"B2094757D068A0F9409A","title":"巴贝拉(文峰广场店)","lon":"121.58799743","lat":"31.270900726","category":"94","category_name":"西餐厅","address":"浦东新区张杨北路801号文峰广场1楼(近五莲路)"},{"poiid":"B2094757D06FA1F5449C","title":"爱法新城","lon":"121.586","lat":"31.277746","category":"47","category_name":"住宅区","address":"上海浦东新区利津路385弄"},{"poiid":"B2094655D26FA0FA469F","title":"中大丽都","lon":"121.58921","lat":"31.272518","category":"47","category_name":"住宅区","address":"浦东荷泽路58弄"},{"poiid":"B2094757D069A0F8419F","title":"丽都成品","lon":"121.58979","lat":"31.275686","category":"47","category_name":"住宅区","address":"上海浦东新区利津路729弄"},{"poiid":"B2094655D26AA0FA4393","title":"地铁巨峰路站","lon":"121.58832","lat":"31.27956","category":"36","category_name":"地铁站","address":""},{"poiid":"B2094757D068A7F5489C","title":"DQ冰雪皇后(五莲店)","lon":"121.58721256","lat":"31.270400894","category":"113","category_name":"冷饮店","address":"浦东新区张杨北路801号文峰广场1楼(近五莲路)"},{"poiid":"B2094757D16CA7FC409E","title":"肯德基(文峄店)","lon":"121.5879199","lat":"31.272435246","category":"68","category_name":"快餐厅","address":"浦东新区张杨北路801号文峰广场1楼北(近五莲路)"},{"poiid":"B2094654D568A1FD449A","title":"苏宴大酒店","lon":"121.587306054","lat":"31.270897793","category":"76","category_name":"上海菜","address":"浦东新区张杨北路801号文峰广场3楼南侧(近五莲路)"},{"poiid":"B2094757D06FA5F94392","title":"CoCo都可茶饮(文峰广场店)","lon":"121.58740874","lat":"31.271173678","category":"113","category_name":"冷饮店","address":"浦东新区张杨北路801号文峰广场1楼(近五莲路)"},{"poiid":"B2094757D06FA6F44092","title":"江南山水","lon":"121.585902","lat":"31.2737423","category":"500","category_name":"未知分类","address":"江南山水位于浦东寿光路78弄"},{"poiid":"B2094757D06AA2FE489A","title":"颐品居(五莲店)","lon":"121.58343","lat":"31.27162","category":"86","category_name":"火锅店","address":"浦东新区五莲路423号(寿光路五莲路)"},{"poiid":"B2094757D06BA7FF4492","title":"沪东地段医院","lon":"121.5834","lat":"31.27535","category":"162","category_name":"医院","address":"浦东新区东波路195弄46号"},{"poiid":"B2094655D26AA5F94099","title":"新黄鸡","lon":"121.587287054","lat":"31.270835793","category":"76","category_name":"上海菜","address":"浦东新区张杨北路801号文峰广场1楼(近五莲路)"},{"poiid":"B2094757D068A1F4499C","title":"莱阳路利津路","lon":"121.583519","lat":"31.278671","category":"500","category_name":"未知分类","address":"上海莱阳路利津路"},{"poiid":"B2094655D26BA7FF429C","title":"爱茜茜里 文峰店 ICEASON","lon":"121.587287054","lat":"31.270835793","category":"67","category_name":"甜品店","address":"浦东新区张杨北路801号文峰广场1楼F1-114号(近五莲路)"},{"poiid":"B2094654D568A1FD4098","title":"璞真园","lon":"121.58741","lat":"31.275459","category":"47","category_name":"住宅区","address":"上海市浦东新区利津路555弄"},{"poiid":"B2094757D168AAFF429D","title":"老王家烧烤","lon":"121.58641033","lat":"31.274344356","category":"68","category_name":"快餐厅","address":"浦东新区利津路461号(利津路寿光路)"},{"poiid":"B2094655D26BA3F5489A","title":"五莲路莱阳路","lon":"121.58162","lat":"31.27387","category":"38","category_name":"公交车站","address":"莱阳小区"},{"poiid":"B2094757D065A1F44298","title":"浦东大道五莲路","lon":"121.580873339","lat":"31.2747013651","category":"500","category_name":"未知分类","address":"上海市浦东新区浦东大道"},{"poiid":"B2094757D76AA6FF429D","title":"顺缘牛味餐馆","lon":"121.585813","lat":"31.275338","category":"68","category_name":"快餐厅","address":"浦东新区利津路455号(近寿光路)"},{"poiid":"B2094750D26CA7FC479E","title":"文峰广场","lon":"121.583047","lat":"31.273177","category":"247","category_name":"餐饮美食","address":"五莲路张杨北路"},{"poiid":"B2094757D068A7F84293","title":"五莲路兰城路","lon":"121.58526","lat":"31.269981","category":"500","category_name":"未知分类","address":"上海浦东新区五莲路兰城路口"},{"poiid":"B2094655D265A2F84092","title":"江南山水小区","lon":"121.586255","lat":"31.272205","category":"47","category_name":"住宅区","address":"寿光路78弄1-54号"},{"poiid":"B2094750D56DA5F4489C","title":"仙芋鲜","lon":"121.588676","lat":"31.271657","category":"247","category_name":"餐饮美食","address":"文峰广场"},{"poiid":"B2094757D66CAAF5479D","title":"火之舞","lon":"121.588741439","lat":"31.2712114849","category":"95","category_name":"日本料理","address":"浦东新区张杨北路801号文峰广场5楼(近五莲路)"},{"poiid":"B2094654D568A1FC4999","title":"克丽缇娜NO.9013","lon":"121.58654","lat":"31.27456","category":"148","category_name":"美容美发店","address":"利津路497"},{"poiid":"B2094655D36CA1FB4792","title":"利津路张杨北路","lon":"121.58685","lat":"31.27428","category":"38","category_name":"公交车站","address":""},{"poiid":"B2094654D568A2F54493","title":"上海开元骨科医院","lon":"121.59049","lat":"31.27219","category":"162","category_name":"医院","address":"浦东新区菏泽路88号(近五莲路)"},{"poiid":"B2094655D269AAFA439F","title":"面包新语 文峰广场店 BreadTalk","lon":"121.587287054","lat":"31.270835793","category":"112","category_name":"糕饼店","address":"浦东新区张杨北路801号文峰广场1楼北区(近五莲路)"},{"poiid":"B2094757D06BA6F5409F","title":"爱茜茜里","lon":"121.58791833","lat":"31.271589293","category":"247","category_name":"餐饮美食","address":"上海市浦东新区文峰广场"},{"poiid":"B2094753D66FA7F5499C","title":"新石器烤肉(文峰店)","lon":"121.587267","lat":"31.271168","category":"96","category_name":"韩国料理","address":"张杨北路801号文峰广场"},{"poiid":"B2094757D16BA1F5489D","title":"淮扬菜馆","lon":"121.58438","lat":"31.27676","category":"74","category_name":"江苏菜","address":"浦东新区利津路357号(莱阳路利津路)"},{"poiid":"B2094655D36CA1FE409F","title":"寿光路利津路","lon":"121.58524","lat":"31.27331","category":"38","category_name":"公交车站","address":""},{"poiid":"B2094654DB6BA2F5449A","title":"江南山水菜市场(利津路)","lon":"121.58625","lat":"31.27431","category":"117","category_name":"便民商店/便利店","address":""},{"poiid":"B209475DD46EA3FF479D","title":"星巴克文峰广场店","lon":"121.587799","lat":"31.271595","category":"247","category_name":"餐饮美食","address":"上海市 文峰广场一楼"},{"poiid":"B2094757D06BA6F8459A","title":"缘喜寿司关东煮(文峰广场店)","lon":"121.58792","lat":"31.27103","category":"247","category_name":"餐饮美食","address":"上海浦东新区张杨北路801号文峰广场1楼(近五莲路)  "},{"poiid":"B2094757D065AAFD429A","title":"寿光小区","lon":"121.582989239","lat":"31.2739759484","category":"47","category_name":"住宅区","address":"寿光路31弄1-34号,75弄1-36号"},{"poiid":"B2094753D26AA1FE479A","title":"上海国金中心IFC","lon":"121.58968","lat":"31.276527","category":"500","category_name":"未知分类","address":"上海市 上海市，浦东新区，陆家嘴环路"},{"poiid":"B2094654D568A1FD439C","title":"上海文峰广场","lon":"121.5874","lat":"31.27117","category":"119","category_name":"商场","address":"浦东新区张杨北路801号(近五莲路)"},{"poiid":"B2094757DA6EA4FB409E","title":"佰迦乐大光明影城","lon":"121.58738851547","lat":"31.2733974958802","category":"248","category_name":"生活娱乐","address":"浦东新区张杨北路801号文峰广场2楼(近地铁六号线五莲路站)"},{"poiid":"B2094757DB6CA0F44998","title":"避风塘","lon":"121.5870242699979","lat":"31.27240860002155","category":"72","category_name":"广东菜","address":"浦东新区张杨北路801号文峰广场2楼(近五莲路)"},{"poiid":"B2094654D568A1FD449C","title":"必胜客(文峰店)","lon":"121.58741","lat":"31.27096","category":"94","category_name":"西餐厅","address":"浦东新区张杨北路809号文峰广场1-2楼(近五莲路)"},{"poiid":"B2094757D06FA3F4409D","title":"五莲路地铁站","lon":"121.58799032571824","lat":"31.271918929860977","category":"36","category_name":"地铁站","address":"上海轨道交通 六号线 轨交五莲路站 6"},{"poiid":"B2094750D664A5F5489B","title":"大家乐(文峰广场店)","lon":"121.588","lat":"31.2709","category":"68","category_name":"快餐厅","address":"浦东新区张杨北路801号文峰广场1楼(近五莲路)"},{"poiid":"B2094757D069A1F94293","title":"莱阳路五莲路","lon":"121.58144153","lat":"31.274447559","category":"627","category_name":"一般地点标志","address":"上海五莲路莱阳路北小区"},{"poiid":"B2094757D06FA4F4439D","title":"盘古烤肉(文峰广场店)","lon":"121.58767","lat":"31.2709","category":"96","category_name":"韩国料理","address":"浦东新区张杨北路801号文峰广场1楼(近五莲路)"},{"poiid":"B2094750D66FA5F54092","title":"鲜芋仙文峰广场店","lon":"121.587638","lat":"31.272275","category":"67","category_name":"甜品店","address":"浦东新区张杨北路801号文峰广场1楼(近五莲路)"},{"poiid":"B2094757D068AAFF449D","title":"巴蜀传香","lon":"121.587501","lat":"31.271186","category":"71","category_name":"四川菜","address":"浦东新区张杨北路801号文峰广场3楼"},{"poiid":"B2094757D068A0F5499D","title":"沪东新村","lon":"121.59076173881","lat":"31.276090782708","category":"47","category_name":"住宅区","address":"上海市浦东新区五莲路"},{"poiid":"B2094655D269AAFA439C","title":"味千拉面 文峰广场店","lon":"121.587287054","lat":"31.270835793","category":"95","category_name":"日本料理","address":"浦东新区张杨北路801号文峰广场2楼(近五莲路)"},{"poiid":"B2094757D068A0F9409A","title":"巴贝拉(文峰广场店)","lon":"121.58799743","lat":"31.270900726","category":"94","category_name":"西餐厅","address":"浦东新区张杨北路801号文峰广场1楼(近五莲路)"},{"poiid":"B2094757D06FA1F5449C","title":"爱法新城","lon":"121.586","lat":"31.277746","category":"47","category_name":"住宅区","address":"上海浦东新区利津路385弄"},{"poiid":"B2094655D26FA0FA469F","title":"中大丽都","lon":"121.58921","lat":"31.272518","category":"47","category_name":"住宅区","address":"浦东荷泽路58弄"},{"poiid":"B2094757D069A0F8419F","title":"丽都成品","lon":"121.58979","lat":"31.275686","category":"47","category_name":"住宅区","address":"上海浦东新区利津路729弄"},{"poiid":"B2094655D26AA0FA4393","title":"地铁巨峰路站","lon":"121.58832","lat":"31.27956","category":"36","category_name":"地铁站","address":""},{"poiid":"B2094757D068A7F5489C","title":"DQ冰雪皇后(五莲店)","lon":"121.58721256","lat":"31.270400894","category":"113","category_name":"冷饮店","address":"浦东新区张杨北路801号文峰广场1楼(近五莲路)"},{"poiid":"B2094757D16CA7FC409E","title":"肯德基(文峄店)","lon":"121.5879199","lat":"31.272435246","category":"68","category_name":"快餐厅","address":"浦东新区张杨北路801号文峰广场1楼北(近五莲路)"},{"poiid":"B2094654D568A1FD449A","title":"苏宴大酒店","lon":"121.587306054","lat":"31.270897793","category":"76","category_name":"上海菜","address":"浦东新区张杨北路801号文峰广场3楼南侧(近五莲路)"},{"poiid":"B2094757D06FA5F94392","title":"CoCo都可茶饮(文峰广场店)","lon":"121.58740874","lat":"31.271173678","category":"113","category_name":"冷饮店","address":"浦东新区张杨北路801号文峰广场1楼(近五莲路)"},{"poiid":"B2094757D06FA6F44092","title":"江南山水","lon":"121.585902","lat":"31.2737423","category":"500","category_name":"未知分类","address":"江南山水位于浦东寿光路78弄"},{"poiid":"B2094757D06AA2FE489A","title":"颐品居(五莲店)","lon":"121.58343","lat":"31.27162","category":"86","category_name":"火锅店","address":"浦东新区五莲路423号(寿光路五莲路)"},{"poiid":"B2094757D06BA7FF4492","title":"沪东地段医院","lon":"121.5834","lat":"31.27535","category":"162","category_name":"医院","address":"浦东新区东波路195弄46号"},{"poiid":"B2094655D26AA5F94099","title":"新黄鸡","lon":"121.587287054","lat":"31.270835793","category":"76","category_name":"上海菜","address":"浦东新区张杨北路801号文峰广场1楼(近五莲路)"},{"poiid":"B2094757D068A1F4499C","title":"莱阳路利津路","lon":"121.583519","lat":"31.278671","category":"500","category_name":"未知分类","address":"上海莱阳路利津路"},{"poiid":"B2094655D26BA7FF429C","title":"爱茜茜里 文峰店 ICEASON","lon":"121.587287054","lat":"31.270835793","category":"67","category_name":"甜品店","address":"浦东新区张杨北路801号文峰广场1楼F1-114号(近五莲路)"},{"poiid":"B2094654D568A1FD4098","title":"璞真园","lon":"121.58741","lat":"31.275459","category":"47","category_name":"住宅区","address":"上海市浦东新区利津路555弄"},{"poiid":"B2094757D168AAFF429D","title":"老王家烧烤","lon":"121.58641033","lat":"31.274344356","category":"68","category_name":"快餐厅","address":"浦东新区利津路461号(利津路寿光路)"},{"poiid":"B2094655D26BA3F5489A","title":"五莲路莱阳路","lon":"121.58162","lat":"31.27387","category":"38","category_name":"公交车站","address":"莱阳小区"},{"poiid":"B2094757D065A1F44298","title":"浦东大道五莲路","lon":"121.580873339","lat":"31.2747013651","category":"500","category_name":"未知分类","address":"上海市浦东新区浦东大道"},{"poiid":"B2094757D76AA6FF429D","title":"顺缘牛味餐馆","lon":"121.585813","lat":"31.275338","category":"68","category_name":"快餐厅","address":"浦东新区利津路455号(近寿光路)"},{"poiid":"B2094750D26CA7FC479E","title":"文峰广场","lon":"121.583047","lat":"31.273177","category":"247","category_name":"餐饮美食","address":"五莲路张杨北路"},{"poiid":"B2094757D068A7F84293","title":"五莲路兰城路","lon":"121.58526","lat":"31.269981","category":"500","category_name":"未知分类","address":"上海浦东新区五莲路兰城路口"},{"poiid":"B2094655D265A2F84092","title":"江南山水小区","lon":"121.586255","lat":"31.272205","category":"47","category_name":"住宅区","address":"寿光路78弄1-54号"},{"poiid":"B2094750D56DA5F4489C","title":"仙芋鲜","lon":"121.588676","lat":"31.271657","category":"247","category_name":"餐饮美食","address":"文峰广场"},{"poiid":"B2094757D66CAAF5479D","title":"火之舞","lon":"121.588741439","lat":"31.2712114849","category":"95","category_name":"日本料理","address":"浦东新区张杨北路801号文峰广场5楼(近五莲路)"},{"poiid":"B2094654D568A1FC4999","title":"克丽缇娜NO.9013","lon":"121.58654","lat":"31.27456","category":"148","category_name":"美容美发店","address":"利津路497"},{"poiid":"B2094655D36CA1FB4792","title":"利津路张杨北路","lon":"121.58685","lat":"31.27428","category":"38","category_name":"公交车站","address":""},{"poiid":"B2094654D568A2F54493","title":"上海开元骨科医院","lon":"121.59049","lat":"31.27219","category":"162","category_name":"医院","address":"浦东新区菏泽路88号(近五莲路)"},{"poiid":"B2094655D269AAFA439F","title":"面包新语 文峰广场店 BreadTalk","lon":"121.587287054","lat":"31.270835793","category":"112","category_name":"糕饼店","address":"浦东新区张杨北路801号文峰广场1楼北区(近五莲路)"},{"poiid":"B2094757D06BA6F5409F","title":"爱茜茜里","lon":"121.58791833","lat":"31.271589293","category":"247","category_name":"餐饮美食","address":"上海市浦东新区文峰广场"},{"poiid":"B2094753D66FA7F5499C","title":"新石器烤肉(文峰店)","lon":"121.587267","lat":"31.271168","category":"96","category_name":"韩国料理","address":"张杨北路801号文峰广场"},{"poiid":"B2094757D16BA1F5489D","title":"淮扬菜馆","lon":"121.58438","lat":"31.27676","category":"74","category_name":"江苏菜","address":"浦东新区利津路357号(莱阳路利津路)"},{"poiid":"B2094655D36CA1FE409F","title":"寿光路利津路","lon":"121.58524","lat":"31.27331","category":"38","category_name":"公交车站","address":""},{"poiid":"B2094654DB6BA2F5449A","title":"江南山水菜市场(利津路)","lon":"121.58625","lat":"31.27431","category":"117","category_name":"便民商店/便利店","address":""},{"poiid":"B209475DD46EA3FF479D","title":"星巴克文峰广场店","lon":"121.587799","lat":"31.271595","category":"247","category_name":"餐饮美食","address":"上海市 文峰广场一楼"},{"poiid":"B2094757D06BA6F8459A","title":"缘喜寿司关东煮(文峰广场店)","lon":"121.58792","lat":"31.27103","category":"247","category_name":"餐饮美食","address":"上海浦东新区张杨北路801号文峰广场1楼(近五莲路)  "},{"poiid":"B2094757D065AAFD429A","title":"寿光小区","lon":"121.582989239","lat":"31.2739759484","category":"47","category_name":"住宅区","address":"寿光路31弄1-34号,75弄1-36号"},{"poiid":"B2094753D26AA1FE479A","title":"上海国金中心IFC","lon":"121.58968","lat":"31.276527","category":"500","category_name":"未知分类","address":"上海市 上海市，浦东新区，陆家嘴环路"},{"poiid":"B2094654D568A1FD439C","title":"上海文峰广场","lon":"121.5874","lat":"31.27117","category":"119","category_name":"商场","address":"浦东新区张杨北路801号(近五莲路)"},{"poiid":"B2094757DA6EA4FB409E","title":"佰迦乐大光明影城","lon":"121.58738851547","lat":"31.2733974958802","category":"248","category_name":"生活娱乐","address":"浦东新区张杨北路801号文峰广场2楼(近地铁六号线五莲路站)"},{"poiid":"B2094757DB6CA0F44998","title":"避风塘","lon":"121.5870242699979","lat":"31.27240860002155","category":"72","category_name":"广东菜","address":"浦东新区张杨北路801号文峰广场2楼(近五莲路)"},{"poiid":"B2094654D568A1FD449C","title":"必胜客(文峰店)","lon":"121.58741","lat":"31.27096","category":"94","category_name":"西餐厅","address":"浦东新区张杨北路809号文峰广场1-2楼(近五莲路)"},{"poiid":"B2094757D06FA3F4409D","title":"五莲路地铁站","lon":"121.58799032571824","lat":"31.271918929860977","category":"36","category_name":"地铁站","address":"上海轨道交通 六号线 轨交五莲路站 6"},{"poiid":"B2094750D664A5F5489B","title":"大家乐(文峰广场店)","lon":"121.588","lat":"31.2709","category":"68","category_name":"快餐厅","address":"浦东新区张杨北路801号文峰广场1楼(近五莲路)"},{"poiid":"B2094757D069A1F94293","title":"莱阳路五莲路","lon":"121.58144153","lat":"31.274447559","category":"627","category_name":"一般地点标志","address":"上海五莲路莱阳路北小区"},{"poiid":"B2094757D06FA4F4439D","title":"盘古烤肉(文峰广场店)","lon":"121.58767","lat":"31.2709","category":"96","category_name":"韩国料理","address":"浦东新区张杨北路801号文峰广场1楼(近五莲路)"},{"poiid":"B2094750D66FA5F54092","title":"鲜芋仙文峰广场店","lon":"121.587638","lat":"31.272275","category":"67","category_name":"甜品店","address":"浦东新区张杨北路801号文峰广场1楼(近五莲路)"},{"poiid":"B2094757D068AAFF449D","title":"巴蜀传香","lon":"121.587501","lat":"31.271186","category":"71","category_name":"四川菜","address":"浦东新区张杨北路801号文峰广场3楼"},{"poiid":"B2094757D068A0F5499D","title":"沪东新村","lon":"121.59076173881","lat":"31.276090782708","category":"47","category_name":"住宅区","address":"上海市浦东新区五莲路"},{"poiid":"B2094655D269AAFA439C","title":"味千拉面 文峰广场店","lon":"121.587287054","lat":"31.270835793","category":"95","category_name":"日本料理","address":"浦东新区张杨北路801号文峰广场2楼(近五莲路)"},{"poiid":"B2094757D068A0F9409A","title":"巴贝拉(文峰广场店)","lon":"121.58799743","lat":"31.270900726","category":"94","category_name":"西餐厅","address":"浦东新区张杨北路801号文峰广场1楼(近五莲路)"},{"poiid":"B2094757D06FA1F5449C","title":"爱法新城","lon":"121.586","lat":"31.277746","category":"47","category_name":"住宅区","address":"上海浦东新区利津路385弄"},{"poiid":"B2094655D26FA0FA469F","title":"中大丽都","lon":"121.58921","lat":"31.272518","category":"47","category_name":"住宅区","address":"浦东荷泽路58弄"},{"poiid":"B2094757D069A0F8419F","title":"丽都成品","lon":"121.58979","lat":"31.275686","category":"47","category_name":"住宅区","address":"上海浦东新区利津路729弄"},{"poiid":"B2094655D26AA0FA4393","title":"地铁巨峰路站","lon":"121.58832","lat":"31.27956","category":"36","category_name":"地铁站","address":""},{"poiid":"B2094757D068A7F5489C","title":"DQ冰雪皇后(五莲店)","lon":"121.58721256","lat":"31.270400894","category":"113","category_name":"冷饮店","address":"浦东新区张杨北路801号文峰广场1楼(近五莲路)"},{"poiid":"B2094757D16CA7FC409E","title":"肯德基(文峄店)","lon":"121.5879199","lat":"31.272435246","category":"68","category_name":"快餐厅","address":"浦东新区张杨北路801号文峰广场1楼北(近五莲路)"},{"poiid":"B2094654D568A1FD449A","title":"苏宴大酒店","lon":"121.587306054","lat":"31.270897793","category":"76","category_name":"上海菜","address":"浦东新区张杨北路801号文峰广场3楼南侧(近五莲路)"},{"poiid":"B2094757D06FA5F94392","title":"CoCo都可茶饮(文峰广场店)","lon":"121.58740874","lat":"31.271173678","category":"113","category_name":"冷饮店","address":"浦东新区张杨北路801号文峰广场1楼(近五莲路)"},{"poiid":"B2094757D06FA6F44092","title":"江南山水","lon":"121.585902","lat":"31.2737423","category":"500","category_name":"未知分类","address":"江南山水位于浦东寿光路78弄"},{"poiid":"B2094757D06AA2FE489A","title":"颐品居(五莲店)","lon":"121.58343","lat":"31.27162","category":"86","category_name":"火锅店","address":"浦东新区五莲路423号(寿光路五莲路)"},{"poiid":"B2094757D06BA7FF4492","title":"沪东地段医院","lon":"121.5834","lat":"31.27535","category":"162","category_name":"医院","address":"浦东新区东波路195弄46号"},{"poiid":"B2094655D26AA5F94099","title":"新黄鸡","lon":"121.587287054","lat":"31.270835793","category":"76","category_name":"上海菜","address":"浦东新区张杨北路801号文峰广场1楼(近五莲路)"},{"poiid":"B2094757D068A1F4499C","title":"莱阳路利津路","lon":"121.583519","lat":"31.278671","category":"500","category_name":"未知分类","address":"上海莱阳路利津路"},{"poiid":"B2094655D26BA7FF429C","title":"爱茜茜里 文峰店 ICEASON","lon":"121.587287054","lat":"31.270835793","category":"67","category_name":"甜品店","address":"浦东新区张杨北路801号文峰广场1楼F1-114号(近五莲路)"},{"poiid":"B2094654D568A1FD4098","title":"璞真园","lon":"121.58741","lat":"31.275459","category":"47","category_name":"住宅区","address":"上海市浦东新区利津路555弄"},{"poiid":"B2094757D168AAFF429D","title":"老王家烧烤","lon":"121.58641033","lat":"31.274344356","category":"68","category_name":"快餐厅","address":"浦东新区利津路461号(利津路寿光路)"},{"poiid":"B2094655D26BA3F5489A","title":"五莲路莱阳路","lon":"121.58162","lat":"31.27387","category":"38","category_name":"公交车站","address":"莱阳小区"},{"poiid":"B2094757D065A1F44298","title":"浦东大道五莲路","lon":"121.580873339","lat":"31.2747013651","category":"500","category_name":"未知分类","address":"上海市浦东新区浦东大道"},{"poiid":"B2094757D76AA6FF429D","title":"顺缘牛味餐馆","lon":"121.585813","lat":"31.275338","category":"68","category_name":"快餐厅","address":"浦东新区利津路455号(近寿光路)"},{"poiid":"B2094750D26CA7FC479E","title":"文峰广场","lon":"121.583047","lat":"31.273177","category":"247","category_name":"餐饮美食","address":"五莲路张杨北路"},{"poiid":"B2094757D068A7F84293","title":"五莲路兰城路","lon":"121.58526","lat":"31.269981","category":"500","category_name":"未知分类","address":"上海浦东新区五莲路兰城路口"},{"poiid":"B2094655D265A2F84092","title":"江南山水小区","lon":"121.586255","lat":"31.272205","category":"47","category_name":"住宅区","address":"寿光路78弄1-54号"},{"poiid":"B2094750D56DA5F4489C","title":"仙芋鲜","lon":"121.588676","lat":"31.271657","category":"247","category_name":"餐饮美食","address":"文峰广场"},{"poiid":"B2094757D66CAAF5479D","title":"火之舞","lon":"121.588741439","lat":"31.2712114849","category":"95","category_name":"日本料理","address":"浦东新区张杨北路801号文峰广场5楼(近五莲路)"},{"poiid":"B2094654D568A1FC4999","title":"克丽缇娜NO.9013","lon":"121.58654","lat":"31.27456","category":"148","category_name":"美容美发店","address":"利津路497"},{"poiid":"B2094655D36CA1FB4792","title":"利津路张杨北路","lon":"121.58685","lat":"31.27428","category":"38","category_name":"公交车站","address":""},{"poiid":"B2094654D568A2F54493","title":"上海开元骨科医院","lon":"121.59049","lat":"31.27219","category":"162","category_name":"医院","address":"浦东新区菏泽路88号(近五莲路)"},{"poiid":"B2094655D269AAFA439F","title":"面包新语 文峰广场店 BreadTalk","lon":"121.587287054","lat":"31.270835793","category":"112","category_name":"糕饼店","address":"浦东新区张杨北路801号文峰广场1楼北区(近五莲路)"},{"poiid":"B2094757D06BA6F5409F","title":"爱茜茜里","lon":"121.58791833","lat":"31.271589293","category":"247","category_name":"餐饮美食","address":"上海市浦东新区文峰广场"},{"poiid":"B2094753D66FA7F5499C","title":"新石器烤肉(文峰店)","lon":"121.587267","lat":"31.271168","category":"96","category_name":"韩国料理","address":"张杨北路801号文峰广场"},{"poiid":"B2094757D16BA1F5489D","title":"淮扬菜馆","lon":"121.58438","lat":"31.27676","category":"74","category_name":"江苏菜","address":"浦东新区利津路357号(莱阳路利津路)"},{"poiid":"B2094655D36CA1FE409F","title":"寿光路利津路","lon":"121.58524","lat":"31.27331","category":"38","category_name":"公交车站","address":""},{"poiid":"B2094654DB6BA2F5449A","title":"江南山水菜市场(利津路)","lon":"121.58625","lat":"31.27431","category":"117","category_name":"便民商店/便利店","address":""},{"poiid":"B209475DD46EA3FF479D","title":"星巴克文峰广场店","lon":"121.587799","lat":"31.271595","category":"247","category_name":"餐饮美食","address":"上海市 文峰广场一楼"},{"poiid":"B2094757D06BA6F8459A","title":"缘喜寿司关东煮(文峰广场店)","lon":"121.58792","lat":"31.27103","category":"247","category_name":"餐饮美食","address":"上海浦东新区张杨北路801号文峰广场1楼(近五莲路)  "},{"poiid":"B2094757D065AAFD429A","title":"寿光小区","lon":"121.582989239","lat":"31.2739759484","category":"47","category_name":"住宅区","address":"寿光路31弄1-34号,75弄1-36号"},{"poiid":"B2094753D26AA1FE479A","title":"上海国金中心IFC","lon":"121.58968","lat":"31.276527","category":"500","category_name":"未知分类","address":"上海市 上海市，浦东新区，陆家嘴环路"}]