[{"poiid":"B2094757D06FAAFA409F","title":"大同中学","lon":"121.49336","lat":"31.20645","category":"55","category_name":"中学","address":"黄浦区南车站路353号(瞿溪路南车站路)"},{"poiid":"B2094654DA68A2FF479E","title":"上海外国语大学附属大境中学","lon":"121.49034","lat":"31.20395","category":"55","category_name":"中学","address":"黄浦区保屯路210号(近瞿溪路)"},{"poiid":"B2094654DB6BABFE4992","title":"弘辉名苑","lon":"121.496","lat":"31.2088","category":"47","category_name":"住宅区","address":"上海市黄浦区西藏南路1501弄"},{"poiid":"B2094753D76FAAFA449C","title":"上海滩国泰旗舰店","lon":"121.466011","lat":"31.216125","category":"249","category_name":"购物服务","address":"淮海中路868号"},{"poiid":"B209475CD564A7F84292","title":"上海滩新天地店","lon":"121.47463","lat":"31.22164","category":"119","category_name":"商场","address":"\"太仓路181弄新天地北里15号\r\n\""},{"poiid":"B2094655D26AA5F8449D","title":"大富贵酒楼普育东路店","lon":"121.4959","lat":"31.20773","category":"76","category_name":"上海菜","address":"黄浦区普育东路227号(瞿溪路普育东路)"},{"poiid":"B2094757D068A6FA439E","title":"黄浦区工人文化宫","lon":"121.49624","lat":"31.2076","category":"500","category_name":"未知分类","address":"黄浦区普育东路227号(瞿溪路普育东路)"},{"poiid":"B2094757D06FA5FF4292","title":"瞿溪新村","lon":"121.49477","lat":"31.205893","category":"47","category_name":"住宅区","address":"黄浦区瞿溪路120弄"},{"poiid":"B2094654DB64A6FA449F","title":"振鼎鸡 南车站路店","lon":"121.492433054","lat":"31.206528793","category":"68","category_name":"快餐厅","address":"黄浦区南车站路388号(瞿溪路南车站路)"},{"poiid":"B2094655D26FA5FB4593","title":"同济·蓬莱家园","lon":"121.49293","lat":"31.20554","category":"47","category_name":"住宅区","address":"瞿溪路301弄1-4号"},{"poiid":"B2094654DA68A7F84299","title":"丽都大厦","lon":"121.492","lat":"31.2052","category":"46","category_name":"楼宇","address":"朝阳亚运村北炎黄艺术馆旁"},{"poiid":"B2094751D36DA5F5499A","title":"农屋里香(蓬莱店)","lon":"121.49285","lat":"31.2063","category":"87","category_name":"特色／地方风味餐厅","address":"黄浦区南车站路368号(近瞿溪路)"},{"poiid":"B2094757D06AAAF5439A","title":"黄浦华庭","lon":"121.49057","lat":"31.207254","category":"47","category_name":"住宅区","address":"上海市黄浦区保屯路99弄"},{"poiid":"B2094654DA68A2F8489D","title":"四海游龙 黄浦店 OVERSEAS DRAGON","lon":"121.493192054","lat":"31.205362793","category":"68","category_name":"快餐厅","address":"黄浦区南车站路438号(瞿溪路口)"},{"poiid":"B2094655D36DA7F8479E","title":"中山南路南车站路","lon":"121.49381","lat":"31.20426","category":"38","category_name":"公交车站","address":""},{"poiid":"B2094654DA68A2F84892","title":"上海市大同初级中学","lon":"121.49296","lat":"31.2047","category":"55","category_name":"中学","address":"黄浦区瞿溪路202号(近南车站路)"},{"poiid":"B2094757D06BA1F44992","title":"黄浦区体检站","lon":"121.494562","lat":"31.204399","category":"162","category_name":"医院","address":"黄浦区南车站路501号(近中山南路)"},{"poiid":"B2094752D66CA2FE449B","title":"上海当代艺术博物馆","lon":"121.488931","lat":"31.207519","category":"248","category_name":"生活娱乐","address":"花园港路200号"},{"poiid":"B2094750D569A6F5489C","title":"豫景公寓","lon":"121.49185","lat":"31.207579","category":"47","category_name":"住宅区","address":"上海市黄浦区南车站路318弄"},{"poiid":"B2094654DA68A1F4439E","title":"上海市民办立达中学","lon":"121.4928","lat":"31.20806","category":"55","category_name":"中学","address":""},{"poiid":"B2094751DA6EA1FD459C","title":"浦东机场T1","lon":"121.49364","lat":"31.20828","category":"627","category_name":"一般地点标志","address":null},{"poiid":"B2094654DB69A5FB4998","title":"重庆鸡公煲 南车站路店","lon":"121.492945054","lat":"31.206039793","category":"247","category_name":"餐饮美食","address":"黄浦区南车站路380号(瞿溪路南车站路)"},{"poiid":"B2094654DA68A0FC4398","title":"上海三山会馆管理处","lon":"121.49584","lat":"31.20556","category":"263","category_name":"公司","address":"黄浦区中山南路1551号(半淞园路苗江路)"},{"poiid":"B2094751D464A0FF4099","title":"当代艺术博物馆","lon":"121.4935019349709","lat":"31.2033344119268","category":"500","category_name":"未知分类","address":"花园港路200号"},{"poiid":"B2094654DA68A2F9489F","title":"绿叶公寓","lon":"121.49221","lat":"31.206871","category":"47","category_name":"住宅区","address":"南车站路338弄1-2号"},{"poiid":"B2094757D164ABFF459B","title":"南浦大桥环形桥面","lon":"121.490268738","lat":"31.2080438274","category":"500","category_name":"未知分类","address":"上海市"},{"poiid":"B2094751D16EA6FA4292","title":"瑞金醫院門診","lon":"121.4893636","lat":"31.2059413","category":"162","category_name":"医院","address":null},{"poiid":"B2094655D268ABFC4599","title":"绿叶公寓(东门)","lon":"121.49236","lat":"31.207","category":"47","category_name":"住宅区","address":"南车站路338弄1-2号"},{"poiid":"B2094655D264A0F54698","title":"蓬莱茶坊","lon":"121.49158","lat":"31.20608","category":"66","category_name":"茶艺馆","address":""},{"poiid":"B2094655D36CA7FB4992","title":"国货路海潮路","lon":"121.4949","lat":"31.2091","category":"38","category_name":"公交车站","address":""},{"poiid":"B2094655D268A6FF4898","title":"上海大同中学教师楼","lon":"121.49378","lat":"31.20801","category":"47","category_name":"住宅区","address":""},{"poiid":"B2094654DA68A2FF4193","title":"德昌公寓","lon":"121.49057","lat":"31.208889","category":"47","category_name":"住宅区","address":"上海市黄浦区斜土东路25-29号"},{"poiid":"B2094757D168A0FD489A","title":"米兰造型","lon":"121.490309738","lat":"31.2044637512","category":"148","category_name":"美容美发店","address":"上海市瞿溪路保屯路"},{"poiid":"B2094655D268A3FD4692","title":"同济·蓬莱家园(二号门)","lon":"121.49242","lat":"31.20512","category":"47","category_name":"住宅区","address":"瞿溪路301弄5-8号"},{"poiid":"B2094654DA68A2F8489E","title":"明星宠物","lon":"121.49285","lat":"31.20548","category":"162","category_name":"医院","address":"闸北区南星路70号(近大统路)"},{"poiid":"B2094654DA68A1F5419F","title":"国货大楼","lon":"121.49333","lat":"31.20878","category":"46","category_name":"楼宇","address":"国货路326-330"},{"poiid":"B2094654DB6BABF8439A","title":"玉府饭店","lon":"121.4932836702","lat":"31.203560235979","category":"76","category_name":"上海菜","address":"黄浦区中山南路1717号(近西藏南路)"},{"poiid":"B2094654DA68A2FF449D","title":"北方花苑","lon":"121.49049","lat":"31.205912","category":"47","category_name":"住宅区","address":"保屯路129弄1-2号"},{"poiid":"B2094750DA6BA4FD439E","title":"三山会馆","lon":"121.495109","lat":"31.205965","category":"248","category_name":"生活娱乐","address":"中山南路1551号"},{"poiid":"B2094654DA68A2F84899","title":"罗森(瞿溪路)","lon":"121.49284","lat":"31.20545","category":"117","category_name":"便民商店/便利店","address":"卢湾区瞿溪路1135号(打浦路瞿溪路)"},{"poiid":"B2094655D26FA4F44598","title":"海洲国际华园(南门)","lon":"121.49311","lat":"31.20927","category":"656","category_name":"大门","address":"国货路333弄1-12号"},{"poiid":"B2094655D268A3FF439E","title":"车中小区","lon":"121.494","lat":"31.206507","category":"47","category_name":"住宅区","address":"瞿溪路115号"},{"poiid":"B2094757D16EA3FA479F","title":"市民新村","lon":"121.49191","lat":"31.204086","category":"47","category_name":"住宅区","address":"中山南路1758号"},{"poiid":"B2094655D26EA7F5489A","title":"好德(南车站路)","lon":"121.49378","lat":"31.20472","category":"117","category_name":"便民商店/便利店","address":"中山南路1700号"},{"poiid":"B2094655D268A6FF489B","title":"上海大同中学教师楼(北门)","lon":"121.49348","lat":"31.20823","category":"47","category_name":"住宅区","address":""},{"poiid":"B2094654DA68A2FF489A","title":"半淞园派出所","lon":"121.49019","lat":"31.20538","category":"609","category_name":"警察局","address":"保屯路80号"},{"poiid":"B2094654DB6BABF8429A","title":"好德(国货路)","lon":"121.49294","lat":"31.20925","category":"117","category_name":"便民商店/便利店","address":"国货路337"},{"poiid":"B2094655D26AA4FA4193","title":"集集小镇 保屯路店 Jijitown","lon":"121.489645054","lat":"31.207962793","category":"68","category_name":"快餐厅","address":"黄浦区保屯路26号(车站支路口)"},{"poiid":"B2094757D66FA2F94393","title":"继光香香鸡","lon":"121.490531738","lat":"31.2073128119","category":"247","category_name":"餐饮美食","address":"上海长宁路770-1号"},{"poiid":"B2094654DA68A2FF449E","title":"光明乳业徽宁配送站","lon":"121.49037","lat":"31.20616","category":"117","category_name":"便民商店/便利店","address":"保屯路139号"},{"poiid":"B2094757D06FAAFA409F","title":"大同中学","lon":"121.49336","lat":"31.20645","category":"55","category_name":"中学","address":"黄浦区南车站路353号(瞿溪路南车站路)"},{"poiid":"B2094654DA68A2FF479E","title":"上海外国语大学附属大境中学","lon":"121.49034","lat":"31.20395","category":"55","category_name":"中学","address":"黄浦区保屯路210号(近瞿溪路)"},{"poiid":"B2094654DB6BABFE4992","title":"弘辉名苑","lon":"121.496","lat":"31.2088","category":"47","category_name":"住宅区","address":"上海市黄浦区西藏南路1501弄"},{"poiid":"B2094753D76FAAFA449C","title":"上海滩国泰旗舰店","lon":"121.466011","lat":"31.216125","category":"249","category_name":"购物服务","address":"淮海中路868号"},{"poiid":"B209475CD564A7F84292","title":"上海滩新天地店","lon":"121.47463","lat":"31.22164","category":"119","category_name":"商场","address":"\"太仓路181弄新天地北里15号\r\n\""},{"poiid":"B2094655D26AA5F8449D","title":"大富贵酒楼普育东路店","lon":"121.4959","lat":"31.20773","category":"76","category_name":"上海菜","address":"黄浦区普育东路227号(瞿溪路普育东路)"},{"poiid":"B2094757D068A6FA439E","title":"黄浦区工人文化宫","lon":"121.49624","lat":"31.2076","category":"500","category_name":"未知分类","address":"黄浦区普育东路227号(瞿溪路普育东路)"},{"poiid":"B2094757D06FA5FF4292","title":"瞿溪新村","lon":"121.49477","lat":"31.205893","category":"47","category_name":"住宅区","address":"黄浦区瞿溪路120弄"},{"poiid":"B2094654DB64A6FA449F","title":"振鼎鸡 南车站路店","lon":"121.492433054","lat":"31.206528793","category":"68","category_name":"快餐厅","address":"黄浦区南车站路388号(瞿溪路南车站路)"},{"poiid":"B2094655D26FA5FB4593","title":"同济·蓬莱家园","lon":"121.49293","lat":"31.20554","category":"47","category_name":"住宅区","address":"瞿溪路301弄1-4号"},{"poiid":"B2094654DA68A7F84299","title":"丽都大厦","lon":"121.492","lat":"31.2052","category":"46","category_name":"楼宇","address":"朝阳亚运村北炎黄艺术馆旁"},{"poiid":"B2094751D36DA5F5499A","title":"农屋里香(蓬莱店)","lon":"121.49285","lat":"31.2063","category":"87","category_name":"特色／地方风味餐厅","address":"黄浦区南车站路368号(近瞿溪路)"},{"poiid":"B2094757D06AAAF5439A","title":"黄浦华庭","lon":"121.49057","lat":"31.207254","category":"47","category_name":"住宅区","address":"上海市黄浦区保屯路99弄"},{"poiid":"B2094654DA68A2F8489D","title":"四海游龙 黄浦店 OVERSEAS DRAGON","lon":"121.493192054","lat":"31.205362793","category":"68","category_name":"快餐厅","address":"黄浦区南车站路438号(瞿溪路口)"},{"poiid":"B2094655D36DA7F8479E","title":"中山南路南车站路","lon":"121.49381","lat":"31.20426","category":"38","category_name":"公交车站","address":""},{"poiid":"B2094654DA68A2F84892","title":"上海市大同初级中学","lon":"121.49296","lat":"31.2047","category":"55","category_name":"中学","address":"黄浦区瞿溪路202号(近南车站路)"},{"poiid":"B2094757D06BA1F44992","title":"黄浦区体检站","lon":"121.494562","lat":"31.204399","category":"162","category_name":"医院","address":"黄浦区南车站路501号(近中山南路)"},{"poiid":"B2094752D66CA2FE449B","title":"上海当代艺术博物馆","lon":"121.488931","lat":"31.207519","category":"248","category_name":"生活娱乐","address":"花园港路200号"},{"poiid":"B2094750D569A6F5489C","title":"豫景公寓","lon":"121.49185","lat":"31.207579","category":"47","category_name":"住宅区","address":"上海市黄浦区南车站路318弄"},{"poiid":"B2094654DA68A1F4439E","title":"上海市民办立达中学","lon":"121.4928","lat":"31.20806","category":"55","category_name":"中学","address":""},{"poiid":"B2094751DA6EA1FD459C","title":"浦东机场T1","lon":"121.49364","lat":"31.20828","category":"627","category_name":"一般地点标志","address":null},{"poiid":"B2094654DB69A5FB4998","title":"重庆鸡公煲 南车站路店","lon":"121.492945054","lat":"31.206039793","category":"247","category_name":"餐饮美食","address":"黄浦区南车站路380号(瞿溪路南车站路)"},{"poiid":"B2094654DA68A0FC4398","title":"上海三山会馆管理处","lon":"121.49584","lat":"31.20556","category":"263","category_name":"公司","address":"黄浦区中山南路1551号(半淞园路苗江路)"},{"poiid":"B2094751D464A0FF4099","title":"当代艺术博物馆","lon":"121.4935019349709","lat":"31.2033344119268","category":"500","category_name":"未知分类","address":"花园港路200号"},{"poiid":"B2094654DA68A2F9489F","title":"绿叶公寓","lon":"121.49221","lat":"31.206871","category":"47","category_name":"住宅区","address":"南车站路338弄1-2号"},{"poiid":"B2094757D164ABFF459B","title":"南浦大桥环形桥面","lon":"121.490268738","lat":"31.2080438274","category":"500","category_name":"未知分类","address":"上海市"},{"poiid":"B2094751D16EA6FA4292","title":"瑞金醫院門診","lon":"121.4893636","lat":"31.2059413","category":"162","category_name":"医院","address":null},{"poiid":"B2094655D268ABFC4599","title":"绿叶公寓(东门)","lon":"121.49236","lat":"31.207","category":"47","category_name":"住宅区","address":"南车站路338弄1-2号"},{"poiid":"B2094655D264A0F54698","title":"蓬莱茶坊","lon":"121.49158","lat":"31.20608","category":"66","category_name":"茶艺馆","address":""},{"poiid":"B2094655D36CA7FB4992","title":"国货路海潮路","lon":"121.4949","lat":"31.2091","category":"38","category_name":"公交车站","address":""},{"poiid":"B2094655D268A6FF4898","title":"上海大同中学教师楼","lon":"121.49378","lat":"31.20801","category":"47","category_name":"住宅区","address":""},{"poiid":"B2094654DA68A2FF4193","title":"德昌公寓","lon":"121.49057","lat":"31.208889","category":"47","category_name":"住宅区","address":"上海市黄浦区斜土东路25-29号"},{"poiid":"B2094757D168A0FD489A","title":"米兰造型","lon":"121.490309738","lat":"31.2044637512","category":"148","category_name":"美容美发店","address":"上海市瞿溪路保屯路"},{"poiid":"B2094655D268A3FD4692","title":"同济·蓬莱家园(二号门)","lon":"121.49242","lat":"31.20512","category":"47","category_name":"住宅区","address":"瞿溪路301弄5-8号"},{"poiid":"B2094654DA68A2F8489E","title":"明星宠物","lon":"121.49285","lat":"31.20548","category":"162","category_name":"医院","address":"闸北区南星路70号(近大统路)"},{"poiid":"B2094654DA68A1F5419F","title":"国货大楼","lon":"121.49333","lat":"31.20878","category":"46","category_name":"楼宇","address":"国货路326-330"},{"poiid":"B2094654DB6BABF8439A","title":"玉府饭店","lon":"121.4932836702","lat":"31.203560235979","category":"76","category_name":"上海菜","address":"黄浦区中山南路1717号(近西藏南路)"},{"poiid":"B2094654DA68A2FF449D","title":"北方花苑","lon":"121.49049","lat":"31.205912","category":"47","category_name":"住宅区","address":"保屯路129弄1-2号"},{"poiid":"B2094750DA6BA4FD439E","title":"三山会馆","lon":"121.495109","lat":"31.205965","category":"248","category_name":"生活娱乐","address":"中山南路1551号"},{"poiid":"B2094654DA68A2F84899","title":"罗森(瞿溪路)","lon":"121.49284","lat":"31.20545","category":"117","category_name":"便民商店/便利店","address":"卢湾区瞿溪路1135号(打浦路瞿溪路)"},{"poiid":"B2094655D26FA4F44598","title":"海洲国际华园(南门)","lon":"121.49311","lat":"31.20927","category":"656","category_name":"大门","address":"国货路333弄1-12号"},{"poiid":"B2094655D268A3FF439E","title":"车中小区","lon":"121.494","lat":"31.206507","category":"47","category_name":"住宅区","address":"瞿溪路115号"},{"poiid":"B2094757D16EA3FA479F","title":"市民新村","lon":"121.49191","lat":"31.204086","category":"47","category_name":"住宅区","address":"中山南路1758号"},{"poiid":"B2094655D26EA7F5489A","title":"好德(南车站路)","lon":"121.49378","lat":"31.20472","category":"117","category_name":"便民商店/便利店","address":"中山南路1700号"},{"poiid":"B2094655D268A6FF489B","title":"上海大同中学教师楼(北门)","lon":"121.49348","lat":"31.20823","category":"47","category_name":"住宅区","address":""},{"poiid":"B2094654DA68A2FF489A","title":"半淞园派出所","lon":"121.49019","lat":"31.20538","category":"609","category_name":"警察局","address":"保屯路80号"},{"poiid":"B2094654DB6BABF8429A","title":"好德(国货路)","lon":"121.49294","lat":"31.20925","category":"117","category_name":"便民商店/便利店","address":"国货路337"},{"poiid":"B2094655D26AA4FA4193","title":"集集小镇 保屯路店 Jijitown","lon":"121.489645054","lat":"31.207962793","category":"68","category_name":"快餐厅","address":"黄浦区保屯路26号(车站支路口)"},{"poiid":"B2094757D66FA2F94393","title":"继光香香鸡","lon":"121.490531738","lat":"31.2073128119","category":"247","category_name":"餐饮美食","address":"上海长宁路770-1号"},{"poiid":"B2094654DA68A2FF449E","title":"光明乳业徽宁配送站","lon":"121.49037","lat":"31.20616","category":"117","category_name":"便民商店/便利店","address":"保屯路139号"},{"poiid":"B2094757D06FAAFA409F","title":"大同中学","lon":"121.49336","lat":"31.20645","category":"55","category_name":"中学","address":"黄浦区南车站路353号(瞿溪路南车站路)"},{"poiid":"B2094654DA68A2FF479E","title":"上海外国语大学附属大境中学","lon":"121.49034","lat":"31.20395","category":"55","category_name":"中学","address":"黄浦区保屯路210号(近瞿溪路)"},{"poiid":"B2094654DB6BABFE4992","title":"弘辉名苑","lon":"121.496","lat":"31.2088","category":"47","category_name":"住宅区","address":"上海市黄浦区西藏南路1501弄"},{"poiid":"B2094753D76FAAFA449C","title":"上海滩国泰旗舰店","lon":"121.466011","lat":"31.216125","category":"249","category_name":"购物服务","address":"淮海中路868号"},{"poiid":"B209475CD564A7F84292","title":"上海滩新天地店","lon":"121.47463","lat":"31.22164","category":"119","category_name":"商场","address":"\"太仓路181弄新天地北里15号\r\n\""},{"poiid":"B2094655D26AA5F8449D","title":"大富贵酒楼普育东路店","lon":"121.4959","lat":"31.20773","category":"76","category_name":"上海菜","address":"黄浦区普育东路227号(瞿溪路普育东路)"},{"poiid":"B2094757D068A6FA439E","title":"黄浦区工人文化宫","lon":"121.49624","lat":"31.2076","category":"500","category_name":"未知分类","address":"黄浦区普育东路227号(瞿溪路普育东路)"},{"poiid":"B2094757D06FA5FF4292","title":"瞿溪新村","lon":"121.49477","lat":"31.205893","category":"47","category_name":"住宅区","address":"黄浦区瞿溪路120弄"},{"poiid":"B2094654DB64A6FA449F","title":"振鼎鸡 南车站路店","lon":"121.492433054","lat":"31.206528793","category":"68","category_name":"快餐厅","address":"黄浦区南车站路388号(瞿溪路南车站路)"},{"poiid":"B2094655D26FA5FB4593","title":"同济·蓬莱家园","lon":"121.49293","lat":"31.20554","category":"47","category_name":"住宅区","address":"瞿溪路301弄1-4号"},{"poiid":"B2094654DA68A7F84299","title":"丽都大厦","lon":"121.492","lat":"31.2052","category":"46","category_name":"楼宇","address":"朝阳亚运村北炎黄艺术馆旁"},{"poiid":"B2094751D36DA5F5499A","title":"农屋里香(蓬莱店)","lon":"121.49285","lat":"31.2063","category":"87","category_name":"特色／地方风味餐厅","address":"黄浦区南车站路368号(近瞿溪路)"},{"poiid":"B2094757D06AAAF5439A","title":"黄浦华庭","lon":"121.49057","lat":"31.207254","category":"47","category_name":"住宅区","address":"上海市黄浦区保屯路99弄"},{"poiid":"B2094654DA68A2F8489D","title":"四海游龙 黄浦店 OVERSEAS DRAGON","lon":"121.493192054","lat":"31.205362793","category":"68","category_name":"快餐厅","address":"黄浦区南车站路438号(瞿溪路口)"},{"poiid":"B2094655D36DA7F8479E","title":"中山南路南车站路","lon":"121.49381","lat":"31.20426","category":"38","category_name":"公交车站","address":""},{"poiid":"B2094654DA68A2F84892","title":"上海市大同初级中学","lon":"121.49296","lat":"31.2047","category":"55","category_name":"中学","address":"黄浦区瞿溪路202号(近南车站路)"},{"poiid":"B2094757D06BA1F44992","title":"黄浦区体检站","lon":"121.494562","lat":"31.204399","category":"162","category_name":"医院","address":"黄浦区南车站路501号(近中山南路)"},{"poiid":"B2094752D66CA2FE449B","title":"上海当代艺术博物馆","lon":"121.488931","lat":"31.207519","category":"248","category_name":"生活娱乐","address":"花园港路200号"},{"poiid":"B2094750D569A6F5489C","title":"豫景公寓","lon":"121.49185","lat":"31.207579","category":"47","category_name":"住宅区","address":"上海市黄浦区南车站路318弄"},{"poiid":"B2094654DA68A1F4439E","title":"上海市民办立达中学","lon":"121.4928","lat":"31.20806","category":"55","category_name":"中学","address":""},{"poiid":"B2094751DA6EA1FD459C","title":"浦东机场T1","lon":"121.49364","lat":"31.20828","category":"627","category_name":"一般地点标志","address":null},{"poiid":"B2094654DB69A5FB4998","title":"重庆鸡公煲 南车站路店","lon":"121.492945054","lat":"31.206039793","category":"247","category_name":"餐饮美食","address":"黄浦区南车站路380号(瞿溪路南车站路)"},{"poiid":"B2094654DA68A0FC4398","title":"上海三山会馆管理处","lon":"121.49584","lat":"31.20556","category":"263","category_name":"公司","address":"黄浦区中山南路1551号(半淞园路苗江路)"},{"poiid":"B2094751D464A0FF4099","title":"当代艺术博物馆","lon":"121.4935019349709","lat":"31.2033344119268","category":"500","category_name":"未知分类","address":"花园港路200号"},{"poiid":"B2094654DA68A2F9489F","title":"绿叶公寓","lon":"121.49221","lat":"31.206871","category":"47","category_name":"住宅区","address":"南车站路338弄1-2号"},{"poiid":"B2094757D164ABFF459B","title":"南浦大桥环形桥面","lon":"121.490268738","lat":"31.2080438274","category":"500","category_name":"未知分类","address":"上海市"},{"poiid":"B2094751D16EA6FA4292","title":"瑞金醫院門診","lon":"121.4893636","lat":"31.2059413","category":"162","category_name":"医院","address":null},{"poiid":"B2094655D268ABFC4599","title":"绿叶公寓(东门)","lon":"121.49236","lat":"31.207","category":"47","category_name":"住宅区","address":"南车站路338弄1-2号"},{"poiid":"B2094655D264A0F54698","title":"蓬莱茶坊","lon":"121.49158","lat":"31.20608","category":"66","category_name":"茶艺馆","address":""},{"poiid":"B2094655D36CA7FB4992","title":"国货路海潮路","lon":"121.4949","lat":"31.2091","category":"38","category_name":"公交车站","address":""},{"poiid":"B2094655D268A6FF4898","title":"上海大同中学教师楼","lon":"121.49378","lat":"31.20801","category":"47","category_name":"住宅区","address":""},{"poiid":"B2094654DA68A2FF4193","title":"德昌公寓","lon":"121.49057","lat":"31.208889","category":"47","category_name":"住宅区","address":"上海市黄浦区斜土东路25-29号"},{"poiid":"B2094757D168A0FD489A","title":"米兰造型","lon":"121.490309738","lat":"31.2044637512","category":"148","category_name":"美容美发店","address":"上海市瞿溪路保屯路"},{"poiid":"B2094655D268A3FD4692","title":"同济·蓬莱家园(二号门)","lon":"121.49242","lat":"31.20512","category":"47","category_name":"住宅区","address":"瞿溪路301弄5-8号"},{"poiid":"B2094654DA68A2F8489E","title":"明星宠物","lon":"121.49285","lat":"31.20548","category":"162","category_name":"医院","address":"闸北区南星路70号(近大统路)"},{"poiid":"B2094654DA68A1F5419F","title":"国货大楼","lon":"121.49333","lat":"31.20878","category":"46","category_name":"楼宇","address":"国货路326-330"},{"poiid":"B2094654DB6BABF8439A","title":"玉府饭店","lon":"121.4932836702","lat":"31.203560235979","category":"76","category_name":"上海菜","address":"黄浦区中山南路1717号(近西藏南路)"},{"poiid":"B2094654DA68A2FF449D","title":"北方花苑","lon":"121.49049","lat":"31.205912","category":"47","category_name":"住宅区","address":"保屯路129弄1-2号"},{"poiid":"B2094750DA6BA4FD439E","title":"三山会馆","lon":"121.495109","lat":"31.205965","category":"248","category_name":"生活娱乐","address":"中山南路1551号"},{"poiid":"B2094654DA68A2F84899","title":"罗森(瞿溪路)","lon":"121.49284","lat":"31.20545","category":"117","category_name":"便民商店/便利店","address":"卢湾区瞿溪路1135号(打浦路瞿溪路)"},{"poiid":"B2094655D26FA4F44598","title":"海洲国际华园(南门)","lon":"121.49311","lat":"31.20927","category":"656","category_name":"大门","address":"国货路333弄1-12号"},{"poiid":"B2094655D268A3FF439E","title":"车中小区","lon":"121.494","lat":"31.206507","category":"47","category_name":"住宅区","address":"瞿溪路115号"},{"poiid":"B2094757D16EA3FA479F","title":"市民新村","lon":"121.49191","lat":"31.204086","category":"47","category_name":"住宅区","address":"中山南路1758号"},{"poiid":"B2094655D26EA7F5489A","title":"好德(南车站路)","lon":"121.49378","lat":"31.20472","category":"117","category_name":"便民商店/便利店","address":"中山南路1700号"},{"poiid":"B2094655D268A6FF489B","title":"上海大同中学教师楼(北门)","lon":"121.49348","lat":"31.20823","category":"47","category_name":"住宅区","address":""},{"poiid":"B2094654DA68A2FF489A","title":"半淞园派出所","lon":"121.49019","lat":"31.20538","category":"609","category_name":"警察局","address":"保屯路80号"},{"poiid":"B2094654DB6BABF8429A","title":"好德(国货路)","lon":"121.49294","lat":"31.20925","category":"117","category_name":"便民商店/便利店","address":"国货路337"},{"poiid":"B2094655D26AA4FA4193","title":"集集小镇 保屯路店 Jijitown","lon":"121.489645054","lat":"31.207962793","category":"68","category_name":"快餐厅","address":"黄浦区保屯路26号(车站支路口)"},{"poiid":"B2094757D66FA2F94393","title":"继光香香鸡","lon":"121.490531738","lat":"31.2073128119","category":"247","category_name":"餐饮美食","address":"上海长宁路770-1号"},{"poiid":"B2094654DA68A2FF449E","title":"光明乳业徽宁配送站","lon":"121.49037","lat":"31.20616","category":"117","category_name":"便民商店/便利店","address":"保屯路139号"},{"poiid":"B2094757D06FAAFA409F","title":"大同中学","lon":"121.49336","lat":"31.20645","category":"55","category_name":"中学","address":"黄浦区南车站路353号(瞿溪路南车站路)"},{"poiid":"B2094654DA68A2FF479E","title":"上海外国语大学附属大境中学","lon":"121.49034","lat":"31.20395","category":"55","category_name":"中学","address":"黄浦区保屯路210号(近瞿溪路)"},{"poiid":"B2094654DB6BABFE4992","title":"弘辉名苑","lon":"121.496","lat":"31.2088","category":"47","category_name":"住宅区","address":"上海市黄浦区西藏南路1501弄"},{"poiid":"B2094753D76FAAFA449C","title":"上海滩国泰旗舰店","lon":"121.466011","lat":"31.216125","category":"249","category_name":"购物服务","address":"淮海中路868号"},{"poiid":"B209475CD564A7F84292","title":"上海滩新天地店","lon":"121.47463","lat":"31.22164","category":"119","category_name":"商场","address":"\"太仓路181弄新天地北里15号\r\n\""},{"poiid":"B2094655D26AA5F8449D","title":"大富贵酒楼普育东路店","lon":"121.4959","lat":"31.20773","category":"76","category_name":"上海菜","address":"黄浦区普育东路227号(瞿溪路普育东路)"},{"poiid":"B2094757D068A6FA439E","title":"黄浦区工人文化宫","lon":"121.49624","lat":"31.2076","category":"500","category_name":"未知分类","address":"黄浦区普育东路227号(瞿溪路普育东路)"},{"poiid":"B2094757D06FA5FF4292","title":"瞿溪新村","lon":"121.49477","lat":"31.205893","category":"47","category_name":"住宅区","address":"黄浦区瞿溪路120弄"},{"poiid":"B2094654DB64A6FA449F","title":"振鼎鸡 南车站路店","lon":"121.492433054","lat":"31.206528793","category":"68","category_name":"快餐厅","address":"黄浦区南车站路388号(瞿溪路南车站路)"},{"poiid":"B2094655D26FA5FB4593","title":"同济·蓬莱家园","lon":"121.49293","lat":"31.20554","category":"47","category_name":"住宅区","address":"瞿溪路301弄1-4号"},{"poiid":"B2094654DA68A7F84299","title":"丽都大厦","lon":"121.492","lat":"31.2052","category":"46","category_name":"楼宇","address":"朝阳亚运村北炎黄艺术馆旁"},{"poiid":"B2094751D36DA5F5499A","title":"农屋里香(蓬莱店)","lon":"121.49285","lat":"31.2063","category":"87","category_name":"特色／地方风味餐厅","address":"黄浦区南车站路368号(近瞿溪路)"},{"poiid":"B2094757D06AAAF5439A","title":"黄浦华庭","lon":"121.49057","lat":"31.207254","category":"47","category_name":"住宅区","address":"上海市黄浦区保屯路99弄"},{"poiid":"B2094654DA68A2F8489D","title":"四海游龙 黄浦店 OVERSEAS DRAGON","lon":"121.493192054","lat":"31.205362793","category":"68","category_name":"快餐厅","address":"黄浦区南车站路438号(瞿溪路口)"},{"poiid":"B2094655D36DA7F8479E","title":"中山南路南车站路","lon":"121.49381","lat":"31.20426","category":"38","category_name":"公交车站","address":""},{"poiid":"B2094654DA68A2F84892","title":"上海市大同初级中学","lon":"121.49296","lat":"31.2047","category":"55","category_name":"中学","address":"黄浦区瞿溪路202号(近南车站路)"},{"poiid":"B2094757D06BA1F44992","title":"黄浦区体检站","lon":"121.494562","lat":"31.204399","category":"162","category_name":"医院","address":"黄浦区南车站路501号(近中山南路)"},{"poiid":"B2094752D66CA2FE449B","title":"上海当代艺术博物馆","lon":"121.488931","lat":"31.207519","category":"248","category_name":"生活娱乐","address":"花园港路200号"},{"poiid":"B2094750D569A6F5489C","title":"豫景公寓","lon":"121.49185","lat":"31.207579","category":"47","category_name":"住宅区","address":"上海市黄浦区南车站路318弄"},{"poiid":"B2094654DA68A1F4439E","title":"上海市民办立达中学","lon":"121.4928","lat":"31.20806","category":"55","category_name":"中学","address":""},{"poiid":"B2094751DA6EA1FD459C","title":"浦东机场T1","lon":"121.49364","lat":"31.20828","category":"627","category_name":"一般地点标志","address":null},{"poiid":"B2094654DB69A5FB4998","title":"重庆鸡公煲 南车站路店","lon":"121.492945054","lat":"31.206039793","category":"247","category_name":"餐饮美食","address":"黄浦区南车站路380号(瞿溪路南车站路)"},{"poiid":"B2094654DA68A0FC4398","title":"上海三山会馆管理处","lon":"121.49584","lat":"31.20556","category":"263","category_name":"公司","address":"黄浦区中山南路1551号(半淞园路苗江路)"},{"poiid":"B2094751D464A0FF4099","title":"当代艺术博物馆","lon":"121.4935019349709","lat":"31.2033344119268","category":"500","category_name":"未知分类","address":"花园港路200号"},{"poiid":"B2094654DA68A2F9489F","title":"绿叶公寓","lon":"121.49221","lat":"31.206871","category":"47","category_name":"住宅区","address":"南车站路338弄1-2号"},{"poiid":"B2094757D164ABFF459B","title":"南浦大桥环形桥面","lon":"121.490268738","lat":"31.2080438274","category":"500","category_name":"未知分类","address":"上海市"},{"poiid":"B2094751D16EA6FA4292","title":"瑞金醫院門診","lon":"121.4893636","lat":"31.2059413","category":"162","category_name":"医院","address":null},{"poiid":"B2094655D268ABFC4599","title":"绿叶公寓(东门)","lon":"121.49236","lat":"31.207","category":"47","category_name":"住宅区","address":"南车站路338弄1-2号"},{"poiid":"B2094655D264A0F54698","title":"蓬莱茶坊","lon":"121.49158","lat":"31.20608","category":"66","category_name":"茶艺馆","address":""},{"poiid":"B2094655D36CA7FB4992","title":"国货路海潮路","lon":"121.4949","lat":"31.2091","category":"38","category_name":"公交车站","address":""},{"poiid":"B2094655D268A6FF4898","title":"上海大同中学教师楼","lon":"121.49378","lat":"31.20801","category":"47","category_name":"住宅区","address":""},{"poiid":"B2094654DA68A2FF4193","title":"德昌公寓","lon":"121.49057","lat":"31.208889","category":"47","category_name":"住宅区","address":"上海市黄浦区斜土东路25-29号"},{"poiid":"B2094757D168A0FD489A","title":"米兰造型","lon":"121.490309738","lat":"31.2044637512","category":"148","category_name":"美容美发店","address":"上海市瞿溪路保屯路"},{"poiid":"B2094655D268A3FD4692","title":"同济·蓬莱家园(二号门)","lon":"121.49242","lat":"31.20512","category":"47","category_name":"住宅区","address":"瞿溪路301弄5-8号"},{"poiid":"B2094654DA68A2F8489E","title":"明星宠物","lon":"121.49285","lat":"31.20548","category":"162","category_name":"医院","address":"闸北区南星路70号(近大统路)"},{"poiid":"B2094654DA68A1F5419F","title":"国货大楼","lon":"121.49333","lat":"31.20878","category":"46","category_name":"楼宇","address":"国货路326-330"},{"poiid":"B2094654DB6BABF8439A","title":"玉府饭店","lon":"121.4932836702","lat":"31.203560235979","category":"76","category_name":"上海菜","address":"黄浦区中山南路1717号(近西藏南路)"},{"poiid":"B2094654DA68A2FF449D","title":"北方花苑","lon":"121.49049","lat":"31.205912","category":"47","category_name":"住宅区","address":"保屯路129弄1-2号"},{"poiid":"B2094750DA6BA4FD439E","title":"三山会馆","lon":"121.495109","lat":"31.205965","category":"248","category_name":"生活娱乐","address":"中山南路1551号"},{"poiid":"B2094654DA68A2F84899","title":"罗森(瞿溪路)","lon":"121.49284","lat":"31.20545","category":"117","category_name":"便民商店/便利店","address":"卢湾区瞿溪路1135号(打浦路瞿溪路)"},{"poiid":"B2094655D26FA4F44598","title":"海洲国际华园(南门)","lon":"121.49311","lat":"31.20927","category":"656","category_name":"大门","address":"国货路333弄1-12号"},{"poiid":"B2094655D268A3FF439E","title":"车中小区","lon":"121.494","lat":"31.206507","category":"47","category_name":"住宅区","address":"瞿溪路115号"},{"poiid":"B2094757D16EA3FA479F","title":"市民新村","lon":"121.49191","lat":"31.204086","category":"47","category_name":"住宅区","address":"中山南路1758号"},{"poiid":"B2094655D26EA7F5489A","title":"好德(南车站路)","lon":"121.49378","lat":"31.20472","category":"117","category_name":"便民商店/便利店","address":"中山南路1700号"},{"poiid":"B2094655D268A6FF489B","title":"上海大同中学教师楼(北门)","lon":"121.49348","lat":"31.20823","category":"47","category_name":"住宅区","address":""},{"poiid":"B2094654DA68A2FF489A","title":"半淞园派出所","lon":"121.49019","lat":"31.20538","category":"609","category_name":"警察局","address":"保屯路80号"},{"poiid":"B2094654DB6BABF8429A","title":"好德(国货路)","lon":"121.49294","lat":"31.20925","category":"117","category_name":"便民商店/便利店","address":"国货路337"},{"poiid":"B2094655D26AA4FA4193","title":"集集小镇 保屯路店 Jijitown","lon":"121.489645054","lat":"31.207962793","category":"68","category_name":"快餐厅","address":"黄浦区保屯路26号(车站支路口)"},{"poiid":"B2094757D66FA2F94393","title":"继光香香鸡","lon":"121.490531738","lat":"31.2073128119","category":"247","category_name":"餐饮美食","address":"上海长宁路770-1号"},{"poiid":"B2094654DA68A2FF449E","title":"光明乳业徽宁配送站","lon":"121.49037","lat":"31.20616","category":"117","category_name":"便民商店/便利店","address":"保屯路139号"}]