[{"poiid":"B2094757D06FA7F9419F","title":"毛胡子牛羊馆","lon":"121.3995","lat":"31.24469","category":"68","category_name":"快餐厅","address":"普陀区武宁路2132号(近杨柳青路)"},{"poiid":"B2094757D068A5F8409C","title":"大渡河路梅川路","lon":"121.39655","lat":"31.239981","category":"260","category_name":"其他","address":"上海大渡河路梅川路"},{"poiid":"B2094757D06EABF54898","title":"武宁路大渡河路","lon":"121.396488","lat":"31.246277","category":"38","category_name":"公交车站","address":"上海武宁路大渡河路"},{"poiid":"B2094757D06FA4FF439A","title":"乐天玛特(武宁路店)","lon":"121.398511","lat":"31.243815","category":"118","category_name":"超级市场","address":"普陀区武宁路768号(近杨柳青路)"},{"poiid":"B2094654D56BA4FD479F","title":"海上名庭","lon":"121.39221","lat":"31.243805","category":"47","category_name":"住宅区","address":"梅岭北路1258弄1-99号"},{"poiid":"B2094757D068A6FD439E","title":"芝巷小区","lon":"121.39387","lat":"31.237099","category":"47","category_name":"住宅区","address":"上海普陀区大渡河路怒江北路"},{"poiid":"B2094757D16EA7FB479A","title":"波黎露(百联中环店)","lon":"121.390805586","lat":"31.2436804942","category":"94","category_name":"西餐厅","address":"普陀区真光路1288号百联中环B区3楼(近梅川路)"},{"poiid":"B2094757D165A6FA4293","title":"长风公园海底世界","lon":"121.39705058","lat":"31.245754734","category":"196","category_name":"公园","address":"上海市普陀区北石路"},{"poiid":"B2094757D06FABF4479B","title":"红宝石(梅川路店)","lon":"121.39297","lat":"31.23968","category":"67","category_name":"甜品店","address":"普陀区梅川路866号(近中江路)"},{"poiid":"B2094757D06AA2FC449E","title":"金盟豪海鲜大酒楼","lon":"121.39387","lat":"31.24203","category":"75","category_name":"浙江菜","address":"普陀区中江路1277号(近梅川路)"},{"poiid":"B2094757D06FA7FF4292","title":"曹安路农贸市场","lon":"121.39717","lat":"31.24498","category":"500","category_name":"未知分类","address":"普陀区武宁路2255号(大渡河路武宁路)"},{"poiid":"B2094757D068ABFD449C","title":"肯德基 KFC (长征店)","lon":"121.398891","lat":"31.243681","category":"68","category_name":"快餐厅","address":"上海普陀区杨柳青路768号乐天玛特普陀店一层"},{"poiid":"B2094757D069A3F9449F","title":"金玉苑","lon":"121.390902","lat":"31.240216","category":"47","category_name":"住宅区","address":"上海市普陀区梅川路999弄"},{"poiid":"B2094757D16FA0F5439A","title":"曹杨商务大厦","lon":"121.398","lat":"31.2411","category":"46","category_name":"楼宇","address":"上海市普陀区中江路889号"},{"poiid":"B2094757D16AA1FF409F","title":"红星世贸大厦","lon":"121.39256181928","lat":"31.243826936363","category":"252","category_name":"楼宇机构","address":"上海怒江北路598号"},{"poiid":"B2094757D069AAFB4799","title":"怒江苑","lon":"121.39822","lat":"31.238371","category":"47","category_name":"住宅区","address":"上海市普陀区怒江路658弄"},{"poiid":"B2094757D06FA0FB459D","title":"时代超级购物中心","lon":"121.39966","lat":"31.24413","category":"119","category_name":"商场","address":"上海普陀区武宁路768号2-3楼(杨柳青路口)"},{"poiid":"B2094751D464A6FE449A","title":"上山下乡知青火锅","lon":"121.39691","lat":"31.24574","category":"86","category_name":"火锅店","address":"普陀区兰溪路201号第一酒市6楼(近武宁路)"},{"poiid":"B2094654D56BA3F94092","title":"上海申普宠物医院","lon":"121.39752","lat":"31.24627","category":"162","category_name":"医院","address":"普陀区大渡河路1545号(近武宁路)"},{"poiid":"B2094757D168A3F9499C","title":"巴黎贝甜(乐天玛特店)","lon":"121.397437486","lat":"31.245048521","category":"67","category_name":"甜品店","address":"普陀区杨柳青路768号乐天玛特超市1楼(近武宁路)"},{"poiid":"B2094757D06FA5FA4092","title":"桂巷新村","lon":"121.39995","lat":"31.238747","category":"47","category_name":"住宅区","address":"上海杨柳青路枣阳路"},{"poiid":"B2094757D069A7FE409C","title":"蒙自源云南过桥米线(武宁路店)","lon":"121.39968","lat":"31.24413","category":"68","category_name":"快餐厅","address":"普陀区武宁路768号乐天玛特购物中心1楼(近杨柳青路)"},{"poiid":"B2094757D069A5F8499E","title":"兰岭园","lon":"121.40025358","lat":"31.242192665","category":"47","category_name":"住宅区","address":"上海市普陀区兰溪路"},{"poiid":"B2094757D064A7FA439F","title":"鸿兴坊","lon":"121.39371508617","lat":"31.23959505396","category":"257","category_name":"中餐厅","address":"普陀区梅川路841号(近大渡河路)"},{"poiid":"B2094757D169A4F5499B","title":"梅川幼儿园","lon":"121.396292586","lat":"31.2413856493","category":"57","category_name":"幼儿园","address":"普陀区中江路1230弄64号(近梅川路)"},{"poiid":"B2094757DA64A4F9459A","title":"普陀医院","lon":"121.395283","lat":"31.243362","category":"162","category_name":"医院","address":"梅岭北路"},{"poiid":"B2094654D56BA4FF4998","title":"上海市梅川中学","lon":"121.39434","lat":"31.24187","category":"55","category_name":"中学","address":"普陀区中江路1280号(梅岭北路口)"},{"poiid":"B2094654D56BA4FF479E","title":"曹安市场肉类批发部","lon":"121.39555","lat":"31.24234","category":"117","category_name":"便民商店/便利店","address":""},{"poiid":"B2094757D065A7F8469B","title":"二号线静安寺地铁站","lon":"121.397664586","lat":"31.2450967219","category":"36","category_name":"地铁站","address":"上海轨道交通七号线换乘二号线"},{"poiid":"B2094654D56BA4FF4492","title":"爱侣宠物医院","lon":"121.39638","lat":"31.24206","category":"162","category_name":"医院","address":"大渡河路1438号"},{"poiid":"B2094654D56BA4FF449D","title":"上海曹安市场","lon":"121.39525","lat":"31.24309","category":"117","category_name":"便民商店/便利店","address":"武宁路2255"},{"poiid":"B2094655D26DA3FE4293","title":"真如镇社区卫生服务中心","lon":"121.39818","lat":"31.24679","category":"162","category_name":"医院","address":"上海普陀区大渡河路真如西村115号"},{"poiid":"B2094757D06BABF94292","title":"中环金沙江路","lon":"121.39714268","lat":"31.241753256","category":"500","category_name":"未知分类","address":"上海金沙江路中环路"},{"poiid":"B2094757D065AAFC4592","title":"普陀分局长征派出所","lon":"121.392971","lat":"31.24282","category":"609","category_name":"警察局","address":"上海梅岭北路1238号"},{"poiid":"B2094751D56DA2F84198","title":"红宝石(大渡河路店)","lon":"121.3971","lat":"31.24719","category":"67","category_name":"甜品店","address":"普陀区大渡河路1550弄(近武宁路)"},{"poiid":"B2094654D56BA3F9419B","title":"久良财富休闲广场","lon":"121.39762","lat":"31.24669","category":"201","category_name":"城市广场","address":"普陀区大渡河路1501号"},{"poiid":"B2094757D465ABFD449F","title":"上海游艇会餐厅","lon":"121.396248054","lat":"31.239361793","category":"72","category_name":"广东菜","address":"大渡河路160号上海游艇会2号楼近梅川路"},{"poiid":"B2094654D56BA4FF479C","title":"梅岭北路1101弄1-51号小区","lon":"121.39508","lat":"31.24133","category":"47","category_name":"住宅区","address":""},{"poiid":"B2094757D169A3FE4998","title":"李特行烧烤坊","lon":"121.39442858","lat":"31.24042263","category":"247","category_name":"餐饮美食","address":"上海市普陀区梅川路843号"},{"poiid":"B2094655D26DA7F8419A","title":"梅北小区(北门)","lon":"121.39788","lat":"31.2414","category":"47","category_name":"住宅区","address":"梅岭北路1001弄1-13号"},{"poiid":"B2094654D56BA4FC439F","title":"永琪美容美发(梅川路)","lon":"121.39121","lat":"31.2404","category":"148","category_name":"美容美发店","address":"梅川路858"},{"poiid":"B2094757D16DA2F5489A","title":"梅川路大饼摊","lon":"121.39296","lat":"31.23968","category":"68","category_name":"快餐厅","address":"普陀区梅川路913号(近大渡河路)"},{"poiid":"B2094757D66DABF44798","title":"镇江锅盖面","lon":"121.39346158","lat":"31.239292608","category":"68","category_name":"快餐厅","address":"普陀区梅川路907号(近中江路)"},{"poiid":"B2094655D26CABFA479A","title":"梅川新村二街坊(北门)","lon":"121.39231","lat":"31.24264","category":"47","category_name":"住宅区","address":"梅岭北路1251弄"},{"poiid":"B2094757D06AA3FB439B","title":"灵山梵宫","lon":"121.39418758","lat":"31.239859619","category":"246","category_name":"回教寺","address":"无锡灵山大佛"},{"poiid":"B2094757D064A1F44099","title":"超级鸡车(武宁店)","lon":"121.39957","lat":"31.24496","category":"68","category_name":"快餐厅","address":"普陀区武宁路2124号(近北石路)"},{"poiid":"B2094757D16AA1FE449B","title":"大渡河路","lon":"121.39415058","lat":"31.245613732","category":"500","category_name":"未知分类","address":"上海市普陀区大渡河路1550弄90支弄"},{"poiid":"B2094654DB69A5F54193","title":"大娘水饺(时代店)","lon":"121.39894","lat":"31.24453","category":"68","category_name":"快餐厅","address":"普陀区杨柳青路768号乐天马特超市1楼(近武宁路)"},{"poiid":"B2094655D26BA1FA449C","title":"梅川新村","lon":"121.39335","lat":"31.24067","category":"38","category_name":"公交车站","address":""},{"poiid":"B2094654D56BA4FF4799","title":"梅北小区","lon":"121.39758","lat":"31.241064","category":"47","category_name":"住宅区","address":"梅岭北路1001弄1-13号"},{"poiid":"B2094757D06FA7F9419F","title":"毛胡子牛羊馆","lon":"121.3995","lat":"31.24469","category":"68","category_name":"快餐厅","address":"普陀区武宁路2132号(近杨柳青路)"},{"poiid":"B2094757D068A5F8409C","title":"大渡河路梅川路","lon":"121.39655","lat":"31.239981","category":"260","category_name":"其他","address":"上海大渡河路梅川路"},{"poiid":"B2094757D06EABF54898","title":"武宁路大渡河路","lon":"121.396488","lat":"31.246277","category":"38","category_name":"公交车站","address":"上海武宁路大渡河路"},{"poiid":"B2094757D06FA4FF439A","title":"乐天玛特(武宁路店)","lon":"121.398511","lat":"31.243815","category":"118","category_name":"超级市场","address":"普陀区武宁路768号(近杨柳青路)"},{"poiid":"B2094654D56BA4FD479F","title":"海上名庭","lon":"121.39221","lat":"31.243805","category":"47","category_name":"住宅区","address":"梅岭北路1258弄1-99号"},{"poiid":"B2094757D068A6FD439E","title":"芝巷小区","lon":"121.39387","lat":"31.237099","category":"47","category_name":"住宅区","address":"上海普陀区大渡河路怒江北路"},{"poiid":"B2094757D16EA7FB479A","title":"波黎露(百联中环店)","lon":"121.390805586","lat":"31.2436804942","category":"94","category_name":"西餐厅","address":"普陀区真光路1288号百联中环B区3楼(近梅川路)"},{"poiid":"B2094757D165A6FA4293","title":"长风公园海底世界","lon":"121.39705058","lat":"31.245754734","category":"196","category_name":"公园","address":"上海市普陀区北石路"},{"poiid":"B2094757D06FABF4479B","title":"红宝石(梅川路店)","lon":"121.39297","lat":"31.23968","category":"67","category_name":"甜品店","address":"普陀区梅川路866号(近中江路)"},{"poiid":"B2094757D06AA2FC449E","title":"金盟豪海鲜大酒楼","lon":"121.39387","lat":"31.24203","category":"75","category_name":"浙江菜","address":"普陀区中江路1277号(近梅川路)"},{"poiid":"B2094757D06FA7FF4292","title":"曹安路农贸市场","lon":"121.39717","lat":"31.24498","category":"500","category_name":"未知分类","address":"普陀区武宁路2255号(大渡河路武宁路)"},{"poiid":"B2094757D068ABFD449C","title":"肯德基 KFC (长征店)","lon":"121.398891","lat":"31.243681","category":"68","category_name":"快餐厅","address":"上海普陀区杨柳青路768号乐天玛特普陀店一层"},{"poiid":"B2094757D069A3F9449F","title":"金玉苑","lon":"121.390902","lat":"31.240216","category":"47","category_name":"住宅区","address":"上海市普陀区梅川路999弄"},{"poiid":"B2094757D16FA0F5439A","title":"曹杨商务大厦","lon":"121.398","lat":"31.2411","category":"46","category_name":"楼宇","address":"上海市普陀区中江路889号"},{"poiid":"B2094757D16AA1FF409F","title":"红星世贸大厦","lon":"121.39256181928","lat":"31.243826936363","category":"252","category_name":"楼宇机构","address":"上海怒江北路598号"},{"poiid":"B2094757D069AAFB4799","title":"怒江苑","lon":"121.39822","lat":"31.238371","category":"47","category_name":"住宅区","address":"上海市普陀区怒江路658弄"},{"poiid":"B2094757D06FA0FB459D","title":"时代超级购物中心","lon":"121.39966","lat":"31.24413","category":"119","category_name":"商场","address":"上海普陀区武宁路768号2-3楼(杨柳青路口)"},{"poiid":"B2094751D464A6FE449A","title":"上山下乡知青火锅","lon":"121.39691","lat":"31.24574","category":"86","category_name":"火锅店","address":"普陀区兰溪路201号第一酒市6楼(近武宁路)"},{"poiid":"B2094654D56BA3F94092","title":"上海申普宠物医院","lon":"121.39752","lat":"31.24627","category":"162","category_name":"医院","address":"普陀区大渡河路1545号(近武宁路)"},{"poiid":"B2094757D168A3F9499C","title":"巴黎贝甜(乐天玛特店)","lon":"121.397437486","lat":"31.245048521","category":"67","category_name":"甜品店","address":"普陀区杨柳青路768号乐天玛特超市1楼(近武宁路)"},{"poiid":"B2094757D06FA5FA4092","title":"桂巷新村","lon":"121.39995","lat":"31.238747","category":"47","category_name":"住宅区","address":"上海杨柳青路枣阳路"},{"poiid":"B2094757D069A7FE409C","title":"蒙自源云南过桥米线(武宁路店)","lon":"121.39968","lat":"31.24413","category":"68","category_name":"快餐厅","address":"普陀区武宁路768号乐天玛特购物中心1楼(近杨柳青路)"},{"poiid":"B2094757D069A5F8499E","title":"兰岭园","lon":"121.40025358","lat":"31.242192665","category":"47","category_name":"住宅区","address":"上海市普陀区兰溪路"},{"poiid":"B2094757D064A7FA439F","title":"鸿兴坊","lon":"121.39371508617","lat":"31.23959505396","category":"257","category_name":"中餐厅","address":"普陀区梅川路841号(近大渡河路)"},{"poiid":"B2094757D169A4F5499B","title":"梅川幼儿园","lon":"121.396292586","lat":"31.2413856493","category":"57","category_name":"幼儿园","address":"普陀区中江路1230弄64号(近梅川路)"},{"poiid":"B2094757DA64A4F9459A","title":"普陀医院","lon":"121.395283","lat":"31.243362","category":"162","category_name":"医院","address":"梅岭北路"},{"poiid":"B2094654D56BA4FF4998","title":"上海市梅川中学","lon":"121.39434","lat":"31.24187","category":"55","category_name":"中学","address":"普陀区中江路1280号(梅岭北路口)"},{"poiid":"B2094654D56BA4FF479E","title":"曹安市场肉类批发部","lon":"121.39555","lat":"31.24234","category":"117","category_name":"便民商店/便利店","address":""},{"poiid":"B2094757D065A7F8469B","title":"二号线静安寺地铁站","lon":"121.397664586","lat":"31.2450967219","category":"36","category_name":"地铁站","address":"上海轨道交通七号线换乘二号线"},{"poiid":"B2094654D56BA4FF4492","title":"爱侣宠物医院","lon":"121.39638","lat":"31.24206","category":"162","category_name":"医院","address":"大渡河路1438号"},{"poiid":"B2094654D56BA4FF449D","title":"上海曹安市场","lon":"121.39525","lat":"31.24309","category":"117","category_name":"便民商店/便利店","address":"武宁路2255"},{"poiid":"B2094655D26DA3FE4293","title":"真如镇社区卫生服务中心","lon":"121.39818","lat":"31.24679","category":"162","category_name":"医院","address":"上海普陀区大渡河路真如西村115号"},{"poiid":"B2094757D06BABF94292","title":"中环金沙江路","lon":"121.39714268","lat":"31.241753256","category":"500","category_name":"未知分类","address":"上海金沙江路中环路"},{"poiid":"B2094757D065AAFC4592","title":"普陀分局长征派出所","lon":"121.392971","lat":"31.24282","category":"609","category_name":"警察局","address":"上海梅岭北路1238号"},{"poiid":"B2094751D56DA2F84198","title":"红宝石(大渡河路店)","lon":"121.3971","lat":"31.24719","category":"67","category_name":"甜品店","address":"普陀区大渡河路1550弄(近武宁路)"},{"poiid":"B2094654D56BA3F9419B","title":"久良财富休闲广场","lon":"121.39762","lat":"31.24669","category":"201","category_name":"城市广场","address":"普陀区大渡河路1501号"},{"poiid":"B2094757D465ABFD449F","title":"上海游艇会餐厅","lon":"121.396248054","lat":"31.239361793","category":"72","category_name":"广东菜","address":"大渡河路160号上海游艇会2号楼近梅川路"},{"poiid":"B2094654D56BA4FF479C","title":"梅岭北路1101弄1-51号小区","lon":"121.39508","lat":"31.24133","category":"47","category_name":"住宅区","address":""},{"poiid":"B2094757D169A3FE4998","title":"李特行烧烤坊","lon":"121.39442858","lat":"31.24042263","category":"247","category_name":"餐饮美食","address":"上海市普陀区梅川路843号"},{"poiid":"B2094655D26DA7F8419A","title":"梅北小区(北门)","lon":"121.39788","lat":"31.2414","category":"47","category_name":"住宅区","address":"梅岭北路1001弄1-13号"},{"poiid":"B2094654D56BA4FC439F","title":"永琪美容美发(梅川路)","lon":"121.39121","lat":"31.2404","category":"148","category_name":"美容美发店","address":"梅川路858"},{"poiid":"B2094757D16DA2F5489A","title":"梅川路大饼摊","lon":"121.39296","lat":"31.23968","category":"68","category_name":"快餐厅","address":"普陀区梅川路913号(近大渡河路)"},{"poiid":"B2094757D66DABF44798","title":"镇江锅盖面","lon":"121.39346158","lat":"31.239292608","category":"68","category_name":"快餐厅","address":"普陀区梅川路907号(近中江路)"},{"poiid":"B2094655D26CABFA479A","title":"梅川新村二街坊(北门)","lon":"121.39231","lat":"31.24264","category":"47","category_name":"住宅区","address":"梅岭北路1251弄"},{"poiid":"B2094757D06AA3FB439B","title":"灵山梵宫","lon":"121.39418758","lat":"31.239859619","category":"246","category_name":"回教寺","address":"无锡灵山大佛"},{"poiid":"B2094757D064A1F44099","title":"超级鸡车(武宁店)","lon":"121.39957","lat":"31.24496","category":"68","category_name":"快餐厅","address":"普陀区武宁路2124号(近北石路)"},{"poiid":"B2094757D16AA1FE449B","title":"大渡河路","lon":"121.39415058","lat":"31.245613732","category":"500","category_name":"未知分类","address":"上海市普陀区大渡河路1550弄90支弄"},{"poiid":"B2094654DB69A5F54193","title":"大娘水饺(时代店)","lon":"121.39894","lat":"31.24453","category":"68","category_name":"快餐厅","address":"普陀区杨柳青路768号乐天马特超市1楼(近武宁路)"},{"poiid":"B2094655D26BA1FA449C","title":"梅川新村","lon":"121.39335","lat":"31.24067","category":"38","category_name":"公交车站","address":""},{"poiid":"B2094654D56BA4FF4799","title":"梅北小区","lon":"121.39758","lat":"31.241064","category":"47","category_name":"住宅区","address":"梅岭北路1001弄1-13号"},{"poiid":"B2094757D06FA7F9419F","title":"毛胡子牛羊馆","lon":"121.3995","lat":"31.24469","category":"68","category_name":"快餐厅","address":"普陀区武宁路2132号(近杨柳青路)"},{"poiid":"B2094757D068A5F8409C","title":"大渡河路梅川路","lon":"121.39655","lat":"31.239981","category":"260","category_name":"其他","address":"上海大渡河路梅川路"},{"poiid":"B2094757D06EABF54898","title":"武宁路大渡河路","lon":"121.396488","lat":"31.246277","category":"38","category_name":"公交车站","address":"上海武宁路大渡河路"},{"poiid":"B2094757D06FA4FF439A","title":"乐天玛特(武宁路店)","lon":"121.398511","lat":"31.243815","category":"118","category_name":"超级市场","address":"普陀区武宁路768号(近杨柳青路)"},{"poiid":"B2094654D56BA4FD479F","title":"海上名庭","lon":"121.39221","lat":"31.243805","category":"47","category_name":"住宅区","address":"梅岭北路1258弄1-99号"},{"poiid":"B2094757D068A6FD439E","title":"芝巷小区","lon":"121.39387","lat":"31.237099","category":"47","category_name":"住宅区","address":"上海普陀区大渡河路怒江北路"},{"poiid":"B2094757D16EA7FB479A","title":"波黎露(百联中环店)","lon":"121.390805586","lat":"31.2436804942","category":"94","category_name":"西餐厅","address":"普陀区真光路1288号百联中环B区3楼(近梅川路)"},{"poiid":"B2094757D165A6FA4293","title":"长风公园海底世界","lon":"121.39705058","lat":"31.245754734","category":"196","category_name":"公园","address":"上海市普陀区北石路"},{"poiid":"B2094757D06FABF4479B","title":"红宝石(梅川路店)","lon":"121.39297","lat":"31.23968","category":"67","category_name":"甜品店","address":"普陀区梅川路866号(近中江路)"},{"poiid":"B2094757D06AA2FC449E","title":"金盟豪海鲜大酒楼","lon":"121.39387","lat":"31.24203","category":"75","category_name":"浙江菜","address":"普陀区中江路1277号(近梅川路)"},{"poiid":"B2094757D06FA7FF4292","title":"曹安路农贸市场","lon":"121.39717","lat":"31.24498","category":"500","category_name":"未知分类","address":"普陀区武宁路2255号(大渡河路武宁路)"},{"poiid":"B2094757D068ABFD449C","title":"肯德基 KFC (长征店)","lon":"121.398891","lat":"31.243681","category":"68","category_name":"快餐厅","address":"上海普陀区杨柳青路768号乐天玛特普陀店一层"},{"poiid":"B2094757D069A3F9449F","title":"金玉苑","lon":"121.390902","lat":"31.240216","category":"47","category_name":"住宅区","address":"上海市普陀区梅川路999弄"},{"poiid":"B2094757D16FA0F5439A","title":"曹杨商务大厦","lon":"121.398","lat":"31.2411","category":"46","category_name":"楼宇","address":"上海市普陀区中江路889号"},{"poiid":"B2094757D16AA1FF409F","title":"红星世贸大厦","lon":"121.39256181928","lat":"31.243826936363","category":"252","category_name":"楼宇机构","address":"上海怒江北路598号"},{"poiid":"B2094757D069AAFB4799","title":"怒江苑","lon":"121.39822","lat":"31.238371","category":"47","category_name":"住宅区","address":"上海市普陀区怒江路658弄"},{"poiid":"B2094757D06FA0FB459D","title":"时代超级购物中心","lon":"121.39966","lat":"31.24413","category":"119","category_name":"商场","address":"上海普陀区武宁路768号2-3楼(杨柳青路口)"},{"poiid":"B2094751D464A6FE449A","title":"上山下乡知青火锅","lon":"121.39691","lat":"31.24574","category":"86","category_name":"火锅店","address":"普陀区兰溪路201号第一酒市6楼(近武宁路)"},{"poiid":"B2094654D56BA3F94092","title":"上海申普宠物医院","lon":"121.39752","lat":"31.24627","category":"162","category_name":"医院","address":"普陀区大渡河路1545号(近武宁路)"},{"poiid":"B2094757D168A3F9499C","title":"巴黎贝甜(乐天玛特店)","lon":"121.397437486","lat":"31.245048521","category":"67","category_name":"甜品店","address":"普陀区杨柳青路768号乐天玛特超市1楼(近武宁路)"},{"poiid":"B2094757D06FA5FA4092","title":"桂巷新村","lon":"121.39995","lat":"31.238747","category":"47","category_name":"住宅区","address":"上海杨柳青路枣阳路"},{"poiid":"B2094757D069A7FE409C","title":"蒙自源云南过桥米线(武宁路店)","lon":"121.39968","lat":"31.24413","category":"68","category_name":"快餐厅","address":"普陀区武宁路768号乐天玛特购物中心1楼(近杨柳青路)"},{"poiid":"B2094757D069A5F8499E","title":"兰岭园","lon":"121.40025358","lat":"31.242192665","category":"47","category_name":"住宅区","address":"上海市普陀区兰溪路"},{"poiid":"B2094757D064A7FA439F","title":"鸿兴坊","lon":"121.39371508617","lat":"31.23959505396","category":"257","category_name":"中餐厅","address":"普陀区梅川路841号(近大渡河路)"},{"poiid":"B2094757D169A4F5499B","title":"梅川幼儿园","lon":"121.396292586","lat":"31.2413856493","category":"57","category_name":"幼儿园","address":"普陀区中江路1230弄64号(近梅川路)"},{"poiid":"B2094757DA64A4F9459A","title":"普陀医院","lon":"121.395283","lat":"31.243362","category":"162","category_name":"医院","address":"梅岭北路"},{"poiid":"B2094654D56BA4FF4998","title":"上海市梅川中学","lon":"121.39434","lat":"31.24187","category":"55","category_name":"中学","address":"普陀区中江路1280号(梅岭北路口)"},{"poiid":"B2094654D56BA4FF479E","title":"曹安市场肉类批发部","lon":"121.39555","lat":"31.24234","category":"117","category_name":"便民商店/便利店","address":""},{"poiid":"B2094757D065A7F8469B","title":"二号线静安寺地铁站","lon":"121.397664586","lat":"31.2450967219","category":"36","category_name":"地铁站","address":"上海轨道交通七号线换乘二号线"},{"poiid":"B2094654D56BA4FF4492","title":"爱侣宠物医院","lon":"121.39638","lat":"31.24206","category":"162","category_name":"医院","address":"大渡河路1438号"},{"poiid":"B2094654D56BA4FF449D","title":"上海曹安市场","lon":"121.39525","lat":"31.24309","category":"117","category_name":"便民商店/便利店","address":"武宁路2255"},{"poiid":"B2094655D26DA3FE4293","title":"真如镇社区卫生服务中心","lon":"121.39818","lat":"31.24679","category":"162","category_name":"医院","address":"上海普陀区大渡河路真如西村115号"},{"poiid":"B2094757D06BABF94292","title":"中环金沙江路","lon":"121.39714268","lat":"31.241753256","category":"500","category_name":"未知分类","address":"上海金沙江路中环路"},{"poiid":"B2094757D065AAFC4592","title":"普陀分局长征派出所","lon":"121.392971","lat":"31.24282","category":"609","category_name":"警察局","address":"上海梅岭北路1238号"},{"poiid":"B2094751D56DA2F84198","title":"红宝石(大渡河路店)","lon":"121.3971","lat":"31.24719","category":"67","category_name":"甜品店","address":"普陀区大渡河路1550弄(近武宁路)"},{"poiid":"B2094654D56BA3F9419B","title":"久良财富休闲广场","lon":"121.39762","lat":"31.24669","category":"201","category_name":"城市广场","address":"普陀区大渡河路1501号"},{"poiid":"B2094757D465ABFD449F","title":"上海游艇会餐厅","lon":"121.396248054","lat":"31.239361793","category":"72","category_name":"广东菜","address":"大渡河路160号上海游艇会2号楼近梅川路"},{"poiid":"B2094654D56BA4FF479C","title":"梅岭北路1101弄1-51号小区","lon":"121.39508","lat":"31.24133","category":"47","category_name":"住宅区","address":""},{"poiid":"B2094757D169A3FE4998","title":"李特行烧烤坊","lon":"121.39442858","lat":"31.24042263","category":"247","category_name":"餐饮美食","address":"上海市普陀区梅川路843号"},{"poiid":"B2094655D26DA7F8419A","title":"梅北小区(北门)","lon":"121.39788","lat":"31.2414","category":"47","category_name":"住宅区","address":"梅岭北路1001弄1-13号"},{"poiid":"B2094654D56BA4FC439F","title":"永琪美容美发(梅川路)","lon":"121.39121","lat":"31.2404","category":"148","category_name":"美容美发店","address":"梅川路858"},{"poiid":"B2094757D16DA2F5489A","title":"梅川路大饼摊","lon":"121.39296","lat":"31.23968","category":"68","category_name":"快餐厅","address":"普陀区梅川路913号(近大渡河路)"},{"poiid":"B2094757D66DABF44798","title":"镇江锅盖面","lon":"121.39346158","lat":"31.239292608","category":"68","category_name":"快餐厅","address":"普陀区梅川路907号(近中江路)"},{"poiid":"B2094655D26CABFA479A","title":"梅川新村二街坊(北门)","lon":"121.39231","lat":"31.24264","category":"47","category_name":"住宅区","address":"梅岭北路1251弄"},{"poiid":"B2094757D06AA3FB439B","title":"灵山梵宫","lon":"121.39418758","lat":"31.239859619","category":"246","category_name":"回教寺","address":"无锡灵山大佛"},{"poiid":"B2094757D064A1F44099","title":"超级鸡车(武宁店)","lon":"121.39957","lat":"31.24496","category":"68","category_name":"快餐厅","address":"普陀区武宁路2124号(近北石路)"},{"poiid":"B2094757D16AA1FE449B","title":"大渡河路","lon":"121.39415058","lat":"31.245613732","category":"500","category_name":"未知分类","address":"上海市普陀区大渡河路1550弄90支弄"},{"poiid":"B2094654DB69A5F54193","title":"大娘水饺(时代店)","lon":"121.39894","lat":"31.24453","category":"68","category_name":"快餐厅","address":"普陀区杨柳青路768号乐天马特超市1楼(近武宁路)"},{"poiid":"B2094655D26BA1FA449C","title":"梅川新村","lon":"121.39335","lat":"31.24067","category":"38","category_name":"公交车站","address":""},{"poiid":"B2094654D56BA4FF4799","title":"梅北小区","lon":"121.39758","lat":"31.241064","category":"47","category_name":"住宅区","address":"梅岭北路1001弄1-13号"},{"poiid":"B2094757D06FA7F9419F","title":"毛胡子牛羊馆","lon":"121.3995","lat":"31.24469","category":"68","category_name":"快餐厅","address":"普陀区武宁路2132号(近杨柳青路)"},{"poiid":"B2094757D068A5F8409C","title":"大渡河路梅川路","lon":"121.39655","lat":"31.239981","category":"260","category_name":"其他","address":"上海大渡河路梅川路"},{"poiid":"B2094757D06EABF54898","title":"武宁路大渡河路","lon":"121.396488","lat":"31.246277","category":"38","category_name":"公交车站","address":"上海武宁路大渡河路"},{"poiid":"B2094757D06FA4FF439A","title":"乐天玛特(武宁路店)","lon":"121.398511","lat":"31.243815","category":"118","category_name":"超级市场","address":"普陀区武宁路768号(近杨柳青路)"},{"poiid":"B2094654D56BA4FD479F","title":"海上名庭","lon":"121.39221","lat":"31.243805","category":"47","category_name":"住宅区","address":"梅岭北路1258弄1-99号"},{"poiid":"B2094757D068A6FD439E","title":"芝巷小区","lon":"121.39387","lat":"31.237099","category":"47","category_name":"住宅区","address":"上海普陀区大渡河路怒江北路"},{"poiid":"B2094757D16EA7FB479A","title":"波黎露(百联中环店)","lon":"121.390805586","lat":"31.2436804942","category":"94","category_name":"西餐厅","address":"普陀区真光路1288号百联中环B区3楼(近梅川路)"},{"poiid":"B2094757D165A6FA4293","title":"长风公园海底世界","lon":"121.39705058","lat":"31.245754734","category":"196","category_name":"公园","address":"上海市普陀区北石路"},{"poiid":"B2094757D06FABF4479B","title":"红宝石(梅川路店)","lon":"121.39297","lat":"31.23968","category":"67","category_name":"甜品店","address":"普陀区梅川路866号(近中江路)"},{"poiid":"B2094757D06AA2FC449E","title":"金盟豪海鲜大酒楼","lon":"121.39387","lat":"31.24203","category":"75","category_name":"浙江菜","address":"普陀区中江路1277号(近梅川路)"},{"poiid":"B2094757D06FA7FF4292","title":"曹安路农贸市场","lon":"121.39717","lat":"31.24498","category":"500","category_name":"未知分类","address":"普陀区武宁路2255号(大渡河路武宁路)"},{"poiid":"B2094757D068ABFD449C","title":"肯德基 KFC (长征店)","lon":"121.398891","lat":"31.243681","category":"68","category_name":"快餐厅","address":"上海普陀区杨柳青路768号乐天玛特普陀店一层"},{"poiid":"B2094757D069A3F9449F","title":"金玉苑","lon":"121.390902","lat":"31.240216","category":"47","category_name":"住宅区","address":"上海市普陀区梅川路999弄"},{"poiid":"B2094757D16FA0F5439A","title":"曹杨商务大厦","lon":"121.398","lat":"31.2411","category":"46","category_name":"楼宇","address":"上海市普陀区中江路889号"},{"poiid":"B2094757D16AA1FF409F","title":"红星世贸大厦","lon":"121.39256181928","lat":"31.243826936363","category":"252","category_name":"楼宇机构","address":"上海怒江北路598号"},{"poiid":"B2094757D069AAFB4799","title":"怒江苑","lon":"121.39822","lat":"31.238371","category":"47","category_name":"住宅区","address":"上海市普陀区怒江路658弄"},{"poiid":"B2094757D06FA0FB459D","title":"时代超级购物中心","lon":"121.39966","lat":"31.24413","category":"119","category_name":"商场","address":"上海普陀区武宁路768号2-3楼(杨柳青路口)"},{"poiid":"B2094751D464A6FE449A","title":"上山下乡知青火锅","lon":"121.39691","lat":"31.24574","category":"86","category_name":"火锅店","address":"普陀区兰溪路201号第一酒市6楼(近武宁路)"},{"poiid":"B2094654D56BA3F94092","title":"上海申普宠物医院","lon":"121.39752","lat":"31.24627","category":"162","category_name":"医院","address":"普陀区大渡河路1545号(近武宁路)"},{"poiid":"B2094757D168A3F9499C","title":"巴黎贝甜(乐天玛特店)","lon":"121.397437486","lat":"31.245048521","category":"67","category_name":"甜品店","address":"普陀区杨柳青路768号乐天玛特超市1楼(近武宁路)"},{"poiid":"B2094757D06FA5FA4092","title":"桂巷新村","lon":"121.39995","lat":"31.238747","category":"47","category_name":"住宅区","address":"上海杨柳青路枣阳路"},{"poiid":"B2094757D069A7FE409C","title":"蒙自源云南过桥米线(武宁路店)","lon":"121.39968","lat":"31.24413","category":"68","category_name":"快餐厅","address":"普陀区武宁路768号乐天玛特购物中心1楼(近杨柳青路)"},{"poiid":"B2094757D069A5F8499E","title":"兰岭园","lon":"121.40025358","lat":"31.242192665","category":"47","category_name":"住宅区","address":"上海市普陀区兰溪路"},{"poiid":"B2094757D064A7FA439F","title":"鸿兴坊","lon":"121.39371508617","lat":"31.23959505396","category":"257","category_name":"中餐厅","address":"普陀区梅川路841号(近大渡河路)"},{"poiid":"B2094757D169A4F5499B","title":"梅川幼儿园","lon":"121.396292586","lat":"31.2413856493","category":"57","category_name":"幼儿园","address":"普陀区中江路1230弄64号(近梅川路)"},{"poiid":"B2094757DA64A4F9459A","title":"普陀医院","lon":"121.395283","lat":"31.243362","category":"162","category_name":"医院","address":"梅岭北路"},{"poiid":"B2094654D56BA4FF4998","title":"上海市梅川中学","lon":"121.39434","lat":"31.24187","category":"55","category_name":"中学","address":"普陀区中江路1280号(梅岭北路口)"},{"poiid":"B2094654D56BA4FF479E","title":"曹安市场肉类批发部","lon":"121.39555","lat":"31.24234","category":"117","category_name":"便民商店/便利店","address":""},{"poiid":"B2094757D065A7F8469B","title":"二号线静安寺地铁站","lon":"121.397664586","lat":"31.2450967219","category":"36","category_name":"地铁站","address":"上海轨道交通七号线换乘二号线"},{"poiid":"B2094654D56BA4FF4492","title":"爱侣宠物医院","lon":"121.39638","lat":"31.24206","category":"162","category_name":"医院","address":"大渡河路1438号"},{"poiid":"B2094654D56BA4FF449D","title":"上海曹安市场","lon":"121.39525","lat":"31.24309","category":"117","category_name":"便民商店/便利店","address":"武宁路2255"},{"poiid":"B2094655D26DA3FE4293","title":"真如镇社区卫生服务中心","lon":"121.39818","lat":"31.24679","category":"162","category_name":"医院","address":"上海普陀区大渡河路真如西村115号"},{"poiid":"B2094757D06BABF94292","title":"中环金沙江路","lon":"121.39714268","lat":"31.241753256","category":"500","category_name":"未知分类","address":"上海金沙江路中环路"},{"poiid":"B2094757D065AAFC4592","title":"普陀分局长征派出所","lon":"121.392971","lat":"31.24282","category":"609","category_name":"警察局","address":"上海梅岭北路1238号"},{"poiid":"B2094751D56DA2F84198","title":"红宝石(大渡河路店)","lon":"121.3971","lat":"31.24719","category":"67","category_name":"甜品店","address":"普陀区大渡河路1550弄(近武宁路)"},{"poiid":"B2094654D56BA3F9419B","title":"久良财富休闲广场","lon":"121.39762","lat":"31.24669","category":"201","category_name":"城市广场","address":"普陀区大渡河路1501号"},{"poiid":"B2094757D465ABFD449F","title":"上海游艇会餐厅","lon":"121.396248054","lat":"31.239361793","category":"72","category_name":"广东菜","address":"大渡河路160号上海游艇会2号楼近梅川路"},{"poiid":"B2094654D56BA4FF479C","title":"梅岭北路1101弄1-51号小区","lon":"121.39508","lat":"31.24133","category":"47","category_name":"住宅区","address":""},{"poiid":"B2094757D169A3FE4998","title":"李特行烧烤坊","lon":"121.39442858","lat":"31.24042263","category":"247","category_name":"餐饮美食","address":"上海市普陀区梅川路843号"},{"poiid":"B2094655D26DA7F8419A","title":"梅北小区(北门)","lon":"121.39788","lat":"31.2414","category":"47","category_name":"住宅区","address":"梅岭北路1001弄1-13号"},{"poiid":"B2094654D56BA4FC439F","title":"永琪美容美发(梅川路)","lon":"121.39121","lat":"31.2404","category":"148","category_name":"美容美发店","address":"梅川路858"},{"poiid":"B2094757D16DA2F5489A","title":"梅川路大饼摊","lon":"121.39296","lat":"31.23968","category":"68","category_name":"快餐厅","address":"普陀区梅川路913号(近大渡河路)"},{"poiid":"B2094757D66DABF44798","title":"镇江锅盖面","lon":"121.39346158","lat":"31.239292608","category":"68","category_name":"快餐厅","address":"普陀区梅川路907号(近中江路)"},{"poiid":"B2094655D26CABFA479A","title":"梅川新村二街坊(北门)","lon":"121.39231","lat":"31.24264","category":"47","category_name":"住宅区","address":"梅岭北路1251弄"},{"poiid":"B2094757D06AA3FB439B","title":"灵山梵宫","lon":"121.39418758","lat":"31.239859619","category":"246","category_name":"回教寺","address":"无锡灵山大佛"},{"poiid":"B2094757D064A1F44099","title":"超级鸡车(武宁店)","lon":"121.39957","lat":"31.24496","category":"68","category_name":"快餐厅","address":"普陀区武宁路2124号(近北石路)"},{"poiid":"B2094757D16AA1FE449B","title":"大渡河路","lon":"121.39415058","lat":"31.245613732","category":"500","category_name":"未知分类","address":"上海市普陀区大渡河路1550弄90支弄"},{"poiid":"B2094654DB69A5F54193","title":"大娘水饺(时代店)","lon":"121.39894","lat":"31.24453","category":"68","category_name":"快餐厅","address":"普陀区杨柳青路768号乐天马特超市1楼(近武宁路)"},{"poiid":"B2094655D26BA1FA449C","title":"梅川新村","lon":"121.39335","lat":"31.24067","category":"38","category_name":"公交车站","address":""},{"poiid":"B2094654D56BA4FF4799","title":"梅北小区","lon":"121.39758","lat":"31.241064","category":"47","category_name":"住宅区","address":"梅岭北路1001弄1-13号"}]