[{"poiid":"B2094757D06EAAFF499E","title":"查餐厅(思南路店)","lon":"121.466037406","lat":"31.2186370109","category":"72","category_name":"广东菜","address":"卢湾区思南路30-4号(淮海中路南昌路间)"},{"poiid":"B2094655D26AAAFA449C","title":"上海歌城淮海中路店","lon":"121.46532","lat":"31.21974","category":"170","category_name":"KTV","address":"卢湾区淮海中路688号华狮购物中心内(近思南路)"},{"poiid":"B2094757D06EAAFC4893","title":"hoF(思南路店)","lon":"121.46590428","lat":"31.218748659","category":"260","category_name":"其他","address":"卢湾区思南路30-1号(近淮海中路)"},{"poiid":"B2094753D76FAAFA449C","title":"上海滩国泰旗舰店","lon":"121.466011","lat":"31.216125","category":"249","category_name":"购物服务","address":"淮海中路868号"},{"poiid":"B209475CD564A7F84292","title":"上海滩新天地店","lon":"121.47463","lat":"31.22164","category":"119","category_name":"商场","address":"\"太仓路181弄新天地北里15号\r\n\""},{"poiid":"B209475CD564A7F8439E","title":"上海滩中信泰富店","lon":"121.45602","lat":"31.22851","category":"119","category_name":"商场","address":"\"南京西路1168号中信泰富广场，店铺号221.\r\n\""},{"poiid":"B2094757D06EAAFB449E","title":"Brick","lon":"121.466325054","lat":"31.218668793","category":"94","category_name":"西餐厅","address":"卢湾区思南路30号(近淮海中路)"},{"poiid":"B2094757D465A3F8479C","title":"白木屋 淮海店","lon":"121.46436","lat":"31.21862","category":"247","category_name":"餐饮美食","address":"卢湾区淮海中路775号新华联大厦西楼6楼(近瑞金二路)"},{"poiid":"B2094757D06EAAFE489E","title":"麻辣诱惑(淮海中路店)","lon":"121.46677","lat":"31.21946","category":"71","category_name":"四川菜","address":"淮海中路627-635号雪豹商城4-6楼近思南路"},{"poiid":"B2094750DB6DA4F8499B","title":"Nike品牌体验店","lon":"121.46498963760382","lat":"31.219067199579417","category":"119","category_name":"商场","address":"卢湾区淮海中路717号(近思南路)"},{"poiid":"B2094757D66EA4FC4692","title":"上海歌城","lon":"121.46619473","lat":"31.219792077","category":"170","category_name":"KTV","address":"上海淮海路"},{"poiid":"B2094757D06EAAFE4899","title":"阿迪达斯魔方(品牌旗舰店)","lon":"121.465890042","lat":"31.2197844069","category":"140","category_name":"体育用品店","address":"卢湾区淮海中路691号(近思南路)"},{"poiid":"B2094757D065AAFB4999","title":"麦当劳","lon":"121.464319","lat":"31.218628","category":"68","category_name":"快餐厅","address":"卢湾区淮海中路755号新华联商厦B1楼(近瑞金二路)"},{"poiid":"B2094757D06FA1FA4593","title":"原庐餐厅","lon":"121.46624973","lat":"31.218654053","category":"260","category_name":"其他","address":"卢湾区思南路30号3楼(近淮海中路)"},{"poiid":"B2094757D069A2FF4999","title":"利苑酒家(淮海中路店)","lon":"121.464202","lat":"31.218259","category":"72","category_name":"广东菜","address":"淮海中路755号东方商厦淮海店(新华联大厦)6楼近瑞金二路"},{"poiid":"B2094655D269ABFB469D","title":"东方商厦淮海店","lon":"121.46442","lat":"31.21864","category":"247","category_name":"餐饮美食","address":"卢湾区淮海中路755号新华联商厦内(近瑞金二路)"},{"poiid":"B2094750DA6EA1FD449E","title":"蜀公馆成都老火锅","lon":"121.465324","lat":"31.217531","category":"86","category_name":"火锅店","address":"卢湾区淮海中路776号锦江淮海大厦1楼(近瑞金一路)"},{"poiid":"B2094757D06BA3F8479E","title":"en Shanghai","lon":"121.466050985","lat":"31.218367954","category":"95","category_name":"日本料理","address":"卢湾区思南路30号南2楼(近南昌路)"},{"poiid":"B2094757D06EAAFA4992","title":"H&amp;M(淮海中路店)","lon":"121.4661","lat":"31.21939","category":"141","category_name":"服装鞋帽皮具店","address":"上海卢湾区淮海中路645-659号B1-3F(近思南路)"},{"poiid":"B2094757D068A4FF489F","title":"帕夏土耳其餐厅","lon":"121.46559","lat":"31.21756","category":"94","category_name":"西餐厅","address":"卢湾区南昌路262号(近瑞金二路)"},{"poiid":"B2094654D564A5F8489E","title":"华狮688广场","lon":"121.46528","lat":"31.21971","category":"119","category_name":"商场","address":"卢湾区淮海中路688号华狮购物中心内(近思南路)"},{"poiid":"B2094750DB6FA4F54399","title":"NIKE淮海路旗舰店","lon":"121.464332","lat":"31.218704","category":"249","category_name":"购物服务","address":null},{"poiid":"B2094750D665A3FA409B","title":"鼎中鼎澳门豆捞(淮海店)","lon":"121.465","lat":"31.2198","category":"86","category_name":"火锅店","address":"卢湾区淮海中路688号华狮购物中心B1楼(近思南路)"},{"poiid":"B2094757D06FA5F94599","title":"上海弄堂餐厅","lon":"121.4663","lat":"31.21856","category":"75","category_name":"浙江菜","address":"卢湾区思南路8号(近淮海中路)"},{"poiid":"B2094757D06FABFE479D","title":"神田烧肉(淮海店)","lon":"121.46357","lat":"31.21842","category":"269","category_name":"烧烤","address":"卢湾区淮海中路776号锦江淮海大厦2楼(近瑞金一路)"},{"poiid":"B2094757D46EABFA4092","title":"味千拉面 华狮广场店","lon":"121.464080054","lat":"31.218709793","category":"95","category_name":"日本料理","address":"卢湾区淮海中路688号华狮购物中心内(近思南路)"},{"poiid":"B2094655D26AA0FB4293","title":"ZARA华狮店","lon":"121.46532","lat":"31.21974","category":"247","category_name":"餐饮美食","address":"卢湾区淮海中路688号华狮购物中心1楼(近思南路)"},{"poiid":"B2094655D26AA2FB4598","title":"伊藤家瑞金店","lon":"121.46369","lat":"31.21796","category":"95","category_name":"日本料理","address":"卢湾区瑞金二路24号(近淮海中路)"},{"poiid":"B2094757D06FA0F8459A","title":"FIRDOWS restaurant","lon":"121.46603973","lat":"31.21849705","category":"94","category_name":"西餐厅","address":"卢湾区思南路30号南4楼(近淮海中路)"},{"poiid":"B2094757D06FA7F8419B","title":"长春食品商店(淮海路店)","lon":"121.46634","lat":"31.21909","category":"119","category_name":"商场","address":"卢湾区淮海中路615号(近思南路)"},{"poiid":"B209475CD769A2FC4899","title":"咖咖奥咖啡店（淮海店）","lon":"121.466003","lat":"31.2187","category":"500","category_name":"未知分类","address":"上海市 上海市思南路8号"},{"poiid":"B2094757D06FA0F44399","title":"UR (淮海路旗舰店)","lon":"121.46521759","lat":"31.219717025","category":"141","category_name":"服装鞋帽皮具店","address":"上海卢湾区淮海中路688号华狮广场1-2F"},{"poiid":"B2094757D165A4F94993","title":"玄香馆","lon":"121.466019738","lat":"31.2183720474","category":"247","category_name":"餐饮美食","address":"上海市卢湾区思南路30／32号南栋三楼"},{"poiid":"B2094654DB69A6F4479B","title":"吉野家  华狮广场店","lon":"121.4654","lat":"31.21974","category":"95","category_name":"日本料理","address":"卢湾区淮海中路688号华狮购物中心B1楼(近思南路)"},{"poiid":"B2094757D06FABFC4298","title":"食尚食屋 华狮店 YOI-TEKO","lon":"121.465295054","lat":"31.219463793","category":"95","category_name":"日本料理","address":"卢湾区淮海中路688号华狮购物中心B1楼04单元(近思南路)"},{"poiid":"B2094757D06FAAFD409C","title":"红宝石(瑞金二店)","lon":"121.46374","lat":"31.21908","category":"67","category_name":"甜品店","address":"卢湾区瑞金一路128号(近淮海中路)"},{"poiid":"B2094757D464AAFB4492","title":"丰裕生煎 瑞金一路店","lon":"121.463617054","lat":"31.219189793","category":"68","category_name":"快餐厅","address":"卢湾区瑞金一路142号旁(近淮海中路)"},{"poiid":"B2094757D464A7FC4499","title":"本杰比餐厅 淮海中路店 PUNJABI","lon":"121.466376","lat":"31.219755","category":"102","category_name":"印度风味","address":"卢湾区淮海中路627号5楼(近思南路)"},{"poiid":"B2094655D264A5FC499E","title":"阿面娘","lon":"121.46647","lat":"31.21768","category":"257","category_name":"中餐厅","address":"思南路36-1临"},{"poiid":"B2094750DA65A6F4449C","title":"上海歌城","lon":"121.46524","lat":"31.219623","category":"170","category_name":"KTV","address":"淮海路680号"},{"poiid":"B2094750D36FA3FE499D","title":"阿宝家海鲜烧烤","lon":"121.464195","lat":"31.217658","category":"68","category_name":"快餐厅","address":"卢湾区南昌路256号(近瑞金二路)"},{"poiid":"B209475CD76CA0F8459F","title":"优衣库上海旗舰店","lon":"121.465209","lat":"31.218311","category":"500","category_name":"未知分类","address":"上海市 淮海中路887号"},{"poiid":"B2094654DA6DABF4429E","title":"市气功研究所医疗门诊部","lon":"121.46537","lat":"31.21799","category":"162","category_name":"医院","address":"卢湾区南昌路220号(瑞金二路与思南路间)"},{"poiid":"B209475CDA64A1FE489C","title":"the cafe kacao","lon":"121.465904","lat":"31.219303","category":"500","category_name":"未知分类","address":"上海市 思南路18号"},{"poiid":"B2094750D768AAFE4592","title":"老大昌(瑞金二路店)","lon":"121.464","lat":"31.2176","category":"67","category_name":"甜品店","address":"卢湾区瑞金二路43号(近南昌路)"},{"poiid":"B2094757D465ABFC479C","title":"山林熟食 长春食品店","lon":"121.466429054","lat":"31.219775793","category":"68","category_name":"快餐厅","address":"卢湾区淮海中路617号长春食品商店内(近思南路)"},{"poiid":"B2094750D665A7F9499D","title":"快乐柠檬(华狮广场店)","lon":"121.466","lat":"31.2197","category":"113","category_name":"冷饮店","address":"卢湾区淮海中路688号华狮购物中心门前广场"},{"poiid":"B2094757D66EA6FA429C","title":"新华联","lon":"121.46542073","lat":"31.219096062","category":"500","category_name":"未知分类","address":"上海市淮海中路755至775号"},{"poiid":"B2094655D26FA2F44399","title":"星巴克咖啡(杉德公司)","lon":"121.46567","lat":"31.21984","category":"65","category_name":"咖啡厅","address":"卢湾区淮海中路688号"},{"poiid":"B2094752D064A1F44993","title":"极食","lon":"121.465766","lat":"31.218774","category":"247","category_name":"餐饮美食","address":"淮海中路K11"},{"poiid":"B2094757D06EAAFF499E","title":"查餐厅(思南路店)","lon":"121.466037406","lat":"31.2186370109","category":"72","category_name":"广东菜","address":"卢湾区思南路30-4号(淮海中路南昌路间)"},{"poiid":"B2094655D26AAAFA449C","title":"上海歌城淮海中路店","lon":"121.46532","lat":"31.21974","category":"170","category_name":"KTV","address":"卢湾区淮海中路688号华狮购物中心内(近思南路)"},{"poiid":"B2094757D06EAAFC4893","title":"hoF(思南路店)","lon":"121.46590428","lat":"31.218748659","category":"260","category_name":"其他","address":"卢湾区思南路30-1号(近淮海中路)"},{"poiid":"B2094753D76FAAFA449C","title":"上海滩国泰旗舰店","lon":"121.466011","lat":"31.216125","category":"249","category_name":"购物服务","address":"淮海中路868号"},{"poiid":"B209475CD564A7F84292","title":"上海滩新天地店","lon":"121.47463","lat":"31.22164","category":"119","category_name":"商场","address":"\"太仓路181弄新天地北里15号\r\n\""},{"poiid":"B209475CD564A7F8439E","title":"上海滩中信泰富店","lon":"121.45602","lat":"31.22851","category":"119","category_name":"商场","address":"\"南京西路1168号中信泰富广场，店铺号221.\r\n\""},{"poiid":"B2094757D06EAAFB449E","title":"Brick","lon":"121.466325054","lat":"31.218668793","category":"94","category_name":"西餐厅","address":"卢湾区思南路30号(近淮海中路)"},{"poiid":"B2094757D465A3F8479C","title":"白木屋 淮海店","lon":"121.46436","lat":"31.21862","category":"247","category_name":"餐饮美食","address":"卢湾区淮海中路775号新华联大厦西楼6楼(近瑞金二路)"},{"poiid":"B2094757D06EAAFE489E","title":"麻辣诱惑(淮海中路店)","lon":"121.46677","lat":"31.21946","category":"71","category_name":"四川菜","address":"淮海中路627-635号雪豹商城4-6楼近思南路"},{"poiid":"B2094750DB6DA4F8499B","title":"Nike品牌体验店","lon":"121.46498963760382","lat":"31.219067199579417","category":"119","category_name":"商场","address":"卢湾区淮海中路717号(近思南路)"},{"poiid":"B2094757D66EA4FC4692","title":"上海歌城","lon":"121.46619473","lat":"31.219792077","category":"170","category_name":"KTV","address":"上海淮海路"},{"poiid":"B2094757D06EAAFE4899","title":"阿迪达斯魔方(品牌旗舰店)","lon":"121.465890042","lat":"31.2197844069","category":"140","category_name":"体育用品店","address":"卢湾区淮海中路691号(近思南路)"},{"poiid":"B2094757D065AAFB4999","title":"麦当劳","lon":"121.464319","lat":"31.218628","category":"68","category_name":"快餐厅","address":"卢湾区淮海中路755号新华联商厦B1楼(近瑞金二路)"},{"poiid":"B2094757D06FA1FA4593","title":"原庐餐厅","lon":"121.46624973","lat":"31.218654053","category":"260","category_name":"其他","address":"卢湾区思南路30号3楼(近淮海中路)"},{"poiid":"B2094757D069A2FF4999","title":"利苑酒家(淮海中路店)","lon":"121.464202","lat":"31.218259","category":"72","category_name":"广东菜","address":"淮海中路755号东方商厦淮海店(新华联大厦)6楼近瑞金二路"},{"poiid":"B2094655D269ABFB469D","title":"东方商厦淮海店","lon":"121.46442","lat":"31.21864","category":"247","category_name":"餐饮美食","address":"卢湾区淮海中路755号新华联商厦内(近瑞金二路)"},{"poiid":"B2094750DA6EA1FD449E","title":"蜀公馆成都老火锅","lon":"121.465324","lat":"31.217531","category":"86","category_name":"火锅店","address":"卢湾区淮海中路776号锦江淮海大厦1楼(近瑞金一路)"},{"poiid":"B2094757D06BA3F8479E","title":"en Shanghai","lon":"121.466050985","lat":"31.218367954","category":"95","category_name":"日本料理","address":"卢湾区思南路30号南2楼(近南昌路)"},{"poiid":"B2094757D06EAAFA4992","title":"H&amp;M(淮海中路店)","lon":"121.4661","lat":"31.21939","category":"141","category_name":"服装鞋帽皮具店","address":"上海卢湾区淮海中路645-659号B1-3F(近思南路)"},{"poiid":"B2094757D068A4FF489F","title":"帕夏土耳其餐厅","lon":"121.46559","lat":"31.21756","category":"94","category_name":"西餐厅","address":"卢湾区南昌路262号(近瑞金二路)"},{"poiid":"B2094654D564A5F8489E","title":"华狮688广场","lon":"121.46528","lat":"31.21971","category":"119","category_name":"商场","address":"卢湾区淮海中路688号华狮购物中心内(近思南路)"},{"poiid":"B2094750DB6FA4F54399","title":"NIKE淮海路旗舰店","lon":"121.464332","lat":"31.218704","category":"249","category_name":"购物服务","address":null},{"poiid":"B2094750D665A3FA409B","title":"鼎中鼎澳门豆捞(淮海店)","lon":"121.465","lat":"31.2198","category":"86","category_name":"火锅店","address":"卢湾区淮海中路688号华狮购物中心B1楼(近思南路)"},{"poiid":"B2094757D06FA5F94599","title":"上海弄堂餐厅","lon":"121.4663","lat":"31.21856","category":"75","category_name":"浙江菜","address":"卢湾区思南路8号(近淮海中路)"},{"poiid":"B2094757D06FABFE479D","title":"神田烧肉(淮海店)","lon":"121.46357","lat":"31.21842","category":"269","category_name":"烧烤","address":"卢湾区淮海中路776号锦江淮海大厦2楼(近瑞金一路)"},{"poiid":"B2094757D46EABFA4092","title":"味千拉面 华狮广场店","lon":"121.464080054","lat":"31.218709793","category":"95","category_name":"日本料理","address":"卢湾区淮海中路688号华狮购物中心内(近思南路)"},{"poiid":"B2094655D26AA0FB4293","title":"ZARA华狮店","lon":"121.46532","lat":"31.21974","category":"247","category_name":"餐饮美食","address":"卢湾区淮海中路688号华狮购物中心1楼(近思南路)"},{"poiid":"B2094655D26AA2FB4598","title":"伊藤家瑞金店","lon":"121.46369","lat":"31.21796","category":"95","category_name":"日本料理","address":"卢湾区瑞金二路24号(近淮海中路)"},{"poiid":"B2094757D06FA0F8459A","title":"FIRDOWS restaurant","lon":"121.46603973","lat":"31.21849705","category":"94","category_name":"西餐厅","address":"卢湾区思南路30号南4楼(近淮海中路)"},{"poiid":"B2094757D06FA7F8419B","title":"长春食品商店(淮海路店)","lon":"121.46634","lat":"31.21909","category":"119","category_name":"商场","address":"卢湾区淮海中路615号(近思南路)"},{"poiid":"B209475CD769A2FC4899","title":"咖咖奥咖啡店（淮海店）","lon":"121.466003","lat":"31.2187","category":"500","category_name":"未知分类","address":"上海市 上海市思南路8号"},{"poiid":"B2094757D06FA0F44399","title":"UR (淮海路旗舰店)","lon":"121.46521759","lat":"31.219717025","category":"141","category_name":"服装鞋帽皮具店","address":"上海卢湾区淮海中路688号华狮广场1-2F"},{"poiid":"B2094757D165A4F94993","title":"玄香馆","lon":"121.466019738","lat":"31.2183720474","category":"247","category_name":"餐饮美食","address":"上海市卢湾区思南路30／32号南栋三楼"},{"poiid":"B2094654DB69A6F4479B","title":"吉野家  华狮广场店","lon":"121.4654","lat":"31.21974","category":"95","category_name":"日本料理","address":"卢湾区淮海中路688号华狮购物中心B1楼(近思南路)"},{"poiid":"B2094757D06FABFC4298","title":"食尚食屋 华狮店 YOI-TEKO","lon":"121.465295054","lat":"31.219463793","category":"95","category_name":"日本料理","address":"卢湾区淮海中路688号华狮购物中心B1楼04单元(近思南路)"},{"poiid":"B2094757D06FAAFD409C","title":"红宝石(瑞金二店)","lon":"121.46374","lat":"31.21908","category":"67","category_name":"甜品店","address":"卢湾区瑞金一路128号(近淮海中路)"},{"poiid":"B2094757D464AAFB4492","title":"丰裕生煎 瑞金一路店","lon":"121.463617054","lat":"31.219189793","category":"68","category_name":"快餐厅","address":"卢湾区瑞金一路142号旁(近淮海中路)"},{"poiid":"B2094757D464A7FC4499","title":"本杰比餐厅 淮海中路店 PUNJABI","lon":"121.466376","lat":"31.219755","category":"102","category_name":"印度风味","address":"卢湾区淮海中路627号5楼(近思南路)"},{"poiid":"B2094655D264A5FC499E","title":"阿面娘","lon":"121.46647","lat":"31.21768","category":"257","category_name":"中餐厅","address":"思南路36-1临"},{"poiid":"B2094750DA65A6F4449C","title":"上海歌城","lon":"121.46524","lat":"31.219623","category":"170","category_name":"KTV","address":"淮海路680号"},{"poiid":"B2094750D36FA3FE499D","title":"阿宝家海鲜烧烤","lon":"121.464195","lat":"31.217658","category":"68","category_name":"快餐厅","address":"卢湾区南昌路256号(近瑞金二路)"},{"poiid":"B209475CD76CA0F8459F","title":"优衣库上海旗舰店","lon":"121.465209","lat":"31.218311","category":"500","category_name":"未知分类","address":"上海市 淮海中路887号"},{"poiid":"B2094654DA6DABF4429E","title":"市气功研究所医疗门诊部","lon":"121.46537","lat":"31.21799","category":"162","category_name":"医院","address":"卢湾区南昌路220号(瑞金二路与思南路间)"},{"poiid":"B209475CDA64A1FE489C","title":"the cafe kacao","lon":"121.465904","lat":"31.219303","category":"500","category_name":"未知分类","address":"上海市 思南路18号"},{"poiid":"B2094750D768AAFE4592","title":"老大昌(瑞金二路店)","lon":"121.464","lat":"31.2176","category":"67","category_name":"甜品店","address":"卢湾区瑞金二路43号(近南昌路)"},{"poiid":"B2094757D465ABFC479C","title":"山林熟食 长春食品店","lon":"121.466429054","lat":"31.219775793","category":"68","category_name":"快餐厅","address":"卢湾区淮海中路617号长春食品商店内(近思南路)"},{"poiid":"B2094750D665A7F9499D","title":"快乐柠檬(华狮广场店)","lon":"121.466","lat":"31.2197","category":"113","category_name":"冷饮店","address":"卢湾区淮海中路688号华狮购物中心门前广场"},{"poiid":"B2094757D66EA6FA429C","title":"新华联","lon":"121.46542073","lat":"31.219096062","category":"500","category_name":"未知分类","address":"上海市淮海中路755至775号"},{"poiid":"B2094655D26FA2F44399","title":"星巴克咖啡(杉德公司)","lon":"121.46567","lat":"31.21984","category":"65","category_name":"咖啡厅","address":"卢湾区淮海中路688号"},{"poiid":"B2094752D064A1F44993","title":"极食","lon":"121.465766","lat":"31.218774","category":"247","category_name":"餐饮美食","address":"淮海中路K11"},{"poiid":"B2094757D06EAAFF499E","title":"查餐厅(思南路店)","lon":"121.466037406","lat":"31.2186370109","category":"72","category_name":"广东菜","address":"卢湾区思南路30-4号(淮海中路南昌路间)"},{"poiid":"B2094655D26AAAFA449C","title":"上海歌城淮海中路店","lon":"121.46532","lat":"31.21974","category":"170","category_name":"KTV","address":"卢湾区淮海中路688号华狮购物中心内(近思南路)"},{"poiid":"B2094757D06EAAFC4893","title":"hoF(思南路店)","lon":"121.46590428","lat":"31.218748659","category":"260","category_name":"其他","address":"卢湾区思南路30-1号(近淮海中路)"},{"poiid":"B2094753D76FAAFA449C","title":"上海滩国泰旗舰店","lon":"121.466011","lat":"31.216125","category":"249","category_name":"购物服务","address":"淮海中路868号"},{"poiid":"B209475CD564A7F84292","title":"上海滩新天地店","lon":"121.47463","lat":"31.22164","category":"119","category_name":"商场","address":"\"太仓路181弄新天地北里15号\r\n\""},{"poiid":"B209475CD564A7F8439E","title":"上海滩中信泰富店","lon":"121.45602","lat":"31.22851","category":"119","category_name":"商场","address":"\"南京西路1168号中信泰富广场，店铺号221.\r\n\""},{"poiid":"B2094757D06EAAFB449E","title":"Brick","lon":"121.466325054","lat":"31.218668793","category":"94","category_name":"西餐厅","address":"卢湾区思南路30号(近淮海中路)"},{"poiid":"B2094757D465A3F8479C","title":"白木屋 淮海店","lon":"121.46436","lat":"31.21862","category":"247","category_name":"餐饮美食","address":"卢湾区淮海中路775号新华联大厦西楼6楼(近瑞金二路)"},{"poiid":"B2094757D06EAAFE489E","title":"麻辣诱惑(淮海中路店)","lon":"121.46677","lat":"31.21946","category":"71","category_name":"四川菜","address":"淮海中路627-635号雪豹商城4-6楼近思南路"},{"poiid":"B2094750DB6DA4F8499B","title":"Nike品牌体验店","lon":"121.46498963760382","lat":"31.219067199579417","category":"119","category_name":"商场","address":"卢湾区淮海中路717号(近思南路)"},{"poiid":"B2094757D66EA4FC4692","title":"上海歌城","lon":"121.46619473","lat":"31.219792077","category":"170","category_name":"KTV","address":"上海淮海路"},{"poiid":"B2094757D06EAAFE4899","title":"阿迪达斯魔方(品牌旗舰店)","lon":"121.465890042","lat":"31.2197844069","category":"140","category_name":"体育用品店","address":"卢湾区淮海中路691号(近思南路)"},{"poiid":"B2094757D065AAFB4999","title":"麦当劳","lon":"121.464319","lat":"31.218628","category":"68","category_name":"快餐厅","address":"卢湾区淮海中路755号新华联商厦B1楼(近瑞金二路)"},{"poiid":"B2094757D06FA1FA4593","title":"原庐餐厅","lon":"121.46624973","lat":"31.218654053","category":"260","category_name":"其他","address":"卢湾区思南路30号3楼(近淮海中路)"},{"poiid":"B2094757D069A2FF4999","title":"利苑酒家(淮海中路店)","lon":"121.464202","lat":"31.218259","category":"72","category_name":"广东菜","address":"淮海中路755号东方商厦淮海店(新华联大厦)6楼近瑞金二路"},{"poiid":"B2094655D269ABFB469D","title":"东方商厦淮海店","lon":"121.46442","lat":"31.21864","category":"247","category_name":"餐饮美食","address":"卢湾区淮海中路755号新华联商厦内(近瑞金二路)"},{"poiid":"B2094750DA6EA1FD449E","title":"蜀公馆成都老火锅","lon":"121.465324","lat":"31.217531","category":"86","category_name":"火锅店","address":"卢湾区淮海中路776号锦江淮海大厦1楼(近瑞金一路)"},{"poiid":"B2094757D06BA3F8479E","title":"en Shanghai","lon":"121.466050985","lat":"31.218367954","category":"95","category_name":"日本料理","address":"卢湾区思南路30号南2楼(近南昌路)"},{"poiid":"B2094757D06EAAFA4992","title":"H&amp;M(淮海中路店)","lon":"121.4661","lat":"31.21939","category":"141","category_name":"服装鞋帽皮具店","address":"上海卢湾区淮海中路645-659号B1-3F(近思南路)"},{"poiid":"B2094757D068A4FF489F","title":"帕夏土耳其餐厅","lon":"121.46559","lat":"31.21756","category":"94","category_name":"西餐厅","address":"卢湾区南昌路262号(近瑞金二路)"},{"poiid":"B2094654D564A5F8489E","title":"华狮688广场","lon":"121.46528","lat":"31.21971","category":"119","category_name":"商场","address":"卢湾区淮海中路688号华狮购物中心内(近思南路)"},{"poiid":"B2094750DB6FA4F54399","title":"NIKE淮海路旗舰店","lon":"121.464332","lat":"31.218704","category":"249","category_name":"购物服务","address":null},{"poiid":"B2094750D665A3FA409B","title":"鼎中鼎澳门豆捞(淮海店)","lon":"121.465","lat":"31.2198","category":"86","category_name":"火锅店","address":"卢湾区淮海中路688号华狮购物中心B1楼(近思南路)"},{"poiid":"B2094757D06FA5F94599","title":"上海弄堂餐厅","lon":"121.4663","lat":"31.21856","category":"75","category_name":"浙江菜","address":"卢湾区思南路8号(近淮海中路)"},{"poiid":"B2094757D06FABFE479D","title":"神田烧肉(淮海店)","lon":"121.46357","lat":"31.21842","category":"269","category_name":"烧烤","address":"卢湾区淮海中路776号锦江淮海大厦2楼(近瑞金一路)"},{"poiid":"B2094757D46EABFA4092","title":"味千拉面 华狮广场店","lon":"121.464080054","lat":"31.218709793","category":"95","category_name":"日本料理","address":"卢湾区淮海中路688号华狮购物中心内(近思南路)"},{"poiid":"B2094655D26AA0FB4293","title":"ZARA华狮店","lon":"121.46532","lat":"31.21974","category":"247","category_name":"餐饮美食","address":"卢湾区淮海中路688号华狮购物中心1楼(近思南路)"},{"poiid":"B2094655D26AA2FB4598","title":"伊藤家瑞金店","lon":"121.46369","lat":"31.21796","category":"95","category_name":"日本料理","address":"卢湾区瑞金二路24号(近淮海中路)"},{"poiid":"B2094757D06FA0F8459A","title":"FIRDOWS restaurant","lon":"121.46603973","lat":"31.21849705","category":"94","category_name":"西餐厅","address":"卢湾区思南路30号南4楼(近淮海中路)"},{"poiid":"B2094757D06FA7F8419B","title":"长春食品商店(淮海路店)","lon":"121.46634","lat":"31.21909","category":"119","category_name":"商场","address":"卢湾区淮海中路615号(近思南路)"},{"poiid":"B209475CD769A2FC4899","title":"咖咖奥咖啡店（淮海店）","lon":"121.466003","lat":"31.2187","category":"500","category_name":"未知分类","address":"上海市 上海市思南路8号"},{"poiid":"B2094757D06FA0F44399","title":"UR (淮海路旗舰店)","lon":"121.46521759","lat":"31.219717025","category":"141","category_name":"服装鞋帽皮具店","address":"上海卢湾区淮海中路688号华狮广场1-2F"},{"poiid":"B2094757D165A4F94993","title":"玄香馆","lon":"121.466019738","lat":"31.2183720474","category":"247","category_name":"餐饮美食","address":"上海市卢湾区思南路30／32号南栋三楼"},{"poiid":"B2094654DB69A6F4479B","title":"吉野家  华狮广场店","lon":"121.4654","lat":"31.21974","category":"95","category_name":"日本料理","address":"卢湾区淮海中路688号华狮购物中心B1楼(近思南路)"},{"poiid":"B2094757D06FABFC4298","title":"食尚食屋 华狮店 YOI-TEKO","lon":"121.465295054","lat":"31.219463793","category":"95","category_name":"日本料理","address":"卢湾区淮海中路688号华狮购物中心B1楼04单元(近思南路)"},{"poiid":"B2094757D06FAAFD409C","title":"红宝石(瑞金二店)","lon":"121.46374","lat":"31.21908","category":"67","category_name":"甜品店","address":"卢湾区瑞金一路128号(近淮海中路)"},{"poiid":"B2094757D464AAFB4492","title":"丰裕生煎 瑞金一路店","lon":"121.463617054","lat":"31.219189793","category":"68","category_name":"快餐厅","address":"卢湾区瑞金一路142号旁(近淮海中路)"},{"poiid":"B2094757D464A7FC4499","title":"本杰比餐厅 淮海中路店 PUNJABI","lon":"121.466376","lat":"31.219755","category":"102","category_name":"印度风味","address":"卢湾区淮海中路627号5楼(近思南路)"},{"poiid":"B2094655D264A5FC499E","title":"阿面娘","lon":"121.46647","lat":"31.21768","category":"257","category_name":"中餐厅","address":"思南路36-1临"},{"poiid":"B2094750DA65A6F4449C","title":"上海歌城","lon":"121.46524","lat":"31.219623","category":"170","category_name":"KTV","address":"淮海路680号"},{"poiid":"B2094750D36FA3FE499D","title":"阿宝家海鲜烧烤","lon":"121.464195","lat":"31.217658","category":"68","category_name":"快餐厅","address":"卢湾区南昌路256号(近瑞金二路)"},{"poiid":"B209475CD76CA0F8459F","title":"优衣库上海旗舰店","lon":"121.465209","lat":"31.218311","category":"500","category_name":"未知分类","address":"上海市 淮海中路887号"},{"poiid":"B2094654DA6DABF4429E","title":"市气功研究所医疗门诊部","lon":"121.46537","lat":"31.21799","category":"162","category_name":"医院","address":"卢湾区南昌路220号(瑞金二路与思南路间)"},{"poiid":"B209475CDA64A1FE489C","title":"the cafe kacao","lon":"121.465904","lat":"31.219303","category":"500","category_name":"未知分类","address":"上海市 思南路18号"},{"poiid":"B2094750D768AAFE4592","title":"老大昌(瑞金二路店)","lon":"121.464","lat":"31.2176","category":"67","category_name":"甜品店","address":"卢湾区瑞金二路43号(近南昌路)"},{"poiid":"B2094757D465ABFC479C","title":"山林熟食 长春食品店","lon":"121.466429054","lat":"31.219775793","category":"68","category_name":"快餐厅","address":"卢湾区淮海中路617号长春食品商店内(近思南路)"},{"poiid":"B2094750D665A7F9499D","title":"快乐柠檬(华狮广场店)","lon":"121.466","lat":"31.2197","category":"113","category_name":"冷饮店","address":"卢湾区淮海中路688号华狮购物中心门前广场"},{"poiid":"B2094757D66EA6FA429C","title":"新华联","lon":"121.46542073","lat":"31.219096062","category":"500","category_name":"未知分类","address":"上海市淮海中路755至775号"},{"poiid":"B2094655D26FA2F44399","title":"星巴克咖啡(杉德公司)","lon":"121.46567","lat":"31.21984","category":"65","category_name":"咖啡厅","address":"卢湾区淮海中路688号"},{"poiid":"B2094752D064A1F44993","title":"极食","lon":"121.465766","lat":"31.218774","category":"247","category_name":"餐饮美食","address":"淮海中路K11"},{"poiid":"B2094757D06EAAFF499E","title":"查餐厅(思南路店)","lon":"121.466037406","lat":"31.2186370109","category":"72","category_name":"广东菜","address":"卢湾区思南路30-4号(淮海中路南昌路间)"},{"poiid":"B2094655D26AAAFA449C","title":"上海歌城淮海中路店","lon":"121.46532","lat":"31.21974","category":"170","category_name":"KTV","address":"卢湾区淮海中路688号华狮购物中心内(近思南路)"},{"poiid":"B2094757D06EAAFC4893","title":"hoF(思南路店)","lon":"121.46590428","lat":"31.218748659","category":"260","category_name":"其他","address":"卢湾区思南路30-1号(近淮海中路)"},{"poiid":"B2094753D76FAAFA449C","title":"上海滩国泰旗舰店","lon":"121.466011","lat":"31.216125","category":"249","category_name":"购物服务","address":"淮海中路868号"},{"poiid":"B209475CD564A7F84292","title":"上海滩新天地店","lon":"121.47463","lat":"31.22164","category":"119","category_name":"商场","address":"\"太仓路181弄新天地北里15号\r\n\""},{"poiid":"B209475CD564A7F8439E","title":"上海滩中信泰富店","lon":"121.45602","lat":"31.22851","category":"119","category_name":"商场","address":"\"南京西路1168号中信泰富广场，店铺号221.\r\n\""},{"poiid":"B2094757D06EAAFB449E","title":"Brick","lon":"121.466325054","lat":"31.218668793","category":"94","category_name":"西餐厅","address":"卢湾区思南路30号(近淮海中路)"},{"poiid":"B2094757D465A3F8479C","title":"白木屋 淮海店","lon":"121.46436","lat":"31.21862","category":"247","category_name":"餐饮美食","address":"卢湾区淮海中路775号新华联大厦西楼6楼(近瑞金二路)"},{"poiid":"B2094757D06EAAFE489E","title":"麻辣诱惑(淮海中路店)","lon":"121.46677","lat":"31.21946","category":"71","category_name":"四川菜","address":"淮海中路627-635号雪豹商城4-6楼近思南路"},{"poiid":"B2094750DB6DA4F8499B","title":"Nike品牌体验店","lon":"121.46498963760382","lat":"31.219067199579417","category":"119","category_name":"商场","address":"卢湾区淮海中路717号(近思南路)"},{"poiid":"B2094757D66EA4FC4692","title":"上海歌城","lon":"121.46619473","lat":"31.219792077","category":"170","category_name":"KTV","address":"上海淮海路"},{"poiid":"B2094757D06EAAFE4899","title":"阿迪达斯魔方(品牌旗舰店)","lon":"121.465890042","lat":"31.2197844069","category":"140","category_name":"体育用品店","address":"卢湾区淮海中路691号(近思南路)"},{"poiid":"B2094757D065AAFB4999","title":"麦当劳","lon":"121.464319","lat":"31.218628","category":"68","category_name":"快餐厅","address":"卢湾区淮海中路755号新华联商厦B1楼(近瑞金二路)"},{"poiid":"B2094757D06FA1FA4593","title":"原庐餐厅","lon":"121.46624973","lat":"31.218654053","category":"260","category_name":"其他","address":"卢湾区思南路30号3楼(近淮海中路)"},{"poiid":"B2094757D069A2FF4999","title":"利苑酒家(淮海中路店)","lon":"121.464202","lat":"31.218259","category":"72","category_name":"广东菜","address":"淮海中路755号东方商厦淮海店(新华联大厦)6楼近瑞金二路"},{"poiid":"B2094655D269ABFB469D","title":"东方商厦淮海店","lon":"121.46442","lat":"31.21864","category":"247","category_name":"餐饮美食","address":"卢湾区淮海中路755号新华联商厦内(近瑞金二路)"},{"poiid":"B2094750DA6EA1FD449E","title":"蜀公馆成都老火锅","lon":"121.465324","lat":"31.217531","category":"86","category_name":"火锅店","address":"卢湾区淮海中路776号锦江淮海大厦1楼(近瑞金一路)"},{"poiid":"B2094757D06BA3F8479E","title":"en Shanghai","lon":"121.466050985","lat":"31.218367954","category":"95","category_name":"日本料理","address":"卢湾区思南路30号南2楼(近南昌路)"},{"poiid":"B2094757D06EAAFA4992","title":"H&amp;M(淮海中路店)","lon":"121.4661","lat":"31.21939","category":"141","category_name":"服装鞋帽皮具店","address":"上海卢湾区淮海中路645-659号B1-3F(近思南路)"},{"poiid":"B2094757D068A4FF489F","title":"帕夏土耳其餐厅","lon":"121.46559","lat":"31.21756","category":"94","category_name":"西餐厅","address":"卢湾区南昌路262号(近瑞金二路)"},{"poiid":"B2094654D564A5F8489E","title":"华狮688广场","lon":"121.46528","lat":"31.21971","category":"119","category_name":"商场","address":"卢湾区淮海中路688号华狮购物中心内(近思南路)"},{"poiid":"B2094750DB6FA4F54399","title":"NIKE淮海路旗舰店","lon":"121.464332","lat":"31.218704","category":"249","category_name":"购物服务","address":null},{"poiid":"B2094750D665A3FA409B","title":"鼎中鼎澳门豆捞(淮海店)","lon":"121.465","lat":"31.2198","category":"86","category_name":"火锅店","address":"卢湾区淮海中路688号华狮购物中心B1楼(近思南路)"},{"poiid":"B2094757D06FA5F94599","title":"上海弄堂餐厅","lon":"121.4663","lat":"31.21856","category":"75","category_name":"浙江菜","address":"卢湾区思南路8号(近淮海中路)"},{"poiid":"B2094757D06FABFE479D","title":"神田烧肉(淮海店)","lon":"121.46357","lat":"31.21842","category":"269","category_name":"烧烤","address":"卢湾区淮海中路776号锦江淮海大厦2楼(近瑞金一路)"},{"poiid":"B2094757D46EABFA4092","title":"味千拉面 华狮广场店","lon":"121.464080054","lat":"31.218709793","category":"95","category_name":"日本料理","address":"卢湾区淮海中路688号华狮购物中心内(近思南路)"},{"poiid":"B2094655D26AA0FB4293","title":"ZARA华狮店","lon":"121.46532","lat":"31.21974","category":"247","category_name":"餐饮美食","address":"卢湾区淮海中路688号华狮购物中心1楼(近思南路)"},{"poiid":"B2094655D26AA2FB4598","title":"伊藤家瑞金店","lon":"121.46369","lat":"31.21796","category":"95","category_name":"日本料理","address":"卢湾区瑞金二路24号(近淮海中路)"},{"poiid":"B2094757D06FA0F8459A","title":"FIRDOWS restaurant","lon":"121.46603973","lat":"31.21849705","category":"94","category_name":"西餐厅","address":"卢湾区思南路30号南4楼(近淮海中路)"},{"poiid":"B2094757D06FA7F8419B","title":"长春食品商店(淮海路店)","lon":"121.46634","lat":"31.21909","category":"119","category_name":"商场","address":"卢湾区淮海中路615号(近思南路)"},{"poiid":"B209475CD769A2FC4899","title":"咖咖奥咖啡店（淮海店）","lon":"121.466003","lat":"31.2187","category":"500","category_name":"未知分类","address":"上海市 上海市思南路8号"},{"poiid":"B2094757D06FA0F44399","title":"UR (淮海路旗舰店)","lon":"121.46521759","lat":"31.219717025","category":"141","category_name":"服装鞋帽皮具店","address":"上海卢湾区淮海中路688号华狮广场1-2F"},{"poiid":"B2094757D165A4F94993","title":"玄香馆","lon":"121.466019738","lat":"31.2183720474","category":"247","category_name":"餐饮美食","address":"上海市卢湾区思南路30／32号南栋三楼"},{"poiid":"B2094654DB69A6F4479B","title":"吉野家  华狮广场店","lon":"121.4654","lat":"31.21974","category":"95","category_name":"日本料理","address":"卢湾区淮海中路688号华狮购物中心B1楼(近思南路)"},{"poiid":"B2094757D06FABFC4298","title":"食尚食屋 华狮店 YOI-TEKO","lon":"121.465295054","lat":"31.219463793","category":"95","category_name":"日本料理","address":"卢湾区淮海中路688号华狮购物中心B1楼04单元(近思南路)"},{"poiid":"B2094757D06FAAFD409C","title":"红宝石(瑞金二店)","lon":"121.46374","lat":"31.21908","category":"67","category_name":"甜品店","address":"卢湾区瑞金一路128号(近淮海中路)"},{"poiid":"B2094757D464AAFB4492","title":"丰裕生煎 瑞金一路店","lon":"121.463617054","lat":"31.219189793","category":"68","category_name":"快餐厅","address":"卢湾区瑞金一路142号旁(近淮海中路)"},{"poiid":"B2094757D464A7FC4499","title":"本杰比餐厅 淮海中路店 PUNJABI","lon":"121.466376","lat":"31.219755","category":"102","category_name":"印度风味","address":"卢湾区淮海中路627号5楼(近思南路)"},{"poiid":"B2094655D264A5FC499E","title":"阿面娘","lon":"121.46647","lat":"31.21768","category":"257","category_name":"中餐厅","address":"思南路36-1临"},{"poiid":"B2094750DA65A6F4449C","title":"上海歌城","lon":"121.46524","lat":"31.219623","category":"170","category_name":"KTV","address":"淮海路680号"},{"poiid":"B2094750D36FA3FE499D","title":"阿宝家海鲜烧烤","lon":"121.464195","lat":"31.217658","category":"68","category_name":"快餐厅","address":"卢湾区南昌路256号(近瑞金二路)"},{"poiid":"B209475CD76CA0F8459F","title":"优衣库上海旗舰店","lon":"121.465209","lat":"31.218311","category":"500","category_name":"未知分类","address":"上海市 淮海中路887号"},{"poiid":"B2094654DA6DABF4429E","title":"市气功研究所医疗门诊部","lon":"121.46537","lat":"31.21799","category":"162","category_name":"医院","address":"卢湾区南昌路220号(瑞金二路与思南路间)"},{"poiid":"B209475CDA64A1FE489C","title":"the cafe kacao","lon":"121.465904","lat":"31.219303","category":"500","category_name":"未知分类","address":"上海市 思南路18号"},{"poiid":"B2094750D768AAFE4592","title":"老大昌(瑞金二路店)","lon":"121.464","lat":"31.2176","category":"67","category_name":"甜品店","address":"卢湾区瑞金二路43号(近南昌路)"},{"poiid":"B2094757D465ABFC479C","title":"山林熟食 长春食品店","lon":"121.466429054","lat":"31.219775793","category":"68","category_name":"快餐厅","address":"卢湾区淮海中路617号长春食品商店内(近思南路)"},{"poiid":"B2094750D665A7F9499D","title":"快乐柠檬(华狮广场店)","lon":"121.466","lat":"31.2197","category":"113","category_name":"冷饮店","address":"卢湾区淮海中路688号华狮购物中心门前广场"},{"poiid":"B2094757D66EA6FA429C","title":"新华联","lon":"121.46542073","lat":"31.219096062","category":"500","category_name":"未知分类","address":"上海市淮海中路755至775号"},{"poiid":"B2094655D26FA2F44399","title":"星巴克咖啡(杉德公司)","lon":"121.46567","lat":"31.21984","category":"65","category_name":"咖啡厅","address":"卢湾区淮海中路688号"},{"poiid":"B2094752D064A1F44993","title":"极食","lon":"121.465766","lat":"31.218774","category":"247","category_name":"餐饮美食","address":"淮海中路K11"},{"poiid":"B2094757D06EAAFF499E","title":"查餐厅(思南路店)","lon":"121.466037406","lat":"31.2186370109","category":"72","category_name":"广东菜","address":"卢湾区思南路30-4号(淮海中路南昌路间)"},{"poiid":"B2094655D26AAAFA449C","title":"上海歌城淮海中路店","lon":"121.46532","lat":"31.21974","category":"170","category_name":"KTV","address":"卢湾区淮海中路688号华狮购物中心内(近思南路)"},{"poiid":"B2094757D06EAAFC4893","title":"hoF(思南路店)","lon":"121.46590428","lat":"31.218748659","category":"260","category_name":"其他","address":"卢湾区思南路30-1号(近淮海中路)"},{"poiid":"B2094753D76FAAFA449C","title":"上海滩国泰旗舰店","lon":"121.466011","lat":"31.216125","category":"249","category_name":"购物服务","address":"淮海中路868号"},{"poiid":"B209475CD564A7F84292","title":"上海滩新天地店","lon":"121.47463","lat":"31.22164","category":"119","category_name":"商场","address":"\"太仓路181弄新天地北里15号\r\n\""},{"poiid":"B209475CD564A7F8439E","title":"上海滩中信泰富店","lon":"121.45602","lat":"31.22851","category":"119","category_name":"商场","address":"\"南京西路1168号中信泰富广场，店铺号221.\r\n\""},{"poiid":"B2094757D06EAAFB449E","title":"Brick","lon":"121.466325054","lat":"31.218668793","category":"94","category_name":"西餐厅","address":"卢湾区思南路30号(近淮海中路)"},{"poiid":"B2094757D465A3F8479C","title":"白木屋 淮海店","lon":"121.46436","lat":"31.21862","category":"247","category_name":"餐饮美食","address":"卢湾区淮海中路775号新华联大厦西楼6楼(近瑞金二路)"},{"poiid":"B2094757D06EAAFE489E","title":"麻辣诱惑(淮海中路店)","lon":"121.46677","lat":"31.21946","category":"71","category_name":"四川菜","address":"淮海中路627-635号雪豹商城4-6楼近思南路"},{"poiid":"B2094750DB6DA4F8499B","title":"Nike品牌体验店","lon":"121.46498963760382","lat":"31.219067199579417","category":"119","category_name":"商场","address":"卢湾区淮海中路717号(近思南路)"},{"poiid":"B2094757D66EA4FC4692","title":"上海歌城","lon":"121.46619473","lat":"31.219792077","category":"170","category_name":"KTV","address":"上海淮海路"},{"poiid":"B2094757D06EAAFE4899","title":"阿迪达斯魔方(品牌旗舰店)","lon":"121.465890042","lat":"31.2197844069","category":"140","category_name":"体育用品店","address":"卢湾区淮海中路691号(近思南路)"},{"poiid":"B2094757D065AAFB4999","title":"麦当劳","lon":"121.464319","lat":"31.218628","category":"68","category_name":"快餐厅","address":"卢湾区淮海中路755号新华联商厦B1楼(近瑞金二路)"},{"poiid":"B2094757D06FA1FA4593","title":"原庐餐厅","lon":"121.46624973","lat":"31.218654053","category":"260","category_name":"其他","address":"卢湾区思南路30号3楼(近淮海中路)"},{"poiid":"B2094757D069A2FF4999","title":"利苑酒家(淮海中路店)","lon":"121.464202","lat":"31.218259","category":"72","category_name":"广东菜","address":"淮海中路755号东方商厦淮海店(新华联大厦)6楼近瑞金二路"},{"poiid":"B2094655D269ABFB469D","title":"东方商厦淮海店","lon":"121.46442","lat":"31.21864","category":"247","category_name":"餐饮美食","address":"卢湾区淮海中路755号新华联商厦内(近瑞金二路)"},{"poiid":"B2094750DA6EA1FD449E","title":"蜀公馆成都老火锅","lon":"121.465324","lat":"31.217531","category":"86","category_name":"火锅店","address":"卢湾区淮海中路776号锦江淮海大厦1楼(近瑞金一路)"},{"poiid":"B2094757D06BA3F8479E","title":"en Shanghai","lon":"121.466050985","lat":"31.218367954","category":"95","category_name":"日本料理","address":"卢湾区思南路30号南2楼(近南昌路)"},{"poiid":"B2094757D06EAAFA4992","title":"H&amp;M(淮海中路店)","lon":"121.4661","lat":"31.21939","category":"141","category_name":"服装鞋帽皮具店","address":"上海卢湾区淮海中路645-659号B1-3F(近思南路)"},{"poiid":"B2094757D068A4FF489F","title":"帕夏土耳其餐厅","lon":"121.46559","lat":"31.21756","category":"94","category_name":"西餐厅","address":"卢湾区南昌路262号(近瑞金二路)"},{"poiid":"B2094654D564A5F8489E","title":"华狮688广场","lon":"121.46528","lat":"31.21971","category":"119","category_name":"商场","address":"卢湾区淮海中路688号华狮购物中心内(近思南路)"},{"poiid":"B2094750DB6FA4F54399","title":"NIKE淮海路旗舰店","lon":"121.464332","lat":"31.218704","category":"249","category_name":"购物服务","address":null},{"poiid":"B2094750D665A3FA409B","title":"鼎中鼎澳门豆捞(淮海店)","lon":"121.465","lat":"31.2198","category":"86","category_name":"火锅店","address":"卢湾区淮海中路688号华狮购物中心B1楼(近思南路)"},{"poiid":"B2094757D06FA5F94599","title":"上海弄堂餐厅","lon":"121.4663","lat":"31.21856","category":"75","category_name":"浙江菜","address":"卢湾区思南路8号(近淮海中路)"},{"poiid":"B2094757D06FABFE479D","title":"神田烧肉(淮海店)","lon":"121.46357","lat":"31.21842","category":"269","category_name":"烧烤","address":"卢湾区淮海中路776号锦江淮海大厦2楼(近瑞金一路)"},{"poiid":"B2094757D46EABFA4092","title":"味千拉面 华狮广场店","lon":"121.464080054","lat":"31.218709793","category":"95","category_name":"日本料理","address":"卢湾区淮海中路688号华狮购物中心内(近思南路)"},{"poiid":"B2094655D26AA0FB4293","title":"ZARA华狮店","lon":"121.46532","lat":"31.21974","category":"247","category_name":"餐饮美食","address":"卢湾区淮海中路688号华狮购物中心1楼(近思南路)"},{"poiid":"B2094655D26AA2FB4598","title":"伊藤家瑞金店","lon":"121.46369","lat":"31.21796","category":"95","category_name":"日本料理","address":"卢湾区瑞金二路24号(近淮海中路)"},{"poiid":"B2094757D06FA0F8459A","title":"FIRDOWS restaurant","lon":"121.46603973","lat":"31.21849705","category":"94","category_name":"西餐厅","address":"卢湾区思南路30号南4楼(近淮海中路)"},{"poiid":"B2094757D06FA7F8419B","title":"长春食品商店(淮海路店)","lon":"121.46634","lat":"31.21909","category":"119","category_name":"商场","address":"卢湾区淮海中路615号(近思南路)"},{"poiid":"B209475CD769A2FC4899","title":"咖咖奥咖啡店（淮海店）","lon":"121.466003","lat":"31.2187","category":"500","category_name":"未知分类","address":"上海市 上海市思南路8号"},{"poiid":"B2094757D06FA0F44399","title":"UR (淮海路旗舰店)","lon":"121.46521759","lat":"31.219717025","category":"141","category_name":"服装鞋帽皮具店","address":"上海卢湾区淮海中路688号华狮广场1-2F"},{"poiid":"B2094757D165A4F94993","title":"玄香馆","lon":"121.466019738","lat":"31.2183720474","category":"247","category_name":"餐饮美食","address":"上海市卢湾区思南路30／32号南栋三楼"},{"poiid":"B2094654DB69A6F4479B","title":"吉野家  华狮广场店","lon":"121.4654","lat":"31.21974","category":"95","category_name":"日本料理","address":"卢湾区淮海中路688号华狮购物中心B1楼(近思南路)"},{"poiid":"B2094757D06FABFC4298","title":"食尚食屋 华狮店 YOI-TEKO","lon":"121.465295054","lat":"31.219463793","category":"95","category_name":"日本料理","address":"卢湾区淮海中路688号华狮购物中心B1楼04单元(近思南路)"},{"poiid":"B2094757D06FAAFD409C","title":"红宝石(瑞金二店)","lon":"121.46374","lat":"31.21908","category":"67","category_name":"甜品店","address":"卢湾区瑞金一路128号(近淮海中路)"},{"poiid":"B2094757D464AAFB4492","title":"丰裕生煎 瑞金一路店","lon":"121.463617054","lat":"31.219189793","category":"68","category_name":"快餐厅","address":"卢湾区瑞金一路142号旁(近淮海中路)"},{"poiid":"B2094757D464A7FC4499","title":"本杰比餐厅 淮海中路店 PUNJABI","lon":"121.466376","lat":"31.219755","category":"102","category_name":"印度风味","address":"卢湾区淮海中路627号5楼(近思南路)"},{"poiid":"B2094655D264A5FC499E","title":"阿面娘","lon":"121.46647","lat":"31.21768","category":"257","category_name":"中餐厅","address":"思南路36-1临"},{"poiid":"B2094750DA65A6F4449C","title":"上海歌城","lon":"121.46524","lat":"31.219623","category":"170","category_name":"KTV","address":"淮海路680号"},{"poiid":"B2094750D36FA3FE499D","title":"阿宝家海鲜烧烤","lon":"121.464195","lat":"31.217658","category":"68","category_name":"快餐厅","address":"卢湾区南昌路256号(近瑞金二路)"},{"poiid":"B209475CD76CA0F8459F","title":"优衣库上海旗舰店","lon":"121.465209","lat":"31.218311","category":"500","category_name":"未知分类","address":"上海市 淮海中路887号"},{"poiid":"B2094654DA6DABF4429E","title":"市气功研究所医疗门诊部","lon":"121.46537","lat":"31.21799","category":"162","category_name":"医院","address":"卢湾区南昌路220号(瑞金二路与思南路间)"},{"poiid":"B209475CDA64A1FE489C","title":"the cafe kacao","lon":"121.465904","lat":"31.219303","category":"500","category_name":"未知分类","address":"上海市 思南路18号"},{"poiid":"B2094750D768AAFE4592","title":"老大昌(瑞金二路店)","lon":"121.464","lat":"31.2176","category":"67","category_name":"甜品店","address":"卢湾区瑞金二路43号(近南昌路)"},{"poiid":"B2094757D465ABFC479C","title":"山林熟食 长春食品店","lon":"121.466429054","lat":"31.219775793","category":"68","category_name":"快餐厅","address":"卢湾区淮海中路617号长春食品商店内(近思南路)"},{"poiid":"B2094750D665A7F9499D","title":"快乐柠檬(华狮广场店)","lon":"121.466","lat":"31.2197","category":"113","category_name":"冷饮店","address":"卢湾区淮海中路688号华狮购物中心门前广场"},{"poiid":"B2094757D66EA6FA429C","title":"新华联","lon":"121.46542073","lat":"31.219096062","category":"500","category_name":"未知分类","address":"上海市淮海中路755至775号"},{"poiid":"B2094655D26FA2F44399","title":"星巴克咖啡(杉德公司)","lon":"121.46567","lat":"31.21984","category":"65","category_name":"咖啡厅","address":"卢湾区淮海中路688号"},{"poiid":"B2094752D064A1F44993","title":"极食","lon":"121.465766","lat":"31.218774","category":"247","category_name":"餐饮美食","address":"淮海中路K11"}]