[{"poiid":"B2094655D26FA0FB449C","title":"共青国家森林公园","lon":"121.55085","lat":"31.32009","category":"240","category_name":"国家级景点","address":"军工路2000号"},{"poiid":"B2094757D068A0FD4693","title":"烧烤","lon":"121.545813","lat":"31.321156","category":"247","category_name":"餐饮美食","address":"上海共青森林公园"},{"poiid":"B2094750D768ABFF499C","title":"共青森林公园烧烤区","lon":"121.546","lat":"31.3206","category":"68","category_name":"快餐厅","address":"杨浦区军工路2000号共青森林公园内"},{"poiid":"B2094654DB65A6FE409E","title":"上海城市管理学院(一号路)","lon":"121.55381","lat":"31.32524","category":"52","category_name":"高等院校","address":"军工路2360"},{"poiid":"B2094757D068A4FE419D","title":"龙阳海鲜酒家","lon":"121.5551583","lat":"31.327923639","category":"88","category_name":"海鲜酒楼","address":"杨浦区军工路2600号水产批发市场内(近港水路)"},{"poiid":"B2094757D06FABFF4598","title":"蔚蓝海岸Studio(杨浦店)","lon":"121.5461873","lat":"31.3150192","category":"249","category_name":"购物服务","address":"上海杨浦区军工路1436号五维创业园内(近翔殷路)"},{"poiid":"B2094757D06FA1FD4799","title":"上海城市管理职业技术学院","lon":"121.54669","lat":"31.32383","category":"671","category_name":"高校中心点","address":"杨浦区军工路2360号(近森林公园)"},{"poiid":"B2094757D069ABFB4698","title":"邱波酒家","lon":"121.57414","lat":"31.32976","category":"76","category_name":"上海菜","address":"浦东新区浦东北路3066号(航津路口)"},{"poiid":"B2094757D065A4FA4593","title":"中石化上海高桥分公司炼油厂","lon":"121.565212539","lat":"31.3363142829","category":"500","category_name":"未知分类","address":"上海江心沙路1号"},{"poiid":"B2094757D469A1FC489E","title":"东方国际海鲜城","lon":"121.545044054","lat":"31.328603793","category":"88","category_name":"海鲜酒楼","address":"杨浦区军工路2855号(殷行路口)"},{"poiid":"B2094757D16CA4FD479E","title":"金帝大酒店","lon":"121.5819","lat":"31.33606","category":"76","category_name":"上海菜","address":"浦东新区高荷路457号(近高桥)"},{"poiid":"B2094654D568A2F4489A","title":"理工大学科技园","lon":"121.558","lat":"31.3153","category":"45","category_name":"产业园区","address":"翔殷路128号"},{"poiid":"B2094757D06AA6FE4693","title":"荷兰城大酒店","lon":"121.57688","lat":"31.33703","category":"76","category_name":"上海菜","address":"浦东新区高荷路397号(近和龙路)"},{"poiid":"B2094757D068A4F5449B","title":"东塘轮渡站","lon":"121.56574244","lat":"31.3165062","category":"35","category_name":"长途汽车站","address":"上海东塘路604号"},{"poiid":"B2094757D66EA4FC4298","title":"共青森林公园海盗船","lon":"121.5472672","lat":"31.320308965","category":"500","category_name":"未知分类","address":"上海军工路"},{"poiid":"B2094654DB6AA6FE429F","title":"共青森林度假村","lon":"121.54578","lat":"31.32221","category":"207","category_name":"度假疗养场所","address":"杨浦区军工路2180号"},{"poiid":"B2094655D36CA6FA469F","title":"东塘路马路桥","lon":"121.56729","lat":"31.32128","category":"38","category_name":"公交车站","address":""},{"poiid":"B2094757D169A1FC459D","title":"共青码头","lon":"121.56058933","lat":"31.325164526","category":"260","category_name":"其他","address":"上海军工路2400号 共青大道"},{"poiid":"B2094655D36CA6FD499E","title":"高沙滩","lon":"121.56842","lat":"31.32513","category":"38","category_name":"公交车站","address":""},{"poiid":"B2094757D069A1FF459E","title":"上海城市管理学院第一食堂","lon":"121.55423","lat":"31.32519","category":"68","category_name":"快餐厅","address":"杨浦区军工路2360号城市管理学院内(近森林公园)"},{"poiid":"B2094654D568A2FF499C","title":"嫩江路轮渡站","lon":"121.55838","lat":"31.31606","category":"34","category_name":"港口码头","address":"殷行"},{"poiid":"B2094655D26BA2F5489F","title":"浦东北路大同路","lon":"121.57228","lat":"31.33214","category":"38","category_name":"公交车站","address":""},{"poiid":"B2094654D568ABF9489B","title":"上海高桥石油化工公司热电事业部","lon":"121.56756","lat":"31.32164","category":"263","category_name":"公司","address":"东塘路691"},{"poiid":"B2094757D06AA7FE4492","title":"上海汽车商用车有限公司","lon":"121.5484938","lat":"31.326864672","category":"500","category_name":"未知分类","address":"上海军工路2500号"},{"poiid":"B2094654D568AAFC469B","title":"新鸿都市型工业园区","lon":"121.56678","lat":"31.31944","category":"45","category_name":"产业园区","address":""},{"poiid":"B2094757D665A1F94292","title":"荣锦记","lon":"121.54256","lat":"31.33215","category":"260","category_name":"其他","address":"杨浦区军工路2866号水产中心美食广场5-7号(近共青森林公园)"},{"poiid":"B2094757D568AAF8479A","title":"松涛瀑布","lon":"121.55495","lat":"31.324671","category":"607","category_name":"一般景点","address":"中国上海市杨浦区一号路"},{"poiid":"B2094655D36DA6FF449F","title":"东塘路","lon":"121.56585","lat":"31.31655","category":"38","category_name":"公交车站","address":""},{"poiid":"B2094654D568ABF94699","title":"高桥石油化工公司职工培训中心","lon":"121.56537","lat":"31.33082","category":"190","category_name":"培训机构","address":"大同路1480"},{"poiid":"B2094757D064A4FC479F","title":"外高桥保税区2号门","lon":"121.55746539","lat":"31.321606779","category":"500","category_name":"未知分类","address":"上海基隆路"},{"poiid":"B2094757D16FA3F94098","title":"浦东新区东塘路652号","lon":"121.566755","lat":"31.319324","category":"500","category_name":"未知分类","address":"上海东塘路652号"},{"poiid":"B2094654DB65A3F94199","title":"上海电视大学建设分校(一号路)","lon":"121.55381","lat":"31.32523","category":"52","category_name":"高等院校","address":"军工路2360"},{"poiid":"B2094757D16BAAFC409E","title":"上海市出入境管理局闸北分局","lon":"121.568107439","lat":"31.3324166931","category":"500","category_name":"未知分类","address":"上海天目中路578号"},{"poiid":"B2094654DB69A7F8429D","title":"上海港国际货运有限公司共青码头","lon":"121.5553","lat":"31.32986","category":"34","category_name":"港口码头","address":"杨浦区军工路"},{"poiid":"B2094654D568AAFC4699","title":"中交三航局工程船舶有限公司","lon":"121.56671","lat":"31.31915","category":"263","category_name":"公司","address":"东塘路652"},{"poiid":"B2094757D165A2FF4198","title":"上海城市管理职业技术学院图书馆","lon":"121.552574103","lat":"31.3261675882","category":"181","category_name":"图书馆","address":"上海市杨浦区军工路2360号 (近共青森林公园)"},{"poiid":"B2094655D26BA2F54892","title":"浦东北路航津路","lon":"121.574","lat":"31.3298","category":"38","category_name":"公交车站","address":""},{"poiid":"B2094654D568AAFF409F","title":"上海海辉国际集装箱修理有限公司","lon":"121.56894","lat":"31.32553","category":"263","category_name":"公司","address":"东塘路711号"},{"poiid":"B2094750D16AA2F4429F","title":"国家海洋局东海分局","lon":"121.566467","lat":"31.319548","category":"645","category_name":"机构及其他类公司","address":"浦东新区东塘路630号"},{"poiid":"B2094654D568A2FB409A","title":"东嫩线轮渡站","lon":"121.55821","lat":"31.31583","category":"34","category_name":"港口码头","address":""},{"poiid":"B2094654D568AAFC459E","title":"中国石化上海高桥石油化工公司新闻中心","lon":"121.56536","lat":"31.33081","category":"263","category_name":"公司","address":"大同路1480"},{"poiid":"B2094654D568ABF9469E","title":"中港三航浦东公司","lon":"121.56856","lat":"31.32816","category":"263","category_name":"公司","address":""},{"poiid":"B2094757D168A6FF439A","title":"上海市园林学校","lon":"121.553871","lat":"31.325032","category":"253","category_name":"校园生活","address":"上海杨浦区军工路2360号 (近森林公园)"},{"poiid":"B2094655D26BA1FE4499","title":"嫩江码头","lon":"121.55713","lat":"31.31586","category":"38","category_name":"公交车站","address":""},{"poiid":"B2094655D26AABF44099","title":"泓庄茶室","lon":"121.55085","lat":"31.32009","category":"66","category_name":"茶艺馆","address":"杨浦区军工路2000号共青森林公园内(近嫩江路)"},{"poiid":"B2094654D568ABF54799","title":"中国石油化工股份有限公司上海高桥分公司供应销售部","lon":"121.56902","lat":"31.3304","category":"255","category_name":"专卖店","address":""},{"poiid":"B2094654DB65A6FB489B","title":"万竹园","lon":"121.55342","lat":"31.31517","category":"196","category_name":"公园","address":"嫩江路"},{"poiid":"B2094757D06FA4FA4198","title":"天鹅泉公寓","lon":"121.57435","lat":"31.333406","category":"252","category_name":"楼宇机构","address":"高城路200弄"},{"poiid":"B2094757D16EABF4419F","title":"泰阁苑鱼翅酒楼","lon":"121.54672","lat":"31.32307","category":"72","category_name":"广东菜","address":"杨浦区军工路1978号(共青森林公园西大门)"},{"poiid":"B2094655D26FA0F4469C","title":"共青国家森林公园售票处(军工路)","lon":"121.54581","lat":"31.32116","category":"33","category_name":"公园景点售票处","address":""},{"poiid":"B2094655D26FA0FB449C","title":"共青国家森林公园","lon":"121.55085","lat":"31.32009","category":"240","category_name":"国家级景点","address":"军工路2000号"},{"poiid":"B2094757D068A0FD4693","title":"烧烤","lon":"121.545813","lat":"31.321156","category":"247","category_name":"餐饮美食","address":"上海共青森林公园"},{"poiid":"B2094750D768ABFF499C","title":"共青森林公园烧烤区","lon":"121.546","lat":"31.3206","category":"68","category_name":"快餐厅","address":"杨浦区军工路2000号共青森林公园内"},{"poiid":"B2094654DB65A6FE409E","title":"上海城市管理学院(一号路)","lon":"121.55381","lat":"31.32524","category":"52","category_name":"高等院校","address":"军工路2360"},{"poiid":"B2094757D068A4FE419D","title":"龙阳海鲜酒家","lon":"121.5551583","lat":"31.327923639","category":"88","category_name":"海鲜酒楼","address":"杨浦区军工路2600号水产批发市场内(近港水路)"},{"poiid":"B2094757D06FABFF4598","title":"蔚蓝海岸Studio(杨浦店)","lon":"121.5461873","lat":"31.3150192","category":"249","category_name":"购物服务","address":"上海杨浦区军工路1436号五维创业园内(近翔殷路)"},{"poiid":"B2094757D06FA1FD4799","title":"上海城市管理职业技术学院","lon":"121.54669","lat":"31.32383","category":"671","category_name":"高校中心点","address":"杨浦区军工路2360号(近森林公园)"},{"poiid":"B2094757D069ABFB4698","title":"邱波酒家","lon":"121.57414","lat":"31.32976","category":"76","category_name":"上海菜","address":"浦东新区浦东北路3066号(航津路口)"},{"poiid":"B2094757D065A4FA4593","title":"中石化上海高桥分公司炼油厂","lon":"121.565212539","lat":"31.3363142829","category":"500","category_name":"未知分类","address":"上海江心沙路1号"},{"poiid":"B2094757D469A1FC489E","title":"东方国际海鲜城","lon":"121.545044054","lat":"31.328603793","category":"88","category_name":"海鲜酒楼","address":"杨浦区军工路2855号(殷行路口)"},{"poiid":"B2094757D16CA4FD479E","title":"金帝大酒店","lon":"121.5819","lat":"31.33606","category":"76","category_name":"上海菜","address":"浦东新区高荷路457号(近高桥)"},{"poiid":"B2094654D568A2F4489A","title":"理工大学科技园","lon":"121.558","lat":"31.3153","category":"45","category_name":"产业园区","address":"翔殷路128号"},{"poiid":"B2094757D06AA6FE4693","title":"荷兰城大酒店","lon":"121.57688","lat":"31.33703","category":"76","category_name":"上海菜","address":"浦东新区高荷路397号(近和龙路)"},{"poiid":"B2094757D068A4F5449B","title":"东塘轮渡站","lon":"121.56574244","lat":"31.3165062","category":"35","category_name":"长途汽车站","address":"上海东塘路604号"},{"poiid":"B2094757D66EA4FC4298","title":"共青森林公园海盗船","lon":"121.5472672","lat":"31.320308965","category":"500","category_name":"未知分类","address":"上海军工路"},{"poiid":"B2094654DB6AA6FE429F","title":"共青森林度假村","lon":"121.54578","lat":"31.32221","category":"207","category_name":"度假疗养场所","address":"杨浦区军工路2180号"},{"poiid":"B2094655D36CA6FA469F","title":"东塘路马路桥","lon":"121.56729","lat":"31.32128","category":"38","category_name":"公交车站","address":""},{"poiid":"B2094757D169A1FC459D","title":"共青码头","lon":"121.56058933","lat":"31.325164526","category":"260","category_name":"其他","address":"上海军工路2400号 共青大道"},{"poiid":"B2094655D36CA6FD499E","title":"高沙滩","lon":"121.56842","lat":"31.32513","category":"38","category_name":"公交车站","address":""},{"poiid":"B2094757D069A1FF459E","title":"上海城市管理学院第一食堂","lon":"121.55423","lat":"31.32519","category":"68","category_name":"快餐厅","address":"杨浦区军工路2360号城市管理学院内(近森林公园)"},{"poiid":"B2094654D568A2FF499C","title":"嫩江路轮渡站","lon":"121.55838","lat":"31.31606","category":"34","category_name":"港口码头","address":"殷行"},{"poiid":"B2094655D26BA2F5489F","title":"浦东北路大同路","lon":"121.57228","lat":"31.33214","category":"38","category_name":"公交车站","address":""},{"poiid":"B2094654D568ABF9489B","title":"上海高桥石油化工公司热电事业部","lon":"121.56756","lat":"31.32164","category":"263","category_name":"公司","address":"东塘路691"},{"poiid":"B2094757D06AA7FE4492","title":"上海汽车商用车有限公司","lon":"121.5484938","lat":"31.326864672","category":"500","category_name":"未知分类","address":"上海军工路2500号"},{"poiid":"B2094654D568AAFC469B","title":"新鸿都市型工业园区","lon":"121.56678","lat":"31.31944","category":"45","category_name":"产业园区","address":""},{"poiid":"B2094757D665A1F94292","title":"荣锦记","lon":"121.54256","lat":"31.33215","category":"260","category_name":"其他","address":"杨浦区军工路2866号水产中心美食广场5-7号(近共青森林公园)"},{"poiid":"B2094757D568AAF8479A","title":"松涛瀑布","lon":"121.55495","lat":"31.324671","category":"607","category_name":"一般景点","address":"中国上海市杨浦区一号路"},{"poiid":"B2094655D36DA6FF449F","title":"东塘路","lon":"121.56585","lat":"31.31655","category":"38","category_name":"公交车站","address":""},{"poiid":"B2094654D568ABF94699","title":"高桥石油化工公司职工培训中心","lon":"121.56537","lat":"31.33082","category":"190","category_name":"培训机构","address":"大同路1480"},{"poiid":"B2094757D064A4FC479F","title":"外高桥保税区2号门","lon":"121.55746539","lat":"31.321606779","category":"500","category_name":"未知分类","address":"上海基隆路"},{"poiid":"B2094757D16FA3F94098","title":"浦东新区东塘路652号","lon":"121.566755","lat":"31.319324","category":"500","category_name":"未知分类","address":"上海东塘路652号"},{"poiid":"B2094654DB65A3F94199","title":"上海电视大学建设分校(一号路)","lon":"121.55381","lat":"31.32523","category":"52","category_name":"高等院校","address":"军工路2360"},{"poiid":"B2094757D16BAAFC409E","title":"上海市出入境管理局闸北分局","lon":"121.568107439","lat":"31.3324166931","category":"500","category_name":"未知分类","address":"上海天目中路578号"},{"poiid":"B2094654DB69A7F8429D","title":"上海港国际货运有限公司共青码头","lon":"121.5553","lat":"31.32986","category":"34","category_name":"港口码头","address":"杨浦区军工路"},{"poiid":"B2094654D568AAFC4699","title":"中交三航局工程船舶有限公司","lon":"121.56671","lat":"31.31915","category":"263","category_name":"公司","address":"东塘路652"},{"poiid":"B2094757D165A2FF4198","title":"上海城市管理职业技术学院图书馆","lon":"121.552574103","lat":"31.3261675882","category":"181","category_name":"图书馆","address":"上海市杨浦区军工路2360号 (近共青森林公园)"},{"poiid":"B2094655D26BA2F54892","title":"浦东北路航津路","lon":"121.574","lat":"31.3298","category":"38","category_name":"公交车站","address":""},{"poiid":"B2094654D568AAFF409F","title":"上海海辉国际集装箱修理有限公司","lon":"121.56894","lat":"31.32553","category":"263","category_name":"公司","address":"东塘路711号"},{"poiid":"B2094750D16AA2F4429F","title":"国家海洋局东海分局","lon":"121.566467","lat":"31.319548","category":"645","category_name":"机构及其他类公司","address":"浦东新区东塘路630号"},{"poiid":"B2094654D568A2FB409A","title":"东嫩线轮渡站","lon":"121.55821","lat":"31.31583","category":"34","category_name":"港口码头","address":""},{"poiid":"B2094654D568AAFC459E","title":"中国石化上海高桥石油化工公司新闻中心","lon":"121.56536","lat":"31.33081","category":"263","category_name":"公司","address":"大同路1480"},{"poiid":"B2094654D568ABF9469E","title":"中港三航浦东公司","lon":"121.56856","lat":"31.32816","category":"263","category_name":"公司","address":""},{"poiid":"B2094757D168A6FF439A","title":"上海市园林学校","lon":"121.553871","lat":"31.325032","category":"253","category_name":"校园生活","address":"上海杨浦区军工路2360号 (近森林公园)"},{"poiid":"B2094655D26BA1FE4499","title":"嫩江码头","lon":"121.55713","lat":"31.31586","category":"38","category_name":"公交车站","address":""},{"poiid":"B2094655D26AABF44099","title":"泓庄茶室","lon":"121.55085","lat":"31.32009","category":"66","category_name":"茶艺馆","address":"杨浦区军工路2000号共青森林公园内(近嫩江路)"},{"poiid":"B2094654D568ABF54799","title":"中国石油化工股份有限公司上海高桥分公司供应销售部","lon":"121.56902","lat":"31.3304","category":"255","category_name":"专卖店","address":""},{"poiid":"B2094654DB65A6FB489B","title":"万竹园","lon":"121.55342","lat":"31.31517","category":"196","category_name":"公园","address":"嫩江路"},{"poiid":"B2094757D06FA4FA4198","title":"天鹅泉公寓","lon":"121.57435","lat":"31.333406","category":"252","category_name":"楼宇机构","address":"高城路200弄"},{"poiid":"B2094757D16EABF4419F","title":"泰阁苑鱼翅酒楼","lon":"121.54672","lat":"31.32307","category":"72","category_name":"广东菜","address":"杨浦区军工路1978号(共青森林公园西大门)"},{"poiid":"B2094655D26FA0F4469C","title":"共青国家森林公园售票处(军工路)","lon":"121.54581","lat":"31.32116","category":"33","category_name":"公园景点售票处","address":""},{"poiid":"B2094655D26FA0FB449C","title":"共青国家森林公园","lon":"121.55085","lat":"31.32009","category":"240","category_name":"国家级景点","address":"军工路2000号"},{"poiid":"B2094757D068A0FD4693","title":"烧烤","lon":"121.545813","lat":"31.321156","category":"247","category_name":"餐饮美食","address":"上海共青森林公园"},{"poiid":"B2094750D768ABFF499C","title":"共青森林公园烧烤区","lon":"121.546","lat":"31.3206","category":"68","category_name":"快餐厅","address":"杨浦区军工路2000号共青森林公园内"},{"poiid":"B2094654DB65A6FE409E","title":"上海城市管理学院(一号路)","lon":"121.55381","lat":"31.32524","category":"52","category_name":"高等院校","address":"军工路2360"},{"poiid":"B2094757D068A4FE419D","title":"龙阳海鲜酒家","lon":"121.5551583","lat":"31.327923639","category":"88","category_name":"海鲜酒楼","address":"杨浦区军工路2600号水产批发市场内(近港水路)"},{"poiid":"B2094757D06FABFF4598","title":"蔚蓝海岸Studio(杨浦店)","lon":"121.5461873","lat":"31.3150192","category":"249","category_name":"购物服务","address":"上海杨浦区军工路1436号五维创业园内(近翔殷路)"},{"poiid":"B2094757D06FA1FD4799","title":"上海城市管理职业技术学院","lon":"121.54669","lat":"31.32383","category":"671","category_name":"高校中心点","address":"杨浦区军工路2360号(近森林公园)"},{"poiid":"B2094757D069ABFB4698","title":"邱波酒家","lon":"121.57414","lat":"31.32976","category":"76","category_name":"上海菜","address":"浦东新区浦东北路3066号(航津路口)"},{"poiid":"B2094757D065A4FA4593","title":"中石化上海高桥分公司炼油厂","lon":"121.565212539","lat":"31.3363142829","category":"500","category_name":"未知分类","address":"上海江心沙路1号"},{"poiid":"B2094757D469A1FC489E","title":"东方国际海鲜城","lon":"121.545044054","lat":"31.328603793","category":"88","category_name":"海鲜酒楼","address":"杨浦区军工路2855号(殷行路口)"},{"poiid":"B2094757D16CA4FD479E","title":"金帝大酒店","lon":"121.5819","lat":"31.33606","category":"76","category_name":"上海菜","address":"浦东新区高荷路457号(近高桥)"},{"poiid":"B2094654D568A2F4489A","title":"理工大学科技园","lon":"121.558","lat":"31.3153","category":"45","category_name":"产业园区","address":"翔殷路128号"},{"poiid":"B2094757D06AA6FE4693","title":"荷兰城大酒店","lon":"121.57688","lat":"31.33703","category":"76","category_name":"上海菜","address":"浦东新区高荷路397号(近和龙路)"},{"poiid":"B2094757D068A4F5449B","title":"东塘轮渡站","lon":"121.56574244","lat":"31.3165062","category":"35","category_name":"长途汽车站","address":"上海东塘路604号"},{"poiid":"B2094757D66EA4FC4298","title":"共青森林公园海盗船","lon":"121.5472672","lat":"31.320308965","category":"500","category_name":"未知分类","address":"上海军工路"},{"poiid":"B2094654DB6AA6FE429F","title":"共青森林度假村","lon":"121.54578","lat":"31.32221","category":"207","category_name":"度假疗养场所","address":"杨浦区军工路2180号"},{"poiid":"B2094655D36CA6FA469F","title":"东塘路马路桥","lon":"121.56729","lat":"31.32128","category":"38","category_name":"公交车站","address":""},{"poiid":"B2094757D169A1FC459D","title":"共青码头","lon":"121.56058933","lat":"31.325164526","category":"260","category_name":"其他","address":"上海军工路2400号 共青大道"},{"poiid":"B2094655D36CA6FD499E","title":"高沙滩","lon":"121.56842","lat":"31.32513","category":"38","category_name":"公交车站","address":""},{"poiid":"B2094757D069A1FF459E","title":"上海城市管理学院第一食堂","lon":"121.55423","lat":"31.32519","category":"68","category_name":"快餐厅","address":"杨浦区军工路2360号城市管理学院内(近森林公园)"},{"poiid":"B2094654D568A2FF499C","title":"嫩江路轮渡站","lon":"121.55838","lat":"31.31606","category":"34","category_name":"港口码头","address":"殷行"},{"poiid":"B2094655D26BA2F5489F","title":"浦东北路大同路","lon":"121.57228","lat":"31.33214","category":"38","category_name":"公交车站","address":""},{"poiid":"B2094654D568ABF9489B","title":"上海高桥石油化工公司热电事业部","lon":"121.56756","lat":"31.32164","category":"263","category_name":"公司","address":"东塘路691"},{"poiid":"B2094757D06AA7FE4492","title":"上海汽车商用车有限公司","lon":"121.5484938","lat":"31.326864672","category":"500","category_name":"未知分类","address":"上海军工路2500号"},{"poiid":"B2094654D568AAFC469B","title":"新鸿都市型工业园区","lon":"121.56678","lat":"31.31944","category":"45","category_name":"产业园区","address":""},{"poiid":"B2094757D665A1F94292","title":"荣锦记","lon":"121.54256","lat":"31.33215","category":"260","category_name":"其他","address":"杨浦区军工路2866号水产中心美食广场5-7号(近共青森林公园)"},{"poiid":"B2094757D568AAF8479A","title":"松涛瀑布","lon":"121.55495","lat":"31.324671","category":"607","category_name":"一般景点","address":"中国上海市杨浦区一号路"},{"poiid":"B2094655D36DA6FF449F","title":"东塘路","lon":"121.56585","lat":"31.31655","category":"38","category_name":"公交车站","address":""},{"poiid":"B2094654D568ABF94699","title":"高桥石油化工公司职工培训中心","lon":"121.56537","lat":"31.33082","category":"190","category_name":"培训机构","address":"大同路1480"},{"poiid":"B2094757D064A4FC479F","title":"外高桥保税区2号门","lon":"121.55746539","lat":"31.321606779","category":"500","category_name":"未知分类","address":"上海基隆路"},{"poiid":"B2094757D16FA3F94098","title":"浦东新区东塘路652号","lon":"121.566755","lat":"31.319324","category":"500","category_name":"未知分类","address":"上海东塘路652号"},{"poiid":"B2094654DB65A3F94199","title":"上海电视大学建设分校(一号路)","lon":"121.55381","lat":"31.32523","category":"52","category_name":"高等院校","address":"军工路2360"},{"poiid":"B2094757D16BAAFC409E","title":"上海市出入境管理局闸北分局","lon":"121.568107439","lat":"31.3324166931","category":"500","category_name":"未知分类","address":"上海天目中路578号"},{"poiid":"B2094654DB69A7F8429D","title":"上海港国际货运有限公司共青码头","lon":"121.5553","lat":"31.32986","category":"34","category_name":"港口码头","address":"杨浦区军工路"},{"poiid":"B2094654D568AAFC4699","title":"中交三航局工程船舶有限公司","lon":"121.56671","lat":"31.31915","category":"263","category_name":"公司","address":"东塘路652"},{"poiid":"B2094757D165A2FF4198","title":"上海城市管理职业技术学院图书馆","lon":"121.552574103","lat":"31.3261675882","category":"181","category_name":"图书馆","address":"上海市杨浦区军工路2360号 (近共青森林公园)"},{"poiid":"B2094655D26BA2F54892","title":"浦东北路航津路","lon":"121.574","lat":"31.3298","category":"38","category_name":"公交车站","address":""},{"poiid":"B2094654D568AAFF409F","title":"上海海辉国际集装箱修理有限公司","lon":"121.56894","lat":"31.32553","category":"263","category_name":"公司","address":"东塘路711号"},{"poiid":"B2094750D16AA2F4429F","title":"国家海洋局东海分局","lon":"121.566467","lat":"31.319548","category":"645","category_name":"机构及其他类公司","address":"浦东新区东塘路630号"},{"poiid":"B2094654D568A2FB409A","title":"东嫩线轮渡站","lon":"121.55821","lat":"31.31583","category":"34","category_name":"港口码头","address":""},{"poiid":"B2094654D568AAFC459E","title":"中国石化上海高桥石油化工公司新闻中心","lon":"121.56536","lat":"31.33081","category":"263","category_name":"公司","address":"大同路1480"},{"poiid":"B2094654D568ABF9469E","title":"中港三航浦东公司","lon":"121.56856","lat":"31.32816","category":"263","category_name":"公司","address":""},{"poiid":"B2094757D168A6FF439A","title":"上海市园林学校","lon":"121.553871","lat":"31.325032","category":"253","category_name":"校园生活","address":"上海杨浦区军工路2360号 (近森林公园)"},{"poiid":"B2094655D26BA1FE4499","title":"嫩江码头","lon":"121.55713","lat":"31.31586","category":"38","category_name":"公交车站","address":""},{"poiid":"B2094655D26AABF44099","title":"泓庄茶室","lon":"121.55085","lat":"31.32009","category":"66","category_name":"茶艺馆","address":"杨浦区军工路2000号共青森林公园内(近嫩江路)"},{"poiid":"B2094654D568ABF54799","title":"中国石油化工股份有限公司上海高桥分公司供应销售部","lon":"121.56902","lat":"31.3304","category":"255","category_name":"专卖店","address":""},{"poiid":"B2094654DB65A6FB489B","title":"万竹园","lon":"121.55342","lat":"31.31517","category":"196","category_name":"公园","address":"嫩江路"},{"poiid":"B2094757D06FA4FA4198","title":"天鹅泉公寓","lon":"121.57435","lat":"31.333406","category":"252","category_name":"楼宇机构","address":"高城路200弄"},{"poiid":"B2094757D16EABF4419F","title":"泰阁苑鱼翅酒楼","lon":"121.54672","lat":"31.32307","category":"72","category_name":"广东菜","address":"杨浦区军工路1978号(共青森林公园西大门)"},{"poiid":"B2094655D26FA0F4469C","title":"共青国家森林公园售票处(军工路)","lon":"121.54581","lat":"31.32116","category":"33","category_name":"公园景点售票处","address":""},{"poiid":"B2094655D26FA0FB449C","title":"共青国家森林公园","lon":"121.55085","lat":"31.32009","category":"240","category_name":"国家级景点","address":"军工路2000号"},{"poiid":"B2094757D068A0FD4693","title":"烧烤","lon":"121.545813","lat":"31.321156","category":"247","category_name":"餐饮美食","address":"上海共青森林公园"},{"poiid":"B2094750D768ABFF499C","title":"共青森林公园烧烤区","lon":"121.546","lat":"31.3206","category":"68","category_name":"快餐厅","address":"杨浦区军工路2000号共青森林公园内"},{"poiid":"B2094654DB65A6FE409E","title":"上海城市管理学院(一号路)","lon":"121.55381","lat":"31.32524","category":"52","category_name":"高等院校","address":"军工路2360"},{"poiid":"B2094757D068A4FE419D","title":"龙阳海鲜酒家","lon":"121.5551583","lat":"31.327923639","category":"88","category_name":"海鲜酒楼","address":"杨浦区军工路2600号水产批发市场内(近港水路)"},{"poiid":"B2094757D06FABFF4598","title":"蔚蓝海岸Studio(杨浦店)","lon":"121.5461873","lat":"31.3150192","category":"249","category_name":"购物服务","address":"上海杨浦区军工路1436号五维创业园内(近翔殷路)"},{"poiid":"B2094757D06FA1FD4799","title":"上海城市管理职业技术学院","lon":"121.54669","lat":"31.32383","category":"671","category_name":"高校中心点","address":"杨浦区军工路2360号(近森林公园)"},{"poiid":"B2094757D069ABFB4698","title":"邱波酒家","lon":"121.57414","lat":"31.32976","category":"76","category_name":"上海菜","address":"浦东新区浦东北路3066号(航津路口)"},{"poiid":"B2094757D065A4FA4593","title":"中石化上海高桥分公司炼油厂","lon":"121.565212539","lat":"31.3363142829","category":"500","category_name":"未知分类","address":"上海江心沙路1号"},{"poiid":"B2094757D469A1FC489E","title":"东方国际海鲜城","lon":"121.545044054","lat":"31.328603793","category":"88","category_name":"海鲜酒楼","address":"杨浦区军工路2855号(殷行路口)"},{"poiid":"B2094757D16CA4FD479E","title":"金帝大酒店","lon":"121.5819","lat":"31.33606","category":"76","category_name":"上海菜","address":"浦东新区高荷路457号(近高桥)"},{"poiid":"B2094654D568A2F4489A","title":"理工大学科技园","lon":"121.558","lat":"31.3153","category":"45","category_name":"产业园区","address":"翔殷路128号"},{"poiid":"B2094757D06AA6FE4693","title":"荷兰城大酒店","lon":"121.57688","lat":"31.33703","category":"76","category_name":"上海菜","address":"浦东新区高荷路397号(近和龙路)"},{"poiid":"B2094757D068A4F5449B","title":"东塘轮渡站","lon":"121.56574244","lat":"31.3165062","category":"35","category_name":"长途汽车站","address":"上海东塘路604号"},{"poiid":"B2094757D66EA4FC4298","title":"共青森林公园海盗船","lon":"121.5472672","lat":"31.320308965","category":"500","category_name":"未知分类","address":"上海军工路"},{"poiid":"B2094654DB6AA6FE429F","title":"共青森林度假村","lon":"121.54578","lat":"31.32221","category":"207","category_name":"度假疗养场所","address":"杨浦区军工路2180号"},{"poiid":"B2094655D36CA6FA469F","title":"东塘路马路桥","lon":"121.56729","lat":"31.32128","category":"38","category_name":"公交车站","address":""},{"poiid":"B2094757D169A1FC459D","title":"共青码头","lon":"121.56058933","lat":"31.325164526","category":"260","category_name":"其他","address":"上海军工路2400号 共青大道"},{"poiid":"B2094655D36CA6FD499E","title":"高沙滩","lon":"121.56842","lat":"31.32513","category":"38","category_name":"公交车站","address":""},{"poiid":"B2094757D069A1FF459E","title":"上海城市管理学院第一食堂","lon":"121.55423","lat":"31.32519","category":"68","category_name":"快餐厅","address":"杨浦区军工路2360号城市管理学院内(近森林公园)"},{"poiid":"B2094654D568A2FF499C","title":"嫩江路轮渡站","lon":"121.55838","lat":"31.31606","category":"34","category_name":"港口码头","address":"殷行"},{"poiid":"B2094655D26BA2F5489F","title":"浦东北路大同路","lon":"121.57228","lat":"31.33214","category":"38","category_name":"公交车站","address":""},{"poiid":"B2094654D568ABF9489B","title":"上海高桥石油化工公司热电事业部","lon":"121.56756","lat":"31.32164","category":"263","category_name":"公司","address":"东塘路691"},{"poiid":"B2094757D06AA7FE4492","title":"上海汽车商用车有限公司","lon":"121.5484938","lat":"31.326864672","category":"500","category_name":"未知分类","address":"上海军工路2500号"},{"poiid":"B2094654D568AAFC469B","title":"新鸿都市型工业园区","lon":"121.56678","lat":"31.31944","category":"45","category_name":"产业园区","address":""},{"poiid":"B2094757D665A1F94292","title":"荣锦记","lon":"121.54256","lat":"31.33215","category":"260","category_name":"其他","address":"杨浦区军工路2866号水产中心美食广场5-7号(近共青森林公园)"},{"poiid":"B2094757D568AAF8479A","title":"松涛瀑布","lon":"121.55495","lat":"31.324671","category":"607","category_name":"一般景点","address":"中国上海市杨浦区一号路"},{"poiid":"B2094655D36DA6FF449F","title":"东塘路","lon":"121.56585","lat":"31.31655","category":"38","category_name":"公交车站","address":""},{"poiid":"B2094654D568ABF94699","title":"高桥石油化工公司职工培训中心","lon":"121.56537","lat":"31.33082","category":"190","category_name":"培训机构","address":"大同路1480"},{"poiid":"B2094757D064A4FC479F","title":"外高桥保税区2号门","lon":"121.55746539","lat":"31.321606779","category":"500","category_name":"未知分类","address":"上海基隆路"},{"poiid":"B2094757D16FA3F94098","title":"浦东新区东塘路652号","lon":"121.566755","lat":"31.319324","category":"500","category_name":"未知分类","address":"上海东塘路652号"},{"poiid":"B2094654DB65A3F94199","title":"上海电视大学建设分校(一号路)","lon":"121.55381","lat":"31.32523","category":"52","category_name":"高等院校","address":"军工路2360"},{"poiid":"B2094757D16BAAFC409E","title":"上海市出入境管理局闸北分局","lon":"121.568107439","lat":"31.3324166931","category":"500","category_name":"未知分类","address":"上海天目中路578号"},{"poiid":"B2094654DB69A7F8429D","title":"上海港国际货运有限公司共青码头","lon":"121.5553","lat":"31.32986","category":"34","category_name":"港口码头","address":"杨浦区军工路"},{"poiid":"B2094654D568AAFC4699","title":"中交三航局工程船舶有限公司","lon":"121.56671","lat":"31.31915","category":"263","category_name":"公司","address":"东塘路652"},{"poiid":"B2094757D165A2FF4198","title":"上海城市管理职业技术学院图书馆","lon":"121.552574103","lat":"31.3261675882","category":"181","category_name":"图书馆","address":"上海市杨浦区军工路2360号 (近共青森林公园)"},{"poiid":"B2094655D26BA2F54892","title":"浦东北路航津路","lon":"121.574","lat":"31.3298","category":"38","category_name":"公交车站","address":""},{"poiid":"B2094654D568AAFF409F","title":"上海海辉国际集装箱修理有限公司","lon":"121.56894","lat":"31.32553","category":"263","category_name":"公司","address":"东塘路711号"},{"poiid":"B2094750D16AA2F4429F","title":"国家海洋局东海分局","lon":"121.566467","lat":"31.319548","category":"645","category_name":"机构及其他类公司","address":"浦东新区东塘路630号"},{"poiid":"B2094654D568A2FB409A","title":"东嫩线轮渡站","lon":"121.55821","lat":"31.31583","category":"34","category_name":"港口码头","address":""},{"poiid":"B2094654D568AAFC459E","title":"中国石化上海高桥石油化工公司新闻中心","lon":"121.56536","lat":"31.33081","category":"263","category_name":"公司","address":"大同路1480"},{"poiid":"B2094654D568ABF9469E","title":"中港三航浦东公司","lon":"121.56856","lat":"31.32816","category":"263","category_name":"公司","address":""},{"poiid":"B2094757D168A6FF439A","title":"上海市园林学校","lon":"121.553871","lat":"31.325032","category":"253","category_name":"校园生活","address":"上海杨浦区军工路2360号 (近森林公园)"},{"poiid":"B2094655D26BA1FE4499","title":"嫩江码头","lon":"121.55713","lat":"31.31586","category":"38","category_name":"公交车站","address":""},{"poiid":"B2094655D26AABF44099","title":"泓庄茶室","lon":"121.55085","lat":"31.32009","category":"66","category_name":"茶艺馆","address":"杨浦区军工路2000号共青森林公园内(近嫩江路)"},{"poiid":"B2094654D568ABF54799","title":"中国石油化工股份有限公司上海高桥分公司供应销售部","lon":"121.56902","lat":"31.3304","category":"255","category_name":"专卖店","address":""},{"poiid":"B2094654DB65A6FB489B","title":"万竹园","lon":"121.55342","lat":"31.31517","category":"196","category_name":"公园","address":"嫩江路"},{"poiid":"B2094757D06FA4FA4198","title":"天鹅泉公寓","lon":"121.57435","lat":"31.333406","category":"252","category_name":"楼宇机构","address":"高城路200弄"},{"poiid":"B2094757D16EABF4419F","title":"泰阁苑鱼翅酒楼","lon":"121.54672","lat":"31.32307","category":"72","category_name":"广东菜","address":"杨浦区军工路1978号(共青森林公园西大门)"},{"poiid":"B2094655D26FA0F4469C","title":"共青国家森林公园售票处(军工路)","lon":"121.54581","lat":"31.32116","category":"33","category_name":"公园景点售票处","address":""}]