[{"poiid":"B2094757D06FA4F5469B","title":"阳光绿洲生态酒店","lon":"121.240118","lat":"31.0294","category":"76","category_name":"上海菜","address":"松江区通波路50号(近思贤路)"},{"poiid":"B2094655D26BA2FB439E","title":"松江新城地铁站","lon":"121.23194","lat":"31.02848","category":"36","category_name":"地铁站","address":"上海轨道交通 九号线 轨交松江新城站 9"},{"poiid":"B2094757D068ABFE4099","title":"榕港海鲜大酒楼(松江店)","lon":"121.23506","lat":"31.03308","category":"88","category_name":"海鲜酒楼","address":"松江区谷阳北路1425弄88号(谷阳北路南青路)"},{"poiid":"B2094757DB6DA5F84793","title":"上海锦丰国际大酒店","lon":"121.246227622","lat":"31.035910179","category":"76","category_name":"上海菜","address":"松江区茸梅路237号锦丰国际大酒店内(近茸平路)"},{"poiid":"B2094654DB64A0FD439D","title":"易初莲花购物中心","lon":"121.24114","lat":"31.01773","category":"118","category_name":"超级市场","address":"松江区松江荣乐中路8号"},{"poiid":"B2094757D16FA2F44599","title":"大江苑","lon":"121.24307251","lat":"31.0285453796","category":"500","category_name":"未知分类","address":"上海市松江区茸龙路257弄"},{"poiid":"B2094757D468A4FD439B","title":"富春江山里人家","lon":"121.2434284","lat":"31.0254068","category":"76","category_name":"上海菜","address":"松江区沪松路219号"},{"poiid":"B2094757D06AA0FB459E","title":"迪豪小田园酒店","lon":"121.23508","lat":"31.02609","category":"75","category_name":"浙江菜","address":"松江区谷阳北路1027号(近思贤路)"},{"poiid":"B2094757D06AA4F4499A","title":"祥和花苑","lon":"121.23698","lat":"31.026249","category":"47","category_name":"住宅区","address":"上海市松江区谷阳北路1066弄"},{"poiid":"B2094654DB6DA4FE4492","title":"广丰学校","lon":"121.24182","lat":"31.02925","category":"55","category_name":"中学","address":""},{"poiid":"B2094757D16DA6FA459B","title":"建设花园","lon":"121.23701","lat":"31.030113","category":"47","category_name":"住宅区","address":"上海市浦东新区龙东大道路3988弄"},{"poiid":"B2094655D26FA6F94392","title":"格林豪泰酒店(松江新城店)","lon":"121.24644","lat":"31.03144","category":"216","category_name":"经济型连锁酒店","address":"松江区茸梅路215号(近茸平路)"},{"poiid":"B2094654DB64A1F44599","title":"中山广场","lon":"121.24704","lat":"31.03328","category":"201","category_name":"城市广场","address":"松江区茸梅路288弄"},{"poiid":"B2094655D36CA2F9489E","title":"茸梅路","lon":"121.24674","lat":"31.03121","category":"38","category_name":"公交车站","address":""},{"poiid":"B2094654DB6DA4FF439F","title":"茸一中学","lon":"121.24462","lat":"31.03212","category":"55","category_name":"中学","address":"松江区茸北镇五昆路268号"},{"poiid":"B2094654DB6DA4FE4898","title":"中山街道社区卫生服务中心","lon":"121.24629","lat":"31.02662","category":"162","category_name":"医院","address":""},{"poiid":"B2094655D26DA0FB419B","title":"东风日产松江专营店","lon":"121.24272","lat":"31.02215","category":"158","category_name":"汽车销售","address":"沪松路518号"},{"poiid":"B2094654DB65AAF44498","title":"松江区茸北中学","lon":"121.24463","lat":"31.03192","category":"55","category_name":"中学","address":"松江区茸北镇五龙村"},{"poiid":"B2094757D16FA7FC4792","title":"松江佳网斯柯达","lon":"121.244108","lat":"31.021317","category":"500","category_name":"未知分类","address":"上海松江区美能达路800号"},{"poiid":"B2094654DB6DA4FF419B","title":"松江区中山小学茸北分校","lon":"121.24678","lat":"31.02952","category":"56","category_name":"小学","address":""},{"poiid":"B2094757D66DABFB4899","title":"根爷老北京热气羊肉(松江方舟园店)","lon":"121.241921767","lat":"31.02368016","category":"247","category_name":"餐饮美食","address":"上海松江区荣乐中路12弄312号"},{"poiid":"B2094654DB6EA2F44593","title":"永翔商业","lon":"121.2357","lat":"31.03316","category":"119","category_name":"商场","address":"松江区谷阳北路1470弄1号"},{"poiid":"B2094654DB6EA2F4439E","title":"东其昌酒家","lon":"121.23316","lat":"31.03389","category":"76","category_name":"上海菜","address":"松江区松江谷阳北路371弄100号(南青路通跃路)"},{"poiid":"B2094757D06AA4FE469B","title":"肯德基 KFC (方舟店)","lon":"121.240858","lat":"31.017601","category":"500","category_name":"未知分类","address":"松江区荣乐中路8号"},{"poiid":"B2094757D76CA3FA409C","title":"阳光咖喱工坊 通跃路店","lon":"121.23114","lat":"31.02975","category":"68","category_name":"快餐厅","address":"松江区通跃路39号(近松江新城地铁站)"},{"poiid":"B2094750D26FA1F94892","title":"味千拉面(松江店)","lon":"121.232223","lat":"31.029062","category":"247","category_name":"餐饮美食","address":"松江区通跃路113号商业广场1楼(近地铁九号线松江新城站)"},{"poiid":"B2094655D26DA6FD469E","title":"茸平小区","lon":"121.2471","lat":"31.02993","category":"47","category_name":"住宅区","address":"松江茸梅路168弄1-62号"},{"poiid":"B2094757D16CA0FA459F","title":"鼎信公寓","lon":"121.23335","lat":"31.03089","category":"47","category_name":"住宅区","address":"上海市长宁区长宁路820号"},{"poiid":"B2094750DB6FA1F9469B","title":"企德天地","lon":"121.24558542858881","lat":"31.024132568195082","category":"46","category_name":"楼宇","address":"松江区方塔北路605号"},{"poiid":"B2094655D36CA3FD469A","title":"水岸华庭","lon":"121.23968","lat":"31.03407","category":"47","category_name":"住宅区","address":"上海市松江区通波路"},{"poiid":"B2094655D268A0F44499","title":"肯德基","lon":"121.23094","lat":"31.02897","category":"68","category_name":"快餐厅","address":"松江区思贤路(近松江新城地铁站)"},{"poiid":"B2094757D464ABF94598","title":"棒约翰比萨 松江店 Papa John's Pizza","lon":"121.242432054","lat":"31.021952793","category":"101","category_name":"美式风味","address":"松江区松卫北路870弄794-796号"},{"poiid":"B2094655D36CA7F54992","title":"谷阳北路思贤路","lon":"121.235","lat":"31.02751","category":"38","category_name":"公交车站","address":""},{"poiid":"B2094757D06BA7FF4993","title":"北九峰小区","lon":"121.23346213402","lat":"31.024269825903","category":"47","category_name":"住宅区","address":"上海松江荣乐中路220弄"},{"poiid":"B2094757D168AAFD419F","title":"天乐小区","lon":"121.23588","lat":"31.023142","category":"47","category_name":"住宅区","address":"上海市松江区谷阳北路"},{"poiid":"B2094654DB6DA4FB4898","title":"方松街道社区学校祥和社区分校","lon":"121.23575","lat":"31.02665","category":"55","category_name":"中学","address":"谷阳北路1066弄1"},{"poiid":"B2094654DB6DA4F5499D","title":"中山派出所","lon":"121.24785","lat":"31.02732","category":"609","category_name":"警察局","address":"松江区茸梅路8号"},{"poiid":"B2094654DB6DA4F4419A","title":"上海农村商业银行中山支行","lon":"121.24667","lat":"31.03097","category":"150","category_name":"银行","address":""},{"poiid":"B2094654DB6EA2F4479B","title":"东明花园(思贤路)","lon":"121.23287","lat":"31.02694","category":"47","category_name":"住宅区","address":"谷阳北路1027弄"},{"poiid":"B2094757D66CA1FB479E","title":"传奇干锅","lon":"121.231288","lat":"31.031819","category":"71","category_name":"四川菜","address":"松江区通跃路161号(近松江新城地铁站)"},{"poiid":"B2094655D36CA2F94893","title":"茸平路","lon":"121.24531","lat":"31.03539","category":"38","category_name":"公交车站","address":"上海市松江区茸平路12号(近沪松公路)"},{"poiid":"B2094757D16DA2FB4998","title":"云峰大众4S","lon":"121.25114656","lat":"31.033345822","category":"500","category_name":"未知分类","address":"上海松江区茸兴路128号"},{"poiid":"B2094654DB6DA4F54298","title":"中山社区文化中心","lon":"121.24714","lat":"31.03034","category":"248","category_name":"生活娱乐","address":"茸梅路200号"},{"poiid":"B2094655D26FA2FA449B","title":"如家快捷酒店","lon":"121.23883","lat":"31.01902","category":"216","category_name":"经济型连锁酒店","address":"松江区荣乐中路12弄方中广场282号(近沪松路)"},{"poiid":"B2094750D56EA1F5429B","title":"香之山足道","lon":"121.248275","lat":"31.028799","category":"148","category_name":"美容美发店","address":null},{"poiid":"B2094757D169ABFD449A","title":"天虹四村","lon":"121.24718","lat":"31.030378","category":"252","category_name":"楼宇机构","address":"上海市松江区茸梅路"},{"poiid":"B2094654DB6EA2F4489F","title":"东明花苑","lon":"121.23288","lat":"31.026945","category":"47","category_name":"住宅区","address":"上海市松江区祥和路117号"},{"poiid":"B2094654DB6DA4FE4398","title":"茸平苑","lon":"121.24386","lat":"31.037045","category":"47","category_name":"住宅区","address":"茸平路288弄"},{"poiid":"B2094654DB6EA2FB469F","title":"上海师范大学附属外国语小学(谷阳北路)","lon":"121.23428","lat":"31.03171","category":"56","category_name":"小学","address":"松江区谷阳北路1355号"},{"poiid":"B2094654DB6EA2F4459B","title":"华东师范大学松江实验中学","lon":"121.23752","lat":"31.03525","category":"55","category_name":"中学","address":"南青路100"},{"poiid":"B2094757D06FA4F5469B","title":"阳光绿洲生态酒店","lon":"121.240118","lat":"31.0294","category":"76","category_name":"上海菜","address":"松江区通波路50号(近思贤路)"},{"poiid":"B2094655D26BA2FB439E","title":"松江新城地铁站","lon":"121.23194","lat":"31.02848","category":"36","category_name":"地铁站","address":"上海轨道交通 九号线 轨交松江新城站 9"},{"poiid":"B2094757D068ABFE4099","title":"榕港海鲜大酒楼(松江店)","lon":"121.23506","lat":"31.03308","category":"88","category_name":"海鲜酒楼","address":"松江区谷阳北路1425弄88号(谷阳北路南青路)"},{"poiid":"B2094757DB6DA5F84793","title":"上海锦丰国际大酒店","lon":"121.246227622","lat":"31.035910179","category":"76","category_name":"上海菜","address":"松江区茸梅路237号锦丰国际大酒店内(近茸平路)"},{"poiid":"B2094654DB64A0FD439D","title":"易初莲花购物中心","lon":"121.24114","lat":"31.01773","category":"118","category_name":"超级市场","address":"松江区松江荣乐中路8号"},{"poiid":"B2094757D16FA2F44599","title":"大江苑","lon":"121.24307251","lat":"31.0285453796","category":"500","category_name":"未知分类","address":"上海市松江区茸龙路257弄"},{"poiid":"B2094757D468A4FD439B","title":"富春江山里人家","lon":"121.2434284","lat":"31.0254068","category":"76","category_name":"上海菜","address":"松江区沪松路219号"},{"poiid":"B2094757D06AA0FB459E","title":"迪豪小田园酒店","lon":"121.23508","lat":"31.02609","category":"75","category_name":"浙江菜","address":"松江区谷阳北路1027号(近思贤路)"},{"poiid":"B2094757D06AA4F4499A","title":"祥和花苑","lon":"121.23698","lat":"31.026249","category":"47","category_name":"住宅区","address":"上海市松江区谷阳北路1066弄"},{"poiid":"B2094654DB6DA4FE4492","title":"广丰学校","lon":"121.24182","lat":"31.02925","category":"55","category_name":"中学","address":""},{"poiid":"B2094757D16DA6FA459B","title":"建设花园","lon":"121.23701","lat":"31.030113","category":"47","category_name":"住宅区","address":"上海市浦东新区龙东大道路3988弄"},{"poiid":"B2094655D26FA6F94392","title":"格林豪泰酒店(松江新城店)","lon":"121.24644","lat":"31.03144","category":"216","category_name":"经济型连锁酒店","address":"松江区茸梅路215号(近茸平路)"},{"poiid":"B2094654DB64A1F44599","title":"中山广场","lon":"121.24704","lat":"31.03328","category":"201","category_name":"城市广场","address":"松江区茸梅路288弄"},{"poiid":"B2094655D36CA2F9489E","title":"茸梅路","lon":"121.24674","lat":"31.03121","category":"38","category_name":"公交车站","address":""},{"poiid":"B2094654DB6DA4FF439F","title":"茸一中学","lon":"121.24462","lat":"31.03212","category":"55","category_name":"中学","address":"松江区茸北镇五昆路268号"},{"poiid":"B2094654DB6DA4FE4898","title":"中山街道社区卫生服务中心","lon":"121.24629","lat":"31.02662","category":"162","category_name":"医院","address":""},{"poiid":"B2094655D26DA0FB419B","title":"东风日产松江专营店","lon":"121.24272","lat":"31.02215","category":"158","category_name":"汽车销售","address":"沪松路518号"},{"poiid":"B2094654DB65AAF44498","title":"松江区茸北中学","lon":"121.24463","lat":"31.03192","category":"55","category_name":"中学","address":"松江区茸北镇五龙村"},{"poiid":"B2094757D16FA7FC4792","title":"松江佳网斯柯达","lon":"121.244108","lat":"31.021317","category":"500","category_name":"未知分类","address":"上海松江区美能达路800号"},{"poiid":"B2094654DB6DA4FF419B","title":"松江区中山小学茸北分校","lon":"121.24678","lat":"31.02952","category":"56","category_name":"小学","address":""},{"poiid":"B2094757D66DABFB4899","title":"根爷老北京热气羊肉(松江方舟园店)","lon":"121.241921767","lat":"31.02368016","category":"247","category_name":"餐饮美食","address":"上海松江区荣乐中路12弄312号"},{"poiid":"B2094654DB6EA2F44593","title":"永翔商业","lon":"121.2357","lat":"31.03316","category":"119","category_name":"商场","address":"松江区谷阳北路1470弄1号"},{"poiid":"B2094654DB6EA2F4439E","title":"东其昌酒家","lon":"121.23316","lat":"31.03389","category":"76","category_name":"上海菜","address":"松江区松江谷阳北路371弄100号(南青路通跃路)"},{"poiid":"B2094757D06AA4FE469B","title":"肯德基 KFC (方舟店)","lon":"121.240858","lat":"31.017601","category":"500","category_name":"未知分类","address":"松江区荣乐中路8号"},{"poiid":"B2094757D76CA3FA409C","title":"阳光咖喱工坊 通跃路店","lon":"121.23114","lat":"31.02975","category":"68","category_name":"快餐厅","address":"松江区通跃路39号(近松江新城地铁站)"},{"poiid":"B2094750D26FA1F94892","title":"味千拉面(松江店)","lon":"121.232223","lat":"31.029062","category":"247","category_name":"餐饮美食","address":"松江区通跃路113号商业广场1楼(近地铁九号线松江新城站)"},{"poiid":"B2094655D26DA6FD469E","title":"茸平小区","lon":"121.2471","lat":"31.02993","category":"47","category_name":"住宅区","address":"松江茸梅路168弄1-62号"},{"poiid":"B2094757D16CA0FA459F","title":"鼎信公寓","lon":"121.23335","lat":"31.03089","category":"47","category_name":"住宅区","address":"上海市长宁区长宁路820号"},{"poiid":"B2094750DB6FA1F9469B","title":"企德天地","lon":"121.24558542858881","lat":"31.024132568195082","category":"46","category_name":"楼宇","address":"松江区方塔北路605号"},{"poiid":"B2094655D36CA3FD469A","title":"水岸华庭","lon":"121.23968","lat":"31.03407","category":"47","category_name":"住宅区","address":"上海市松江区通波路"},{"poiid":"B2094655D268A0F44499","title":"肯德基","lon":"121.23094","lat":"31.02897","category":"68","category_name":"快餐厅","address":"松江区思贤路(近松江新城地铁站)"},{"poiid":"B2094757D464ABF94598","title":"棒约翰比萨 松江店 Papa John's Pizza","lon":"121.242432054","lat":"31.021952793","category":"101","category_name":"美式风味","address":"松江区松卫北路870弄794-796号"},{"poiid":"B2094655D36CA7F54992","title":"谷阳北路思贤路","lon":"121.235","lat":"31.02751","category":"38","category_name":"公交车站","address":""},{"poiid":"B2094757D06BA7FF4993","title":"北九峰小区","lon":"121.23346213402","lat":"31.024269825903","category":"47","category_name":"住宅区","address":"上海松江荣乐中路220弄"},{"poiid":"B2094757D168AAFD419F","title":"天乐小区","lon":"121.23588","lat":"31.023142","category":"47","category_name":"住宅区","address":"上海市松江区谷阳北路"},{"poiid":"B2094654DB6DA4FB4898","title":"方松街道社区学校祥和社区分校","lon":"121.23575","lat":"31.02665","category":"55","category_name":"中学","address":"谷阳北路1066弄1"},{"poiid":"B2094654DB6DA4F5499D","title":"中山派出所","lon":"121.24785","lat":"31.02732","category":"609","category_name":"警察局","address":"松江区茸梅路8号"},{"poiid":"B2094654DB6DA4F4419A","title":"上海农村商业银行中山支行","lon":"121.24667","lat":"31.03097","category":"150","category_name":"银行","address":""},{"poiid":"B2094654DB6EA2F4479B","title":"东明花园(思贤路)","lon":"121.23287","lat":"31.02694","category":"47","category_name":"住宅区","address":"谷阳北路1027弄"},{"poiid":"B2094757D66CA1FB479E","title":"传奇干锅","lon":"121.231288","lat":"31.031819","category":"71","category_name":"四川菜","address":"松江区通跃路161号(近松江新城地铁站)"},{"poiid":"B2094655D36CA2F94893","title":"茸平路","lon":"121.24531","lat":"31.03539","category":"38","category_name":"公交车站","address":"上海市松江区茸平路12号(近沪松公路)"},{"poiid":"B2094757D16DA2FB4998","title":"云峰大众4S","lon":"121.25114656","lat":"31.033345822","category":"500","category_name":"未知分类","address":"上海松江区茸兴路128号"},{"poiid":"B2094654DB6DA4F54298","title":"中山社区文化中心","lon":"121.24714","lat":"31.03034","category":"248","category_name":"生活娱乐","address":"茸梅路200号"},{"poiid":"B2094655D26FA2FA449B","title":"如家快捷酒店","lon":"121.23883","lat":"31.01902","category":"216","category_name":"经济型连锁酒店","address":"松江区荣乐中路12弄方中广场282号(近沪松路)"},{"poiid":"B2094750D56EA1F5429B","title":"香之山足道","lon":"121.248275","lat":"31.028799","category":"148","category_name":"美容美发店","address":null},{"poiid":"B2094757D169ABFD449A","title":"天虹四村","lon":"121.24718","lat":"31.030378","category":"252","category_name":"楼宇机构","address":"上海市松江区茸梅路"},{"poiid":"B2094654DB6EA2F4489F","title":"东明花苑","lon":"121.23288","lat":"31.026945","category":"47","category_name":"住宅区","address":"上海市松江区祥和路117号"},{"poiid":"B2094654DB6DA4FE4398","title":"茸平苑","lon":"121.24386","lat":"31.037045","category":"47","category_name":"住宅区","address":"茸平路288弄"},{"poiid":"B2094654DB6EA2FB469F","title":"上海师范大学附属外国语小学(谷阳北路)","lon":"121.23428","lat":"31.03171","category":"56","category_name":"小学","address":"松江区谷阳北路1355号"},{"poiid":"B2094654DB6EA2F4459B","title":"华东师范大学松江实验中学","lon":"121.23752","lat":"31.03525","category":"55","category_name":"中学","address":"南青路100"},{"poiid":"B2094757D06FA4F5469B","title":"阳光绿洲生态酒店","lon":"121.240118","lat":"31.0294","category":"76","category_name":"上海菜","address":"松江区通波路50号(近思贤路)"},{"poiid":"B2094655D26BA2FB439E","title":"松江新城地铁站","lon":"121.23194","lat":"31.02848","category":"36","category_name":"地铁站","address":"上海轨道交通 九号线 轨交松江新城站 9"},{"poiid":"B2094757D068ABFE4099","title":"榕港海鲜大酒楼(松江店)","lon":"121.23506","lat":"31.03308","category":"88","category_name":"海鲜酒楼","address":"松江区谷阳北路1425弄88号(谷阳北路南青路)"},{"poiid":"B2094757DB6DA5F84793","title":"上海锦丰国际大酒店","lon":"121.246227622","lat":"31.035910179","category":"76","category_name":"上海菜","address":"松江区茸梅路237号锦丰国际大酒店内(近茸平路)"},{"poiid":"B2094654DB64A0FD439D","title":"易初莲花购物中心","lon":"121.24114","lat":"31.01773","category":"118","category_name":"超级市场","address":"松江区松江荣乐中路8号"},{"poiid":"B2094757D16FA2F44599","title":"大江苑","lon":"121.24307251","lat":"31.0285453796","category":"500","category_name":"未知分类","address":"上海市松江区茸龙路257弄"},{"poiid":"B2094757D468A4FD439B","title":"富春江山里人家","lon":"121.2434284","lat":"31.0254068","category":"76","category_name":"上海菜","address":"松江区沪松路219号"},{"poiid":"B2094757D06AA0FB459E","title":"迪豪小田园酒店","lon":"121.23508","lat":"31.02609","category":"75","category_name":"浙江菜","address":"松江区谷阳北路1027号(近思贤路)"},{"poiid":"B2094757D06AA4F4499A","title":"祥和花苑","lon":"121.23698","lat":"31.026249","category":"47","category_name":"住宅区","address":"上海市松江区谷阳北路1066弄"},{"poiid":"B2094654DB6DA4FE4492","title":"广丰学校","lon":"121.24182","lat":"31.02925","category":"55","category_name":"中学","address":""},{"poiid":"B2094757D16DA6FA459B","title":"建设花园","lon":"121.23701","lat":"31.030113","category":"47","category_name":"住宅区","address":"上海市浦东新区龙东大道路3988弄"},{"poiid":"B2094655D26FA6F94392","title":"格林豪泰酒店(松江新城店)","lon":"121.24644","lat":"31.03144","category":"216","category_name":"经济型连锁酒店","address":"松江区茸梅路215号(近茸平路)"},{"poiid":"B2094654DB64A1F44599","title":"中山广场","lon":"121.24704","lat":"31.03328","category":"201","category_name":"城市广场","address":"松江区茸梅路288弄"},{"poiid":"B2094655D36CA2F9489E","title":"茸梅路","lon":"121.24674","lat":"31.03121","category":"38","category_name":"公交车站","address":""},{"poiid":"B2094654DB6DA4FF439F","title":"茸一中学","lon":"121.24462","lat":"31.03212","category":"55","category_name":"中学","address":"松江区茸北镇五昆路268号"},{"poiid":"B2094654DB6DA4FE4898","title":"中山街道社区卫生服务中心","lon":"121.24629","lat":"31.02662","category":"162","category_name":"医院","address":""},{"poiid":"B2094655D26DA0FB419B","title":"东风日产松江专营店","lon":"121.24272","lat":"31.02215","category":"158","category_name":"汽车销售","address":"沪松路518号"},{"poiid":"B2094654DB65AAF44498","title":"松江区茸北中学","lon":"121.24463","lat":"31.03192","category":"55","category_name":"中学","address":"松江区茸北镇五龙村"},{"poiid":"B2094757D16FA7FC4792","title":"松江佳网斯柯达","lon":"121.244108","lat":"31.021317","category":"500","category_name":"未知分类","address":"上海松江区美能达路800号"},{"poiid":"B2094654DB6DA4FF419B","title":"松江区中山小学茸北分校","lon":"121.24678","lat":"31.02952","category":"56","category_name":"小学","address":""},{"poiid":"B2094757D66DABFB4899","title":"根爷老北京热气羊肉(松江方舟园店)","lon":"121.241921767","lat":"31.02368016","category":"247","category_name":"餐饮美食","address":"上海松江区荣乐中路12弄312号"},{"poiid":"B2094654DB6EA2F44593","title":"永翔商业","lon":"121.2357","lat":"31.03316","category":"119","category_name":"商场","address":"松江区谷阳北路1470弄1号"},{"poiid":"B2094654DB6EA2F4439E","title":"东其昌酒家","lon":"121.23316","lat":"31.03389","category":"76","category_name":"上海菜","address":"松江区松江谷阳北路371弄100号(南青路通跃路)"},{"poiid":"B2094757D06AA4FE469B","title":"肯德基 KFC (方舟店)","lon":"121.240858","lat":"31.017601","category":"500","category_name":"未知分类","address":"松江区荣乐中路8号"},{"poiid":"B2094757D76CA3FA409C","title":"阳光咖喱工坊 通跃路店","lon":"121.23114","lat":"31.02975","category":"68","category_name":"快餐厅","address":"松江区通跃路39号(近松江新城地铁站)"},{"poiid":"B2094750D26FA1F94892","title":"味千拉面(松江店)","lon":"121.232223","lat":"31.029062","category":"247","category_name":"餐饮美食","address":"松江区通跃路113号商业广场1楼(近地铁九号线松江新城站)"},{"poiid":"B2094655D26DA6FD469E","title":"茸平小区","lon":"121.2471","lat":"31.02993","category":"47","category_name":"住宅区","address":"松江茸梅路168弄1-62号"},{"poiid":"B2094757D16CA0FA459F","title":"鼎信公寓","lon":"121.23335","lat":"31.03089","category":"47","category_name":"住宅区","address":"上海市长宁区长宁路820号"},{"poiid":"B2094750DB6FA1F9469B","title":"企德天地","lon":"121.24558542858881","lat":"31.024132568195082","category":"46","category_name":"楼宇","address":"松江区方塔北路605号"},{"poiid":"B2094655D36CA3FD469A","title":"水岸华庭","lon":"121.23968","lat":"31.03407","category":"47","category_name":"住宅区","address":"上海市松江区通波路"},{"poiid":"B2094655D268A0F44499","title":"肯德基","lon":"121.23094","lat":"31.02897","category":"68","category_name":"快餐厅","address":"松江区思贤路(近松江新城地铁站)"},{"poiid":"B2094757D464ABF94598","title":"棒约翰比萨 松江店 Papa John's Pizza","lon":"121.242432054","lat":"31.021952793","category":"101","category_name":"美式风味","address":"松江区松卫北路870弄794-796号"},{"poiid":"B2094655D36CA7F54992","title":"谷阳北路思贤路","lon":"121.235","lat":"31.02751","category":"38","category_name":"公交车站","address":""},{"poiid":"B2094757D06BA7FF4993","title":"北九峰小区","lon":"121.23346213402","lat":"31.024269825903","category":"47","category_name":"住宅区","address":"上海松江荣乐中路220弄"},{"poiid":"B2094757D168AAFD419F","title":"天乐小区","lon":"121.23588","lat":"31.023142","category":"47","category_name":"住宅区","address":"上海市松江区谷阳北路"},{"poiid":"B2094654DB6DA4FB4898","title":"方松街道社区学校祥和社区分校","lon":"121.23575","lat":"31.02665","category":"55","category_name":"中学","address":"谷阳北路1066弄1"},{"poiid":"B2094654DB6DA4F5499D","title":"中山派出所","lon":"121.24785","lat":"31.02732","category":"609","category_name":"警察局","address":"松江区茸梅路8号"},{"poiid":"B2094654DB6DA4F4419A","title":"上海农村商业银行中山支行","lon":"121.24667","lat":"31.03097","category":"150","category_name":"银行","address":""},{"poiid":"B2094654DB6EA2F4479B","title":"东明花园(思贤路)","lon":"121.23287","lat":"31.02694","category":"47","category_name":"住宅区","address":"谷阳北路1027弄"},{"poiid":"B2094757D66CA1FB479E","title":"传奇干锅","lon":"121.231288","lat":"31.031819","category":"71","category_name":"四川菜","address":"松江区通跃路161号(近松江新城地铁站)"},{"poiid":"B2094655D36CA2F94893","title":"茸平路","lon":"121.24531","lat":"31.03539","category":"38","category_name":"公交车站","address":"上海市松江区茸平路12号(近沪松公路)"},{"poiid":"B2094757D16DA2FB4998","title":"云峰大众4S","lon":"121.25114656","lat":"31.033345822","category":"500","category_name":"未知分类","address":"上海松江区茸兴路128号"},{"poiid":"B2094654DB6DA4F54298","title":"中山社区文化中心","lon":"121.24714","lat":"31.03034","category":"248","category_name":"生活娱乐","address":"茸梅路200号"},{"poiid":"B2094655D26FA2FA449B","title":"如家快捷酒店","lon":"121.23883","lat":"31.01902","category":"216","category_name":"经济型连锁酒店","address":"松江区荣乐中路12弄方中广场282号(近沪松路)"},{"poiid":"B2094750D56EA1F5429B","title":"香之山足道","lon":"121.248275","lat":"31.028799","category":"148","category_name":"美容美发店","address":null},{"poiid":"B2094757D169ABFD449A","title":"天虹四村","lon":"121.24718","lat":"31.030378","category":"252","category_name":"楼宇机构","address":"上海市松江区茸梅路"},{"poiid":"B2094654DB6EA2F4489F","title":"东明花苑","lon":"121.23288","lat":"31.026945","category":"47","category_name":"住宅区","address":"上海市松江区祥和路117号"},{"poiid":"B2094654DB6DA4FE4398","title":"茸平苑","lon":"121.24386","lat":"31.037045","category":"47","category_name":"住宅区","address":"茸平路288弄"},{"poiid":"B2094654DB6EA2FB469F","title":"上海师范大学附属外国语小学(谷阳北路)","lon":"121.23428","lat":"31.03171","category":"56","category_name":"小学","address":"松江区谷阳北路1355号"},{"poiid":"B2094654DB6EA2F4459B","title":"华东师范大学松江实验中学","lon":"121.23752","lat":"31.03525","category":"55","category_name":"中学","address":"南青路100"},{"poiid":"B2094757D06FA4F5469B","title":"阳光绿洲生态酒店","lon":"121.240118","lat":"31.0294","category":"76","category_name":"上海菜","address":"松江区通波路50号(近思贤路)"},{"poiid":"B2094655D26BA2FB439E","title":"松江新城地铁站","lon":"121.23194","lat":"31.02848","category":"36","category_name":"地铁站","address":"上海轨道交通 九号线 轨交松江新城站 9"},{"poiid":"B2094757D068ABFE4099","title":"榕港海鲜大酒楼(松江店)","lon":"121.23506","lat":"31.03308","category":"88","category_name":"海鲜酒楼","address":"松江区谷阳北路1425弄88号(谷阳北路南青路)"},{"poiid":"B2094757DB6DA5F84793","title":"上海锦丰国际大酒店","lon":"121.246227622","lat":"31.035910179","category":"76","category_name":"上海菜","address":"松江区茸梅路237号锦丰国际大酒店内(近茸平路)"},{"poiid":"B2094654DB64A0FD439D","title":"易初莲花购物中心","lon":"121.24114","lat":"31.01773","category":"118","category_name":"超级市场","address":"松江区松江荣乐中路8号"},{"poiid":"B2094757D16FA2F44599","title":"大江苑","lon":"121.24307251","lat":"31.0285453796","category":"500","category_name":"未知分类","address":"上海市松江区茸龙路257弄"},{"poiid":"B2094757D468A4FD439B","title":"富春江山里人家","lon":"121.2434284","lat":"31.0254068","category":"76","category_name":"上海菜","address":"松江区沪松路219号"},{"poiid":"B2094757D06AA0FB459E","title":"迪豪小田园酒店","lon":"121.23508","lat":"31.02609","category":"75","category_name":"浙江菜","address":"松江区谷阳北路1027号(近思贤路)"},{"poiid":"B2094757D06AA4F4499A","title":"祥和花苑","lon":"121.23698","lat":"31.026249","category":"47","category_name":"住宅区","address":"上海市松江区谷阳北路1066弄"},{"poiid":"B2094654DB6DA4FE4492","title":"广丰学校","lon":"121.24182","lat":"31.02925","category":"55","category_name":"中学","address":""},{"poiid":"B2094757D16DA6FA459B","title":"建设花园","lon":"121.23701","lat":"31.030113","category":"47","category_name":"住宅区","address":"上海市浦东新区龙东大道路3988弄"},{"poiid":"B2094655D26FA6F94392","title":"格林豪泰酒店(松江新城店)","lon":"121.24644","lat":"31.03144","category":"216","category_name":"经济型连锁酒店","address":"松江区茸梅路215号(近茸平路)"},{"poiid":"B2094654DB64A1F44599","title":"中山广场","lon":"121.24704","lat":"31.03328","category":"201","category_name":"城市广场","address":"松江区茸梅路288弄"},{"poiid":"B2094655D36CA2F9489E","title":"茸梅路","lon":"121.24674","lat":"31.03121","category":"38","category_name":"公交车站","address":""},{"poiid":"B2094654DB6DA4FF439F","title":"茸一中学","lon":"121.24462","lat":"31.03212","category":"55","category_name":"中学","address":"松江区茸北镇五昆路268号"},{"poiid":"B2094654DB6DA4FE4898","title":"中山街道社区卫生服务中心","lon":"121.24629","lat":"31.02662","category":"162","category_name":"医院","address":""},{"poiid":"B2094655D26DA0FB419B","title":"东风日产松江专营店","lon":"121.24272","lat":"31.02215","category":"158","category_name":"汽车销售","address":"沪松路518号"},{"poiid":"B2094654DB65AAF44498","title":"松江区茸北中学","lon":"121.24463","lat":"31.03192","category":"55","category_name":"中学","address":"松江区茸北镇五龙村"},{"poiid":"B2094757D16FA7FC4792","title":"松江佳网斯柯达","lon":"121.244108","lat":"31.021317","category":"500","category_name":"未知分类","address":"上海松江区美能达路800号"},{"poiid":"B2094654DB6DA4FF419B","title":"松江区中山小学茸北分校","lon":"121.24678","lat":"31.02952","category":"56","category_name":"小学","address":""},{"poiid":"B2094757D66DABFB4899","title":"根爷老北京热气羊肉(松江方舟园店)","lon":"121.241921767","lat":"31.02368016","category":"247","category_name":"餐饮美食","address":"上海松江区荣乐中路12弄312号"},{"poiid":"B2094654DB6EA2F44593","title":"永翔商业","lon":"121.2357","lat":"31.03316","category":"119","category_name":"商场","address":"松江区谷阳北路1470弄1号"},{"poiid":"B2094654DB6EA2F4439E","title":"东其昌酒家","lon":"121.23316","lat":"31.03389","category":"76","category_name":"上海菜","address":"松江区松江谷阳北路371弄100号(南青路通跃路)"},{"poiid":"B2094757D06AA4FE469B","title":"肯德基 KFC (方舟店)","lon":"121.240858","lat":"31.017601","category":"500","category_name":"未知分类","address":"松江区荣乐中路8号"},{"poiid":"B2094757D76CA3FA409C","title":"阳光咖喱工坊 通跃路店","lon":"121.23114","lat":"31.02975","category":"68","category_name":"快餐厅","address":"松江区通跃路39号(近松江新城地铁站)"},{"poiid":"B2094750D26FA1F94892","title":"味千拉面(松江店)","lon":"121.232223","lat":"31.029062","category":"247","category_name":"餐饮美食","address":"松江区通跃路113号商业广场1楼(近地铁九号线松江新城站)"},{"poiid":"B2094655D26DA6FD469E","title":"茸平小区","lon":"121.2471","lat":"31.02993","category":"47","category_name":"住宅区","address":"松江茸梅路168弄1-62号"},{"poiid":"B2094757D16CA0FA459F","title":"鼎信公寓","lon":"121.23335","lat":"31.03089","category":"47","category_name":"住宅区","address":"上海市长宁区长宁路820号"},{"poiid":"B2094750DB6FA1F9469B","title":"企德天地","lon":"121.24558542858881","lat":"31.024132568195082","category":"46","category_name":"楼宇","address":"松江区方塔北路605号"},{"poiid":"B2094655D36CA3FD469A","title":"水岸华庭","lon":"121.23968","lat":"31.03407","category":"47","category_name":"住宅区","address":"上海市松江区通波路"},{"poiid":"B2094655D268A0F44499","title":"肯德基","lon":"121.23094","lat":"31.02897","category":"68","category_name":"快餐厅","address":"松江区思贤路(近松江新城地铁站)"},{"poiid":"B2094757D464ABF94598","title":"棒约翰比萨 松江店 Papa John's Pizza","lon":"121.242432054","lat":"31.021952793","category":"101","category_name":"美式风味","address":"松江区松卫北路870弄794-796号"},{"poiid":"B2094655D36CA7F54992","title":"谷阳北路思贤路","lon":"121.235","lat":"31.02751","category":"38","category_name":"公交车站","address":""},{"poiid":"B2094757D06BA7FF4993","title":"北九峰小区","lon":"121.23346213402","lat":"31.024269825903","category":"47","category_name":"住宅区","address":"上海松江荣乐中路220弄"},{"poiid":"B2094757D168AAFD419F","title":"天乐小区","lon":"121.23588","lat":"31.023142","category":"47","category_name":"住宅区","address":"上海市松江区谷阳北路"},{"poiid":"B2094654DB6DA4FB4898","title":"方松街道社区学校祥和社区分校","lon":"121.23575","lat":"31.02665","category":"55","category_name":"中学","address":"谷阳北路1066弄1"},{"poiid":"B2094654DB6DA4F5499D","title":"中山派出所","lon":"121.24785","lat":"31.02732","category":"609","category_name":"警察局","address":"松江区茸梅路8号"},{"poiid":"B2094654DB6DA4F4419A","title":"上海农村商业银行中山支行","lon":"121.24667","lat":"31.03097","category":"150","category_name":"银行","address":""},{"poiid":"B2094654DB6EA2F4479B","title":"东明花园(思贤路)","lon":"121.23287","lat":"31.02694","category":"47","category_name":"住宅区","address":"谷阳北路1027弄"},{"poiid":"B2094757D66CA1FB479E","title":"传奇干锅","lon":"121.231288","lat":"31.031819","category":"71","category_name":"四川菜","address":"松江区通跃路161号(近松江新城地铁站)"},{"poiid":"B2094655D36CA2F94893","title":"茸平路","lon":"121.24531","lat":"31.03539","category":"38","category_name":"公交车站","address":"上海市松江区茸平路12号(近沪松公路)"},{"poiid":"B2094757D16DA2FB4998","title":"云峰大众4S","lon":"121.25114656","lat":"31.033345822","category":"500","category_name":"未知分类","address":"上海松江区茸兴路128号"},{"poiid":"B2094654DB6DA4F54298","title":"中山社区文化中心","lon":"121.24714","lat":"31.03034","category":"248","category_name":"生活娱乐","address":"茸梅路200号"},{"poiid":"B2094655D26FA2FA449B","title":"如家快捷酒店","lon":"121.23883","lat":"31.01902","category":"216","category_name":"经济型连锁酒店","address":"松江区荣乐中路12弄方中广场282号(近沪松路)"},{"poiid":"B2094750D56EA1F5429B","title":"香之山足道","lon":"121.248275","lat":"31.028799","category":"148","category_name":"美容美发店","address":null},{"poiid":"B2094757D169ABFD449A","title":"天虹四村","lon":"121.24718","lat":"31.030378","category":"252","category_name":"楼宇机构","address":"上海市松江区茸梅路"},{"poiid":"B2094654DB6EA2F4489F","title":"东明花苑","lon":"121.23288","lat":"31.026945","category":"47","category_name":"住宅区","address":"上海市松江区祥和路117号"},{"poiid":"B2094654DB6DA4FE4398","title":"茸平苑","lon":"121.24386","lat":"31.037045","category":"47","category_name":"住宅区","address":"茸平路288弄"},{"poiid":"B2094654DB6EA2FB469F","title":"上海师范大学附属外国语小学(谷阳北路)","lon":"121.23428","lat":"31.03171","category":"56","category_name":"小学","address":"松江区谷阳北路1355号"},{"poiid":"B2094654DB6EA2F4459B","title":"华东师范大学松江实验中学","lon":"121.23752","lat":"31.03525","category":"55","category_name":"中学","address":"南青路100"}]