[{"poiid":"B2094654D568A2F84298","title":"上海理工大学(军工路)","lon":"121.55195","lat":"31.29042","category":"671","category_name":"高校中心点","address":"杨浦区军工路516号"},{"poiid":"B2094757D06FA1FB409F","title":"上海理工大学第一教学楼","lon":"121.55567376","lat":"31.291738311","category":"253","category_name":"校园生活","address":"杨浦区军工路516号上海理工大学校园内湛恩大道"},{"poiid":"B2094757D06FA0FE499D","title":"上海理工大学图书馆(湛恩纪念图书馆)","lon":"121.55418748513023","lat":"31.29501685256328","category":"181","category_name":"图书馆","address":"杨浦区军工路516号上海理工大学内(近控江路)"},{"poiid":"B2094654D568A2FF499A","title":"沪江大学","lon":"121.55358","lat":"31.28951","category":"52","category_name":"高等院校","address":"海安路"},{"poiid":"B2094757D06FA6F84992","title":"上海理工大学第三教学楼","lon":"121.55627835","lat":"31.293536525","category":"253","category_name":"校园生活","address":"杨浦区军工路580号上海理工大学校园内勤勉大道"},{"poiid":"B2094757D06BABFA4998","title":"上海理工大学综合楼B区","lon":"121.5543021","lat":"31.290369839","category":"500","category_name":"未知分类","address":"上海市杨浦区军工路516号"},{"poiid":"B2094757D069A5F8459E","title":"上海理工大学大礼堂","lon":"121.55650302","lat":"31.292073276","category":"179","category_name":"音乐厅","address":"上海市杨浦区军工路516号"},{"poiid":"B2094757D16FA2F8489F","title":"活着就是最牛逼的信仰","lon":"121.557584339","lat":"31.2909997399","category":"500","category_name":"未知分类","address":"上海市杨浦区民治路"},{"poiid":"B2094757D168A7FC4498","title":"1906咖啡吧(北)","lon":"121.55283888","lat":"31.292973341","category":"65","category_name":"咖啡厅","address":"杨浦区军工路516号上海理工大学内(近控江路)"},{"poiid":"B2094757D06FA6FC409C","title":"上海海洋大学(军工路校区)","lon":"121.55672","lat":"31.28648","category":"52","category_name":"高等院校","address":"上海杨浦区军工路334号(近易初莲花)  "},{"poiid":"B2094757D16EA2F84398","title":"上海理工大学北校区操场","lon":"121.55577533","lat":"31.288551683","category":"500","category_name":"未知分类","address":"上海市杨浦区军工路"},{"poiid":"B2094757D065A1F54298","title":"上海理工大学运动场","lon":"121.556309874","lat":"31.2910243314","category":"253","category_name":"校园生活","address":"杨浦区军工路470号上海理工大学校园内"},{"poiid":"B2094654D568A2FA439D","title":"上海理工大学第三学生公寓","lon":"121.55713","lat":"31.29555","category":"47","category_name":"住宅区","address":"上海理工大学第三学生公寓"},{"poiid":"B2094757D06FA1FF4792","title":"卜蜂莲花(周家嘴路店)","lon":"121.55321","lat":"31.28439","category":"118","category_name":"超级市场","address":"杨浦区周家嘴路4295号(近军工路)"},{"poiid":"B2094654D568A2FA479B","title":"上海理工大学第四学生公寓一号楼","lon":"121.55662","lat":"31.29512","category":"47","category_name":"住宅区","address":""},{"poiid":"B2094750DB6FA2FF4399","title":"上海帝国皇家理工大学","lon":"121.556884","lat":"31.29532","category":"253","category_name":"校园生活","address":"杨浦区军工路516号"},{"poiid":"B2094757D06FAAFF4798","title":"肯德基 KFC (周家嘴店)","lon":"121.554073","lat":"31.285973","category":"68","category_name":"快餐厅","address":"杨浦区周家嘴路4295号(近军工路)"},{"poiid":"B2094757D16DA1F9479E","title":"上海理工大学新体育馆","lon":"121.551655","lat":"31.289982","category":"253","category_name":"校园生活","address":"上海军工路580号"},{"poiid":"B2094757D065A7F4459F","title":"上海理工大学第四教学楼","lon":"121.557355858","lat":"31.2865823801","category":"253","category_name":"校园生活","address":"杨浦区军工路334号上海理工大学(南校区)校园内诚信大道"},{"poiid":"B2094654D568A2F84093","title":"时运苑","lon":"121.55441","lat":"31.288563","category":"47","category_name":"住宅区","address":"上海市杨浦区军工路"},{"poiid":"B2094757D068A3FA469A","title":"上海理工大学第五食堂","lon":"121.557476759","lat":"31.2951382687","category":"253","category_name":"校园生活","address":"杨浦区军工路516号上海理工大学内"},{"poiid":"B2094757D168A7FD499C","title":"上海理工大学一公寓南楼","lon":"121.5580691","lat":"31.293708646","category":"500","category_name":"未知分类","address":"上海军工路516号最靠江"},{"poiid":"B2094757D068A5F84293","title":"内江二村","lon":"121.551","lat":"31.2909","category":"47","category_name":"住宅区","address":"上海市杨浦区内江路"},{"poiid":"B2094654D568A2FA479F","title":"上海理工大学第一学生公寓北楼","lon":"121.55784","lat":"31.29417","category":"47","category_name":"住宅区","address":""},{"poiid":"B2094757D068ABF9459D","title":"上海理工大学二公寓三号楼","lon":"121.55772611","lat":"31.290753057","category":"253","category_name":"校园生活","address":"上海杨浦区军工路516号内"},{"poiid":"B2094757D16AA7FF4798","title":"上海理工大学综合楼C区","lon":"121.552987203","lat":"31.2893248174","category":"500","category_name":"未知分类","address":"上海市杨浦区军工路516号上海理工大学"},{"poiid":"B2094757D16FA1F94693","title":"上海理工大学580号","lon":"121.5517131","lat":"31.29089785","category":"500","category_name":"未知分类","address":"上海市杨浦区军工路"},{"poiid":"B2094757D568AAF5449B","title":"管理.机械学院","lon":"121.555754","lat":"31.290661","category":"52","category_name":"高等院校","address":"中国上海市杨浦区"},{"poiid":"B2094753D765A3F44492","title":"上海万达国际影城五角场","lon":"121.55587","lat":"31.289993","category":"500","category_name":"未知分类","address":"上海市 上海市杨浦区"},{"poiid":"B2094750DA69A0FD469A","title":"上海理工大学综合楼D区","lon":"121.55371","lat":"31.290208","category":"52","category_name":"高等院校","address":"杨浦区军工路516号上海理工大学内(近控江路)"},{"poiid":"B2094751D369A5F4459C","title":"Times Cafe(上理军工店)","lon":"121.55195","lat":"31.29042","category":"247","category_name":"餐饮美食","address":"杨浦区军工路516号上海理工大学新专家楼(近控江路)"},{"poiid":"B2094757D168A6FE409A","title":"上海理工大学观江台","lon":"121.55749945","lat":"31.293103898","category":"500","category_name":"未知分类","address":"上海军工路560号"},{"poiid":"B2094757D165A7FA479D","title":"上海理工大学综合楼","lon":"121.5539741","lat":"31.290581843","category":"500","category_name":"未知分类","address":"上海杨浦区军工路"},{"poiid":"B2094757D465A7FF489C","title":"时代咖啡 上理军工店 TimesCafe","lon":"121.55195","lat":"31.29042","category":"65","category_name":"咖啡厅","address":"军工路516号上海理工大学新专家楼近控江路"},{"poiid":"B2094750DB6CA7FF479C","title":"五角场第一食品","lon":"121.555389","lat":"31.289246","category":"247","category_name":"餐饮美食","address":"五角场第一食品豆捞坊"},{"poiid":"B2094757D165A7FE499A","title":"虹口区","lon":"121.554577","lat":"31.290932","category":"250","category_name":"公园户外","address":"上海虹口区区域"},{"poiid":"B2094757D065A3FB4392","title":"上海理工大学动力馆(上海理工大学能源与动力工程学院)","lon":"121.55294046","lat":"31.290829481","category":"52","category_name":"高等院校","address":"上海市杨浦区军工路516号湛恩大道"},{"poiid":"B2094757D06BA1FC419E","title":"恬乐酒家","lon":"121.54936366531","lat":"31.289596636997","category":"76","category_name":"上海菜","address":"杨浦区控江路57号(近军工路)"},{"poiid":"B2094757D16CA1FE479E","title":"上海理工大学第二食堂","lon":"121.55571188","lat":"31.293378333","category":"68","category_name":"快餐厅","address":"杨浦区军工路516号上海理工大学内"},{"poiid":"B2094654D568A2FA429F","title":"学生宿舍(七)","lon":"121.55757","lat":"31.29432","category":"47","category_name":"住宅区","address":""},{"poiid":"B2094654D568A2F4469D","title":"上海水产大学创业楼","lon":"121.55764","lat":"31.28931","category":"46","category_name":"楼宇","address":""},{"poiid":"B2094654D568A2FA479E","title":"上海理工大学新专家楼(招待所)","lon":"121.55491","lat":"31.29264","category":"46","category_name":"楼宇","address":""},{"poiid":"B2094655D36DA7F9499F","title":"周家嘴路军工路","lon":"121.55425","lat":"31.28593","category":"38","category_name":"公交车站","address":"上海周家嘴路军工路"},{"poiid":"B2094654D568A2F44692","title":"上海水产大学第五宿舍","lon":"121.55634","lat":"31.28947","category":"47","category_name":"住宅区","address":""},{"poiid":"B2094757D16BA6FD4598","title":"上海理工大学五公寓四号楼主","lon":"121.556815339","lat":"31.2894487042","category":"500","category_name":"未知分类","address":"上海市杨浦区军工路"},{"poiid":"B2094757D065A7FC4692","title":"上海理工大学游泳池","lon":"121.55837","lat":"31.29093","category":"220","category_name":"运动场所","address":"杨浦区军工路516号上海理工大学内(近控江路)"},{"poiid":"B2094750D76CA3FA4592","title":"上理工第一食堂","lon":"121.552","lat":"31.2904","category":"68","category_name":"快餐厅","address":"杨浦区军工路516号上海理工大学内(近控江路)"},{"poiid":"B2094757D568A6FE4099","title":"博懿比萨屋","lon":"121.5540511","lat":"31.28797639","category":"94","category_name":"西餐厅","address":"杨浦区军工路386号(近上海理工大学南校区)"},{"poiid":"B2094757D069A4FC4998","title":"吉祥馄饨(控江路店)","lon":"121.55038","lat":"31.28928","category":"68","category_name":"快餐厅","address":"杨浦区控江路51号(近上海理工大学)"},{"poiid":"B2094655D264A1FF4798","title":"白洋淀恬苑","lon":"121.558","lat":"31.2899","category":"47","category_name":"住宅区","address":"上海市杨浦区周家嘴路4212弄"},{"poiid":"B2094654D568A2F84298","title":"上海理工大学(军工路)","lon":"121.55195","lat":"31.29042","category":"671","category_name":"高校中心点","address":"杨浦区军工路516号"},{"poiid":"B2094757D06FA1FB409F","title":"上海理工大学第一教学楼","lon":"121.55567376","lat":"31.291738311","category":"253","category_name":"校园生活","address":"杨浦区军工路516号上海理工大学校园内湛恩大道"},{"poiid":"B2094757D06FA0FE499D","title":"上海理工大学图书馆(湛恩纪念图书馆)","lon":"121.55418748513023","lat":"31.29501685256328","category":"181","category_name":"图书馆","address":"杨浦区军工路516号上海理工大学内(近控江路)"},{"poiid":"B2094654D568A2FF499A","title":"沪江大学","lon":"121.55358","lat":"31.28951","category":"52","category_name":"高等院校","address":"海安路"},{"poiid":"B2094757D06FA6F84992","title":"上海理工大学第三教学楼","lon":"121.55627835","lat":"31.293536525","category":"253","category_name":"校园生活","address":"杨浦区军工路580号上海理工大学校园内勤勉大道"},{"poiid":"B2094757D06BABFA4998","title":"上海理工大学综合楼B区","lon":"121.5543021","lat":"31.290369839","category":"500","category_name":"未知分类","address":"上海市杨浦区军工路516号"},{"poiid":"B2094757D069A5F8459E","title":"上海理工大学大礼堂","lon":"121.55650302","lat":"31.292073276","category":"179","category_name":"音乐厅","address":"上海市杨浦区军工路516号"},{"poiid":"B2094757D16FA2F8489F","title":"活着就是最牛逼的信仰","lon":"121.557584339","lat":"31.2909997399","category":"500","category_name":"未知分类","address":"上海市杨浦区民治路"},{"poiid":"B2094757D168A7FC4498","title":"1906咖啡吧(北)","lon":"121.55283888","lat":"31.292973341","category":"65","category_name":"咖啡厅","address":"杨浦区军工路516号上海理工大学内(近控江路)"},{"poiid":"B2094757D06FA6FC409C","title":"上海海洋大学(军工路校区)","lon":"121.55672","lat":"31.28648","category":"52","category_name":"高等院校","address":"上海杨浦区军工路334号(近易初莲花)  "},{"poiid":"B2094757D16EA2F84398","title":"上海理工大学北校区操场","lon":"121.55577533","lat":"31.288551683","category":"500","category_name":"未知分类","address":"上海市杨浦区军工路"},{"poiid":"B2094757D065A1F54298","title":"上海理工大学运动场","lon":"121.556309874","lat":"31.2910243314","category":"253","category_name":"校园生活","address":"杨浦区军工路470号上海理工大学校园内"},{"poiid":"B2094654D568A2FA439D","title":"上海理工大学第三学生公寓","lon":"121.55713","lat":"31.29555","category":"47","category_name":"住宅区","address":"上海理工大学第三学生公寓"},{"poiid":"B2094757D06FA1FF4792","title":"卜蜂莲花(周家嘴路店)","lon":"121.55321","lat":"31.28439","category":"118","category_name":"超级市场","address":"杨浦区周家嘴路4295号(近军工路)"},{"poiid":"B2094654D568A2FA479B","title":"上海理工大学第四学生公寓一号楼","lon":"121.55662","lat":"31.29512","category":"47","category_name":"住宅区","address":""},{"poiid":"B2094750DB6FA2FF4399","title":"上海帝国皇家理工大学","lon":"121.556884","lat":"31.29532","category":"253","category_name":"校园生活","address":"杨浦区军工路516号"},{"poiid":"B2094757D06FAAFF4798","title":"肯德基 KFC (周家嘴店)","lon":"121.554073","lat":"31.285973","category":"68","category_name":"快餐厅","address":"杨浦区周家嘴路4295号(近军工路)"},{"poiid":"B2094757D16DA1F9479E","title":"上海理工大学新体育馆","lon":"121.551655","lat":"31.289982","category":"253","category_name":"校园生活","address":"上海军工路580号"},{"poiid":"B2094757D065A7F4459F","title":"上海理工大学第四教学楼","lon":"121.557355858","lat":"31.2865823801","category":"253","category_name":"校园生活","address":"杨浦区军工路334号上海理工大学(南校区)校园内诚信大道"},{"poiid":"B2094654D568A2F84093","title":"时运苑","lon":"121.55441","lat":"31.288563","category":"47","category_name":"住宅区","address":"上海市杨浦区军工路"},{"poiid":"B2094757D068A3FA469A","title":"上海理工大学第五食堂","lon":"121.557476759","lat":"31.2951382687","category":"253","category_name":"校园生活","address":"杨浦区军工路516号上海理工大学内"},{"poiid":"B2094757D168A7FD499C","title":"上海理工大学一公寓南楼","lon":"121.5580691","lat":"31.293708646","category":"500","category_name":"未知分类","address":"上海军工路516号最靠江"},{"poiid":"B2094757D068A5F84293","title":"内江二村","lon":"121.551","lat":"31.2909","category":"47","category_name":"住宅区","address":"上海市杨浦区内江路"},{"poiid":"B2094654D568A2FA479F","title":"上海理工大学第一学生公寓北楼","lon":"121.55784","lat":"31.29417","category":"47","category_name":"住宅区","address":""},{"poiid":"B2094757D068ABF9459D","title":"上海理工大学二公寓三号楼","lon":"121.55772611","lat":"31.290753057","category":"253","category_name":"校园生活","address":"上海杨浦区军工路516号内"},{"poiid":"B2094757D16AA7FF4798","title":"上海理工大学综合楼C区","lon":"121.552987203","lat":"31.2893248174","category":"500","category_name":"未知分类","address":"上海市杨浦区军工路516号上海理工大学"},{"poiid":"B2094757D16FA1F94693","title":"上海理工大学580号","lon":"121.5517131","lat":"31.29089785","category":"500","category_name":"未知分类","address":"上海市杨浦区军工路"},{"poiid":"B2094757D568AAF5449B","title":"管理.机械学院","lon":"121.555754","lat":"31.290661","category":"52","category_name":"高等院校","address":"中国上海市杨浦区"},{"poiid":"B2094753D765A3F44492","title":"上海万达国际影城五角场","lon":"121.55587","lat":"31.289993","category":"500","category_name":"未知分类","address":"上海市 上海市杨浦区"},{"poiid":"B2094750DA69A0FD469A","title":"上海理工大学综合楼D区","lon":"121.55371","lat":"31.290208","category":"52","category_name":"高等院校","address":"杨浦区军工路516号上海理工大学内(近控江路)"},{"poiid":"B2094751D369A5F4459C","title":"Times Cafe(上理军工店)","lon":"121.55195","lat":"31.29042","category":"247","category_name":"餐饮美食","address":"杨浦区军工路516号上海理工大学新专家楼(近控江路)"},{"poiid":"B2094757D168A6FE409A","title":"上海理工大学观江台","lon":"121.55749945","lat":"31.293103898","category":"500","category_name":"未知分类","address":"上海军工路560号"},{"poiid":"B2094757D165A7FA479D","title":"上海理工大学综合楼","lon":"121.5539741","lat":"31.290581843","category":"500","category_name":"未知分类","address":"上海杨浦区军工路"},{"poiid":"B2094757D465A7FF489C","title":"时代咖啡 上理军工店 TimesCafe","lon":"121.55195","lat":"31.29042","category":"65","category_name":"咖啡厅","address":"军工路516号上海理工大学新专家楼近控江路"},{"poiid":"B2094750DB6CA7FF479C","title":"五角场第一食品","lon":"121.555389","lat":"31.289246","category":"247","category_name":"餐饮美食","address":"五角场第一食品豆捞坊"},{"poiid":"B2094757D165A7FE499A","title":"虹口区","lon":"121.554577","lat":"31.290932","category":"250","category_name":"公园户外","address":"上海虹口区区域"},{"poiid":"B2094757D065A3FB4392","title":"上海理工大学动力馆(上海理工大学能源与动力工程学院)","lon":"121.55294046","lat":"31.290829481","category":"52","category_name":"高等院校","address":"上海市杨浦区军工路516号湛恩大道"},{"poiid":"B2094757D06BA1FC419E","title":"恬乐酒家","lon":"121.54936366531","lat":"31.289596636997","category":"76","category_name":"上海菜","address":"杨浦区控江路57号(近军工路)"},{"poiid":"B2094757D16CA1FE479E","title":"上海理工大学第二食堂","lon":"121.55571188","lat":"31.293378333","category":"68","category_name":"快餐厅","address":"杨浦区军工路516号上海理工大学内"},{"poiid":"B2094654D568A2FA429F","title":"学生宿舍(七)","lon":"121.55757","lat":"31.29432","category":"47","category_name":"住宅区","address":""},{"poiid":"B2094654D568A2F4469D","title":"上海水产大学创业楼","lon":"121.55764","lat":"31.28931","category":"46","category_name":"楼宇","address":""},{"poiid":"B2094654D568A2FA479E","title":"上海理工大学新专家楼(招待所)","lon":"121.55491","lat":"31.29264","category":"46","category_name":"楼宇","address":""},{"poiid":"B2094655D36DA7F9499F","title":"周家嘴路军工路","lon":"121.55425","lat":"31.28593","category":"38","category_name":"公交车站","address":"上海周家嘴路军工路"},{"poiid":"B2094654D568A2F44692","title":"上海水产大学第五宿舍","lon":"121.55634","lat":"31.28947","category":"47","category_name":"住宅区","address":""},{"poiid":"B2094757D16BA6FD4598","title":"上海理工大学五公寓四号楼主","lon":"121.556815339","lat":"31.2894487042","category":"500","category_name":"未知分类","address":"上海市杨浦区军工路"},{"poiid":"B2094757D065A7FC4692","title":"上海理工大学游泳池","lon":"121.55837","lat":"31.29093","category":"220","category_name":"运动场所","address":"杨浦区军工路516号上海理工大学内(近控江路)"},{"poiid":"B2094750D76CA3FA4592","title":"上理工第一食堂","lon":"121.552","lat":"31.2904","category":"68","category_name":"快餐厅","address":"杨浦区军工路516号上海理工大学内(近控江路)"},{"poiid":"B2094757D568A6FE4099","title":"博懿比萨屋","lon":"121.5540511","lat":"31.28797639","category":"94","category_name":"西餐厅","address":"杨浦区军工路386号(近上海理工大学南校区)"},{"poiid":"B2094757D069A4FC4998","title":"吉祥馄饨(控江路店)","lon":"121.55038","lat":"31.28928","category":"68","category_name":"快餐厅","address":"杨浦区控江路51号(近上海理工大学)"},{"poiid":"B2094655D264A1FF4798","title":"白洋淀恬苑","lon":"121.558","lat":"31.2899","category":"47","category_name":"住宅区","address":"上海市杨浦区周家嘴路4212弄"},{"poiid":"B2094654D568A2F84298","title":"上海理工大学(军工路)","lon":"121.55195","lat":"31.29042","category":"671","category_name":"高校中心点","address":"杨浦区军工路516号"},{"poiid":"B2094757D06FA1FB409F","title":"上海理工大学第一教学楼","lon":"121.55567376","lat":"31.291738311","category":"253","category_name":"校园生活","address":"杨浦区军工路516号上海理工大学校园内湛恩大道"},{"poiid":"B2094757D06FA0FE499D","title":"上海理工大学图书馆(湛恩纪念图书馆)","lon":"121.55418748513023","lat":"31.29501685256328","category":"181","category_name":"图书馆","address":"杨浦区军工路516号上海理工大学内(近控江路)"},{"poiid":"B2094654D568A2FF499A","title":"沪江大学","lon":"121.55358","lat":"31.28951","category":"52","category_name":"高等院校","address":"海安路"},{"poiid":"B2094757D06FA6F84992","title":"上海理工大学第三教学楼","lon":"121.55627835","lat":"31.293536525","category":"253","category_name":"校园生活","address":"杨浦区军工路580号上海理工大学校园内勤勉大道"},{"poiid":"B2094757D06BABFA4998","title":"上海理工大学综合楼B区","lon":"121.5543021","lat":"31.290369839","category":"500","category_name":"未知分类","address":"上海市杨浦区军工路516号"},{"poiid":"B2094757D069A5F8459E","title":"上海理工大学大礼堂","lon":"121.55650302","lat":"31.292073276","category":"179","category_name":"音乐厅","address":"上海市杨浦区军工路516号"},{"poiid":"B2094757D16FA2F8489F","title":"活着就是最牛逼的信仰","lon":"121.557584339","lat":"31.2909997399","category":"500","category_name":"未知分类","address":"上海市杨浦区民治路"},{"poiid":"B2094757D168A7FC4498","title":"1906咖啡吧(北)","lon":"121.55283888","lat":"31.292973341","category":"65","category_name":"咖啡厅","address":"杨浦区军工路516号上海理工大学内(近控江路)"},{"poiid":"B2094757D06FA6FC409C","title":"上海海洋大学(军工路校区)","lon":"121.55672","lat":"31.28648","category":"52","category_name":"高等院校","address":"上海杨浦区军工路334号(近易初莲花)  "},{"poiid":"B2094757D16EA2F84398","title":"上海理工大学北校区操场","lon":"121.55577533","lat":"31.288551683","category":"500","category_name":"未知分类","address":"上海市杨浦区军工路"},{"poiid":"B2094757D065A1F54298","title":"上海理工大学运动场","lon":"121.556309874","lat":"31.2910243314","category":"253","category_name":"校园生活","address":"杨浦区军工路470号上海理工大学校园内"},{"poiid":"B2094654D568A2FA439D","title":"上海理工大学第三学生公寓","lon":"121.55713","lat":"31.29555","category":"47","category_name":"住宅区","address":"上海理工大学第三学生公寓"},{"poiid":"B2094757D06FA1FF4792","title":"卜蜂莲花(周家嘴路店)","lon":"121.55321","lat":"31.28439","category":"118","category_name":"超级市场","address":"杨浦区周家嘴路4295号(近军工路)"},{"poiid":"B2094654D568A2FA479B","title":"上海理工大学第四学生公寓一号楼","lon":"121.55662","lat":"31.29512","category":"47","category_name":"住宅区","address":""},{"poiid":"B2094750DB6FA2FF4399","title":"上海帝国皇家理工大学","lon":"121.556884","lat":"31.29532","category":"253","category_name":"校园生活","address":"杨浦区军工路516号"},{"poiid":"B2094757D06FAAFF4798","title":"肯德基 KFC (周家嘴店)","lon":"121.554073","lat":"31.285973","category":"68","category_name":"快餐厅","address":"杨浦区周家嘴路4295号(近军工路)"},{"poiid":"B2094757D16DA1F9479E","title":"上海理工大学新体育馆","lon":"121.551655","lat":"31.289982","category":"253","category_name":"校园生活","address":"上海军工路580号"},{"poiid":"B2094757D065A7F4459F","title":"上海理工大学第四教学楼","lon":"121.557355858","lat":"31.2865823801","category":"253","category_name":"校园生活","address":"杨浦区军工路334号上海理工大学(南校区)校园内诚信大道"},{"poiid":"B2094654D568A2F84093","title":"时运苑","lon":"121.55441","lat":"31.288563","category":"47","category_name":"住宅区","address":"上海市杨浦区军工路"},{"poiid":"B2094757D068A3FA469A","title":"上海理工大学第五食堂","lon":"121.557476759","lat":"31.2951382687","category":"253","category_name":"校园生活","address":"杨浦区军工路516号上海理工大学内"},{"poiid":"B2094757D168A7FD499C","title":"上海理工大学一公寓南楼","lon":"121.5580691","lat":"31.293708646","category":"500","category_name":"未知分类","address":"上海军工路516号最靠江"},{"poiid":"B2094757D068A5F84293","title":"内江二村","lon":"121.551","lat":"31.2909","category":"47","category_name":"住宅区","address":"上海市杨浦区内江路"},{"poiid":"B2094654D568A2FA479F","title":"上海理工大学第一学生公寓北楼","lon":"121.55784","lat":"31.29417","category":"47","category_name":"住宅区","address":""},{"poiid":"B2094757D068ABF9459D","title":"上海理工大学二公寓三号楼","lon":"121.55772611","lat":"31.290753057","category":"253","category_name":"校园生活","address":"上海杨浦区军工路516号内"},{"poiid":"B2094757D16AA7FF4798","title":"上海理工大学综合楼C区","lon":"121.552987203","lat":"31.2893248174","category":"500","category_name":"未知分类","address":"上海市杨浦区军工路516号上海理工大学"},{"poiid":"B2094757D16FA1F94693","title":"上海理工大学580号","lon":"121.5517131","lat":"31.29089785","category":"500","category_name":"未知分类","address":"上海市杨浦区军工路"},{"poiid":"B2094757D568AAF5449B","title":"管理.机械学院","lon":"121.555754","lat":"31.290661","category":"52","category_name":"高等院校","address":"中国上海市杨浦区"},{"poiid":"B2094753D765A3F44492","title":"上海万达国际影城五角场","lon":"121.55587","lat":"31.289993","category":"500","category_name":"未知分类","address":"上海市 上海市杨浦区"},{"poiid":"B2094750DA69A0FD469A","title":"上海理工大学综合楼D区","lon":"121.55371","lat":"31.290208","category":"52","category_name":"高等院校","address":"杨浦区军工路516号上海理工大学内(近控江路)"},{"poiid":"B2094751D369A5F4459C","title":"Times Cafe(上理军工店)","lon":"121.55195","lat":"31.29042","category":"247","category_name":"餐饮美食","address":"杨浦区军工路516号上海理工大学新专家楼(近控江路)"},{"poiid":"B2094757D168A6FE409A","title":"上海理工大学观江台","lon":"121.55749945","lat":"31.293103898","category":"500","category_name":"未知分类","address":"上海军工路560号"},{"poiid":"B2094757D165A7FA479D","title":"上海理工大学综合楼","lon":"121.5539741","lat":"31.290581843","category":"500","category_name":"未知分类","address":"上海杨浦区军工路"},{"poiid":"B2094757D465A7FF489C","title":"时代咖啡 上理军工店 TimesCafe","lon":"121.55195","lat":"31.29042","category":"65","category_name":"咖啡厅","address":"军工路516号上海理工大学新专家楼近控江路"},{"poiid":"B2094750DB6CA7FF479C","title":"五角场第一食品","lon":"121.555389","lat":"31.289246","category":"247","category_name":"餐饮美食","address":"五角场第一食品豆捞坊"},{"poiid":"B2094757D165A7FE499A","title":"虹口区","lon":"121.554577","lat":"31.290932","category":"250","category_name":"公园户外","address":"上海虹口区区域"},{"poiid":"B2094757D065A3FB4392","title":"上海理工大学动力馆(上海理工大学能源与动力工程学院)","lon":"121.55294046","lat":"31.290829481","category":"52","category_name":"高等院校","address":"上海市杨浦区军工路516号湛恩大道"},{"poiid":"B2094757D06BA1FC419E","title":"恬乐酒家","lon":"121.54936366531","lat":"31.289596636997","category":"76","category_name":"上海菜","address":"杨浦区控江路57号(近军工路)"},{"poiid":"B2094757D16CA1FE479E","title":"上海理工大学第二食堂","lon":"121.55571188","lat":"31.293378333","category":"68","category_name":"快餐厅","address":"杨浦区军工路516号上海理工大学内"},{"poiid":"B2094654D568A2FA429F","title":"学生宿舍(七)","lon":"121.55757","lat":"31.29432","category":"47","category_name":"住宅区","address":""},{"poiid":"B2094654D568A2F4469D","title":"上海水产大学创业楼","lon":"121.55764","lat":"31.28931","category":"46","category_name":"楼宇","address":""},{"poiid":"B2094654D568A2FA479E","title":"上海理工大学新专家楼(招待所)","lon":"121.55491","lat":"31.29264","category":"46","category_name":"楼宇","address":""},{"poiid":"B2094655D36DA7F9499F","title":"周家嘴路军工路","lon":"121.55425","lat":"31.28593","category":"38","category_name":"公交车站","address":"上海周家嘴路军工路"},{"poiid":"B2094654D568A2F44692","title":"上海水产大学第五宿舍","lon":"121.55634","lat":"31.28947","category":"47","category_name":"住宅区","address":""},{"poiid":"B2094757D16BA6FD4598","title":"上海理工大学五公寓四号楼主","lon":"121.556815339","lat":"31.2894487042","category":"500","category_name":"未知分类","address":"上海市杨浦区军工路"},{"poiid":"B2094757D065A7FC4692","title":"上海理工大学游泳池","lon":"121.55837","lat":"31.29093","category":"220","category_name":"运动场所","address":"杨浦区军工路516号上海理工大学内(近控江路)"},{"poiid":"B2094750D76CA3FA4592","title":"上理工第一食堂","lon":"121.552","lat":"31.2904","category":"68","category_name":"快餐厅","address":"杨浦区军工路516号上海理工大学内(近控江路)"},{"poiid":"B2094757D568A6FE4099","title":"博懿比萨屋","lon":"121.5540511","lat":"31.28797639","category":"94","category_name":"西餐厅","address":"杨浦区军工路386号(近上海理工大学南校区)"},{"poiid":"B2094757D069A4FC4998","title":"吉祥馄饨(控江路店)","lon":"121.55038","lat":"31.28928","category":"68","category_name":"快餐厅","address":"杨浦区控江路51号(近上海理工大学)"},{"poiid":"B2094655D264A1FF4798","title":"白洋淀恬苑","lon":"121.558","lat":"31.2899","category":"47","category_name":"住宅区","address":"上海市杨浦区周家嘴路4212弄"},{"poiid":"B2094654D568A2F84298","title":"上海理工大学(军工路)","lon":"121.55195","lat":"31.29042","category":"671","category_name":"高校中心点","address":"杨浦区军工路516号"},{"poiid":"B2094757D06FA1FB409F","title":"上海理工大学第一教学楼","lon":"121.55567376","lat":"31.291738311","category":"253","category_name":"校园生活","address":"杨浦区军工路516号上海理工大学校园内湛恩大道"},{"poiid":"B2094757D06FA0FE499D","title":"上海理工大学图书馆(湛恩纪念图书馆)","lon":"121.55418748513023","lat":"31.29501685256328","category":"181","category_name":"图书馆","address":"杨浦区军工路516号上海理工大学内(近控江路)"},{"poiid":"B2094654D568A2FF499A","title":"沪江大学","lon":"121.55358","lat":"31.28951","category":"52","category_name":"高等院校","address":"海安路"},{"poiid":"B2094757D06FA6F84992","title":"上海理工大学第三教学楼","lon":"121.55627835","lat":"31.293536525","category":"253","category_name":"校园生活","address":"杨浦区军工路580号上海理工大学校园内勤勉大道"},{"poiid":"B2094757D06BABFA4998","title":"上海理工大学综合楼B区","lon":"121.5543021","lat":"31.290369839","category":"500","category_name":"未知分类","address":"上海市杨浦区军工路516号"},{"poiid":"B2094757D069A5F8459E","title":"上海理工大学大礼堂","lon":"121.55650302","lat":"31.292073276","category":"179","category_name":"音乐厅","address":"上海市杨浦区军工路516号"},{"poiid":"B2094757D16FA2F8489F","title":"活着就是最牛逼的信仰","lon":"121.557584339","lat":"31.2909997399","category":"500","category_name":"未知分类","address":"上海市杨浦区民治路"},{"poiid":"B2094757D168A7FC4498","title":"1906咖啡吧(北)","lon":"121.55283888","lat":"31.292973341","category":"65","category_name":"咖啡厅","address":"杨浦区军工路516号上海理工大学内(近控江路)"},{"poiid":"B2094757D06FA6FC409C","title":"上海海洋大学(军工路校区)","lon":"121.55672","lat":"31.28648","category":"52","category_name":"高等院校","address":"上海杨浦区军工路334号(近易初莲花)  "},{"poiid":"B2094757D16EA2F84398","title":"上海理工大学北校区操场","lon":"121.55577533","lat":"31.288551683","category":"500","category_name":"未知分类","address":"上海市杨浦区军工路"},{"poiid":"B2094757D065A1F54298","title":"上海理工大学运动场","lon":"121.556309874","lat":"31.2910243314","category":"253","category_name":"校园生活","address":"杨浦区军工路470号上海理工大学校园内"},{"poiid":"B2094654D568A2FA439D","title":"上海理工大学第三学生公寓","lon":"121.55713","lat":"31.29555","category":"47","category_name":"住宅区","address":"上海理工大学第三学生公寓"},{"poiid":"B2094757D06FA1FF4792","title":"卜蜂莲花(周家嘴路店)","lon":"121.55321","lat":"31.28439","category":"118","category_name":"超级市场","address":"杨浦区周家嘴路4295号(近军工路)"},{"poiid":"B2094654D568A2FA479B","title":"上海理工大学第四学生公寓一号楼","lon":"121.55662","lat":"31.29512","category":"47","category_name":"住宅区","address":""},{"poiid":"B2094750DB6FA2FF4399","title":"上海帝国皇家理工大学","lon":"121.556884","lat":"31.29532","category":"253","category_name":"校园生活","address":"杨浦区军工路516号"},{"poiid":"B2094757D06FAAFF4798","title":"肯德基 KFC (周家嘴店)","lon":"121.554073","lat":"31.285973","category":"68","category_name":"快餐厅","address":"杨浦区周家嘴路4295号(近军工路)"},{"poiid":"B2094757D16DA1F9479E","title":"上海理工大学新体育馆","lon":"121.551655","lat":"31.289982","category":"253","category_name":"校园生活","address":"上海军工路580号"},{"poiid":"B2094757D065A7F4459F","title":"上海理工大学第四教学楼","lon":"121.557355858","lat":"31.2865823801","category":"253","category_name":"校园生活","address":"杨浦区军工路334号上海理工大学(南校区)校园内诚信大道"},{"poiid":"B2094654D568A2F84093","title":"时运苑","lon":"121.55441","lat":"31.288563","category":"47","category_name":"住宅区","address":"上海市杨浦区军工路"},{"poiid":"B2094757D068A3FA469A","title":"上海理工大学第五食堂","lon":"121.557476759","lat":"31.2951382687","category":"253","category_name":"校园生活","address":"杨浦区军工路516号上海理工大学内"},{"poiid":"B2094757D168A7FD499C","title":"上海理工大学一公寓南楼","lon":"121.5580691","lat":"31.293708646","category":"500","category_name":"未知分类","address":"上海军工路516号最靠江"},{"poiid":"B2094757D068A5F84293","title":"内江二村","lon":"121.551","lat":"31.2909","category":"47","category_name":"住宅区","address":"上海市杨浦区内江路"},{"poiid":"B2094654D568A2FA479F","title":"上海理工大学第一学生公寓北楼","lon":"121.55784","lat":"31.29417","category":"47","category_name":"住宅区","address":""},{"poiid":"B2094757D068ABF9459D","title":"上海理工大学二公寓三号楼","lon":"121.55772611","lat":"31.290753057","category":"253","category_name":"校园生活","address":"上海杨浦区军工路516号内"},{"poiid":"B2094757D16AA7FF4798","title":"上海理工大学综合楼C区","lon":"121.552987203","lat":"31.2893248174","category":"500","category_name":"未知分类","address":"上海市杨浦区军工路516号上海理工大学"},{"poiid":"B2094757D16FA1F94693","title":"上海理工大学580号","lon":"121.5517131","lat":"31.29089785","category":"500","category_name":"未知分类","address":"上海市杨浦区军工路"},{"poiid":"B2094757D568AAF5449B","title":"管理.机械学院","lon":"121.555754","lat":"31.290661","category":"52","category_name":"高等院校","address":"中国上海市杨浦区"},{"poiid":"B2094753D765A3F44492","title":"上海万达国际影城五角场","lon":"121.55587","lat":"31.289993","category":"500","category_name":"未知分类","address":"上海市 上海市杨浦区"},{"poiid":"B2094750DA69A0FD469A","title":"上海理工大学综合楼D区","lon":"121.55371","lat":"31.290208","category":"52","category_name":"高等院校","address":"杨浦区军工路516号上海理工大学内(近控江路)"},{"poiid":"B2094751D369A5F4459C","title":"Times Cafe(上理军工店)","lon":"121.55195","lat":"31.29042","category":"247","category_name":"餐饮美食","address":"杨浦区军工路516号上海理工大学新专家楼(近控江路)"},{"poiid":"B2094757D168A6FE409A","title":"上海理工大学观江台","lon":"121.55749945","lat":"31.293103898","category":"500","category_name":"未知分类","address":"上海军工路560号"},{"poiid":"B2094757D165A7FA479D","title":"上海理工大学综合楼","lon":"121.5539741","lat":"31.290581843","category":"500","category_name":"未知分类","address":"上海杨浦区军工路"},{"poiid":"B2094757D465A7FF489C","title":"时代咖啡 上理军工店 TimesCafe","lon":"121.55195","lat":"31.29042","category":"65","category_name":"咖啡厅","address":"军工路516号上海理工大学新专家楼近控江路"},{"poiid":"B2094750DB6CA7FF479C","title":"五角场第一食品","lon":"121.555389","lat":"31.289246","category":"247","category_name":"餐饮美食","address":"五角场第一食品豆捞坊"},{"poiid":"B2094757D165A7FE499A","title":"虹口区","lon":"121.554577","lat":"31.290932","category":"250","category_name":"公园户外","address":"上海虹口区区域"},{"poiid":"B2094757D065A3FB4392","title":"上海理工大学动力馆(上海理工大学能源与动力工程学院)","lon":"121.55294046","lat":"31.290829481","category":"52","category_name":"高等院校","address":"上海市杨浦区军工路516号湛恩大道"},{"poiid":"B2094757D06BA1FC419E","title":"恬乐酒家","lon":"121.54936366531","lat":"31.289596636997","category":"76","category_name":"上海菜","address":"杨浦区控江路57号(近军工路)"},{"poiid":"B2094757D16CA1FE479E","title":"上海理工大学第二食堂","lon":"121.55571188","lat":"31.293378333","category":"68","category_name":"快餐厅","address":"杨浦区军工路516号上海理工大学内"},{"poiid":"B2094654D568A2FA429F","title":"学生宿舍(七)","lon":"121.55757","lat":"31.29432","category":"47","category_name":"住宅区","address":""},{"poiid":"B2094654D568A2F4469D","title":"上海水产大学创业楼","lon":"121.55764","lat":"31.28931","category":"46","category_name":"楼宇","address":""},{"poiid":"B2094654D568A2FA479E","title":"上海理工大学新专家楼(招待所)","lon":"121.55491","lat":"31.29264","category":"46","category_name":"楼宇","address":""},{"poiid":"B2094655D36DA7F9499F","title":"周家嘴路军工路","lon":"121.55425","lat":"31.28593","category":"38","category_name":"公交车站","address":"上海周家嘴路军工路"},{"poiid":"B2094654D568A2F44692","title":"上海水产大学第五宿舍","lon":"121.55634","lat":"31.28947","category":"47","category_name":"住宅区","address":""},{"poiid":"B2094757D16BA6FD4598","title":"上海理工大学五公寓四号楼主","lon":"121.556815339","lat":"31.2894487042","category":"500","category_name":"未知分类","address":"上海市杨浦区军工路"},{"poiid":"B2094757D065A7FC4692","title":"上海理工大学游泳池","lon":"121.55837","lat":"31.29093","category":"220","category_name":"运动场所","address":"杨浦区军工路516号上海理工大学内(近控江路)"},{"poiid":"B2094750D76CA3FA4592","title":"上理工第一食堂","lon":"121.552","lat":"31.2904","category":"68","category_name":"快餐厅","address":"杨浦区军工路516号上海理工大学内(近控江路)"},{"poiid":"B2094757D568A6FE4099","title":"博懿比萨屋","lon":"121.5540511","lat":"31.28797639","category":"94","category_name":"西餐厅","address":"杨浦区军工路386号(近上海理工大学南校区)"},{"poiid":"B2094757D069A4FC4998","title":"吉祥馄饨(控江路店)","lon":"121.55038","lat":"31.28928","category":"68","category_name":"快餐厅","address":"杨浦区控江路51号(近上海理工大学)"},{"poiid":"B2094655D264A1FF4798","title":"白洋淀恬苑","lon":"121.558","lat":"31.2899","category":"47","category_name":"住宅区","address":"上海市杨浦区周家嘴路4212弄"}]