[{"poiid":"B2094655D26EA1F4449E","title":"四季酒店","lon":"121.46235","lat":"31.22727","category":"213","category_name":"五星级宾馆","address":"静安区威海路500号(近石门一路)"},{"poiid":"B2094757D06BA3FC4699","title":"上海电视台","lon":"121.464846738","lat":"31.2300302958","category":"500","category_name":"未知分类","address":"上海静安区威海路298号"},{"poiid":"B2094757D06FA1F54392","title":"上海广播电视台(上海东方传媒集团有限公司)","lon":"121.465393908","lat":"31.2278577286","category":"46","category_name":"楼宇","address":"上海市静安区威海路298号"},{"poiid":"B2094753D76FAAFA449C","title":"上海滩国泰旗舰店","lon":"121.466011","lat":"31.216125","category":"249","category_name":"购物服务","address":"淮海中路868号"},{"poiid":"B209475CD564A7F84292","title":"上海滩新天地店","lon":"121.47463","lat":"31.22164","category":"119","category_name":"商场","address":"\"太仓路181弄新天地北里15号\r\n\""},{"poiid":"B209475CD564A7F8439E","title":"上海滩中信泰富店","lon":"121.45602","lat":"31.22851","category":"119","category_name":"商场","address":"\"南京西路1168号中信泰富广场，店铺号221.\r\n\""},{"poiid":"B2094655D26AABFD459A","title":"渝信川菜(招商局店)","lon":"121.46672","lat":"31.22781","category":"71","category_name":"四川菜","address":"静安区成都北路333号招商局广场3楼(近威海路)"},{"poiid":"B2094655D26DA2F54493","title":"星巴克(威海路店)","lon":"121.4629758","lat":"31.22691","category":"65","category_name":"咖啡厅","address":"静安区威海路433、439号(石门一路口)"},{"poiid":"B2094654DA6CA2F5419D","title":"上海招商局广场","lon":"121.46674","lat":"31.22779","category":"46","category_name":"楼宇","address":"丰台学城海鹰路1号，3号"},{"poiid":"B2094654DA6CA2F44193","title":"上海电视台(青海路)","lon":"121.4654","lat":"31.22782","category":"59","category_name":"电视台","address":"威海路298"},{"poiid":"B2094757D06FAAF4419C","title":"舒友海鲜大酒楼(静安店)","lon":"121.46697","lat":"31.2276","category":"260","category_name":"其他","address":"静安区成都北路333号招商局广场4楼(近威海路)"},{"poiid":"B2094757D069A1FD469B","title":"四季酒店宴会厅","lon":"121.46264","lat":"31.227","category":"76","category_name":"上海菜","address":"静安区威海路500号四季酒店3楼(近石门一路)"},{"poiid":"B2094757D06FABFF489E","title":"上视大厦","lon":"121.46522522","lat":"31.227647781","category":"46","category_name":"楼宇","address":"上海威海路298号"},{"poiid":"B2094654DB69A7FD479A","title":"四季咖啡厅","lon":"121.46246127811","lat":"31.227011244415","category":"268","category_name":"自助","address":"静安区威海路500号四季酒店1楼(近石门一路)"},{"poiid":"B2094757D06BA7F8409C","title":"威海路","lon":"121.46253204","lat":"31.226638793","category":"500","category_name":"未知分类","address":"静安区威海路"},{"poiid":"B2094654DA6CA2F54993","title":"萄醉(大沽路)","lon":"121.46442","lat":"31.2255","category":"94","category_name":"西餐厅","address":"静安区大沽路462号(近石门一路)"},{"poiid":"B2094757D068A0F54492","title":"中凯豪生酒店","lon":"121.46336","lat":"31.22589","category":"217","category_name":"旅馆招待所","address":"上海静安区石门一路118号(威海路口)  "},{"poiid":"B2094757D06FA5F44293","title":"招商局广场南楼","lon":"121.46630318","lat":"31.227698843","category":"46","category_name":"楼宇","address":"上海威海路258号"},{"poiid":"B2094752D164A0FC439D","title":"港汇恒隆广场","lon":"121.463596","lat":"31.229129","category":"500","category_name":"未知分类","address":"徐家汇"},{"poiid":"B2094757D069A5F4449F","title":"中凯城市之光","lon":"121.46649849","lat":"31.2264034314","category":"500","category_name":"未知分类","address":"大沽路368弄大沽路398弄威海路333弄"},{"poiid":"B2094757D66BA3F94593","title":"香料艺术印度餐厅 大沽路店 Masala Art","lon":"121.4643078311","lat":"31.225489783646","category":"102","category_name":"印度风味","address":"静安区大沽路397号(近成都北路)"},{"poiid":"B2094655D26DABFD429F","title":"丽池(上海CEO)会所","lon":"121.4666","lat":"31.22806","category":"149","category_name":"洗浴推拿场所","address":"成都北路333上海招商局广场东楼"},{"poiid":"B2094757D06BA6FD499C","title":"新太郎","lon":"121.46246127811","lat":"31.227011244415","category":"95","category_name":"日本料理","address":"静安区威海路500号四季酒店2楼(近石门一路)"},{"poiid":"B2094750D26EAAF4409F","title":"Y-in Lounge","lon":"121.465675","lat":"31.225568","category":"260","category_name":"其他","address":"静安区大沽路392号(近中凯城市之光)"},{"poiid":"B2094654DB65A7F9489F","title":"汉庭酒店(南京西路店)","lon":"121.46238","lat":"31.22823","category":"216","category_name":"经济型连锁酒店","address":"静安区石门一路239号(近吴江路)"},{"poiid":"B2094757D064A5FF429E","title":"荣府","lon":"121.46617","lat":"31.22708","category":"72","category_name":"广东菜","address":"静安区威海路289弄12号(近上海电视台)"},{"poiid":"B2094757D068A4FD489C","title":"招商局广场东楼","lon":"121.46661694","lat":"31.228478073","category":"46","category_name":"楼宇","address":"上海静安区成都北路333号"},{"poiid":"B2094751D26EA1FA449B","title":"思南路 查餐厅","lon":"121.465454","lat":"31.225442","category":"247","category_name":"餐饮美食","address":"淮海中路思南路"},{"poiid":"B2094750D664A6FD489C","title":"瑞美尔特面包房(石门一路店)","lon":"121.463","lat":"31.2262","category":"112","category_name":"糕饼店","address":"静安区石门一路88号(近威海路)"},{"poiid":"B2094654DA6CA2F4469C","title":"云海苑办公楼","lon":"121.46428","lat":"31.22911","category":"46","category_name":"楼宇","address":"朝阳区亚运村北3公里北苑居住区"},{"poiid":"B2094654D564AAF8449C","title":"欣广大厦","lon":"121.464","lat":"31.2283","category":"46","category_name":"楼宇","address":"徐汇区冠生园路223号"},{"poiid":"B2094757D069A0FF4899","title":"青海路","lon":"121.46367273","lat":"31.228550264","category":"260","category_name":"其他","address":"上海市静安区青海路"},{"poiid":"B2094654DA6CA1FC4093","title":"上海第九人民医院上海交通大学医学院","lon":"121.46572","lat":"31.22563","category":"52","category_name":"高等院校","address":"静安区大沽路388-390"},{"poiid":"B2094757D16FA7FC4492","title":"科瓦齿科(恒利店)","lon":"121.466587","lat":"31.227404","category":"162","category_name":"医院","address":"静安区成都北路199号恒利国际大厦11楼(威海路口)"},{"poiid":"B209475CD665A0FC4798","title":"元气寿司","lon":"121.465019","lat":"31.228212","category":"247","category_name":"餐饮美食","address":"上海市 吴江路"},{"poiid":"B2094757D66EA5FE449A","title":"岳阳医院推拿科","lon":"121.46427273","lat":"31.22885627","category":"162","category_name":"医院","address":"上海市静安区青海路南京西路"},{"poiid":"B2094753D76CA2FE479D","title":"外母屋家庭韩国料理","lon":"121.465744","lat":"31.228925","category":"247","category_name":"餐饮美食","address":"上海市 上海市南京西路818号818广场B1"},{"poiid":"B2094655D265A6FE489F","title":"上海汽车工业大厦配套工程综合楼(Shanghai)","lon":"121.46284","lat":"31.22605","category":"46","category_name":"楼宇","address":"石门一路89号"},{"poiid":"B2094757D065A2FD4292","title":"上海汽车集团股份有限公司","lon":"121.46233623","lat":"31.22651422","category":"46","category_name":"楼宇","address":"上海静安区威海路489号"},{"poiid":"B2094757D16CA5FB459A","title":"翡翠面馆","lon":"121.46671673","lat":"31.228659266","category":"68","category_name":"快餐厅","address":"静安区成都北路335号(近威海路)"},{"poiid":"B2094753DA6AA6F8449C","title":"PAPA PASTA 大叔意面","lon":"121.463432","lat":"31.22739","category":"247","category_name":"餐饮美食","address":"上海市 上海市静安区吴江路"},{"poiid":"B2094750D768A3FE4293","title":"杜六房茶餐部","lon":"121.464","lat":"31.2252","category":"72","category_name":"广东菜","address":"静安区大沽路517号-519号(石门一路口)"},{"poiid":"B2094753D764A0F54298","title":"日本力士相扑烧肉","lon":"121.464515","lat":"31.227705","category":"247","category_name":"餐饮美食","address":"上海市 静安区南京西路吴江路169号"},{"poiid":"B2094752D26FABFF499B","title":"Mr.&Mrs. Bund","lon":"121.464956","lat":"31.226435","category":"247","category_name":"餐饮美食","address":"外滩18号6楼"},{"poiid":"B209475CDA6AA7FA449B","title":"宝燕一号（静安店）","lon":"121.465736","lat":"31.225704","category":"247","category_name":"餐饮美食","address":"静安区石门一路116号"},{"poiid":"B2094753D46CA3F84592","title":"恒隆广场","lon":"121.46305","lat":"31.227308","category":"500","category_name":"未知分类","address":"上海市 南京西路1299号"},{"poiid":"B2094655D265ABFD4892","title":"上汽集团食堂","lon":"121.46253","lat":"31.22664","category":"76","category_name":"上海菜","address":"静安区威海路489号2楼(近石门一路)"},{"poiid":"B2094751DB6CA4FD459D","title":"La Pause Cafe","lon":"121.46232","lat":"31.2278","category":"94","category_name":"西餐厅","address":"静安区石门一路211号旺旺大厦1楼大堂内(近威海路)"},{"poiid":"B2094757D069A1FE4799","title":"浪漫美甲.美睫","lon":"121.46349673","lat":"31.228040753","category":"122","category_name":"个人用品/化妆品店","address":"上海黄浦区浙江中路229号百米香榭2楼257号"},{"poiid":"B2094757D06AA7FB499F","title":"沪嘉专线","lon":"121.46693973","lat":"31.227985252","category":"38","category_name":"公交车站","address":"上海成都北路(延安路高架下)"},{"poiid":"B2094655D26EA1F4449E","title":"四季酒店","lon":"121.46235","lat":"31.22727","category":"213","category_name":"五星级宾馆","address":"静安区威海路500号(近石门一路)"},{"poiid":"B2094757D06BA3FC4699","title":"上海电视台","lon":"121.464846738","lat":"31.2300302958","category":"500","category_name":"未知分类","address":"上海静安区威海路298号"},{"poiid":"B2094757D06FA1F54392","title":"上海广播电视台(上海东方传媒集团有限公司)","lon":"121.465393908","lat":"31.2278577286","category":"46","category_name":"楼宇","address":"上海市静安区威海路298号"},{"poiid":"B2094753D76FAAFA449C","title":"上海滩国泰旗舰店","lon":"121.466011","lat":"31.216125","category":"249","category_name":"购物服务","address":"淮海中路868号"},{"poiid":"B209475CD564A7F84292","title":"上海滩新天地店","lon":"121.47463","lat":"31.22164","category":"119","category_name":"商场","address":"\"太仓路181弄新天地北里15号\r\n\""},{"poiid":"B209475CD564A7F8439E","title":"上海滩中信泰富店","lon":"121.45602","lat":"31.22851","category":"119","category_name":"商场","address":"\"南京西路1168号中信泰富广场，店铺号221.\r\n\""},{"poiid":"B2094655D26AABFD459A","title":"渝信川菜(招商局店)","lon":"121.46672","lat":"31.22781","category":"71","category_name":"四川菜","address":"静安区成都北路333号招商局广场3楼(近威海路)"},{"poiid":"B2094655D26DA2F54493","title":"星巴克(威海路店)","lon":"121.4629758","lat":"31.22691","category":"65","category_name":"咖啡厅","address":"静安区威海路433、439号(石门一路口)"},{"poiid":"B2094654DA6CA2F5419D","title":"上海招商局广场","lon":"121.46674","lat":"31.22779","category":"46","category_name":"楼宇","address":"丰台学城海鹰路1号，3号"},{"poiid":"B2094654DA6CA2F44193","title":"上海电视台(青海路)","lon":"121.4654","lat":"31.22782","category":"59","category_name":"电视台","address":"威海路298"},{"poiid":"B2094757D06FAAF4419C","title":"舒友海鲜大酒楼(静安店)","lon":"121.46697","lat":"31.2276","category":"260","category_name":"其他","address":"静安区成都北路333号招商局广场4楼(近威海路)"},{"poiid":"B2094757D069A1FD469B","title":"四季酒店宴会厅","lon":"121.46264","lat":"31.227","category":"76","category_name":"上海菜","address":"静安区威海路500号四季酒店3楼(近石门一路)"},{"poiid":"B2094757D06FABFF489E","title":"上视大厦","lon":"121.46522522","lat":"31.227647781","category":"46","category_name":"楼宇","address":"上海威海路298号"},{"poiid":"B2094654DB69A7FD479A","title":"四季咖啡厅","lon":"121.46246127811","lat":"31.227011244415","category":"268","category_name":"自助","address":"静安区威海路500号四季酒店1楼(近石门一路)"},{"poiid":"B2094757D06BA7F8409C","title":"威海路","lon":"121.46253204","lat":"31.226638793","category":"500","category_name":"未知分类","address":"静安区威海路"},{"poiid":"B2094654DA6CA2F54993","title":"萄醉(大沽路)","lon":"121.46442","lat":"31.2255","category":"94","category_name":"西餐厅","address":"静安区大沽路462号(近石门一路)"},{"poiid":"B2094757D068A0F54492","title":"中凯豪生酒店","lon":"121.46336","lat":"31.22589","category":"217","category_name":"旅馆招待所","address":"上海静安区石门一路118号(威海路口)  "},{"poiid":"B2094757D06FA5F44293","title":"招商局广场南楼","lon":"121.46630318","lat":"31.227698843","category":"46","category_name":"楼宇","address":"上海威海路258号"},{"poiid":"B2094752D164A0FC439D","title":"港汇恒隆广场","lon":"121.463596","lat":"31.229129","category":"500","category_name":"未知分类","address":"徐家汇"},{"poiid":"B2094757D069A5F4449F","title":"中凯城市之光","lon":"121.46649849","lat":"31.2264034314","category":"500","category_name":"未知分类","address":"大沽路368弄大沽路398弄威海路333弄"},{"poiid":"B2094757D66BA3F94593","title":"香料艺术印度餐厅 大沽路店 Masala Art","lon":"121.4643078311","lat":"31.225489783646","category":"102","category_name":"印度风味","address":"静安区大沽路397号(近成都北路)"},{"poiid":"B2094655D26DABFD429F","title":"丽池(上海CEO)会所","lon":"121.4666","lat":"31.22806","category":"149","category_name":"洗浴推拿场所","address":"成都北路333上海招商局广场东楼"},{"poiid":"B2094757D06BA6FD499C","title":"新太郎","lon":"121.46246127811","lat":"31.227011244415","category":"95","category_name":"日本料理","address":"静安区威海路500号四季酒店2楼(近石门一路)"},{"poiid":"B2094750D26EAAF4409F","title":"Y-in Lounge","lon":"121.465675","lat":"31.225568","category":"260","category_name":"其他","address":"静安区大沽路392号(近中凯城市之光)"},{"poiid":"B2094654DB65A7F9489F","title":"汉庭酒店(南京西路店)","lon":"121.46238","lat":"31.22823","category":"216","category_name":"经济型连锁酒店","address":"静安区石门一路239号(近吴江路)"},{"poiid":"B2094757D064A5FF429E","title":"荣府","lon":"121.46617","lat":"31.22708","category":"72","category_name":"广东菜","address":"静安区威海路289弄12号(近上海电视台)"},{"poiid":"B2094757D068A4FD489C","title":"招商局广场东楼","lon":"121.46661694","lat":"31.228478073","category":"46","category_name":"楼宇","address":"上海静安区成都北路333号"},{"poiid":"B2094751D26EA1FA449B","title":"思南路 查餐厅","lon":"121.465454","lat":"31.225442","category":"247","category_name":"餐饮美食","address":"淮海中路思南路"},{"poiid":"B2094750D664A6FD489C","title":"瑞美尔特面包房(石门一路店)","lon":"121.463","lat":"31.2262","category":"112","category_name":"糕饼店","address":"静安区石门一路88号(近威海路)"},{"poiid":"B2094654DA6CA2F4469C","title":"云海苑办公楼","lon":"121.46428","lat":"31.22911","category":"46","category_name":"楼宇","address":"朝阳区亚运村北3公里北苑居住区"},{"poiid":"B2094654D564AAF8449C","title":"欣广大厦","lon":"121.464","lat":"31.2283","category":"46","category_name":"楼宇","address":"徐汇区冠生园路223号"},{"poiid":"B2094757D069A0FF4899","title":"青海路","lon":"121.46367273","lat":"31.228550264","category":"260","category_name":"其他","address":"上海市静安区青海路"},{"poiid":"B2094654DA6CA1FC4093","title":"上海第九人民医院上海交通大学医学院","lon":"121.46572","lat":"31.22563","category":"52","category_name":"高等院校","address":"静安区大沽路388-390"},{"poiid":"B2094757D16FA7FC4492","title":"科瓦齿科(恒利店)","lon":"121.466587","lat":"31.227404","category":"162","category_name":"医院","address":"静安区成都北路199号恒利国际大厦11楼(威海路口)"},{"poiid":"B209475CD665A0FC4798","title":"元气寿司","lon":"121.465019","lat":"31.228212","category":"247","category_name":"餐饮美食","address":"上海市 吴江路"},{"poiid":"B2094757D66EA5FE449A","title":"岳阳医院推拿科","lon":"121.46427273","lat":"31.22885627","category":"162","category_name":"医院","address":"上海市静安区青海路南京西路"},{"poiid":"B2094753D76CA2FE479D","title":"外母屋家庭韩国料理","lon":"121.465744","lat":"31.228925","category":"247","category_name":"餐饮美食","address":"上海市 上海市南京西路818号818广场B1"},{"poiid":"B2094655D265A6FE489F","title":"上海汽车工业大厦配套工程综合楼(Shanghai)","lon":"121.46284","lat":"31.22605","category":"46","category_name":"楼宇","address":"石门一路89号"},{"poiid":"B2094757D065A2FD4292","title":"上海汽车集团股份有限公司","lon":"121.46233623","lat":"31.22651422","category":"46","category_name":"楼宇","address":"上海静安区威海路489号"},{"poiid":"B2094757D16CA5FB459A","title":"翡翠面馆","lon":"121.46671673","lat":"31.228659266","category":"68","category_name":"快餐厅","address":"静安区成都北路335号(近威海路)"},{"poiid":"B2094753DA6AA6F8449C","title":"PAPA PASTA 大叔意面","lon":"121.463432","lat":"31.22739","category":"247","category_name":"餐饮美食","address":"上海市 上海市静安区吴江路"},{"poiid":"B2094750D768A3FE4293","title":"杜六房茶餐部","lon":"121.464","lat":"31.2252","category":"72","category_name":"广东菜","address":"静安区大沽路517号-519号(石门一路口)"},{"poiid":"B2094753D764A0F54298","title":"日本力士相扑烧肉","lon":"121.464515","lat":"31.227705","category":"247","category_name":"餐饮美食","address":"上海市 静安区南京西路吴江路169号"},{"poiid":"B2094752D26FABFF499B","title":"Mr.&Mrs. Bund","lon":"121.464956","lat":"31.226435","category":"247","category_name":"餐饮美食","address":"外滩18号6楼"},{"poiid":"B209475CDA6AA7FA449B","title":"宝燕一号（静安店）","lon":"121.465736","lat":"31.225704","category":"247","category_name":"餐饮美食","address":"静安区石门一路116号"},{"poiid":"B2094753D46CA3F84592","title":"恒隆广场","lon":"121.46305","lat":"31.227308","category":"500","category_name":"未知分类","address":"上海市 南京西路1299号"},{"poiid":"B2094655D265ABFD4892","title":"上汽集团食堂","lon":"121.46253","lat":"31.22664","category":"76","category_name":"上海菜","address":"静安区威海路489号2楼(近石门一路)"},{"poiid":"B2094751DB6CA4FD459D","title":"La Pause Cafe","lon":"121.46232","lat":"31.2278","category":"94","category_name":"西餐厅","address":"静安区石门一路211号旺旺大厦1楼大堂内(近威海路)"},{"poiid":"B2094757D069A1FE4799","title":"浪漫美甲.美睫","lon":"121.46349673","lat":"31.228040753","category":"122","category_name":"个人用品/化妆品店","address":"上海黄浦区浙江中路229号百米香榭2楼257号"},{"poiid":"B2094757D06AA7FB499F","title":"沪嘉专线","lon":"121.46693973","lat":"31.227985252","category":"38","category_name":"公交车站","address":"上海成都北路(延安路高架下)"},{"poiid":"B2094655D26EA1F4449E","title":"四季酒店","lon":"121.46235","lat":"31.22727","category":"213","category_name":"五星级宾馆","address":"静安区威海路500号(近石门一路)"},{"poiid":"B2094757D06BA3FC4699","title":"上海电视台","lon":"121.464846738","lat":"31.2300302958","category":"500","category_name":"未知分类","address":"上海静安区威海路298号"},{"poiid":"B2094757D06FA1F54392","title":"上海广播电视台(上海东方传媒集团有限公司)","lon":"121.465393908","lat":"31.2278577286","category":"46","category_name":"楼宇","address":"上海市静安区威海路298号"},{"poiid":"B2094753D76FAAFA449C","title":"上海滩国泰旗舰店","lon":"121.466011","lat":"31.216125","category":"249","category_name":"购物服务","address":"淮海中路868号"},{"poiid":"B209475CD564A7F84292","title":"上海滩新天地店","lon":"121.47463","lat":"31.22164","category":"119","category_name":"商场","address":"\"太仓路181弄新天地北里15号\r\n\""},{"poiid":"B209475CD564A7F8439E","title":"上海滩中信泰富店","lon":"121.45602","lat":"31.22851","category":"119","category_name":"商场","address":"\"南京西路1168号中信泰富广场，店铺号221.\r\n\""},{"poiid":"B2094655D26AABFD459A","title":"渝信川菜(招商局店)","lon":"121.46672","lat":"31.22781","category":"71","category_name":"四川菜","address":"静安区成都北路333号招商局广场3楼(近威海路)"},{"poiid":"B2094655D26DA2F54493","title":"星巴克(威海路店)","lon":"121.4629758","lat":"31.22691","category":"65","category_name":"咖啡厅","address":"静安区威海路433、439号(石门一路口)"},{"poiid":"B2094654DA6CA2F5419D","title":"上海招商局广场","lon":"121.46674","lat":"31.22779","category":"46","category_name":"楼宇","address":"丰台学城海鹰路1号，3号"},{"poiid":"B2094654DA6CA2F44193","title":"上海电视台(青海路)","lon":"121.4654","lat":"31.22782","category":"59","category_name":"电视台","address":"威海路298"},{"poiid":"B2094757D06FAAF4419C","title":"舒友海鲜大酒楼(静安店)","lon":"121.46697","lat":"31.2276","category":"260","category_name":"其他","address":"静安区成都北路333号招商局广场4楼(近威海路)"},{"poiid":"B2094757D069A1FD469B","title":"四季酒店宴会厅","lon":"121.46264","lat":"31.227","category":"76","category_name":"上海菜","address":"静安区威海路500号四季酒店3楼(近石门一路)"},{"poiid":"B2094757D06FABFF489E","title":"上视大厦","lon":"121.46522522","lat":"31.227647781","category":"46","category_name":"楼宇","address":"上海威海路298号"},{"poiid":"B2094654DB69A7FD479A","title":"四季咖啡厅","lon":"121.46246127811","lat":"31.227011244415","category":"268","category_name":"自助","address":"静安区威海路500号四季酒店1楼(近石门一路)"},{"poiid":"B2094757D06BA7F8409C","title":"威海路","lon":"121.46253204","lat":"31.226638793","category":"500","category_name":"未知分类","address":"静安区威海路"},{"poiid":"B2094654DA6CA2F54993","title":"萄醉(大沽路)","lon":"121.46442","lat":"31.2255","category":"94","category_name":"西餐厅","address":"静安区大沽路462号(近石门一路)"},{"poiid":"B2094757D068A0F54492","title":"中凯豪生酒店","lon":"121.46336","lat":"31.22589","category":"217","category_name":"旅馆招待所","address":"上海静安区石门一路118号(威海路口)  "},{"poiid":"B2094757D06FA5F44293","title":"招商局广场南楼","lon":"121.46630318","lat":"31.227698843","category":"46","category_name":"楼宇","address":"上海威海路258号"},{"poiid":"B2094752D164A0FC439D","title":"港汇恒隆广场","lon":"121.463596","lat":"31.229129","category":"500","category_name":"未知分类","address":"徐家汇"},{"poiid":"B2094757D069A5F4449F","title":"中凯城市之光","lon":"121.46649849","lat":"31.2264034314","category":"500","category_name":"未知分类","address":"大沽路368弄大沽路398弄威海路333弄"},{"poiid":"B2094757D66BA3F94593","title":"香料艺术印度餐厅 大沽路店 Masala Art","lon":"121.4643078311","lat":"31.225489783646","category":"102","category_name":"印度风味","address":"静安区大沽路397号(近成都北路)"},{"poiid":"B2094655D26DABFD429F","title":"丽池(上海CEO)会所","lon":"121.4666","lat":"31.22806","category":"149","category_name":"洗浴推拿场所","address":"成都北路333上海招商局广场东楼"},{"poiid":"B2094757D06BA6FD499C","title":"新太郎","lon":"121.46246127811","lat":"31.227011244415","category":"95","category_name":"日本料理","address":"静安区威海路500号四季酒店2楼(近石门一路)"},{"poiid":"B2094750D26EAAF4409F","title":"Y-in Lounge","lon":"121.465675","lat":"31.225568","category":"260","category_name":"其他","address":"静安区大沽路392号(近中凯城市之光)"},{"poiid":"B2094654DB65A7F9489F","title":"汉庭酒店(南京西路店)","lon":"121.46238","lat":"31.22823","category":"216","category_name":"经济型连锁酒店","address":"静安区石门一路239号(近吴江路)"},{"poiid":"B2094757D064A5FF429E","title":"荣府","lon":"121.46617","lat":"31.22708","category":"72","category_name":"广东菜","address":"静安区威海路289弄12号(近上海电视台)"},{"poiid":"B2094757D068A4FD489C","title":"招商局广场东楼","lon":"121.46661694","lat":"31.228478073","category":"46","category_name":"楼宇","address":"上海静安区成都北路333号"},{"poiid":"B2094751D26EA1FA449B","title":"思南路 查餐厅","lon":"121.465454","lat":"31.225442","category":"247","category_name":"餐饮美食","address":"淮海中路思南路"},{"poiid":"B2094750D664A6FD489C","title":"瑞美尔特面包房(石门一路店)","lon":"121.463","lat":"31.2262","category":"112","category_name":"糕饼店","address":"静安区石门一路88号(近威海路)"},{"poiid":"B2094654DA6CA2F4469C","title":"云海苑办公楼","lon":"121.46428","lat":"31.22911","category":"46","category_name":"楼宇","address":"朝阳区亚运村北3公里北苑居住区"},{"poiid":"B2094654D564AAF8449C","title":"欣广大厦","lon":"121.464","lat":"31.2283","category":"46","category_name":"楼宇","address":"徐汇区冠生园路223号"},{"poiid":"B2094757D069A0FF4899","title":"青海路","lon":"121.46367273","lat":"31.228550264","category":"260","category_name":"其他","address":"上海市静安区青海路"},{"poiid":"B2094654DA6CA1FC4093","title":"上海第九人民医院上海交通大学医学院","lon":"121.46572","lat":"31.22563","category":"52","category_name":"高等院校","address":"静安区大沽路388-390"},{"poiid":"B2094757D16FA7FC4492","title":"科瓦齿科(恒利店)","lon":"121.466587","lat":"31.227404","category":"162","category_name":"医院","address":"静安区成都北路199号恒利国际大厦11楼(威海路口)"},{"poiid":"B209475CD665A0FC4798","title":"元气寿司","lon":"121.465019","lat":"31.228212","category":"247","category_name":"餐饮美食","address":"上海市 吴江路"},{"poiid":"B2094757D66EA5FE449A","title":"岳阳医院推拿科","lon":"121.46427273","lat":"31.22885627","category":"162","category_name":"医院","address":"上海市静安区青海路南京西路"},{"poiid":"B2094753D76CA2FE479D","title":"外母屋家庭韩国料理","lon":"121.465744","lat":"31.228925","category":"247","category_name":"餐饮美食","address":"上海市 上海市南京西路818号818广场B1"},{"poiid":"B2094655D265A6FE489F","title":"上海汽车工业大厦配套工程综合楼(Shanghai)","lon":"121.46284","lat":"31.22605","category":"46","category_name":"楼宇","address":"石门一路89号"},{"poiid":"B2094757D065A2FD4292","title":"上海汽车集团股份有限公司","lon":"121.46233623","lat":"31.22651422","category":"46","category_name":"楼宇","address":"上海静安区威海路489号"},{"poiid":"B2094757D16CA5FB459A","title":"翡翠面馆","lon":"121.46671673","lat":"31.228659266","category":"68","category_name":"快餐厅","address":"静安区成都北路335号(近威海路)"},{"poiid":"B2094753DA6AA6F8449C","title":"PAPA PASTA 大叔意面","lon":"121.463432","lat":"31.22739","category":"247","category_name":"餐饮美食","address":"上海市 上海市静安区吴江路"},{"poiid":"B2094750D768A3FE4293","title":"杜六房茶餐部","lon":"121.464","lat":"31.2252","category":"72","category_name":"广东菜","address":"静安区大沽路517号-519号(石门一路口)"},{"poiid":"B2094753D764A0F54298","title":"日本力士相扑烧肉","lon":"121.464515","lat":"31.227705","category":"247","category_name":"餐饮美食","address":"上海市 静安区南京西路吴江路169号"},{"poiid":"B2094752D26FABFF499B","title":"Mr.&Mrs. Bund","lon":"121.464956","lat":"31.226435","category":"247","category_name":"餐饮美食","address":"外滩18号6楼"},{"poiid":"B209475CDA6AA7FA449B","title":"宝燕一号（静安店）","lon":"121.465736","lat":"31.225704","category":"247","category_name":"餐饮美食","address":"静安区石门一路116号"},{"poiid":"B2094753D46CA3F84592","title":"恒隆广场","lon":"121.46305","lat":"31.227308","category":"500","category_name":"未知分类","address":"上海市 南京西路1299号"},{"poiid":"B2094655D265ABFD4892","title":"上汽集团食堂","lon":"121.46253","lat":"31.22664","category":"76","category_name":"上海菜","address":"静安区威海路489号2楼(近石门一路)"},{"poiid":"B2094751DB6CA4FD459D","title":"La Pause Cafe","lon":"121.46232","lat":"31.2278","category":"94","category_name":"西餐厅","address":"静安区石门一路211号旺旺大厦1楼大堂内(近威海路)"},{"poiid":"B2094757D069A1FE4799","title":"浪漫美甲.美睫","lon":"121.46349673","lat":"31.228040753","category":"122","category_name":"个人用品/化妆品店","address":"上海黄浦区浙江中路229号百米香榭2楼257号"},{"poiid":"B2094757D06AA7FB499F","title":"沪嘉专线","lon":"121.46693973","lat":"31.227985252","category":"38","category_name":"公交车站","address":"上海成都北路(延安路高架下)"},{"poiid":"B2094655D26EA1F4449E","title":"四季酒店","lon":"121.46235","lat":"31.22727","category":"213","category_name":"五星级宾馆","address":"静安区威海路500号(近石门一路)"},{"poiid":"B2094757D06BA3FC4699","title":"上海电视台","lon":"121.464846738","lat":"31.2300302958","category":"500","category_name":"未知分类","address":"上海静安区威海路298号"},{"poiid":"B2094757D06FA1F54392","title":"上海广播电视台(上海东方传媒集团有限公司)","lon":"121.465393908","lat":"31.2278577286","category":"46","category_name":"楼宇","address":"上海市静安区威海路298号"},{"poiid":"B2094753D76FAAFA449C","title":"上海滩国泰旗舰店","lon":"121.466011","lat":"31.216125","category":"249","category_name":"购物服务","address":"淮海中路868号"},{"poiid":"B209475CD564A7F84292","title":"上海滩新天地店","lon":"121.47463","lat":"31.22164","category":"119","category_name":"商场","address":"\"太仓路181弄新天地北里15号\r\n\""},{"poiid":"B209475CD564A7F8439E","title":"上海滩中信泰富店","lon":"121.45602","lat":"31.22851","category":"119","category_name":"商场","address":"\"南京西路1168号中信泰富广场，店铺号221.\r\n\""},{"poiid":"B2094655D26AABFD459A","title":"渝信川菜(招商局店)","lon":"121.46672","lat":"31.22781","category":"71","category_name":"四川菜","address":"静安区成都北路333号招商局广场3楼(近威海路)"},{"poiid":"B2094655D26DA2F54493","title":"星巴克(威海路店)","lon":"121.4629758","lat":"31.22691","category":"65","category_name":"咖啡厅","address":"静安区威海路433、439号(石门一路口)"},{"poiid":"B2094654DA6CA2F5419D","title":"上海招商局广场","lon":"121.46674","lat":"31.22779","category":"46","category_name":"楼宇","address":"丰台学城海鹰路1号，3号"},{"poiid":"B2094654DA6CA2F44193","title":"上海电视台(青海路)","lon":"121.4654","lat":"31.22782","category":"59","category_name":"电视台","address":"威海路298"},{"poiid":"B2094757D06FAAF4419C","title":"舒友海鲜大酒楼(静安店)","lon":"121.46697","lat":"31.2276","category":"260","category_name":"其他","address":"静安区成都北路333号招商局广场4楼(近威海路)"},{"poiid":"B2094757D069A1FD469B","title":"四季酒店宴会厅","lon":"121.46264","lat":"31.227","category":"76","category_name":"上海菜","address":"静安区威海路500号四季酒店3楼(近石门一路)"},{"poiid":"B2094757D06FABFF489E","title":"上视大厦","lon":"121.46522522","lat":"31.227647781","category":"46","category_name":"楼宇","address":"上海威海路298号"},{"poiid":"B2094654DB69A7FD479A","title":"四季咖啡厅","lon":"121.46246127811","lat":"31.227011244415","category":"268","category_name":"自助","address":"静安区威海路500号四季酒店1楼(近石门一路)"},{"poiid":"B2094757D06BA7F8409C","title":"威海路","lon":"121.46253204","lat":"31.226638793","category":"500","category_name":"未知分类","address":"静安区威海路"},{"poiid":"B2094654DA6CA2F54993","title":"萄醉(大沽路)","lon":"121.46442","lat":"31.2255","category":"94","category_name":"西餐厅","address":"静安区大沽路462号(近石门一路)"},{"poiid":"B2094757D068A0F54492","title":"中凯豪生酒店","lon":"121.46336","lat":"31.22589","category":"217","category_name":"旅馆招待所","address":"上海静安区石门一路118号(威海路口)  "},{"poiid":"B2094757D06FA5F44293","title":"招商局广场南楼","lon":"121.46630318","lat":"31.227698843","category":"46","category_name":"楼宇","address":"上海威海路258号"},{"poiid":"B2094752D164A0FC439D","title":"港汇恒隆广场","lon":"121.463596","lat":"31.229129","category":"500","category_name":"未知分类","address":"徐家汇"},{"poiid":"B2094757D069A5F4449F","title":"中凯城市之光","lon":"121.46649849","lat":"31.2264034314","category":"500","category_name":"未知分类","address":"大沽路368弄大沽路398弄威海路333弄"},{"poiid":"B2094757D66BA3F94593","title":"香料艺术印度餐厅 大沽路店 Masala Art","lon":"121.4643078311","lat":"31.225489783646","category":"102","category_name":"印度风味","address":"静安区大沽路397号(近成都北路)"},{"poiid":"B2094655D26DABFD429F","title":"丽池(上海CEO)会所","lon":"121.4666","lat":"31.22806","category":"149","category_name":"洗浴推拿场所","address":"成都北路333上海招商局广场东楼"},{"poiid":"B2094757D06BA6FD499C","title":"新太郎","lon":"121.46246127811","lat":"31.227011244415","category":"95","category_name":"日本料理","address":"静安区威海路500号四季酒店2楼(近石门一路)"},{"poiid":"B2094750D26EAAF4409F","title":"Y-in Lounge","lon":"121.465675","lat":"31.225568","category":"260","category_name":"其他","address":"静安区大沽路392号(近中凯城市之光)"},{"poiid":"B2094654DB65A7F9489F","title":"汉庭酒店(南京西路店)","lon":"121.46238","lat":"31.22823","category":"216","category_name":"经济型连锁酒店","address":"静安区石门一路239号(近吴江路)"},{"poiid":"B2094757D064A5FF429E","title":"荣府","lon":"121.46617","lat":"31.22708","category":"72","category_name":"广东菜","address":"静安区威海路289弄12号(近上海电视台)"},{"poiid":"B2094757D068A4FD489C","title":"招商局广场东楼","lon":"121.46661694","lat":"31.228478073","category":"46","category_name":"楼宇","address":"上海静安区成都北路333号"},{"poiid":"B2094751D26EA1FA449B","title":"思南路 查餐厅","lon":"121.465454","lat":"31.225442","category":"247","category_name":"餐饮美食","address":"淮海中路思南路"},{"poiid":"B2094750D664A6FD489C","title":"瑞美尔特面包房(石门一路店)","lon":"121.463","lat":"31.2262","category":"112","category_name":"糕饼店","address":"静安区石门一路88号(近威海路)"},{"poiid":"B2094654DA6CA2F4469C","title":"云海苑办公楼","lon":"121.46428","lat":"31.22911","category":"46","category_name":"楼宇","address":"朝阳区亚运村北3公里北苑居住区"},{"poiid":"B2094654D564AAF8449C","title":"欣广大厦","lon":"121.464","lat":"31.2283","category":"46","category_name":"楼宇","address":"徐汇区冠生园路223号"},{"poiid":"B2094757D069A0FF4899","title":"青海路","lon":"121.46367273","lat":"31.228550264","category":"260","category_name":"其他","address":"上海市静安区青海路"},{"poiid":"B2094654DA6CA1FC4093","title":"上海第九人民医院上海交通大学医学院","lon":"121.46572","lat":"31.22563","category":"52","category_name":"高等院校","address":"静安区大沽路388-390"},{"poiid":"B2094757D16FA7FC4492","title":"科瓦齿科(恒利店)","lon":"121.466587","lat":"31.227404","category":"162","category_name":"医院","address":"静安区成都北路199号恒利国际大厦11楼(威海路口)"},{"poiid":"B209475CD665A0FC4798","title":"元气寿司","lon":"121.465019","lat":"31.228212","category":"247","category_name":"餐饮美食","address":"上海市 吴江路"},{"poiid":"B2094757D66EA5FE449A","title":"岳阳医院推拿科","lon":"121.46427273","lat":"31.22885627","category":"162","category_name":"医院","address":"上海市静安区青海路南京西路"},{"poiid":"B2094753D76CA2FE479D","title":"外母屋家庭韩国料理","lon":"121.465744","lat":"31.228925","category":"247","category_name":"餐饮美食","address":"上海市 上海市南京西路818号818广场B1"},{"poiid":"B2094655D265A6FE489F","title":"上海汽车工业大厦配套工程综合楼(Shanghai)","lon":"121.46284","lat":"31.22605","category":"46","category_name":"楼宇","address":"石门一路89号"},{"poiid":"B2094757D065A2FD4292","title":"上海汽车集团股份有限公司","lon":"121.46233623","lat":"31.22651422","category":"46","category_name":"楼宇","address":"上海静安区威海路489号"},{"poiid":"B2094757D16CA5FB459A","title":"翡翠面馆","lon":"121.46671673","lat":"31.228659266","category":"68","category_name":"快餐厅","address":"静安区成都北路335号(近威海路)"},{"poiid":"B2094753DA6AA6F8449C","title":"PAPA PASTA 大叔意面","lon":"121.463432","lat":"31.22739","category":"247","category_name":"餐饮美食","address":"上海市 上海市静安区吴江路"},{"poiid":"B2094750D768A3FE4293","title":"杜六房茶餐部","lon":"121.464","lat":"31.2252","category":"72","category_name":"广东菜","address":"静安区大沽路517号-519号(石门一路口)"},{"poiid":"B2094753D764A0F54298","title":"日本力士相扑烧肉","lon":"121.464515","lat":"31.227705","category":"247","category_name":"餐饮美食","address":"上海市 静安区南京西路吴江路169号"},{"poiid":"B2094752D26FABFF499B","title":"Mr.&Mrs. Bund","lon":"121.464956","lat":"31.226435","category":"247","category_name":"餐饮美食","address":"外滩18号6楼"},{"poiid":"B209475CDA6AA7FA449B","title":"宝燕一号（静安店）","lon":"121.465736","lat":"31.225704","category":"247","category_name":"餐饮美食","address":"静安区石门一路116号"},{"poiid":"B2094753D46CA3F84592","title":"恒隆广场","lon":"121.46305","lat":"31.227308","category":"500","category_name":"未知分类","address":"上海市 南京西路1299号"},{"poiid":"B2094655D265ABFD4892","title":"上汽集团食堂","lon":"121.46253","lat":"31.22664","category":"76","category_name":"上海菜","address":"静安区威海路489号2楼(近石门一路)"},{"poiid":"B2094751DB6CA4FD459D","title":"La Pause Cafe","lon":"121.46232","lat":"31.2278","category":"94","category_name":"西餐厅","address":"静安区石门一路211号旺旺大厦1楼大堂内(近威海路)"},{"poiid":"B2094757D069A1FE4799","title":"浪漫美甲.美睫","lon":"121.46349673","lat":"31.228040753","category":"122","category_name":"个人用品/化妆品店","address":"上海黄浦区浙江中路229号百米香榭2楼257号"},{"poiid":"B2094757D06AA7FB499F","title":"沪嘉专线","lon":"121.46693973","lat":"31.227985252","category":"38","category_name":"公交车站","address":"上海成都北路(延安路高架下)"}]