[{"poiid":"B2094757D06BABFB489F","title":"小木屋大酒楼","lon":"121.73278141","lat":"30.865198437","category":"76","category_name":"上海菜","address":"近郊奉贤区五四农场五四公路1255号(近新四平公路)"},{"poiid":"B2094757DB6DA5F84092","title":"上海小木屋会务中心","lon":"121.733794212","lat":"30.865642982","category":"216","category_name":"经济型连锁酒店","address":"上海市奉贤区五四农场五四公路1256号"},{"poiid":"B2094655D26FA1F9469A","title":"奉贤区五四学校","lon":"121.7372","lat":"30.86334","category":"55","category_name":"中学","address":""},{"poiid":"B2094757D66FA2F4419B","title":"五四公路芦五公路","lon":"121.73725162","lat":"30.865515281","category":"500","category_name":"未知分类","address":"上海五四公路芦五公路"},{"poiid":"B2094654DB68ABFF4998","title":"上海奶牛育种中心有限公司","lon":"121.75063","lat":"30.8734","category":"263","category_name":"公司","address":""},{"poiid":"B2094654DB68ABFF4899","title":"农工商超市No.361","lon":"121.73451","lat":"30.86594","category":"118","category_name":"超级市场","address":"五四公路1198"},{"poiid":"B2094654DB68ABFE469C","title":"海城花苑","lon":"121.72871","lat":"30.86562","category":"47","category_name":"住宅区","address":"五四农场"},{"poiid":"B2094654DB69A7FB4599","title":"五四派出所","lon":"121.73533","lat":"30.86637","category":"609","category_name":"警察局","address":"奉贤区五四公路新场部桥西往北50米"},{"poiid":"B2094655D36DA1FA4899","title":"五四场部","lon":"121.7315","lat":"30.86682","category":"38","category_name":"公交车站","address":""},{"poiid":"B2094654DB68ABFF4893","title":"中港小区二、三村","lon":"121.73162","lat":"30.86462","category":"47","category_name":"住宅区","address":"五四农场"},{"poiid":"B2094655D36DA1FA489C","title":"五四老场部","lon":"121.7325","lat":"30.87917","category":"38","category_name":"公交车站","address":""},{"poiid":"B2094655D26DA5FF4298","title":"海城小区(四平公路)","lon":"121.73086","lat":"30.86453","category":"47","category_name":"住宅区","address":"上海市奉贤区四平公路"},{"poiid":"B2094655D36DA1FA4893","title":"五四医院","lon":"121.73137","lat":"30.86367","category":"162","category_name":"医院","address":""}]