[{"poiid":"B2094655D265A5FA4098","title":"浦东嘉里中心","lon":"121.56254","lat":"31.21279","category":"46","category_name":"楼宇","address":"浦东新区花木路芳甸路"},{"poiid":"B2094655D264AAF44893","title":"浦东嘉里城","lon":"121.56142","lat":"31.21236","category":"119","category_name":"商场","address":"浦东新区芳甸路1155号"},{"poiid":"B2094757D06FA6FE449A","title":"浦东嘉里大酒店(Kerry Hotel)","lon":"121.562339396","lat":"31.2128867007","category":"217","category_name":"旅馆招待所","address":"浦东新区花木路1388号(近芳甸路)"},{"poiid":"B2094655D26AA6F9489A","title":"新国际展览中心","lon":"121.5654","lat":"31.21161","category":"247","category_name":"餐饮美食","address":"浦东新区龙阳路2345号(近芳甸路)"},{"poiid":"B2094757D064A2F9439A","title":"新旺茶餐厅(嘉里城店)","lon":"121.563320975","lat":"31.2123346421","category":"72","category_name":"广东菜","address":"浦东新区花木路1378号浦东嘉里城1楼L126单元"},{"poiid":"B2094757D06FA4FD429B","title":"蓝蛙(嘉里城店)","lon":"121.562534178","lat":"31.2128727619","category":"260","category_name":"其他","address":"浦东新区花木路1378号嘉里城商场1楼L131号(近浦东新博览中心)"},{"poiid":"B2094757D16DA1FE4098","title":"California pizza kitchen(嘉里城店)","lon":"121.5616","lat":"31.21347","category":"94","category_name":"西餐厅","address":"浦东新区花木路1378号浦东嘉里城2楼L231室(近芳甸路)"},{"poiid":"B2094757D06FAAFD4499","title":"融合马来西亚餐厅(嘉里城店)","lon":"121.563071975","lat":"31.2119606334","category":"110","category_name":"其他亚洲菜","address":"浦东新区芳甸路1155号嘉里城商场2楼L216A号(近新国际展览中心)"},{"poiid":"B2094757D06FA6FB4392","title":"新元素(嘉里城店)","lon":"121.56213664","lat":"31.213014313","category":"94","category_name":"西餐厅","address":"浦东新区花木路1378号浦东嘉里城1楼(近梅花路)"},{"poiid":"B2094757D069A2F4499B","title":"Baker&Spice(嘉里城店)","lon":"121.563149975","lat":"31.2127126509","category":"67","category_name":"甜品店","address":"浦东新区花木路1378号嘉里城(近芳甸路)"},{"poiid":"B2094757D06FA2F84993","title":"星巴克 STARBUCKS (浦东嘉里中心店)","lon":"121.5616098","lat":"31.2134727","category":"260","category_name":"其他","address":"浦东新区花木路1378号嘉里城商场1楼L110单元"},{"poiid":"B2094757D06FA7F9459C","title":"和民居食屋(浦东嘉里城店)","lon":"121.56422097","lat":"31.212740651","category":"95","category_name":"日本料理","address":"上海市浦东新区花木路1378号浦东嘉里城商场地下一层B105b号单元"},{"poiid":"B2094757D06BA0FC439E","title":"Johnny Moo（浦东嘉里城旗舰店）","lon":"121.56301597","lat":"31.212829653","category":"94","category_name":"西餐厅","address":"浦东新区花木路1378号浦东嘉里城2楼(近芳甸路)"},{"poiid":"B2094655D26DA1F94998","title":"世纪公园(四号门)","lon":"121.56079","lat":"31.21623","category":"680","category_name":"楼宇机构","address":"芳甸路858"},{"poiid":"B2094757D065A6FF479C","title":"逸谷","lon":"121.563296975","lat":"31.2123126416","category":"72","category_name":"广东菜","address":"浦东新区花木路1378号嘉里城2楼219A号(近芳甸路)"},{"poiid":"B2094757D06AA2FD4498","title":"大茴香(嘉里城店)","lon":"121.563372638","lat":"31.2124443102","category":"99","category_name":"泰国／越南菜品餐厅","address":"浦东新区花木路1378号嘉里城商场1楼115室(近芳甸路,新国际展览中心W5展馆对面)"},{"poiid":"B2094757D064A0FC479E","title":"赤坂亭(浦东嘉里店)","lon":"121.563086975","lat":"31.2127956529","category":"269","category_name":"烧烤","address":"浦东新区花木路1378号浦东嘉里城商场2楼L234单元"},{"poiid":"B2094757D068A3F8479E","title":"友乐达台北精致面馆(浦东嘉里城店)","lon":"121.56402197","lat":"31.211982633","category":"68","category_name":"快餐厅","address":"浦东新区花木路1378号浦东嘉里城B1楼05A号(近梅花路)"},{"poiid":"B2094757D068A6F84498","title":"食之秘(浦东嘉里城店)","lon":"121.56416617","lat":"31.21139112","category":"67","category_name":"甜品店","address":"浦东新区花木路1378号浦东嘉里城商场B110号铺(近芳甸路)"},{"poiid":"B2094757D069A4FE419A","title":"小南国(浦东嘉里城)","lon":"121.563241975","lat":"31.2125196464","category":"500","category_name":"未知分类","address":"上海市浦东新区花木路1378号浦东嘉里城2楼"},{"poiid":"B2094757D06FA4FF4893","title":"The COOK·厨","lon":"121.56314097","lat":"31.212868654","category":"217","category_name":"旅馆招待所","address":"上海浦东新区花木路1388号嘉里大酒店1楼(近芳甸路)"},{"poiid":"B2094757D66DA0FA499D","title":"上海出入境","lon":"121.559001975","lat":"31.220153825","category":"500","category_name":"未知分类","address":"上海市浦东新区民生路1500号"},{"poiid":"B2094757D064A1F5499B","title":"龙阳路磁悬浮","lon":"121.560088975","lat":"31.2184807858","category":"500","category_name":"未知分类","address":"上海龙阳路"},{"poiid":"B2094757D068A2FD489E","title":"九间堂","lon":"121.5620138","lat":"31.222304185","category":"500","category_name":"未知分类","address":"浦东新区芳甸路599弄1号(近锦绣路)"},{"poiid":"B2094757D068A7F84793","title":"Ole' Supermarket(浦东嘉里城店)","lon":"121.563133227","lat":"31.2132648841","category":"118","category_name":"超级市场","address":"浦东新区花木路1378号嘉里城B108商铺(近新国际博览中心)"},{"poiid":"B2094757D465A3FA439E","title":"俏江南 花木路店","lon":"121.5616098","lat":"31.2134727","category":"247","category_name":"餐饮美食","address":"浦东新区花木路1378号浦东嘉里城L215号(近浦东新国际展览中心)"},{"poiid":"B2094750D76FA0FB4699","title":"居食屋和民(浦东嘉里城店)","lon":"121.562","lat":"31.2124","category":"95","category_name":"日本料理","address":"浦东新区芳甸路1155号嘉里城B1楼105B号(花木路口)"},{"poiid":"B2094757D069AAFB4399","title":"The BREW•酿","lon":"121.56264494","lat":"31.213571604","category":"172","category_name":"酒吧","address":"浦东新区花木路1388号嘉里大酒店1楼(近芳甸路)"},{"poiid":"B2094757DB6CA4FF4899","title":"宝珠奶酪（嘉里城店）","lon":"121.56224","lat":"31.21243","category":"67","category_name":"甜品店","address":"浦东新区芳甸路1155号嘉里城B区B1楼(近世纪公园)"},{"poiid":"B2094757D06EAAFC4499","title":"花木路地铁站","lon":"121.56275848","lat":"31.211390958","category":"36","category_name":"地铁站","address":"上海轨道交通 七号线 轨交花木路站 7"},{"poiid":"B2094757D06FABFA469F","title":"紫竹国际大厦","lon":"121.56824976597","lat":"31.217863825633","category":"46","category_name":"楼宇","address":"普陀区大渡河路588号"},{"poiid":"B2094757D069A3FA4992","title":"有心","lon":"121.5616098","lat":"31.2134727","category":"75","category_name":"浙江菜","address":"浦东新区花木路1378号嘉里城商场1楼113号(近芳甸路)"},{"poiid":"B2094757D06EAAFC4392","title":"太平洋咖啡Pacific Coffee(浦东嘉里城店)","lon":"121.564106638","lat":"31.212344308","category":"260","category_name":"其他","address":"浦东新区花木路1378号浦东嘉里城2楼L205号(近7号线花木路站)"},{"poiid":"B2094753D76AA4FF459C","title":"泰迪之家(嘉里城店)","lon":"121.562709","lat":"31.212447","category":"99","category_name":"泰国／越南菜品餐厅","address":"上海市浦东新区花木路1378号嘉里城1楼L225号铺"},{"poiid":"B2094751D469A0F8479C","title":"唐鱼儿麻辣鲜鱼火锅","lon":"121.560104","lat":"31.225509","category":"86","category_name":"火锅店","address":"浦东新区芳甸路199弄40号大拇指广场46号(近迎春路)"},{"poiid":"B2094757DB69A7F54698","title":"证大 喜马拉雅中心","lon":"121.560075","lat":"31.211838","category":"249","category_name":"购物服务","address":"芳甸路118弄"},{"poiid":"B2094757D068A3FF459E","title":"Afternoon Tea(花木路店)","lon":"121.562549975","lat":"31.2125306467","category":"94","category_name":"西餐厅","address":"浦东新区花木路1378号浦东嘉里城L109铺"},{"poiid":"B2094757D66BA0FD489D","title":"诺心Tableau 浦东嘉里中心店 TableauBakeryCafe","lon":"121.5616097","lat":"31.2134733","category":"67","category_name":"甜品店","address":"浦东新区花木路1378号浦东嘉里城B1楼11单元(近花木地铁站7号线)"},{"poiid":"B2094751D46BABFD469F","title":"义面屋","lon":"121.55899","lat":"31.225021","category":"94","category_name":"西餐厅","address":"浦东新区芳甸路199弄大拇指广场19号(预计12月开业)"},{"poiid":"B2094757DA6EABFA4693","title":"越味风(嘉里城店)","lon":"121.561609700001","lat":"31.2134733","category":"99","category_name":"泰国／越南菜品餐厅","address":"浦东新区花木路1378号嘉里城商场B1楼"},{"poiid":"B2094757D16EA5F8479F","title":"斗香园(嘉里店)","lon":"121.563118975","lat":"31.2124096439","category":"68","category_name":"快餐厅","address":"浦东新区花木路1378号嘉里城中心B1楼B103号(近新国际博览中心)"},{"poiid":"B2094750DB68AAFF4298","title":"嘉里城","lon":"121.563339","lat":"31.212678","category":"248","category_name":"生活娱乐","address":"浦东新区花木路1378号"},{"poiid":"B2094757D064A2FE449C","title":"Coffee Bean 浦东嘉里中心店","lon":"121.56428097","lat":"31.212755651","category":"65","category_name":"咖啡厅","address":"上海市浦东嘉里中心"},{"poiid":"B2094757D165A6FA4892","title":"俏江南","lon":"121.55993697","lat":"31.21867379","category":"500","category_name":"未知分类","address":"上海市浦东新区锦绣路"},{"poiid":"B2094757D16CA4FE469B","title":"纽约客(浦东嘉里城店)","lon":"121.56335327","lat":"31.211900131","category":"94","category_name":"西餐厅","address":"上海浦东新区花木路1378号浦东嘉里城L116店"},{"poiid":"B2094655D26AA6F94898","title":"上海车展","lon":"121.5654","lat":"31.21161","category":"247","category_name":"餐饮美食","address":"浦东新区龙阳路2345号新国际博览中心"},{"poiid":"B2094757D16AA3F94199","title":"二号线上海科技馆站","lon":"121.55862497","lat":"31.220030822","category":"500","category_name":"未知分类","address":"上海市浦东新区长柳路"},{"poiid":"B2094757D06BA6FD4193","title":"斗香园(浦东嘉里中心店)","lon":"121.563023475","lat":"31.2113533192","category":"500","category_name":"未知分类","address":"上海地铁七号线花木路站1号口"},{"poiid":"B2094757D16FAAFD429D","title":"诗碧阁西餐厅","lon":"121.563161975","lat":"31.2128106532","category":"500","category_name":"未知分类","address":"上海浦东嘉里中心"},{"poiid":"B2094750D76EA4F8479B","title":"味匠","lon":"121.562","lat":"31.2113","category":"95","category_name":"日本料理","address":"浦东新区梅花路1099号紫竹大厦商铺B1楼02室(芳甸路口)"},{"poiid":"B2094655D265A5FA4098","title":"浦东嘉里中心","lon":"121.56254","lat":"31.21279","category":"46","category_name":"楼宇","address":"浦东新区花木路芳甸路"},{"poiid":"B2094655D264AAF44893","title":"浦东嘉里城","lon":"121.56142","lat":"31.21236","category":"119","category_name":"商场","address":"浦东新区芳甸路1155号"},{"poiid":"B2094757D06FA6FE449A","title":"浦东嘉里大酒店(Kerry Hotel)","lon":"121.562339396","lat":"31.2128867007","category":"217","category_name":"旅馆招待所","address":"浦东新区花木路1388号(近芳甸路)"},{"poiid":"B2094655D26AA6F9489A","title":"新国际展览中心","lon":"121.5654","lat":"31.21161","category":"247","category_name":"餐饮美食","address":"浦东新区龙阳路2345号(近芳甸路)"},{"poiid":"B2094757D064A2F9439A","title":"新旺茶餐厅(嘉里城店)","lon":"121.563320975","lat":"31.2123346421","category":"72","category_name":"广东菜","address":"浦东新区花木路1378号浦东嘉里城1楼L126单元"},{"poiid":"B2094757D06FA4FD429B","title":"蓝蛙(嘉里城店)","lon":"121.562534178","lat":"31.2128727619","category":"260","category_name":"其他","address":"浦东新区花木路1378号嘉里城商场1楼L131号(近浦东新博览中心)"},{"poiid":"B2094757D16DA1FE4098","title":"California pizza kitchen(嘉里城店)","lon":"121.5616","lat":"31.21347","category":"94","category_name":"西餐厅","address":"浦东新区花木路1378号浦东嘉里城2楼L231室(近芳甸路)"},{"poiid":"B2094757D06FAAFD4499","title":"融合马来西亚餐厅(嘉里城店)","lon":"121.563071975","lat":"31.2119606334","category":"110","category_name":"其他亚洲菜","address":"浦东新区芳甸路1155号嘉里城商场2楼L216A号(近新国际展览中心)"},{"poiid":"B2094757D06FA6FB4392","title":"新元素(嘉里城店)","lon":"121.56213664","lat":"31.213014313","category":"94","category_name":"西餐厅","address":"浦东新区花木路1378号浦东嘉里城1楼(近梅花路)"},{"poiid":"B2094757D069A2F4499B","title":"Baker&Spice(嘉里城店)","lon":"121.563149975","lat":"31.2127126509","category":"67","category_name":"甜品店","address":"浦东新区花木路1378号嘉里城(近芳甸路)"},{"poiid":"B2094757D06FA2F84993","title":"星巴克 STARBUCKS (浦东嘉里中心店)","lon":"121.5616098","lat":"31.2134727","category":"260","category_name":"其他","address":"浦东新区花木路1378号嘉里城商场1楼L110单元"},{"poiid":"B2094757D06FA7F9459C","title":"和民居食屋(浦东嘉里城店)","lon":"121.56422097","lat":"31.212740651","category":"95","category_name":"日本料理","address":"上海市浦东新区花木路1378号浦东嘉里城商场地下一层B105b号单元"},{"poiid":"B2094757D06BA0FC439E","title":"Johnny Moo（浦东嘉里城旗舰店）","lon":"121.56301597","lat":"31.212829653","category":"94","category_name":"西餐厅","address":"浦东新区花木路1378号浦东嘉里城2楼(近芳甸路)"},{"poiid":"B2094655D26DA1F94998","title":"世纪公园(四号门)","lon":"121.56079","lat":"31.21623","category":"680","category_name":"楼宇机构","address":"芳甸路858"},{"poiid":"B2094757D065A6FF479C","title":"逸谷","lon":"121.563296975","lat":"31.2123126416","category":"72","category_name":"广东菜","address":"浦东新区花木路1378号嘉里城2楼219A号(近芳甸路)"},{"poiid":"B2094757D06AA2FD4498","title":"大茴香(嘉里城店)","lon":"121.563372638","lat":"31.2124443102","category":"99","category_name":"泰国／越南菜品餐厅","address":"浦东新区花木路1378号嘉里城商场1楼115室(近芳甸路,新国际展览中心W5展馆对面)"},{"poiid":"B2094757D064A0FC479E","title":"赤坂亭(浦东嘉里店)","lon":"121.563086975","lat":"31.2127956529","category":"269","category_name":"烧烤","address":"浦东新区花木路1378号浦东嘉里城商场2楼L234单元"},{"poiid":"B2094757D068A3F8479E","title":"友乐达台北精致面馆(浦东嘉里城店)","lon":"121.56402197","lat":"31.211982633","category":"68","category_name":"快餐厅","address":"浦东新区花木路1378号浦东嘉里城B1楼05A号(近梅花路)"},{"poiid":"B2094757D068A6F84498","title":"食之秘(浦东嘉里城店)","lon":"121.56416617","lat":"31.21139112","category":"67","category_name":"甜品店","address":"浦东新区花木路1378号浦东嘉里城商场B110号铺(近芳甸路)"},{"poiid":"B2094757D069A4FE419A","title":"小南国(浦东嘉里城)","lon":"121.563241975","lat":"31.2125196464","category":"500","category_name":"未知分类","address":"上海市浦东新区花木路1378号浦东嘉里城2楼"},{"poiid":"B2094757D06FA4FF4893","title":"The COOK·厨","lon":"121.56314097","lat":"31.212868654","category":"217","category_name":"旅馆招待所","address":"上海浦东新区花木路1388号嘉里大酒店1楼(近芳甸路)"},{"poiid":"B2094757D66DA0FA499D","title":"上海出入境","lon":"121.559001975","lat":"31.220153825","category":"500","category_name":"未知分类","address":"上海市浦东新区民生路1500号"},{"poiid":"B2094757D064A1F5499B","title":"龙阳路磁悬浮","lon":"121.560088975","lat":"31.2184807858","category":"500","category_name":"未知分类","address":"上海龙阳路"},{"poiid":"B2094757D068A2FD489E","title":"九间堂","lon":"121.5620138","lat":"31.222304185","category":"500","category_name":"未知分类","address":"浦东新区芳甸路599弄1号(近锦绣路)"},{"poiid":"B2094757D068A7F84793","title":"Ole' Supermarket(浦东嘉里城店)","lon":"121.563133227","lat":"31.2132648841","category":"118","category_name":"超级市场","address":"浦东新区花木路1378号嘉里城B108商铺(近新国际博览中心)"},{"poiid":"B2094757D465A3FA439E","title":"俏江南 花木路店","lon":"121.5616098","lat":"31.2134727","category":"247","category_name":"餐饮美食","address":"浦东新区花木路1378号浦东嘉里城L215号(近浦东新国际展览中心)"},{"poiid":"B2094750D76FA0FB4699","title":"居食屋和民(浦东嘉里城店)","lon":"121.562","lat":"31.2124","category":"95","category_name":"日本料理","address":"浦东新区芳甸路1155号嘉里城B1楼105B号(花木路口)"},{"poiid":"B2094757D069AAFB4399","title":"The BREW•酿","lon":"121.56264494","lat":"31.213571604","category":"172","category_name":"酒吧","address":"浦东新区花木路1388号嘉里大酒店1楼(近芳甸路)"},{"poiid":"B2094757DB6CA4FF4899","title":"宝珠奶酪（嘉里城店）","lon":"121.56224","lat":"31.21243","category":"67","category_name":"甜品店","address":"浦东新区芳甸路1155号嘉里城B区B1楼(近世纪公园)"},{"poiid":"B2094757D06EAAFC4499","title":"花木路地铁站","lon":"121.56275848","lat":"31.211390958","category":"36","category_name":"地铁站","address":"上海轨道交通 七号线 轨交花木路站 7"},{"poiid":"B2094757D06FABFA469F","title":"紫竹国际大厦","lon":"121.56824976597","lat":"31.217863825633","category":"46","category_name":"楼宇","address":"普陀区大渡河路588号"},{"poiid":"B2094757D069A3FA4992","title":"有心","lon":"121.5616098","lat":"31.2134727","category":"75","category_name":"浙江菜","address":"浦东新区花木路1378号嘉里城商场1楼113号(近芳甸路)"},{"poiid":"B2094757D06EAAFC4392","title":"太平洋咖啡Pacific Coffee(浦东嘉里城店)","lon":"121.564106638","lat":"31.212344308","category":"260","category_name":"其他","address":"浦东新区花木路1378号浦东嘉里城2楼L205号(近7号线花木路站)"},{"poiid":"B2094753D76AA4FF459C","title":"泰迪之家(嘉里城店)","lon":"121.562709","lat":"31.212447","category":"99","category_name":"泰国／越南菜品餐厅","address":"上海市浦东新区花木路1378号嘉里城1楼L225号铺"},{"poiid":"B2094751D469A0F8479C","title":"唐鱼儿麻辣鲜鱼火锅","lon":"121.560104","lat":"31.225509","category":"86","category_name":"火锅店","address":"浦东新区芳甸路199弄40号大拇指广场46号(近迎春路)"},{"poiid":"B2094757DB69A7F54698","title":"证大 喜马拉雅中心","lon":"121.560075","lat":"31.211838","category":"249","category_name":"购物服务","address":"芳甸路118弄"},{"poiid":"B2094757D068A3FF459E","title":"Afternoon Tea(花木路店)","lon":"121.562549975","lat":"31.2125306467","category":"94","category_name":"西餐厅","address":"浦东新区花木路1378号浦东嘉里城L109铺"},{"poiid":"B2094757D66BA0FD489D","title":"诺心Tableau 浦东嘉里中心店 TableauBakeryCafe","lon":"121.5616097","lat":"31.2134733","category":"67","category_name":"甜品店","address":"浦东新区花木路1378号浦东嘉里城B1楼11单元(近花木地铁站7号线)"},{"poiid":"B2094751D46BABFD469F","title":"义面屋","lon":"121.55899","lat":"31.225021","category":"94","category_name":"西餐厅","address":"浦东新区芳甸路199弄大拇指广场19号(预计12月开业)"},{"poiid":"B2094757DA6EABFA4693","title":"越味风(嘉里城店)","lon":"121.561609700001","lat":"31.2134733","category":"99","category_name":"泰国／越南菜品餐厅","address":"浦东新区花木路1378号嘉里城商场B1楼"},{"poiid":"B2094757D16EA5F8479F","title":"斗香园(嘉里店)","lon":"121.563118975","lat":"31.2124096439","category":"68","category_name":"快餐厅","address":"浦东新区花木路1378号嘉里城中心B1楼B103号(近新国际博览中心)"},{"poiid":"B2094750DB68AAFF4298","title":"嘉里城","lon":"121.563339","lat":"31.212678","category":"248","category_name":"生活娱乐","address":"浦东新区花木路1378号"},{"poiid":"B2094757D064A2FE449C","title":"Coffee Bean 浦东嘉里中心店","lon":"121.56428097","lat":"31.212755651","category":"65","category_name":"咖啡厅","address":"上海市浦东嘉里中心"},{"poiid":"B2094757D165A6FA4892","title":"俏江南","lon":"121.55993697","lat":"31.21867379","category":"500","category_name":"未知分类","address":"上海市浦东新区锦绣路"},{"poiid":"B2094757D16CA4FE469B","title":"纽约客(浦东嘉里城店)","lon":"121.56335327","lat":"31.211900131","category":"94","category_name":"西餐厅","address":"上海浦东新区花木路1378号浦东嘉里城L116店"},{"poiid":"B2094655D26AA6F94898","title":"上海车展","lon":"121.5654","lat":"31.21161","category":"247","category_name":"餐饮美食","address":"浦东新区龙阳路2345号新国际博览中心"},{"poiid":"B2094757D16AA3F94199","title":"二号线上海科技馆站","lon":"121.55862497","lat":"31.220030822","category":"500","category_name":"未知分类","address":"上海市浦东新区长柳路"},{"poiid":"B2094757D06BA6FD4193","title":"斗香园(浦东嘉里中心店)","lon":"121.563023475","lat":"31.2113533192","category":"500","category_name":"未知分类","address":"上海地铁七号线花木路站1号口"},{"poiid":"B2094757D16FAAFD429D","title":"诗碧阁西餐厅","lon":"121.563161975","lat":"31.2128106532","category":"500","category_name":"未知分类","address":"上海浦东嘉里中心"},{"poiid":"B2094750D76EA4F8479B","title":"味匠","lon":"121.562","lat":"31.2113","category":"95","category_name":"日本料理","address":"浦东新区梅花路1099号紫竹大厦商铺B1楼02室(芳甸路口)"},{"poiid":"B2094655D265A5FA4098","title":"浦东嘉里中心","lon":"121.56254","lat":"31.21279","category":"46","category_name":"楼宇","address":"浦东新区花木路芳甸路"},{"poiid":"B2094655D264AAF44893","title":"浦东嘉里城","lon":"121.56142","lat":"31.21236","category":"119","category_name":"商场","address":"浦东新区芳甸路1155号"},{"poiid":"B2094757D06FA6FE449A","title":"浦东嘉里大酒店(Kerry Hotel)","lon":"121.562339396","lat":"31.2128867007","category":"217","category_name":"旅馆招待所","address":"浦东新区花木路1388号(近芳甸路)"},{"poiid":"B2094655D26AA6F9489A","title":"新国际展览中心","lon":"121.5654","lat":"31.21161","category":"247","category_name":"餐饮美食","address":"浦东新区龙阳路2345号(近芳甸路)"},{"poiid":"B2094757D064A2F9439A","title":"新旺茶餐厅(嘉里城店)","lon":"121.563320975","lat":"31.2123346421","category":"72","category_name":"广东菜","address":"浦东新区花木路1378号浦东嘉里城1楼L126单元"},{"poiid":"B2094757D06FA4FD429B","title":"蓝蛙(嘉里城店)","lon":"121.562534178","lat":"31.2128727619","category":"260","category_name":"其他","address":"浦东新区花木路1378号嘉里城商场1楼L131号(近浦东新博览中心)"},{"poiid":"B2094757D16DA1FE4098","title":"California pizza kitchen(嘉里城店)","lon":"121.5616","lat":"31.21347","category":"94","category_name":"西餐厅","address":"浦东新区花木路1378号浦东嘉里城2楼L231室(近芳甸路)"},{"poiid":"B2094757D06FAAFD4499","title":"融合马来西亚餐厅(嘉里城店)","lon":"121.563071975","lat":"31.2119606334","category":"110","category_name":"其他亚洲菜","address":"浦东新区芳甸路1155号嘉里城商场2楼L216A号(近新国际展览中心)"},{"poiid":"B2094757D06FA6FB4392","title":"新元素(嘉里城店)","lon":"121.56213664","lat":"31.213014313","category":"94","category_name":"西餐厅","address":"浦东新区花木路1378号浦东嘉里城1楼(近梅花路)"},{"poiid":"B2094757D069A2F4499B","title":"Baker&Spice(嘉里城店)","lon":"121.563149975","lat":"31.2127126509","category":"67","category_name":"甜品店","address":"浦东新区花木路1378号嘉里城(近芳甸路)"},{"poiid":"B2094757D06FA2F84993","title":"星巴克 STARBUCKS (浦东嘉里中心店)","lon":"121.5616098","lat":"31.2134727","category":"260","category_name":"其他","address":"浦东新区花木路1378号嘉里城商场1楼L110单元"},{"poiid":"B2094757D06FA7F9459C","title":"和民居食屋(浦东嘉里城店)","lon":"121.56422097","lat":"31.212740651","category":"95","category_name":"日本料理","address":"上海市浦东新区花木路1378号浦东嘉里城商场地下一层B105b号单元"},{"poiid":"B2094757D06BA0FC439E","title":"Johnny Moo（浦东嘉里城旗舰店）","lon":"121.56301597","lat":"31.212829653","category":"94","category_name":"西餐厅","address":"浦东新区花木路1378号浦东嘉里城2楼(近芳甸路)"},{"poiid":"B2094655D26DA1F94998","title":"世纪公园(四号门)","lon":"121.56079","lat":"31.21623","category":"680","category_name":"楼宇机构","address":"芳甸路858"},{"poiid":"B2094757D065A6FF479C","title":"逸谷","lon":"121.563296975","lat":"31.2123126416","category":"72","category_name":"广东菜","address":"浦东新区花木路1378号嘉里城2楼219A号(近芳甸路)"},{"poiid":"B2094757D06AA2FD4498","title":"大茴香(嘉里城店)","lon":"121.563372638","lat":"31.2124443102","category":"99","category_name":"泰国／越南菜品餐厅","address":"浦东新区花木路1378号嘉里城商场1楼115室(近芳甸路,新国际展览中心W5展馆对面)"},{"poiid":"B2094757D064A0FC479E","title":"赤坂亭(浦东嘉里店)","lon":"121.563086975","lat":"31.2127956529","category":"269","category_name":"烧烤","address":"浦东新区花木路1378号浦东嘉里城商场2楼L234单元"},{"poiid":"B2094757D068A3F8479E","title":"友乐达台北精致面馆(浦东嘉里城店)","lon":"121.56402197","lat":"31.211982633","category":"68","category_name":"快餐厅","address":"浦东新区花木路1378号浦东嘉里城B1楼05A号(近梅花路)"},{"poiid":"B2094757D068A6F84498","title":"食之秘(浦东嘉里城店)","lon":"121.56416617","lat":"31.21139112","category":"67","category_name":"甜品店","address":"浦东新区花木路1378号浦东嘉里城商场B110号铺(近芳甸路)"},{"poiid":"B2094757D069A4FE419A","title":"小南国(浦东嘉里城)","lon":"121.563241975","lat":"31.2125196464","category":"500","category_name":"未知分类","address":"上海市浦东新区花木路1378号浦东嘉里城2楼"},{"poiid":"B2094757D06FA4FF4893","title":"The COOK·厨","lon":"121.56314097","lat":"31.212868654","category":"217","category_name":"旅馆招待所","address":"上海浦东新区花木路1388号嘉里大酒店1楼(近芳甸路)"},{"poiid":"B2094757D66DA0FA499D","title":"上海出入境","lon":"121.559001975","lat":"31.220153825","category":"500","category_name":"未知分类","address":"上海市浦东新区民生路1500号"},{"poiid":"B2094757D064A1F5499B","title":"龙阳路磁悬浮","lon":"121.560088975","lat":"31.2184807858","category":"500","category_name":"未知分类","address":"上海龙阳路"},{"poiid":"B2094757D068A2FD489E","title":"九间堂","lon":"121.5620138","lat":"31.222304185","category":"500","category_name":"未知分类","address":"浦东新区芳甸路599弄1号(近锦绣路)"},{"poiid":"B2094757D068A7F84793","title":"Ole' Supermarket(浦东嘉里城店)","lon":"121.563133227","lat":"31.2132648841","category":"118","category_name":"超级市场","address":"浦东新区花木路1378号嘉里城B108商铺(近新国际博览中心)"},{"poiid":"B2094757D465A3FA439E","title":"俏江南 花木路店","lon":"121.5616098","lat":"31.2134727","category":"247","category_name":"餐饮美食","address":"浦东新区花木路1378号浦东嘉里城L215号(近浦东新国际展览中心)"},{"poiid":"B2094750D76FA0FB4699","title":"居食屋和民(浦东嘉里城店)","lon":"121.562","lat":"31.2124","category":"95","category_name":"日本料理","address":"浦东新区芳甸路1155号嘉里城B1楼105B号(花木路口)"},{"poiid":"B2094757D069AAFB4399","title":"The BREW•酿","lon":"121.56264494","lat":"31.213571604","category":"172","category_name":"酒吧","address":"浦东新区花木路1388号嘉里大酒店1楼(近芳甸路)"},{"poiid":"B2094757DB6CA4FF4899","title":"宝珠奶酪（嘉里城店）","lon":"121.56224","lat":"31.21243","category":"67","category_name":"甜品店","address":"浦东新区芳甸路1155号嘉里城B区B1楼(近世纪公园)"},{"poiid":"B2094757D06EAAFC4499","title":"花木路地铁站","lon":"121.56275848","lat":"31.211390958","category":"36","category_name":"地铁站","address":"上海轨道交通 七号线 轨交花木路站 7"},{"poiid":"B2094757D06FABFA469F","title":"紫竹国际大厦","lon":"121.56824976597","lat":"31.217863825633","category":"46","category_name":"楼宇","address":"普陀区大渡河路588号"},{"poiid":"B2094757D069A3FA4992","title":"有心","lon":"121.5616098","lat":"31.2134727","category":"75","category_name":"浙江菜","address":"浦东新区花木路1378号嘉里城商场1楼113号(近芳甸路)"},{"poiid":"B2094757D06EAAFC4392","title":"太平洋咖啡Pacific Coffee(浦东嘉里城店)","lon":"121.564106638","lat":"31.212344308","category":"260","category_name":"其他","address":"浦东新区花木路1378号浦东嘉里城2楼L205号(近7号线花木路站)"},{"poiid":"B2094753D76AA4FF459C","title":"泰迪之家(嘉里城店)","lon":"121.562709","lat":"31.212447","category":"99","category_name":"泰国／越南菜品餐厅","address":"上海市浦东新区花木路1378号嘉里城1楼L225号铺"},{"poiid":"B2094751D469A0F8479C","title":"唐鱼儿麻辣鲜鱼火锅","lon":"121.560104","lat":"31.225509","category":"86","category_name":"火锅店","address":"浦东新区芳甸路199弄40号大拇指广场46号(近迎春路)"},{"poiid":"B2094757DB69A7F54698","title":"证大 喜马拉雅中心","lon":"121.560075","lat":"31.211838","category":"249","category_name":"购物服务","address":"芳甸路118弄"},{"poiid":"B2094757D068A3FF459E","title":"Afternoon Tea(花木路店)","lon":"121.562549975","lat":"31.2125306467","category":"94","category_name":"西餐厅","address":"浦东新区花木路1378号浦东嘉里城L109铺"},{"poiid":"B2094757D66BA0FD489D","title":"诺心Tableau 浦东嘉里中心店 TableauBakeryCafe","lon":"121.5616097","lat":"31.2134733","category":"67","category_name":"甜品店","address":"浦东新区花木路1378号浦东嘉里城B1楼11单元(近花木地铁站7号线)"},{"poiid":"B2094751D46BABFD469F","title":"义面屋","lon":"121.55899","lat":"31.225021","category":"94","category_name":"西餐厅","address":"浦东新区芳甸路199弄大拇指广场19号(预计12月开业)"},{"poiid":"B2094757DA6EABFA4693","title":"越味风(嘉里城店)","lon":"121.561609700001","lat":"31.2134733","category":"99","category_name":"泰国／越南菜品餐厅","address":"浦东新区花木路1378号嘉里城商场B1楼"},{"poiid":"B2094757D16EA5F8479F","title":"斗香园(嘉里店)","lon":"121.563118975","lat":"31.2124096439","category":"68","category_name":"快餐厅","address":"浦东新区花木路1378号嘉里城中心B1楼B103号(近新国际博览中心)"},{"poiid":"B2094750DB68AAFF4298","title":"嘉里城","lon":"121.563339","lat":"31.212678","category":"248","category_name":"生活娱乐","address":"浦东新区花木路1378号"},{"poiid":"B2094757D064A2FE449C","title":"Coffee Bean 浦东嘉里中心店","lon":"121.56428097","lat":"31.212755651","category":"65","category_name":"咖啡厅","address":"上海市浦东嘉里中心"},{"poiid":"B2094757D165A6FA4892","title":"俏江南","lon":"121.55993697","lat":"31.21867379","category":"500","category_name":"未知分类","address":"上海市浦东新区锦绣路"},{"poiid":"B2094757D16CA4FE469B","title":"纽约客(浦东嘉里城店)","lon":"121.56335327","lat":"31.211900131","category":"94","category_name":"西餐厅","address":"上海浦东新区花木路1378号浦东嘉里城L116店"},{"poiid":"B2094655D26AA6F94898","title":"上海车展","lon":"121.5654","lat":"31.21161","category":"247","category_name":"餐饮美食","address":"浦东新区龙阳路2345号新国际博览中心"},{"poiid":"B2094757D16AA3F94199","title":"二号线上海科技馆站","lon":"121.55862497","lat":"31.220030822","category":"500","category_name":"未知分类","address":"上海市浦东新区长柳路"},{"poiid":"B2094757D06BA6FD4193","title":"斗香园(浦东嘉里中心店)","lon":"121.563023475","lat":"31.2113533192","category":"500","category_name":"未知分类","address":"上海地铁七号线花木路站1号口"},{"poiid":"B2094757D16FAAFD429D","title":"诗碧阁西餐厅","lon":"121.563161975","lat":"31.2128106532","category":"500","category_name":"未知分类","address":"上海浦东嘉里中心"},{"poiid":"B2094750D76EA4F8479B","title":"味匠","lon":"121.562","lat":"31.2113","category":"95","category_name":"日本料理","address":"浦东新区梅花路1099号紫竹大厦商铺B1楼02室(芳甸路口)"},{"poiid":"B2094655D265A5FA4098","title":"浦东嘉里中心","lon":"121.56254","lat":"31.21279","category":"46","category_name":"楼宇","address":"浦东新区花木路芳甸路"},{"poiid":"B2094655D264AAF44893","title":"浦东嘉里城","lon":"121.56142","lat":"31.21236","category":"119","category_name":"商场","address":"浦东新区芳甸路1155号"},{"poiid":"B2094757D06FA6FE449A","title":"浦东嘉里大酒店(Kerry Hotel)","lon":"121.562339396","lat":"31.2128867007","category":"217","category_name":"旅馆招待所","address":"浦东新区花木路1388号(近芳甸路)"},{"poiid":"B2094655D26AA6F9489A","title":"新国际展览中心","lon":"121.5654","lat":"31.21161","category":"247","category_name":"餐饮美食","address":"浦东新区龙阳路2345号(近芳甸路)"},{"poiid":"B2094757D064A2F9439A","title":"新旺茶餐厅(嘉里城店)","lon":"121.563320975","lat":"31.2123346421","category":"72","category_name":"广东菜","address":"浦东新区花木路1378号浦东嘉里城1楼L126单元"},{"poiid":"B2094757D06FA4FD429B","title":"蓝蛙(嘉里城店)","lon":"121.562534178","lat":"31.2128727619","category":"260","category_name":"其他","address":"浦东新区花木路1378号嘉里城商场1楼L131号(近浦东新博览中心)"},{"poiid":"B2094757D16DA1FE4098","title":"California pizza kitchen(嘉里城店)","lon":"121.5616","lat":"31.21347","category":"94","category_name":"西餐厅","address":"浦东新区花木路1378号浦东嘉里城2楼L231室(近芳甸路)"},{"poiid":"B2094757D06FAAFD4499","title":"融合马来西亚餐厅(嘉里城店)","lon":"121.563071975","lat":"31.2119606334","category":"110","category_name":"其他亚洲菜","address":"浦东新区芳甸路1155号嘉里城商场2楼L216A号(近新国际展览中心)"},{"poiid":"B2094757D06FA6FB4392","title":"新元素(嘉里城店)","lon":"121.56213664","lat":"31.213014313","category":"94","category_name":"西餐厅","address":"浦东新区花木路1378号浦东嘉里城1楼(近梅花路)"},{"poiid":"B2094757D069A2F4499B","title":"Baker&Spice(嘉里城店)","lon":"121.563149975","lat":"31.2127126509","category":"67","category_name":"甜品店","address":"浦东新区花木路1378号嘉里城(近芳甸路)"},{"poiid":"B2094757D06FA2F84993","title":"星巴克 STARBUCKS (浦东嘉里中心店)","lon":"121.5616098","lat":"31.2134727","category":"260","category_name":"其他","address":"浦东新区花木路1378号嘉里城商场1楼L110单元"},{"poiid":"B2094757D06FA7F9459C","title":"和民居食屋(浦东嘉里城店)","lon":"121.56422097","lat":"31.212740651","category":"95","category_name":"日本料理","address":"上海市浦东新区花木路1378号浦东嘉里城商场地下一层B105b号单元"},{"poiid":"B2094757D06BA0FC439E","title":"Johnny Moo（浦东嘉里城旗舰店）","lon":"121.56301597","lat":"31.212829653","category":"94","category_name":"西餐厅","address":"浦东新区花木路1378号浦东嘉里城2楼(近芳甸路)"},{"poiid":"B2094655D26DA1F94998","title":"世纪公园(四号门)","lon":"121.56079","lat":"31.21623","category":"680","category_name":"楼宇机构","address":"芳甸路858"},{"poiid":"B2094757D065A6FF479C","title":"逸谷","lon":"121.563296975","lat":"31.2123126416","category":"72","category_name":"广东菜","address":"浦东新区花木路1378号嘉里城2楼219A号(近芳甸路)"},{"poiid":"B2094757D06AA2FD4498","title":"大茴香(嘉里城店)","lon":"121.563372638","lat":"31.2124443102","category":"99","category_name":"泰国／越南菜品餐厅","address":"浦东新区花木路1378号嘉里城商场1楼115室(近芳甸路,新国际展览中心W5展馆对面)"},{"poiid":"B2094757D064A0FC479E","title":"赤坂亭(浦东嘉里店)","lon":"121.563086975","lat":"31.2127956529","category":"269","category_name":"烧烤","address":"浦东新区花木路1378号浦东嘉里城商场2楼L234单元"},{"poiid":"B2094757D068A3F8479E","title":"友乐达台北精致面馆(浦东嘉里城店)","lon":"121.56402197","lat":"31.211982633","category":"68","category_name":"快餐厅","address":"浦东新区花木路1378号浦东嘉里城B1楼05A号(近梅花路)"},{"poiid":"B2094757D068A6F84498","title":"食之秘(浦东嘉里城店)","lon":"121.56416617","lat":"31.21139112","category":"67","category_name":"甜品店","address":"浦东新区花木路1378号浦东嘉里城商场B110号铺(近芳甸路)"},{"poiid":"B2094757D069A4FE419A","title":"小南国(浦东嘉里城)","lon":"121.563241975","lat":"31.2125196464","category":"500","category_name":"未知分类","address":"上海市浦东新区花木路1378号浦东嘉里城2楼"},{"poiid":"B2094757D06FA4FF4893","title":"The COOK·厨","lon":"121.56314097","lat":"31.212868654","category":"217","category_name":"旅馆招待所","address":"上海浦东新区花木路1388号嘉里大酒店1楼(近芳甸路)"},{"poiid":"B2094757D66DA0FA499D","title":"上海出入境","lon":"121.559001975","lat":"31.220153825","category":"500","category_name":"未知分类","address":"上海市浦东新区民生路1500号"},{"poiid":"B2094757D064A1F5499B","title":"龙阳路磁悬浮","lon":"121.560088975","lat":"31.2184807858","category":"500","category_name":"未知分类","address":"上海龙阳路"},{"poiid":"B2094757D068A2FD489E","title":"九间堂","lon":"121.5620138","lat":"31.222304185","category":"500","category_name":"未知分类","address":"浦东新区芳甸路599弄1号(近锦绣路)"},{"poiid":"B2094757D068A7F84793","title":"Ole' Supermarket(浦东嘉里城店)","lon":"121.563133227","lat":"31.2132648841","category":"118","category_name":"超级市场","address":"浦东新区花木路1378号嘉里城B108商铺(近新国际博览中心)"},{"poiid":"B2094757D465A3FA439E","title":"俏江南 花木路店","lon":"121.5616098","lat":"31.2134727","category":"247","category_name":"餐饮美食","address":"浦东新区花木路1378号浦东嘉里城L215号(近浦东新国际展览中心)"},{"poiid":"B2094750D76FA0FB4699","title":"居食屋和民(浦东嘉里城店)","lon":"121.562","lat":"31.2124","category":"95","category_name":"日本料理","address":"浦东新区芳甸路1155号嘉里城B1楼105B号(花木路口)"},{"poiid":"B2094757D069AAFB4399","title":"The BREW•酿","lon":"121.56264494","lat":"31.213571604","category":"172","category_name":"酒吧","address":"浦东新区花木路1388号嘉里大酒店1楼(近芳甸路)"},{"poiid":"B2094757DB6CA4FF4899","title":"宝珠奶酪（嘉里城店）","lon":"121.56224","lat":"31.21243","category":"67","category_name":"甜品店","address":"浦东新区芳甸路1155号嘉里城B区B1楼(近世纪公园)"},{"poiid":"B2094757D06EAAFC4499","title":"花木路地铁站","lon":"121.56275848","lat":"31.211390958","category":"36","category_name":"地铁站","address":"上海轨道交通 七号线 轨交花木路站 7"},{"poiid":"B2094757D06FABFA469F","title":"紫竹国际大厦","lon":"121.56824976597","lat":"31.217863825633","category":"46","category_name":"楼宇","address":"普陀区大渡河路588号"},{"poiid":"B2094757D069A3FA4992","title":"有心","lon":"121.5616098","lat":"31.2134727","category":"75","category_name":"浙江菜","address":"浦东新区花木路1378号嘉里城商场1楼113号(近芳甸路)"},{"poiid":"B2094757D06EAAFC4392","title":"太平洋咖啡Pacific Coffee(浦东嘉里城店)","lon":"121.564106638","lat":"31.212344308","category":"260","category_name":"其他","address":"浦东新区花木路1378号浦东嘉里城2楼L205号(近7号线花木路站)"},{"poiid":"B2094753D76AA4FF459C","title":"泰迪之家(嘉里城店)","lon":"121.562709","lat":"31.212447","category":"99","category_name":"泰国／越南菜品餐厅","address":"上海市浦东新区花木路1378号嘉里城1楼L225号铺"},{"poiid":"B2094751D469A0F8479C","title":"唐鱼儿麻辣鲜鱼火锅","lon":"121.560104","lat":"31.225509","category":"86","category_name":"火锅店","address":"浦东新区芳甸路199弄40号大拇指广场46号(近迎春路)"},{"poiid":"B2094757DB69A7F54698","title":"证大 喜马拉雅中心","lon":"121.560075","lat":"31.211838","category":"249","category_name":"购物服务","address":"芳甸路118弄"},{"poiid":"B2094757D068A3FF459E","title":"Afternoon Tea(花木路店)","lon":"121.562549975","lat":"31.2125306467","category":"94","category_name":"西餐厅","address":"浦东新区花木路1378号浦东嘉里城L109铺"},{"poiid":"B2094757D66BA0FD489D","title":"诺心Tableau 浦东嘉里中心店 TableauBakeryCafe","lon":"121.5616097","lat":"31.2134733","category":"67","category_name":"甜品店","address":"浦东新区花木路1378号浦东嘉里城B1楼11单元(近花木地铁站7号线)"},{"poiid":"B2094751D46BABFD469F","title":"义面屋","lon":"121.55899","lat":"31.225021","category":"94","category_name":"西餐厅","address":"浦东新区芳甸路199弄大拇指广场19号(预计12月开业)"},{"poiid":"B2094757DA6EABFA4693","title":"越味风(嘉里城店)","lon":"121.561609700001","lat":"31.2134733","category":"99","category_name":"泰国／越南菜品餐厅","address":"浦东新区花木路1378号嘉里城商场B1楼"},{"poiid":"B2094757D16EA5F8479F","title":"斗香园(嘉里店)","lon":"121.563118975","lat":"31.2124096439","category":"68","category_name":"快餐厅","address":"浦东新区花木路1378号嘉里城中心B1楼B103号(近新国际博览中心)"},{"poiid":"B2094750DB68AAFF4298","title":"嘉里城","lon":"121.563339","lat":"31.212678","category":"248","category_name":"生活娱乐","address":"浦东新区花木路1378号"},{"poiid":"B2094757D064A2FE449C","title":"Coffee Bean 浦东嘉里中心店","lon":"121.56428097","lat":"31.212755651","category":"65","category_name":"咖啡厅","address":"上海市浦东嘉里中心"},{"poiid":"B2094757D165A6FA4892","title":"俏江南","lon":"121.55993697","lat":"31.21867379","category":"500","category_name":"未知分类","address":"上海市浦东新区锦绣路"},{"poiid":"B2094757D16CA4FE469B","title":"纽约客(浦东嘉里城店)","lon":"121.56335327","lat":"31.211900131","category":"94","category_name":"西餐厅","address":"上海浦东新区花木路1378号浦东嘉里城L116店"},{"poiid":"B2094655D26AA6F94898","title":"上海车展","lon":"121.5654","lat":"31.21161","category":"247","category_name":"餐饮美食","address":"浦东新区龙阳路2345号新国际博览中心"},{"poiid":"B2094757D16AA3F94199","title":"二号线上海科技馆站","lon":"121.55862497","lat":"31.220030822","category":"500","category_name":"未知分类","address":"上海市浦东新区长柳路"},{"poiid":"B2094757D06BA6FD4193","title":"斗香园(浦东嘉里中心店)","lon":"121.563023475","lat":"31.2113533192","category":"500","category_name":"未知分类","address":"上海地铁七号线花木路站1号口"},{"poiid":"B2094757D16FAAFD429D","title":"诗碧阁西餐厅","lon":"121.563161975","lat":"31.2128106532","category":"500","category_name":"未知分类","address":"上海浦东嘉里中心"},{"poiid":"B2094750D76EA4F8479B","title":"味匠","lon":"121.562","lat":"31.2113","category":"95","category_name":"日本料理","address":"浦东新区梅花路1099号紫竹大厦商铺B1楼02室(芳甸路口)"}]