[{"poiid":"B2094655D26AAAF5409D","title":"海底捞火锅店(逸仙路店)","lon":"121.48453","lat":"31.30384","category":"86","category_name":"火锅店","address":"虹口区逸仙路580号华联吉买盛4楼(近仁德路)"},{"poiid":"B2094655D26AA0F94299","title":"地铁江湾镇站","lon":"121.48507","lat":"31.3052","category":"36","category_name":"地铁站","address":"上海轨道交通 三号线 轨交江湾镇站 轻轨 3"},{"poiid":"B2094757D06EAAFB409C","title":"江湾镇","lon":"121.48461151","lat":"31.304548263","category":"260","category_name":"其他","address":"上海虹口区逸仙路"},{"poiid":"B2094757D06FA3FB439D","title":"麦当劳(江湾镇店)","lon":"121.48502779","lat":"31.305216005","category":"68","category_name":"快餐厅","address":"虹口区地铁3号线江湾镇站1楼(仁德路新市北路)"},{"poiid":"B2094655D26AABF8419A","title":"上海粤海酒店","lon":"121.48631","lat":"31.29971","category":"250","category_name":"公园户外","address":"上海市虹口区逸仙路328号(近纪念路)"},{"poiid":"B2094757D068A6FE429A","title":"银点羽乒馆","lon":"121.48146","lat":"31.30316","category":"220","category_name":"运动场所","address":"虹口区新市北路1400号4楼(近仁德路)"},{"poiid":"B2094654D56CABF8429B","title":"山东烧烤","lon":"121.48084","lat":"31.29985","category":"68","category_name":"快餐厅","address":"虹口区奎照路195号(新市南路口)"},{"poiid":"B2094654DB6AA2FE4692","title":"汉通海鲜大酒店江湾店","lon":"121.48622","lat":"31.30105","category":"75","category_name":"浙江菜","address":"虹口区逸仙路428号(近万安路)"},{"poiid":"B2094655D36DA0FA479F","title":"逸仙路江湾镇","lon":"121.48562","lat":"31.30351","category":"38","category_name":"公交车站","address":""},{"poiid":"B2094757D068A0FE459C","title":"公共卫生学校","lon":"121.481355","lat":"31.303946","category":"52","category_name":"高等院校","address":"虹口区新市北路1481号(丰镇路新市北路)"},{"poiid":"B2094757D06FA1FB4592","title":"华联吉买盛(江湾店)","lon":"121.48463691","lat":"31.303888546","category":"118","category_name":"超级市场","address":"虹口区逸仙路580号(近仁德路)"},{"poiid":"B2094757D06BABFE4499","title":"轻轨三号线","lon":"121.4812091","lat":"31.302719097","category":"36","category_name":"地铁站","address":"上海江湾镇站"},{"poiid":"B2094655D36CA0F94092","title":"江湾","lon":"121.48587","lat":"31.30269","category":"38","category_name":"公交车站","address":""},{"poiid":"B2094654D56CA4F54793","title":"上海三观堂","lon":"121.48357","lat":"31.3022","category":"244","category_name":"寺庙道观","address":"虹口区万安路359号"},{"poiid":"B2094757D069A7FA449E","title":"棒约翰比萨 江湾店 Papa John's Pizza","lon":"121.483851054","lat":"31.305176793","category":"94","category_name":"西餐厅","address":"虹口区逸仙路580号华联吉买盛1楼(近仁德路)"},{"poiid":"B2094654D56CAAF5449F","title":"新海城(逸仙路)","lon":"121.48503","lat":"31.3012","category":"47","category_name":"住宅区","address":"虹口区逸仙路逸仙路458弄1-8号"},{"poiid":"B2094757D06AA2FF469C","title":"肯德基　江湾镇","lon":"121.484652","lat":"31.304772","category":"68","category_name":"快餐厅","address":"虹口区逸仙路580号吉买盛1楼(近仁德路)"},{"poiid":"B2094757D664A7FA419F","title":"DQ冰雪皇后 江湾店 Dairy Queen","lon":"121.48463","lat":"31.30467","category":"113","category_name":"冷饮店","address":"虹口区逸仙路580号华联吉买盛1楼(近3号线江湾镇站)"},{"poiid":"B2094654DB6AAAFB419D","title":"上岛咖啡 逸仙店","lon":"121.483851054","lat":"31.305176793","category":"260","category_name":"其他","address":"虹口区逸仙路580号(近仁德路)"},{"poiid":"B2094655D26FA6FF4299","title":"复旦大学凉城宿舍区","lon":"121.48286753006","lat":"31.298813014366","category":"47","category_name":"住宅区","address":"水电路1324弄2支弄,5支弄,9支弄"},{"poiid":"B2094757D465ABFC459D","title":"九香牛蛙店 万安路店","lon":"121.485720054","lat":"31.302010793","category":"71","category_name":"四川菜","address":"虹口区万安路294号(近逸仙路)"},{"poiid":"B2094654D56CA4FB419C","title":"仁德路小区","lon":"121.482","lat":"31.303387","category":"47","category_name":"住宅区","address":"仁德路410弄1-16号,420弄1-11号"},{"poiid":"B2094757D06FA6F84699","title":"中国联通","lon":"121.482055188","lat":"31.298080691","category":"46","category_name":"楼宇","address":"上海文治路12号"},{"poiid":"B2094757D16EA0FB4092","title":"重庆周氏麻辣烫(江湾店)","lon":"121.48237","lat":"31.30232","category":"68","category_name":"快餐厅","address":"虹口区仁德路415号108(近新市北路)"},{"poiid":"B2094757D16DA3FE4692","title":"基督教江湾基督堂","lon":"121.480318103","lat":"31.304033125","category":"500","category_name":"未知分类","address":"上海水电路1717号"},{"poiid":"B2094654D56CAAF54892","title":"新江大排档新江点心店","lon":"121.48187","lat":"31.30134","category":"257","category_name":"中餐厅","address":"虹口区万安路474、476号"},{"poiid":"B2094757D164A6FE4092","title":"万安路新市北路","lon":"121.4824685","lat":"31.301693776","category":"500","category_name":"未知分类","address":"上海万安路新市北路"},{"poiid":"B2094654D56DA3FC439C","title":"红旗小学","lon":"121.48187","lat":"31.29921","category":"56","category_name":"小学","address":"虹口区文治路101号(近热带雨林)"},{"poiid":"B2094757D069A3F9409D","title":"四海游龙(逸仙路店)","lon":"121.48642","lat":"31.30287","category":"68","category_name":"快餐厅","address":"上海虹口区逸仙路805号(近仁德路)"},{"poiid":"B2094757D468A6FA459C","title":"仁德路成都小吃","lon":"121.48187","lat":"31.30263","category":"68","category_name":"快餐厅","address":"虹口区仁德路415号(近新市北路)"},{"poiid":"B2094655D26FA1F5449C","title":"上海三观堂(南门)","lon":"121.48326","lat":"31.30192","category":"679","category_name":"楼宇机构","address":"万安路359"},{"poiid":"B2094654D56CA4FB409E","title":"良友金伴No.829","lon":"121.48294","lat":"31.30277","category":"117","category_name":"便民商店/便利店","address":"仁德路393号"},{"poiid":"B2094654DB69AAFD4193","title":"味之都 江湾店","lon":"121.485506054","lat":"31.303717793","category":"68","category_name":"快餐厅","address":"虹口区逸仙路580号华联吉买盛内(近仁德路)"},{"poiid":"B2094757D064ABF9459D","title":"金炀","lon":"121.48600989","lat":"31.300042551","category":"72","category_name":"广东菜","address":"虹口区逸仙路278号(近纪念路)"},{"poiid":"B2094654D56CABFC4392","title":"永琪美容美发(新市北路)","lon":"121.48101","lat":"31.3024","category":"148","category_name":"美容美发店","address":"虹口区新市北路1382号(近仁德路)"},{"poiid":"B2094654D56CA4FB439F","title":"重庆鸡公煲新市店","lon":"121.4814","lat":"31.30293","category":"71","category_name":"四川菜","address":"虹口区新市北路1431号"},{"poiid":"B2094654D56CA4FB449B","title":"小二涮锅","lon":"121.4814","lat":"31.30323","category":"86","category_name":"火锅店","address":"虹口区新市北路菜场对面(丰镇路新市北路)"},{"poiid":"B2094655D26DABF44099","title":"万东小区","lon":"121.48214","lat":"31.301956","category":"47","category_name":"住宅区","address":"万安路441弄"},{"poiid":"B2094655D26DABFB4892","title":"万安路小区","lon":"121.48433","lat":"31.30178","category":"47","category_name":"住宅区","address":"万安路346弄1-6号"},{"poiid":"B2094757D065ABF8449C","title":"振新春苏州汤包馆","lon":"121.484897903","lat":"31.3033214101","category":"247","category_name":"餐饮美食","address":"上海江湾镇华联吉买盛"},{"poiid":"B2094757DA6FA3F8469C","title":"田园精菜坊","lon":"121.481291000003","lat":"31.3019420000001","category":"247","category_name":"餐饮美食","address":"虹口区江湾镇新市北路1380号"},{"poiid":"B2094655D26EA3F9409C","title":"万安路小区(北门)","lon":"121.48423","lat":"31.30205","category":"47","category_name":"住宅区","address":"万安路346弄1-6号"},{"poiid":"B2094654D56CA4F5459F","title":"宏运酒店","lon":"121.48518","lat":"31.30231","category":"71","category_name":"四川菜","address":"虹口区万安路265号(近逸仙路)"},{"poiid":"B2094757D065AAF5439C","title":"鸡排超人江湾店","lon":"121.486288503","lat":"31.3023280893","category":"68","category_name":"快餐厅","address":"虹口区逸仙路494号(万安路口)"},{"poiid":"B2094757D16EAAF94193","title":"车站西路小区","lon":"121.48338","lat":"31.300352","category":"47","category_name":"住宅区","address":"上海车站西路307弄5号"},{"poiid":"B2094757D66AA6FD4392","title":"田园小菜","lon":"121.48103194482","lat":"31.303265549353","category":"76","category_name":"上海菜","address":"虹口区文迁路1号(文迁路新市北路)"},{"poiid":"B2094654D56CA4FA4898","title":"江湾轻纺花鸟市场(7号门)","lon":"121.48385","lat":"31.30317","category":"117","category_name":"便民商店/便利店","address":"仁德路369号"},{"poiid":"B2094654D56DA3FC4598","title":"龙腾小区","lon":"121.48177","lat":"31.300472","category":"47","category_name":"住宅区","address":"新市南路1225弄1-16号"},{"poiid":"B2094757D16AA2F4469E","title":"世田米粉","lon":"121.485618503","lat":"31.3038591214","category":"68","category_name":"快餐厅","address":"虹口区逸仙路528号(近仁德路)"},{"poiid":"B2094757D069A5F44998","title":"招商银行 江湾支行","lon":"121.481034","lat":"31.3045","category":"150","category_name":"银行","address":"虹口区丰镇路1号(丰镇路新市北路)"},{"poiid":"B2094655D26AAAF5409D","title":"海底捞火锅店(逸仙路店)","lon":"121.48453","lat":"31.30384","category":"86","category_name":"火锅店","address":"虹口区逸仙路580号华联吉买盛4楼(近仁德路)"},{"poiid":"B2094655D26AA0F94299","title":"地铁江湾镇站","lon":"121.48507","lat":"31.3052","category":"36","category_name":"地铁站","address":"上海轨道交通 三号线 轨交江湾镇站 轻轨 3"},{"poiid":"B2094757D06EAAFB409C","title":"江湾镇","lon":"121.48461151","lat":"31.304548263","category":"260","category_name":"其他","address":"上海虹口区逸仙路"},{"poiid":"B2094757D06FA3FB439D","title":"麦当劳(江湾镇店)","lon":"121.48502779","lat":"31.305216005","category":"68","category_name":"快餐厅","address":"虹口区地铁3号线江湾镇站1楼(仁德路新市北路)"},{"poiid":"B2094655D26AABF8419A","title":"上海粤海酒店","lon":"121.48631","lat":"31.29971","category":"250","category_name":"公园户外","address":"上海市虹口区逸仙路328号(近纪念路)"},{"poiid":"B2094757D068A6FE429A","title":"银点羽乒馆","lon":"121.48146","lat":"31.30316","category":"220","category_name":"运动场所","address":"虹口区新市北路1400号4楼(近仁德路)"},{"poiid":"B2094654D56CABF8429B","title":"山东烧烤","lon":"121.48084","lat":"31.29985","category":"68","category_name":"快餐厅","address":"虹口区奎照路195号(新市南路口)"},{"poiid":"B2094654DB6AA2FE4692","title":"汉通海鲜大酒店江湾店","lon":"121.48622","lat":"31.30105","category":"75","category_name":"浙江菜","address":"虹口区逸仙路428号(近万安路)"},{"poiid":"B2094655D36DA0FA479F","title":"逸仙路江湾镇","lon":"121.48562","lat":"31.30351","category":"38","category_name":"公交车站","address":""},{"poiid":"B2094757D068A0FE459C","title":"公共卫生学校","lon":"121.481355","lat":"31.303946","category":"52","category_name":"高等院校","address":"虹口区新市北路1481号(丰镇路新市北路)"},{"poiid":"B2094757D06FA1FB4592","title":"华联吉买盛(江湾店)","lon":"121.48463691","lat":"31.303888546","category":"118","category_name":"超级市场","address":"虹口区逸仙路580号(近仁德路)"},{"poiid":"B2094757D06BABFE4499","title":"轻轨三号线","lon":"121.4812091","lat":"31.302719097","category":"36","category_name":"地铁站","address":"上海江湾镇站"},{"poiid":"B2094655D36CA0F94092","title":"江湾","lon":"121.48587","lat":"31.30269","category":"38","category_name":"公交车站","address":""},{"poiid":"B2094654D56CA4F54793","title":"上海三观堂","lon":"121.48357","lat":"31.3022","category":"244","category_name":"寺庙道观","address":"虹口区万安路359号"},{"poiid":"B2094757D069A7FA449E","title":"棒约翰比萨 江湾店 Papa John's Pizza","lon":"121.483851054","lat":"31.305176793","category":"94","category_name":"西餐厅","address":"虹口区逸仙路580号华联吉买盛1楼(近仁德路)"},{"poiid":"B2094654D56CAAF5449F","title":"新海城(逸仙路)","lon":"121.48503","lat":"31.3012","category":"47","category_name":"住宅区","address":"虹口区逸仙路逸仙路458弄1-8号"},{"poiid":"B2094757D06AA2FF469C","title":"肯德基　江湾镇","lon":"121.484652","lat":"31.304772","category":"68","category_name":"快餐厅","address":"虹口区逸仙路580号吉买盛1楼(近仁德路)"},{"poiid":"B2094757D664A7FA419F","title":"DQ冰雪皇后 江湾店 Dairy Queen","lon":"121.48463","lat":"31.30467","category":"113","category_name":"冷饮店","address":"虹口区逸仙路580号华联吉买盛1楼(近3号线江湾镇站)"},{"poiid":"B2094654DB6AAAFB419D","title":"上岛咖啡 逸仙店","lon":"121.483851054","lat":"31.305176793","category":"260","category_name":"其他","address":"虹口区逸仙路580号(近仁德路)"},{"poiid":"B2094655D26FA6FF4299","title":"复旦大学凉城宿舍区","lon":"121.48286753006","lat":"31.298813014366","category":"47","category_name":"住宅区","address":"水电路1324弄2支弄,5支弄,9支弄"},{"poiid":"B2094757D465ABFC459D","title":"九香牛蛙店 万安路店","lon":"121.485720054","lat":"31.302010793","category":"71","category_name":"四川菜","address":"虹口区万安路294号(近逸仙路)"},{"poiid":"B2094654D56CA4FB419C","title":"仁德路小区","lon":"121.482","lat":"31.303387","category":"47","category_name":"住宅区","address":"仁德路410弄1-16号,420弄1-11号"},{"poiid":"B2094757D06FA6F84699","title":"中国联通","lon":"121.482055188","lat":"31.298080691","category":"46","category_name":"楼宇","address":"上海文治路12号"},{"poiid":"B2094757D16EA0FB4092","title":"重庆周氏麻辣烫(江湾店)","lon":"121.48237","lat":"31.30232","category":"68","category_name":"快餐厅","address":"虹口区仁德路415号108(近新市北路)"},{"poiid":"B2094757D16DA3FE4692","title":"基督教江湾基督堂","lon":"121.480318103","lat":"31.304033125","category":"500","category_name":"未知分类","address":"上海水电路1717号"},{"poiid":"B2094654D56CAAF54892","title":"新江大排档新江点心店","lon":"121.48187","lat":"31.30134","category":"257","category_name":"中餐厅","address":"虹口区万安路474、476号"},{"poiid":"B2094757D164A6FE4092","title":"万安路新市北路","lon":"121.4824685","lat":"31.301693776","category":"500","category_name":"未知分类","address":"上海万安路新市北路"},{"poiid":"B2094654D56DA3FC439C","title":"红旗小学","lon":"121.48187","lat":"31.29921","category":"56","category_name":"小学","address":"虹口区文治路101号(近热带雨林)"},{"poiid":"B2094757D069A3F9409D","title":"四海游龙(逸仙路店)","lon":"121.48642","lat":"31.30287","category":"68","category_name":"快餐厅","address":"上海虹口区逸仙路805号(近仁德路)"},{"poiid":"B2094757D468A6FA459C","title":"仁德路成都小吃","lon":"121.48187","lat":"31.30263","category":"68","category_name":"快餐厅","address":"虹口区仁德路415号(近新市北路)"},{"poiid":"B2094655D26FA1F5449C","title":"上海三观堂(南门)","lon":"121.48326","lat":"31.30192","category":"679","category_name":"楼宇机构","address":"万安路359"},{"poiid":"B2094654D56CA4FB409E","title":"良友金伴No.829","lon":"121.48294","lat":"31.30277","category":"117","category_name":"便民商店/便利店","address":"仁德路393号"},{"poiid":"B2094654DB69AAFD4193","title":"味之都 江湾店","lon":"121.485506054","lat":"31.303717793","category":"68","category_name":"快餐厅","address":"虹口区逸仙路580号华联吉买盛内(近仁德路)"},{"poiid":"B2094757D064ABF9459D","title":"金炀","lon":"121.48600989","lat":"31.300042551","category":"72","category_name":"广东菜","address":"虹口区逸仙路278号(近纪念路)"},{"poiid":"B2094654D56CABFC4392","title":"永琪美容美发(新市北路)","lon":"121.48101","lat":"31.3024","category":"148","category_name":"美容美发店","address":"虹口区新市北路1382号(近仁德路)"},{"poiid":"B2094654D56CA4FB439F","title":"重庆鸡公煲新市店","lon":"121.4814","lat":"31.30293","category":"71","category_name":"四川菜","address":"虹口区新市北路1431号"},{"poiid":"B2094654D56CA4FB449B","title":"小二涮锅","lon":"121.4814","lat":"31.30323","category":"86","category_name":"火锅店","address":"虹口区新市北路菜场对面(丰镇路新市北路)"},{"poiid":"B2094655D26DABF44099","title":"万东小区","lon":"121.48214","lat":"31.301956","category":"47","category_name":"住宅区","address":"万安路441弄"},{"poiid":"B2094655D26DABFB4892","title":"万安路小区","lon":"121.48433","lat":"31.30178","category":"47","category_name":"住宅区","address":"万安路346弄1-6号"},{"poiid":"B2094757D065ABF8449C","title":"振新春苏州汤包馆","lon":"121.484897903","lat":"31.3033214101","category":"247","category_name":"餐饮美食","address":"上海江湾镇华联吉买盛"},{"poiid":"B2094757DA6FA3F8469C","title":"田园精菜坊","lon":"121.481291000003","lat":"31.3019420000001","category":"247","category_name":"餐饮美食","address":"虹口区江湾镇新市北路1380号"},{"poiid":"B2094655D26EA3F9409C","title":"万安路小区(北门)","lon":"121.48423","lat":"31.30205","category":"47","category_name":"住宅区","address":"万安路346弄1-6号"},{"poiid":"B2094654D56CA4F5459F","title":"宏运酒店","lon":"121.48518","lat":"31.30231","category":"71","category_name":"四川菜","address":"虹口区万安路265号(近逸仙路)"},{"poiid":"B2094757D065AAF5439C","title":"鸡排超人江湾店","lon":"121.486288503","lat":"31.3023280893","category":"68","category_name":"快餐厅","address":"虹口区逸仙路494号(万安路口)"},{"poiid":"B2094757D16EAAF94193","title":"车站西路小区","lon":"121.48338","lat":"31.300352","category":"47","category_name":"住宅区","address":"上海车站西路307弄5号"},{"poiid":"B2094757D66AA6FD4392","title":"田园小菜","lon":"121.48103194482","lat":"31.303265549353","category":"76","category_name":"上海菜","address":"虹口区文迁路1号(文迁路新市北路)"},{"poiid":"B2094654D56CA4FA4898","title":"江湾轻纺花鸟市场(7号门)","lon":"121.48385","lat":"31.30317","category":"117","category_name":"便民商店/便利店","address":"仁德路369号"},{"poiid":"B2094654D56DA3FC4598","title":"龙腾小区","lon":"121.48177","lat":"31.300472","category":"47","category_name":"住宅区","address":"新市南路1225弄1-16号"},{"poiid":"B2094757D16AA2F4469E","title":"世田米粉","lon":"121.485618503","lat":"31.3038591214","category":"68","category_name":"快餐厅","address":"虹口区逸仙路528号(近仁德路)"},{"poiid":"B2094757D069A5F44998","title":"招商银行 江湾支行","lon":"121.481034","lat":"31.3045","category":"150","category_name":"银行","address":"虹口区丰镇路1号(丰镇路新市北路)"},{"poiid":"B2094655D26AAAF5409D","title":"海底捞火锅店(逸仙路店)","lon":"121.48453","lat":"31.30384","category":"86","category_name":"火锅店","address":"虹口区逸仙路580号华联吉买盛4楼(近仁德路)"},{"poiid":"B2094655D26AA0F94299","title":"地铁江湾镇站","lon":"121.48507","lat":"31.3052","category":"36","category_name":"地铁站","address":"上海轨道交通 三号线 轨交江湾镇站 轻轨 3"},{"poiid":"B2094757D06EAAFB409C","title":"江湾镇","lon":"121.48461151","lat":"31.304548263","category":"260","category_name":"其他","address":"上海虹口区逸仙路"},{"poiid":"B2094757D06FA3FB439D","title":"麦当劳(江湾镇店)","lon":"121.48502779","lat":"31.305216005","category":"68","category_name":"快餐厅","address":"虹口区地铁3号线江湾镇站1楼(仁德路新市北路)"},{"poiid":"B2094655D26AABF8419A","title":"上海粤海酒店","lon":"121.48631","lat":"31.29971","category":"250","category_name":"公园户外","address":"上海市虹口区逸仙路328号(近纪念路)"},{"poiid":"B2094757D068A6FE429A","title":"银点羽乒馆","lon":"121.48146","lat":"31.30316","category":"220","category_name":"运动场所","address":"虹口区新市北路1400号4楼(近仁德路)"},{"poiid":"B2094654D56CABF8429B","title":"山东烧烤","lon":"121.48084","lat":"31.29985","category":"68","category_name":"快餐厅","address":"虹口区奎照路195号(新市南路口)"},{"poiid":"B2094654DB6AA2FE4692","title":"汉通海鲜大酒店江湾店","lon":"121.48622","lat":"31.30105","category":"75","category_name":"浙江菜","address":"虹口区逸仙路428号(近万安路)"},{"poiid":"B2094655D36DA0FA479F","title":"逸仙路江湾镇","lon":"121.48562","lat":"31.30351","category":"38","category_name":"公交车站","address":""},{"poiid":"B2094757D068A0FE459C","title":"公共卫生学校","lon":"121.481355","lat":"31.303946","category":"52","category_name":"高等院校","address":"虹口区新市北路1481号(丰镇路新市北路)"},{"poiid":"B2094757D06FA1FB4592","title":"华联吉买盛(江湾店)","lon":"121.48463691","lat":"31.303888546","category":"118","category_name":"超级市场","address":"虹口区逸仙路580号(近仁德路)"},{"poiid":"B2094757D06BABFE4499","title":"轻轨三号线","lon":"121.4812091","lat":"31.302719097","category":"36","category_name":"地铁站","address":"上海江湾镇站"},{"poiid":"B2094655D36CA0F94092","title":"江湾","lon":"121.48587","lat":"31.30269","category":"38","category_name":"公交车站","address":""},{"poiid":"B2094654D56CA4F54793","title":"上海三观堂","lon":"121.48357","lat":"31.3022","category":"244","category_name":"寺庙道观","address":"虹口区万安路359号"},{"poiid":"B2094757D069A7FA449E","title":"棒约翰比萨 江湾店 Papa John's Pizza","lon":"121.483851054","lat":"31.305176793","category":"94","category_name":"西餐厅","address":"虹口区逸仙路580号华联吉买盛1楼(近仁德路)"},{"poiid":"B2094654D56CAAF5449F","title":"新海城(逸仙路)","lon":"121.48503","lat":"31.3012","category":"47","category_name":"住宅区","address":"虹口区逸仙路逸仙路458弄1-8号"},{"poiid":"B2094757D06AA2FF469C","title":"肯德基　江湾镇","lon":"121.484652","lat":"31.304772","category":"68","category_name":"快餐厅","address":"虹口区逸仙路580号吉买盛1楼(近仁德路)"},{"poiid":"B2094757D664A7FA419F","title":"DQ冰雪皇后 江湾店 Dairy Queen","lon":"121.48463","lat":"31.30467","category":"113","category_name":"冷饮店","address":"虹口区逸仙路580号华联吉买盛1楼(近3号线江湾镇站)"},{"poiid":"B2094654DB6AAAFB419D","title":"上岛咖啡 逸仙店","lon":"121.483851054","lat":"31.305176793","category":"260","category_name":"其他","address":"虹口区逸仙路580号(近仁德路)"},{"poiid":"B2094655D26FA6FF4299","title":"复旦大学凉城宿舍区","lon":"121.48286753006","lat":"31.298813014366","category":"47","category_name":"住宅区","address":"水电路1324弄2支弄,5支弄,9支弄"},{"poiid":"B2094757D465ABFC459D","title":"九香牛蛙店 万安路店","lon":"121.485720054","lat":"31.302010793","category":"71","category_name":"四川菜","address":"虹口区万安路294号(近逸仙路)"},{"poiid":"B2094654D56CA4FB419C","title":"仁德路小区","lon":"121.482","lat":"31.303387","category":"47","category_name":"住宅区","address":"仁德路410弄1-16号,420弄1-11号"},{"poiid":"B2094757D06FA6F84699","title":"中国联通","lon":"121.482055188","lat":"31.298080691","category":"46","category_name":"楼宇","address":"上海文治路12号"},{"poiid":"B2094757D16EA0FB4092","title":"重庆周氏麻辣烫(江湾店)","lon":"121.48237","lat":"31.30232","category":"68","category_name":"快餐厅","address":"虹口区仁德路415号108(近新市北路)"},{"poiid":"B2094757D16DA3FE4692","title":"基督教江湾基督堂","lon":"121.480318103","lat":"31.304033125","category":"500","category_name":"未知分类","address":"上海水电路1717号"},{"poiid":"B2094654D56CAAF54892","title":"新江大排档新江点心店","lon":"121.48187","lat":"31.30134","category":"257","category_name":"中餐厅","address":"虹口区万安路474、476号"},{"poiid":"B2094757D164A6FE4092","title":"万安路新市北路","lon":"121.4824685","lat":"31.301693776","category":"500","category_name":"未知分类","address":"上海万安路新市北路"},{"poiid":"B2094654D56DA3FC439C","title":"红旗小学","lon":"121.48187","lat":"31.29921","category":"56","category_name":"小学","address":"虹口区文治路101号(近热带雨林)"},{"poiid":"B2094757D069A3F9409D","title":"四海游龙(逸仙路店)","lon":"121.48642","lat":"31.30287","category":"68","category_name":"快餐厅","address":"上海虹口区逸仙路805号(近仁德路)"},{"poiid":"B2094757D468A6FA459C","title":"仁德路成都小吃","lon":"121.48187","lat":"31.30263","category":"68","category_name":"快餐厅","address":"虹口区仁德路415号(近新市北路)"},{"poiid":"B2094655D26FA1F5449C","title":"上海三观堂(南门)","lon":"121.48326","lat":"31.30192","category":"679","category_name":"楼宇机构","address":"万安路359"},{"poiid":"B2094654D56CA4FB409E","title":"良友金伴No.829","lon":"121.48294","lat":"31.30277","category":"117","category_name":"便民商店/便利店","address":"仁德路393号"},{"poiid":"B2094654DB69AAFD4193","title":"味之都 江湾店","lon":"121.485506054","lat":"31.303717793","category":"68","category_name":"快餐厅","address":"虹口区逸仙路580号华联吉买盛内(近仁德路)"},{"poiid":"B2094757D064ABF9459D","title":"金炀","lon":"121.48600989","lat":"31.300042551","category":"72","category_name":"广东菜","address":"虹口区逸仙路278号(近纪念路)"},{"poiid":"B2094654D56CABFC4392","title":"永琪美容美发(新市北路)","lon":"121.48101","lat":"31.3024","category":"148","category_name":"美容美发店","address":"虹口区新市北路1382号(近仁德路)"},{"poiid":"B2094654D56CA4FB439F","title":"重庆鸡公煲新市店","lon":"121.4814","lat":"31.30293","category":"71","category_name":"四川菜","address":"虹口区新市北路1431号"},{"poiid":"B2094654D56CA4FB449B","title":"小二涮锅","lon":"121.4814","lat":"31.30323","category":"86","category_name":"火锅店","address":"虹口区新市北路菜场对面(丰镇路新市北路)"},{"poiid":"B2094655D26DABF44099","title":"万东小区","lon":"121.48214","lat":"31.301956","category":"47","category_name":"住宅区","address":"万安路441弄"},{"poiid":"B2094655D26DABFB4892","title":"万安路小区","lon":"121.48433","lat":"31.30178","category":"47","category_name":"住宅区","address":"万安路346弄1-6号"},{"poiid":"B2094757D065ABF8449C","title":"振新春苏州汤包馆","lon":"121.484897903","lat":"31.3033214101","category":"247","category_name":"餐饮美食","address":"上海江湾镇华联吉买盛"},{"poiid":"B2094757DA6FA3F8469C","title":"田园精菜坊","lon":"121.481291000003","lat":"31.3019420000001","category":"247","category_name":"餐饮美食","address":"虹口区江湾镇新市北路1380号"},{"poiid":"B2094655D26EA3F9409C","title":"万安路小区(北门)","lon":"121.48423","lat":"31.30205","category":"47","category_name":"住宅区","address":"万安路346弄1-6号"},{"poiid":"B2094654D56CA4F5459F","title":"宏运酒店","lon":"121.48518","lat":"31.30231","category":"71","category_name":"四川菜","address":"虹口区万安路265号(近逸仙路)"},{"poiid":"B2094757D065AAF5439C","title":"鸡排超人江湾店","lon":"121.486288503","lat":"31.3023280893","category":"68","category_name":"快餐厅","address":"虹口区逸仙路494号(万安路口)"},{"poiid":"B2094757D16EAAF94193","title":"车站西路小区","lon":"121.48338","lat":"31.300352","category":"47","category_name":"住宅区","address":"上海车站西路307弄5号"},{"poiid":"B2094757D66AA6FD4392","title":"田园小菜","lon":"121.48103194482","lat":"31.303265549353","category":"76","category_name":"上海菜","address":"虹口区文迁路1号(文迁路新市北路)"},{"poiid":"B2094654D56CA4FA4898","title":"江湾轻纺花鸟市场(7号门)","lon":"121.48385","lat":"31.30317","category":"117","category_name":"便民商店/便利店","address":"仁德路369号"},{"poiid":"B2094654D56DA3FC4598","title":"龙腾小区","lon":"121.48177","lat":"31.300472","category":"47","category_name":"住宅区","address":"新市南路1225弄1-16号"},{"poiid":"B2094757D16AA2F4469E","title":"世田米粉","lon":"121.485618503","lat":"31.3038591214","category":"68","category_name":"快餐厅","address":"虹口区逸仙路528号(近仁德路)"},{"poiid":"B2094757D069A5F44998","title":"招商银行 江湾支行","lon":"121.481034","lat":"31.3045","category":"150","category_name":"银行","address":"虹口区丰镇路1号(丰镇路新市北路)"},{"poiid":"B2094655D26AAAF5409D","title":"海底捞火锅店(逸仙路店)","lon":"121.48453","lat":"31.30384","category":"86","category_name":"火锅店","address":"虹口区逸仙路580号华联吉买盛4楼(近仁德路)"},{"poiid":"B2094655D26AA0F94299","title":"地铁江湾镇站","lon":"121.48507","lat":"31.3052","category":"36","category_name":"地铁站","address":"上海轨道交通 三号线 轨交江湾镇站 轻轨 3"},{"poiid":"B2094757D06EAAFB409C","title":"江湾镇","lon":"121.48461151","lat":"31.304548263","category":"260","category_name":"其他","address":"上海虹口区逸仙路"},{"poiid":"B2094757D06FA3FB439D","title":"麦当劳(江湾镇店)","lon":"121.48502779","lat":"31.305216005","category":"68","category_name":"快餐厅","address":"虹口区地铁3号线江湾镇站1楼(仁德路新市北路)"},{"poiid":"B2094655D26AABF8419A","title":"上海粤海酒店","lon":"121.48631","lat":"31.29971","category":"250","category_name":"公园户外","address":"上海市虹口区逸仙路328号(近纪念路)"},{"poiid":"B2094757D068A6FE429A","title":"银点羽乒馆","lon":"121.48146","lat":"31.30316","category":"220","category_name":"运动场所","address":"虹口区新市北路1400号4楼(近仁德路)"},{"poiid":"B2094654D56CABF8429B","title":"山东烧烤","lon":"121.48084","lat":"31.29985","category":"68","category_name":"快餐厅","address":"虹口区奎照路195号(新市南路口)"},{"poiid":"B2094654DB6AA2FE4692","title":"汉通海鲜大酒店江湾店","lon":"121.48622","lat":"31.30105","category":"75","category_name":"浙江菜","address":"虹口区逸仙路428号(近万安路)"},{"poiid":"B2094655D36DA0FA479F","title":"逸仙路江湾镇","lon":"121.48562","lat":"31.30351","category":"38","category_name":"公交车站","address":""},{"poiid":"B2094757D068A0FE459C","title":"公共卫生学校","lon":"121.481355","lat":"31.303946","category":"52","category_name":"高等院校","address":"虹口区新市北路1481号(丰镇路新市北路)"},{"poiid":"B2094757D06FA1FB4592","title":"华联吉买盛(江湾店)","lon":"121.48463691","lat":"31.303888546","category":"118","category_name":"超级市场","address":"虹口区逸仙路580号(近仁德路)"},{"poiid":"B2094757D06BABFE4499","title":"轻轨三号线","lon":"121.4812091","lat":"31.302719097","category":"36","category_name":"地铁站","address":"上海江湾镇站"},{"poiid":"B2094655D36CA0F94092","title":"江湾","lon":"121.48587","lat":"31.30269","category":"38","category_name":"公交车站","address":""},{"poiid":"B2094654D56CA4F54793","title":"上海三观堂","lon":"121.48357","lat":"31.3022","category":"244","category_name":"寺庙道观","address":"虹口区万安路359号"},{"poiid":"B2094757D069A7FA449E","title":"棒约翰比萨 江湾店 Papa John's Pizza","lon":"121.483851054","lat":"31.305176793","category":"94","category_name":"西餐厅","address":"虹口区逸仙路580号华联吉买盛1楼(近仁德路)"},{"poiid":"B2094654D56CAAF5449F","title":"新海城(逸仙路)","lon":"121.48503","lat":"31.3012","category":"47","category_name":"住宅区","address":"虹口区逸仙路逸仙路458弄1-8号"},{"poiid":"B2094757D06AA2FF469C","title":"肯德基　江湾镇","lon":"121.484652","lat":"31.304772","category":"68","category_name":"快餐厅","address":"虹口区逸仙路580号吉买盛1楼(近仁德路)"},{"poiid":"B2094757D664A7FA419F","title":"DQ冰雪皇后 江湾店 Dairy Queen","lon":"121.48463","lat":"31.30467","category":"113","category_name":"冷饮店","address":"虹口区逸仙路580号华联吉买盛1楼(近3号线江湾镇站)"},{"poiid":"B2094654DB6AAAFB419D","title":"上岛咖啡 逸仙店","lon":"121.483851054","lat":"31.305176793","category":"260","category_name":"其他","address":"虹口区逸仙路580号(近仁德路)"},{"poiid":"B2094655D26FA6FF4299","title":"复旦大学凉城宿舍区","lon":"121.48286753006","lat":"31.298813014366","category":"47","category_name":"住宅区","address":"水电路1324弄2支弄,5支弄,9支弄"},{"poiid":"B2094757D465ABFC459D","title":"九香牛蛙店 万安路店","lon":"121.485720054","lat":"31.302010793","category":"71","category_name":"四川菜","address":"虹口区万安路294号(近逸仙路)"},{"poiid":"B2094654D56CA4FB419C","title":"仁德路小区","lon":"121.482","lat":"31.303387","category":"47","category_name":"住宅区","address":"仁德路410弄1-16号,420弄1-11号"},{"poiid":"B2094757D06FA6F84699","title":"中国联通","lon":"121.482055188","lat":"31.298080691","category":"46","category_name":"楼宇","address":"上海文治路12号"},{"poiid":"B2094757D16EA0FB4092","title":"重庆周氏麻辣烫(江湾店)","lon":"121.48237","lat":"31.30232","category":"68","category_name":"快餐厅","address":"虹口区仁德路415号108(近新市北路)"},{"poiid":"B2094757D16DA3FE4692","title":"基督教江湾基督堂","lon":"121.480318103","lat":"31.304033125","category":"500","category_name":"未知分类","address":"上海水电路1717号"},{"poiid":"B2094654D56CAAF54892","title":"新江大排档新江点心店","lon":"121.48187","lat":"31.30134","category":"257","category_name":"中餐厅","address":"虹口区万安路474、476号"},{"poiid":"B2094757D164A6FE4092","title":"万安路新市北路","lon":"121.4824685","lat":"31.301693776","category":"500","category_name":"未知分类","address":"上海万安路新市北路"},{"poiid":"B2094654D56DA3FC439C","title":"红旗小学","lon":"121.48187","lat":"31.29921","category":"56","category_name":"小学","address":"虹口区文治路101号(近热带雨林)"},{"poiid":"B2094757D069A3F9409D","title":"四海游龙(逸仙路店)","lon":"121.48642","lat":"31.30287","category":"68","category_name":"快餐厅","address":"上海虹口区逸仙路805号(近仁德路)"},{"poiid":"B2094757D468A6FA459C","title":"仁德路成都小吃","lon":"121.48187","lat":"31.30263","category":"68","category_name":"快餐厅","address":"虹口区仁德路415号(近新市北路)"},{"poiid":"B2094655D26FA1F5449C","title":"上海三观堂(南门)","lon":"121.48326","lat":"31.30192","category":"679","category_name":"楼宇机构","address":"万安路359"},{"poiid":"B2094654D56CA4FB409E","title":"良友金伴No.829","lon":"121.48294","lat":"31.30277","category":"117","category_name":"便民商店/便利店","address":"仁德路393号"},{"poiid":"B2094654DB69AAFD4193","title":"味之都 江湾店","lon":"121.485506054","lat":"31.303717793","category":"68","category_name":"快餐厅","address":"虹口区逸仙路580号华联吉买盛内(近仁德路)"},{"poiid":"B2094757D064ABF9459D","title":"金炀","lon":"121.48600989","lat":"31.300042551","category":"72","category_name":"广东菜","address":"虹口区逸仙路278号(近纪念路)"},{"poiid":"B2094654D56CABFC4392","title":"永琪美容美发(新市北路)","lon":"121.48101","lat":"31.3024","category":"148","category_name":"美容美发店","address":"虹口区新市北路1382号(近仁德路)"},{"poiid":"B2094654D56CA4FB439F","title":"重庆鸡公煲新市店","lon":"121.4814","lat":"31.30293","category":"71","category_name":"四川菜","address":"虹口区新市北路1431号"},{"poiid":"B2094654D56CA4FB449B","title":"小二涮锅","lon":"121.4814","lat":"31.30323","category":"86","category_name":"火锅店","address":"虹口区新市北路菜场对面(丰镇路新市北路)"},{"poiid":"B2094655D26DABF44099","title":"万东小区","lon":"121.48214","lat":"31.301956","category":"47","category_name":"住宅区","address":"万安路441弄"},{"poiid":"B2094655D26DABFB4892","title":"万安路小区","lon":"121.48433","lat":"31.30178","category":"47","category_name":"住宅区","address":"万安路346弄1-6号"},{"poiid":"B2094757D065ABF8449C","title":"振新春苏州汤包馆","lon":"121.484897903","lat":"31.3033214101","category":"247","category_name":"餐饮美食","address":"上海江湾镇华联吉买盛"},{"poiid":"B2094757DA6FA3F8469C","title":"田园精菜坊","lon":"121.481291000003","lat":"31.3019420000001","category":"247","category_name":"餐饮美食","address":"虹口区江湾镇新市北路1380号"},{"poiid":"B2094655D26EA3F9409C","title":"万安路小区(北门)","lon":"121.48423","lat":"31.30205","category":"47","category_name":"住宅区","address":"万安路346弄1-6号"},{"poiid":"B2094654D56CA4F5459F","title":"宏运酒店","lon":"121.48518","lat":"31.30231","category":"71","category_name":"四川菜","address":"虹口区万安路265号(近逸仙路)"},{"poiid":"B2094757D065AAF5439C","title":"鸡排超人江湾店","lon":"121.486288503","lat":"31.3023280893","category":"68","category_name":"快餐厅","address":"虹口区逸仙路494号(万安路口)"},{"poiid":"B2094757D16EAAF94193","title":"车站西路小区","lon":"121.48338","lat":"31.300352","category":"47","category_name":"住宅区","address":"上海车站西路307弄5号"},{"poiid":"B2094757D66AA6FD4392","title":"田园小菜","lon":"121.48103194482","lat":"31.303265549353","category":"76","category_name":"上海菜","address":"虹口区文迁路1号(文迁路新市北路)"},{"poiid":"B2094654D56CA4FA4898","title":"江湾轻纺花鸟市场(7号门)","lon":"121.48385","lat":"31.30317","category":"117","category_name":"便民商店/便利店","address":"仁德路369号"},{"poiid":"B2094654D56DA3FC4598","title":"龙腾小区","lon":"121.48177","lat":"31.300472","category":"47","category_name":"住宅区","address":"新市南路1225弄1-16号"},{"poiid":"B2094757D16AA2F4469E","title":"世田米粉","lon":"121.485618503","lat":"31.3038591214","category":"68","category_name":"快餐厅","address":"虹口区逸仙路528号(近仁德路)"},{"poiid":"B2094757D069A5F44998","title":"招商银行 江湾支行","lon":"121.481034","lat":"31.3045","category":"150","category_name":"银行","address":"虹口区丰镇路1号(丰镇路新市北路)"}]