[{"poiid":"B2094654D56CA1FC4799","title":"上海外国语大学生活区","lon":"121.48577","lat":"31.27796","category":"47","category_name":"住宅区","address":"东体育会路411"},{"poiid":"B2094757D068A7FE4998","title":"西北狼烧烤","lon":"121.488008103","lat":"31.2755975304","category":"247","category_name":"餐饮美食","address":"上海虹口足球场旁"},{"poiid":"B2094757D069A1F4429E","title":"八号线虹口足球场站","lon":"121.486136503","lat":"31.2728143722","category":"500","category_name":"未知分类","address":"上海八号线虹口足球场站"},{"poiid":"B2094757D06EAAF8449E","title":"曲阳路地铁站","lon":"121.49069713","lat":"31.276512768","category":"36","category_name":"地铁站","address":"上海轨道交通 八号线 轨交曲阳路站 8"},{"poiid":"B2094757D068A2F9439E","title":"虹口区牙病防治所","lon":"121.48649","lat":"31.27398","category":"162","category_name":"医院","address":"虹口区欧阳路571号(近大连西路)"},{"poiid":"B2094757D06FA5FC4692","title":"大连西路曲阳路","lon":"121.488515","lat":"31.27648","category":"500","category_name":"未知分类","address":"上海100。959。70。937。751。310。79。848。"},{"poiid":"B2094655D26EA7FF4298","title":"梅园村酒家(虹口店)","lon":"121.48823","lat":"31.2764","category":"76","category_name":"上海菜","address":"虹口区大连西路255号(近曲阳路)"},{"poiid":"B2094655D26BA1FD489E","title":"欧阳路祥德路","lon":"121.48724","lat":"31.27109","category":"38","category_name":"公交车站","address":""},{"poiid":"B2094757D06FA6FF4493","title":"北郊高级中学","lon":"121.48976","lat":"31.2753","category":"55","category_name":"中学","address":"虹口区曲阳路497号(近大连西路)"},{"poiid":"B2094757D06FA7F4429E","title":"嘉和国际大厦","lon":"121.48520494983","lat":"31.275291764831","category":"46","category_name":"楼宇","address":"浦东新区金湘路225弄"},{"poiid":"B2094757D06FABFE489E","title":"虹口区教师进修学院","lon":"121.486546","lat":"31.273132","category":"253","category_name":"校园生活","address":"上海虹口区欧阳路502号"},{"poiid":"B2094757D06FABF5499E","title":"祥德路烤肉摊","lon":"121.48773","lat":"31.27113","category":"68","category_name":"快餐厅","address":"虹口区祥德路黑马雕塑下(欧阳路口)"},{"poiid":"B2094757D06FA3FB469C","title":"欧阳花苑","lon":"121.49108","lat":"31.272671","category":"47","category_name":"住宅区","address":"上海虹口区曲阳路385弄"},{"poiid":"B2094757D068A4F84099","title":"敬亭盲人保健按摩","lon":"121.48734","lat":"31.27599","category":"149","category_name":"洗浴推拿场所","address":"虹口区大连西路261号中原证券大厦1楼(近曲阳路站)"},{"poiid":"B2094654D56CA0F9489A","title":"欧阳名邸","lon":"121.48741","lat":"31.274374","category":"47","category_name":"住宅区","address":"上海市虹口区欧阳路571号(近大连西路)"},{"poiid":"B2094757D06BA4FC4593","title":"象山海鲜","lon":"121.488563533","lat":"31.2736898305","category":"500","category_name":"未知分类","address":"虹口区山阴路175号(近四川北路)"},{"poiid":"B2094655D26FA4FE4893","title":"嘉兰大厦","lon":"121.488","lat":"31.2741","category":"46","category_name":"楼宇","address":"四川北路2261、2263号"},{"poiid":"B2094757D06AA6FA4793","title":"朱屺瞻艺术馆","lon":"121.48645","lat":"31.27411","category":"179","category_name":"音乐厅","address":"虹口区欧阳路580号"},{"poiid":"B2094757D065A6F54393","title":"金涮盘","lon":"121.486897103","lat":"31.2753595254","category":"86","category_name":"火锅店","address":"上海市虹口区凯德龙之梦购物中心5F"},{"poiid":"B2094751D36DA0F9499D","title":"欧阳店","lon":"121.48698","lat":"31.27387","category":"87","category_name":"特色／地方风味餐厅","address":"虹口区欧阳路561号(近大连西路)"},{"poiid":"B2094654D56CA0F9459B","title":"欧九小区","lon":"121.48709","lat":"31.274914","category":"47","category_name":"住宅区","address":"欧阳路587弄1号-13号"},{"poiid":"B2094757D464AAF54393","title":"艾罗玛咖啡 东体育会路店 Aroma Coffee","lon":"121.48404","lat":"31.27554","category":"260","category_name":"其他","address":"虹口区东体育会路306号(近大连西路)"},{"poiid":"B2094750D16AA7F4469D","title":"曲阳影院","lon":"121.487258","lat":"31.274173","category":"178","category_name":"电影院","address":"曲阳路570号"},{"poiid":"B2094757D06BA3FB4899","title":"唐之印象","lon":"121.48689","lat":"31.27375","category":"500","category_name":"未知分类","address":"虹口区欧阳路561号(近大连西路)"},{"poiid":"B2094757D068AAFF489F","title":"泰煌鸡(虹口店)","lon":"121.48694","lat":"31.27229","category":"68","category_name":"快餐厅","address":"虹口区欧阳路446号(近祥德路)"},{"poiid":"B2094757D06AA7F84993","title":"永盛兴生煎","lon":"121.486886","lat":"31.273062","category":"68","category_name":"快餐厅","address":"虹口区欧阳路515号(近祥德路)"},{"poiid":"B2094757D065A7FA429C","title":"曲阳西南小区","lon":"121.488105103","lat":"31.2766605526","category":"500","category_name":"未知分类","address":"上海市虹口区大连西路250弄"},{"poiid":"B2094654D56CA0F9449A","title":"山水苑","lon":"121.48629","lat":"31.275454","category":"47","category_name":"住宅区","address":"山水苑位于虹口虹口欧阳路681弄"},{"poiid":"B2094655D36DA6FE4292","title":"曲阳路","lon":"121.49071","lat":"31.27652","category":"38","category_name":"公交车站","address":""},{"poiid":"B2094654D56CA0F94893","title":"欧五小区","lon":"121.48749","lat":"31.27333","category":"47","category_name":"住宅区","address":"欧阳路545弄1-35号"},{"poiid":"B2094757D16BA4FC4392","title":"冰火工坊麻辣烫","lon":"121.487979103","lat":"31.2755915303","category":"247","category_name":"餐饮美食","address":"上海市虹口区曲阳路"},{"poiid":"B2094757D168A5F84893","title":"116曲阳总点站","lon":"121.4880411","lat":"31.27561953","category":"500","category_name":"未知分类","address":"上海玉田支路"},{"poiid":"B2094752DA6CA6FC419F","title":"虹口足球场","lon":"121.490775","lat":"31.276519","category":"250","category_name":"公园户外","address":null},{"poiid":"B2094655D269AAFE4098","title":"鼓浪屿休闲浴场","lon":"121.48674","lat":"31.27397","category":"247","category_name":"餐饮美食","address":"虹口区欧阳路561号"},{"poiid":"B2094750D76EA4F54592","title":"味多美(大连西路店)","lon":"121.489","lat":"31.2764","category":"112","category_name":"糕饼店","address":"虹口区大连西路247号(近曲阳路)"},{"poiid":"B2094654D56CA6FE469C","title":"樱苑别墅","lon":"121.487","lat":"31.275","category":"47","category_name":"住宅区","address":"四川北路2365号"},{"poiid":"B2094757D169A4FA459F","title":"赢在起点","lon":"121.4879531","lat":"31.275643531","category":"500","category_name":"未知分类","address":"上海虹口区西江湾路500号"},{"poiid":"B2094655D26FA0FD4198","title":"虹鹰大楼","lon":"121.488","lat":"31.2732","category":"46","category_name":"楼宇","address":"黄渡路74,80"},{"poiid":"B2094757D16FA0F84593","title":"100路欧阳路大连西路站","lon":"121.486245","lat":"31.274832","category":"38","category_name":"公交车站","address":"上海欧阳路大连西路"},{"poiid":"B2094655D26FA6FF429B","title":"天宝公寓","lon":"121.48923","lat":"31.274361","category":"47","category_name":"住宅区","address":"天宝公寓位于虹口曲阳路487弄15号"},{"poiid":"B2094655D26CA1F94593","title":"欧阳路555弄小区(北门)","lon":"121.48755","lat":"31.27376","category":"47","category_name":"住宅区","address":"欧阳路555弄1-6号"},{"poiid":"B2094757D06BA0FF4593","title":"安利精致生活馆(大连西路店)","lon":"121.48758","lat":"31.27631","category":"122","category_name":"个人用品/化妆品店","address":"虹口区大连西路259号(近曲阳路站)"},{"poiid":"B2094655D26CA1FA479D","title":"欧阳路555弄小区","lon":"121.48789","lat":"31.27373","category":"47","category_name":"住宅区","address":"欧阳路555弄1-6号"},{"poiid":"B2094655D26CA1F9469E","title":"文宇公寓","lon":"121.48791","lat":"31.276251","category":"47","category_name":"住宅区","address":"大连西路257弄1-5号"},{"poiid":"B2094757D06BA5FF489D","title":"唐朝涮火锅","lon":"121.487508054","lat":"31.271439793","category":"86","category_name":"火锅店","address":"虹口区祥德路140号(近欧阳路)"},{"poiid":"B2094757D66EA0F54799","title":"晨晨家","lon":"121.4871806","lat":"31.275051319","category":"500","category_name":"未知分类","address":null},{"poiid":"B2094757D16BAAF5439C","title":"兴业公寓","lon":"121.48904","lat":"31.275259","category":"500","category_name":"未知分类","address":"兴业公寓位于虹口曲阳路489弄2号"},{"poiid":"B2094655D36DA1F44992","title":"祥德路","lon":"121.4868","lat":"31.27264","category":"38","category_name":"公交车站","address":""},{"poiid":"B209475CD16FA5F4459D","title":"虹口区凯德龙之梦","lon":"121.487045","lat":"31.276876","category":"500","category_name":"未知分类","address":"上海市 虹口区西江湾路"},{"poiid":"B2094654D56CA0F9439B","title":"安利(中国)日用品有限公司虹口店","lon":"121.48796","lat":"31.2763","category":"255","category_name":"专卖店","address":"大连西路259"},{"poiid":"B2094654D56CA1FC4799","title":"上海外国语大学生活区","lon":"121.48577","lat":"31.27796","category":"47","category_name":"住宅区","address":"东体育会路411"},{"poiid":"B2094757D068A7FE4998","title":"西北狼烧烤","lon":"121.488008103","lat":"31.2755975304","category":"247","category_name":"餐饮美食","address":"上海虹口足球场旁"},{"poiid":"B2094757D069A1F4429E","title":"八号线虹口足球场站","lon":"121.486136503","lat":"31.2728143722","category":"500","category_name":"未知分类","address":"上海八号线虹口足球场站"},{"poiid":"B2094757D06EAAF8449E","title":"曲阳路地铁站","lon":"121.49069713","lat":"31.276512768","category":"36","category_name":"地铁站","address":"上海轨道交通 八号线 轨交曲阳路站 8"},{"poiid":"B2094757D068A2F9439E","title":"虹口区牙病防治所","lon":"121.48649","lat":"31.27398","category":"162","category_name":"医院","address":"虹口区欧阳路571号(近大连西路)"},{"poiid":"B2094757D06FA5FC4692","title":"大连西路曲阳路","lon":"121.488515","lat":"31.27648","category":"500","category_name":"未知分类","address":"上海100。959。70。937。751。310。79。848。"},{"poiid":"B2094655D26EA7FF4298","title":"梅园村酒家(虹口店)","lon":"121.48823","lat":"31.2764","category":"76","category_name":"上海菜","address":"虹口区大连西路255号(近曲阳路)"},{"poiid":"B2094655D26BA1FD489E","title":"欧阳路祥德路","lon":"121.48724","lat":"31.27109","category":"38","category_name":"公交车站","address":""},{"poiid":"B2094757D06FA6FF4493","title":"北郊高级中学","lon":"121.48976","lat":"31.2753","category":"55","category_name":"中学","address":"虹口区曲阳路497号(近大连西路)"},{"poiid":"B2094757D06FA7F4429E","title":"嘉和国际大厦","lon":"121.48520494983","lat":"31.275291764831","category":"46","category_name":"楼宇","address":"浦东新区金湘路225弄"},{"poiid":"B2094757D06FABFE489E","title":"虹口区教师进修学院","lon":"121.486546","lat":"31.273132","category":"253","category_name":"校园生活","address":"上海虹口区欧阳路502号"},{"poiid":"B2094757D06FABF5499E","title":"祥德路烤肉摊","lon":"121.48773","lat":"31.27113","category":"68","category_name":"快餐厅","address":"虹口区祥德路黑马雕塑下(欧阳路口)"},{"poiid":"B2094757D06FA3FB469C","title":"欧阳花苑","lon":"121.49108","lat":"31.272671","category":"47","category_name":"住宅区","address":"上海虹口区曲阳路385弄"},{"poiid":"B2094757D068A4F84099","title":"敬亭盲人保健按摩","lon":"121.48734","lat":"31.27599","category":"149","category_name":"洗浴推拿场所","address":"虹口区大连西路261号中原证券大厦1楼(近曲阳路站)"},{"poiid":"B2094654D56CA0F9489A","title":"欧阳名邸","lon":"121.48741","lat":"31.274374","category":"47","category_name":"住宅区","address":"上海市虹口区欧阳路571号(近大连西路)"},{"poiid":"B2094757D06BA4FC4593","title":"象山海鲜","lon":"121.488563533","lat":"31.2736898305","category":"500","category_name":"未知分类","address":"虹口区山阴路175号(近四川北路)"},{"poiid":"B2094655D26FA4FE4893","title":"嘉兰大厦","lon":"121.488","lat":"31.2741","category":"46","category_name":"楼宇","address":"四川北路2261、2263号"},{"poiid":"B2094757D06AA6FA4793","title":"朱屺瞻艺术馆","lon":"121.48645","lat":"31.27411","category":"179","category_name":"音乐厅","address":"虹口区欧阳路580号"},{"poiid":"B2094757D065A6F54393","title":"金涮盘","lon":"121.486897103","lat":"31.2753595254","category":"86","category_name":"火锅店","address":"上海市虹口区凯德龙之梦购物中心5F"},{"poiid":"B2094751D36DA0F9499D","title":"欧阳店","lon":"121.48698","lat":"31.27387","category":"87","category_name":"特色／地方风味餐厅","address":"虹口区欧阳路561号(近大连西路)"},{"poiid":"B2094654D56CA0F9459B","title":"欧九小区","lon":"121.48709","lat":"31.274914","category":"47","category_name":"住宅区","address":"欧阳路587弄1号-13号"},{"poiid":"B2094757D464AAF54393","title":"艾罗玛咖啡 东体育会路店 Aroma Coffee","lon":"121.48404","lat":"31.27554","category":"260","category_name":"其他","address":"虹口区东体育会路306号(近大连西路)"},{"poiid":"B2094750D16AA7F4469D","title":"曲阳影院","lon":"121.487258","lat":"31.274173","category":"178","category_name":"电影院","address":"曲阳路570号"},{"poiid":"B2094757D06BA3FB4899","title":"唐之印象","lon":"121.48689","lat":"31.27375","category":"500","category_name":"未知分类","address":"虹口区欧阳路561号(近大连西路)"},{"poiid":"B2094757D068AAFF489F","title":"泰煌鸡(虹口店)","lon":"121.48694","lat":"31.27229","category":"68","category_name":"快餐厅","address":"虹口区欧阳路446号(近祥德路)"},{"poiid":"B2094757D06AA7F84993","title":"永盛兴生煎","lon":"121.486886","lat":"31.273062","category":"68","category_name":"快餐厅","address":"虹口区欧阳路515号(近祥德路)"},{"poiid":"B2094757D065A7FA429C","title":"曲阳西南小区","lon":"121.488105103","lat":"31.2766605526","category":"500","category_name":"未知分类","address":"上海市虹口区大连西路250弄"},{"poiid":"B2094654D56CA0F9449A","title":"山水苑","lon":"121.48629","lat":"31.275454","category":"47","category_name":"住宅区","address":"山水苑位于虹口虹口欧阳路681弄"},{"poiid":"B2094655D36DA6FE4292","title":"曲阳路","lon":"121.49071","lat":"31.27652","category":"38","category_name":"公交车站","address":""},{"poiid":"B2094654D56CA0F94893","title":"欧五小区","lon":"121.48749","lat":"31.27333","category":"47","category_name":"住宅区","address":"欧阳路545弄1-35号"},{"poiid":"B2094757D16BA4FC4392","title":"冰火工坊麻辣烫","lon":"121.487979103","lat":"31.2755915303","category":"247","category_name":"餐饮美食","address":"上海市虹口区曲阳路"},{"poiid":"B2094757D168A5F84893","title":"116曲阳总点站","lon":"121.4880411","lat":"31.27561953","category":"500","category_name":"未知分类","address":"上海玉田支路"},{"poiid":"B2094752DA6CA6FC419F","title":"虹口足球场","lon":"121.490775","lat":"31.276519","category":"250","category_name":"公园户外","address":null},{"poiid":"B2094655D269AAFE4098","title":"鼓浪屿休闲浴场","lon":"121.48674","lat":"31.27397","category":"247","category_name":"餐饮美食","address":"虹口区欧阳路561号"},{"poiid":"B2094750D76EA4F54592","title":"味多美(大连西路店)","lon":"121.489","lat":"31.2764","category":"112","category_name":"糕饼店","address":"虹口区大连西路247号(近曲阳路)"},{"poiid":"B2094654D56CA6FE469C","title":"樱苑别墅","lon":"121.487","lat":"31.275","category":"47","category_name":"住宅区","address":"四川北路2365号"},{"poiid":"B2094757D169A4FA459F","title":"赢在起点","lon":"121.4879531","lat":"31.275643531","category":"500","category_name":"未知分类","address":"上海虹口区西江湾路500号"},{"poiid":"B2094655D26FA0FD4198","title":"虹鹰大楼","lon":"121.488","lat":"31.2732","category":"46","category_name":"楼宇","address":"黄渡路74,80"},{"poiid":"B2094757D16FA0F84593","title":"100路欧阳路大连西路站","lon":"121.486245","lat":"31.274832","category":"38","category_name":"公交车站","address":"上海欧阳路大连西路"},{"poiid":"B2094655D26FA6FF429B","title":"天宝公寓","lon":"121.48923","lat":"31.274361","category":"47","category_name":"住宅区","address":"天宝公寓位于虹口曲阳路487弄15号"},{"poiid":"B2094655D26CA1F94593","title":"欧阳路555弄小区(北门)","lon":"121.48755","lat":"31.27376","category":"47","category_name":"住宅区","address":"欧阳路555弄1-6号"},{"poiid":"B2094757D06BA0FF4593","title":"安利精致生活馆(大连西路店)","lon":"121.48758","lat":"31.27631","category":"122","category_name":"个人用品/化妆品店","address":"虹口区大连西路259号(近曲阳路站)"},{"poiid":"B2094655D26CA1FA479D","title":"欧阳路555弄小区","lon":"121.48789","lat":"31.27373","category":"47","category_name":"住宅区","address":"欧阳路555弄1-6号"},{"poiid":"B2094655D26CA1F9469E","title":"文宇公寓","lon":"121.48791","lat":"31.276251","category":"47","category_name":"住宅区","address":"大连西路257弄1-5号"},{"poiid":"B2094757D06BA5FF489D","title":"唐朝涮火锅","lon":"121.487508054","lat":"31.271439793","category":"86","category_name":"火锅店","address":"虹口区祥德路140号(近欧阳路)"},{"poiid":"B2094757D66EA0F54799","title":"晨晨家","lon":"121.4871806","lat":"31.275051319","category":"500","category_name":"未知分类","address":null},{"poiid":"B2094757D16BAAF5439C","title":"兴业公寓","lon":"121.48904","lat":"31.275259","category":"500","category_name":"未知分类","address":"兴业公寓位于虹口曲阳路489弄2号"},{"poiid":"B2094655D36DA1F44992","title":"祥德路","lon":"121.4868","lat":"31.27264","category":"38","category_name":"公交车站","address":""},{"poiid":"B209475CD16FA5F4459D","title":"虹口区凯德龙之梦","lon":"121.487045","lat":"31.276876","category":"500","category_name":"未知分类","address":"上海市 虹口区西江湾路"},{"poiid":"B2094654D56CA0F9439B","title":"安利(中国)日用品有限公司虹口店","lon":"121.48796","lat":"31.2763","category":"255","category_name":"专卖店","address":"大连西路259"},{"poiid":"B2094654D56CA1FC4799","title":"上海外国语大学生活区","lon":"121.48577","lat":"31.27796","category":"47","category_name":"住宅区","address":"东体育会路411"},{"poiid":"B2094757D068A7FE4998","title":"西北狼烧烤","lon":"121.488008103","lat":"31.2755975304","category":"247","category_name":"餐饮美食","address":"上海虹口足球场旁"},{"poiid":"B2094757D069A1F4429E","title":"八号线虹口足球场站","lon":"121.486136503","lat":"31.2728143722","category":"500","category_name":"未知分类","address":"上海八号线虹口足球场站"},{"poiid":"B2094757D06EAAF8449E","title":"曲阳路地铁站","lon":"121.49069713","lat":"31.276512768","category":"36","category_name":"地铁站","address":"上海轨道交通 八号线 轨交曲阳路站 8"},{"poiid":"B2094757D068A2F9439E","title":"虹口区牙病防治所","lon":"121.48649","lat":"31.27398","category":"162","category_name":"医院","address":"虹口区欧阳路571号(近大连西路)"},{"poiid":"B2094757D06FA5FC4692","title":"大连西路曲阳路","lon":"121.488515","lat":"31.27648","category":"500","category_name":"未知分类","address":"上海100。959。70。937。751。310。79。848。"},{"poiid":"B2094655D26EA7FF4298","title":"梅园村酒家(虹口店)","lon":"121.48823","lat":"31.2764","category":"76","category_name":"上海菜","address":"虹口区大连西路255号(近曲阳路)"},{"poiid":"B2094655D26BA1FD489E","title":"欧阳路祥德路","lon":"121.48724","lat":"31.27109","category":"38","category_name":"公交车站","address":""},{"poiid":"B2094757D06FA6FF4493","title":"北郊高级中学","lon":"121.48976","lat":"31.2753","category":"55","category_name":"中学","address":"虹口区曲阳路497号(近大连西路)"},{"poiid":"B2094757D06FA7F4429E","title":"嘉和国际大厦","lon":"121.48520494983","lat":"31.275291764831","category":"46","category_name":"楼宇","address":"浦东新区金湘路225弄"},{"poiid":"B2094757D06FABFE489E","title":"虹口区教师进修学院","lon":"121.486546","lat":"31.273132","category":"253","category_name":"校园生活","address":"上海虹口区欧阳路502号"},{"poiid":"B2094757D06FABF5499E","title":"祥德路烤肉摊","lon":"121.48773","lat":"31.27113","category":"68","category_name":"快餐厅","address":"虹口区祥德路黑马雕塑下(欧阳路口)"},{"poiid":"B2094757D06FA3FB469C","title":"欧阳花苑","lon":"121.49108","lat":"31.272671","category":"47","category_name":"住宅区","address":"上海虹口区曲阳路385弄"},{"poiid":"B2094757D068A4F84099","title":"敬亭盲人保健按摩","lon":"121.48734","lat":"31.27599","category":"149","category_name":"洗浴推拿场所","address":"虹口区大连西路261号中原证券大厦1楼(近曲阳路站)"},{"poiid":"B2094654D56CA0F9489A","title":"欧阳名邸","lon":"121.48741","lat":"31.274374","category":"47","category_name":"住宅区","address":"上海市虹口区欧阳路571号(近大连西路)"},{"poiid":"B2094757D06BA4FC4593","title":"象山海鲜","lon":"121.488563533","lat":"31.2736898305","category":"500","category_name":"未知分类","address":"虹口区山阴路175号(近四川北路)"},{"poiid":"B2094655D26FA4FE4893","title":"嘉兰大厦","lon":"121.488","lat":"31.2741","category":"46","category_name":"楼宇","address":"四川北路2261、2263号"},{"poiid":"B2094757D06AA6FA4793","title":"朱屺瞻艺术馆","lon":"121.48645","lat":"31.27411","category":"179","category_name":"音乐厅","address":"虹口区欧阳路580号"},{"poiid":"B2094757D065A6F54393","title":"金涮盘","lon":"121.486897103","lat":"31.2753595254","category":"86","category_name":"火锅店","address":"上海市虹口区凯德龙之梦购物中心5F"},{"poiid":"B2094751D36DA0F9499D","title":"欧阳店","lon":"121.48698","lat":"31.27387","category":"87","category_name":"特色／地方风味餐厅","address":"虹口区欧阳路561号(近大连西路)"},{"poiid":"B2094654D56CA0F9459B","title":"欧九小区","lon":"121.48709","lat":"31.274914","category":"47","category_name":"住宅区","address":"欧阳路587弄1号-13号"},{"poiid":"B2094757D464AAF54393","title":"艾罗玛咖啡 东体育会路店 Aroma Coffee","lon":"121.48404","lat":"31.27554","category":"260","category_name":"其他","address":"虹口区东体育会路306号(近大连西路)"},{"poiid":"B2094750D16AA7F4469D","title":"曲阳影院","lon":"121.487258","lat":"31.274173","category":"178","category_name":"电影院","address":"曲阳路570号"},{"poiid":"B2094757D06BA3FB4899","title":"唐之印象","lon":"121.48689","lat":"31.27375","category":"500","category_name":"未知分类","address":"虹口区欧阳路561号(近大连西路)"},{"poiid":"B2094757D068AAFF489F","title":"泰煌鸡(虹口店)","lon":"121.48694","lat":"31.27229","category":"68","category_name":"快餐厅","address":"虹口区欧阳路446号(近祥德路)"},{"poiid":"B2094757D06AA7F84993","title":"永盛兴生煎","lon":"121.486886","lat":"31.273062","category":"68","category_name":"快餐厅","address":"虹口区欧阳路515号(近祥德路)"},{"poiid":"B2094757D065A7FA429C","title":"曲阳西南小区","lon":"121.488105103","lat":"31.2766605526","category":"500","category_name":"未知分类","address":"上海市虹口区大连西路250弄"},{"poiid":"B2094654D56CA0F9449A","title":"山水苑","lon":"121.48629","lat":"31.275454","category":"47","category_name":"住宅区","address":"山水苑位于虹口虹口欧阳路681弄"},{"poiid":"B2094655D36DA6FE4292","title":"曲阳路","lon":"121.49071","lat":"31.27652","category":"38","category_name":"公交车站","address":""},{"poiid":"B2094654D56CA0F94893","title":"欧五小区","lon":"121.48749","lat":"31.27333","category":"47","category_name":"住宅区","address":"欧阳路545弄1-35号"},{"poiid":"B2094757D16BA4FC4392","title":"冰火工坊麻辣烫","lon":"121.487979103","lat":"31.2755915303","category":"247","category_name":"餐饮美食","address":"上海市虹口区曲阳路"},{"poiid":"B2094757D168A5F84893","title":"116曲阳总点站","lon":"121.4880411","lat":"31.27561953","category":"500","category_name":"未知分类","address":"上海玉田支路"},{"poiid":"B2094752DA6CA6FC419F","title":"虹口足球场","lon":"121.490775","lat":"31.276519","category":"250","category_name":"公园户外","address":null},{"poiid":"B2094655D269AAFE4098","title":"鼓浪屿休闲浴场","lon":"121.48674","lat":"31.27397","category":"247","category_name":"餐饮美食","address":"虹口区欧阳路561号"},{"poiid":"B2094750D76EA4F54592","title":"味多美(大连西路店)","lon":"121.489","lat":"31.2764","category":"112","category_name":"糕饼店","address":"虹口区大连西路247号(近曲阳路)"},{"poiid":"B2094654D56CA6FE469C","title":"樱苑别墅","lon":"121.487","lat":"31.275","category":"47","category_name":"住宅区","address":"四川北路2365号"},{"poiid":"B2094757D169A4FA459F","title":"赢在起点","lon":"121.4879531","lat":"31.275643531","category":"500","category_name":"未知分类","address":"上海虹口区西江湾路500号"},{"poiid":"B2094655D26FA0FD4198","title":"虹鹰大楼","lon":"121.488","lat":"31.2732","category":"46","category_name":"楼宇","address":"黄渡路74,80"},{"poiid":"B2094757D16FA0F84593","title":"100路欧阳路大连西路站","lon":"121.486245","lat":"31.274832","category":"38","category_name":"公交车站","address":"上海欧阳路大连西路"},{"poiid":"B2094655D26FA6FF429B","title":"天宝公寓","lon":"121.48923","lat":"31.274361","category":"47","category_name":"住宅区","address":"天宝公寓位于虹口曲阳路487弄15号"},{"poiid":"B2094655D26CA1F94593","title":"欧阳路555弄小区(北门)","lon":"121.48755","lat":"31.27376","category":"47","category_name":"住宅区","address":"欧阳路555弄1-6号"},{"poiid":"B2094757D06BA0FF4593","title":"安利精致生活馆(大连西路店)","lon":"121.48758","lat":"31.27631","category":"122","category_name":"个人用品/化妆品店","address":"虹口区大连西路259号(近曲阳路站)"},{"poiid":"B2094655D26CA1FA479D","title":"欧阳路555弄小区","lon":"121.48789","lat":"31.27373","category":"47","category_name":"住宅区","address":"欧阳路555弄1-6号"},{"poiid":"B2094655D26CA1F9469E","title":"文宇公寓","lon":"121.48791","lat":"31.276251","category":"47","category_name":"住宅区","address":"大连西路257弄1-5号"},{"poiid":"B2094757D06BA5FF489D","title":"唐朝涮火锅","lon":"121.487508054","lat":"31.271439793","category":"86","category_name":"火锅店","address":"虹口区祥德路140号(近欧阳路)"},{"poiid":"B2094757D66EA0F54799","title":"晨晨家","lon":"121.4871806","lat":"31.275051319","category":"500","category_name":"未知分类","address":null},{"poiid":"B2094757D16BAAF5439C","title":"兴业公寓","lon":"121.48904","lat":"31.275259","category":"500","category_name":"未知分类","address":"兴业公寓位于虹口曲阳路489弄2号"},{"poiid":"B2094655D36DA1F44992","title":"祥德路","lon":"121.4868","lat":"31.27264","category":"38","category_name":"公交车站","address":""},{"poiid":"B209475CD16FA5F4459D","title":"虹口区凯德龙之梦","lon":"121.487045","lat":"31.276876","category":"500","category_name":"未知分类","address":"上海市 虹口区西江湾路"},{"poiid":"B2094654D56CA0F9439B","title":"安利(中国)日用品有限公司虹口店","lon":"121.48796","lat":"31.2763","category":"255","category_name":"专卖店","address":"大连西路259"},{"poiid":"B2094654D56CA1FC4799","title":"上海外国语大学生活区","lon":"121.48577","lat":"31.27796","category":"47","category_name":"住宅区","address":"东体育会路411"},{"poiid":"B2094757D068A7FE4998","title":"西北狼烧烤","lon":"121.488008103","lat":"31.2755975304","category":"247","category_name":"餐饮美食","address":"上海虹口足球场旁"},{"poiid":"B2094757D069A1F4429E","title":"八号线虹口足球场站","lon":"121.486136503","lat":"31.2728143722","category":"500","category_name":"未知分类","address":"上海八号线虹口足球场站"},{"poiid":"B2094757D06EAAF8449E","title":"曲阳路地铁站","lon":"121.49069713","lat":"31.276512768","category":"36","category_name":"地铁站","address":"上海轨道交通 八号线 轨交曲阳路站 8"},{"poiid":"B2094757D068A2F9439E","title":"虹口区牙病防治所","lon":"121.48649","lat":"31.27398","category":"162","category_name":"医院","address":"虹口区欧阳路571号(近大连西路)"},{"poiid":"B2094757D06FA5FC4692","title":"大连西路曲阳路","lon":"121.488515","lat":"31.27648","category":"500","category_name":"未知分类","address":"上海100。959。70。937。751。310。79。848。"},{"poiid":"B2094655D26EA7FF4298","title":"梅园村酒家(虹口店)","lon":"121.48823","lat":"31.2764","category":"76","category_name":"上海菜","address":"虹口区大连西路255号(近曲阳路)"},{"poiid":"B2094655D26BA1FD489E","title":"欧阳路祥德路","lon":"121.48724","lat":"31.27109","category":"38","category_name":"公交车站","address":""},{"poiid":"B2094757D06FA6FF4493","title":"北郊高级中学","lon":"121.48976","lat":"31.2753","category":"55","category_name":"中学","address":"虹口区曲阳路497号(近大连西路)"},{"poiid":"B2094757D06FA7F4429E","title":"嘉和国际大厦","lon":"121.48520494983","lat":"31.275291764831","category":"46","category_name":"楼宇","address":"浦东新区金湘路225弄"},{"poiid":"B2094757D06FABFE489E","title":"虹口区教师进修学院","lon":"121.486546","lat":"31.273132","category":"253","category_name":"校园生活","address":"上海虹口区欧阳路502号"},{"poiid":"B2094757D06FABF5499E","title":"祥德路烤肉摊","lon":"121.48773","lat":"31.27113","category":"68","category_name":"快餐厅","address":"虹口区祥德路黑马雕塑下(欧阳路口)"},{"poiid":"B2094757D06FA3FB469C","title":"欧阳花苑","lon":"121.49108","lat":"31.272671","category":"47","category_name":"住宅区","address":"上海虹口区曲阳路385弄"},{"poiid":"B2094757D068A4F84099","title":"敬亭盲人保健按摩","lon":"121.48734","lat":"31.27599","category":"149","category_name":"洗浴推拿场所","address":"虹口区大连西路261号中原证券大厦1楼(近曲阳路站)"},{"poiid":"B2094654D56CA0F9489A","title":"欧阳名邸","lon":"121.48741","lat":"31.274374","category":"47","category_name":"住宅区","address":"上海市虹口区欧阳路571号(近大连西路)"},{"poiid":"B2094757D06BA4FC4593","title":"象山海鲜","lon":"121.488563533","lat":"31.2736898305","category":"500","category_name":"未知分类","address":"虹口区山阴路175号(近四川北路)"},{"poiid":"B2094655D26FA4FE4893","title":"嘉兰大厦","lon":"121.488","lat":"31.2741","category":"46","category_name":"楼宇","address":"四川北路2261、2263号"},{"poiid":"B2094757D06AA6FA4793","title":"朱屺瞻艺术馆","lon":"121.48645","lat":"31.27411","category":"179","category_name":"音乐厅","address":"虹口区欧阳路580号"},{"poiid":"B2094757D065A6F54393","title":"金涮盘","lon":"121.486897103","lat":"31.2753595254","category":"86","category_name":"火锅店","address":"上海市虹口区凯德龙之梦购物中心5F"},{"poiid":"B2094751D36DA0F9499D","title":"欧阳店","lon":"121.48698","lat":"31.27387","category":"87","category_name":"特色／地方风味餐厅","address":"虹口区欧阳路561号(近大连西路)"},{"poiid":"B2094654D56CA0F9459B","title":"欧九小区","lon":"121.48709","lat":"31.274914","category":"47","category_name":"住宅区","address":"欧阳路587弄1号-13号"},{"poiid":"B2094757D464AAF54393","title":"艾罗玛咖啡 东体育会路店 Aroma Coffee","lon":"121.48404","lat":"31.27554","category":"260","category_name":"其他","address":"虹口区东体育会路306号(近大连西路)"},{"poiid":"B2094750D16AA7F4469D","title":"曲阳影院","lon":"121.487258","lat":"31.274173","category":"178","category_name":"电影院","address":"曲阳路570号"},{"poiid":"B2094757D06BA3FB4899","title":"唐之印象","lon":"121.48689","lat":"31.27375","category":"500","category_name":"未知分类","address":"虹口区欧阳路561号(近大连西路)"},{"poiid":"B2094757D068AAFF489F","title":"泰煌鸡(虹口店)","lon":"121.48694","lat":"31.27229","category":"68","category_name":"快餐厅","address":"虹口区欧阳路446号(近祥德路)"},{"poiid":"B2094757D06AA7F84993","title":"永盛兴生煎","lon":"121.486886","lat":"31.273062","category":"68","category_name":"快餐厅","address":"虹口区欧阳路515号(近祥德路)"},{"poiid":"B2094757D065A7FA429C","title":"曲阳西南小区","lon":"121.488105103","lat":"31.2766605526","category":"500","category_name":"未知分类","address":"上海市虹口区大连西路250弄"},{"poiid":"B2094654D56CA0F9449A","title":"山水苑","lon":"121.48629","lat":"31.275454","category":"47","category_name":"住宅区","address":"山水苑位于虹口虹口欧阳路681弄"},{"poiid":"B2094655D36DA6FE4292","title":"曲阳路","lon":"121.49071","lat":"31.27652","category":"38","category_name":"公交车站","address":""},{"poiid":"B2094654D56CA0F94893","title":"欧五小区","lon":"121.48749","lat":"31.27333","category":"47","category_name":"住宅区","address":"欧阳路545弄1-35号"},{"poiid":"B2094757D16BA4FC4392","title":"冰火工坊麻辣烫","lon":"121.487979103","lat":"31.2755915303","category":"247","category_name":"餐饮美食","address":"上海市虹口区曲阳路"},{"poiid":"B2094757D168A5F84893","title":"116曲阳总点站","lon":"121.4880411","lat":"31.27561953","category":"500","category_name":"未知分类","address":"上海玉田支路"},{"poiid":"B2094752DA6CA6FC419F","title":"虹口足球场","lon":"121.490775","lat":"31.276519","category":"250","category_name":"公园户外","address":null},{"poiid":"B2094655D269AAFE4098","title":"鼓浪屿休闲浴场","lon":"121.48674","lat":"31.27397","category":"247","category_name":"餐饮美食","address":"虹口区欧阳路561号"},{"poiid":"B2094750D76EA4F54592","title":"味多美(大连西路店)","lon":"121.489","lat":"31.2764","category":"112","category_name":"糕饼店","address":"虹口区大连西路247号(近曲阳路)"},{"poiid":"B2094654D56CA6FE469C","title":"樱苑别墅","lon":"121.487","lat":"31.275","category":"47","category_name":"住宅区","address":"四川北路2365号"},{"poiid":"B2094757D169A4FA459F","title":"赢在起点","lon":"121.4879531","lat":"31.275643531","category":"500","category_name":"未知分类","address":"上海虹口区西江湾路500号"},{"poiid":"B2094655D26FA0FD4198","title":"虹鹰大楼","lon":"121.488","lat":"31.2732","category":"46","category_name":"楼宇","address":"黄渡路74,80"},{"poiid":"B2094757D16FA0F84593","title":"100路欧阳路大连西路站","lon":"121.486245","lat":"31.274832","category":"38","category_name":"公交车站","address":"上海欧阳路大连西路"},{"poiid":"B2094655D26FA6FF429B","title":"天宝公寓","lon":"121.48923","lat":"31.274361","category":"47","category_name":"住宅区","address":"天宝公寓位于虹口曲阳路487弄15号"},{"poiid":"B2094655D26CA1F94593","title":"欧阳路555弄小区(北门)","lon":"121.48755","lat":"31.27376","category":"47","category_name":"住宅区","address":"欧阳路555弄1-6号"},{"poiid":"B2094757D06BA0FF4593","title":"安利精致生活馆(大连西路店)","lon":"121.48758","lat":"31.27631","category":"122","category_name":"个人用品/化妆品店","address":"虹口区大连西路259号(近曲阳路站)"},{"poiid":"B2094655D26CA1FA479D","title":"欧阳路555弄小区","lon":"121.48789","lat":"31.27373","category":"47","category_name":"住宅区","address":"欧阳路555弄1-6号"},{"poiid":"B2094655D26CA1F9469E","title":"文宇公寓","lon":"121.48791","lat":"31.276251","category":"47","category_name":"住宅区","address":"大连西路257弄1-5号"},{"poiid":"B2094757D06BA5FF489D","title":"唐朝涮火锅","lon":"121.487508054","lat":"31.271439793","category":"86","category_name":"火锅店","address":"虹口区祥德路140号(近欧阳路)"},{"poiid":"B2094757D66EA0F54799","title":"晨晨家","lon":"121.4871806","lat":"31.275051319","category":"500","category_name":"未知分类","address":null},{"poiid":"B2094757D16BAAF5439C","title":"兴业公寓","lon":"121.48904","lat":"31.275259","category":"500","category_name":"未知分类","address":"兴业公寓位于虹口曲阳路489弄2号"},{"poiid":"B2094655D36DA1F44992","title":"祥德路","lon":"121.4868","lat":"31.27264","category":"38","category_name":"公交车站","address":""},{"poiid":"B209475CD16FA5F4459D","title":"虹口区凯德龙之梦","lon":"121.487045","lat":"31.276876","category":"500","category_name":"未知分类","address":"上海市 虹口区西江湾路"},{"poiid":"B2094654D56CA0F9439B","title":"安利(中国)日用品有限公司虹口店","lon":"121.48796","lat":"31.2763","category":"255","category_name":"专卖店","address":"大连西路259"}]