[{"poiid":"B2094757DB68A5F5449D","title":"弄堂筵 武夷路店","lon":"121.427919","lat":"31.213757","category":"76","category_name":"上海菜","address":"长宁区武夷路155号9号楼(近延安西路)"},{"poiid":"B2094757D06FA1FC479A","title":"小肥羊(延安西路店)","lon":"121.43102","lat":"31.21319","category":"86","category_name":"火锅店","address":"长宁区延安西路1033号大众金融大厦101号(近昭化路)"},{"poiid":"B2094655D26BA2FC419C","title":"武夷路延安西路","lon":"121.42993","lat":"31.21363","category":"38","category_name":"公交车站","address":""},{"poiid":"B209475CD564A7F8439E","title":"上海滩中信泰富店","lon":"121.45602","lat":"31.22851","category":"119","category_name":"商场","address":"\"南京西路1168号中信泰富广场，店铺号221.\r\n\""},{"poiid":"B2094757D068ABFD4998","title":"上海电力医院","lon":"121.432008446","lat":"31.2141976127","category":"162","category_name":"医院","address":"长宁区延安西路937号(近江苏路)"},{"poiid":"B2094757D06FA6FA409F","title":"上海电信实业大楼","lon":"121.431494525","lat":"31.2166566361","category":"46","category_name":"楼宇","address":"上海江苏路500号"},{"poiid":"B2094757D464A0F9489E","title":"原食街","lon":"121.43032240416","lat":"31.2133760189","category":"76","category_name":"上海菜","address":"长宁区武夷路71号(近延安西路)"},{"poiid":"B2094757D06AA0F8449A","title":"比利时领事馆","lon":"121.428513","lat":"31.214012","category":"252","category_name":"楼宇机构","address":"上海长宁区武夷路127号"},{"poiid":"B2094654DB69A5FF439E","title":"莫泰168连锁旅店(延安西路店)","lon":"121.4294","lat":"31.21162","category":"216","category_name":"经济型连锁酒店","address":"上海市长宁区延安西路1119号（近番禺路）"},{"poiid":"B2094654D565A7F84998","title":"醒目仔香港茶餐厅(武夷路)","lon":"121.43056","lat":"31.21327","category":"68","category_name":"快餐厅","address":"长宁区武夷路24号(近延安西路)"},{"poiid":"B2094655D26FA3FB409C","title":"汤司令土灶煨汤馆","lon":"121.43054","lat":"31.21316","category":"260","category_name":"其他","address":"长宁区延安西路999号(武夷路昭化路间)"},{"poiid":"B2094757D06FA5FB4498","title":"龙峰大厦","lon":"121.427169","lat":"31.214745","category":"46","category_name":"楼宇","address":"普陀区长寿路137号(近陕西北路)"},{"poiid":"B2094757D06FA4FB469A","title":"江苏路电信大楼","lon":"121.431634","lat":"31.216558","category":"500","category_name":"未知分类","address":"上海江苏路500号"},{"poiid":"B2094654D564A7FB459B","title":"凯阳大厦","lon":"121.43","lat":"31.2151","category":"46","category_name":"楼宇","address":"丰台学城海鹰路1号"},{"poiid":"B2094655D269A4FA499C","title":"润湘之延安西路店","lon":"121.43002","lat":"31.21256","category":"77","category_name":"湖南菜","address":"长宁区延安西路1033号大众金融大厦1-2楼(近武夷路昭化路)"},{"poiid":"B2094750DA69ABFA409F","title":"舟山渔村","lon":"121.429924","lat":"31.214105","category":"75","category_name":"浙江菜","address":"长宁区延安西路1033号(近昭化路)"},{"poiid":"B2094757D168A1FD4298","title":"银统大厦","lon":"121.43","lat":"31.2166","category":"46","category_name":"楼宇","address":"上海市长宁区遵义南路88号"},{"poiid":"B2094654D565A7FA459E","title":"原食街饭店","lon":"121.42984","lat":"31.21379","category":"257","category_name":"中餐厅","address":"长宁区武夷路79号"},{"poiid":"B2094654D565A7FA4693","title":"长发餐饮","lon":"121.43084","lat":"31.21336","category":"68","category_name":"快餐厅","address":"长宁区延安西路955号(武夷路口)"},{"poiid":"B2094757D068A4FF409D","title":"KDS上海总部","lon":"121.43192677","lat":"31.214995961","category":"46","category_name":"楼宇","address":"上海长宁区延安西路889号太平洋企业中心22楼"},{"poiid":"B2094757D068ABF9429B","title":"东北四季饺子王(武夷路店)","lon":"121.427919","lat":"31.213757","category":"82","category_name":"东北菜","address":"长宁区武夷路155号(近延安西路)"},{"poiid":"B2094654D564A6FC469D","title":"生物大厦","lon":"121.432","lat":"31.216","category":"46","category_name":"楼宇","address":"上海市奉贤区南奉公路8515,8519号"},{"poiid":"B2094757D069AAFD419A","title":"润湘之(宣化路店)","lon":"121.42981","lat":"31.21727","category":"77","category_name":"湖南菜","address":"上海长宁区宣化路59号(近江苏路)"},{"poiid":"B2094757D068AAFD4399","title":"老鸿兴苏州汤包馆","lon":"121.43140598","lat":"31.216192956","category":"68","category_name":"快餐厅","address":"长宁区东诸安浜路229号(近江苏路)"},{"poiid":"B2094757D06FAAFE489D","title":"江苏路延安西路天桥","lon":"121.43166351","lat":"31.216644287","category":"500","category_name":"未知分类","address":"上海江苏路延安西路口"},{"poiid":"B2094654D565A7FB4493","title":"武夷路幼儿园","lon":"121.42933","lat":"31.21455","category":"57","category_name":"幼儿园","address":"长宁区利西路"},{"poiid":"B2094757D169A0F5419D","title":"法国教育服务中心-上海中心","lon":"121.42846284","lat":"31.214718661","category":"500","category_name":"未知分类","address":"上海市长宁区武夷路155号世星大厦4楼"},{"poiid":"B2094654D564A7FA4392","title":"禾森商务中心","lon":"121.427","lat":"31.2145","category":"46","category_name":"楼宇","address":"闸北区江场西路38号(近共和新路)"},{"poiid":"B2094753DB6BA6FE449C","title":"上海和平饭店","lon":"121.431007","lat":"31.214103","category":"247","category_name":"餐饮美食","address":"上海市 南京东路20号"},{"poiid":"B2094757D16CA4F4499D","title":"华越楼(延安西路店)","lon":"121.430756026","lat":"31.2121407172","category":"99","category_name":"泰国／越南菜品餐厅","address":"长宁区延安西路1066号瑞峰公寓酒店34楼(近江苏路)"},{"poiid":"B2094654DB64A6FA429B","title":"汉庭快捷(中山公园店)","lon":"121.42794","lat":"31.2141","category":"216","category_name":"经济型连锁酒店","address":"长宁区武夷路155号(近延安西路口)"},{"poiid":"B2094757D068A3F8479C","title":"上海法语培训中心(武夷路校区)","lon":"121.42805","lat":"31.21352","category":"260","category_name":"其他","address":"长宁区武夷路155号2-4楼(近比利时领事馆)"},{"poiid":"B2094654D565A7FB479E","title":"利西小区","lon":"121.42893","lat":"31.215069","category":"47","category_name":"住宅区","address":"安化路175-177"},{"poiid":"B2094750DB65AAF5449D","title":"浦东昌里路夜市","lon":"121.429336","lat":"31.215042","category":"249","category_name":"购物服务","address":"昌里路"},{"poiid":"B2094654DB65A4F4459B","title":"罗柏记快餐","lon":"121.43090303812","lat":"31.217876284587","category":"68","category_name":"快餐厅","address":"长宁区宣化路51号(近江苏路)"},{"poiid":"B2094655D26DA3FC409C","title":"利新小区","lon":"121.42884","lat":"31.21506","category":"47","category_name":"住宅区","address":"安化路175-177"},{"poiid":"B2094654D565A6FE459B","title":"交通银行上海长宁支行","lon":"121.43193","lat":"31.21628","category":"150","category_name":"银行","address":"长宁区江苏路508号(安化路江苏路)"},{"poiid":"B2094654D565A7FA4592","title":"南风楼(武夷路)","lon":"121.43006","lat":"31.21376","category":"257","category_name":"中餐厅","address":"长宁区武夷路71"},{"poiid":"B2094757D16EABF54998","title":"安化二中","lon":"121.42845958","lat":"31.215030133","category":"55","category_name":"中学","address":"上海安化路222号"},{"poiid":"B2094757D068A6FF469C","title":"Bill飚记面铺","lon":"121.42967","lat":"31.21737","category":"68","category_name":"快餐厅","address":"长宁区宣化路75号(近江苏路)"},{"poiid":"B209475DD664A7F44999","title":"三宝粥铺","lon":"121.432411","lat":"31.214637","category":"247","category_name":"餐饮美食","address":"上海市 长宁区延安西路1033号"},{"poiid":"B2094654DB6BA6F84398","title":"哈达瑜伽会所","lon":"121.42962","lat":"31.2136","category":"221","category_name":"健身中心","address":"长宁区武夷路72号(靠近延安西路)"},{"poiid":"B2094757D66FA3F4429B","title":"重庆鸡公堡","lon":"121.429845","lat":"31.213793","category":"247","category_name":"餐饮美食","address":"上海武夷路79号"},{"poiid":"B2094655D265A7FF4892","title":"马普专业楼","lon":"121.42864","lat":"31.21555","category":"46","category_name":"楼宇","address":"安化路84"},{"poiid":"B2094757DA69A1FC4693","title":"泰酷纹身","lon":"121.43095","lat":"31.21206","category":"119","category_name":"商场","address":"长宁区延安西路654号华敏世纪广场(近江苏路)"},{"poiid":"B209475CD76DABFA4698","title":"上海徐汇滨江绿地","lon":"121.43","lat":"31.213096","category":"500","category_name":"未知分类","address":"上海市 上海徐汇龙腾大道"},{"poiid":"B2094757DA69A1F4409F","title":"哈达瑜伽武夷精品会所","lon":"121.42990692031","lat":"31.213565492137","category":"250","category_name":"公园户外","address":"上海市长宁区武夷路72号（近延安西路）"},{"poiid":"B2094757D569A3F9449A","title":"格林豪泰酒店(上海中山公园酒店)","lon":"121.43059245","lat":"31.21571316","category":"216","category_name":"经济型连锁酒店","address":"长宁区安化路40号(近江苏路)"},{"poiid":"B2094655D26CAAFA439C","title":"大西别墅","lon":"121.429","lat":"31.2157","category":"47","category_name":"住宅区","address":"延安西路1453弄2-18号"},{"poiid":"B2094757D06AA2FB439F","title":"96路武夷路延安西路站","lon":"121.430389","lat":"31.213418","category":"38","category_name":"公交车站","address":"上海武夷路延安西路"},{"poiid":"B2094757DB68A5F5449D","title":"弄堂筵 武夷路店","lon":"121.427919","lat":"31.213757","category":"76","category_name":"上海菜","address":"长宁区武夷路155号9号楼(近延安西路)"},{"poiid":"B2094757D06FA1FC479A","title":"小肥羊(延安西路店)","lon":"121.43102","lat":"31.21319","category":"86","category_name":"火锅店","address":"长宁区延安西路1033号大众金融大厦101号(近昭化路)"},{"poiid":"B2094655D26BA2FC419C","title":"武夷路延安西路","lon":"121.42993","lat":"31.21363","category":"38","category_name":"公交车站","address":""},{"poiid":"B209475CD564A7F8439E","title":"上海滩中信泰富店","lon":"121.45602","lat":"31.22851","category":"119","category_name":"商场","address":"\"南京西路1168号中信泰富广场，店铺号221.\r\n\""},{"poiid":"B2094757D068ABFD4998","title":"上海电力医院","lon":"121.432008446","lat":"31.2141976127","category":"162","category_name":"医院","address":"长宁区延安西路937号(近江苏路)"},{"poiid":"B2094757D06FA6FA409F","title":"上海电信实业大楼","lon":"121.431494525","lat":"31.2166566361","category":"46","category_name":"楼宇","address":"上海江苏路500号"},{"poiid":"B2094757D464A0F9489E","title":"原食街","lon":"121.43032240416","lat":"31.2133760189","category":"76","category_name":"上海菜","address":"长宁区武夷路71号(近延安西路)"},{"poiid":"B2094757D06AA0F8449A","title":"比利时领事馆","lon":"121.428513","lat":"31.214012","category":"252","category_name":"楼宇机构","address":"上海长宁区武夷路127号"},{"poiid":"B2094654DB69A5FF439E","title":"莫泰168连锁旅店(延安西路店)","lon":"121.4294","lat":"31.21162","category":"216","category_name":"经济型连锁酒店","address":"上海市长宁区延安西路1119号（近番禺路）"},{"poiid":"B2094654D565A7F84998","title":"醒目仔香港茶餐厅(武夷路)","lon":"121.43056","lat":"31.21327","category":"68","category_name":"快餐厅","address":"长宁区武夷路24号(近延安西路)"},{"poiid":"B2094655D26FA3FB409C","title":"汤司令土灶煨汤馆","lon":"121.43054","lat":"31.21316","category":"260","category_name":"其他","address":"长宁区延安西路999号(武夷路昭化路间)"},{"poiid":"B2094757D06FA5FB4498","title":"龙峰大厦","lon":"121.427169","lat":"31.214745","category":"46","category_name":"楼宇","address":"普陀区长寿路137号(近陕西北路)"},{"poiid":"B2094757D06FA4FB469A","title":"江苏路电信大楼","lon":"121.431634","lat":"31.216558","category":"500","category_name":"未知分类","address":"上海江苏路500号"},{"poiid":"B2094654D564A7FB459B","title":"凯阳大厦","lon":"121.43","lat":"31.2151","category":"46","category_name":"楼宇","address":"丰台学城海鹰路1号"},{"poiid":"B2094655D269A4FA499C","title":"润湘之延安西路店","lon":"121.43002","lat":"31.21256","category":"77","category_name":"湖南菜","address":"长宁区延安西路1033号大众金融大厦1-2楼(近武夷路昭化路)"},{"poiid":"B2094750DA69ABFA409F","title":"舟山渔村","lon":"121.429924","lat":"31.214105","category":"75","category_name":"浙江菜","address":"长宁区延安西路1033号(近昭化路)"},{"poiid":"B2094757D168A1FD4298","title":"银统大厦","lon":"121.43","lat":"31.2166","category":"46","category_name":"楼宇","address":"上海市长宁区遵义南路88号"},{"poiid":"B2094654D565A7FA459E","title":"原食街饭店","lon":"121.42984","lat":"31.21379","category":"257","category_name":"中餐厅","address":"长宁区武夷路79号"},{"poiid":"B2094654D565A7FA4693","title":"长发餐饮","lon":"121.43084","lat":"31.21336","category":"68","category_name":"快餐厅","address":"长宁区延安西路955号(武夷路口)"},{"poiid":"B2094757D068A4FF409D","title":"KDS上海总部","lon":"121.43192677","lat":"31.214995961","category":"46","category_name":"楼宇","address":"上海长宁区延安西路889号太平洋企业中心22楼"},{"poiid":"B2094757D068ABF9429B","title":"东北四季饺子王(武夷路店)","lon":"121.427919","lat":"31.213757","category":"82","category_name":"东北菜","address":"长宁区武夷路155号(近延安西路)"},{"poiid":"B2094654D564A6FC469D","title":"生物大厦","lon":"121.432","lat":"31.216","category":"46","category_name":"楼宇","address":"上海市奉贤区南奉公路8515,8519号"},{"poiid":"B2094757D069AAFD419A","title":"润湘之(宣化路店)","lon":"121.42981","lat":"31.21727","category":"77","category_name":"湖南菜","address":"上海长宁区宣化路59号(近江苏路)"},{"poiid":"B2094757D068AAFD4399","title":"老鸿兴苏州汤包馆","lon":"121.43140598","lat":"31.216192956","category":"68","category_name":"快餐厅","address":"长宁区东诸安浜路229号(近江苏路)"},{"poiid":"B2094757D06FAAFE489D","title":"江苏路延安西路天桥","lon":"121.43166351","lat":"31.216644287","category":"500","category_name":"未知分类","address":"上海江苏路延安西路口"},{"poiid":"B2094654D565A7FB4493","title":"武夷路幼儿园","lon":"121.42933","lat":"31.21455","category":"57","category_name":"幼儿园","address":"长宁区利西路"},{"poiid":"B2094757D169A0F5419D","title":"法国教育服务中心-上海中心","lon":"121.42846284","lat":"31.214718661","category":"500","category_name":"未知分类","address":"上海市长宁区武夷路155号世星大厦4楼"},{"poiid":"B2094654D564A7FA4392","title":"禾森商务中心","lon":"121.427","lat":"31.2145","category":"46","category_name":"楼宇","address":"闸北区江场西路38号(近共和新路)"},{"poiid":"B2094753DB6BA6FE449C","title":"上海和平饭店","lon":"121.431007","lat":"31.214103","category":"247","category_name":"餐饮美食","address":"上海市 南京东路20号"},{"poiid":"B2094757D16CA4F4499D","title":"华越楼(延安西路店)","lon":"121.430756026","lat":"31.2121407172","category":"99","category_name":"泰国／越南菜品餐厅","address":"长宁区延安西路1066号瑞峰公寓酒店34楼(近江苏路)"},{"poiid":"B2094654DB64A6FA429B","title":"汉庭快捷(中山公园店)","lon":"121.42794","lat":"31.2141","category":"216","category_name":"经济型连锁酒店","address":"长宁区武夷路155号(近延安西路口)"},{"poiid":"B2094757D068A3F8479C","title":"上海法语培训中心(武夷路校区)","lon":"121.42805","lat":"31.21352","category":"260","category_name":"其他","address":"长宁区武夷路155号2-4楼(近比利时领事馆)"},{"poiid":"B2094654D565A7FB479E","title":"利西小区","lon":"121.42893","lat":"31.215069","category":"47","category_name":"住宅区","address":"安化路175-177"},{"poiid":"B2094750DB65AAF5449D","title":"浦东昌里路夜市","lon":"121.429336","lat":"31.215042","category":"249","category_name":"购物服务","address":"昌里路"},{"poiid":"B2094654DB65A4F4459B","title":"罗柏记快餐","lon":"121.43090303812","lat":"31.217876284587","category":"68","category_name":"快餐厅","address":"长宁区宣化路51号(近江苏路)"},{"poiid":"B2094655D26DA3FC409C","title":"利新小区","lon":"121.42884","lat":"31.21506","category":"47","category_name":"住宅区","address":"安化路175-177"},{"poiid":"B2094654D565A6FE459B","title":"交通银行上海长宁支行","lon":"121.43193","lat":"31.21628","category":"150","category_name":"银行","address":"长宁区江苏路508号(安化路江苏路)"},{"poiid":"B2094654D565A7FA4592","title":"南风楼(武夷路)","lon":"121.43006","lat":"31.21376","category":"257","category_name":"中餐厅","address":"长宁区武夷路71"},{"poiid":"B2094757D16EABF54998","title":"安化二中","lon":"121.42845958","lat":"31.215030133","category":"55","category_name":"中学","address":"上海安化路222号"},{"poiid":"B2094757D068A6FF469C","title":"Bill飚记面铺","lon":"121.42967","lat":"31.21737","category":"68","category_name":"快餐厅","address":"长宁区宣化路75号(近江苏路)"},{"poiid":"B209475DD664A7F44999","title":"三宝粥铺","lon":"121.432411","lat":"31.214637","category":"247","category_name":"餐饮美食","address":"上海市 长宁区延安西路1033号"},{"poiid":"B2094654DB6BA6F84398","title":"哈达瑜伽会所","lon":"121.42962","lat":"31.2136","category":"221","category_name":"健身中心","address":"长宁区武夷路72号(靠近延安西路)"},{"poiid":"B2094757D66FA3F4429B","title":"重庆鸡公堡","lon":"121.429845","lat":"31.213793","category":"247","category_name":"餐饮美食","address":"上海武夷路79号"},{"poiid":"B2094655D265A7FF4892","title":"马普专业楼","lon":"121.42864","lat":"31.21555","category":"46","category_name":"楼宇","address":"安化路84"},{"poiid":"B2094757DA69A1FC4693","title":"泰酷纹身","lon":"121.43095","lat":"31.21206","category":"119","category_name":"商场","address":"长宁区延安西路654号华敏世纪广场(近江苏路)"},{"poiid":"B209475CD76DABFA4698","title":"上海徐汇滨江绿地","lon":"121.43","lat":"31.213096","category":"500","category_name":"未知分类","address":"上海市 上海徐汇龙腾大道"},{"poiid":"B2094757DA69A1F4409F","title":"哈达瑜伽武夷精品会所","lon":"121.42990692031","lat":"31.213565492137","category":"250","category_name":"公园户外","address":"上海市长宁区武夷路72号（近延安西路）"},{"poiid":"B2094757D569A3F9449A","title":"格林豪泰酒店(上海中山公园酒店)","lon":"121.43059245","lat":"31.21571316","category":"216","category_name":"经济型连锁酒店","address":"长宁区安化路40号(近江苏路)"},{"poiid":"B2094655D26CAAFA439C","title":"大西别墅","lon":"121.429","lat":"31.2157","category":"47","category_name":"住宅区","address":"延安西路1453弄2-18号"},{"poiid":"B2094757D06AA2FB439F","title":"96路武夷路延安西路站","lon":"121.430389","lat":"31.213418","category":"38","category_name":"公交车站","address":"上海武夷路延安西路"},{"poiid":"B2094757DB68A5F5449D","title":"弄堂筵 武夷路店","lon":"121.427919","lat":"31.213757","category":"76","category_name":"上海菜","address":"长宁区武夷路155号9号楼(近延安西路)"},{"poiid":"B2094757D06FA1FC479A","title":"小肥羊(延安西路店)","lon":"121.43102","lat":"31.21319","category":"86","category_name":"火锅店","address":"长宁区延安西路1033号大众金融大厦101号(近昭化路)"},{"poiid":"B2094655D26BA2FC419C","title":"武夷路延安西路","lon":"121.42993","lat":"31.21363","category":"38","category_name":"公交车站","address":""},{"poiid":"B209475CD564A7F8439E","title":"上海滩中信泰富店","lon":"121.45602","lat":"31.22851","category":"119","category_name":"商场","address":"\"南京西路1168号中信泰富广场，店铺号221.\r\n\""},{"poiid":"B2094757D068ABFD4998","title":"上海电力医院","lon":"121.432008446","lat":"31.2141976127","category":"162","category_name":"医院","address":"长宁区延安西路937号(近江苏路)"},{"poiid":"B2094757D06FA6FA409F","title":"上海电信实业大楼","lon":"121.431494525","lat":"31.2166566361","category":"46","category_name":"楼宇","address":"上海江苏路500号"},{"poiid":"B2094757D464A0F9489E","title":"原食街","lon":"121.43032240416","lat":"31.2133760189","category":"76","category_name":"上海菜","address":"长宁区武夷路71号(近延安西路)"},{"poiid":"B2094757D06AA0F8449A","title":"比利时领事馆","lon":"121.428513","lat":"31.214012","category":"252","category_name":"楼宇机构","address":"上海长宁区武夷路127号"},{"poiid":"B2094654DB69A5FF439E","title":"莫泰168连锁旅店(延安西路店)","lon":"121.4294","lat":"31.21162","category":"216","category_name":"经济型连锁酒店","address":"上海市长宁区延安西路1119号（近番禺路）"},{"poiid":"B2094654D565A7F84998","title":"醒目仔香港茶餐厅(武夷路)","lon":"121.43056","lat":"31.21327","category":"68","category_name":"快餐厅","address":"长宁区武夷路24号(近延安西路)"},{"poiid":"B2094655D26FA3FB409C","title":"汤司令土灶煨汤馆","lon":"121.43054","lat":"31.21316","category":"260","category_name":"其他","address":"长宁区延安西路999号(武夷路昭化路间)"},{"poiid":"B2094757D06FA5FB4498","title":"龙峰大厦","lon":"121.427169","lat":"31.214745","category":"46","category_name":"楼宇","address":"普陀区长寿路137号(近陕西北路)"},{"poiid":"B2094757D06FA4FB469A","title":"江苏路电信大楼","lon":"121.431634","lat":"31.216558","category":"500","category_name":"未知分类","address":"上海江苏路500号"},{"poiid":"B2094654D564A7FB459B","title":"凯阳大厦","lon":"121.43","lat":"31.2151","category":"46","category_name":"楼宇","address":"丰台学城海鹰路1号"},{"poiid":"B2094655D269A4FA499C","title":"润湘之延安西路店","lon":"121.43002","lat":"31.21256","category":"77","category_name":"湖南菜","address":"长宁区延安西路1033号大众金融大厦1-2楼(近武夷路昭化路)"},{"poiid":"B2094750DA69ABFA409F","title":"舟山渔村","lon":"121.429924","lat":"31.214105","category":"75","category_name":"浙江菜","address":"长宁区延安西路1033号(近昭化路)"},{"poiid":"B2094757D168A1FD4298","title":"银统大厦","lon":"121.43","lat":"31.2166","category":"46","category_name":"楼宇","address":"上海市长宁区遵义南路88号"},{"poiid":"B2094654D565A7FA459E","title":"原食街饭店","lon":"121.42984","lat":"31.21379","category":"257","category_name":"中餐厅","address":"长宁区武夷路79号"},{"poiid":"B2094654D565A7FA4693","title":"长发餐饮","lon":"121.43084","lat":"31.21336","category":"68","category_name":"快餐厅","address":"长宁区延安西路955号(武夷路口)"},{"poiid":"B2094757D068A4FF409D","title":"KDS上海总部","lon":"121.43192677","lat":"31.214995961","category":"46","category_name":"楼宇","address":"上海长宁区延安西路889号太平洋企业中心22楼"},{"poiid":"B2094757D068ABF9429B","title":"东北四季饺子王(武夷路店)","lon":"121.427919","lat":"31.213757","category":"82","category_name":"东北菜","address":"长宁区武夷路155号(近延安西路)"},{"poiid":"B2094654D564A6FC469D","title":"生物大厦","lon":"121.432","lat":"31.216","category":"46","category_name":"楼宇","address":"上海市奉贤区南奉公路8515,8519号"},{"poiid":"B2094757D069AAFD419A","title":"润湘之(宣化路店)","lon":"121.42981","lat":"31.21727","category":"77","category_name":"湖南菜","address":"上海长宁区宣化路59号(近江苏路)"},{"poiid":"B2094757D068AAFD4399","title":"老鸿兴苏州汤包馆","lon":"121.43140598","lat":"31.216192956","category":"68","category_name":"快餐厅","address":"长宁区东诸安浜路229号(近江苏路)"},{"poiid":"B2094757D06FAAFE489D","title":"江苏路延安西路天桥","lon":"121.43166351","lat":"31.216644287","category":"500","category_name":"未知分类","address":"上海江苏路延安西路口"},{"poiid":"B2094654D565A7FB4493","title":"武夷路幼儿园","lon":"121.42933","lat":"31.21455","category":"57","category_name":"幼儿园","address":"长宁区利西路"},{"poiid":"B2094757D169A0F5419D","title":"法国教育服务中心-上海中心","lon":"121.42846284","lat":"31.214718661","category":"500","category_name":"未知分类","address":"上海市长宁区武夷路155号世星大厦4楼"},{"poiid":"B2094654D564A7FA4392","title":"禾森商务中心","lon":"121.427","lat":"31.2145","category":"46","category_name":"楼宇","address":"闸北区江场西路38号(近共和新路)"},{"poiid":"B2094753DB6BA6FE449C","title":"上海和平饭店","lon":"121.431007","lat":"31.214103","category":"247","category_name":"餐饮美食","address":"上海市 南京东路20号"},{"poiid":"B2094757D16CA4F4499D","title":"华越楼(延安西路店)","lon":"121.430756026","lat":"31.2121407172","category":"99","category_name":"泰国／越南菜品餐厅","address":"长宁区延安西路1066号瑞峰公寓酒店34楼(近江苏路)"},{"poiid":"B2094654DB64A6FA429B","title":"汉庭快捷(中山公园店)","lon":"121.42794","lat":"31.2141","category":"216","category_name":"经济型连锁酒店","address":"长宁区武夷路155号(近延安西路口)"},{"poiid":"B2094757D068A3F8479C","title":"上海法语培训中心(武夷路校区)","lon":"121.42805","lat":"31.21352","category":"260","category_name":"其他","address":"长宁区武夷路155号2-4楼(近比利时领事馆)"},{"poiid":"B2094654D565A7FB479E","title":"利西小区","lon":"121.42893","lat":"31.215069","category":"47","category_name":"住宅区","address":"安化路175-177"},{"poiid":"B2094750DB65AAF5449D","title":"浦东昌里路夜市","lon":"121.429336","lat":"31.215042","category":"249","category_name":"购物服务","address":"昌里路"},{"poiid":"B2094654DB65A4F4459B","title":"罗柏记快餐","lon":"121.43090303812","lat":"31.217876284587","category":"68","category_name":"快餐厅","address":"长宁区宣化路51号(近江苏路)"},{"poiid":"B2094655D26DA3FC409C","title":"利新小区","lon":"121.42884","lat":"31.21506","category":"47","category_name":"住宅区","address":"安化路175-177"},{"poiid":"B2094654D565A6FE459B","title":"交通银行上海长宁支行","lon":"121.43193","lat":"31.21628","category":"150","category_name":"银行","address":"长宁区江苏路508号(安化路江苏路)"},{"poiid":"B2094654D565A7FA4592","title":"南风楼(武夷路)","lon":"121.43006","lat":"31.21376","category":"257","category_name":"中餐厅","address":"长宁区武夷路71"},{"poiid":"B2094757D16EABF54998","title":"安化二中","lon":"121.42845958","lat":"31.215030133","category":"55","category_name":"中学","address":"上海安化路222号"},{"poiid":"B2094757D068A6FF469C","title":"Bill飚记面铺","lon":"121.42967","lat":"31.21737","category":"68","category_name":"快餐厅","address":"长宁区宣化路75号(近江苏路)"},{"poiid":"B209475DD664A7F44999","title":"三宝粥铺","lon":"121.432411","lat":"31.214637","category":"247","category_name":"餐饮美食","address":"上海市 长宁区延安西路1033号"},{"poiid":"B2094654DB6BA6F84398","title":"哈达瑜伽会所","lon":"121.42962","lat":"31.2136","category":"221","category_name":"健身中心","address":"长宁区武夷路72号(靠近延安西路)"},{"poiid":"B2094757D66FA3F4429B","title":"重庆鸡公堡","lon":"121.429845","lat":"31.213793","category":"247","category_name":"餐饮美食","address":"上海武夷路79号"},{"poiid":"B2094655D265A7FF4892","title":"马普专业楼","lon":"121.42864","lat":"31.21555","category":"46","category_name":"楼宇","address":"安化路84"},{"poiid":"B2094757DA69A1FC4693","title":"泰酷纹身","lon":"121.43095","lat":"31.21206","category":"119","category_name":"商场","address":"长宁区延安西路654号华敏世纪广场(近江苏路)"},{"poiid":"B209475CD76DABFA4698","title":"上海徐汇滨江绿地","lon":"121.43","lat":"31.213096","category":"500","category_name":"未知分类","address":"上海市 上海徐汇龙腾大道"},{"poiid":"B2094757DA69A1F4409F","title":"哈达瑜伽武夷精品会所","lon":"121.42990692031","lat":"31.213565492137","category":"250","category_name":"公园户外","address":"上海市长宁区武夷路72号（近延安西路）"},{"poiid":"B2094757D569A3F9449A","title":"格林豪泰酒店(上海中山公园酒店)","lon":"121.43059245","lat":"31.21571316","category":"216","category_name":"经济型连锁酒店","address":"长宁区安化路40号(近江苏路)"},{"poiid":"B2094655D26CAAFA439C","title":"大西别墅","lon":"121.429","lat":"31.2157","category":"47","category_name":"住宅区","address":"延安西路1453弄2-18号"},{"poiid":"B2094757D06AA2FB439F","title":"96路武夷路延安西路站","lon":"121.430389","lat":"31.213418","category":"38","category_name":"公交车站","address":"上海武夷路延安西路"},{"poiid":"B2094757DB68A5F5449D","title":"弄堂筵 武夷路店","lon":"121.427919","lat":"31.213757","category":"76","category_name":"上海菜","address":"长宁区武夷路155号9号楼(近延安西路)"},{"poiid":"B2094757D06FA1FC479A","title":"小肥羊(延安西路店)","lon":"121.43102","lat":"31.21319","category":"86","category_name":"火锅店","address":"长宁区延安西路1033号大众金融大厦101号(近昭化路)"},{"poiid":"B2094655D26BA2FC419C","title":"武夷路延安西路","lon":"121.42993","lat":"31.21363","category":"38","category_name":"公交车站","address":""},{"poiid":"B209475CD564A7F8439E","title":"上海滩中信泰富店","lon":"121.45602","lat":"31.22851","category":"119","category_name":"商场","address":"\"南京西路1168号中信泰富广场，店铺号221.\r\n\""},{"poiid":"B2094757D068ABFD4998","title":"上海电力医院","lon":"121.432008446","lat":"31.2141976127","category":"162","category_name":"医院","address":"长宁区延安西路937号(近江苏路)"},{"poiid":"B2094757D06FA6FA409F","title":"上海电信实业大楼","lon":"121.431494525","lat":"31.2166566361","category":"46","category_name":"楼宇","address":"上海江苏路500号"},{"poiid":"B2094757D464A0F9489E","title":"原食街","lon":"121.43032240416","lat":"31.2133760189","category":"76","category_name":"上海菜","address":"长宁区武夷路71号(近延安西路)"},{"poiid":"B2094757D06AA0F8449A","title":"比利时领事馆","lon":"121.428513","lat":"31.214012","category":"252","category_name":"楼宇机构","address":"上海长宁区武夷路127号"},{"poiid":"B2094654DB69A5FF439E","title":"莫泰168连锁旅店(延安西路店)","lon":"121.4294","lat":"31.21162","category":"216","category_name":"经济型连锁酒店","address":"上海市长宁区延安西路1119号（近番禺路）"},{"poiid":"B2094654D565A7F84998","title":"醒目仔香港茶餐厅(武夷路)","lon":"121.43056","lat":"31.21327","category":"68","category_name":"快餐厅","address":"长宁区武夷路24号(近延安西路)"},{"poiid":"B2094655D26FA3FB409C","title":"汤司令土灶煨汤馆","lon":"121.43054","lat":"31.21316","category":"260","category_name":"其他","address":"长宁区延安西路999号(武夷路昭化路间)"},{"poiid":"B2094757D06FA5FB4498","title":"龙峰大厦","lon":"121.427169","lat":"31.214745","category":"46","category_name":"楼宇","address":"普陀区长寿路137号(近陕西北路)"},{"poiid":"B2094757D06FA4FB469A","title":"江苏路电信大楼","lon":"121.431634","lat":"31.216558","category":"500","category_name":"未知分类","address":"上海江苏路500号"},{"poiid":"B2094654D564A7FB459B","title":"凯阳大厦","lon":"121.43","lat":"31.2151","category":"46","category_name":"楼宇","address":"丰台学城海鹰路1号"},{"poiid":"B2094655D269A4FA499C","title":"润湘之延安西路店","lon":"121.43002","lat":"31.21256","category":"77","category_name":"湖南菜","address":"长宁区延安西路1033号大众金融大厦1-2楼(近武夷路昭化路)"},{"poiid":"B2094750DA69ABFA409F","title":"舟山渔村","lon":"121.429924","lat":"31.214105","category":"75","category_name":"浙江菜","address":"长宁区延安西路1033号(近昭化路)"},{"poiid":"B2094757D168A1FD4298","title":"银统大厦","lon":"121.43","lat":"31.2166","category":"46","category_name":"楼宇","address":"上海市长宁区遵义南路88号"},{"poiid":"B2094654D565A7FA459E","title":"原食街饭店","lon":"121.42984","lat":"31.21379","category":"257","category_name":"中餐厅","address":"长宁区武夷路79号"},{"poiid":"B2094654D565A7FA4693","title":"长发餐饮","lon":"121.43084","lat":"31.21336","category":"68","category_name":"快餐厅","address":"长宁区延安西路955号(武夷路口)"},{"poiid":"B2094757D068A4FF409D","title":"KDS上海总部","lon":"121.43192677","lat":"31.214995961","category":"46","category_name":"楼宇","address":"上海长宁区延安西路889号太平洋企业中心22楼"},{"poiid":"B2094757D068ABF9429B","title":"东北四季饺子王(武夷路店)","lon":"121.427919","lat":"31.213757","category":"82","category_name":"东北菜","address":"长宁区武夷路155号(近延安西路)"},{"poiid":"B2094654D564A6FC469D","title":"生物大厦","lon":"121.432","lat":"31.216","category":"46","category_name":"楼宇","address":"上海市奉贤区南奉公路8515,8519号"},{"poiid":"B2094757D069AAFD419A","title":"润湘之(宣化路店)","lon":"121.42981","lat":"31.21727","category":"77","category_name":"湖南菜","address":"上海长宁区宣化路59号(近江苏路)"},{"poiid":"B2094757D068AAFD4399","title":"老鸿兴苏州汤包馆","lon":"121.43140598","lat":"31.216192956","category":"68","category_name":"快餐厅","address":"长宁区东诸安浜路229号(近江苏路)"},{"poiid":"B2094757D06FAAFE489D","title":"江苏路延安西路天桥","lon":"121.43166351","lat":"31.216644287","category":"500","category_name":"未知分类","address":"上海江苏路延安西路口"},{"poiid":"B2094654D565A7FB4493","title":"武夷路幼儿园","lon":"121.42933","lat":"31.21455","category":"57","category_name":"幼儿园","address":"长宁区利西路"},{"poiid":"B2094757D169A0F5419D","title":"法国教育服务中心-上海中心","lon":"121.42846284","lat":"31.214718661","category":"500","category_name":"未知分类","address":"上海市长宁区武夷路155号世星大厦4楼"},{"poiid":"B2094654D564A7FA4392","title":"禾森商务中心","lon":"121.427","lat":"31.2145","category":"46","category_name":"楼宇","address":"闸北区江场西路38号(近共和新路)"},{"poiid":"B2094753DB6BA6FE449C","title":"上海和平饭店","lon":"121.431007","lat":"31.214103","category":"247","category_name":"餐饮美食","address":"上海市 南京东路20号"},{"poiid":"B2094757D16CA4F4499D","title":"华越楼(延安西路店)","lon":"121.430756026","lat":"31.2121407172","category":"99","category_name":"泰国／越南菜品餐厅","address":"长宁区延安西路1066号瑞峰公寓酒店34楼(近江苏路)"},{"poiid":"B2094654DB64A6FA429B","title":"汉庭快捷(中山公园店)","lon":"121.42794","lat":"31.2141","category":"216","category_name":"经济型连锁酒店","address":"长宁区武夷路155号(近延安西路口)"},{"poiid":"B2094757D068A3F8479C","title":"上海法语培训中心(武夷路校区)","lon":"121.42805","lat":"31.21352","category":"260","category_name":"其他","address":"长宁区武夷路155号2-4楼(近比利时领事馆)"},{"poiid":"B2094654D565A7FB479E","title":"利西小区","lon":"121.42893","lat":"31.215069","category":"47","category_name":"住宅区","address":"安化路175-177"},{"poiid":"B2094750DB65AAF5449D","title":"浦东昌里路夜市","lon":"121.429336","lat":"31.215042","category":"249","category_name":"购物服务","address":"昌里路"},{"poiid":"B2094654DB65A4F4459B","title":"罗柏记快餐","lon":"121.43090303812","lat":"31.217876284587","category":"68","category_name":"快餐厅","address":"长宁区宣化路51号(近江苏路)"},{"poiid":"B2094655D26DA3FC409C","title":"利新小区","lon":"121.42884","lat":"31.21506","category":"47","category_name":"住宅区","address":"安化路175-177"},{"poiid":"B2094654D565A6FE459B","title":"交通银行上海长宁支行","lon":"121.43193","lat":"31.21628","category":"150","category_name":"银行","address":"长宁区江苏路508号(安化路江苏路)"},{"poiid":"B2094654D565A7FA4592","title":"南风楼(武夷路)","lon":"121.43006","lat":"31.21376","category":"257","category_name":"中餐厅","address":"长宁区武夷路71"},{"poiid":"B2094757D16EABF54998","title":"安化二中","lon":"121.42845958","lat":"31.215030133","category":"55","category_name":"中学","address":"上海安化路222号"},{"poiid":"B2094757D068A6FF469C","title":"Bill飚记面铺","lon":"121.42967","lat":"31.21737","category":"68","category_name":"快餐厅","address":"长宁区宣化路75号(近江苏路)"},{"poiid":"B209475DD664A7F44999","title":"三宝粥铺","lon":"121.432411","lat":"31.214637","category":"247","category_name":"餐饮美食","address":"上海市 长宁区延安西路1033号"},{"poiid":"B2094654DB6BA6F84398","title":"哈达瑜伽会所","lon":"121.42962","lat":"31.2136","category":"221","category_name":"健身中心","address":"长宁区武夷路72号(靠近延安西路)"},{"poiid":"B2094757D66FA3F4429B","title":"重庆鸡公堡","lon":"121.429845","lat":"31.213793","category":"247","category_name":"餐饮美食","address":"上海武夷路79号"},{"poiid":"B2094655D265A7FF4892","title":"马普专业楼","lon":"121.42864","lat":"31.21555","category":"46","category_name":"楼宇","address":"安化路84"},{"poiid":"B2094757DA69A1FC4693","title":"泰酷纹身","lon":"121.43095","lat":"31.21206","category":"119","category_name":"商场","address":"长宁区延安西路654号华敏世纪广场(近江苏路)"},{"poiid":"B209475CD76DABFA4698","title":"上海徐汇滨江绿地","lon":"121.43","lat":"31.213096","category":"500","category_name":"未知分类","address":"上海市 上海徐汇龙腾大道"},{"poiid":"B2094757DA69A1F4409F","title":"哈达瑜伽武夷精品会所","lon":"121.42990692031","lat":"31.213565492137","category":"250","category_name":"公园户外","address":"上海市长宁区武夷路72号（近延安西路）"},{"poiid":"B2094757D569A3F9449A","title":"格林豪泰酒店(上海中山公园酒店)","lon":"121.43059245","lat":"31.21571316","category":"216","category_name":"经济型连锁酒店","address":"长宁区安化路40号(近江苏路)"},{"poiid":"B2094655D26CAAFA439C","title":"大西别墅","lon":"121.429","lat":"31.2157","category":"47","category_name":"住宅区","address":"延安西路1453弄2-18号"},{"poiid":"B2094757D06AA2FB439F","title":"96路武夷路延安西路站","lon":"121.430389","lat":"31.213418","category":"38","category_name":"公交车站","address":"上海武夷路延安西路"}]