[{"poiid":"B2094654DA6CA0FD499E","title":"上海展览中心","lon":"121.45289","lat":"31.22459","category":"183","category_name":"展览馆","address":"静安区延安中路1000号(近铜仁路)"},{"poiid":"B2094757D06FA3FF409A","title":"嘉里中心(Kerry Center)","lon":"121.45018422","lat":"31.224665261","category":"46","category_name":"楼宇","address":"上海静安区南京西路1515号(近铜仁路)"},{"poiid":"B2094757D06FA0F44593","title":"柒寿司(富民路店)","lon":"121.45014813109981","lat":"31.221289026267844","category":"95","category_name":"日本料理","address":"上海静安寺富民路51号"},{"poiid":"B2094753D76FAAFA449C","title":"上海滩国泰旗舰店","lon":"121.466011","lat":"31.216125","category":"249","category_name":"购物服务","address":"淮海中路868号"},{"poiid":"B209475CD564A7F84292","title":"上海滩新天地店","lon":"121.47463","lat":"31.22164","category":"119","category_name":"商场","address":"\"太仓路181弄新天地北里15号\r\n\""},{"poiid":"B209475CD564A7F8439E","title":"上海滩中信泰富店","lon":"121.45602","lat":"31.22851","category":"119","category_name":"商场","address":"\"南京西路1168号中信泰富广场，店铺号221.\r\n\""},{"poiid":"B2094757D068A7FA4698","title":"Dr. Beer","lon":"121.450329386","lat":"31.2207334453","category":"500","category_name":"未知分类","address":"上海市富民路80号(巨鹿路)"},{"poiid":"B2094757D569A3F9469A","title":"香格里拉大酒店(上海静安嘉里中心店)","lon":"121.45073378","lat":"31.22310384","category":"251","category_name":"出行住宿","address":"中国上海市静安区铜仁路"},{"poiid":"B2094655D264A1FF479D","title":"上海静安嘉里商务中心(北区)","lon":"121.44928","lat":"31.22384","category":"46","category_name":"楼宇","address":""},{"poiid":"B2094757D06AAAF54692","title":"上海展览中心中央大厅","lon":"121.45311058","lat":"31.224167312","category":"500","category_name":"未知分类","address":"上海市静安区延安中路1000号"},{"poiid":"B2094654DA6CA0FD499F","title":"上海展览中心(3号门)","lon":"121.45308","lat":"31.22342","category":"183","category_name":"展览馆","address":"延安中路1000号"},{"poiid":"B2094757D06FAAFD459F","title":"Pho Asia","lon":"121.450447","lat":"31.220718","category":"99","category_name":"泰国／越南菜品餐厅","address":"静安区富民路85号巨富大厦(近巨鹿路)"},{"poiid":"B2094757D06FA0FB4098","title":"云餐厅(南京西路店)","lon":"121.45095","lat":"31.22482","category":"260","category_name":"其他","address":"静安区南京西路1399号(铜仁路口)"},{"poiid":"B2094655D26DABF4499E","title":"上海展览中心(5号门)","lon":"121.45153","lat":"31.22291","category":"183","category_name":"展览馆","address":""},{"poiid":"B2094757D068ABF4459C","title":"香港肥杜火锅","lon":"121.45016495","lat":"31.220844179","category":"86","category_name":"火锅店","address":"静安区富民路85号巨富大厦1楼(近巨鹿路)"},{"poiid":"B2094757D068A4FB419A","title":"富民路巨鹿路","lon":"121.45020024","lat":"31.221579561","category":"260","category_name":"其他","address":"上海静安区富民路巨鹿路口"},{"poiid":"B209475DD66AA7FA4598","title":"PIER 39","lon":"121.450569","lat":"31.224454","category":"253","category_name":"校园生活","address":"上海市 靜安嘉里城1F"},{"poiid":"B2094757D069A6FB4599","title":"The PULI Hotel and Spa","lon":"121.45246887","lat":"31.220787048","category":"500","category_name":"未知分类","address":"上海常德路1号"},{"poiid":"B2094757D06FA5F9459C","title":"JA Cafe (静安公园内)","lon":"121.4465","lat":"31.22271","category":"260","category_name":"其他","address":"静安区南京西路1649号静安公园内(近静安公园)"},{"poiid":"B2094757D465A6F44093","title":"董大师金牌稻香蛙 延安中路店","lon":"121.452610054","lat":"31.222697793","category":"71","category_name":"四川菜","address":"静安区延安中路917号(近铜仁路)"},{"poiid":"B209475DD06EA7FC4498","title":"KABB","lon":"121.449417","lat":"31.223478","category":"500","category_name":"未知分类","address":"上海市 靜安嘉里中心"},{"poiid":"B209475DD66DA4FA449D","title":"极食","lon":"121.452423","lat":"31.223312","category":"247","category_name":"餐饮美食","address":"上海市 静安区芮欧百货5楼"},{"poiid":"B2094654DA6CA0FD4999","title":"上海展览中心(4号门)","lon":"121.45215","lat":"31.22304","category":"183","category_name":"展览馆","address":"延安中路1000"},{"poiid":"B2094757D16DA1F5419A","title":"延安高架","lon":"121.45033958","lat":"31.222230274","category":"500","category_name":"未知分类","address":"上海市静安区"},{"poiid":"B2094757D069A2FF4599","title":"华东模范中学","lon":"121.4503","lat":"31.22113","category":"55","category_name":"中学","address":"静安区富民路43号(富民路延安中路)"},{"poiid":"B209475CDB6FA1FC499E","title":"PINTXOS","lon":"121.449722","lat":"31.223426","category":"500","category_name":"未知分类","address":"上海市 静安嘉里中心SB1-10"},{"poiid":"B2094654D564ABFB419A","title":"上海市逸夫职业技术学校","lon":"121.45275","lat":"31.22134","category":"54","category_name":"职业技术学校","address":"静安区巨鹿路700号"},{"poiid":"B2094757D16FA7FA409E","title":"嘉里中心二期(Kerry Center Phase II)","lon":"121.453365586","lat":"31.2214142586","category":"46","category_name":"楼宇","address":"上海静安区常德路安义路"},{"poiid":"B2094753DA68A2F54393","title":"七條","lon":"121.451377","lat":"31.221981","category":"500","category_name":"未知分类","address":"上海市 芮欧百货B2"},{"poiid":"B209475DD264A2FB4192","title":"bunlife","lon":"121.449737","lat":"31.223474","category":"500","category_name":"未知分类","address":"上海市 嘉里中心"},{"poiid":"B2094654DA6CA0FD499C","title":"上海展览中心(2号门)","lon":"121.45379","lat":"31.22367","category":"183","category_name":"展览馆","address":""},{"poiid":"B2094655D26DA3FE409E","title":"上海展览中心商务楼","lon":"121.45114","lat":"31.22504","category":"46","category_name":"楼宇","address":""},{"poiid":"B209475CDA69A6FB4598","title":"千两","lon":"121.452461","lat":"31.223594","category":"247","category_name":"餐饮美食","address":"上海市 嘉里中心"},{"poiid":"B2094750D268A5FA429B","title":"俏江南 881会所店 South Beauty","lon":"121.4534688397","lat":"31.223013646952","category":"247","category_name":"餐饮美食","address":"延安中路881号展览馆对面近铜仁路"},{"poiid":"B209475DDA68A4F8449C","title":"新元素","lon":"121.449729","lat":"31.22393","category":"247","category_name":"餐饮美食","address":"上海市 静安嘉里中心"},{"poiid":"B209475CD064AAFF4698","title":"星巴克 嘉里中心店 Starbucks Cafe","lon":"121.4497956259","lat":"31.224756223728","category":"65","category_name":"咖啡厅","address":"南京西路1515号嘉里中心大堂近铜仁路"},{"poiid":"B2094757D069A3FD409D","title":"四明村","lon":"121.4532","lat":"31.222324","category":"47","category_name":"住宅区","address":"静安区延安中路913弄(近铜仁路)"},{"poiid":"B209475DD364A6FA439F","title":"天泰餐厅嘉里中心店","lon":"121.450081","lat":"31.224766","category":"247","category_name":"餐饮美食","address":"上海市静安区南京西路1515号静安嘉里中心4层N4-11"},{"poiid":"B209475CD065A1FE469E","title":"GODIVA 静安嘉里店","lon":"121.45025","lat":"31.22437","category":"67","category_name":"甜品店","address":"南京西路1515号静安嘉里中心SB1-09号单元"},{"poiid":"B209475DD76FA6FD459E","title":"逸谷会","lon":"121.452491","lat":"31.223581","category":"247","category_name":"餐饮美食","address":"上海市 南京西路1515号嘉里中心北区3-15号"},{"poiid":"B2094757D66CABF9439F","title":"中雅大楼","lon":"121.45","lat":"31.2249","category":"46","category_name":"楼宇","address":"铁西区铁西兴华街与南十中路交处(兴华南街48号)"},{"poiid":"B2094655D36CA3FA409E","title":"Judy's","lon":"121.45074","lat":"31.22491","category":"260","category_name":"其他","address":"静安区铜仁路142-146号(近南京西路)"},{"poiid":"B2094750D56FABF5459D","title":"C-GOWEL(久光百货店)","lon":"121.452","lat":"31.2226","category":"113","category_name":"冷饮店","address":"静安区南京西路1618号久光百货B1楼"},{"poiid":"B2094757D16DA0FE469C","title":"中国国际航空(南京西路分部)","lon":"121.45044","lat":"31.22454","category":"21","category_name":"飞机场","address":"静安区南京西路1515号嘉里中心307(近铜仁路)"},{"poiid":"B209475CDB65AAFC4392","title":"阿吾罗","lon":"121.452362","lat":"31.221805","category":"249","category_name":"购物服务","address":"上海市 南京西路1601号越洋广场芮欧百货5楼(常德路)"},{"poiid":"B2094655D268A3FF4893","title":"鼎固大厦","lon":"121.452","lat":"31.2246","category":"46","category_name":"楼宇","address":"越秀区环市东路362-366号"},{"poiid":"B2094753D764A4FF469A","title":"1788美食广场","lon":"121.449111","lat":"31.222698","category":"500","category_name":"未知分类","address":"上海市 南京西路1788号B1"},{"poiid":"B209475DD16AA5FA4198","title":"1515牛排馆","lon":"121.449867","lat":"31.223461","category":"247","category_name":"餐饮美食","address":"上海市 延安中路1218号香格里拉大酒店4楼"},{"poiid":"B2094757D065A7FC4299","title":"南京西路铜仁路","lon":"121.45042158","lat":"31.224954327","category":"260","category_name":"其他","address":"上海南京西路铜仁路"},{"poiid":"B2094757D069A3FC4192","title":"中国银行(静安支行)","lon":"121.44974","lat":"31.22467","category":"150","category_name":"银行","address":"静安区南京西路1515号嘉里中心内(近铜仁路)"},{"poiid":"B2094654DA6CA0FD499E","title":"上海展览中心","lon":"121.45289","lat":"31.22459","category":"183","category_name":"展览馆","address":"静安区延安中路1000号(近铜仁路)"},{"poiid":"B2094757D06FA3FF409A","title":"嘉里中心(Kerry Center)","lon":"121.45018422","lat":"31.224665261","category":"46","category_name":"楼宇","address":"上海静安区南京西路1515号(近铜仁路)"},{"poiid":"B2094757D06FA0F44593","title":"柒寿司(富民路店)","lon":"121.45014813109981","lat":"31.221289026267844","category":"95","category_name":"日本料理","address":"上海静安寺富民路51号"},{"poiid":"B2094753D76FAAFA449C","title":"上海滩国泰旗舰店","lon":"121.466011","lat":"31.216125","category":"249","category_name":"购物服务","address":"淮海中路868号"},{"poiid":"B209475CD564A7F84292","title":"上海滩新天地店","lon":"121.47463","lat":"31.22164","category":"119","category_name":"商场","address":"\"太仓路181弄新天地北里15号\r\n\""},{"poiid":"B209475CD564A7F8439E","title":"上海滩中信泰富店","lon":"121.45602","lat":"31.22851","category":"119","category_name":"商场","address":"\"南京西路1168号中信泰富广场，店铺号221.\r\n\""},{"poiid":"B2094757D068A7FA4698","title":"Dr. Beer","lon":"121.450329386","lat":"31.2207334453","category":"500","category_name":"未知分类","address":"上海市富民路80号(巨鹿路)"},{"poiid":"B2094757D569A3F9469A","title":"香格里拉大酒店(上海静安嘉里中心店)","lon":"121.45073378","lat":"31.22310384","category":"251","category_name":"出行住宿","address":"中国上海市静安区铜仁路"},{"poiid":"B2094655D264A1FF479D","title":"上海静安嘉里商务中心(北区)","lon":"121.44928","lat":"31.22384","category":"46","category_name":"楼宇","address":""},{"poiid":"B2094757D06AAAF54692","title":"上海展览中心中央大厅","lon":"121.45311058","lat":"31.224167312","category":"500","category_name":"未知分类","address":"上海市静安区延安中路1000号"},{"poiid":"B2094654DA6CA0FD499F","title":"上海展览中心(3号门)","lon":"121.45308","lat":"31.22342","category":"183","category_name":"展览馆","address":"延安中路1000号"},{"poiid":"B2094757D06FAAFD459F","title":"Pho Asia","lon":"121.450447","lat":"31.220718","category":"99","category_name":"泰国／越南菜品餐厅","address":"静安区富民路85号巨富大厦(近巨鹿路)"},{"poiid":"B2094757D06FA0FB4098","title":"云餐厅(南京西路店)","lon":"121.45095","lat":"31.22482","category":"260","category_name":"其他","address":"静安区南京西路1399号(铜仁路口)"},{"poiid":"B2094655D26DABF4499E","title":"上海展览中心(5号门)","lon":"121.45153","lat":"31.22291","category":"183","category_name":"展览馆","address":""},{"poiid":"B2094757D068ABF4459C","title":"香港肥杜火锅","lon":"121.45016495","lat":"31.220844179","category":"86","category_name":"火锅店","address":"静安区富民路85号巨富大厦1楼(近巨鹿路)"},{"poiid":"B2094757D068A4FB419A","title":"富民路巨鹿路","lon":"121.45020024","lat":"31.221579561","category":"260","category_name":"其他","address":"上海静安区富民路巨鹿路口"},{"poiid":"B209475DD66AA7FA4598","title":"PIER 39","lon":"121.450569","lat":"31.224454","category":"253","category_name":"校园生活","address":"上海市 靜安嘉里城1F"},{"poiid":"B2094757D069A6FB4599","title":"The PULI Hotel and Spa","lon":"121.45246887","lat":"31.220787048","category":"500","category_name":"未知分类","address":"上海常德路1号"},{"poiid":"B2094757D06FA5F9459C","title":"JA Cafe (静安公园内)","lon":"121.4465","lat":"31.22271","category":"260","category_name":"其他","address":"静安区南京西路1649号静安公园内(近静安公园)"},{"poiid":"B2094757D465A6F44093","title":"董大师金牌稻香蛙 延安中路店","lon":"121.452610054","lat":"31.222697793","category":"71","category_name":"四川菜","address":"静安区延安中路917号(近铜仁路)"},{"poiid":"B209475DD06EA7FC4498","title":"KABB","lon":"121.449417","lat":"31.223478","category":"500","category_name":"未知分类","address":"上海市 靜安嘉里中心"},{"poiid":"B209475DD66DA4FA449D","title":"极食","lon":"121.452423","lat":"31.223312","category":"247","category_name":"餐饮美食","address":"上海市 静安区芮欧百货5楼"},{"poiid":"B2094654DA6CA0FD4999","title":"上海展览中心(4号门)","lon":"121.45215","lat":"31.22304","category":"183","category_name":"展览馆","address":"延安中路1000"},{"poiid":"B2094757D16DA1F5419A","title":"延安高架","lon":"121.45033958","lat":"31.222230274","category":"500","category_name":"未知分类","address":"上海市静安区"},{"poiid":"B2094757D069A2FF4599","title":"华东模范中学","lon":"121.4503","lat":"31.22113","category":"55","category_name":"中学","address":"静安区富民路43号(富民路延安中路)"},{"poiid":"B209475CDB6FA1FC499E","title":"PINTXOS","lon":"121.449722","lat":"31.223426","category":"500","category_name":"未知分类","address":"上海市 静安嘉里中心SB1-10"},{"poiid":"B2094654D564ABFB419A","title":"上海市逸夫职业技术学校","lon":"121.45275","lat":"31.22134","category":"54","category_name":"职业技术学校","address":"静安区巨鹿路700号"},{"poiid":"B2094757D16FA7FA409E","title":"嘉里中心二期(Kerry Center Phase II)","lon":"121.453365586","lat":"31.2214142586","category":"46","category_name":"楼宇","address":"上海静安区常德路安义路"},{"poiid":"B2094753DA68A2F54393","title":"七條","lon":"121.451377","lat":"31.221981","category":"500","category_name":"未知分类","address":"上海市 芮欧百货B2"},{"poiid":"B209475DD264A2FB4192","title":"bunlife","lon":"121.449737","lat":"31.223474","category":"500","category_name":"未知分类","address":"上海市 嘉里中心"},{"poiid":"B2094654DA6CA0FD499C","title":"上海展览中心(2号门)","lon":"121.45379","lat":"31.22367","category":"183","category_name":"展览馆","address":""},{"poiid":"B2094655D26DA3FE409E","title":"上海展览中心商务楼","lon":"121.45114","lat":"31.22504","category":"46","category_name":"楼宇","address":""},{"poiid":"B209475CDA69A6FB4598","title":"千两","lon":"121.452461","lat":"31.223594","category":"247","category_name":"餐饮美食","address":"上海市 嘉里中心"},{"poiid":"B2094750D268A5FA429B","title":"俏江南 881会所店 South Beauty","lon":"121.4534688397","lat":"31.223013646952","category":"247","category_name":"餐饮美食","address":"延安中路881号展览馆对面近铜仁路"},{"poiid":"B209475DDA68A4F8449C","title":"新元素","lon":"121.449729","lat":"31.22393","category":"247","category_name":"餐饮美食","address":"上海市 静安嘉里中心"},{"poiid":"B209475CD064AAFF4698","title":"星巴克 嘉里中心店 Starbucks Cafe","lon":"121.4497956259","lat":"31.224756223728","category":"65","category_name":"咖啡厅","address":"南京西路1515号嘉里中心大堂近铜仁路"},{"poiid":"B2094757D069A3FD409D","title":"四明村","lon":"121.4532","lat":"31.222324","category":"47","category_name":"住宅区","address":"静安区延安中路913弄(近铜仁路)"},{"poiid":"B209475DD364A6FA439F","title":"天泰餐厅嘉里中心店","lon":"121.450081","lat":"31.224766","category":"247","category_name":"餐饮美食","address":"上海市静安区南京西路1515号静安嘉里中心4层N4-11"},{"poiid":"B209475CD065A1FE469E","title":"GODIVA 静安嘉里店","lon":"121.45025","lat":"31.22437","category":"67","category_name":"甜品店","address":"南京西路1515号静安嘉里中心SB1-09号单元"},{"poiid":"B209475DD76FA6FD459E","title":"逸谷会","lon":"121.452491","lat":"31.223581","category":"247","category_name":"餐饮美食","address":"上海市 南京西路1515号嘉里中心北区3-15号"},{"poiid":"B2094757D66CABF9439F","title":"中雅大楼","lon":"121.45","lat":"31.2249","category":"46","category_name":"楼宇","address":"铁西区铁西兴华街与南十中路交处(兴华南街48号)"},{"poiid":"B2094655D36CA3FA409E","title":"Judy's","lon":"121.45074","lat":"31.22491","category":"260","category_name":"其他","address":"静安区铜仁路142-146号(近南京西路)"},{"poiid":"B2094750D56FABF5459D","title":"C-GOWEL(久光百货店)","lon":"121.452","lat":"31.2226","category":"113","category_name":"冷饮店","address":"静安区南京西路1618号久光百货B1楼"},{"poiid":"B2094757D16DA0FE469C","title":"中国国际航空(南京西路分部)","lon":"121.45044","lat":"31.22454","category":"21","category_name":"飞机场","address":"静安区南京西路1515号嘉里中心307(近铜仁路)"},{"poiid":"B209475CDB65AAFC4392","title":"阿吾罗","lon":"121.452362","lat":"31.221805","category":"249","category_name":"购物服务","address":"上海市 南京西路1601号越洋广场芮欧百货5楼(常德路)"},{"poiid":"B2094655D268A3FF4893","title":"鼎固大厦","lon":"121.452","lat":"31.2246","category":"46","category_name":"楼宇","address":"越秀区环市东路362-366号"},{"poiid":"B2094753D764A4FF469A","title":"1788美食广场","lon":"121.449111","lat":"31.222698","category":"500","category_name":"未知分类","address":"上海市 南京西路1788号B1"},{"poiid":"B209475DD16AA5FA4198","title":"1515牛排馆","lon":"121.449867","lat":"31.223461","category":"247","category_name":"餐饮美食","address":"上海市 延安中路1218号香格里拉大酒店4楼"},{"poiid":"B2094757D065A7FC4299","title":"南京西路铜仁路","lon":"121.45042158","lat":"31.224954327","category":"260","category_name":"其他","address":"上海南京西路铜仁路"},{"poiid":"B2094757D069A3FC4192","title":"中国银行(静安支行)","lon":"121.44974","lat":"31.22467","category":"150","category_name":"银行","address":"静安区南京西路1515号嘉里中心内(近铜仁路)"},{"poiid":"B2094654DA6CA0FD499E","title":"上海展览中心","lon":"121.45289","lat":"31.22459","category":"183","category_name":"展览馆","address":"静安区延安中路1000号(近铜仁路)"},{"poiid":"B2094757D06FA3FF409A","title":"嘉里中心(Kerry Center)","lon":"121.45018422","lat":"31.224665261","category":"46","category_name":"楼宇","address":"上海静安区南京西路1515号(近铜仁路)"},{"poiid":"B2094757D06FA0F44593","title":"柒寿司(富民路店)","lon":"121.45014813109981","lat":"31.221289026267844","category":"95","category_name":"日本料理","address":"上海静安寺富民路51号"},{"poiid":"B2094753D76FAAFA449C","title":"上海滩国泰旗舰店","lon":"121.466011","lat":"31.216125","category":"249","category_name":"购物服务","address":"淮海中路868号"},{"poiid":"B209475CD564A7F84292","title":"上海滩新天地店","lon":"121.47463","lat":"31.22164","category":"119","category_name":"商场","address":"\"太仓路181弄新天地北里15号\r\n\""},{"poiid":"B209475CD564A7F8439E","title":"上海滩中信泰富店","lon":"121.45602","lat":"31.22851","category":"119","category_name":"商场","address":"\"南京西路1168号中信泰富广场，店铺号221.\r\n\""},{"poiid":"B2094757D068A7FA4698","title":"Dr. Beer","lon":"121.450329386","lat":"31.2207334453","category":"500","category_name":"未知分类","address":"上海市富民路80号(巨鹿路)"},{"poiid":"B2094757D569A3F9469A","title":"香格里拉大酒店(上海静安嘉里中心店)","lon":"121.45073378","lat":"31.22310384","category":"251","category_name":"出行住宿","address":"中国上海市静安区铜仁路"},{"poiid":"B2094655D264A1FF479D","title":"上海静安嘉里商务中心(北区)","lon":"121.44928","lat":"31.22384","category":"46","category_name":"楼宇","address":""},{"poiid":"B2094757D06AAAF54692","title":"上海展览中心中央大厅","lon":"121.45311058","lat":"31.224167312","category":"500","category_name":"未知分类","address":"上海市静安区延安中路1000号"},{"poiid":"B2094654DA6CA0FD499F","title":"上海展览中心(3号门)","lon":"121.45308","lat":"31.22342","category":"183","category_name":"展览馆","address":"延安中路1000号"},{"poiid":"B2094757D06FAAFD459F","title":"Pho Asia","lon":"121.450447","lat":"31.220718","category":"99","category_name":"泰国／越南菜品餐厅","address":"静安区富民路85号巨富大厦(近巨鹿路)"},{"poiid":"B2094757D06FA0FB4098","title":"云餐厅(南京西路店)","lon":"121.45095","lat":"31.22482","category":"260","category_name":"其他","address":"静安区南京西路1399号(铜仁路口)"},{"poiid":"B2094655D26DABF4499E","title":"上海展览中心(5号门)","lon":"121.45153","lat":"31.22291","category":"183","category_name":"展览馆","address":""},{"poiid":"B2094757D068ABF4459C","title":"香港肥杜火锅","lon":"121.45016495","lat":"31.220844179","category":"86","category_name":"火锅店","address":"静安区富民路85号巨富大厦1楼(近巨鹿路)"},{"poiid":"B2094757D068A4FB419A","title":"富民路巨鹿路","lon":"121.45020024","lat":"31.221579561","category":"260","category_name":"其他","address":"上海静安区富民路巨鹿路口"},{"poiid":"B209475DD66AA7FA4598","title":"PIER 39","lon":"121.450569","lat":"31.224454","category":"253","category_name":"校园生活","address":"上海市 靜安嘉里城1F"},{"poiid":"B2094757D069A6FB4599","title":"The PULI Hotel and Spa","lon":"121.45246887","lat":"31.220787048","category":"500","category_name":"未知分类","address":"上海常德路1号"},{"poiid":"B2094757D06FA5F9459C","title":"JA Cafe (静安公园内)","lon":"121.4465","lat":"31.22271","category":"260","category_name":"其他","address":"静安区南京西路1649号静安公园内(近静安公园)"},{"poiid":"B2094757D465A6F44093","title":"董大师金牌稻香蛙 延安中路店","lon":"121.452610054","lat":"31.222697793","category":"71","category_name":"四川菜","address":"静安区延安中路917号(近铜仁路)"},{"poiid":"B209475DD06EA7FC4498","title":"KABB","lon":"121.449417","lat":"31.223478","category":"500","category_name":"未知分类","address":"上海市 靜安嘉里中心"},{"poiid":"B209475DD66DA4FA449D","title":"极食","lon":"121.452423","lat":"31.223312","category":"247","category_name":"餐饮美食","address":"上海市 静安区芮欧百货5楼"},{"poiid":"B2094654DA6CA0FD4999","title":"上海展览中心(4号门)","lon":"121.45215","lat":"31.22304","category":"183","category_name":"展览馆","address":"延安中路1000"},{"poiid":"B2094757D16DA1F5419A","title":"延安高架","lon":"121.45033958","lat":"31.222230274","category":"500","category_name":"未知分类","address":"上海市静安区"},{"poiid":"B2094757D069A2FF4599","title":"华东模范中学","lon":"121.4503","lat":"31.22113","category":"55","category_name":"中学","address":"静安区富民路43号(富民路延安中路)"},{"poiid":"B209475CDB6FA1FC499E","title":"PINTXOS","lon":"121.449722","lat":"31.223426","category":"500","category_name":"未知分类","address":"上海市 静安嘉里中心SB1-10"},{"poiid":"B2094654D564ABFB419A","title":"上海市逸夫职业技术学校","lon":"121.45275","lat":"31.22134","category":"54","category_name":"职业技术学校","address":"静安区巨鹿路700号"},{"poiid":"B2094757D16FA7FA409E","title":"嘉里中心二期(Kerry Center Phase II)","lon":"121.453365586","lat":"31.2214142586","category":"46","category_name":"楼宇","address":"上海静安区常德路安义路"},{"poiid":"B2094753DA68A2F54393","title":"七條","lon":"121.451377","lat":"31.221981","category":"500","category_name":"未知分类","address":"上海市 芮欧百货B2"},{"poiid":"B209475DD264A2FB4192","title":"bunlife","lon":"121.449737","lat":"31.223474","category":"500","category_name":"未知分类","address":"上海市 嘉里中心"},{"poiid":"B2094654DA6CA0FD499C","title":"上海展览中心(2号门)","lon":"121.45379","lat":"31.22367","category":"183","category_name":"展览馆","address":""},{"poiid":"B2094655D26DA3FE409E","title":"上海展览中心商务楼","lon":"121.45114","lat":"31.22504","category":"46","category_name":"楼宇","address":""},{"poiid":"B209475CDA69A6FB4598","title":"千两","lon":"121.452461","lat":"31.223594","category":"247","category_name":"餐饮美食","address":"上海市 嘉里中心"},{"poiid":"B2094750D268A5FA429B","title":"俏江南 881会所店 South Beauty","lon":"121.4534688397","lat":"31.223013646952","category":"247","category_name":"餐饮美食","address":"延安中路881号展览馆对面近铜仁路"},{"poiid":"B209475DDA68A4F8449C","title":"新元素","lon":"121.449729","lat":"31.22393","category":"247","category_name":"餐饮美食","address":"上海市 静安嘉里中心"},{"poiid":"B209475CD064AAFF4698","title":"星巴克 嘉里中心店 Starbucks Cafe","lon":"121.4497956259","lat":"31.224756223728","category":"65","category_name":"咖啡厅","address":"南京西路1515号嘉里中心大堂近铜仁路"},{"poiid":"B2094757D069A3FD409D","title":"四明村","lon":"121.4532","lat":"31.222324","category":"47","category_name":"住宅区","address":"静安区延安中路913弄(近铜仁路)"},{"poiid":"B209475DD364A6FA439F","title":"天泰餐厅嘉里中心店","lon":"121.450081","lat":"31.224766","category":"247","category_name":"餐饮美食","address":"上海市静安区南京西路1515号静安嘉里中心4层N4-11"},{"poiid":"B209475CD065A1FE469E","title":"GODIVA 静安嘉里店","lon":"121.45025","lat":"31.22437","category":"67","category_name":"甜品店","address":"南京西路1515号静安嘉里中心SB1-09号单元"},{"poiid":"B209475DD76FA6FD459E","title":"逸谷会","lon":"121.452491","lat":"31.223581","category":"247","category_name":"餐饮美食","address":"上海市 南京西路1515号嘉里中心北区3-15号"},{"poiid":"B2094757D66CABF9439F","title":"中雅大楼","lon":"121.45","lat":"31.2249","category":"46","category_name":"楼宇","address":"铁西区铁西兴华街与南十中路交处(兴华南街48号)"},{"poiid":"B2094655D36CA3FA409E","title":"Judy's","lon":"121.45074","lat":"31.22491","category":"260","category_name":"其他","address":"静安区铜仁路142-146号(近南京西路)"},{"poiid":"B2094750D56FABF5459D","title":"C-GOWEL(久光百货店)","lon":"121.452","lat":"31.2226","category":"113","category_name":"冷饮店","address":"静安区南京西路1618号久光百货B1楼"},{"poiid":"B2094757D16DA0FE469C","title":"中国国际航空(南京西路分部)","lon":"121.45044","lat":"31.22454","category":"21","category_name":"飞机场","address":"静安区南京西路1515号嘉里中心307(近铜仁路)"},{"poiid":"B209475CDB65AAFC4392","title":"阿吾罗","lon":"121.452362","lat":"31.221805","category":"249","category_name":"购物服务","address":"上海市 南京西路1601号越洋广场芮欧百货5楼(常德路)"},{"poiid":"B2094655D268A3FF4893","title":"鼎固大厦","lon":"121.452","lat":"31.2246","category":"46","category_name":"楼宇","address":"越秀区环市东路362-366号"},{"poiid":"B2094753D764A4FF469A","title":"1788美食广场","lon":"121.449111","lat":"31.222698","category":"500","category_name":"未知分类","address":"上海市 南京西路1788号B1"},{"poiid":"B209475DD16AA5FA4198","title":"1515牛排馆","lon":"121.449867","lat":"31.223461","category":"247","category_name":"餐饮美食","address":"上海市 延安中路1218号香格里拉大酒店4楼"},{"poiid":"B2094757D065A7FC4299","title":"南京西路铜仁路","lon":"121.45042158","lat":"31.224954327","category":"260","category_name":"其他","address":"上海南京西路铜仁路"},{"poiid":"B2094757D069A3FC4192","title":"中国银行(静安支行)","lon":"121.44974","lat":"31.22467","category":"150","category_name":"银行","address":"静安区南京西路1515号嘉里中心内(近铜仁路)"},{"poiid":"B2094654DA6CA0FD499E","title":"上海展览中心","lon":"121.45289","lat":"31.22459","category":"183","category_name":"展览馆","address":"静安区延安中路1000号(近铜仁路)"},{"poiid":"B2094757D06FA3FF409A","title":"嘉里中心(Kerry Center)","lon":"121.45018422","lat":"31.224665261","category":"46","category_name":"楼宇","address":"上海静安区南京西路1515号(近铜仁路)"},{"poiid":"B2094757D06FA0F44593","title":"柒寿司(富民路店)","lon":"121.45014813109981","lat":"31.221289026267844","category":"95","category_name":"日本料理","address":"上海静安寺富民路51号"},{"poiid":"B2094753D76FAAFA449C","title":"上海滩国泰旗舰店","lon":"121.466011","lat":"31.216125","category":"249","category_name":"购物服务","address":"淮海中路868号"},{"poiid":"B209475CD564A7F84292","title":"上海滩新天地店","lon":"121.47463","lat":"31.22164","category":"119","category_name":"商场","address":"\"太仓路181弄新天地北里15号\r\n\""},{"poiid":"B209475CD564A7F8439E","title":"上海滩中信泰富店","lon":"121.45602","lat":"31.22851","category":"119","category_name":"商场","address":"\"南京西路1168号中信泰富广场，店铺号221.\r\n\""},{"poiid":"B2094757D068A7FA4698","title":"Dr. Beer","lon":"121.450329386","lat":"31.2207334453","category":"500","category_name":"未知分类","address":"上海市富民路80号(巨鹿路)"},{"poiid":"B2094757D569A3F9469A","title":"香格里拉大酒店(上海静安嘉里中心店)","lon":"121.45073378","lat":"31.22310384","category":"251","category_name":"出行住宿","address":"中国上海市静安区铜仁路"},{"poiid":"B2094655D264A1FF479D","title":"上海静安嘉里商务中心(北区)","lon":"121.44928","lat":"31.22384","category":"46","category_name":"楼宇","address":""},{"poiid":"B2094757D06AAAF54692","title":"上海展览中心中央大厅","lon":"121.45311058","lat":"31.224167312","category":"500","category_name":"未知分类","address":"上海市静安区延安中路1000号"},{"poiid":"B2094654DA6CA0FD499F","title":"上海展览中心(3号门)","lon":"121.45308","lat":"31.22342","category":"183","category_name":"展览馆","address":"延安中路1000号"},{"poiid":"B2094757D06FAAFD459F","title":"Pho Asia","lon":"121.450447","lat":"31.220718","category":"99","category_name":"泰国／越南菜品餐厅","address":"静安区富民路85号巨富大厦(近巨鹿路)"},{"poiid":"B2094757D06FA0FB4098","title":"云餐厅(南京西路店)","lon":"121.45095","lat":"31.22482","category":"260","category_name":"其他","address":"静安区南京西路1399号(铜仁路口)"},{"poiid":"B2094655D26DABF4499E","title":"上海展览中心(5号门)","lon":"121.45153","lat":"31.22291","category":"183","category_name":"展览馆","address":""},{"poiid":"B2094757D068ABF4459C","title":"香港肥杜火锅","lon":"121.45016495","lat":"31.220844179","category":"86","category_name":"火锅店","address":"静安区富民路85号巨富大厦1楼(近巨鹿路)"},{"poiid":"B2094757D068A4FB419A","title":"富民路巨鹿路","lon":"121.45020024","lat":"31.221579561","category":"260","category_name":"其他","address":"上海静安区富民路巨鹿路口"},{"poiid":"B209475DD66AA7FA4598","title":"PIER 39","lon":"121.450569","lat":"31.224454","category":"253","category_name":"校园生活","address":"上海市 靜安嘉里城1F"},{"poiid":"B2094757D069A6FB4599","title":"The PULI Hotel and Spa","lon":"121.45246887","lat":"31.220787048","category":"500","category_name":"未知分类","address":"上海常德路1号"},{"poiid":"B2094757D06FA5F9459C","title":"JA Cafe (静安公园内)","lon":"121.4465","lat":"31.22271","category":"260","category_name":"其他","address":"静安区南京西路1649号静安公园内(近静安公园)"},{"poiid":"B2094757D465A6F44093","title":"董大师金牌稻香蛙 延安中路店","lon":"121.452610054","lat":"31.222697793","category":"71","category_name":"四川菜","address":"静安区延安中路917号(近铜仁路)"},{"poiid":"B209475DD06EA7FC4498","title":"KABB","lon":"121.449417","lat":"31.223478","category":"500","category_name":"未知分类","address":"上海市 靜安嘉里中心"},{"poiid":"B209475DD66DA4FA449D","title":"极食","lon":"121.452423","lat":"31.223312","category":"247","category_name":"餐饮美食","address":"上海市 静安区芮欧百货5楼"},{"poiid":"B2094654DA6CA0FD4999","title":"上海展览中心(4号门)","lon":"121.45215","lat":"31.22304","category":"183","category_name":"展览馆","address":"延安中路1000"},{"poiid":"B2094757D16DA1F5419A","title":"延安高架","lon":"121.45033958","lat":"31.222230274","category":"500","category_name":"未知分类","address":"上海市静安区"},{"poiid":"B2094757D069A2FF4599","title":"华东模范中学","lon":"121.4503","lat":"31.22113","category":"55","category_name":"中学","address":"静安区富民路43号(富民路延安中路)"},{"poiid":"B209475CDB6FA1FC499E","title":"PINTXOS","lon":"121.449722","lat":"31.223426","category":"500","category_name":"未知分类","address":"上海市 静安嘉里中心SB1-10"},{"poiid":"B2094654D564ABFB419A","title":"上海市逸夫职业技术学校","lon":"121.45275","lat":"31.22134","category":"54","category_name":"职业技术学校","address":"静安区巨鹿路700号"},{"poiid":"B2094757D16FA7FA409E","title":"嘉里中心二期(Kerry Center Phase II)","lon":"121.453365586","lat":"31.2214142586","category":"46","category_name":"楼宇","address":"上海静安区常德路安义路"},{"poiid":"B2094753DA68A2F54393","title":"七條","lon":"121.451377","lat":"31.221981","category":"500","category_name":"未知分类","address":"上海市 芮欧百货B2"},{"poiid":"B209475DD264A2FB4192","title":"bunlife","lon":"121.449737","lat":"31.223474","category":"500","category_name":"未知分类","address":"上海市 嘉里中心"},{"poiid":"B2094654DA6CA0FD499C","title":"上海展览中心(2号门)","lon":"121.45379","lat":"31.22367","category":"183","category_name":"展览馆","address":""},{"poiid":"B2094655D26DA3FE409E","title":"上海展览中心商务楼","lon":"121.45114","lat":"31.22504","category":"46","category_name":"楼宇","address":""},{"poiid":"B209475CDA69A6FB4598","title":"千两","lon":"121.452461","lat":"31.223594","category":"247","category_name":"餐饮美食","address":"上海市 嘉里中心"},{"poiid":"B2094750D268A5FA429B","title":"俏江南 881会所店 South Beauty","lon":"121.4534688397","lat":"31.223013646952","category":"247","category_name":"餐饮美食","address":"延安中路881号展览馆对面近铜仁路"},{"poiid":"B209475DDA68A4F8449C","title":"新元素","lon":"121.449729","lat":"31.22393","category":"247","category_name":"餐饮美食","address":"上海市 静安嘉里中心"},{"poiid":"B209475CD064AAFF4698","title":"星巴克 嘉里中心店 Starbucks Cafe","lon":"121.4497956259","lat":"31.224756223728","category":"65","category_name":"咖啡厅","address":"南京西路1515号嘉里中心大堂近铜仁路"},{"poiid":"B2094757D069A3FD409D","title":"四明村","lon":"121.4532","lat":"31.222324","category":"47","category_name":"住宅区","address":"静安区延安中路913弄(近铜仁路)"},{"poiid":"B209475DD364A6FA439F","title":"天泰餐厅嘉里中心店","lon":"121.450081","lat":"31.224766","category":"247","category_name":"餐饮美食","address":"上海市静安区南京西路1515号静安嘉里中心4层N4-11"},{"poiid":"B209475CD065A1FE469E","title":"GODIVA 静安嘉里店","lon":"121.45025","lat":"31.22437","category":"67","category_name":"甜品店","address":"南京西路1515号静安嘉里中心SB1-09号单元"},{"poiid":"B209475DD76FA6FD459E","title":"逸谷会","lon":"121.452491","lat":"31.223581","category":"247","category_name":"餐饮美食","address":"上海市 南京西路1515号嘉里中心北区3-15号"},{"poiid":"B2094757D66CABF9439F","title":"中雅大楼","lon":"121.45","lat":"31.2249","category":"46","category_name":"楼宇","address":"铁西区铁西兴华街与南十中路交处(兴华南街48号)"},{"poiid":"B2094655D36CA3FA409E","title":"Judy's","lon":"121.45074","lat":"31.22491","category":"260","category_name":"其他","address":"静安区铜仁路142-146号(近南京西路)"},{"poiid":"B2094750D56FABF5459D","title":"C-GOWEL(久光百货店)","lon":"121.452","lat":"31.2226","category":"113","category_name":"冷饮店","address":"静安区南京西路1618号久光百货B1楼"},{"poiid":"B2094757D16DA0FE469C","title":"中国国际航空(南京西路分部)","lon":"121.45044","lat":"31.22454","category":"21","category_name":"飞机场","address":"静安区南京西路1515号嘉里中心307(近铜仁路)"},{"poiid":"B209475CDB65AAFC4392","title":"阿吾罗","lon":"121.452362","lat":"31.221805","category":"249","category_name":"购物服务","address":"上海市 南京西路1601号越洋广场芮欧百货5楼(常德路)"},{"poiid":"B2094655D268A3FF4893","title":"鼎固大厦","lon":"121.452","lat":"31.2246","category":"46","category_name":"楼宇","address":"越秀区环市东路362-366号"},{"poiid":"B2094753D764A4FF469A","title":"1788美食广场","lon":"121.449111","lat":"31.222698","category":"500","category_name":"未知分类","address":"上海市 南京西路1788号B1"},{"poiid":"B209475DD16AA5FA4198","title":"1515牛排馆","lon":"121.449867","lat":"31.223461","category":"247","category_name":"餐饮美食","address":"上海市 延安中路1218号香格里拉大酒店4楼"},{"poiid":"B2094757D065A7FC4299","title":"南京西路铜仁路","lon":"121.45042158","lat":"31.224954327","category":"260","category_name":"其他","address":"上海南京西路铜仁路"},{"poiid":"B2094757D069A3FC4192","title":"中国银行(静安支行)","lon":"121.44974","lat":"31.22467","category":"150","category_name":"银行","address":"静安区南京西路1515号嘉里中心内(近铜仁路)"}]