[{"poiid":"B2094655D268A6F5449B","title":"翠华餐厅 富民路店 Tsui Wah Restaurant","lon":"121.452124054","lat":"31.217478793","category":"72","category_name":"广东菜","address":"静安区富民路291号悟锦世纪大厦内(长乐路口)"},{"poiid":"B2094655D26EA5F8409A","title":"保罗酒家","lon":"121.45205","lat":"31.21782","category":"257","category_name":"中餐厅","address":"静安区富民路271号(近长乐路)"},{"poiid":"B2094757D469A1F44499","title":"No.88酒吧 No.88 Bar","lon":"121.451729054","lat":"31.217383793","category":"172","category_name":"酒吧","address":"静安区富民路291号悟锦世纪大厦2楼(长乐路口)"},{"poiid":"B2094753D76FAAFA449C","title":"上海滩国泰旗舰店","lon":"121.466011","lat":"31.216125","category":"249","category_name":"购物服务","address":"淮海中路868号"},{"poiid":"B209475CD564A7F84292","title":"上海滩新天地店","lon":"121.47463","lat":"31.22164","category":"119","category_name":"商场","address":"\"太仓路181弄新天地北里15号\r\n\""},{"poiid":"B209475CD564A7F8439E","title":"上海滩中信泰富店","lon":"121.45602","lat":"31.22851","category":"119","category_name":"商场","address":"\"南京西路1168号中信泰富广场，店铺号221.\r\n\""},{"poiid":"B2094757D06EAAFD4692","title":"Whisk","lon":"121.45298","lat":"31.21402","category":"67","category_name":"甜品店","address":"徐汇区淮海中路1250号(地铁1号线常熟路地铁站2号出口对面)"},{"poiid":"B2094750D268A1F54699","title":"宫","lon":"121.450805","lat":"31.217145","category":"260","category_name":"其他","address":"徐汇区长乐路764弄2号前门(近华亭路)"},{"poiid":"B2094757D068A6FD499D","title":"Bistro Burger","lon":"121.45293","lat":"31.21705","category":"94","category_name":"西餐厅","address":"静安区富民路291号悟锦世纪大厦1楼(长乐路口)"},{"poiid":"B2094757D06FA0F54398","title":"CANTINA AGAVE 富民路店","lon":"121.452071054","lat":"31.217879793","category":"94","category_name":"西餐厅","address":"静安区富民路291号悟锦世纪大厦1楼01A-2室(长乐路口)"},{"poiid":"B2094757D06FA1FC429C","title":"Wagas沃歌斯(东湖路店)","lon":"121.454116374","lat":"31.2161574382","category":"94","category_name":"西餐厅","address":"徐汇区东湖路7号(近淮海中路)"},{"poiid":"B2094757D06FA1FC469B","title":"Dolce Vita Italian","lon":"121.45246925","lat":"31.2171414317","category":"94","category_name":"西餐厅","address":"静安区富民路291号悟锦世纪大厦内(长乐路口)"},{"poiid":"B2094757D06FA0FB409F","title":"海之幸(新乐店)","lon":"121.45378","lat":"31.2167","category":"95","category_name":"日本料理","address":"徐汇区新乐路169号(近东湖路)"},{"poiid":"B2094654DB65A4FD469F","title":"上海东湖宾馆","lon":"121.4535","lat":"31.21684","category":"214","category_name":"四星级宾馆","address":"上海市徐汇区东湖路70号(主楼)，东湖路7号(副楼)(近新乐路)"},{"poiid":"B2094757D06FA4F94799","title":"淮海中路常熟路","lon":"121.451735","lat":"31.21375","category":"38","category_name":"公交车站","address":"上海911, 920, 926, 911区间车, 320路 公交车站"},{"poiid":"B2094757D068A7FD4393","title":"Dakota","lon":"121.45416831","lat":"31.216473312","category":"94","category_name":"西餐厅","address":"徐汇区东湖路38号(近淮海中路)"},{"poiid":"B2094757D16BA7FB459C","title":"无敌呷拉面","lon":"121.454262793","lat":"31.2160521684","category":"95","category_name":"日本料理","address":"徐汇区东湖路7号东湖宾馆右侧(近淮海中路)"},{"poiid":"B2094757D068A2FD4299","title":"新乐路","lon":"121.45293426","lat":"31.216962814","category":"47","category_name":"住宅区","address":"上海新乐路"},{"poiid":"B2094757D06FA1FD429F","title":"狠牛独创牛肉面馆(富民路店)","lon":"121.45243","lat":"31.21706","category":"68","category_name":"快餐厅","address":"静安区富民路291号悟锦世纪大厦1楼3B(长乐路口)"},{"poiid":"B2094757D068A2FE439E","title":"红壮铁板烧","lon":"121.45338","lat":"31.21656","category":"269","category_name":"烧烤","address":"徐汇区东湖路70号(近淮海中路)"},{"poiid":"B2094757D068A0F54292","title":"Mo'laksa","lon":"121.452731586","lat":"31.2169611715","category":"110","category_name":"其他亚洲菜","address":"上海长乐路208号(近东湖路)"},{"poiid":"B2094752D16FA3F8439C","title":"petit paris小巴黎咖啡厅","lon":"121.45103","lat":"31.21387","category":"247","category_name":"餐饮美食","address":"淮海中路1288号，华亭路93弄"},{"poiid":"B2094757D06FA6FB439F","title":"香啡缤(富民路店)","lon":"121.45256","lat":"31.21711","category":"260","category_name":"其他","address":"静安区富民路291号悟锦世纪大厦内(长乐路口)"},{"poiid":"B2094757D06FA2F4499F","title":"董大师金牌稻香蛙(延庆路店)","lon":"121.4514","lat":"31.21504","category":"71","category_name":"四川菜","address":"徐汇区延庆路92号(近华亭路)"},{"poiid":"B2094655D26EA6FD4293","title":"笑笑 SHIROKIYA & WARAWARA","lon":"121.45487043308","lat":"31.21617261741","category":"95","category_name":"日本料理","address":"徐汇区东湖路30号乙(近淮海中路)"},{"poiid":"B2094751DB6CA4FD469E","title":"Vino Tapas","lon":"121.45196","lat":"31.21775","category":"247","category_name":"餐饮美食","address":"卢湾区富民路259号(近长乐路)"},{"poiid":"B2094752D66AABF84698","title":"豆苗工坊","lon":"121.452897","lat":"31.216913","category":"247","category_name":"餐饮美食","address":"新乐路 东湖路"},{"poiid":"B2094757D065AAF54292","title":"上海东方大班","lon":"121.454256086","lat":"31.2164013272","category":"500","category_name":"未知分类","address":"徐汇区东湖路39号(近淮海中路)"},{"poiid":"B2094750D26FA1FF439C","title":"小南国 东湖店","lon":"121.45339862107","lat":"31.21619616642","category":"76","category_name":"上海菜","address":"徐汇区东湖路9号地产大厦4楼(近淮海中路)"},{"poiid":"B2094757D068A2FE4993","title":"金刚饮食店","lon":"121.451340788","lat":"31.217013254","category":"68","category_name":"快餐厅","address":"徐汇区长乐路601号(近东湖路)"},{"poiid":"B2094654D564AAFC439C","title":"小南国","lon":"121.45369","lat":"31.21626","category":"257","category_name":"中餐厅","address":"瑞金二路118号瑞金宾馆内2号楼近复兴中路"},{"poiid":"B2094757DA69A3F9489C","title":"上海搜浩88酒吧","lon":"121.45276728836","lat":"31.217338350747","category":"172","category_name":"酒吧","address":"富民路291号悟锦世纪大楼2F"},{"poiid":"B2094654D564AAFC429E","title":"上海地产大厦","lon":"121.45368","lat":"31.2161","category":"46","category_name":"楼宇","address":"西城区金融街A区3号地南部"},{"poiid":"B2094757D16EABF84299","title":"团市委","lon":"121.452710026","lat":"31.2175345227","category":"46","category_name":"楼宇","address":"上海东湖路17号"},{"poiid":"B2094750D76EA5FF429A","title":"五木铁板烧(东湖路店)","lon":"121.454","lat":"31.2156","category":"269","category_name":"烧烤","address":"徐汇区东湖路7号东湖宾馆2楼(近淮海中路)"},{"poiid":"B2094655D264A0FB419D","title":"淮海公寓","lon":"121.45298","lat":"31.214819","category":"47","category_name":"住宅区","address":"上海市卢湾区淮海中路1202号"},{"poiid":"B2094757D168AAFA4092","title":"鸟巢","lon":"121.452849586","lat":"31.2169391711","category":"95","category_name":"日本料理","address":"徐汇区新乐路167号(东湖路口)"},{"poiid":"B209475DD76AAAFA4298","title":"Captain Rooster","lon":"121.451354","lat":"31.214776","category":"247","category_name":"餐饮美食","address":"上海市 上海市常熟路75号，靠近巨鹿路"},{"poiid":"B2094757D569A1FA499F","title":"白木屋居乐屋","lon":"121.4542556","lat":"31.21634277","category":"95","category_name":"日本料理","address":"东湖路30-2号2层"},{"poiid":"B2094654D564AAFC4198","title":"德丽滋 新乐路店 Des Lys De France","lon":"121.45279812188","lat":"31.216902636161","category":"94","category_name":"西餐厅","address":"徐汇区新乐路178号(近东湖路)"},{"poiid":"B2094757D068A5FA409F","title":"Lune Bar","lon":"121.452694194","lat":"31.2169398694","category":"260","category_name":"其他","address":"徐汇区新乐路218号4楼(近东湖路)"},{"poiid":"B2094757D06AA5FC419F","title":"happy face coffe","lon":"121.45177058","lat":"31.214046114","category":"500","category_name":"未知分类","address":"上海市淮海中路1288号"},{"poiid":"B2094757D06EAAF5499F","title":"延庆路董大师","lon":"121.451077","lat":"31.215218","category":"52","category_name":"高等院校","address":"上海延庆路92号"},{"poiid":"B2094751D264A5FD489E","title":"陕西南路1号线地铁站","lon":"121.4521672","lat":"31.2152085","category":"36","category_name":"地铁站","address":null},{"poiid":"B2094757D069A2F5419B","title":"卡夫食品企业管理(上海)有限公司","lon":"121.452593627","lat":"31.2173367631","category":"46","category_name":"楼宇","address":"上海市富民路291号"},{"poiid":"B2094654D564ABFE459B","title":"山东手工水饺馆","lon":"121.452285054","lat":"31.216435793","category":"68","category_name":"快餐厅","address":"徐汇区延庆路9号延庆路菜场对面(近东湖路)"},{"poiid":"B2094757D168A0FB459D","title":"東方大班東湖店","lon":"121.45430158","lat":"31.21638416","category":"500","category_name":"未知分类","address":"上海徐匯區東湖路39號"},{"poiid":"B2094757D06BA1FD429B","title":"南十字星","lon":"121.451812245","lat":"31.2138919748","category":"260","category_name":"其他","address":"徐汇区淮海中路1276号(近华亭路)"},{"poiid":"B2094654D564ABFD459E","title":"上海交通大学医学院附属瑞金医院远洋分院(淮中大楼西北)","lon":"121.45349","lat":"31.21508","category":"162","category_name":"医院","address":"淮海中路1174号"},{"poiid":"B2094750D665A4FB479F","title":"皓廊","lon":"121.451","lat":"31.2142","category":"260","category_name":"其他","address":"徐汇区华亭路71弄4号(近淮海中路)"},{"poiid":"B2094655D268A6F5449B","title":"翠华餐厅 富民路店 Tsui Wah Restaurant","lon":"121.452124054","lat":"31.217478793","category":"72","category_name":"广东菜","address":"静安区富民路291号悟锦世纪大厦内(长乐路口)"},{"poiid":"B2094655D26EA5F8409A","title":"保罗酒家","lon":"121.45205","lat":"31.21782","category":"257","category_name":"中餐厅","address":"静安区富民路271号(近长乐路)"},{"poiid":"B2094757D469A1F44499","title":"No.88酒吧 No.88 Bar","lon":"121.451729054","lat":"31.217383793","category":"172","category_name":"酒吧","address":"静安区富民路291号悟锦世纪大厦2楼(长乐路口)"},{"poiid":"B2094753D76FAAFA449C","title":"上海滩国泰旗舰店","lon":"121.466011","lat":"31.216125","category":"249","category_name":"购物服务","address":"淮海中路868号"},{"poiid":"B209475CD564A7F84292","title":"上海滩新天地店","lon":"121.47463","lat":"31.22164","category":"119","category_name":"商场","address":"\"太仓路181弄新天地北里15号\r\n\""},{"poiid":"B209475CD564A7F8439E","title":"上海滩中信泰富店","lon":"121.45602","lat":"31.22851","category":"119","category_name":"商场","address":"\"南京西路1168号中信泰富广场，店铺号221.\r\n\""},{"poiid":"B2094757D06EAAFD4692","title":"Whisk","lon":"121.45298","lat":"31.21402","category":"67","category_name":"甜品店","address":"徐汇区淮海中路1250号(地铁1号线常熟路地铁站2号出口对面)"},{"poiid":"B2094750D268A1F54699","title":"宫","lon":"121.450805","lat":"31.217145","category":"260","category_name":"其他","address":"徐汇区长乐路764弄2号前门(近华亭路)"},{"poiid":"B2094757D068A6FD499D","title":"Bistro Burger","lon":"121.45293","lat":"31.21705","category":"94","category_name":"西餐厅","address":"静安区富民路291号悟锦世纪大厦1楼(长乐路口)"},{"poiid":"B2094757D06FA0F54398","title":"CANTINA AGAVE 富民路店","lon":"121.452071054","lat":"31.217879793","category":"94","category_name":"西餐厅","address":"静安区富民路291号悟锦世纪大厦1楼01A-2室(长乐路口)"},{"poiid":"B2094757D06FA1FC429C","title":"Wagas沃歌斯(东湖路店)","lon":"121.454116374","lat":"31.2161574382","category":"94","category_name":"西餐厅","address":"徐汇区东湖路7号(近淮海中路)"},{"poiid":"B2094757D06FA1FC469B","title":"Dolce Vita Italian","lon":"121.45246925","lat":"31.2171414317","category":"94","category_name":"西餐厅","address":"静安区富民路291号悟锦世纪大厦内(长乐路口)"},{"poiid":"B2094757D06FA0FB409F","title":"海之幸(新乐店)","lon":"121.45378","lat":"31.2167","category":"95","category_name":"日本料理","address":"徐汇区新乐路169号(近东湖路)"},{"poiid":"B2094654DB65A4FD469F","title":"上海东湖宾馆","lon":"121.4535","lat":"31.21684","category":"214","category_name":"四星级宾馆","address":"上海市徐汇区东湖路70号(主楼)，东湖路7号(副楼)(近新乐路)"},{"poiid":"B2094757D06FA4F94799","title":"淮海中路常熟路","lon":"121.451735","lat":"31.21375","category":"38","category_name":"公交车站","address":"上海911, 920, 926, 911区间车, 320路 公交车站"},{"poiid":"B2094757D068A7FD4393","title":"Dakota","lon":"121.45416831","lat":"31.216473312","category":"94","category_name":"西餐厅","address":"徐汇区东湖路38号(近淮海中路)"},{"poiid":"B2094757D16BA7FB459C","title":"无敌呷拉面","lon":"121.454262793","lat":"31.2160521684","category":"95","category_name":"日本料理","address":"徐汇区东湖路7号东湖宾馆右侧(近淮海中路)"},{"poiid":"B2094757D068A2FD4299","title":"新乐路","lon":"121.45293426","lat":"31.216962814","category":"47","category_name":"住宅区","address":"上海新乐路"},{"poiid":"B2094757D06FA1FD429F","title":"狠牛独创牛肉面馆(富民路店)","lon":"121.45243","lat":"31.21706","category":"68","category_name":"快餐厅","address":"静安区富民路291号悟锦世纪大厦1楼3B(长乐路口)"},{"poiid":"B2094757D068A2FE439E","title":"红壮铁板烧","lon":"121.45338","lat":"31.21656","category":"269","category_name":"烧烤","address":"徐汇区东湖路70号(近淮海中路)"},{"poiid":"B2094757D068A0F54292","title":"Mo'laksa","lon":"121.452731586","lat":"31.2169611715","category":"110","category_name":"其他亚洲菜","address":"上海长乐路208号(近东湖路)"},{"poiid":"B2094752D16FA3F8439C","title":"petit paris小巴黎咖啡厅","lon":"121.45103","lat":"31.21387","category":"247","category_name":"餐饮美食","address":"淮海中路1288号，华亭路93弄"},{"poiid":"B2094757D06FA6FB439F","title":"香啡缤(富民路店)","lon":"121.45256","lat":"31.21711","category":"260","category_name":"其他","address":"静安区富民路291号悟锦世纪大厦内(长乐路口)"},{"poiid":"B2094757D06FA2F4499F","title":"董大师金牌稻香蛙(延庆路店)","lon":"121.4514","lat":"31.21504","category":"71","category_name":"四川菜","address":"徐汇区延庆路92号(近华亭路)"},{"poiid":"B2094655D26EA6FD4293","title":"笑笑 SHIROKIYA & WARAWARA","lon":"121.45487043308","lat":"31.21617261741","category":"95","category_name":"日本料理","address":"徐汇区东湖路30号乙(近淮海中路)"},{"poiid":"B2094751DB6CA4FD469E","title":"Vino Tapas","lon":"121.45196","lat":"31.21775","category":"247","category_name":"餐饮美食","address":"卢湾区富民路259号(近长乐路)"},{"poiid":"B2094752D66AABF84698","title":"豆苗工坊","lon":"121.452897","lat":"31.216913","category":"247","category_name":"餐饮美食","address":"新乐路 东湖路"},{"poiid":"B2094757D065AAF54292","title":"上海东方大班","lon":"121.454256086","lat":"31.2164013272","category":"500","category_name":"未知分类","address":"徐汇区东湖路39号(近淮海中路)"},{"poiid":"B2094750D26FA1FF439C","title":"小南国 东湖店","lon":"121.45339862107","lat":"31.21619616642","category":"76","category_name":"上海菜","address":"徐汇区东湖路9号地产大厦4楼(近淮海中路)"},{"poiid":"B2094757D068A2FE4993","title":"金刚饮食店","lon":"121.451340788","lat":"31.217013254","category":"68","category_name":"快餐厅","address":"徐汇区长乐路601号(近东湖路)"},{"poiid":"B2094654D564AAFC439C","title":"小南国","lon":"121.45369","lat":"31.21626","category":"257","category_name":"中餐厅","address":"瑞金二路118号瑞金宾馆内2号楼近复兴中路"},{"poiid":"B2094757DA69A3F9489C","title":"上海搜浩88酒吧","lon":"121.45276728836","lat":"31.217338350747","category":"172","category_name":"酒吧","address":"富民路291号悟锦世纪大楼2F"},{"poiid":"B2094654D564AAFC429E","title":"上海地产大厦","lon":"121.45368","lat":"31.2161","category":"46","category_name":"楼宇","address":"西城区金融街A区3号地南部"},{"poiid":"B2094757D16EABF84299","title":"团市委","lon":"121.452710026","lat":"31.2175345227","category":"46","category_name":"楼宇","address":"上海东湖路17号"},{"poiid":"B2094750D76EA5FF429A","title":"五木铁板烧(东湖路店)","lon":"121.454","lat":"31.2156","category":"269","category_name":"烧烤","address":"徐汇区东湖路7号东湖宾馆2楼(近淮海中路)"},{"poiid":"B2094655D264A0FB419D","title":"淮海公寓","lon":"121.45298","lat":"31.214819","category":"47","category_name":"住宅区","address":"上海市卢湾区淮海中路1202号"},{"poiid":"B2094757D168AAFA4092","title":"鸟巢","lon":"121.452849586","lat":"31.2169391711","category":"95","category_name":"日本料理","address":"徐汇区新乐路167号(东湖路口)"},{"poiid":"B209475DD76AAAFA4298","title":"Captain Rooster","lon":"121.451354","lat":"31.214776","category":"247","category_name":"餐饮美食","address":"上海市 上海市常熟路75号，靠近巨鹿路"},{"poiid":"B2094757D569A1FA499F","title":"白木屋居乐屋","lon":"121.4542556","lat":"31.21634277","category":"95","category_name":"日本料理","address":"东湖路30-2号2层"},{"poiid":"B2094654D564AAFC4198","title":"德丽滋 新乐路店 Des Lys De France","lon":"121.45279812188","lat":"31.216902636161","category":"94","category_name":"西餐厅","address":"徐汇区新乐路178号(近东湖路)"},{"poiid":"B2094757D068A5FA409F","title":"Lune Bar","lon":"121.452694194","lat":"31.2169398694","category":"260","category_name":"其他","address":"徐汇区新乐路218号4楼(近东湖路)"},{"poiid":"B2094757D06AA5FC419F","title":"happy face coffe","lon":"121.45177058","lat":"31.214046114","category":"500","category_name":"未知分类","address":"上海市淮海中路1288号"},{"poiid":"B2094757D06EAAF5499F","title":"延庆路董大师","lon":"121.451077","lat":"31.215218","category":"52","category_name":"高等院校","address":"上海延庆路92号"},{"poiid":"B2094751D264A5FD489E","title":"陕西南路1号线地铁站","lon":"121.4521672","lat":"31.2152085","category":"36","category_name":"地铁站","address":null},{"poiid":"B2094757D069A2F5419B","title":"卡夫食品企业管理(上海)有限公司","lon":"121.452593627","lat":"31.2173367631","category":"46","category_name":"楼宇","address":"上海市富民路291号"},{"poiid":"B2094654D564ABFE459B","title":"山东手工水饺馆","lon":"121.452285054","lat":"31.216435793","category":"68","category_name":"快餐厅","address":"徐汇区延庆路9号延庆路菜场对面(近东湖路)"},{"poiid":"B2094757D168A0FB459D","title":"東方大班東湖店","lon":"121.45430158","lat":"31.21638416","category":"500","category_name":"未知分类","address":"上海徐匯區東湖路39號"},{"poiid":"B2094757D06BA1FD429B","title":"南十字星","lon":"121.451812245","lat":"31.2138919748","category":"260","category_name":"其他","address":"徐汇区淮海中路1276号(近华亭路)"},{"poiid":"B2094654D564ABFD459E","title":"上海交通大学医学院附属瑞金医院远洋分院(淮中大楼西北)","lon":"121.45349","lat":"31.21508","category":"162","category_name":"医院","address":"淮海中路1174号"},{"poiid":"B2094750D665A4FB479F","title":"皓廊","lon":"121.451","lat":"31.2142","category":"260","category_name":"其他","address":"徐汇区华亭路71弄4号(近淮海中路)"},{"poiid":"B2094655D268A6F5449B","title":"翠华餐厅 富民路店 Tsui Wah Restaurant","lon":"121.452124054","lat":"31.217478793","category":"72","category_name":"广东菜","address":"静安区富民路291号悟锦世纪大厦内(长乐路口)"},{"poiid":"B2094655D26EA5F8409A","title":"保罗酒家","lon":"121.45205","lat":"31.21782","category":"257","category_name":"中餐厅","address":"静安区富民路271号(近长乐路)"},{"poiid":"B2094757D469A1F44499","title":"No.88酒吧 No.88 Bar","lon":"121.451729054","lat":"31.217383793","category":"172","category_name":"酒吧","address":"静安区富民路291号悟锦世纪大厦2楼(长乐路口)"},{"poiid":"B2094753D76FAAFA449C","title":"上海滩国泰旗舰店","lon":"121.466011","lat":"31.216125","category":"249","category_name":"购物服务","address":"淮海中路868号"},{"poiid":"B209475CD564A7F84292","title":"上海滩新天地店","lon":"121.47463","lat":"31.22164","category":"119","category_name":"商场","address":"\"太仓路181弄新天地北里15号\r\n\""},{"poiid":"B209475CD564A7F8439E","title":"上海滩中信泰富店","lon":"121.45602","lat":"31.22851","category":"119","category_name":"商场","address":"\"南京西路1168号中信泰富广场，店铺号221.\r\n\""},{"poiid":"B2094757D06EAAFD4692","title":"Whisk","lon":"121.45298","lat":"31.21402","category":"67","category_name":"甜品店","address":"徐汇区淮海中路1250号(地铁1号线常熟路地铁站2号出口对面)"},{"poiid":"B2094750D268A1F54699","title":"宫","lon":"121.450805","lat":"31.217145","category":"260","category_name":"其他","address":"徐汇区长乐路764弄2号前门(近华亭路)"},{"poiid":"B2094757D068A6FD499D","title":"Bistro Burger","lon":"121.45293","lat":"31.21705","category":"94","category_name":"西餐厅","address":"静安区富民路291号悟锦世纪大厦1楼(长乐路口)"},{"poiid":"B2094757D06FA0F54398","title":"CANTINA AGAVE 富民路店","lon":"121.452071054","lat":"31.217879793","category":"94","category_name":"西餐厅","address":"静安区富民路291号悟锦世纪大厦1楼01A-2室(长乐路口)"},{"poiid":"B2094757D06FA1FC429C","title":"Wagas沃歌斯(东湖路店)","lon":"121.454116374","lat":"31.2161574382","category":"94","category_name":"西餐厅","address":"徐汇区东湖路7号(近淮海中路)"},{"poiid":"B2094757D06FA1FC469B","title":"Dolce Vita Italian","lon":"121.45246925","lat":"31.2171414317","category":"94","category_name":"西餐厅","address":"静安区富民路291号悟锦世纪大厦内(长乐路口)"},{"poiid":"B2094757D06FA0FB409F","title":"海之幸(新乐店)","lon":"121.45378","lat":"31.2167","category":"95","category_name":"日本料理","address":"徐汇区新乐路169号(近东湖路)"},{"poiid":"B2094654DB65A4FD469F","title":"上海东湖宾馆","lon":"121.4535","lat":"31.21684","category":"214","category_name":"四星级宾馆","address":"上海市徐汇区东湖路70号(主楼)，东湖路7号(副楼)(近新乐路)"},{"poiid":"B2094757D06FA4F94799","title":"淮海中路常熟路","lon":"121.451735","lat":"31.21375","category":"38","category_name":"公交车站","address":"上海911, 920, 926, 911区间车, 320路 公交车站"},{"poiid":"B2094757D068A7FD4393","title":"Dakota","lon":"121.45416831","lat":"31.216473312","category":"94","category_name":"西餐厅","address":"徐汇区东湖路38号(近淮海中路)"},{"poiid":"B2094757D16BA7FB459C","title":"无敌呷拉面","lon":"121.454262793","lat":"31.2160521684","category":"95","category_name":"日本料理","address":"徐汇区东湖路7号东湖宾馆右侧(近淮海中路)"},{"poiid":"B2094757D068A2FD4299","title":"新乐路","lon":"121.45293426","lat":"31.216962814","category":"47","category_name":"住宅区","address":"上海新乐路"},{"poiid":"B2094757D06FA1FD429F","title":"狠牛独创牛肉面馆(富民路店)","lon":"121.45243","lat":"31.21706","category":"68","category_name":"快餐厅","address":"静安区富民路291号悟锦世纪大厦1楼3B(长乐路口)"},{"poiid":"B2094757D068A2FE439E","title":"红壮铁板烧","lon":"121.45338","lat":"31.21656","category":"269","category_name":"烧烤","address":"徐汇区东湖路70号(近淮海中路)"},{"poiid":"B2094757D068A0F54292","title":"Mo'laksa","lon":"121.452731586","lat":"31.2169611715","category":"110","category_name":"其他亚洲菜","address":"上海长乐路208号(近东湖路)"},{"poiid":"B2094752D16FA3F8439C","title":"petit paris小巴黎咖啡厅","lon":"121.45103","lat":"31.21387","category":"247","category_name":"餐饮美食","address":"淮海中路1288号，华亭路93弄"},{"poiid":"B2094757D06FA6FB439F","title":"香啡缤(富民路店)","lon":"121.45256","lat":"31.21711","category":"260","category_name":"其他","address":"静安区富民路291号悟锦世纪大厦内(长乐路口)"},{"poiid":"B2094757D06FA2F4499F","title":"董大师金牌稻香蛙(延庆路店)","lon":"121.4514","lat":"31.21504","category":"71","category_name":"四川菜","address":"徐汇区延庆路92号(近华亭路)"},{"poiid":"B2094655D26EA6FD4293","title":"笑笑 SHIROKIYA & WARAWARA","lon":"121.45487043308","lat":"31.21617261741","category":"95","category_name":"日本料理","address":"徐汇区东湖路30号乙(近淮海中路)"},{"poiid":"B2094751DB6CA4FD469E","title":"Vino Tapas","lon":"121.45196","lat":"31.21775","category":"247","category_name":"餐饮美食","address":"卢湾区富民路259号(近长乐路)"},{"poiid":"B2094752D66AABF84698","title":"豆苗工坊","lon":"121.452897","lat":"31.216913","category":"247","category_name":"餐饮美食","address":"新乐路 东湖路"},{"poiid":"B2094757D065AAF54292","title":"上海东方大班","lon":"121.454256086","lat":"31.2164013272","category":"500","category_name":"未知分类","address":"徐汇区东湖路39号(近淮海中路)"},{"poiid":"B2094750D26FA1FF439C","title":"小南国 东湖店","lon":"121.45339862107","lat":"31.21619616642","category":"76","category_name":"上海菜","address":"徐汇区东湖路9号地产大厦4楼(近淮海中路)"},{"poiid":"B2094757D068A2FE4993","title":"金刚饮食店","lon":"121.451340788","lat":"31.217013254","category":"68","category_name":"快餐厅","address":"徐汇区长乐路601号(近东湖路)"},{"poiid":"B2094654D564AAFC439C","title":"小南国","lon":"121.45369","lat":"31.21626","category":"257","category_name":"中餐厅","address":"瑞金二路118号瑞金宾馆内2号楼近复兴中路"},{"poiid":"B2094757DA69A3F9489C","title":"上海搜浩88酒吧","lon":"121.45276728836","lat":"31.217338350747","category":"172","category_name":"酒吧","address":"富民路291号悟锦世纪大楼2F"},{"poiid":"B2094654D564AAFC429E","title":"上海地产大厦","lon":"121.45368","lat":"31.2161","category":"46","category_name":"楼宇","address":"西城区金融街A区3号地南部"},{"poiid":"B2094757D16EABF84299","title":"团市委","lon":"121.452710026","lat":"31.2175345227","category":"46","category_name":"楼宇","address":"上海东湖路17号"},{"poiid":"B2094750D76EA5FF429A","title":"五木铁板烧(东湖路店)","lon":"121.454","lat":"31.2156","category":"269","category_name":"烧烤","address":"徐汇区东湖路7号东湖宾馆2楼(近淮海中路)"},{"poiid":"B2094655D264A0FB419D","title":"淮海公寓","lon":"121.45298","lat":"31.214819","category":"47","category_name":"住宅区","address":"上海市卢湾区淮海中路1202号"},{"poiid":"B2094757D168AAFA4092","title":"鸟巢","lon":"121.452849586","lat":"31.2169391711","category":"95","category_name":"日本料理","address":"徐汇区新乐路167号(东湖路口)"},{"poiid":"B209475DD76AAAFA4298","title":"Captain Rooster","lon":"121.451354","lat":"31.214776","category":"247","category_name":"餐饮美食","address":"上海市 上海市常熟路75号，靠近巨鹿路"},{"poiid":"B2094757D569A1FA499F","title":"白木屋居乐屋","lon":"121.4542556","lat":"31.21634277","category":"95","category_name":"日本料理","address":"东湖路30-2号2层"},{"poiid":"B2094654D564AAFC4198","title":"德丽滋 新乐路店 Des Lys De France","lon":"121.45279812188","lat":"31.216902636161","category":"94","category_name":"西餐厅","address":"徐汇区新乐路178号(近东湖路)"},{"poiid":"B2094757D068A5FA409F","title":"Lune Bar","lon":"121.452694194","lat":"31.2169398694","category":"260","category_name":"其他","address":"徐汇区新乐路218号4楼(近东湖路)"},{"poiid":"B2094757D06AA5FC419F","title":"happy face coffe","lon":"121.45177058","lat":"31.214046114","category":"500","category_name":"未知分类","address":"上海市淮海中路1288号"},{"poiid":"B2094757D06EAAF5499F","title":"延庆路董大师","lon":"121.451077","lat":"31.215218","category":"52","category_name":"高等院校","address":"上海延庆路92号"},{"poiid":"B2094751D264A5FD489E","title":"陕西南路1号线地铁站","lon":"121.4521672","lat":"31.2152085","category":"36","category_name":"地铁站","address":null},{"poiid":"B2094757D069A2F5419B","title":"卡夫食品企业管理(上海)有限公司","lon":"121.452593627","lat":"31.2173367631","category":"46","category_name":"楼宇","address":"上海市富民路291号"},{"poiid":"B2094654D564ABFE459B","title":"山东手工水饺馆","lon":"121.452285054","lat":"31.216435793","category":"68","category_name":"快餐厅","address":"徐汇区延庆路9号延庆路菜场对面(近东湖路)"},{"poiid":"B2094757D168A0FB459D","title":"東方大班東湖店","lon":"121.45430158","lat":"31.21638416","category":"500","category_name":"未知分类","address":"上海徐匯區東湖路39號"},{"poiid":"B2094757D06BA1FD429B","title":"南十字星","lon":"121.451812245","lat":"31.2138919748","category":"260","category_name":"其他","address":"徐汇区淮海中路1276号(近华亭路)"},{"poiid":"B2094654D564ABFD459E","title":"上海交通大学医学院附属瑞金医院远洋分院(淮中大楼西北)","lon":"121.45349","lat":"31.21508","category":"162","category_name":"医院","address":"淮海中路1174号"},{"poiid":"B2094750D665A4FB479F","title":"皓廊","lon":"121.451","lat":"31.2142","category":"260","category_name":"其他","address":"徐汇区华亭路71弄4号(近淮海中路)"},{"poiid":"B2094655D268A6F5449B","title":"翠华餐厅 富民路店 Tsui Wah Restaurant","lon":"121.452124054","lat":"31.217478793","category":"72","category_name":"广东菜","address":"静安区富民路291号悟锦世纪大厦内(长乐路口)"},{"poiid":"B2094655D26EA5F8409A","title":"保罗酒家","lon":"121.45205","lat":"31.21782","category":"257","category_name":"中餐厅","address":"静安区富民路271号(近长乐路)"},{"poiid":"B2094757D469A1F44499","title":"No.88酒吧 No.88 Bar","lon":"121.451729054","lat":"31.217383793","category":"172","category_name":"酒吧","address":"静安区富民路291号悟锦世纪大厦2楼(长乐路口)"},{"poiid":"B2094753D76FAAFA449C","title":"上海滩国泰旗舰店","lon":"121.466011","lat":"31.216125","category":"249","category_name":"购物服务","address":"淮海中路868号"},{"poiid":"B209475CD564A7F84292","title":"上海滩新天地店","lon":"121.47463","lat":"31.22164","category":"119","category_name":"商场","address":"\"太仓路181弄新天地北里15号\r\n\""},{"poiid":"B209475CD564A7F8439E","title":"上海滩中信泰富店","lon":"121.45602","lat":"31.22851","category":"119","category_name":"商场","address":"\"南京西路1168号中信泰富广场，店铺号221.\r\n\""},{"poiid":"B2094757D06EAAFD4692","title":"Whisk","lon":"121.45298","lat":"31.21402","category":"67","category_name":"甜品店","address":"徐汇区淮海中路1250号(地铁1号线常熟路地铁站2号出口对面)"},{"poiid":"B2094750D268A1F54699","title":"宫","lon":"121.450805","lat":"31.217145","category":"260","category_name":"其他","address":"徐汇区长乐路764弄2号前门(近华亭路)"},{"poiid":"B2094757D068A6FD499D","title":"Bistro Burger","lon":"121.45293","lat":"31.21705","category":"94","category_name":"西餐厅","address":"静安区富民路291号悟锦世纪大厦1楼(长乐路口)"},{"poiid":"B2094757D06FA0F54398","title":"CANTINA AGAVE 富民路店","lon":"121.452071054","lat":"31.217879793","category":"94","category_name":"西餐厅","address":"静安区富民路291号悟锦世纪大厦1楼01A-2室(长乐路口)"},{"poiid":"B2094757D06FA1FC429C","title":"Wagas沃歌斯(东湖路店)","lon":"121.454116374","lat":"31.2161574382","category":"94","category_name":"西餐厅","address":"徐汇区东湖路7号(近淮海中路)"},{"poiid":"B2094757D06FA1FC469B","title":"Dolce Vita Italian","lon":"121.45246925","lat":"31.2171414317","category":"94","category_name":"西餐厅","address":"静安区富民路291号悟锦世纪大厦内(长乐路口)"},{"poiid":"B2094757D06FA0FB409F","title":"海之幸(新乐店)","lon":"121.45378","lat":"31.2167","category":"95","category_name":"日本料理","address":"徐汇区新乐路169号(近东湖路)"},{"poiid":"B2094654DB65A4FD469F","title":"上海东湖宾馆","lon":"121.4535","lat":"31.21684","category":"214","category_name":"四星级宾馆","address":"上海市徐汇区东湖路70号(主楼)，东湖路7号(副楼)(近新乐路)"},{"poiid":"B2094757D06FA4F94799","title":"淮海中路常熟路","lon":"121.451735","lat":"31.21375","category":"38","category_name":"公交车站","address":"上海911, 920, 926, 911区间车, 320路 公交车站"},{"poiid":"B2094757D068A7FD4393","title":"Dakota","lon":"121.45416831","lat":"31.216473312","category":"94","category_name":"西餐厅","address":"徐汇区东湖路38号(近淮海中路)"},{"poiid":"B2094757D16BA7FB459C","title":"无敌呷拉面","lon":"121.454262793","lat":"31.2160521684","category":"95","category_name":"日本料理","address":"徐汇区东湖路7号东湖宾馆右侧(近淮海中路)"},{"poiid":"B2094757D068A2FD4299","title":"新乐路","lon":"121.45293426","lat":"31.216962814","category":"47","category_name":"住宅区","address":"上海新乐路"},{"poiid":"B2094757D06FA1FD429F","title":"狠牛独创牛肉面馆(富民路店)","lon":"121.45243","lat":"31.21706","category":"68","category_name":"快餐厅","address":"静安区富民路291号悟锦世纪大厦1楼3B(长乐路口)"},{"poiid":"B2094757D068A2FE439E","title":"红壮铁板烧","lon":"121.45338","lat":"31.21656","category":"269","category_name":"烧烤","address":"徐汇区东湖路70号(近淮海中路)"},{"poiid":"B2094757D068A0F54292","title":"Mo'laksa","lon":"121.452731586","lat":"31.2169611715","category":"110","category_name":"其他亚洲菜","address":"上海长乐路208号(近东湖路)"},{"poiid":"B2094752D16FA3F8439C","title":"petit paris小巴黎咖啡厅","lon":"121.45103","lat":"31.21387","category":"247","category_name":"餐饮美食","address":"淮海中路1288号，华亭路93弄"},{"poiid":"B2094757D06FA6FB439F","title":"香啡缤(富民路店)","lon":"121.45256","lat":"31.21711","category":"260","category_name":"其他","address":"静安区富民路291号悟锦世纪大厦内(长乐路口)"},{"poiid":"B2094757D06FA2F4499F","title":"董大师金牌稻香蛙(延庆路店)","lon":"121.4514","lat":"31.21504","category":"71","category_name":"四川菜","address":"徐汇区延庆路92号(近华亭路)"},{"poiid":"B2094655D26EA6FD4293","title":"笑笑 SHIROKIYA & WARAWARA","lon":"121.45487043308","lat":"31.21617261741","category":"95","category_name":"日本料理","address":"徐汇区东湖路30号乙(近淮海中路)"},{"poiid":"B2094751DB6CA4FD469E","title":"Vino Tapas","lon":"121.45196","lat":"31.21775","category":"247","category_name":"餐饮美食","address":"卢湾区富民路259号(近长乐路)"},{"poiid":"B2094752D66AABF84698","title":"豆苗工坊","lon":"121.452897","lat":"31.216913","category":"247","category_name":"餐饮美食","address":"新乐路 东湖路"},{"poiid":"B2094757D065AAF54292","title":"上海东方大班","lon":"121.454256086","lat":"31.2164013272","category":"500","category_name":"未知分类","address":"徐汇区东湖路39号(近淮海中路)"},{"poiid":"B2094750D26FA1FF439C","title":"小南国 东湖店","lon":"121.45339862107","lat":"31.21619616642","category":"76","category_name":"上海菜","address":"徐汇区东湖路9号地产大厦4楼(近淮海中路)"},{"poiid":"B2094757D068A2FE4993","title":"金刚饮食店","lon":"121.451340788","lat":"31.217013254","category":"68","category_name":"快餐厅","address":"徐汇区长乐路601号(近东湖路)"},{"poiid":"B2094654D564AAFC439C","title":"小南国","lon":"121.45369","lat":"31.21626","category":"257","category_name":"中餐厅","address":"瑞金二路118号瑞金宾馆内2号楼近复兴中路"},{"poiid":"B2094757DA69A3F9489C","title":"上海搜浩88酒吧","lon":"121.45276728836","lat":"31.217338350747","category":"172","category_name":"酒吧","address":"富民路291号悟锦世纪大楼2F"},{"poiid":"B2094654D564AAFC429E","title":"上海地产大厦","lon":"121.45368","lat":"31.2161","category":"46","category_name":"楼宇","address":"西城区金融街A区3号地南部"},{"poiid":"B2094757D16EABF84299","title":"团市委","lon":"121.452710026","lat":"31.2175345227","category":"46","category_name":"楼宇","address":"上海东湖路17号"},{"poiid":"B2094750D76EA5FF429A","title":"五木铁板烧(东湖路店)","lon":"121.454","lat":"31.2156","category":"269","category_name":"烧烤","address":"徐汇区东湖路7号东湖宾馆2楼(近淮海中路)"},{"poiid":"B2094655D264A0FB419D","title":"淮海公寓","lon":"121.45298","lat":"31.214819","category":"47","category_name":"住宅区","address":"上海市卢湾区淮海中路1202号"},{"poiid":"B2094757D168AAFA4092","title":"鸟巢","lon":"121.452849586","lat":"31.2169391711","category":"95","category_name":"日本料理","address":"徐汇区新乐路167号(东湖路口)"},{"poiid":"B209475DD76AAAFA4298","title":"Captain Rooster","lon":"121.451354","lat":"31.214776","category":"247","category_name":"餐饮美食","address":"上海市 上海市常熟路75号，靠近巨鹿路"},{"poiid":"B2094757D569A1FA499F","title":"白木屋居乐屋","lon":"121.4542556","lat":"31.21634277","category":"95","category_name":"日本料理","address":"东湖路30-2号2层"},{"poiid":"B2094654D564AAFC4198","title":"德丽滋 新乐路店 Des Lys De France","lon":"121.45279812188","lat":"31.216902636161","category":"94","category_name":"西餐厅","address":"徐汇区新乐路178号(近东湖路)"},{"poiid":"B2094757D068A5FA409F","title":"Lune Bar","lon":"121.452694194","lat":"31.2169398694","category":"260","category_name":"其他","address":"徐汇区新乐路218号4楼(近东湖路)"},{"poiid":"B2094757D06AA5FC419F","title":"happy face coffe","lon":"121.45177058","lat":"31.214046114","category":"500","category_name":"未知分类","address":"上海市淮海中路1288号"},{"poiid":"B2094757D06EAAF5499F","title":"延庆路董大师","lon":"121.451077","lat":"31.215218","category":"52","category_name":"高等院校","address":"上海延庆路92号"},{"poiid":"B2094751D264A5FD489E","title":"陕西南路1号线地铁站","lon":"121.4521672","lat":"31.2152085","category":"36","category_name":"地铁站","address":null},{"poiid":"B2094757D069A2F5419B","title":"卡夫食品企业管理(上海)有限公司","lon":"121.452593627","lat":"31.2173367631","category":"46","category_name":"楼宇","address":"上海市富民路291号"},{"poiid":"B2094654D564ABFE459B","title":"山东手工水饺馆","lon":"121.452285054","lat":"31.216435793","category":"68","category_name":"快餐厅","address":"徐汇区延庆路9号延庆路菜场对面(近东湖路)"},{"poiid":"B2094757D168A0FB459D","title":"東方大班東湖店","lon":"121.45430158","lat":"31.21638416","category":"500","category_name":"未知分类","address":"上海徐匯區東湖路39號"},{"poiid":"B2094757D06BA1FD429B","title":"南十字星","lon":"121.451812245","lat":"31.2138919748","category":"260","category_name":"其他","address":"徐汇区淮海中路1276号(近华亭路)"},{"poiid":"B2094654D564ABFD459E","title":"上海交通大学医学院附属瑞金医院远洋分院(淮中大楼西北)","lon":"121.45349","lat":"31.21508","category":"162","category_name":"医院","address":"淮海中路1174号"},{"poiid":"B2094750D665A4FB479F","title":"皓廊","lon":"121.451","lat":"31.2142","category":"260","category_name":"其他","address":"徐汇区华亭路71弄4号(近淮海中路)"},{"poiid":"B2094655D268A6F5449B","title":"翠华餐厅 富民路店 Tsui Wah Restaurant","lon":"121.452124054","lat":"31.217478793","category":"72","category_name":"广东菜","address":"静安区富民路291号悟锦世纪大厦内(长乐路口)"},{"poiid":"B2094655D26EA5F8409A","title":"保罗酒家","lon":"121.45205","lat":"31.21782","category":"257","category_name":"中餐厅","address":"静安区富民路271号(近长乐路)"},{"poiid":"B2094757D469A1F44499","title":"No.88酒吧 No.88 Bar","lon":"121.451729054","lat":"31.217383793","category":"172","category_name":"酒吧","address":"静安区富民路291号悟锦世纪大厦2楼(长乐路口)"},{"poiid":"B2094753D76FAAFA449C","title":"上海滩国泰旗舰店","lon":"121.466011","lat":"31.216125","category":"249","category_name":"购物服务","address":"淮海中路868号"},{"poiid":"B209475CD564A7F84292","title":"上海滩新天地店","lon":"121.47463","lat":"31.22164","category":"119","category_name":"商场","address":"\"太仓路181弄新天地北里15号\r\n\""},{"poiid":"B209475CD564A7F8439E","title":"上海滩中信泰富店","lon":"121.45602","lat":"31.22851","category":"119","category_name":"商场","address":"\"南京西路1168号中信泰富广场，店铺号221.\r\n\""},{"poiid":"B2094757D06EAAFD4692","title":"Whisk","lon":"121.45298","lat":"31.21402","category":"67","category_name":"甜品店","address":"徐汇区淮海中路1250号(地铁1号线常熟路地铁站2号出口对面)"},{"poiid":"B2094750D268A1F54699","title":"宫","lon":"121.450805","lat":"31.217145","category":"260","category_name":"其他","address":"徐汇区长乐路764弄2号前门(近华亭路)"},{"poiid":"B2094757D068A6FD499D","title":"Bistro Burger","lon":"121.45293","lat":"31.21705","category":"94","category_name":"西餐厅","address":"静安区富民路291号悟锦世纪大厦1楼(长乐路口)"},{"poiid":"B2094757D06FA0F54398","title":"CANTINA AGAVE 富民路店","lon":"121.452071054","lat":"31.217879793","category":"94","category_name":"西餐厅","address":"静安区富民路291号悟锦世纪大厦1楼01A-2室(长乐路口)"},{"poiid":"B2094757D06FA1FC429C","title":"Wagas沃歌斯(东湖路店)","lon":"121.454116374","lat":"31.2161574382","category":"94","category_name":"西餐厅","address":"徐汇区东湖路7号(近淮海中路)"},{"poiid":"B2094757D06FA1FC469B","title":"Dolce Vita Italian","lon":"121.45246925","lat":"31.2171414317","category":"94","category_name":"西餐厅","address":"静安区富民路291号悟锦世纪大厦内(长乐路口)"},{"poiid":"B2094757D06FA0FB409F","title":"海之幸(新乐店)","lon":"121.45378","lat":"31.2167","category":"95","category_name":"日本料理","address":"徐汇区新乐路169号(近东湖路)"},{"poiid":"B2094654DB65A4FD469F","title":"上海东湖宾馆","lon":"121.4535","lat":"31.21684","category":"214","category_name":"四星级宾馆","address":"上海市徐汇区东湖路70号(主楼)，东湖路7号(副楼)(近新乐路)"},{"poiid":"B2094757D06FA4F94799","title":"淮海中路常熟路","lon":"121.451735","lat":"31.21375","category":"38","category_name":"公交车站","address":"上海911, 920, 926, 911区间车, 320路 公交车站"},{"poiid":"B2094757D068A7FD4393","title":"Dakota","lon":"121.45416831","lat":"31.216473312","category":"94","category_name":"西餐厅","address":"徐汇区东湖路38号(近淮海中路)"},{"poiid":"B2094757D16BA7FB459C","title":"无敌呷拉面","lon":"121.454262793","lat":"31.2160521684","category":"95","category_name":"日本料理","address":"徐汇区东湖路7号东湖宾馆右侧(近淮海中路)"},{"poiid":"B2094757D068A2FD4299","title":"新乐路","lon":"121.45293426","lat":"31.216962814","category":"47","category_name":"住宅区","address":"上海新乐路"},{"poiid":"B2094757D06FA1FD429F","title":"狠牛独创牛肉面馆(富民路店)","lon":"121.45243","lat":"31.21706","category":"68","category_name":"快餐厅","address":"静安区富民路291号悟锦世纪大厦1楼3B(长乐路口)"},{"poiid":"B2094757D068A2FE439E","title":"红壮铁板烧","lon":"121.45338","lat":"31.21656","category":"269","category_name":"烧烤","address":"徐汇区东湖路70号(近淮海中路)"},{"poiid":"B2094757D068A0F54292","title":"Mo'laksa","lon":"121.452731586","lat":"31.2169611715","category":"110","category_name":"其他亚洲菜","address":"上海长乐路208号(近东湖路)"},{"poiid":"B2094752D16FA3F8439C","title":"petit paris小巴黎咖啡厅","lon":"121.45103","lat":"31.21387","category":"247","category_name":"餐饮美食","address":"淮海中路1288号，华亭路93弄"},{"poiid":"B2094757D06FA6FB439F","title":"香啡缤(富民路店)","lon":"121.45256","lat":"31.21711","category":"260","category_name":"其他","address":"静安区富民路291号悟锦世纪大厦内(长乐路口)"},{"poiid":"B2094757D06FA2F4499F","title":"董大师金牌稻香蛙(延庆路店)","lon":"121.4514","lat":"31.21504","category":"71","category_name":"四川菜","address":"徐汇区延庆路92号(近华亭路)"},{"poiid":"B2094655D26EA6FD4293","title":"笑笑 SHIROKIYA & WARAWARA","lon":"121.45487043308","lat":"31.21617261741","category":"95","category_name":"日本料理","address":"徐汇区东湖路30号乙(近淮海中路)"},{"poiid":"B2094751DB6CA4FD469E","title":"Vino Tapas","lon":"121.45196","lat":"31.21775","category":"247","category_name":"餐饮美食","address":"卢湾区富民路259号(近长乐路)"},{"poiid":"B2094752D66AABF84698","title":"豆苗工坊","lon":"121.452897","lat":"31.216913","category":"247","category_name":"餐饮美食","address":"新乐路 东湖路"},{"poiid":"B2094757D065AAF54292","title":"上海东方大班","lon":"121.454256086","lat":"31.2164013272","category":"500","category_name":"未知分类","address":"徐汇区东湖路39号(近淮海中路)"},{"poiid":"B2094750D26FA1FF439C","title":"小南国 东湖店","lon":"121.45339862107","lat":"31.21619616642","category":"76","category_name":"上海菜","address":"徐汇区东湖路9号地产大厦4楼(近淮海中路)"},{"poiid":"B2094757D068A2FE4993","title":"金刚饮食店","lon":"121.451340788","lat":"31.217013254","category":"68","category_name":"快餐厅","address":"徐汇区长乐路601号(近东湖路)"},{"poiid":"B2094654D564AAFC439C","title":"小南国","lon":"121.45369","lat":"31.21626","category":"257","category_name":"中餐厅","address":"瑞金二路118号瑞金宾馆内2号楼近复兴中路"},{"poiid":"B2094757DA69A3F9489C","title":"上海搜浩88酒吧","lon":"121.45276728836","lat":"31.217338350747","category":"172","category_name":"酒吧","address":"富民路291号悟锦世纪大楼2F"},{"poiid":"B2094654D564AAFC429E","title":"上海地产大厦","lon":"121.45368","lat":"31.2161","category":"46","category_name":"楼宇","address":"西城区金融街A区3号地南部"},{"poiid":"B2094757D16EABF84299","title":"团市委","lon":"121.452710026","lat":"31.2175345227","category":"46","category_name":"楼宇","address":"上海东湖路17号"},{"poiid":"B2094750D76EA5FF429A","title":"五木铁板烧(东湖路店)","lon":"121.454","lat":"31.2156","category":"269","category_name":"烧烤","address":"徐汇区东湖路7号东湖宾馆2楼(近淮海中路)"},{"poiid":"B2094655D264A0FB419D","title":"淮海公寓","lon":"121.45298","lat":"31.214819","category":"47","category_name":"住宅区","address":"上海市卢湾区淮海中路1202号"},{"poiid":"B2094757D168AAFA4092","title":"鸟巢","lon":"121.452849586","lat":"31.2169391711","category":"95","category_name":"日本料理","address":"徐汇区新乐路167号(东湖路口)"},{"poiid":"B209475DD76AAAFA4298","title":"Captain Rooster","lon":"121.451354","lat":"31.214776","category":"247","category_name":"餐饮美食","address":"上海市 上海市常熟路75号，靠近巨鹿路"},{"poiid":"B2094757D569A1FA499F","title":"白木屋居乐屋","lon":"121.4542556","lat":"31.21634277","category":"95","category_name":"日本料理","address":"东湖路30-2号2层"},{"poiid":"B2094654D564AAFC4198","title":"德丽滋 新乐路店 Des Lys De France","lon":"121.45279812188","lat":"31.216902636161","category":"94","category_name":"西餐厅","address":"徐汇区新乐路178号(近东湖路)"},{"poiid":"B2094757D068A5FA409F","title":"Lune Bar","lon":"121.452694194","lat":"31.2169398694","category":"260","category_name":"其他","address":"徐汇区新乐路218号4楼(近东湖路)"},{"poiid":"B2094757D06AA5FC419F","title":"happy face coffe","lon":"121.45177058","lat":"31.214046114","category":"500","category_name":"未知分类","address":"上海市淮海中路1288号"},{"poiid":"B2094757D06EAAF5499F","title":"延庆路董大师","lon":"121.451077","lat":"31.215218","category":"52","category_name":"高等院校","address":"上海延庆路92号"},{"poiid":"B2094751D264A5FD489E","title":"陕西南路1号线地铁站","lon":"121.4521672","lat":"31.2152085","category":"36","category_name":"地铁站","address":null},{"poiid":"B2094757D069A2F5419B","title":"卡夫食品企业管理(上海)有限公司","lon":"121.452593627","lat":"31.2173367631","category":"46","category_name":"楼宇","address":"上海市富民路291号"},{"poiid":"B2094654D564ABFE459B","title":"山东手工水饺馆","lon":"121.452285054","lat":"31.216435793","category":"68","category_name":"快餐厅","address":"徐汇区延庆路9号延庆路菜场对面(近东湖路)"},{"poiid":"B2094757D168A0FB459D","title":"東方大班東湖店","lon":"121.45430158","lat":"31.21638416","category":"500","category_name":"未知分类","address":"上海徐匯區東湖路39號"},{"poiid":"B2094757D06BA1FD429B","title":"南十字星","lon":"121.451812245","lat":"31.2138919748","category":"260","category_name":"其他","address":"徐汇区淮海中路1276号(近华亭路)"},{"poiid":"B2094654D564ABFD459E","title":"上海交通大学医学院附属瑞金医院远洋分院(淮中大楼西北)","lon":"121.45349","lat":"31.21508","category":"162","category_name":"医院","address":"淮海中路1174号"},{"poiid":"B2094750D665A4FB479F","title":"皓廊","lon":"121.451","lat":"31.2142","category":"260","category_name":"其他","address":"徐汇区华亭路71弄4号(近淮海中路)"}]