[{"poiid":"B2094654DA6DA7FC439C","title":"龙华寺","lon":"121.45126274222366","lat":"31.17265835484479","category":"244","category_name":"寺庙道观","address":"上海市徐汇区龙华路2853号"},{"poiid":"B2094757D069A6FB459F","title":"龙腾大道","lon":"121.45933573","lat":"31.175346131","category":"500","category_name":"未知分类","address":"上海龙腾大道"},{"poiid":"B2094757D06FA1FA469A","title":"龙华烈士陵园","lon":"121.44877","lat":"31.17546","category":"620","category_name":"丧葬","address":"徐汇区龙华西路180号(近龙华路)"},{"poiid":"B2094654DA6DAAFC4193","title":"中国民用航空学院职业技术学院","lon":"121.45514","lat":"31.17076","category":"54","category_name":"职业技术学校","address":""},{"poiid":"B2094757D66DA6FB459A","title":"天华科技信息园","lon":"121.45","lat":"31.1771","category":"500","category_name":"未知分类","address":"上海市徐汇区漕东支路"},{"poiid":"B2094757D068A0FF469B","title":"人道素菜欢喜斋 Jen Dow","lon":"121.4528386878","lat":"31.174444613162","category":"89","category_name":"中式素餐馆","address":"徐汇区龙华路2787号龙华迎宾馆内(近龙华寺)"},{"poiid":"B2094654DA6DA7FE4292","title":"2577创意大院","lon":"121.45108","lat":"31.17846","category":"45","category_name":"产业园区","address":"徐汇区龙华路2577号(近龙华寺)"},{"poiid":"B2094654DA6DA4F9419C","title":"尚海湾豪庭","lon":"121.45771","lat":"31.178894","category":"47","category_name":"住宅区","address":"徐汇区宛平南路1455弄"},{"poiid":"B2094757D06FA1FA4893","title":"盛大花园","lon":"121.45329","lat":"31.179134","category":"47","category_name":"住宅区","address":"上海市徐汇区龙华路2518弄"},{"poiid":"B2094757D06FABF9439D","title":"上海民航中专","lon":"121.45486666","lat":"31.170237367","category":"253","category_name":"校园生活","address":"上海龙华西路1号"},{"poiid":"B2094757D068A7FC459C","title":"粤珍轩(龙华店)","lon":"121.45162","lat":"31.17831","category":"72","category_name":"广东菜","address":"徐汇区龙华路2577号创意大院内(近龙华寺)"},{"poiid":"B2094757D069A3FD439F","title":"龙兆苑","lon":"121.453078","lat":"31.177168","category":"47","category_name":"住宅区","address":"上海市浦东新区上南路3500弄"},{"poiid":"B2094751DA6BA2F4499C","title":"美丽岛意大利餐厅","lon":"121.459256540038","lat":"31.18285984269632","category":"247","category_name":"餐饮美食","address":"徐汇区龙腾大道3222号(东安路口)"},{"poiid":"B2094757D66DA1F4499A","title":"龙华寺斋堂","lon":"121.451551586","lat":"31.1751613546","category":"500","category_name":"未知分类","address":"上海龙华寺内"},{"poiid":"B2094654DA6DABF54493","title":"俞一小区","lon":"121.458","lat":"31.1762","category":"47","category_name":"住宅区","address":"龙华西路31弄"},{"poiid":"B2094655D36CA1F84399","title":"龙华西路","lon":"121.45296","lat":"31.17074","category":"38","category_name":"公交车站","address":""},{"poiid":"B2094654DA6DAAFC419A","title":"华龙新苑小区","lon":"121.45664","lat":"31.17359","category":"47","category_name":"住宅区","address":"上海徐汇区云锦路50弄"},{"poiid":"B2094757D068A4FC4399","title":"越乡小吃","lon":"121.452414","lat":"31.170483","category":"68","category_name":"快餐厅","address":"徐汇区龙华西路31弄(近龙华西路桥)"},{"poiid":"B2094654DA6EA1F9489B","title":"盛大花园(2号门)","lon":"121.455","lat":"31.17938","category":"47","category_name":"住宅区","address":"宛平南路1408"},{"poiid":"B2094750D565A2FE4692","title":"上海民航职业技术学院","lon":"121.457061","lat":"31.17053","category":"671","category_name":"高校中心点","address":"上海市徐汇区龙华西路1号"},{"poiid":"B2094654DB6BA4FE429F","title":"龙华西路81弄小区","lon":"121.458","lat":"31.178","category":"47","category_name":"住宅区","address":"龙华西路81弄41-66号,70-92号"},{"poiid":"B2094757D16DA4FE4593","title":"创意大院","lon":"121.451709036","lat":"31.1786601229","category":"500","category_name":"未知分类","address":"丰台学城海鹰路1号，3号"},{"poiid":"B2094757D66BA6FB499D","title":"富于餐厅","lon":"121.451868054","lat":"31.178990793","category":"76","category_name":"上海菜","address":"徐汇区龙华路2577号创意大院(近双峰路)"},{"poiid":"B2094757D065A3F54198","title":"尚海湾","lon":"121.45691","lat":"31.177977","category":"500","category_name":"未知分类","address":"上海宛平南路1441号13"},{"poiid":"B2094655D265ABFE4392","title":"倚卿酒家","lon":"121.450018054","lat":"31.180057793","category":"76","category_name":"上海菜","address":"徐汇区华容路65号(近龙华路)"},{"poiid":"B2094654DA6DAAFC4192","title":"中国交通职业技术学院南校区","lon":"121.45514","lat":"31.17075","category":"54","category_name":"职业技术学校","address":""},{"poiid":"B2094757D064A3F54893","title":"盛大花园小学","lon":"121.453453","lat":"31.176239","category":"500","category_name":"未知分类","address":"徐汇区龙华路2588号(近龙华寺)"},{"poiid":"B2094757D06BA7FE409F","title":"全家便利(龙华店)","lon":"121.453078777","lat":"31.1767218357","category":"117","category_name":"便民商店/便利店","address":"上海徐汇区龙华路2584号  "},{"poiid":"B2094655D26AAAFC499E","title":"无形艺术陶艺中心","lon":"121.45136","lat":"31.17862","category":"87","category_name":"特色／地方风味餐厅","address":"徐汇区龙华路2577号创意大院12号(近龙华寺)"},{"poiid":"B2094757D069ABFA4698","title":"龙华人家","lon":"121.45276","lat":"31.17075","category":"68","category_name":"快餐厅","address":"徐汇区龙华西路31弄7号甲(近龙华西路桥)"},{"poiid":"B2094654DA6EA1F9449A","title":"盛大花园(3号门)","lon":"121.45319","lat":"31.17657","category":"47","category_name":"住宅区","address":"龙华镇"},{"poiid":"B2094757D568ABF4409A","title":"狼烧烤","lon":"121.4522619","lat":"31.17918306","category":"68","category_name":"快餐厅","address":"徐汇区龙华路2500号小吃街C12号(近龙华寺)"},{"poiid":"B2094757D16DA6FE4793","title":"宛平医院","lon":"121.449437","lat":"31.180191","category":"162","category_name":"医院","address":"上海双峰路446号"},{"poiid":"B2094654DA6EA1F9449F","title":"上海恺悦口腔门诊部","lon":"121.453","lat":"31.17715","category":"162","category_name":"医院","address":"徐汇区龙华路2546号(近龙华寺)"},{"poiid":"B2094757D165A7F44199","title":"联华超市(宛平南路店)","lon":"121.455262","lat":"31.178972","category":"118","category_name":"超级市场","address":"徐汇区宛平南路(近中山南二路)"},{"poiid":"B2094655D269AAFC4693","title":"格林豪泰酒店龙华店","lon":"121.45178","lat":"31.17891","category":"247","category_name":"餐饮美食","address":"徐汇区龙华路2555号(近龙华寺)"},{"poiid":"B2094655D26BA7F9449B","title":"龙华文化站电影厅","lon":"121.45315","lat":"31.17482","category":"178","category_name":"电影院","address":"龙华路2796号"},{"poiid":"B2094757D06FAAF54499","title":"JEANS日韩店(京世龙华店)","lon":"121.452429","lat":"31.183131","category":"148","category_name":"美容美发店","address":"上海徐汇区宛平南路941号(近龙华西路)"},{"poiid":"B2094654DA6EA1F94392","title":"徐汇区盛大文化艺术进修学校","lon":"121.45345","lat":"31.17623","category":"53","category_name":"成人教育","address":"龙华路2588"},{"poiid":"B2094654DA6DA7F8479B","title":"枫林街道社区卫生服务中心","lon":"121.4493","lat":"31.18004","category":"162","category_name":"医院","address":"徐汇区双峰路450号(近中山南二路)"},{"poiid":"B2094654DA6DAAFC409E","title":"上海晟豪机动车驾驶员培训有限公司","lon":"121.45805","lat":"31.17028","category":"192","category_name":"驾校","address":"机场东一路1"},{"poiid":"B2094654DA6EA1F9439D","title":"龙华花鸟市场","lon":"121.45333","lat":"31.1754","category":"117","category_name":"便民商店/便利店","address":"龙华路2780"},{"poiid":"B2094654DA6EA1F94292","title":"快客(龙华路)","lon":"121.45283","lat":"31.17458","category":"117","category_name":"便民商店/便利店","address":"龙华路2806、2810"},{"poiid":"B2094757D66FA1F4449E","title":"玖宫阁重庆老灶","lon":"121.454570586","lat":"31.1753673586","category":"500","category_name":"未知分类","address":"上海新会路48号"},{"poiid":"B2094654DA6EA1F9429C","title":"好德No.380","lon":"121.45278","lat":"31.17443","category":"117","category_name":"便民商店/便利店","address":"龙华路2816"},{"poiid":"B2094757D16AA7FF479C","title":"movie time","lon":"121.45546073","lat":"31.178625201","category":"500","category_name":"未知分类","address":"上海市徐汇区华容路"},{"poiid":"B2094654DB6BA5F5469D","title":"龙华苑","lon":"121.458","lat":"31.1738","category":"47","category_name":"住宅区","address":"龙华机场新村34-61号"},{"poiid":"B2094757D069A0FC479C","title":"百匯園","lon":"121.45893307","lat":"31.17263744","category":"500","category_name":"未知分类","address":"上海市卢湾区济南路8号"},{"poiid":"B2094757D068A4FD4592","title":"上海飞机设计研究院","lon":"121.457473516","lat":"31.1714706279","category":"191","category_name":"科研机构","address":"上海云锦路5号"},{"poiid":"B2094757D66CAAFD4392","title":"长江源牛肉面","lon":"121.452916586","lat":"31.1792574346","category":"247","category_name":"餐饮美食","address":"上海龙华路2510号格林豪泰酒店对面"},{"poiid":"B2094654DA6DA7FC439C","title":"龙华寺","lon":"121.45126274222366","lat":"31.17265835484479","category":"244","category_name":"寺庙道观","address":"上海市徐汇区龙华路2853号"},{"poiid":"B2094757D069A6FB459F","title":"龙腾大道","lon":"121.45933573","lat":"31.175346131","category":"500","category_name":"未知分类","address":"上海龙腾大道"},{"poiid":"B2094757D06FA1FA469A","title":"龙华烈士陵园","lon":"121.44877","lat":"31.17546","category":"620","category_name":"丧葬","address":"徐汇区龙华西路180号(近龙华路)"},{"poiid":"B2094654DA6DAAFC4193","title":"中国民用航空学院职业技术学院","lon":"121.45514","lat":"31.17076","category":"54","category_name":"职业技术学校","address":""},{"poiid":"B2094757D66DA6FB459A","title":"天华科技信息园","lon":"121.45","lat":"31.1771","category":"500","category_name":"未知分类","address":"上海市徐汇区漕东支路"},{"poiid":"B2094757D068A0FF469B","title":"人道素菜欢喜斋 Jen Dow","lon":"121.4528386878","lat":"31.174444613162","category":"89","category_name":"中式素餐馆","address":"徐汇区龙华路2787号龙华迎宾馆内(近龙华寺)"},{"poiid":"B2094654DA6DA7FE4292","title":"2577创意大院","lon":"121.45108","lat":"31.17846","category":"45","category_name":"产业园区","address":"徐汇区龙华路2577号(近龙华寺)"},{"poiid":"B2094654DA6DA4F9419C","title":"尚海湾豪庭","lon":"121.45771","lat":"31.178894","category":"47","category_name":"住宅区","address":"徐汇区宛平南路1455弄"},{"poiid":"B2094757D06FA1FA4893","title":"盛大花园","lon":"121.45329","lat":"31.179134","category":"47","category_name":"住宅区","address":"上海市徐汇区龙华路2518弄"},{"poiid":"B2094757D06FABF9439D","title":"上海民航中专","lon":"121.45486666","lat":"31.170237367","category":"253","category_name":"校园生活","address":"上海龙华西路1号"},{"poiid":"B2094757D068A7FC459C","title":"粤珍轩(龙华店)","lon":"121.45162","lat":"31.17831","category":"72","category_name":"广东菜","address":"徐汇区龙华路2577号创意大院内(近龙华寺)"},{"poiid":"B2094757D069A3FD439F","title":"龙兆苑","lon":"121.453078","lat":"31.177168","category":"47","category_name":"住宅区","address":"上海市浦东新区上南路3500弄"},{"poiid":"B2094751DA6BA2F4499C","title":"美丽岛意大利餐厅","lon":"121.459256540038","lat":"31.18285984269632","category":"247","category_name":"餐饮美食","address":"徐汇区龙腾大道3222号(东安路口)"},{"poiid":"B2094757D66DA1F4499A","title":"龙华寺斋堂","lon":"121.451551586","lat":"31.1751613546","category":"500","category_name":"未知分类","address":"上海龙华寺内"},{"poiid":"B2094654DA6DABF54493","title":"俞一小区","lon":"121.458","lat":"31.1762","category":"47","category_name":"住宅区","address":"龙华西路31弄"},{"poiid":"B2094655D36CA1F84399","title":"龙华西路","lon":"121.45296","lat":"31.17074","category":"38","category_name":"公交车站","address":""},{"poiid":"B2094654DA6DAAFC419A","title":"华龙新苑小区","lon":"121.45664","lat":"31.17359","category":"47","category_name":"住宅区","address":"上海徐汇区云锦路50弄"},{"poiid":"B2094757D068A4FC4399","title":"越乡小吃","lon":"121.452414","lat":"31.170483","category":"68","category_name":"快餐厅","address":"徐汇区龙华西路31弄(近龙华西路桥)"},{"poiid":"B2094654DA6EA1F9489B","title":"盛大花园(2号门)","lon":"121.455","lat":"31.17938","category":"47","category_name":"住宅区","address":"宛平南路1408"},{"poiid":"B2094750D565A2FE4692","title":"上海民航职业技术学院","lon":"121.457061","lat":"31.17053","category":"671","category_name":"高校中心点","address":"上海市徐汇区龙华西路1号"},{"poiid":"B2094654DB6BA4FE429F","title":"龙华西路81弄小区","lon":"121.458","lat":"31.178","category":"47","category_name":"住宅区","address":"龙华西路81弄41-66号,70-92号"},{"poiid":"B2094757D16DA4FE4593","title":"创意大院","lon":"121.451709036","lat":"31.1786601229","category":"500","category_name":"未知分类","address":"丰台学城海鹰路1号，3号"},{"poiid":"B2094757D66BA6FB499D","title":"富于餐厅","lon":"121.451868054","lat":"31.178990793","category":"76","category_name":"上海菜","address":"徐汇区龙华路2577号创意大院(近双峰路)"},{"poiid":"B2094757D065A3F54198","title":"尚海湾","lon":"121.45691","lat":"31.177977","category":"500","category_name":"未知分类","address":"上海宛平南路1441号13"},{"poiid":"B2094655D265ABFE4392","title":"倚卿酒家","lon":"121.450018054","lat":"31.180057793","category":"76","category_name":"上海菜","address":"徐汇区华容路65号(近龙华路)"},{"poiid":"B2094654DA6DAAFC4192","title":"中国交通职业技术学院南校区","lon":"121.45514","lat":"31.17075","category":"54","category_name":"职业技术学校","address":""},{"poiid":"B2094757D064A3F54893","title":"盛大花园小学","lon":"121.453453","lat":"31.176239","category":"500","category_name":"未知分类","address":"徐汇区龙华路2588号(近龙华寺)"},{"poiid":"B2094757D06BA7FE409F","title":"全家便利(龙华店)","lon":"121.453078777","lat":"31.1767218357","category":"117","category_name":"便民商店/便利店","address":"上海徐汇区龙华路2584号  "},{"poiid":"B2094655D26AAAFC499E","title":"无形艺术陶艺中心","lon":"121.45136","lat":"31.17862","category":"87","category_name":"特色／地方风味餐厅","address":"徐汇区龙华路2577号创意大院12号(近龙华寺)"},{"poiid":"B2094757D069ABFA4698","title":"龙华人家","lon":"121.45276","lat":"31.17075","category":"68","category_name":"快餐厅","address":"徐汇区龙华西路31弄7号甲(近龙华西路桥)"},{"poiid":"B2094654DA6EA1F9449A","title":"盛大花园(3号门)","lon":"121.45319","lat":"31.17657","category":"47","category_name":"住宅区","address":"龙华镇"},{"poiid":"B2094757D568ABF4409A","title":"狼烧烤","lon":"121.4522619","lat":"31.17918306","category":"68","category_name":"快餐厅","address":"徐汇区龙华路2500号小吃街C12号(近龙华寺)"},{"poiid":"B2094757D16DA6FE4793","title":"宛平医院","lon":"121.449437","lat":"31.180191","category":"162","category_name":"医院","address":"上海双峰路446号"},{"poiid":"B2094654DA6EA1F9449F","title":"上海恺悦口腔门诊部","lon":"121.453","lat":"31.17715","category":"162","category_name":"医院","address":"徐汇区龙华路2546号(近龙华寺)"},{"poiid":"B2094757D165A7F44199","title":"联华超市(宛平南路店)","lon":"121.455262","lat":"31.178972","category":"118","category_name":"超级市场","address":"徐汇区宛平南路(近中山南二路)"},{"poiid":"B2094655D269AAFC4693","title":"格林豪泰酒店龙华店","lon":"121.45178","lat":"31.17891","category":"247","category_name":"餐饮美食","address":"徐汇区龙华路2555号(近龙华寺)"},{"poiid":"B2094655D26BA7F9449B","title":"龙华文化站电影厅","lon":"121.45315","lat":"31.17482","category":"178","category_name":"电影院","address":"龙华路2796号"},{"poiid":"B2094757D06FAAF54499","title":"JEANS日韩店(京世龙华店)","lon":"121.452429","lat":"31.183131","category":"148","category_name":"美容美发店","address":"上海徐汇区宛平南路941号(近龙华西路)"},{"poiid":"B2094654DA6EA1F94392","title":"徐汇区盛大文化艺术进修学校","lon":"121.45345","lat":"31.17623","category":"53","category_name":"成人教育","address":"龙华路2588"},{"poiid":"B2094654DA6DA7F8479B","title":"枫林街道社区卫生服务中心","lon":"121.4493","lat":"31.18004","category":"162","category_name":"医院","address":"徐汇区双峰路450号(近中山南二路)"},{"poiid":"B2094654DA6DAAFC409E","title":"上海晟豪机动车驾驶员培训有限公司","lon":"121.45805","lat":"31.17028","category":"192","category_name":"驾校","address":"机场东一路1"},{"poiid":"B2094654DA6EA1F9439D","title":"龙华花鸟市场","lon":"121.45333","lat":"31.1754","category":"117","category_name":"便民商店/便利店","address":"龙华路2780"},{"poiid":"B2094654DA6EA1F94292","title":"快客(龙华路)","lon":"121.45283","lat":"31.17458","category":"117","category_name":"便民商店/便利店","address":"龙华路2806、2810"},{"poiid":"B2094757D66FA1F4449E","title":"玖宫阁重庆老灶","lon":"121.454570586","lat":"31.1753673586","category":"500","category_name":"未知分类","address":"上海新会路48号"},{"poiid":"B2094654DA6EA1F9429C","title":"好德No.380","lon":"121.45278","lat":"31.17443","category":"117","category_name":"便民商店/便利店","address":"龙华路2816"},{"poiid":"B2094757D16AA7FF479C","title":"movie time","lon":"121.45546073","lat":"31.178625201","category":"500","category_name":"未知分类","address":"上海市徐汇区华容路"},{"poiid":"B2094654DB6BA5F5469D","title":"龙华苑","lon":"121.458","lat":"31.1738","category":"47","category_name":"住宅区","address":"龙华机场新村34-61号"},{"poiid":"B2094757D069A0FC479C","title":"百匯園","lon":"121.45893307","lat":"31.17263744","category":"500","category_name":"未知分类","address":"上海市卢湾区济南路8号"},{"poiid":"B2094757D068A4FD4592","title":"上海飞机设计研究院","lon":"121.457473516","lat":"31.1714706279","category":"191","category_name":"科研机构","address":"上海云锦路5号"},{"poiid":"B2094757D66CAAFD4392","title":"长江源牛肉面","lon":"121.452916586","lat":"31.1792574346","category":"247","category_name":"餐饮美食","address":"上海龙华路2510号格林豪泰酒店对面"},{"poiid":"B2094654DA6DA7FC439C","title":"龙华寺","lon":"121.45126274222366","lat":"31.17265835484479","category":"244","category_name":"寺庙道观","address":"上海市徐汇区龙华路2853号"},{"poiid":"B2094757D069A6FB459F","title":"龙腾大道","lon":"121.45933573","lat":"31.175346131","category":"500","category_name":"未知分类","address":"上海龙腾大道"},{"poiid":"B2094757D06FA1FA469A","title":"龙华烈士陵园","lon":"121.44877","lat":"31.17546","category":"620","category_name":"丧葬","address":"徐汇区龙华西路180号(近龙华路)"},{"poiid":"B2094654DA6DAAFC4193","title":"中国民用航空学院职业技术学院","lon":"121.45514","lat":"31.17076","category":"54","category_name":"职业技术学校","address":""},{"poiid":"B2094757D66DA6FB459A","title":"天华科技信息园","lon":"121.45","lat":"31.1771","category":"500","category_name":"未知分类","address":"上海市徐汇区漕东支路"},{"poiid":"B2094757D068A0FF469B","title":"人道素菜欢喜斋 Jen Dow","lon":"121.4528386878","lat":"31.174444613162","category":"89","category_name":"中式素餐馆","address":"徐汇区龙华路2787号龙华迎宾馆内(近龙华寺)"},{"poiid":"B2094654DA6DA7FE4292","title":"2577创意大院","lon":"121.45108","lat":"31.17846","category":"45","category_name":"产业园区","address":"徐汇区龙华路2577号(近龙华寺)"},{"poiid":"B2094654DA6DA4F9419C","title":"尚海湾豪庭","lon":"121.45771","lat":"31.178894","category":"47","category_name":"住宅区","address":"徐汇区宛平南路1455弄"},{"poiid":"B2094757D06FA1FA4893","title":"盛大花园","lon":"121.45329","lat":"31.179134","category":"47","category_name":"住宅区","address":"上海市徐汇区龙华路2518弄"},{"poiid":"B2094757D06FABF9439D","title":"上海民航中专","lon":"121.45486666","lat":"31.170237367","category":"253","category_name":"校园生活","address":"上海龙华西路1号"},{"poiid":"B2094757D068A7FC459C","title":"粤珍轩(龙华店)","lon":"121.45162","lat":"31.17831","category":"72","category_name":"广东菜","address":"徐汇区龙华路2577号创意大院内(近龙华寺)"},{"poiid":"B2094757D069A3FD439F","title":"龙兆苑","lon":"121.453078","lat":"31.177168","category":"47","category_name":"住宅区","address":"上海市浦东新区上南路3500弄"},{"poiid":"B2094751DA6BA2F4499C","title":"美丽岛意大利餐厅","lon":"121.459256540038","lat":"31.18285984269632","category":"247","category_name":"餐饮美食","address":"徐汇区龙腾大道3222号(东安路口)"},{"poiid":"B2094757D66DA1F4499A","title":"龙华寺斋堂","lon":"121.451551586","lat":"31.1751613546","category":"500","category_name":"未知分类","address":"上海龙华寺内"},{"poiid":"B2094654DA6DABF54493","title":"俞一小区","lon":"121.458","lat":"31.1762","category":"47","category_name":"住宅区","address":"龙华西路31弄"},{"poiid":"B2094655D36CA1F84399","title":"龙华西路","lon":"121.45296","lat":"31.17074","category":"38","category_name":"公交车站","address":""},{"poiid":"B2094654DA6DAAFC419A","title":"华龙新苑小区","lon":"121.45664","lat":"31.17359","category":"47","category_name":"住宅区","address":"上海徐汇区云锦路50弄"},{"poiid":"B2094757D068A4FC4399","title":"越乡小吃","lon":"121.452414","lat":"31.170483","category":"68","category_name":"快餐厅","address":"徐汇区龙华西路31弄(近龙华西路桥)"},{"poiid":"B2094654DA6EA1F9489B","title":"盛大花园(2号门)","lon":"121.455","lat":"31.17938","category":"47","category_name":"住宅区","address":"宛平南路1408"},{"poiid":"B2094750D565A2FE4692","title":"上海民航职业技术学院","lon":"121.457061","lat":"31.17053","category":"671","category_name":"高校中心点","address":"上海市徐汇区龙华西路1号"},{"poiid":"B2094654DB6BA4FE429F","title":"龙华西路81弄小区","lon":"121.458","lat":"31.178","category":"47","category_name":"住宅区","address":"龙华西路81弄41-66号,70-92号"},{"poiid":"B2094757D16DA4FE4593","title":"创意大院","lon":"121.451709036","lat":"31.1786601229","category":"500","category_name":"未知分类","address":"丰台学城海鹰路1号，3号"},{"poiid":"B2094757D66BA6FB499D","title":"富于餐厅","lon":"121.451868054","lat":"31.178990793","category":"76","category_name":"上海菜","address":"徐汇区龙华路2577号创意大院(近双峰路)"},{"poiid":"B2094757D065A3F54198","title":"尚海湾","lon":"121.45691","lat":"31.177977","category":"500","category_name":"未知分类","address":"上海宛平南路1441号13"},{"poiid":"B2094655D265ABFE4392","title":"倚卿酒家","lon":"121.450018054","lat":"31.180057793","category":"76","category_name":"上海菜","address":"徐汇区华容路65号(近龙华路)"},{"poiid":"B2094654DA6DAAFC4192","title":"中国交通职业技术学院南校区","lon":"121.45514","lat":"31.17075","category":"54","category_name":"职业技术学校","address":""},{"poiid":"B2094757D064A3F54893","title":"盛大花园小学","lon":"121.453453","lat":"31.176239","category":"500","category_name":"未知分类","address":"徐汇区龙华路2588号(近龙华寺)"},{"poiid":"B2094757D06BA7FE409F","title":"全家便利(龙华店)","lon":"121.453078777","lat":"31.1767218357","category":"117","category_name":"便民商店/便利店","address":"上海徐汇区龙华路2584号  "},{"poiid":"B2094655D26AAAFC499E","title":"无形艺术陶艺中心","lon":"121.45136","lat":"31.17862","category":"87","category_name":"特色／地方风味餐厅","address":"徐汇区龙华路2577号创意大院12号(近龙华寺)"},{"poiid":"B2094757D069ABFA4698","title":"龙华人家","lon":"121.45276","lat":"31.17075","category":"68","category_name":"快餐厅","address":"徐汇区龙华西路31弄7号甲(近龙华西路桥)"},{"poiid":"B2094654DA6EA1F9449A","title":"盛大花园(3号门)","lon":"121.45319","lat":"31.17657","category":"47","category_name":"住宅区","address":"龙华镇"},{"poiid":"B2094757D568ABF4409A","title":"狼烧烤","lon":"121.4522619","lat":"31.17918306","category":"68","category_name":"快餐厅","address":"徐汇区龙华路2500号小吃街C12号(近龙华寺)"},{"poiid":"B2094757D16DA6FE4793","title":"宛平医院","lon":"121.449437","lat":"31.180191","category":"162","category_name":"医院","address":"上海双峰路446号"},{"poiid":"B2094654DA6EA1F9449F","title":"上海恺悦口腔门诊部","lon":"121.453","lat":"31.17715","category":"162","category_name":"医院","address":"徐汇区龙华路2546号(近龙华寺)"},{"poiid":"B2094757D165A7F44199","title":"联华超市(宛平南路店)","lon":"121.455262","lat":"31.178972","category":"118","category_name":"超级市场","address":"徐汇区宛平南路(近中山南二路)"},{"poiid":"B2094655D269AAFC4693","title":"格林豪泰酒店龙华店","lon":"121.45178","lat":"31.17891","category":"247","category_name":"餐饮美食","address":"徐汇区龙华路2555号(近龙华寺)"},{"poiid":"B2094655D26BA7F9449B","title":"龙华文化站电影厅","lon":"121.45315","lat":"31.17482","category":"178","category_name":"电影院","address":"龙华路2796号"},{"poiid":"B2094757D06FAAF54499","title":"JEANS日韩店(京世龙华店)","lon":"121.452429","lat":"31.183131","category":"148","category_name":"美容美发店","address":"上海徐汇区宛平南路941号(近龙华西路)"},{"poiid":"B2094654DA6EA1F94392","title":"徐汇区盛大文化艺术进修学校","lon":"121.45345","lat":"31.17623","category":"53","category_name":"成人教育","address":"龙华路2588"},{"poiid":"B2094654DA6DA7F8479B","title":"枫林街道社区卫生服务中心","lon":"121.4493","lat":"31.18004","category":"162","category_name":"医院","address":"徐汇区双峰路450号(近中山南二路)"},{"poiid":"B2094654DA6DAAFC409E","title":"上海晟豪机动车驾驶员培训有限公司","lon":"121.45805","lat":"31.17028","category":"192","category_name":"驾校","address":"机场东一路1"},{"poiid":"B2094654DA6EA1F9439D","title":"龙华花鸟市场","lon":"121.45333","lat":"31.1754","category":"117","category_name":"便民商店/便利店","address":"龙华路2780"},{"poiid":"B2094654DA6EA1F94292","title":"快客(龙华路)","lon":"121.45283","lat":"31.17458","category":"117","category_name":"便民商店/便利店","address":"龙华路2806、2810"},{"poiid":"B2094757D66FA1F4449E","title":"玖宫阁重庆老灶","lon":"121.454570586","lat":"31.1753673586","category":"500","category_name":"未知分类","address":"上海新会路48号"},{"poiid":"B2094654DA6EA1F9429C","title":"好德No.380","lon":"121.45278","lat":"31.17443","category":"117","category_name":"便民商店/便利店","address":"龙华路2816"},{"poiid":"B2094757D16AA7FF479C","title":"movie time","lon":"121.45546073","lat":"31.178625201","category":"500","category_name":"未知分类","address":"上海市徐汇区华容路"},{"poiid":"B2094654DB6BA5F5469D","title":"龙华苑","lon":"121.458","lat":"31.1738","category":"47","category_name":"住宅区","address":"龙华机场新村34-61号"},{"poiid":"B2094757D069A0FC479C","title":"百匯園","lon":"121.45893307","lat":"31.17263744","category":"500","category_name":"未知分类","address":"上海市卢湾区济南路8号"},{"poiid":"B2094757D068A4FD4592","title":"上海飞机设计研究院","lon":"121.457473516","lat":"31.1714706279","category":"191","category_name":"科研机构","address":"上海云锦路5号"},{"poiid":"B2094757D66CAAFD4392","title":"长江源牛肉面","lon":"121.452916586","lat":"31.1792574346","category":"247","category_name":"餐饮美食","address":"上海龙华路2510号格林豪泰酒店对面"},{"poiid":"B2094654DA6DA7FC439C","title":"龙华寺","lon":"121.45126274222366","lat":"31.17265835484479","category":"244","category_name":"寺庙道观","address":"上海市徐汇区龙华路2853号"},{"poiid":"B2094757D069A6FB459F","title":"龙腾大道","lon":"121.45933573","lat":"31.175346131","category":"500","category_name":"未知分类","address":"上海龙腾大道"},{"poiid":"B2094757D06FA1FA469A","title":"龙华烈士陵园","lon":"121.44877","lat":"31.17546","category":"620","category_name":"丧葬","address":"徐汇区龙华西路180号(近龙华路)"},{"poiid":"B2094654DA6DAAFC4193","title":"中国民用航空学院职业技术学院","lon":"121.45514","lat":"31.17076","category":"54","category_name":"职业技术学校","address":""},{"poiid":"B2094757D66DA6FB459A","title":"天华科技信息园","lon":"121.45","lat":"31.1771","category":"500","category_name":"未知分类","address":"上海市徐汇区漕东支路"},{"poiid":"B2094757D068A0FF469B","title":"人道素菜欢喜斋 Jen Dow","lon":"121.4528386878","lat":"31.174444613162","category":"89","category_name":"中式素餐馆","address":"徐汇区龙华路2787号龙华迎宾馆内(近龙华寺)"},{"poiid":"B2094654DA6DA7FE4292","title":"2577创意大院","lon":"121.45108","lat":"31.17846","category":"45","category_name":"产业园区","address":"徐汇区龙华路2577号(近龙华寺)"},{"poiid":"B2094654DA6DA4F9419C","title":"尚海湾豪庭","lon":"121.45771","lat":"31.178894","category":"47","category_name":"住宅区","address":"徐汇区宛平南路1455弄"},{"poiid":"B2094757D06FA1FA4893","title":"盛大花园","lon":"121.45329","lat":"31.179134","category":"47","category_name":"住宅区","address":"上海市徐汇区龙华路2518弄"},{"poiid":"B2094757D06FABF9439D","title":"上海民航中专","lon":"121.45486666","lat":"31.170237367","category":"253","category_name":"校园生活","address":"上海龙华西路1号"},{"poiid":"B2094757D068A7FC459C","title":"粤珍轩(龙华店)","lon":"121.45162","lat":"31.17831","category":"72","category_name":"广东菜","address":"徐汇区龙华路2577号创意大院内(近龙华寺)"},{"poiid":"B2094757D069A3FD439F","title":"龙兆苑","lon":"121.453078","lat":"31.177168","category":"47","category_name":"住宅区","address":"上海市浦东新区上南路3500弄"},{"poiid":"B2094751DA6BA2F4499C","title":"美丽岛意大利餐厅","lon":"121.459256540038","lat":"31.18285984269632","category":"247","category_name":"餐饮美食","address":"徐汇区龙腾大道3222号(东安路口)"},{"poiid":"B2094757D66DA1F4499A","title":"龙华寺斋堂","lon":"121.451551586","lat":"31.1751613546","category":"500","category_name":"未知分类","address":"上海龙华寺内"},{"poiid":"B2094654DA6DABF54493","title":"俞一小区","lon":"121.458","lat":"31.1762","category":"47","category_name":"住宅区","address":"龙华西路31弄"},{"poiid":"B2094655D36CA1F84399","title":"龙华西路","lon":"121.45296","lat":"31.17074","category":"38","category_name":"公交车站","address":""},{"poiid":"B2094654DA6DAAFC419A","title":"华龙新苑小区","lon":"121.45664","lat":"31.17359","category":"47","category_name":"住宅区","address":"上海徐汇区云锦路50弄"},{"poiid":"B2094757D068A4FC4399","title":"越乡小吃","lon":"121.452414","lat":"31.170483","category":"68","category_name":"快餐厅","address":"徐汇区龙华西路31弄(近龙华西路桥)"},{"poiid":"B2094654DA6EA1F9489B","title":"盛大花园(2号门)","lon":"121.455","lat":"31.17938","category":"47","category_name":"住宅区","address":"宛平南路1408"},{"poiid":"B2094750D565A2FE4692","title":"上海民航职业技术学院","lon":"121.457061","lat":"31.17053","category":"671","category_name":"高校中心点","address":"上海市徐汇区龙华西路1号"},{"poiid":"B2094654DB6BA4FE429F","title":"龙华西路81弄小区","lon":"121.458","lat":"31.178","category":"47","category_name":"住宅区","address":"龙华西路81弄41-66号,70-92号"},{"poiid":"B2094757D16DA4FE4593","title":"创意大院","lon":"121.451709036","lat":"31.1786601229","category":"500","category_name":"未知分类","address":"丰台学城海鹰路1号，3号"},{"poiid":"B2094757D66BA6FB499D","title":"富于餐厅","lon":"121.451868054","lat":"31.178990793","category":"76","category_name":"上海菜","address":"徐汇区龙华路2577号创意大院(近双峰路)"},{"poiid":"B2094757D065A3F54198","title":"尚海湾","lon":"121.45691","lat":"31.177977","category":"500","category_name":"未知分类","address":"上海宛平南路1441号13"},{"poiid":"B2094655D265ABFE4392","title":"倚卿酒家","lon":"121.450018054","lat":"31.180057793","category":"76","category_name":"上海菜","address":"徐汇区华容路65号(近龙华路)"},{"poiid":"B2094654DA6DAAFC4192","title":"中国交通职业技术学院南校区","lon":"121.45514","lat":"31.17075","category":"54","category_name":"职业技术学校","address":""},{"poiid":"B2094757D064A3F54893","title":"盛大花园小学","lon":"121.453453","lat":"31.176239","category":"500","category_name":"未知分类","address":"徐汇区龙华路2588号(近龙华寺)"},{"poiid":"B2094757D06BA7FE409F","title":"全家便利(龙华店)","lon":"121.453078777","lat":"31.1767218357","category":"117","category_name":"便民商店/便利店","address":"上海徐汇区龙华路2584号  "},{"poiid":"B2094655D26AAAFC499E","title":"无形艺术陶艺中心","lon":"121.45136","lat":"31.17862","category":"87","category_name":"特色／地方风味餐厅","address":"徐汇区龙华路2577号创意大院12号(近龙华寺)"},{"poiid":"B2094757D069ABFA4698","title":"龙华人家","lon":"121.45276","lat":"31.17075","category":"68","category_name":"快餐厅","address":"徐汇区龙华西路31弄7号甲(近龙华西路桥)"},{"poiid":"B2094654DA6EA1F9449A","title":"盛大花园(3号门)","lon":"121.45319","lat":"31.17657","category":"47","category_name":"住宅区","address":"龙华镇"},{"poiid":"B2094757D568ABF4409A","title":"狼烧烤","lon":"121.4522619","lat":"31.17918306","category":"68","category_name":"快餐厅","address":"徐汇区龙华路2500号小吃街C12号(近龙华寺)"},{"poiid":"B2094757D16DA6FE4793","title":"宛平医院","lon":"121.449437","lat":"31.180191","category":"162","category_name":"医院","address":"上海双峰路446号"},{"poiid":"B2094654DA6EA1F9449F","title":"上海恺悦口腔门诊部","lon":"121.453","lat":"31.17715","category":"162","category_name":"医院","address":"徐汇区龙华路2546号(近龙华寺)"},{"poiid":"B2094757D165A7F44199","title":"联华超市(宛平南路店)","lon":"121.455262","lat":"31.178972","category":"118","category_name":"超级市场","address":"徐汇区宛平南路(近中山南二路)"},{"poiid":"B2094655D269AAFC4693","title":"格林豪泰酒店龙华店","lon":"121.45178","lat":"31.17891","category":"247","category_name":"餐饮美食","address":"徐汇区龙华路2555号(近龙华寺)"},{"poiid":"B2094655D26BA7F9449B","title":"龙华文化站电影厅","lon":"121.45315","lat":"31.17482","category":"178","category_name":"电影院","address":"龙华路2796号"},{"poiid":"B2094757D06FAAF54499","title":"JEANS日韩店(京世龙华店)","lon":"121.452429","lat":"31.183131","category":"148","category_name":"美容美发店","address":"上海徐汇区宛平南路941号(近龙华西路)"},{"poiid":"B2094654DA6EA1F94392","title":"徐汇区盛大文化艺术进修学校","lon":"121.45345","lat":"31.17623","category":"53","category_name":"成人教育","address":"龙华路2588"},{"poiid":"B2094654DA6DA7F8479B","title":"枫林街道社区卫生服务中心","lon":"121.4493","lat":"31.18004","category":"162","category_name":"医院","address":"徐汇区双峰路450号(近中山南二路)"},{"poiid":"B2094654DA6DAAFC409E","title":"上海晟豪机动车驾驶员培训有限公司","lon":"121.45805","lat":"31.17028","category":"192","category_name":"驾校","address":"机场东一路1"},{"poiid":"B2094654DA6EA1F9439D","title":"龙华花鸟市场","lon":"121.45333","lat":"31.1754","category":"117","category_name":"便民商店/便利店","address":"龙华路2780"},{"poiid":"B2094654DA6EA1F94292","title":"快客(龙华路)","lon":"121.45283","lat":"31.17458","category":"117","category_name":"便民商店/便利店","address":"龙华路2806、2810"},{"poiid":"B2094757D66FA1F4449E","title":"玖宫阁重庆老灶","lon":"121.454570586","lat":"31.1753673586","category":"500","category_name":"未知分类","address":"上海新会路48号"},{"poiid":"B2094654DA6EA1F9429C","title":"好德No.380","lon":"121.45278","lat":"31.17443","category":"117","category_name":"便民商店/便利店","address":"龙华路2816"},{"poiid":"B2094757D16AA7FF479C","title":"movie time","lon":"121.45546073","lat":"31.178625201","category":"500","category_name":"未知分类","address":"上海市徐汇区华容路"},{"poiid":"B2094654DB6BA5F5469D","title":"龙华苑","lon":"121.458","lat":"31.1738","category":"47","category_name":"住宅区","address":"龙华机场新村34-61号"},{"poiid":"B2094757D069A0FC479C","title":"百匯園","lon":"121.45893307","lat":"31.17263744","category":"500","category_name":"未知分类","address":"上海市卢湾区济南路8号"},{"poiid":"B2094757D068A4FD4592","title":"上海飞机设计研究院","lon":"121.457473516","lat":"31.1714706279","category":"191","category_name":"科研机构","address":"上海云锦路5号"},{"poiid":"B2094757D66CAAFD4392","title":"长江源牛肉面","lon":"121.452916586","lat":"31.1792574346","category":"247","category_name":"餐饮美食","address":"上海龙华路2510号格林豪泰酒店对面"}]