[{"poiid":"B2094654DB6AA7FC4999","title":"唐宫(维景店)","lon":"121.43456","lat":"31.21748","category":"72","category_name":"广东菜","address":"长宁区东诸安浜路103号维景酒店公寓1-2楼(近江苏路)"},{"poiid":"B2094757D06FA3F5419D","title":"江苏路延安西路","lon":"121.43364002","lat":"31.214805118","category":"500","category_name":"未知分类","address":"上海江苏路延安西路"},{"poiid":"B2094757D568A0FF409D","title":"上海日航饭店","lon":"121.43714247","lat":"31.21759304","category":"213","category_name":"五星级宾馆","address":"长宁区延安西路488号(近镇宁路)"},{"poiid":"B2094753D76FAAFA449C","title":"上海滩国泰旗舰店","lon":"121.466011","lat":"31.216125","category":"249","category_name":"购物服务","address":"淮海中路868号"},{"poiid":"B209475CD564A7F8439E","title":"上海滩中信泰富店","lon":"121.45602","lat":"31.22851","category":"119","category_name":"商场","address":"\"南京西路1168号中信泰富广场，店铺号221.\r\n\""},{"poiid":"B2094757D06FA2F4469A","title":"衡山小馆(延安西路店)","lon":"121.43464","lat":"31.21412","category":"72","category_name":"广东菜","address":"长宁区延安西路719号佳都大厦底楼(近江苏路)"},{"poiid":"B2094750DB6AA5F4419E","title":"MOJITO HEAVEN","lon":"121.435333","lat":"31.213684","category":"260","category_name":"其他","address":"长宁区昭化东路130号(曹家堰路口)"},{"poiid":"B2094757D068A0FA479B","title":"万宝国际广场","lon":"121.436314872","lat":"31.2171246785","category":"46","category_name":"楼宇","address":"其他区徐州铜山新区北京路,长江路口"},{"poiid":"B2094654D564A5F5469E","title":"上海美华妇科门诊部","lon":"121.43883","lat":"31.21443","category":"162","category_name":"医院","address":"华山路800弄6号丁香公寓裙楼3层"},{"poiid":"B2094654D564A6FC499E","title":"嘉利大厦","lon":"121.434","lat":"31.2162","category":"46","category_name":"楼宇","address":"上海市黄浦区南京东路409-459号"},{"poiid":"B2094757D568A0F84993","title":"吉惠日本料理","lon":"121.435005","lat":"31.216121","category":"95","category_name":"日本料理","address":"延安西路626号华敏世纪广场近江苏路"},{"poiid":"B2094655D264A4FC4598","title":"COSTA(九尊店)","lon":"121.43842","lat":"31.21434","category":"65","category_name":"咖啡厅","address":"长宁区镇宁路9号(近华山路)"},{"poiid":"B2094757D065A6F9469A","title":"枫寿司","lon":"121.435411586","lat":"31.216269158","category":"95","category_name":"日本料理","address":"长宁区延安西路640号(近江苏路)"},{"poiid":"B2094757D06FA1FE409D","title":"维景酒店公寓","lon":"121.43472","lat":"31.21783","category":"215","category_name":"三星级宾馆","address":"上海长宁区东诸安浜路103号（靠近江苏路、延安西路）"},{"poiid":"B2094655D26FA0FA439C","title":"圆明讲堂(延安西路)","lon":"121.43772","lat":"31.21771","category":"250","category_name":"公园户外","address":"延安西路458"},{"poiid":"B2094757D06EAAFA499E","title":"地铁十一号线","lon":"121.43346","lat":"31.21548","category":"36","category_name":"地铁站","address":"上海嘉定 - 江苏路 轨道交通十一号线 轨交 11 "},{"poiid":"B2094757D064A6F84698","title":"朋朋烘焙体验馆(延安西路店)","lon":"121.433578","lat":"31.21486473","category":"67","category_name":"甜品店","address":"长宁区延安西路634号(近江苏路)"},{"poiid":"B2094757D568AAF54699","title":"上海戏剧学院综合楼","lon":"121.4391253","lat":"31.21630073","category":"52","category_name":"高等院校","address":"上海长宁区法华镇路535号上海交通大学法华校区"},{"poiid":"B2094757D068A5FC4499","title":"摩提工坊(美罗城店)","lon":"121.43634525","lat":"31.215673174","category":"67","category_name":"甜品店","address":"徐汇区肇嘉浜路1111号美罗城B1楼(近漕溪北路)"},{"poiid":"B2094750D364A5FD479F","title":"上海美华妇儿服务","lon":"121.4388464368","lat":"31.214662099037","category":"162","category_name":"医院","address":"华山路800弄丁香公寓6号裙楼3楼"},{"poiid":"B2094757D16EA0F5459A","title":"康骏会馆","lon":"121.438498586","lat":"31.2148031293","category":"500","category_name":"未知分类","address":"长宁区镇宁路9号九尊大厦3楼AF(长乐路镇宁路)"},{"poiid":"B2094750DA68A5FB449B","title":"上海恒隆广场","lon":"121.437088","lat":"31.215415","category":"500","category_name":"未知分类","address":null},{"poiid":"B2094654D564A4FD429B","title":"上海市延安初级中学","lon":"121.43571","lat":"31.2151","category":"55","category_name":"中学","address":"长宁区延安西路601号"},{"poiid":"B2094757D469A7F4489E","title":"锦阁","lon":"121.436285","lat":"31.216973","category":"72","category_name":"广东菜","address":"静安区延安西路488号上海日航饭店3楼(镇宁路口)"},{"poiid":"B2094751D56EA3FB419D","title":"崇明私房菜(延安西路店)","lon":"121.43684","lat":"31.2169","category":"76","category_name":"上海菜","address":"长宁区延安西路500号万宝国际广场3楼(近镇宁路)"},{"poiid":"B2094757DB6FA2F8469A","title":"小舍甜品","lon":"121.435634","lat":"31.216909","category":"247","category_name":"餐饮美食","address":"静安区长乐路1238-1号(近镇宁路)"},{"poiid":"B2094655D264A7F5499B","title":"小音符麻辣烫","lon":"121.43682","lat":"31.21458","category":"68","category_name":"快餐厅","address":"长宁区昭化东路88号(近延安西路)"},{"poiid":"B2094655D26EA7FA4099","title":"玉嘉大厦","lon":"121.439","lat":"31.215","category":"46","category_name":"楼宇","address":"昌平区回龙观镇国际信息产业基地高新二街"},{"poiid":"B209475DD16BA0F5469C","title":"星伯爵BreadStar","lon":"121.436424","lat":"31.216005","category":"247","category_name":"餐饮美食","address":"江蘇路399號"},{"poiid":"B2094757D16EA6F5409D","title":"上海市出入境服务中心","lon":"121.43738191","lat":"31.215088314","category":"46","category_name":"楼宇","address":"上海市延安西路129号华侨大厦2楼"},{"poiid":"B2094757D16FA5F44499","title":"DQ冰雪皇后新天地店","lon":"121.436532186","lat":"31.2150631344","category":"500","category_name":"未知分类","address":"上海马当路245号"},{"poiid":"B2094655D268A7F9409E","title":"新海小区","lon":"121.43545","lat":"31.21455","category":"47","category_name":"住宅区","address":"延安西路649弄25-140号"},{"poiid":"B2094751DA6EAAF8479C","title":"江边城外","lon":"121.435379","lat":"31.21521","category":"247","category_name":"餐饮美食","address":"南京西路"},{"poiid":"B2094654D565A0FE409A","title":"华敏世纪广场","lon":"121.43464","lat":"31.216885","category":"47","category_name":"住宅区","address":"上海市长宁区延安西路688弄"},{"poiid":"B2094757D66DA1FD439E","title":"功夫粥吧","lon":"121.434800686","lat":"31.2156456458","category":"68","category_name":"快餐厅","address":"长宁区延安西路676号(近江苏路)"},{"poiid":"B2094654D564A5F5499F","title":"快客(昭化东路)","lon":"121.43669","lat":"31.2145","category":"117","category_name":"便民商店/便利店","address":"昭化东路88丙临"},{"poiid":"B2094757D16EABFB489D","title":"Armani Casa(达芬奇家居店)","lon":"121.43614","lat":"31.21513","category":"500","category_name":"未知分类","address":"上海静安区延安西路433号达芬奇家居  "},{"poiid":"B2094757D068A4FF409B","title":"丁香公寓","lon":"121.43855","lat":"31.214016","category":"47","category_name":"住宅区","address":"丁香公寓位于长宁华山路800弄6号"},{"poiid":"B2094757D16FA0FA4893","title":"李阿姨老饭店","lon":"121.43692758","lat":"31.214725127","category":"247","category_name":"餐饮美食","address":"上海市长宁区昭化东路"},{"poiid":"B2094757D165ABFD449C","title":"521新派视觉","lon":"121.436191586","lat":"31.215299139","category":"500","category_name":"未知分类","address":"长宁区愚园路1221弄御华名苑1号201室(近安西路)查看地图"},{"poiid":"B2094750DB6EA4FB459D","title":"东方剑桥-御庭苑","lon":"121.437774","lat":"31.215299","category":"47","category_name":"住宅区","address":"上海市长宁区镇宁路55号"},{"poiid":"B2094654DB6BA7F5449D","title":"上海书画出版社(延安西路)","lon":"121.43615","lat":"31.21599","category":"63","category_name":"出版社","address":"延安西路593"},{"poiid":"B2094751D465A1F84599","title":"cozy wine Bar&Bistro","lon":"121.436364","lat":"31.213477","category":"247","category_name":"餐饮美食","address":"徐匯區武康路97號（五原路口）"},{"poiid":"B2094757D168A3FD499B","title":"71路延安西路镇宁路","lon":"121.437205736","lat":"31.2159841524","category":"38","category_name":"公交车站","address":"上海延安西路镇宁路"},{"poiid":"B2094654D564A5F54693","title":"九尊大厦","lon":"121.43853","lat":"31.2149","category":"46","category_name":"楼宇","address":"上海市长宁区镇宁路9号"},{"poiid":"B209475CD664A3F9459E","title":"Sunflour-阳光粮品安福路店","lon":"121.436569","lat":"31.214717","category":"500","category_name":"未知分类","address":"上海市 上海市徐汇区安福路308号"},{"poiid":"B2094654D564A5F54992","title":"上海市东延安中学","lon":"121.43614","lat":"31.21424","category":"55","category_name":"中学","address":"昭化东路96临"},{"poiid":"B2094654D564A4FD4193","title":"上海文艺出版总社","lon":"121.43615","lat":"31.21599","category":"63","category_name":"出版社","address":"延安西路593"},{"poiid":"B2094654D564A4FC489F","title":"AIA友邦保险大厦","lon":"121.43446","lat":"31.21363","category":"46","category_name":"楼宇","address":"曹家堰路88"},{"poiid":"B2094752D16BA2F94593","title":"瑞金医院","lon":"121.436418","lat":"31.216772","category":"162","category_name":"医院","address":null},{"poiid":"B2094654DB6AA7FC4999","title":"唐宫(维景店)","lon":"121.43456","lat":"31.21748","category":"72","category_name":"广东菜","address":"长宁区东诸安浜路103号维景酒店公寓1-2楼(近江苏路)"},{"poiid":"B2094757D06FA3F5419D","title":"江苏路延安西路","lon":"121.43364002","lat":"31.214805118","category":"500","category_name":"未知分类","address":"上海江苏路延安西路"},{"poiid":"B2094757D568A0FF409D","title":"上海日航饭店","lon":"121.43714247","lat":"31.21759304","category":"213","category_name":"五星级宾馆","address":"长宁区延安西路488号(近镇宁路)"},{"poiid":"B2094753D76FAAFA449C","title":"上海滩国泰旗舰店","lon":"121.466011","lat":"31.216125","category":"249","category_name":"购物服务","address":"淮海中路868号"},{"poiid":"B209475CD564A7F8439E","title":"上海滩中信泰富店","lon":"121.45602","lat":"31.22851","category":"119","category_name":"商场","address":"\"南京西路1168号中信泰富广场，店铺号221.\r\n\""},{"poiid":"B2094757D06FA2F4469A","title":"衡山小馆(延安西路店)","lon":"121.43464","lat":"31.21412","category":"72","category_name":"广东菜","address":"长宁区延安西路719号佳都大厦底楼(近江苏路)"},{"poiid":"B2094750DB6AA5F4419E","title":"MOJITO HEAVEN","lon":"121.435333","lat":"31.213684","category":"260","category_name":"其他","address":"长宁区昭化东路130号(曹家堰路口)"},{"poiid":"B2094757D068A0FA479B","title":"万宝国际广场","lon":"121.436314872","lat":"31.2171246785","category":"46","category_name":"楼宇","address":"其他区徐州铜山新区北京路,长江路口"},{"poiid":"B2094654D564A5F5469E","title":"上海美华妇科门诊部","lon":"121.43883","lat":"31.21443","category":"162","category_name":"医院","address":"华山路800弄6号丁香公寓裙楼3层"},{"poiid":"B2094654D564A6FC499E","title":"嘉利大厦","lon":"121.434","lat":"31.2162","category":"46","category_name":"楼宇","address":"上海市黄浦区南京东路409-459号"},{"poiid":"B2094757D568A0F84993","title":"吉惠日本料理","lon":"121.435005","lat":"31.216121","category":"95","category_name":"日本料理","address":"延安西路626号华敏世纪广场近江苏路"},{"poiid":"B2094655D264A4FC4598","title":"COSTA(九尊店)","lon":"121.43842","lat":"31.21434","category":"65","category_name":"咖啡厅","address":"长宁区镇宁路9号(近华山路)"},{"poiid":"B2094757D065A6F9469A","title":"枫寿司","lon":"121.435411586","lat":"31.216269158","category":"95","category_name":"日本料理","address":"长宁区延安西路640号(近江苏路)"},{"poiid":"B2094757D06FA1FE409D","title":"维景酒店公寓","lon":"121.43472","lat":"31.21783","category":"215","category_name":"三星级宾馆","address":"上海长宁区东诸安浜路103号（靠近江苏路、延安西路）"},{"poiid":"B2094655D26FA0FA439C","title":"圆明讲堂(延安西路)","lon":"121.43772","lat":"31.21771","category":"250","category_name":"公园户外","address":"延安西路458"},{"poiid":"B2094757D06EAAFA499E","title":"地铁十一号线","lon":"121.43346","lat":"31.21548","category":"36","category_name":"地铁站","address":"上海嘉定 - 江苏路 轨道交通十一号线 轨交 11 "},{"poiid":"B2094757D064A6F84698","title":"朋朋烘焙体验馆(延安西路店)","lon":"121.433578","lat":"31.21486473","category":"67","category_name":"甜品店","address":"长宁区延安西路634号(近江苏路)"},{"poiid":"B2094757D568AAF54699","title":"上海戏剧学院综合楼","lon":"121.4391253","lat":"31.21630073","category":"52","category_name":"高等院校","address":"上海长宁区法华镇路535号上海交通大学法华校区"},{"poiid":"B2094757D068A5FC4499","title":"摩提工坊(美罗城店)","lon":"121.43634525","lat":"31.215673174","category":"67","category_name":"甜品店","address":"徐汇区肇嘉浜路1111号美罗城B1楼(近漕溪北路)"},{"poiid":"B2094750D364A5FD479F","title":"上海美华妇儿服务","lon":"121.4388464368","lat":"31.214662099037","category":"162","category_name":"医院","address":"华山路800弄丁香公寓6号裙楼3楼"},{"poiid":"B2094757D16EA0F5459A","title":"康骏会馆","lon":"121.438498586","lat":"31.2148031293","category":"500","category_name":"未知分类","address":"长宁区镇宁路9号九尊大厦3楼AF(长乐路镇宁路)"},{"poiid":"B2094750DA68A5FB449B","title":"上海恒隆广场","lon":"121.437088","lat":"31.215415","category":"500","category_name":"未知分类","address":null},{"poiid":"B2094654D564A4FD429B","title":"上海市延安初级中学","lon":"121.43571","lat":"31.2151","category":"55","category_name":"中学","address":"长宁区延安西路601号"},{"poiid":"B2094757D469A7F4489E","title":"锦阁","lon":"121.436285","lat":"31.216973","category":"72","category_name":"广东菜","address":"静安区延安西路488号上海日航饭店3楼(镇宁路口)"},{"poiid":"B2094751D56EA3FB419D","title":"崇明私房菜(延安西路店)","lon":"121.43684","lat":"31.2169","category":"76","category_name":"上海菜","address":"长宁区延安西路500号万宝国际广场3楼(近镇宁路)"},{"poiid":"B2094757DB6FA2F8469A","title":"小舍甜品","lon":"121.435634","lat":"31.216909","category":"247","category_name":"餐饮美食","address":"静安区长乐路1238-1号(近镇宁路)"},{"poiid":"B2094655D264A7F5499B","title":"小音符麻辣烫","lon":"121.43682","lat":"31.21458","category":"68","category_name":"快餐厅","address":"长宁区昭化东路88号(近延安西路)"},{"poiid":"B2094655D26EA7FA4099","title":"玉嘉大厦","lon":"121.439","lat":"31.215","category":"46","category_name":"楼宇","address":"昌平区回龙观镇国际信息产业基地高新二街"},{"poiid":"B209475DD16BA0F5469C","title":"星伯爵BreadStar","lon":"121.436424","lat":"31.216005","category":"247","category_name":"餐饮美食","address":"江蘇路399號"},{"poiid":"B2094757D16EA6F5409D","title":"上海市出入境服务中心","lon":"121.43738191","lat":"31.215088314","category":"46","category_name":"楼宇","address":"上海市延安西路129号华侨大厦2楼"},{"poiid":"B2094757D16FA5F44499","title":"DQ冰雪皇后新天地店","lon":"121.436532186","lat":"31.2150631344","category":"500","category_name":"未知分类","address":"上海马当路245号"},{"poiid":"B2094655D268A7F9409E","title":"新海小区","lon":"121.43545","lat":"31.21455","category":"47","category_name":"住宅区","address":"延安西路649弄25-140号"},{"poiid":"B2094751DA6EAAF8479C","title":"江边城外","lon":"121.435379","lat":"31.21521","category":"247","category_name":"餐饮美食","address":"南京西路"},{"poiid":"B2094654D565A0FE409A","title":"华敏世纪广场","lon":"121.43464","lat":"31.216885","category":"47","category_name":"住宅区","address":"上海市长宁区延安西路688弄"},{"poiid":"B2094757D66DA1FD439E","title":"功夫粥吧","lon":"121.434800686","lat":"31.2156456458","category":"68","category_name":"快餐厅","address":"长宁区延安西路676号(近江苏路)"},{"poiid":"B2094654D564A5F5499F","title":"快客(昭化东路)","lon":"121.43669","lat":"31.2145","category":"117","category_name":"便民商店/便利店","address":"昭化东路88丙临"},{"poiid":"B2094757D16EABFB489D","title":"Armani Casa(达芬奇家居店)","lon":"121.43614","lat":"31.21513","category":"500","category_name":"未知分类","address":"上海静安区延安西路433号达芬奇家居  "},{"poiid":"B2094757D068A4FF409B","title":"丁香公寓","lon":"121.43855","lat":"31.214016","category":"47","category_name":"住宅区","address":"丁香公寓位于长宁华山路800弄6号"},{"poiid":"B2094757D16FA0FA4893","title":"李阿姨老饭店","lon":"121.43692758","lat":"31.214725127","category":"247","category_name":"餐饮美食","address":"上海市长宁区昭化东路"},{"poiid":"B2094757D165ABFD449C","title":"521新派视觉","lon":"121.436191586","lat":"31.215299139","category":"500","category_name":"未知分类","address":"长宁区愚园路1221弄御华名苑1号201室(近安西路)查看地图"},{"poiid":"B2094750DB6EA4FB459D","title":"东方剑桥-御庭苑","lon":"121.437774","lat":"31.215299","category":"47","category_name":"住宅区","address":"上海市长宁区镇宁路55号"},{"poiid":"B2094654DB6BA7F5449D","title":"上海书画出版社(延安西路)","lon":"121.43615","lat":"31.21599","category":"63","category_name":"出版社","address":"延安西路593"},{"poiid":"B2094751D465A1F84599","title":"cozy wine Bar&Bistro","lon":"121.436364","lat":"31.213477","category":"247","category_name":"餐饮美食","address":"徐匯區武康路97號（五原路口）"},{"poiid":"B2094757D168A3FD499B","title":"71路延安西路镇宁路","lon":"121.437205736","lat":"31.2159841524","category":"38","category_name":"公交车站","address":"上海延安西路镇宁路"},{"poiid":"B2094654D564A5F54693","title":"九尊大厦","lon":"121.43853","lat":"31.2149","category":"46","category_name":"楼宇","address":"上海市长宁区镇宁路9号"},{"poiid":"B209475CD664A3F9459E","title":"Sunflour-阳光粮品安福路店","lon":"121.436569","lat":"31.214717","category":"500","category_name":"未知分类","address":"上海市 上海市徐汇区安福路308号"},{"poiid":"B2094654D564A5F54992","title":"上海市东延安中学","lon":"121.43614","lat":"31.21424","category":"55","category_name":"中学","address":"昭化东路96临"},{"poiid":"B2094654D564A4FD4193","title":"上海文艺出版总社","lon":"121.43615","lat":"31.21599","category":"63","category_name":"出版社","address":"延安西路593"},{"poiid":"B2094654D564A4FC489F","title":"AIA友邦保险大厦","lon":"121.43446","lat":"31.21363","category":"46","category_name":"楼宇","address":"曹家堰路88"},{"poiid":"B2094752D16BA2F94593","title":"瑞金医院","lon":"121.436418","lat":"31.216772","category":"162","category_name":"医院","address":null},{"poiid":"B2094654DB6AA7FC4999","title":"唐宫(维景店)","lon":"121.43456","lat":"31.21748","category":"72","category_name":"广东菜","address":"长宁区东诸安浜路103号维景酒店公寓1-2楼(近江苏路)"},{"poiid":"B2094757D06FA3F5419D","title":"江苏路延安西路","lon":"121.43364002","lat":"31.214805118","category":"500","category_name":"未知分类","address":"上海江苏路延安西路"},{"poiid":"B2094757D568A0FF409D","title":"上海日航饭店","lon":"121.43714247","lat":"31.21759304","category":"213","category_name":"五星级宾馆","address":"长宁区延安西路488号(近镇宁路)"},{"poiid":"B2094753D76FAAFA449C","title":"上海滩国泰旗舰店","lon":"121.466011","lat":"31.216125","category":"249","category_name":"购物服务","address":"淮海中路868号"},{"poiid":"B209475CD564A7F8439E","title":"上海滩中信泰富店","lon":"121.45602","lat":"31.22851","category":"119","category_name":"商场","address":"\"南京西路1168号中信泰富广场，店铺号221.\r\n\""},{"poiid":"B2094757D06FA2F4469A","title":"衡山小馆(延安西路店)","lon":"121.43464","lat":"31.21412","category":"72","category_name":"广东菜","address":"长宁区延安西路719号佳都大厦底楼(近江苏路)"},{"poiid":"B2094750DB6AA5F4419E","title":"MOJITO HEAVEN","lon":"121.435333","lat":"31.213684","category":"260","category_name":"其他","address":"长宁区昭化东路130号(曹家堰路口)"},{"poiid":"B2094757D068A0FA479B","title":"万宝国际广场","lon":"121.436314872","lat":"31.2171246785","category":"46","category_name":"楼宇","address":"其他区徐州铜山新区北京路,长江路口"},{"poiid":"B2094654D564A5F5469E","title":"上海美华妇科门诊部","lon":"121.43883","lat":"31.21443","category":"162","category_name":"医院","address":"华山路800弄6号丁香公寓裙楼3层"},{"poiid":"B2094654D564A6FC499E","title":"嘉利大厦","lon":"121.434","lat":"31.2162","category":"46","category_name":"楼宇","address":"上海市黄浦区南京东路409-459号"},{"poiid":"B2094757D568A0F84993","title":"吉惠日本料理","lon":"121.435005","lat":"31.216121","category":"95","category_name":"日本料理","address":"延安西路626号华敏世纪广场近江苏路"},{"poiid":"B2094655D264A4FC4598","title":"COSTA(九尊店)","lon":"121.43842","lat":"31.21434","category":"65","category_name":"咖啡厅","address":"长宁区镇宁路9号(近华山路)"},{"poiid":"B2094757D065A6F9469A","title":"枫寿司","lon":"121.435411586","lat":"31.216269158","category":"95","category_name":"日本料理","address":"长宁区延安西路640号(近江苏路)"},{"poiid":"B2094757D06FA1FE409D","title":"维景酒店公寓","lon":"121.43472","lat":"31.21783","category":"215","category_name":"三星级宾馆","address":"上海长宁区东诸安浜路103号（靠近江苏路、延安西路）"},{"poiid":"B2094655D26FA0FA439C","title":"圆明讲堂(延安西路)","lon":"121.43772","lat":"31.21771","category":"250","category_name":"公园户外","address":"延安西路458"},{"poiid":"B2094757D06EAAFA499E","title":"地铁十一号线","lon":"121.43346","lat":"31.21548","category":"36","category_name":"地铁站","address":"上海嘉定 - 江苏路 轨道交通十一号线 轨交 11 "},{"poiid":"B2094757D064A6F84698","title":"朋朋烘焙体验馆(延安西路店)","lon":"121.433578","lat":"31.21486473","category":"67","category_name":"甜品店","address":"长宁区延安西路634号(近江苏路)"},{"poiid":"B2094757D568AAF54699","title":"上海戏剧学院综合楼","lon":"121.4391253","lat":"31.21630073","category":"52","category_name":"高等院校","address":"上海长宁区法华镇路535号上海交通大学法华校区"},{"poiid":"B2094757D068A5FC4499","title":"摩提工坊(美罗城店)","lon":"121.43634525","lat":"31.215673174","category":"67","category_name":"甜品店","address":"徐汇区肇嘉浜路1111号美罗城B1楼(近漕溪北路)"},{"poiid":"B2094750D364A5FD479F","title":"上海美华妇儿服务","lon":"121.4388464368","lat":"31.214662099037","category":"162","category_name":"医院","address":"华山路800弄丁香公寓6号裙楼3楼"},{"poiid":"B2094757D16EA0F5459A","title":"康骏会馆","lon":"121.438498586","lat":"31.2148031293","category":"500","category_name":"未知分类","address":"长宁区镇宁路9号九尊大厦3楼AF(长乐路镇宁路)"},{"poiid":"B2094750DA68A5FB449B","title":"上海恒隆广场","lon":"121.437088","lat":"31.215415","category":"500","category_name":"未知分类","address":null},{"poiid":"B2094654D564A4FD429B","title":"上海市延安初级中学","lon":"121.43571","lat":"31.2151","category":"55","category_name":"中学","address":"长宁区延安西路601号"},{"poiid":"B2094757D469A7F4489E","title":"锦阁","lon":"121.436285","lat":"31.216973","category":"72","category_name":"广东菜","address":"静安区延安西路488号上海日航饭店3楼(镇宁路口)"},{"poiid":"B2094751D56EA3FB419D","title":"崇明私房菜(延安西路店)","lon":"121.43684","lat":"31.2169","category":"76","category_name":"上海菜","address":"长宁区延安西路500号万宝国际广场3楼(近镇宁路)"},{"poiid":"B2094757DB6FA2F8469A","title":"小舍甜品","lon":"121.435634","lat":"31.216909","category":"247","category_name":"餐饮美食","address":"静安区长乐路1238-1号(近镇宁路)"},{"poiid":"B2094655D264A7F5499B","title":"小音符麻辣烫","lon":"121.43682","lat":"31.21458","category":"68","category_name":"快餐厅","address":"长宁区昭化东路88号(近延安西路)"},{"poiid":"B2094655D26EA7FA4099","title":"玉嘉大厦","lon":"121.439","lat":"31.215","category":"46","category_name":"楼宇","address":"昌平区回龙观镇国际信息产业基地高新二街"},{"poiid":"B209475DD16BA0F5469C","title":"星伯爵BreadStar","lon":"121.436424","lat":"31.216005","category":"247","category_name":"餐饮美食","address":"江蘇路399號"},{"poiid":"B2094757D16EA6F5409D","title":"上海市出入境服务中心","lon":"121.43738191","lat":"31.215088314","category":"46","category_name":"楼宇","address":"上海市延安西路129号华侨大厦2楼"},{"poiid":"B2094757D16FA5F44499","title":"DQ冰雪皇后新天地店","lon":"121.436532186","lat":"31.2150631344","category":"500","category_name":"未知分类","address":"上海马当路245号"},{"poiid":"B2094655D268A7F9409E","title":"新海小区","lon":"121.43545","lat":"31.21455","category":"47","category_name":"住宅区","address":"延安西路649弄25-140号"},{"poiid":"B2094751DA6EAAF8479C","title":"江边城外","lon":"121.435379","lat":"31.21521","category":"247","category_name":"餐饮美食","address":"南京西路"},{"poiid":"B2094654D565A0FE409A","title":"华敏世纪广场","lon":"121.43464","lat":"31.216885","category":"47","category_name":"住宅区","address":"上海市长宁区延安西路688弄"},{"poiid":"B2094757D66DA1FD439E","title":"功夫粥吧","lon":"121.434800686","lat":"31.2156456458","category":"68","category_name":"快餐厅","address":"长宁区延安西路676号(近江苏路)"},{"poiid":"B2094654D564A5F5499F","title":"快客(昭化东路)","lon":"121.43669","lat":"31.2145","category":"117","category_name":"便民商店/便利店","address":"昭化东路88丙临"},{"poiid":"B2094757D16EABFB489D","title":"Armani Casa(达芬奇家居店)","lon":"121.43614","lat":"31.21513","category":"500","category_name":"未知分类","address":"上海静安区延安西路433号达芬奇家居  "},{"poiid":"B2094757D068A4FF409B","title":"丁香公寓","lon":"121.43855","lat":"31.214016","category":"47","category_name":"住宅区","address":"丁香公寓位于长宁华山路800弄6号"},{"poiid":"B2094757D16FA0FA4893","title":"李阿姨老饭店","lon":"121.43692758","lat":"31.214725127","category":"247","category_name":"餐饮美食","address":"上海市长宁区昭化东路"},{"poiid":"B2094757D165ABFD449C","title":"521新派视觉","lon":"121.436191586","lat":"31.215299139","category":"500","category_name":"未知分类","address":"长宁区愚园路1221弄御华名苑1号201室(近安西路)查看地图"},{"poiid":"B2094750DB6EA4FB459D","title":"东方剑桥-御庭苑","lon":"121.437774","lat":"31.215299","category":"47","category_name":"住宅区","address":"上海市长宁区镇宁路55号"},{"poiid":"B2094654DB6BA7F5449D","title":"上海书画出版社(延安西路)","lon":"121.43615","lat":"31.21599","category":"63","category_name":"出版社","address":"延安西路593"},{"poiid":"B2094751D465A1F84599","title":"cozy wine Bar&Bistro","lon":"121.436364","lat":"31.213477","category":"247","category_name":"餐饮美食","address":"徐匯區武康路97號（五原路口）"},{"poiid":"B2094757D168A3FD499B","title":"71路延安西路镇宁路","lon":"121.437205736","lat":"31.2159841524","category":"38","category_name":"公交车站","address":"上海延安西路镇宁路"},{"poiid":"B2094654D564A5F54693","title":"九尊大厦","lon":"121.43853","lat":"31.2149","category":"46","category_name":"楼宇","address":"上海市长宁区镇宁路9号"},{"poiid":"B209475CD664A3F9459E","title":"Sunflour-阳光粮品安福路店","lon":"121.436569","lat":"31.214717","category":"500","category_name":"未知分类","address":"上海市 上海市徐汇区安福路308号"},{"poiid":"B2094654D564A5F54992","title":"上海市东延安中学","lon":"121.43614","lat":"31.21424","category":"55","category_name":"中学","address":"昭化东路96临"},{"poiid":"B2094654D564A4FD4193","title":"上海文艺出版总社","lon":"121.43615","lat":"31.21599","category":"63","category_name":"出版社","address":"延安西路593"},{"poiid":"B2094654D564A4FC489F","title":"AIA友邦保险大厦","lon":"121.43446","lat":"31.21363","category":"46","category_name":"楼宇","address":"曹家堰路88"},{"poiid":"B2094752D16BA2F94593","title":"瑞金医院","lon":"121.436418","lat":"31.216772","category":"162","category_name":"医院","address":null},{"poiid":"B2094654DB6AA7FC4999","title":"唐宫(维景店)","lon":"121.43456","lat":"31.21748","category":"72","category_name":"广东菜","address":"长宁区东诸安浜路103号维景酒店公寓1-2楼(近江苏路)"},{"poiid":"B2094757D06FA3F5419D","title":"江苏路延安西路","lon":"121.43364002","lat":"31.214805118","category":"500","category_name":"未知分类","address":"上海江苏路延安西路"},{"poiid":"B2094757D568A0FF409D","title":"上海日航饭店","lon":"121.43714247","lat":"31.21759304","category":"213","category_name":"五星级宾馆","address":"长宁区延安西路488号(近镇宁路)"},{"poiid":"B2094753D76FAAFA449C","title":"上海滩国泰旗舰店","lon":"121.466011","lat":"31.216125","category":"249","category_name":"购物服务","address":"淮海中路868号"},{"poiid":"B209475CD564A7F8439E","title":"上海滩中信泰富店","lon":"121.45602","lat":"31.22851","category":"119","category_name":"商场","address":"\"南京西路1168号中信泰富广场，店铺号221.\r\n\""},{"poiid":"B2094757D06FA2F4469A","title":"衡山小馆(延安西路店)","lon":"121.43464","lat":"31.21412","category":"72","category_name":"广东菜","address":"长宁区延安西路719号佳都大厦底楼(近江苏路)"},{"poiid":"B2094750DB6AA5F4419E","title":"MOJITO HEAVEN","lon":"121.435333","lat":"31.213684","category":"260","category_name":"其他","address":"长宁区昭化东路130号(曹家堰路口)"},{"poiid":"B2094757D068A0FA479B","title":"万宝国际广场","lon":"121.436314872","lat":"31.2171246785","category":"46","category_name":"楼宇","address":"其他区徐州铜山新区北京路,长江路口"},{"poiid":"B2094654D564A5F5469E","title":"上海美华妇科门诊部","lon":"121.43883","lat":"31.21443","category":"162","category_name":"医院","address":"华山路800弄6号丁香公寓裙楼3层"},{"poiid":"B2094654D564A6FC499E","title":"嘉利大厦","lon":"121.434","lat":"31.2162","category":"46","category_name":"楼宇","address":"上海市黄浦区南京东路409-459号"},{"poiid":"B2094757D568A0F84993","title":"吉惠日本料理","lon":"121.435005","lat":"31.216121","category":"95","category_name":"日本料理","address":"延安西路626号华敏世纪广场近江苏路"},{"poiid":"B2094655D264A4FC4598","title":"COSTA(九尊店)","lon":"121.43842","lat":"31.21434","category":"65","category_name":"咖啡厅","address":"长宁区镇宁路9号(近华山路)"},{"poiid":"B2094757D065A6F9469A","title":"枫寿司","lon":"121.435411586","lat":"31.216269158","category":"95","category_name":"日本料理","address":"长宁区延安西路640号(近江苏路)"},{"poiid":"B2094757D06FA1FE409D","title":"维景酒店公寓","lon":"121.43472","lat":"31.21783","category":"215","category_name":"三星级宾馆","address":"上海长宁区东诸安浜路103号（靠近江苏路、延安西路）"},{"poiid":"B2094655D26FA0FA439C","title":"圆明讲堂(延安西路)","lon":"121.43772","lat":"31.21771","category":"250","category_name":"公园户外","address":"延安西路458"},{"poiid":"B2094757D06EAAFA499E","title":"地铁十一号线","lon":"121.43346","lat":"31.21548","category":"36","category_name":"地铁站","address":"上海嘉定 - 江苏路 轨道交通十一号线 轨交 11 "},{"poiid":"B2094757D064A6F84698","title":"朋朋烘焙体验馆(延安西路店)","lon":"121.433578","lat":"31.21486473","category":"67","category_name":"甜品店","address":"长宁区延安西路634号(近江苏路)"},{"poiid":"B2094757D568AAF54699","title":"上海戏剧学院综合楼","lon":"121.4391253","lat":"31.21630073","category":"52","category_name":"高等院校","address":"上海长宁区法华镇路535号上海交通大学法华校区"},{"poiid":"B2094757D068A5FC4499","title":"摩提工坊(美罗城店)","lon":"121.43634525","lat":"31.215673174","category":"67","category_name":"甜品店","address":"徐汇区肇嘉浜路1111号美罗城B1楼(近漕溪北路)"},{"poiid":"B2094750D364A5FD479F","title":"上海美华妇儿服务","lon":"121.4388464368","lat":"31.214662099037","category":"162","category_name":"医院","address":"华山路800弄丁香公寓6号裙楼3楼"},{"poiid":"B2094757D16EA0F5459A","title":"康骏会馆","lon":"121.438498586","lat":"31.2148031293","category":"500","category_name":"未知分类","address":"长宁区镇宁路9号九尊大厦3楼AF(长乐路镇宁路)"},{"poiid":"B2094750DA68A5FB449B","title":"上海恒隆广场","lon":"121.437088","lat":"31.215415","category":"500","category_name":"未知分类","address":null},{"poiid":"B2094654D564A4FD429B","title":"上海市延安初级中学","lon":"121.43571","lat":"31.2151","category":"55","category_name":"中学","address":"长宁区延安西路601号"},{"poiid":"B2094757D469A7F4489E","title":"锦阁","lon":"121.436285","lat":"31.216973","category":"72","category_name":"广东菜","address":"静安区延安西路488号上海日航饭店3楼(镇宁路口)"},{"poiid":"B2094751D56EA3FB419D","title":"崇明私房菜(延安西路店)","lon":"121.43684","lat":"31.2169","category":"76","category_name":"上海菜","address":"长宁区延安西路500号万宝国际广场3楼(近镇宁路)"},{"poiid":"B2094757DB6FA2F8469A","title":"小舍甜品","lon":"121.435634","lat":"31.216909","category":"247","category_name":"餐饮美食","address":"静安区长乐路1238-1号(近镇宁路)"},{"poiid":"B2094655D264A7F5499B","title":"小音符麻辣烫","lon":"121.43682","lat":"31.21458","category":"68","category_name":"快餐厅","address":"长宁区昭化东路88号(近延安西路)"},{"poiid":"B2094655D26EA7FA4099","title":"玉嘉大厦","lon":"121.439","lat":"31.215","category":"46","category_name":"楼宇","address":"昌平区回龙观镇国际信息产业基地高新二街"},{"poiid":"B209475DD16BA0F5469C","title":"星伯爵BreadStar","lon":"121.436424","lat":"31.216005","category":"247","category_name":"餐饮美食","address":"江蘇路399號"},{"poiid":"B2094757D16EA6F5409D","title":"上海市出入境服务中心","lon":"121.43738191","lat":"31.215088314","category":"46","category_name":"楼宇","address":"上海市延安西路129号华侨大厦2楼"},{"poiid":"B2094757D16FA5F44499","title":"DQ冰雪皇后新天地店","lon":"121.436532186","lat":"31.2150631344","category":"500","category_name":"未知分类","address":"上海马当路245号"},{"poiid":"B2094655D268A7F9409E","title":"新海小区","lon":"121.43545","lat":"31.21455","category":"47","category_name":"住宅区","address":"延安西路649弄25-140号"},{"poiid":"B2094751DA6EAAF8479C","title":"江边城外","lon":"121.435379","lat":"31.21521","category":"247","category_name":"餐饮美食","address":"南京西路"},{"poiid":"B2094654D565A0FE409A","title":"华敏世纪广场","lon":"121.43464","lat":"31.216885","category":"47","category_name":"住宅区","address":"上海市长宁区延安西路688弄"},{"poiid":"B2094757D66DA1FD439E","title":"功夫粥吧","lon":"121.434800686","lat":"31.2156456458","category":"68","category_name":"快餐厅","address":"长宁区延安西路676号(近江苏路)"},{"poiid":"B2094654D564A5F5499F","title":"快客(昭化东路)","lon":"121.43669","lat":"31.2145","category":"117","category_name":"便民商店/便利店","address":"昭化东路88丙临"},{"poiid":"B2094757D16EABFB489D","title":"Armani Casa(达芬奇家居店)","lon":"121.43614","lat":"31.21513","category":"500","category_name":"未知分类","address":"上海静安区延安西路433号达芬奇家居  "},{"poiid":"B2094757D068A4FF409B","title":"丁香公寓","lon":"121.43855","lat":"31.214016","category":"47","category_name":"住宅区","address":"丁香公寓位于长宁华山路800弄6号"},{"poiid":"B2094757D16FA0FA4893","title":"李阿姨老饭店","lon":"121.43692758","lat":"31.214725127","category":"247","category_name":"餐饮美食","address":"上海市长宁区昭化东路"},{"poiid":"B2094757D165ABFD449C","title":"521新派视觉","lon":"121.436191586","lat":"31.215299139","category":"500","category_name":"未知分类","address":"长宁区愚园路1221弄御华名苑1号201室(近安西路)查看地图"},{"poiid":"B2094750DB6EA4FB459D","title":"东方剑桥-御庭苑","lon":"121.437774","lat":"31.215299","category":"47","category_name":"住宅区","address":"上海市长宁区镇宁路55号"},{"poiid":"B2094654DB6BA7F5449D","title":"上海书画出版社(延安西路)","lon":"121.43615","lat":"31.21599","category":"63","category_name":"出版社","address":"延安西路593"},{"poiid":"B2094751D465A1F84599","title":"cozy wine Bar&Bistro","lon":"121.436364","lat":"31.213477","category":"247","category_name":"餐饮美食","address":"徐匯區武康路97號（五原路口）"},{"poiid":"B2094757D168A3FD499B","title":"71路延安西路镇宁路","lon":"121.437205736","lat":"31.2159841524","category":"38","category_name":"公交车站","address":"上海延安西路镇宁路"},{"poiid":"B2094654D564A5F54693","title":"九尊大厦","lon":"121.43853","lat":"31.2149","category":"46","category_name":"楼宇","address":"上海市长宁区镇宁路9号"},{"poiid":"B209475CD664A3F9459E","title":"Sunflour-阳光粮品安福路店","lon":"121.436569","lat":"31.214717","category":"500","category_name":"未知分类","address":"上海市 上海市徐汇区安福路308号"},{"poiid":"B2094654D564A5F54992","title":"上海市东延安中学","lon":"121.43614","lat":"31.21424","category":"55","category_name":"中学","address":"昭化东路96临"},{"poiid":"B2094654D564A4FD4193","title":"上海文艺出版总社","lon":"121.43615","lat":"31.21599","category":"63","category_name":"出版社","address":"延安西路593"},{"poiid":"B2094654D564A4FC489F","title":"AIA友邦保险大厦","lon":"121.43446","lat":"31.21363","category":"46","category_name":"楼宇","address":"曹家堰路88"},{"poiid":"B2094752D16BA2F94593","title":"瑞金医院","lon":"121.436418","lat":"31.216772","category":"162","category_name":"医院","address":null}]