[{"poiid":"B2094654D569A3F84099","title":"上海万国机动车驾员培训中心","lon":"121.72503","lat":"31.24836","category":"192","category_name":"驾校","address":"奚阳路"},{"poiid":"B2094757D164A6FE429D","title":"浦东新区实习学校","lon":"121.73303645","lat":"31.2591699893","category":"55","category_name":"中学","address":"浦东新区合庆镇向阳路800号"},{"poiid":"B2094757D06FA0FF409B","title":"合庆万国驾校","lon":"121.728307","lat":"31.248328","category":"500","category_name":"未知分类","address":"上海浦东新区合庆镇奚阳公路"},{"poiid":"B2094654D569A3FB4999","title":"向阳村外来人员居住区1东小区","lon":"121.73211","lat":"31.26064","category":"47","category_name":"住宅区","address":""},{"poiid":"B2094654D569A3FB4998","title":"向阳村外来人员居住区2西小区","lon":"121.73171","lat":"31.26052","category":"47","category_name":"住宅区","address":""},{"poiid":"B2094654D569A3F4409A","title":"上海浦东向阳电镀厂","lon":"121.73513","lat":"31.26223","category":"263","category_name":"公司","address":""},{"poiid":"B2094757D164A7FC449C","title":"向阳北路人民塘","lon":"121.72809024","lat":"31.259864852","category":"500","category_name":"未知分类","address":"上海向阳北路人民塘"},{"poiid":"B2094757D169A6F4409B","title":"草莓园","lon":"121.71941745","lat":"31.2552269042","category":"500","category_name":"未知分类","address":"上海市曹路"},{"poiid":"B2094655D36DA7F4429D","title":"奚阳公路朝阳村","lon":"121.73486","lat":"31.25001","category":"38","category_name":"公交车站","address":""},{"poiid":"B2094757D065A1FA499A","title":"万国驾校食堂","lon":"121.73417","lat":"31.24935","category":"68","category_name":"快餐厅","address":"浦东新区合庆镇奚阳路号505号(近东川公路)"},{"poiid":"B2094757D164ABFE419B","title":"浦东爱心养老公寓","lon":"121.72637922","lat":"31.248227339","category":"47","category_name":"住宅区","address":"上海浦东新区合庆镇奚阳公路885号"},{"poiid":"B2094757D66EA2F8439F","title":"勤奋村","lon":"121.720247","lat":"31.259201","category":"500","category_name":"未知分类","address":"马鞍山勤奋村"},{"poiid":"B2094654D569A3F44092","title":"芳芳超市(奚阳路)","lon":"121.72942","lat":"31.24875","category":"118","category_name":"超级市场","address":""},{"poiid":"B2094757D065A5F4439E","title":"前哨路288弄","lon":"121.73007288882","lat":"31.245230287241","category":"47","category_name":"住宅区","address":"上海市浦东新区环庆北路"},{"poiid":"B2094757D569A0FA489B","title":"荣华苑","lon":"121.731","lat":"31.2432","category":"47","category_name":"住宅区","address":"上海市浦东新区庆荣路485弄"},{"poiid":"B2094655D26BA2FE4699","title":"万国培训中心","lon":"121.72348","lat":"31.24781","category":"38","category_name":"公交车站","address":""},{"poiid":"B2094654DA6AAAFF489F","title":"上海金杏香果业合作社有限公司","lon":"121.72914","lat":"31.24569","category":"263","category_name":"公司","address":"前哨支路98"}]