[{"poiid":"B2094654DA6FA4FD489A","title":"上海市口腔病防治院","lon":"121.48338","lat":"31.24057","category":"162","category_name":"医院","address":"北京东路356号国华大楼3-5层"},{"poiid":"B2094757D06AA2FA4392","title":"香港路","lon":"121.485499","lat":"31.242465","category":"500","category_name":"未知分类","address":"上海香港路"},{"poiid":"B2094757D06FA6F4499F","title":"新协通国际大酒店","lon":"121.48261","lat":"31.24007","category":"217","category_name":"旅馆招待所","address":"北京东路398号新协通国际大酒店18楼(山东北路口)"},{"poiid":"B209475CD564A7F84292","title":"上海滩新天地店","lon":"121.47463","lat":"31.22164","category":"119","category_name":"商场","address":"\"太仓路181弄新天地北里15号\r\n\""},{"poiid":"B209475CD564A7F84392","title":"上海滩浦东香格里拉店","lon":"121.50058","lat":"31.23634","category":"119","category_name":"商场","address":"浦东富成路33号香格里拉酒店内大堂层"},{"poiid":"B2094757D06FA2F44099","title":"绿雅酒家","lon":"121.48623","lat":"31.23976","category":"76","category_name":"上海菜","address":"上海黄浦区江西中路372号(近宁波路)  "},{"poiid":"B2094654DA6FA4FD489C","title":"老丰阁品珍轩(北京东路)","lon":"121.48229","lat":"31.24043","category":"76","category_name":"上海菜","address":"黄浦区北京东路398号新协通国际大酒店3楼(山东北路口)"},{"poiid":"B2094757D06FA0FE409C","title":"风波庄(黄浦店)","lon":"121.4865","lat":"31.24275","category":"260","category_name":"其他","address":"黄浦区四川中路670号(近南苏州路)"},{"poiid":"B2094757DB6CA6FD419A","title":"Cuvve","lon":"121.485513","lat":"31.240501","category":"248","category_name":"生活娱乐","address":"外灘十八號"},{"poiid":"B2094654DB6BABFD479B","title":"明堂上海旅行者青年旅舍","lon":"121.48529","lat":"31.24161","category":"218","category_name":"青年旅舍","address":"黄浦区江西中路450号(近北京东路)"},{"poiid":"B2094757D06FA1FB4392","title":"港陆黄浦中心","lon":"121.482","lat":"31.2421","category":"46","category_name":"楼宇","address":"上海市杨浦区邯郸路近淞沪路口"},{"poiid":"B2094757DB6FA0FA4298","title":"益丰外滩源","lon":"121.484644","lat":"31.242458","category":"637","category_name":"房地产类公司","address":"黄浦区北京东路31-91号(近圆明园路)"},{"poiid":"B2094757D06FA0FD469F","title":"东银大厦","lon":"121.484","lat":"31.2438","category":"46","category_name":"楼宇","address":"丰台学城海鹰路1号,3号"},{"poiid":"B2094757D068A0FF4398","title":"麦当劳(天潼路店)","lon":"121.48337","lat":"31.24366","category":"68","category_name":"快餐厅","address":"虹口区河南北路79-81号联富商场2楼(近天潼路)"},{"poiid":"B2094654DA6FA2F84799","title":"春申江大厦","lon":"121.485","lat":"31.2422","category":"46","category_name":"楼宇","address":"上海市黄浦区浙江中路400号"},{"poiid":"B2094751D364A7FA419F","title":"星巴克外滩店","lon":"121.485804","lat":"31.242252","category":"247","category_name":"餐饮美食","address":"外滩"},{"poiid":"B2094757D168A2FE489D","title":"海上荟","lon":"121.484368738","lat":"31.2424785612","category":"76","category_name":"上海菜","address":"黄浦区江西中路371号(近北京东路)"},{"poiid":"B2094757D068A1FD489D","title":"亚洲大厦","lon":"121.485","lat":"31.2397","category":"46","category_name":"楼宇","address":"松江区工业区鼎源路广富林路路口"},{"poiid":"B2094654DA6FA4FF459D","title":"宝龙大酒楼","lon":"121.48596793288","lat":"31.240782833756","category":"72","category_name":"广东菜","address":"黄浦区北京东路230号(近河南中路)"},{"poiid":"B2094654DA6FA7F5489E","title":"河滨大楼","lon":"121.48352","lat":"31.243284","category":"47","category_name":"住宅区","address":"浦东区崂山东路410号"},{"poiid":"B2094757D069A0FE4599","title":"三林塘馄饨店","lon":"121.48568504662","lat":"31.240624646304","category":"68","category_name":"快餐厅","address":"黄浦区江西中路416号(北京东路口)"},{"poiid":"B2094752DA65A3FB449C","title":"上海南京路外滩","lon":"121.483871","lat":"31.242178","category":"500","category_name":"未知分类","address":"上海市 上海"},{"poiid":"B2094654DB6AA6F84599","title":"湖滨假日酒店","lon":"121.48266","lat":"31.24101","category":"250","category_name":"公园户外","address":"黄浦区南苏州路445号(近山东北路)"},{"poiid":"B2094757D06AA0F9459C","title":"河南路桥","lon":"121.483150858","lat":"31.2429705716","category":"234","category_name":"海滨浴场","address":"上海河南中路苏州河"},{"poiid":"B2094757D468AAF94193","title":"CHAI Living Lounge","lon":"121.482989","lat":"31.242648","category":"260","category_name":"其他","address":"虹口区北苏州路410号C座1楼(近河南路)"},{"poiid":"B2094654DA6FABFC4492","title":"上海市黄浦公证处","lon":"121.48399","lat":"31.24195","category":"250","category_name":"公园户外","address":"南苏州路333号华隆大厦"},{"poiid":"B2094757D065AAFD4898","title":"四川路桥","lon":"121.485728262","lat":"31.2440280796","category":"234","category_name":"海滨浴场","address":"上海四川北路四川中路交界(苏州河上)"},{"poiid":"B2094757D06FA5F84192","title":"民生路1500号","lon":"121.483988053","lat":"31.241195523","category":"260","category_name":"其他","address":"上海出入境管理局"},{"poiid":"B2094757D068A4F8469A","title":"新亚大酒店宴会厅","lon":"121.48532","lat":"31.24434","category":"217","category_name":"旅馆招待所","address":"上海虹口区天潼路422号(近四川北路)  "},{"poiid":"B2094757D568A5FA4798","title":"锦江之星旅馆(上海外滩滨江店)","lon":"121.486266999998","lat":"31.2424470000003","category":"216","category_name":"经济型连锁酒店","address":"上海市黄浦区四川中路630号(近香港路口)"},{"poiid":"B2094757D16CA1F94299","title":"新國際展覽中心","lon":"121.48387873","lat":"31.243333579","category":"500","category_name":"未知分类","address":"上海浦東龍陽路"},{"poiid":"B2094654DA6FA4F4419A","title":"浦光中学","lon":"121.4862","lat":"31.24195","category":"55","category_name":"中学","address":"上海黄浦区四川中路599号(近河南拉面馆)"},{"poiid":"B2094752D66FA2FA439A","title":"CAPO","lon":"121.484363","lat":"31.242594","category":"247","category_name":"餐饮美食","address":"北京东路99号溢丰外滩源5楼"},{"poiid":"B2094757D66AA4FE459E","title":"凯恩酒家","lon":"121.48556141797","lat":"31.242659854707","category":"76","category_name":"上海菜","address":"黄浦区香港路123号(近四川中路)"},{"poiid":"B2094757D468A6FB4899","title":"85度C 宁波路店","lon":"121.484141054","lat":"31.239500793","category":"112","category_name":"糕饼店","address":"黄浦区河南中路521-3号(宁波路口)"},{"poiid":"B2094655D36CA5F5419D","title":"北京东路四川中路","lon":"121.48625","lat":"31.24066","category":"38","category_name":"公交车站","address":"上海北京东路四川中路"},{"poiid":"B2094750D56FA6FD4299","title":"鲁迅公园","lon":"121.482696","lat":"31.242994","category":"500","category_name":"未知分类","address":null},{"poiid":"B2094654DA6FABFD4098","title":"会展中心","lon":"121.485","lat":"31.24186","category":"185","category_name":"会展中心","address":"江西中路455"},{"poiid":"B2094751D469A2FC4092","title":"中国银行上海市分行多功能厅","lon":"121.4841926579378","lat":"31.24184020212425","category":"252","category_name":"楼宇机构","address":"滇池路56号"},{"poiid":"B2094654DA6FA4FD479D","title":"国华大楼","lon":"121.48324","lat":"31.24048","category":"46","category_name":"楼宇","address":"北京东路356"},{"poiid":"B2094750D66DA1FF4193","title":"巴黎贝甜","lon":"121.483665","lat":"31.242332","category":"247","category_name":"餐饮美食","address":null},{"poiid":"B2094655D26DAAF8419A","title":"中国移动北京东路营业厅","lon":"121.48356","lat":"31.24099","category":"151","category_name":"电讯营业厅","address":""},{"poiid":"B2094757DA65A5F4439E","title":"锦江之星（上海外滩滨江店）","lon":"121.486291","lat":"31.242547","category":"216","category_name":"经济型连锁酒店","address":"黄浦区四川中路630号(香港路口)"},{"poiid":"B2094753DB6CAAF54999","title":"东方明珠","lon":"121.484298","lat":"31.242296","category":"500","category_name":"未知分类","address":"上海市 上海市"},{"poiid":"B2094757D16DA0FD4298","title":"coco都可茶饮(宁波路店)","lon":"121.483673738","lat":"31.2403950167","category":"113","category_name":"冷饮店","address":"黄浦区宁波路188号(河南中路口)"},{"poiid":"B2094750D26FABFE4898","title":"muse1","lon":"121.485687","lat":"31.240003","category":"500","category_name":"未知分类","address":"北京东路圆明圆路"},{"poiid":"B2094757D06AA7F5469B","title":"外滩街道社区事务受理服务中心","lon":"121.484199","lat":"31.240043","category":"252","category_name":"楼宇机构","address":"上海河南中路568号"},{"poiid":"B2094654DA6FABFC449C","title":"百联集团","lon":"121.48427","lat":"31.2424","category":"263","category_name":"公司","address":"南苏州路325号"},{"poiid":"B2094654DA6FA4FF449A","title":"宁波小区","lon":"121.48452","lat":"31.239851","category":"47","category_name":"住宅区","address":"上海宁波路120号"},{"poiid":"B2094753D16DA1FA4492","title":"外滩和平饭店","lon":"121.486209","lat":"31.240235","category":"247","category_name":"餐饮美食","address":"上海市 外滩和平饭店"},{"poiid":"B2094757DA65A5F5409D","title":"上海子鱼居宾馆（外滩店）","lon":"121.483152509","lat":"31.241012897","category":"216","category_name":"经济型连锁酒店","address":"上海市黄浦区河南中路639号(近北京东路)"},{"poiid":"B2094655D26BA2FB4993","title":"四川中路香港路","lon":"121.48635","lat":"31.24187","category":"38","category_name":"公交车站","address":"上海市闸北区北苏州路"},{"poiid":"B2094654DB69A6FE4693","title":"滇池大楼","lon":"121.48584","lat":"31.24007","category":"46","category_name":"楼宇","address":"昌平区回龙观镇国际信息产业基地高新二街"},{"poiid":"B2094753D56DA4FC449E","title":"上海世博展览馆","lon":"121.485015","lat":"31.240404","category":"500","category_name":"未知分类","address":"上海市 上海浦东新区国展路1099号"},{"poiid":"B2094654DA6FABFC439D","title":"凯恩宾馆商务楼","lon":"121.48567","lat":"31.24248","category":"46","category_name":"楼宇","address":"香港路117"},{"poiid":"B2094757D465ABF5439A","title":"老盛兴苏州汤包馆 北京东路店","lon":"121.4839","lat":"31.24054","category":"68","category_name":"快餐厅","address":"北京东路402号近河南中路"},{"poiid":"B2094757D064ABF54592","title":"上海市第一次全国水利普查领导小组办公室","lon":"121.483954","lat":"31.241941","category":"500","category_name":"未知分类","address":"上海黄浦区南苏州路333号"},{"poiid":"B2094752DA6DAAFF4293","title":"海龙海鲜坊","lon":"121.485517","lat":"31.241669","category":"500","category_name":"未知分类","address":"上海市 东昌路1号"},{"poiid":"B2094654DA6FABFC499C","title":"捷强烟酒专卖店(香港路)","lon":"121.48526","lat":"31.24234","category":"117","category_name":"便民商店/便利店","address":"香港路123"},{"poiid":"B2094752D76AAAFF4699","title":"台北纯K","lon":"121.484427","lat":"31.242529","category":"248","category_name":"生活娱乐","address":"浙江南路58号"},{"poiid":"B2094654DA6FA4FE4098","title":"湖滨小厨","lon":"121.48374743113","lat":"31.241899771693","category":"76","category_name":"上海菜","address":"黄浦区南苏州路445号(近山东北路)"},{"poiid":"B2094757D06AA5FF439D","title":"北京路河南中路路口","lon":"121.4831338","lat":"31.241885621","category":"260","category_name":"其他","address":"上海北京路河南中路路口"},{"poiid":"B2094655D26DA7FE4492","title":"华隆大厦(北门)","lon":"121.48403","lat":"31.24217","category":"48","category_name":"楼宇大门","address":"南苏州路333"},{"poiid":"B2094655D264A6F9439C","title":"上海苏州路玛戈隆特骨瓷体验店","lon":"121.48373","lat":"31.24184","category":"131","category_name":"珠宝首饰工艺品","address":"南苏州路1305-2"},{"poiid":"B2094654DA6FA2FB4493","title":"安基商厦","lon":"121.483","lat":"31.244","category":"46","category_name":"楼宇","address":"上海市黄浦区浙江中路535号"},{"poiid":"B2094654DA6FABFC489C","title":"三和里","lon":"121.4858","lat":"31.241219","category":"47","category_name":"住宅区","address":"江西中路412弄1-51号"},{"poiid":"B2094655D265A5F84299","title":"中国人民财产保险上海市分公司直属支公司","lon":"121.48396","lat":"31.24194","category":"219","category_name":"其他","address":"南苏州路333号华隆大厦18层"},{"poiid":"B2094654DA6FABFC459E","title":"东亚联合控股(集团)有限公司","lon":"121.48361","lat":"31.24178","category":"263","category_name":"公司","address":""},{"poiid":"B2094757D16CA3F9459D","title":"江西中路406号","lon":"121.485531","lat":"31.240946","category":"500","category_name":"未知分类","address":"上海江西中路406号"},{"poiid":"B2094757D164AAFD479A","title":"盐业银行大楼","lon":"121.4848233","lat":"31.240317485","category":"500","category_name":"未知分类","address":"浦东区浦东外高桥保税区基隆路555号"},{"poiid":"B2094655D36CA0F8499E","title":"江西中路北京东路","lon":"121.48574","lat":"31.24011","category":"38","category_name":"公交车站","address":""},{"poiid":"B2094757D66BA0FA459D","title":"上味馆南翔小笼 四川中路店","lon":"121.48675","lat":"31.24045","category":"247","category_name":"餐饮美食","address":"黄浦区四川中路504号(近北京东路)"},{"poiid":"B2094655D269A4F54393","title":"新协通国际大酒店宴会厅","lon":"121.48236","lat":"31.24034","category":"247","category_name":"餐饮美食","address":"黄浦区北京东路398号新协通国际大酒店内(山东北路口)"},{"poiid":"B2094757D16BABF9449A","title":"江西中路","lon":"121.48410263","lat":"31.239679301","category":"500","category_name":"未知分类","address":"上海江西中路"},{"poiid":"B2094655D26AA4F54792","title":"房地大厦停车场","lon":"121.48523","lat":"31.24302","category":"247","category_name":"餐饮美食","address":"黄浦区南苏州路255号"},{"poiid":"B2094757D06BAAFE4299","title":"北京东路小学","lon":"121.48505","lat":"31.24026","category":"55","category_name":"中学","address":"黄浦区北京东路261号(近河南中路)"},{"poiid":"B2094751D464A0FB479D","title":"城隍庙小吃王国","lon":"121.485889","lat":"31.24165","category":"500","category_name":"未知分类","address":null},{"poiid":"B2094752D76AA4FC459F","title":"逸品鱼生","lon":"121.483929","lat":"31.243673","category":"247","category_name":"餐饮美食","address":"圆明园路133号"},{"poiid":"B2094655D265A5F4479F","title":"轨道交通10号线天潼路站商办楼","lon":"121.483","lat":"31.24343","category":"46","category_name":"楼宇","address":"天潼路501临"},{"poiid":"B209475CDB6AA7F9419B","title":"上海汉庭快捷酒店(四川中路店)","lon":"121.486281","lat":"31.242055","category":"216","category_name":"经济型连锁酒店","address":"上海市黄浦区四川中路607号"},{"poiid":"B2094750DA65A6FF429A","title":"国际旅行者青年旅舍","lon":"121.485092","lat":"31.241373","category":"251","category_name":"出行住宿","address":"黄浦区江西中路450号"},{"poiid":"B2094655D26AA4F5449D","title":"上海市口腔病防治院儿童口腔科","lon":"121.48324","lat":"31.24048","category":"247","category_name":"餐饮美食","address":"黄浦区北京东路356号(北京东路河南中路)"},{"poiid":"B2094752D468A2FE469B","title":"浦东滨江大道","lon":"121.485532","lat":"31.240485","category":"250","category_name":"公园户外","address":null},{"poiid":"B2094655D26CABFC459D","title":"凯恩温岭海鲜馆","lon":"121.48542","lat":"31.24221","category":"260","category_name":"其他","address":"黄浦区香港路121号(凯恩宾馆旁)"},{"poiid":"B2094654DA6FA4FF4793","title":"上海正大建设发展有限公司","lon":"121.48479","lat":"31.24065","category":"123","category_name":"家具建材市场","address":"北京东路270号甲"},{"poiid":"B209475CD66CA4FB469C","title":"南京路步行街","lon":"121.483436","lat":"31.24058","category":"500","category_name":"未知分类","address":"南京路步行街"},{"poiid":"B2094655D26DA1FD419C","title":"光明便利No.613","lon":"121.48639","lat":"31.24146","category":"117","category_name":"便民商店/便利店","address":""},{"poiid":"B209475DDA6BAAFD449D","title":"上海外滩","lon":"121.486618","lat":"31.241043","category":"250","category_name":"公园户外","address":"上海市 y"},{"poiid":"B2094654DA6FA4FD489E","title":"上海市财贸企管协会","lon":"121.48339","lat":"31.24056","category":"250","category_name":"公园户外","address":"北京东路356号国华大楼8层815室"},{"poiid":"B2094757D169AAF84792","title":"T110","lon":"121.48455047","lat":"31.240638732","category":"500","category_name":"未知分类","address":"上海—北京"},{"poiid":"B2094654DA6FABFC479F","title":"佳利商务楼","lon":"121.48616","lat":"31.24296","category":"46","category_name":"楼宇","address":"四川中路668"},{"poiid":"B209475CD668A5FD439C","title":"甲泰船面","lon":"121.485992","lat":"31.239599","category":"500","category_name":"未知分类","address":"上海市 上海市黄浦区宁波路51号"},{"poiid":"B2094654DA6FABFC489B","title":"上海建工(集团)总公司(江西中路)","lon":"121.48548","lat":"31.24103","category":"263","category_name":"公司","address":"江西中路406丙"},{"poiid":"B2094654DB6BABFD469E","title":"上海工商学院(香港路)","lon":"121.48683","lat":"31.2426","category":"52","category_name":"高等院校","address":"黄浦区香港路59号"},{"poiid":"B2094757D169A4FD479C","title":"嘉杰国际大厦","lon":"121.482438138","lat":"31.2418845485","category":"252","category_name":"楼宇机构","address":"上海虹口区四川北路1717号1011"},{"poiid":"B2094654DA6FA4FF489A","title":"上海黄浦中华职教社","lon":"121.48486","lat":"31.24071","category":"252","category_name":"楼宇机构","address":"北京东路270号中一大楼702"},{"poiid":"B2094655D36CA5F5429B","title":"北京东路河南路桥","lon":"121.48267","lat":"31.2403","category":"38","category_name":"公交车站","address":""},{"poiid":"B2094654DA6FABFC479A","title":"浙江大学上海办事处","lon":"121.48615","lat":"31.24297","category":"52","category_name":"高等院校","address":"四川中路668号佳利商务楼9层"},{"poiid":"B2094757DA6BA7FA499E","title":"女青年会大楼","lon":"121.4851","lat":"31.24348","category":"252","category_name":"楼宇机构","address":"上海市浦东新区张杨路500号"},{"poiid":"B2094654DA6FA7F5489F","title":"虹口区河滨托儿所","lon":"121.48344","lat":"31.24334","category":"57","category_name":"幼儿园","address":"北苏州路400号河滨大楼218室"},{"poiid":"B2094654DA6FA4FF4592","title":"上海市电力行业协会","lon":"121.48554","lat":"31.2404","category":"250","category_name":"公园户外","address":"北京东路239"},{"poiid":"B2094655D36CA3F9499A","title":"中福城三期","lon":"121.484135","lat":"31.239161","category":"47","category_name":"住宅区","address":"上海市黄浦区汉口路689弄"},{"poiid":"B2094654DA6FA4FD499E","title":"景云大楼","lon":"121.48271","lat":"31.24036","category":"46","category_name":"楼宇","address":"北京东路378号"},{"poiid":"B2094655D26BA7FD429F","title":"喜士多便利(江西2店)","lon":"121.48584","lat":"31.24015","category":"117","category_name":"便民商店/便利店","address":"江西中路376"},{"poiid":"B2094655D26DA4F84593","title":"华德大楼","lon":"121.48618","lat":"31.24282","category":"47","category_name":"住宅区","address":""},{"poiid":"B2094655D26BA6F8489F","title":"银行公会大楼","lon":"121.48683","lat":"31.24261","category":"46","category_name":"楼宇","address":"香港路59号"},{"poiid":"B2094654DA6FA7F5499A","title":"上海威霖机电设备有限公司","lon":"121.48351","lat":"31.24314","category":"123","category_name":"家具建材市场","address":"北苏州路402号"},{"poiid":"B2094757D16DA5F94893","title":"北京东路江西中路","lon":"121.48566436","lat":"31.240758895","category":"500","category_name":"未知分类","address":"上海宝隆大酒店"},{"poiid":"B2094753D668A7F44098","title":"布丁酒店(上海外滩滨江店)","lon":"121.486851","lat":"31.240887","category":"216","category_name":"经济型连锁酒店","address":"四川中路540号(靠近北京东路)"},{"poiid":"B2094750D365A0FB429B","title":"香港大学上海学习中心","lon":"121.484671","lat":"31.244178","category":"253","category_name":"校园生活","address":"虹口区北苏州路298号"},{"poiid":"B2094757D568A6FF499A","title":"好好栗子店黄浦店","lon":"121.4838439","lat":"31.23911111","category":"68","category_name":"快餐厅","address":"黄浦区宁波路185号(河南中路口)"},{"poiid":"B2094654DA6FABFC4798","title":"铁路单人宿舍","lon":"121.48616","lat":"31.24296","category":"47","category_name":"住宅区","address":"四川中路668号佳利商务楼6层"},{"poiid":"B2094655D26DA2FA4492","title":"腾凤小区(西门)","lon":"121.48663","lat":"31.24148","category":"47","category_name":"住宅区","address":"四川中路572弄4-25号"},{"poiid":"B2094757D164ABF94693","title":"上海移动九江路营业厅","lon":"121.482040738","lat":"31.2413305367","category":"150","category_name":"银行","address":"上海市黄浦区河南中路616号"},{"poiid":"B2094757D16AA5F4419A","title":"外滩中心27楼德勤管理咨询","lon":"121.484116138","lat":"31.2396664012","category":"500","category_name":"未知分类","address":"上海延安东路222号2701－2704"},{"poiid":"B2094752DB6DA4FF419A","title":"外滩观景台","lon":"121.482959","lat":"31.240316","category":"500","category_name":"未知分类","address":"上海市 上海黄浦区"},{"poiid":"B2094750D165A7FD419C","title":"吉祥馄饨君妹店","lon":"121.48659534918215","lat":"31.240512886961366","category":"257","category_name":"中餐厅","address":"黄浦区四川中路504号(近北京东路)"},{"poiid":"B2094654DB69A7F8419B","title":"中福城二期","lon":"121.485","lat":"31.2395","category":"47","category_name":"住宅区","address":"广西北路228弄"},{"poiid":"B2094757D66AA4F54398","title":"小湘村 四川中路店","lon":"121.48687","lat":"31.24084","category":"77","category_name":"湖南菜","address":"黄浦区四川中路530号(近北京东路)"},{"poiid":"B2094750D16AA6F9449D","title":"黄浦区中心医院中医门诊部","lon":"121.484779","lat":"31.239377","category":"162","category_name":"医院","address":"河南中路宁波路"},{"poiid":"B2094654DA6FABFC4992","title":"海通证券香港路营业部","lon":"121.4856","lat":"31.24246","category":"219","category_name":"其他","address":"香港路117号"},{"poiid":"B2094654DA6FA4F84098","title":"滇池小区","lon":"121.48584","lat":"31.24011","category":"47","category_name":"住宅区","address":"江西中路374"},{"poiid":"B2094757D16FA0F4479B","title":"德邻购物中心","lon":"121.48293093","lat":"31.243824489","category":"119","category_name":"商场","address":"虹口区四川北路71号"},{"poiid":"B2094654DA6FABFD419A","title":"虎丘小区","lon":"121.48692","lat":"31.24226","category":"47","category_name":"住宅区","address":"虎丘路81弄"},{"poiid":"B2094753D468A0FF449D","title":"上海外滩","lon":"121.484252","lat":"31.239288","category":"500","category_name":"未知分类","address":"上海市 上海外滩"},{"poiid":"B2094654DB6BABFD4492","title":"良友(宁波路)","lon":"121.48479","lat":"31.23945","category":"117","category_name":"便民商店/便利店","address":"宁波路110"},{"poiid":"B2094757D16CA6FB4098","title":"926路淮海中路陕西南路站","lon":"121.482535238","lat":"31.2426041038","category":"500","category_name":"未知分类","address":"上海淮海中路襄阳南路交界"},{"poiid":"B2094655D26BABFB4093","title":"麦子熟了 黄浦店","lon":"121.4845371253","lat":"31.239374433727","category":"247","category_name":"餐饮美食","address":"宁波路118号近河南中路"},{"poiid":"B2094654DA6FA4FF4393","title":"可的(宁波路)","lon":"121.48471","lat":"31.23943","category":"117","category_name":"便民商店/便利店","address":"黄浦区河南中路514号(河南中路天津路)"},{"poiid":"B2094654DA6FA4F54798","title":"上海光华会计师事务所有限公司","lon":"121.48584","lat":"31.24291","category":"252","category_name":"楼宇机构","address":"四川中路681号7层"},{"poiid":"B2094655D268A4F54993","title":"河滨大楼(东南门)","lon":"121.48354","lat":"31.24316","category":"656","category_name":"大门","address":"北苏州路400"},{"poiid":"B2094655D26DA1FD419F","title":"腾凤小区","lon":"121.48693","lat":"31.24148","category":"47","category_name":"住宅区","address":"四川中路572弄4-25号"},{"poiid":"B2094654DA6FA4FD479C","title":"山北小区","lon":"121.48293","lat":"31.239828","category":"47","category_name":"住宅区","address":"河南中路575弄"},{"poiid":"B2094654DB69A6FD429B","title":"上海金融高等专科学校夜大学","lon":"121.48672","lat":"31.24311","category":"52","category_name":"高等院校","address":"黄浦区四川中路591弄10号"},{"poiid":"B2094757D66CA4FF429D","title":"浦光中学体操房","lon":"121.48655939","lat":"31.240201292","category":"55","category_name":"中学","address":"上海四川中路599号"},{"poiid":"B2094654DA6FA4FD439B","title":"强农大楼","lon":"121.48388","lat":"31.23935","category":"46","category_name":"楼宇","address":""},{"poiid":"B2094757D66FA1FE4399","title":"永华大楼","lon":"121.482303638","lat":"31.2418423476","category":"500","category_name":"未知分类","address":"上海北京东路386号"},{"poiid":"B209475CDB6FA7F8419E","title":"上海新天地","lon":"121.484313","lat":"31.239309","category":"500","category_name":"未知分类","address":"上海市 黄陂南路"},{"poiid":"B209475CD168A6FB4999","title":"东方明珠","lon":"121.486007","lat":"31.239604","category":"500","category_name":"未知分类","address":"上海市 上海市浦东新区陆家嘴"},{"poiid":"B2094655D26BA2F8459E","title":"天潼路河南北路","lon":"121.48412","lat":"31.2444","category":"38","category_name":"公交车站","address":""},{"poiid":"B2094757D66DA3FB499B","title":"陳尐囡哒","lon":"121.48508673","lat":"31.240050509","category":"500","category_name":"未知分类","address":"上海宁波路、"},{"poiid":"B2094757D56CA0FA489C","title":"手抓小龙虾 黄浦店","lon":"121.48220385724","lat":"31.243281743907","category":"247","category_name":"餐饮美食","address":"四川中路670号(苏州河附近)"},{"poiid":"B2094655D26DA7FE459A","title":"宁波小区(南门)","lon":"121.48464","lat":"31.23945","category":"47","category_name":"住宅区","address":"宁波路120弄"},{"poiid":"B2094757D568A6F8469C","title":"浙江嵊州特色农场品展销","lon":"121.48262451","lat":"31.24099772","category":"249","category_name":"购物服务","address":"中国上海市黄浦区南苏州路437"},{"poiid":"B2094757D169A1FB489A","title":"17路北京东路江西中路站","lon":"121.485747793","lat":"31.2401499444","category":"500","category_name":"未知分类","address":"上海市黄浦区北京东路江西中路东侧"},{"poiid":"B2094654DA6FA4FB479C","title":"齐福茶苑","lon":"121.48657","lat":"31.24166","category":"255","category_name":"专卖店","address":"四川中路596"},{"poiid":"B2094654DA6FA4FD4993","title":"中国银行上海市北京东路支行","lon":"121.48243","lat":"31.24035","category":"150","category_name":"银行","address":"黄浦区北京东路390-408号(北京东路山东北路)"},{"poiid":"B2094654DA6FA4F8409E","title":"上海浦东发展银行黄浦支行","lon":"121.48612","lat":"31.23971","category":"150","category_name":"银行","address":"宁波路50"},{"poiid":"B2094654DA6FA7F4469E","title":"信谊大药房天潼店","lon":"121.48383","lat":"31.24432","category":"162","category_name":"医院","address":"虹口区天潼路500号(近四川北路)"},{"poiid":"B2094757D16CA5F4489C","title":"宝家","lon":"121.486115","lat":"31.243012","category":"500","category_name":"未知分类","address":null},{"poiid":"B2094757D06AABF8489F","title":"阿迪达斯(春天百货店)","lon":"121.48672","lat":"31.24234","category":"140","category_name":"体育用品店","address":"上海虹口区四川北路521号春天百货(近武昌路)  "},{"poiid":"B2094752D06CABFC429C","title":"blue&jazz","lon":"121.482507","lat":"31.241861","category":"248","category_name":"生活娱乐","address":"黄浦区福州路60号"},{"poiid":"B2094655D26DA7FE4792","title":"吉祥里(东门)","lon":"121.48387","lat":"31.2394","category":"47","category_name":"住宅区","address":"河南中路541弄8-36号"},{"poiid":"B2094655D26EA3FC439E","title":"三和里(西门)","lon":"121.48549","lat":"31.24099","category":"656","category_name":"大门","address":"江西中路412弄1-51号"},{"poiid":"B2094757D169A6F9449C","title":"东美航空食品有限公司","lon":"121.48235646","lat":"31.2413240365","category":"263","category_name":"公司","address":"上海空港一路122号，近迎宾七路。(惠风快递旁)"},{"poiid":"B2094757D16CAAF94498","title":"可愛いの宅","lon":"121.48473873","lat":"31.239818504","category":"500","category_name":"未知分类","address":null},{"poiid":"B2094750D464ABFB4092","title":"南京东路","lon":"121.48545","lat":"31.239351","category":"627","category_name":"一般地点标志","address":"黄浦区宁波路"},{"poiid":"B2094757D66EA2F94593","title":"中石化加油站","lon":"121.486084","lat":"31.243506","category":"154","category_name":"加油加气站","address":"黄浦区南苏州路198号(大名路南苏州路)"},{"poiid":"B2094654DA6FA4FF429F","title":"国药集团化学试剂有限公司(宁波路)","lon":"121.48569","lat":"31.23965","category":"263","category_name":"公司","address":"宁波路52"},{"poiid":"B2094757D06AA5F44993","title":"Usagi","lon":"121.484108638","lat":"31.2396405007","category":"500","category_name":"未知分类","address":null},{"poiid":"B2094655D26FA3FB429F","title":"上海邮政总局","lon":"121.48498","lat":"31.24424","category":"248","category_name":"生活娱乐","address":"虹口区北苏州路276号"},{"poiid":"B2094750D56DA0FC4792","title":"南京东路幼儿园","lon":"121.484138","lat":"31.239473","category":"253","category_name":"校园生活","address":"天津路100号"},{"poiid":"B2094757D164A1F8489E","title":"＂阿拉＂牛杂汤","lon":"121.483668738","lat":"31.244204598","category":"500","category_name":"未知分类","address":"上海虹口区江西北路158号"},{"poiid":"B2094757D66CA6FB499E","title":"上海市电力公司物流服务中心","lon":"121.485734","lat":"31.239911","category":"500","category_name":"未知分类","address":"上海江西中路367号"},{"poiid":"B2094654DA6FA4FD4493","title":"上海外滩街道老年公寓(东门)","lon":"121.48384","lat":"31.23953","category":"207","category_name":"度假疗养场所","address":"河南中路541弄8-36号"},{"poiid":"B2094757D16EA7FF449D","title":"东华大学逸夫楼","lon":"121.486059638","lat":"31.2396764014","category":"500","category_name":"未知分类","address":"上海市长宁区延安西路1882号"},{"poiid":"B2094654DA6FA4FE4792","title":"中国工商银行河南中路支行","lon":"121.48402","lat":"31.23911","category":"150","category_name":"银行","address":"黄浦区河南中路505号近宁波路(河南中路宁波路)"},{"poiid":"B2094750D464ABFB439E","title":"河南中路宁波路","lon":"121.485443","lat":"31.239307","category":"248","category_name":"生活娱乐","address":null},{"poiid":"B2094757D168A7FB429E","title":"河滨大楼400号208","lon":"121.48249773","lat":"31.24339258","category":"252","category_name":"楼宇机构","address":"上海虹口区北苏州路400号208室"},{"poiid":"B2094655D26CAAFA489B","title":"山北小区(东门)","lon":"121.48355","lat":"31.24011","category":"656","category_name":"大门","address":"河南中路575弄1-11号"},{"poiid":"B2094757D065A2F54199","title":"一兆韦德营养吧","lon":"121.48558966","lat":"31.239596313","category":"500","category_name":"未知分类","address":"上海河南中路1号"},{"poiid":"B2094757D66DA0FC429F","title":"三才培训","lon":"121.48602263","lat":"31.239659801","category":"253","category_name":"校园生活","address":"黄浦区江西中路406号(近北京东路)"},{"poiid":"B2094751DA65A7F5449A","title":"上海市，黄浦区，中山东一路","lon":"121.486683","lat":"31.240439","category":"248","category_name":"生活娱乐","address":null},{"poiid":"B2094757D66DAAFE4193","title":"新华保险公司","lon":"121.48605153","lat":"31.239664701","category":"500","category_name":"未知分类","address":"上海市静安区江宁路212号11楼"},{"poiid":"B2094654DA6FA4FB499B","title":"中国石油化上海石油销售分公司","lon":"121.48686","lat":"31.24284","category":"263","category_name":"公司","address":"香港路56"},{"poiid":"B2094655D265A6FA409C","title":"三和里(东门)","lon":"121.48646","lat":"31.24127","category":"656","category_name":"大门","address":"四川中路557弄3号"},{"poiid":"B2094655D265ABFA429F","title":"三和里(南门)","lon":"121.4862","lat":"31.24081","category":"656","category_name":"大门","address":""},{"poiid":"B2094655D26DA7FE429A","title":"山北小区(北门)","lon":"121.48291","lat":"31.24014","category":"656","category_name":"大门","address":"北京东路359"},{"poiid":"B2094752D16FAAF84599","title":"民生现代美术馆","lon":"121.48347","lat":"31.243975","category":"627","category_name":"一般地点标志","address":"上海市淮海西路570号F座"}]