[{"poiid":"B2094757D06FA3F8439A","title":"时代金融中心","lon":"121.513","lat":"31.2467","category":"46","category_name":"楼宇","address":"上海市浦东新区银城中路68号"},{"poiid":"B2094750D56CA4F9459E","title":"上海外滩悅榕庄","lon":"121.50667204830165","lat":"31.249798205624163","category":"251","category_name":"出行住宿","address":"虹口区海平路19号"},{"poiid":"B2094757D06FABF94393","title":"远洋宾馆","lon":"121.510355","lat":"31.253102","category":"217","category_name":"旅馆招待所","address":"虹口区东大名路1171号(近霍山路)"},{"poiid":"B209475CD564A7F84392","title":"上海滩浦东香格里拉店","lon":"121.50058","lat":"31.23634","category":"119","category_name":"商场","address":"浦东富成路33号香格里拉酒店内大堂层"},{"poiid":"B2094757D06FABFC459F","title":"老丰阁(远洋店)","lon":"121.51029","lat":"31.25238","category":"76","category_name":"上海菜","address":"虹口区东大名路1171号远洋宾馆2楼(东大名路霍山路)"},{"poiid":"B2094757D06FA3FC479F","title":"上海航运交易所","lon":"121.51347327","lat":"31.250775518","category":"260","category_name":"其他","address":"上海杨树浦路88号(近惠民路)"},{"poiid":"B2094655D26CA6FC4493","title":"61号老栈(百联创意)","lon":"121.51188","lat":"31.25121","category":"46","category_name":"楼宇","address":"杨树浦路61号"},{"poiid":"B2094654D56FA2FF449E","title":"老店麻辣烫(霍山路)","lon":"121.51065","lat":"31.25342","category":"68","category_name":"快餐厅","address":"虹口区霍山路94号(近舟山路)"},{"poiid":"B2094654D56FA3FB479A","title":"港运大厦","lon":"121.51116","lat":"31.25012","category":"46","category_name":"楼宇","address":"静安区长寿路(万航渡路口)"},{"poiid":"B2094654DB69A5FE4693","title":"肯德基 KFC (杨树浦店)","lon":"121.51166","lat":"31.25119","category":"68","category_name":"快餐厅","address":"虹口区杨树浦路45号(近浦江海关)"},{"poiid":"B2094757D06FABF9489F","title":"公平路码头摆渡口","lon":"121.50965815","lat":"31.251916889","category":"34","category_name":"港口码头","address":"上海公平路东大名路"},{"poiid":"B2094757D068A3FF4898","title":"霍山公园","lon":"121.51133895","lat":"31.253346625","category":"196","category_name":"公园","address":"虹口区霍山路118号(近舟山路)"},{"poiid":"B2094655D26CA6FA429E","title":"公平路轮渡站","lon":"121.50744","lat":"31.24948","category":"34","category_name":"港口码头","address":"公平路60号"},{"poiid":"B2094655D264ABF8459A","title":"马登国际航运商务中心","lon":"121.51322","lat":"31.25147","category":"46","category_name":"楼宇","address":"杨树浦路147号"},{"poiid":"B2094655D264A6F4409D","title":"上海轮渡游船码头","lon":"121.50722","lat":"31.24959","category":"34","category_name":"港口码头","address":"公平路1"},{"poiid":"B2094757D16EA1FB429E","title":"白金湾广场","lon":"121.506182","lat":"31.2502193","category":"500","category_name":"未知分类","address":"相城区阳澄湖西路南、人民路西"},{"poiid":"B2094655D26FA5FE4498","title":"汇丰大厦","lon":"121.514","lat":"31.2458","category":"46","category_name":"楼宇","address":"上海陆家嘴环路1000号"},{"poiid":"B2094655D36CA0FB4799","title":"霍山路临潼路","lon":"121.51298","lat":"31.25114","category":"38","category_name":"公交车站","address":"霍山路临潼路"},{"poiid":"B2094757D16DA7FA4793","title":"远洋宾馆怡珀璇宫","lon":"121.5092591","lat":"31.252241042","category":"217","category_name":"旅馆招待所","address":"虹口区东大名路1171号远洋宾馆27楼(近霍山路)"},{"poiid":"B2094757D66FA0FD499C","title":"北外滩东信酒店","lon":"121.5116325","lat":"31.252110289","category":"217","category_name":"旅馆招待所","address":"虹口区惠民路36号(近杨树浦路东大名路)"},{"poiid":"B2094757D464A7F44099","title":"石库门牛排面馆","lon":"121.51113","lat":"31.25174","category":"68","category_name":"快餐厅","address":"虹口区惠民路21弄5号(近远洋宾馆)"},{"poiid":"B2094751D464A7FC4999","title":"上海外滩悦榕庄","lon":"121.508204","lat":"31.249116","category":"251","category_name":"出行住宿","address":"中国上海市虹口区海平路19号"},{"poiid":"B2094655D26BAAFF499E","title":"东方海港国际大厦","lon":"121.5085","lat":"31.25176","category":"46","category_name":"楼宇","address":"东大名路1080号"},{"poiid":"B2094757D16FABFA4198","title":"白金灣廣場","lon":"121.50916313","lat":"31.248743999","category":"500","category_name":"未知分类","address":"上海東大名路948號"},{"poiid":"B2094757D06FA5F84293","title":"浦江海关","lon":"121.51242875","lat":"31.250188419","category":"500","category_name":"未知分类","address":"上海杨树浦路88号"},{"poiid":"B2094750D66AAAF94798","title":"东方明珠号渡轮上","lon":"121.509979","lat":"31.248355","category":"500","category_name":"未知分类","address":null},{"poiid":"B2094655D36CA3FF469B","title":"上海美博城","lon":"121.51167","lat":"31.2512","category":"46","category_name":"楼宇","address":"杨树浦路61号"},{"poiid":"B2094654D56FA2FE4199","title":"为民点心店","lon":"121.51166","lat":"31.2521","category":"68","category_name":"快餐厅","address":"虹口区惠民路62号(近杨树浦路)"},{"poiid":"B2094757D06AA7FB489D","title":"豪享来(霍山店)","lon":"121.51042","lat":"31.25297","category":"94","category_name":"西餐厅","address":"虹口区霍山路69号(近舟山路)"},{"poiid":"B2094750DB6BA3FE499B","title":"banyantree悦蓉庄","lon":"121.5102","lat":"31.247686","category":"251","category_name":"出行住宿","address":"海平路19号"},{"poiid":"B2094655D26EA6FB4999","title":"远洋宾馆京华楼","lon":"121.51018","lat":"31.25236","category":"74","category_name":"江苏菜","address":"虹口区东大名路1171号远洋宾馆(近霍山路)"},{"poiid":"B2094750DB65AAFF469A","title":"迷笛电子音乐节","lon":"121.511039","lat":"31.249126","category":"248","category_name":"生活娱乐","address":"银城路双辉大厦9号"},{"poiid":"B2094750DA6AA0F9409A","title":"北外滩滨江大道","lon":"121.512023","lat":"31.244825","category":"250","category_name":"公园户外","address":null},{"poiid":"B2094757D06BA3F4429D","title":"520台球俱乐部","lon":"121.51171","lat":"31.2512","category":"171","category_name":"台球厅","address":"虹口区惠民路38号3楼(近杨树浦路)"},{"poiid":"B2094750DB6BAAFC459A","title":"悦品鲜","lon":"121.5112","lat":"31.25152","category":"86","category_name":"火锅店","address":"虹口区惠民路36号(近东大名路)"},{"poiid":"B2094753D76EA1FB499B","title":"上海外滩悅榕庄","lon":"121.511711","lat":"31.249649","category":"500","category_name":"未知分类","address":"上海市 上海市虹口区公平路19号"},{"poiid":"B2094757D065A4FB449B","title":"老头菜饭","lon":"121.51482053","lat":"31.25163419","category":"68","category_name":"快餐厅","address":"杨浦区杨树浦路205号(临潼路口)"},{"poiid":"B2094757D065A0F9419D","title":"小江北特色烧烤","lon":"121.511359054","lat":"31.253935793","category":"68","category_name":"快餐厅","address":"虹口区霍山路120号(近临潼路)"},{"poiid":"B2094757D06AAAFD4399","title":"上海出入境检验检疫局航交所办事处","lon":"121.512217","lat":"31.250148098","category":"500","category_name":"未知分类","address":"上海杨树浦路88号3楼"},{"poiid":"B2094655D26BA5F5449B","title":"外虹桥国际客运码头","lon":"121.5116","lat":"31.25106","category":"34","category_name":"港口码头","address":"杨树浦路100号"},{"poiid":"B2094655D268A7FF4893","title":"马登仓库办公大楼","lon":"121.51322","lat":"31.25146","category":"46","category_name":"楼宇","address":"杨树浦路147、155"},{"poiid":"B2094757D06BABF5469F","title":"白金灣府邸","lon":"121.50593167","lat":"31.25022437","category":"47","category_name":"住宅区","address":"上海海平路18號"},{"poiid":"B2094757D06AA5FC4693","title":"提篮桥(惠民路东大名路)站(公交28终,510,875,842)","lon":"121.511633","lat":"31.25213","category":"38","category_name":"公交车站","address":"上海市虹口区临潼路东大名路"},{"poiid":"B2094751D26BAAFB469B","title":"4号线杨树浦路站","lon":"121.506646","lat":"31.2512858","category":"500","category_name":"未知分类","address":null},{"poiid":"B209475DD065A4FD439E","title":"桔子水晶酒店（北外滩店）","lon":"121.510848","lat":"31.25254","category":"500","category_name":"未知分类","address":"上海市 东大名路1191号"},{"poiid":"B2094654D56FA3F54599","title":"罗森(杨树浦路)","lon":"121.51179","lat":"31.25119","category":"117","category_name":"便民商店/便利店","address":"杨树浦路59"},{"poiid":"B2094751D365A1FE4393","title":"香港大排档","lon":"121.509421","lat":"31.252442","category":"111","category_name":"休闲餐饮场所","address":"虹口区海门路12号"},{"poiid":"B2094757D068A1FF469B","title":"北京饭店","lon":"121.51059","lat":"31.25283","category":"260","category_name":"其他","address":"虹口区霍山路68号(近舟山路)"},{"poiid":"B2094655D26FA1FE459B","title":"临江大厦(北门)","lon":"121.50799","lat":"31.2511","category":"47","category_name":"住宅区","address":"东大名路1062弄"},{"poiid":"B2094757D66BA4F8409D","title":"阿王菜饭","lon":"121.5143770854","lat":"31.251560061639","category":"68","category_name":"快餐厅","address":"杨浦区杨树浦路197-1号(近临潼路)"},{"poiid":"B2094757D165ABF84193","title":"飞利浦游船","lon":"121.511839103","lat":"31.2496129875","category":"219","category_name":"其他","address":"上海秦皇岛世博水门"},{"poiid":"B2094750D76FAAFE4193","title":"光头正宗千里香馄饨","lon":"121.512","lat":"31.2523","category":"68","category_name":"快餐厅","address":"虹口区惠民路71号(近临潼路)"},{"poiid":"B2094757D168AAF94093","title":"上海工业品批发市场","lon":"121.508422852","lat":"31.2488822937","category":"500","category_name":"未知分类","address":"上海国庆路35号"},{"poiid":"B2094757DB68AAF9469B","title":"秦皇岛码头","lon":"121.511417","lat":"31.251273","category":"251","category_name":"出行住宿","address":"大连路"},{"poiid":"B2094655D265A7FE429A","title":"浦江国际金融广场","lon":"121.50941","lat":"31.25199","category":"46","category_name":"楼宇","address":""},{"poiid":"B2094654DB6BA2FE4093","title":"惠民面馆","lon":"121.512106054","lat":"31.252265793","category":"68","category_name":"快餐厅","address":"虹口区惠民路71号(近杨树浦路)"},{"poiid":"B2094757D169A4F84192","title":"28路终点站","lon":"121.511508803","lat":"31.2511147189","category":"500","category_name":"未知分类","address":"上海杨树浦路惠民路"},{"poiid":"B2094757D069A6FB489A","title":"远洋宾馆五楼宴会厅","lon":"121.5103478","lat":"31.253041639","category":"217","category_name":"旅馆招待所","address":"东大名路1171号远洋宾馆内(近霍山路)"},{"poiid":"B2094750DB6BA3FF479B","title":"浦东滨江大道","lon":"121.515625","lat":"31.248435","category":"500","category_name":"未知分类","address":null},{"poiid":"B2094757D16EA5FF459C","title":"北京银行(上海分行)","lon":"121.510778","lat":"31.250412","category":"150","category_name":"银行","address":"上海金陵东路18号"},{"poiid":"B2094757D16EA2F5479D","title":"蓝桥麻辣烫","lon":"121.51224","lat":"31.25241","category":"68","category_name":"快餐厅","address":"虹口区惠民路85号(近临潼路)"},{"poiid":"B2094655D264A7FD429A","title":"提篮桥街道图书馆","lon":"121.50875","lat":"31.25197","category":"181","category_name":"图书馆","address":"虹口区东大名路1088号(近东长治路)"},{"poiid":"B2094654DB69A0F5479A","title":"怡珀旋宫","lon":"121.51018","lat":"31.25236","category":"247","category_name":"餐饮美食","address":"东大名路1171号远洋宾馆28楼霍山路惠民路间"},{"poiid":"B2094655D265A7FE4092","title":"百老汇大酒店","lon":"121.51088398542","lat":"31.254029821201","category":"257","category_name":"中餐厅","address":"霍山路57号近东大名路"},{"poiid":"B2094752D065A3F9459B","title":"新天地时尚","lon":"121.509033","lat":"31.249863","category":"500","category_name":"未知分类","address":"马当路"},{"poiid":"B2094750D069ABF8489A","title":"中国工商银行虹口提篮桥支行","lon":"121.512","lat":"31.251","category":"150","category_name":"银行","address":"上海市虹口区杨树浦路61号204-2幢底层1-B2-B9室"},{"poiid":"B2094655D26CA6FF4792","title":"光头千里香馄饨店","lon":"121.51184","lat":"31.25234","category":"68","category_name":"快餐厅","address":"惠民路75"},{"poiid":"B2094751DA6DA7FB4693","title":"上海国际航运服务中心","lon":"121.511328","lat":"31.251668","category":"252","category_name":"楼宇机构","address":"杨树浦路8号"},{"poiid":"B2094654D56FA2FE4093","title":"晋阳里","lon":"121.51199","lat":"31.252001","category":"47","category_name":"住宅区","address":"惠民路74弄3-100号"},{"poiid":"B2094757D06BA5F4409C","title":"921终点站","lon":"121.514079103","lat":"31.2493519821","category":"500","category_name":"未知分类","address":"上海平凉路34号(靠近临潼路)"},{"poiid":"B2094757D568A5FD4092","title":"大名电影院","lon":"121.508965","lat":"31.25200056","category":"178","category_name":"电影院","address":"东大名路1110"},{"poiid":"B209475CD46FA5FC489D","title":"上海桔子水晶酒店","lon":"121.510818","lat":"31.251789","category":"500","category_name":"未知分类","address":"上海市 上海市虹口区东大名路1191号"},{"poiid":"B2094750DA6BA7FA449B","title":"上海市虹口区霍山路","lon":"121.510589","lat":"31.252355","category":"500","category_name":"未知分类","address":"小铁头yokoの家家"},{"poiid":"B2094757D065A7FA439F","title":"惠民路","lon":"121.512171103","lat":"31.2525720493","category":"500","category_name":"未知分类","address":"上海28路終點站"},{"poiid":"B2094654D56FA2FF459A","title":"贤邻别墅","lon":"121.5107","lat":"31.252781","category":"47","category_name":"住宅区","address":"霍山路66弄"},{"poiid":"B2094757D16BAAFF4698","title":"临潼路杨树浦路站(公交28,137终)","lon":"121.5150478","lat":"31.251107918","category":"38","category_name":"公交车站","address":"上海虹口区临潼路平凉路"},{"poiid":"B2094654D56FA3F5479C","title":"快客No.988","lon":"121.51186","lat":"31.25243","category":"117","category_name":"便民商店/便利店","address":"提篮桥"},{"poiid":"B2094757D065A6F84098","title":"提篮桥邮政支局","lon":"121.510463764","lat":"31.2519204544","category":"252","category_name":"楼宇机构","address":"上海东大名路1209号(近惠民路)"},{"poiid":"B2094757D06AA5FF4493","title":"临潼苑","lon":"121.51397","lat":"31.252007","category":"500","category_name":"未知分类","address":"上海市虹口区杨树浦路183号"},{"poiid":"B2094757D164A7FF459C","title":"保定路","lon":"121.5124551","lat":"31.252942057","category":"500","category_name":"未知分类","address":"上海市虹口区保定路"},{"poiid":"B2094752D264AAFD489C","title":"多利农场","lon":"121.509629","lat":"31.253253","category":"247","category_name":"餐饮美食","address":"滨江大道1818号C座"},{"poiid":"B2094655D26EA3F9479B","title":"桃源里(东门)","lon":"121.51178","lat":"31.25231","category":"47","category_name":"住宅区","address":"惠民路73弄4-114号"},{"poiid":"B2094655D26CA7F5499F","title":"上海优佛物流有限公司","lon":"121.51189","lat":"31.25121","category":"248","category_name":"生活娱乐","address":"杨树浦路18号港运大厦26层"},{"poiid":"B2094757D06AA0F8459F","title":"大名星苑酒店","lon":"121.510261","lat":"31.251893","category":"217","category_name":"旅馆招待所","address":"虹口区东大名路1191号(近惠民路)"},{"poiid":"B2094757D16CA3F5439B","title":"马登商务中心","lon":"121.512967103","lat":"31.2518510343","category":"500","category_name":"未知分类","address":"上海市虹口区杨树浦路147号"},{"poiid":"B2094751DA6EA0F5439F","title":"上海市中西结合医院","lon":"121.513936","lat":"31.252164","category":"162","category_name":"医院","address":"保定路230号"},{"poiid":"B2094654D56FA3FB4692","title":"提篮桥社区文化中心","lon":"121.50875","lat":"31.25196","category":"188","category_name":"文化宫","address":"东大名路1088"},{"poiid":"B2094654DB69A6FD489C","title":"上海港务工程公司码头","lon":"121.5147","lat":"31.25132","category":"34","category_name":"港口码头","address":"杨浦区杨树浦路210号"},{"poiid":"B2094655D26CA6FF419E","title":"上海中外运报关有限公司","lon":"121.51189","lat":"31.25121","category":"263","category_name":"公司","address":"杨树浦路61号百联创意61号老栈4-E1"},{"poiid":"B2094750DA6FA5FD4098","title":"兰芳园港式冻饮","lon":"121.51267","lat":"31.25323","category":"113","category_name":"冷饮店","address":"虹口区惠民路154号(近临潼路)"},{"poiid":"B2094655D26FA5F9459D","title":"霍山路21弄小区(南门)","lon":"121.50943","lat":"31.25259","category":"47","category_name":"住宅区","address":"霍山路21弄1-34号"},{"poiid":"B2094655D26DA5F4499C","title":"桃源里","lon":"121.51165","lat":"31.25252","category":"47","category_name":"住宅区","address":"惠民路73弄4-114号"},{"poiid":"B2094655D265A3FD4098","title":"中信银行上海北外滩支行","lon":"121.51336","lat":"31.25138","category":"150","category_name":"银行","address":"杨树浦路147"},{"poiid":"B2094655D36CA1F94799","title":"临潼路杨树浦路","lon":"121.5143","lat":"31.25222","category":"38","category_name":"公交车站","address":""},{"poiid":"B2094654DB6BA2FE419A","title":"健苑小区(北门)","lon":"121.51216","lat":"31.25255","category":"47","category_name":"住宅区","address":"惠民路118弄1-17号"},{"poiid":"B2094757D165A5FF4492","title":"犹太百年老宅","lon":"121.512533103","lat":"31.2527640533","category":"247","category_name":"餐饮美食","address":"上海市惠民路120弄"},{"poiid":"B2094655D26DA6F9459F","title":"霍山路21弄小区","lon":"121.50931","lat":"31.25283","category":"47","category_name":"住宅区","address":"霍山路21弄1-34号"},{"poiid":"B2094654DB6BA2FE4798","title":"好德便利No.997","lon":"121.50618","lat":"31.25151","category":"117","category_name":"便民商店/便利店","address":""},{"poiid":"B2094750D26AAAFA429A","title":"宫玉廷","lon":"121.511245","lat":"31.251853","category":"248","category_name":"生活娱乐","address":"虹口区惠民路28号(近东大名路)"},{"poiid":"B2094757D16FA1F94698","title":"好多多","lon":"121.5076767","lat":"31.252544848","category":"500","category_name":"未知分类","address":"上海虹口区唐山路510号"},{"poiid":"B2094757D16EA2F94893","title":"13路终点站","lon":"121.5074451","lat":"31.251894035","category":"500","category_name":"未知分类","address":"上海市虹口区东大名路近公平路"},{"poiid":"B2094655D26CA7FB429C","title":"好德No.621","lon":"121.51068","lat":"31.25344","category":"117","category_name":"便民商店/便利店","address":"霍山路96号"},{"poiid":"B2094654D56FA3F5489B","title":"健苑小区","lon":"121.51276","lat":"31.252394","category":"47","category_name":"住宅区","address":"惠民路118弄1-17号"},{"poiid":"B2094757D568ABFE419C","title":"东山影剧院","lon":"121.5099711","lat":"31.25312194","category":"178","category_name":"电影院","address":"霍山路57号"},{"poiid":"B2094654DB6AA0FB469F","title":"邮政储蓄提蓝桥支所","lon":"121.51048","lat":"31.25205","category":"150","category_name":"银行","address":"上海市市北区东大名路1209号"},{"poiid":"B2094654D56FA3F4409A","title":"提篮桥邮政储蓄","lon":"121.51045","lat":"31.25212","category":"150","category_name":"银行","address":"东大名路1209号"},{"poiid":"B2094654D56FA2FE419F","title":"上海新提篮网吧","lon":"121.51176","lat":"31.25191","category":"176","category_name":"网吧","address":""},{"poiid":"B2094753D768A3FB4698","title":"外滩悦蓉庄","lon":"121.506011","lat":"31.250209","category":"500","category_name":"未知分类","address":"上海市 海平路19号"},{"poiid":"B2094750DA6BA4FB479B","title":"上海兴安得力软件有限公司","lon":"121.510566","lat":"31.252359","category":"263","category_name":"公司","address":"临潼路255号"},{"poiid":"B209475CD76AA2F54798","title":"文华东方大酒店","lon":"121.508308","lat":"31.24405","category":"500","category_name":"未知分类","address":"上海市 浦东新区111号"},{"poiid":"B2094654DB6BA2FE4398","title":"贤邻别墅(北门)","lon":"121.51027","lat":"31.25304","category":"47","category_name":"住宅区","address":"霍山路66弄"},{"poiid":"B2094757D66FA7F4469B","title":"海平路","lon":"121.506397","lat":"31.250271","category":"500","category_name":"未知分类","address":"上海海平路"},{"poiid":"B2094752D06BA0FA4392","title":"上海外滩悦容庄","lon":"121.51133","lat":"31.246155","category":"251","category_name":"出行住宿","address":"公平路近海平路"},{"poiid":"B2094655D26FA0FC489A","title":"海翔小区南区","lon":"121.51294","lat":"31.25293","category":"47","category_name":"住宅区","address":"惠民路150弄5-6号"},{"poiid":"B2094655D26FA5F94593","title":"惠民路117弄小区(东门)","lon":"121.51203","lat":"31.25288","category":"47","category_name":"住宅区","address":"惠民路117弄1-18号"},{"poiid":"B2094757D16BA2FB439A","title":"农家小厨","lon":"121.508457","lat":"31.253118","category":"247","category_name":"餐饮美食","address":"上海公平路近东长治路"},{"poiid":"B2094655D26CA5FA4793","title":"Sexy Sexy Bar","lon":"121.50991","lat":"31.25305","category":"172","category_name":"酒吧","address":""},{"poiid":"B2094655D26CA7FB4293","title":"海翔小区南区(北门)","lon":"121.51269","lat":"31.25331","category":"47","category_name":"住宅区","address":"惠民路150弄5-6号"},{"poiid":"B2094655D26CA6FA429D","title":"惠民路117弄小区","lon":"121.51202","lat":"31.25309","category":"47","category_name":"住宅区","address":"惠民路117弄1-18号"},{"poiid":"B2094655D26CA6FC449C","title":"临潼路99弄小区","lon":"121.51351","lat":"31.25278","category":"47","category_name":"住宅区","address":"临潼路99弄4-16号"},{"poiid":"B2094757D16CA6FB4993","title":"马登仓库","lon":"121.5132621","lat":"31.251714031","category":"263","category_name":"公司","address":"虹口区杨树浦路155号(近东大名路)"},{"poiid":"B2094750DA6AAAFE439D","title":"悦榕庄酒店","lon":"121.506401","lat":"31.250141","category":"251","category_name":"出行住宿","address":"海平路19号"},{"poiid":"B2094757D16DA3FF4892","title":"提篮桥服装批发市场","lon":"121.51086","lat":"31.25306","category":"249","category_name":"购物服务","address":"虹口区霍山路桃源里(舟山路口)"},{"poiid":"B209475CDA6FA4F54092","title":"文华东方酒店","lon":"121.509796","lat":"31.242868","category":"500","category_name":"未知分类","address":"上海市 上海浦东新区浦东南路111号"},{"poiid":"B2094753D165A0FD429A","title":"多利有机会所","lon":"121.507799","lat":"31.244017","category":"500","category_name":"未知分类","address":"上海市 滨江大道1818"},{"poiid":"B2094757D165A4F5479C","title":"提篮桥街道办事处","lon":"121.5104711","lat":"31.253293064","category":"500","category_name":"未知分类","address":"上海新建路100号"},{"poiid":"B2094757D16AAAFF459E","title":"中国农业银行(提篮桥支行)","lon":"121.509","lat":"31.25301","category":"150","category_name":"银行","address":"虹口区长阳路18号(长阳路海门路)"},{"poiid":"B2094752D46AA3FB469B","title":"虹桥火车站","lon":"121.511349","lat":"31.25213","category":"627","category_name":"一般地点标志","address":"虹桥火车站"},{"poiid":"B2094757D169ABFC439B","title":"闸航路","lon":"121.5150136","lat":"31.250760311","category":"500","category_name":"未知分类","address":"上海闸航路"},{"poiid":"B2094753D66AA7F4469B","title":"文华厨房","lon":"121.508117","lat":"31.243492","category":"249","category_name":"购物服务","address":"上海市 杨高南路111号LG"},{"poiid":"B2094654D56FA2FF469C","title":"提篮桥派出所","lon":"121.50869","lat":"31.25341","category":"609","category_name":"警察局","address":"虹口区海门路70号"},{"poiid":"B2094752D469A3FC429F","title":"陆家嘴 时代金融中心","lon":"121.50914","lat":"31.243335","category":"263","category_name":"公司","address":"银城中路68号"},{"poiid":"B2094654DB6BA2FE409D","title":"临潼苑(南门)","lon":"121.51416","lat":"31.25156","category":"48","category_name":"楼宇大门","address":"杨树浦路189弄1-30号"},{"poiid":"B2094654DB6BA2FE429C","title":"霍山公园(北门)","lon":"121.51091","lat":"31.25368","category":"680","category_name":"楼宇机构","address":""},{"poiid":"B2094757DA69A2FC489C","title":"荣宝斋上海拍卖有限公司","lon":"121.50642122222","lat":"31.250842860894","category":"645","category_name":"机构及其他类公司","address":"东大名路948号白金湾广场15楼"},{"poiid":"B2094655D268A7FF499B","title":"晋阳里(南门)","lon":"121.51274","lat":"31.25118","category":"656","category_name":"大门","address":"杨树浦路115弄"},{"poiid":"B2094751D26FA1FA4292","title":"橘子酒店","lon":"121.509071","lat":"31.252563","category":"251","category_name":"出行住宿","address":"公平路369号"},{"poiid":"B2094757DA6EA5FE409A","title":"惠民路公交站","lon":"121.511760950087","lat":"31.2522217385435","category":"251","category_name":"出行住宿","address":"28路,875路惠民路杨树浦路附近"},{"poiid":"B2094654DB6BA2FE429F","title":"晋阳里(北门)","lon":"121.51193","lat":"31.25221","category":"656","category_name":"大门","address":"惠民路74弄3-100号"},{"poiid":"B2094757D66CA1F5419C","title":"海峰文苑","lon":"121.51051","lat":"31.25319","category":"260","category_name":"其他","address":"上海虹口区霍山路79号(近舟山路)  "}]