[{"poiid":"B2094757D06FA0FF499F","title":"夜市豆浆油条店","lon":"121.5123","lat":"31.25417","category":"111","category_name":"休闲餐饮场所","address":"虹口区霍山路203号(近临潼路)"},{"poiid":"B2094757D06EAAFF479A","title":"杨树浦路地铁站","lon":"121.51719604","lat":"31.252407847","category":"36","category_name":"地铁站","address":"上海轨道交通 四号线 轨交杨树浦路站 轻轨 4"},{"poiid":"B2094654D56FA3F44099","title":"上海瑞丰国际大厦","lon":"121.51557","lat":"31.25078","category":"46","category_name":"楼宇","address":"上海市奉贤区环城东路455、465弄"},{"poiid":"B209475CD564A7F84392","title":"上海滩浦东香格里拉店","lon":"121.50058","lat":"31.23634","category":"119","category_name":"商场","address":"浦东富成路33号香格里拉酒店内大堂层"},{"poiid":"B2094757D06FA0FA489F","title":"秦皇岛路轮渡站","lon":"121.51639044","lat":"31.249174771","category":"35","category_name":"长途汽车站","address":"上海虹口区秦皇岛路1号"},{"poiid":"B2094757D065A5FA449E","title":"阿根廷庄园","lon":"121.517910103","lat":"31.2503280024","category":"94","category_name":"西餐厅","address":"杨浦区秦皇岛路32号19幢(近北外滩东码头)"},{"poiid":"B2094757D06FA3FF4692","title":"提篮桥监狱","lon":"121.51515197","lat":"31.253217697","category":"608","category_name":"法院","address":"上海市虹口区长阳路147号"},{"poiid":"B2094757D06FA3FC479F","title":"上海航运交易所","lon":"121.51347327","lat":"31.250775518","category":"260","category_name":"其他","address":"上海杨树浦路88号(近惠民路)"},{"poiid":"B2094757D16DABF9429A","title":"浦江游览","lon":"121.516154","lat":"31.249603","category":"607","category_name":"一般景点","address":"上海秦皇岛"},{"poiid":"B2094655D264ABF8459A","title":"马登国际航运商务中心","lon":"121.51322","lat":"31.25147","category":"46","category_name":"楼宇","address":"杨树浦路147号"},{"poiid":"B2094655D26AA0F9409B","title":"地铁杨树浦路站","lon":"121.5172","lat":"31.25241","category":"36","category_name":"地铁站","address":""},{"poiid":"B2094655D36DA6FE4992","title":"杨树浦路","lon":"121.5172","lat":"31.25241","category":"38","category_name":"公交车站","address":""},{"poiid":"B2094757D068A4F5479A","title":"隧道工程股份有限公司","lon":"121.517015","lat":"31.253451","category":"263","category_name":"公司","address":"上海大连路118号"},{"poiid":"B2094655D26BA1FC489F","title":"平凉路大连路","lon":"121.51745","lat":"31.25307","category":"38","category_name":"公交车站","address":""},{"poiid":"B2094655D36CA0FB4799","title":"霍山路临潼路","lon":"121.51298","lat":"31.25114","category":"38","category_name":"公交车站","address":"霍山路临潼路"},{"poiid":"B2094757D065A4FB449B","title":"老头菜饭","lon":"121.51482053","lat":"31.25163419","category":"68","category_name":"快餐厅","address":"杨浦区杨树浦路205号(临潼路口)"},{"poiid":"B2094757D06FAAFF469B","title":"DQ冰雪皇后(正大二店)","lon":"121.51651915","lat":"31.251704193","category":"113","category_name":"冷饮店","address":"浦东新区陆家嘴西路168号正大广场B2楼(近东方明珠)"},{"poiid":"B2094654D56FA3F44193","title":"快客No.1324","lon":"121.5161","lat":"31.25248","category":"117","category_name":"便民商店/便利店","address":"平凉路87"},{"poiid":"B2094757D169A2F4479D","title":"翡翠公主号","lon":"121.5164","lat":"31.2507","category":"76","category_name":"上海菜","address":"杨浦区秦皇岛路码头(近杨树浦路)"},{"poiid":"B2094757D66BA4F8409D","title":"阿王菜饭","lon":"121.5143770854","lat":"31.251560061639","category":"68","category_name":"快餐厅","address":"杨浦区杨树浦路197-1号(近临潼路)"},{"poiid":"B2094757D068ABFE489E","title":"世博园秦皇岛水门","lon":"121.51718895","lat":"31.253926877","category":"260","category_name":"其他","address":"上海秦皇岛路32号"},{"poiid":"B2094757D06FABFC469C","title":"平凉路大连路站(公交842,155,137,25,853,申川线,921终,79终)","lon":"121.518741","lat":"31.252096","category":"38","category_name":"公交车站","address":"上海市杨浦区平凉路179号"},{"poiid":"B2094654D56FA3F44292","title":"海上人家","lon":"121.515036054","lat":"31.251712793","category":"257","category_name":"中餐厅","address":"上海杨浦区平凉路1号(近隆昌路)  "},{"poiid":"B2094757D16BAAFF4698","title":"临潼路杨树浦路站(公交28,137终)","lon":"121.5150478","lat":"31.251107918","category":"38","category_name":"公交车站","address":"上海虹口区临潼路平凉路"},{"poiid":"B2094753D76CA5FD459A","title":"上海1937往事","lon":"121.515014","lat":"31.253509","category":"247","category_name":"餐饮美食","address":"上海市 上海市虹口区临潼路110号"},{"poiid":"B2094655D36CA0FB499D","title":"惠民路","lon":"121.51419","lat":"31.2546","category":"38","category_name":"公交车站","address":""},{"poiid":"B2094655D36CA1F94799","title":"临潼路杨树浦路","lon":"121.5143","lat":"31.25222","category":"38","category_name":"公交车站","address":""},{"poiid":"B2094655D36DA0F94198","title":"杨树浦路大连路","lon":"121.51857","lat":"31.25196","category":"38","category_name":"公交车站","address":""},{"poiid":"B2094655D26CA6FD469D","title":"丁和里(北门)","lon":"121.51745","lat":"31.25282","category":"47","category_name":"住宅区","address":"平凉路164弄"},{"poiid":"B2094654D56FA3F4429C","title":"小江扦脚","lon":"121.51546","lat":"31.25207","category":"149","category_name":"洗浴推拿场所","address":"平凉路43"},{"poiid":"B2094757D06AA5FF4493","title":"临潼苑","lon":"121.51397","lat":"31.252007","category":"500","category_name":"未知分类","address":"上海市虹口区杨树浦路183号"},{"poiid":"B2094757D16AAAFE4198","title":"平凉路临潼路","lon":"121.51530097","lat":"31.251615993","category":"500","category_name":"未知分类","address":"上海平凉路临潼路公交站点(868,37,921,330)"},{"poiid":"B2094654DB69A6FD489C","title":"上海港务工程公司码头","lon":"121.5147","lat":"31.25132","category":"34","category_name":"港口码头","address":"杨浦区杨树浦路210号"},{"poiid":"B2094655D268A7FF4893","title":"马登仓库办公大楼","lon":"121.51322","lat":"31.25146","category":"46","category_name":"楼宇","address":"杨树浦路147、155"},{"poiid":"B2094757D069A3F9409B","title":"上行线(杨树浦路店)","lon":"121.51722015","lat":"31.252408306","category":"125","category_name":"书店","address":"上海虹口区地铁四号线杨树浦路站"},{"poiid":"B2094751DA6EA0F5439F","title":"上海市中西结合医院","lon":"121.513936","lat":"31.252164","category":"162","category_name":"医院","address":"保定路230号"},{"poiid":"B2094654D56FA3F5419F","title":"来伊客餐厅","lon":"121.51357","lat":"31.25299","category":"68","category_name":"快餐厅","address":"虹口区临潼路101号(近霍山路)"},{"poiid":"B2094655D26DA6FA439D","title":"丁和里","lon":"121.5175","lat":"31.25272","category":"47","category_name":"住宅区","address":"平凉路164弄"},{"poiid":"B2094654D56FA2FD4999","title":"云舫小区","lon":"121.51371","lat":"31.255001","category":"47","category_name":"住宅区","address":"保定路20弄10-40号"},{"poiid":"B2094654D56FA3F54192","title":"宏惠花苑","lon":"121.51508","lat":"31.25386","category":"47","category_name":"住宅区","address":"榆林路69弄1-6号"},{"poiid":"B2094757D16CA7F8469B","title":"842路終點站","lon":"121.517201","lat":"31.252419","category":"500","category_name":"未知分类","address":"上海楊樹浦路"},{"poiid":"B2094654DB6AA2FB479D","title":"上海仪电购物总汇榆林商场","lon":"121.51647","lat":"31.25425","category":"119","category_name":"商场","address":"榆林路161号-163号"},{"poiid":"B2094655D26CA6FD499C","title":"平凉路174弄小区","lon":"121.51785","lat":"31.25286","category":"47","category_name":"住宅区","address":"平凉路174弄"},{"poiid":"B2094757D06AA2FC4399","title":"上海美设国际货运代理有限公司","lon":"121.5156121","lat":"31.250757011","category":"263","category_name":"公司","address":"上海杨树浦路248号28楼"},{"poiid":"B2094655D26CA6FD4692","title":"平凉路174弄小区(北门)","lon":"121.5177","lat":"31.253","category":"47","category_name":"住宅区","address":"平凉路174弄"},{"poiid":"B2094654D56EA5FB449B","title":"上海船厂总部码头","lon":"121.51973","lat":"31.25131","category":"34","category_name":"港口码头","address":""},{"poiid":"B2094757D16FA5FB449E","title":"一个神马鬼地方","lon":"121.51675075","lat":"31.251311223","category":"500","category_name":"未知分类","address":"上海"},{"poiid":"B2094757D068AAF8469E","title":"上海船厂船舶有限公司","lon":"121.516366773","lat":"31.2546355024","category":"263","category_name":"公司","address":"上海杨树浦路468号"},{"poiid":"B209475CD26CABF4409A","title":"桔子水晶酒店.北外滩","lon":"121.514915","lat":"31.253559","category":"251","category_name":"出行住宿","address":"虹口区东大名路1191号"},{"poiid":"B2094654DB6BA3F54399","title":"快客(杨树浦路)","lon":"121.51831","lat":"31.25177","category":"117","category_name":"便民商店/便利店","address":"杨树浦路622号A-7"},{"poiid":"B2094757D465A0FB4199","title":"临潼路水饺馆","lon":"121.512927054","lat":"31.254031793","category":"68","category_name":"快餐厅","address":"虹口区临潼路281号(近霍山路)"},{"poiid":"B2094655D26EA1FC479F","title":"上海精密机械加工园区榆林路200号园区","lon":"121.51738","lat":"31.25431","category":"45","category_name":"产业园区","address":"榆林路200号"},{"poiid":"B2094750D665A7F9439F","title":"金丰咖啡厅","lon":"121.515","lat":"31.2516","category":"260","category_name":"其他","address":"杨浦区杨树浦路248号瑞丰国际大厦1楼(近地铁四号线杨树浦路站)"},{"poiid":"B2094757D06BA2FF4793","title":"金丰閣","lon":"121.515496103","lat":"31.2506935101","category":"500","category_name":"未知分类","address":"上海楊樹浦路248號瑞丰大廈大堂"},{"poiid":"B2094655D26DAAF9439B","title":"宏惠花苑二期","lon":"121.51498","lat":"31.254585","category":"47","category_name":"住宅区","address":"上海市虹口区榆林路119号"},{"poiid":"B2094655D26CA6FD4899","title":"虹口公安分局交通警察支队二中队","lon":"121.5168","lat":"31.25399","category":"248","category_name":"生活娱乐","address":"榆林路192号"},{"poiid":"B2094655D26DAAF94392","title":"临潼路99弄小区(北门)","lon":"121.51364","lat":"31.25291","category":"47","category_name":"住宅区","address":"临潼路99弄4-16号"},{"poiid":"B2094757DA6EAAF94392","title":"东码头创意园","lon":"121.516459399999","lat":"31.2500832000003","category":"263","category_name":"公司","address":"虹口区秦皇岛路32号"},{"poiid":"B2094655D26DA4F54098","title":"小花园茶坊","lon":"121.51419","lat":"31.2544","category":"66","category_name":"茶艺馆","address":""},{"poiid":"B2094655D26DAAFF499A","title":"临潼路120弄小区","lon":"121.51378","lat":"31.2535","category":"47","category_name":"住宅区","address":"临潼路120弄2-12号"},{"poiid":"B2094655D26CA6FC449C","title":"临潼路99弄小区","lon":"121.51351","lat":"31.25278","category":"47","category_name":"住宅区","address":"临潼路99弄4-16号"},{"poiid":"B2094654D56FA3F4449C","title":"上海市虹口区临潼路幼儿园","lon":"121.51345","lat":"31.25343","category":"57","category_name":"幼儿园","address":"虹口区临潼路130号(惠民路临潼路)"},{"poiid":"B2094655D36CA0FB4992","title":"惠民路临潼路","lon":"121.51335","lat":"31.25405","category":"38","category_name":"公交车站","address":""},{"poiid":"B2094655D26DA5F4449C","title":"西邨小区(南门)","lon":"121.51538","lat":"31.25209","category":"656","category_name":"大门","address":"平凉路41弄1-90号"},{"poiid":"B2094654D56FA2FD499D","title":"惠民小区","lon":"121.51389","lat":"31.25386","category":"47","category_name":"住宅区","address":"惠民路220弄1-2号"},{"poiid":"B2094655D26CA6FD439B","title":"上海精密机械加工园区榆林路201号园区","lon":"121.51712","lat":"31.25487","category":"45","category_name":"产业园区","address":"榆林路201号"},{"poiid":"B2094757D16EA2F5479D","title":"蓝桥麻辣烫","lon":"121.51224","lat":"31.25241","category":"68","category_name":"快餐厅","address":"虹口区惠民路85号(近临潼路)"},{"poiid":"B2094655D36CA4FC449F","title":"保定路惠民路","lon":"121.51368","lat":"31.25455","category":"38","category_name":"公交车站","address":""},{"poiid":"B2094750D76FAAFE4193","title":"光头正宗千里香馄饨","lon":"121.512","lat":"31.2523","category":"68","category_name":"快餐厅","address":"虹口区惠民路71号(近临潼路)"},{"poiid":"B2094655D26CA6FC449D","title":"临潼路120弄小区(南门)","lon":"121.51348","lat":"31.25334","category":"47","category_name":"住宅区","address":"临潼路120弄2-12号"},{"poiid":"B2094757D164A4FD419C","title":"全家便利(杨树浦路店)","lon":"121.51762975","lat":"31.251271447","category":"249","category_name":"购物服务","address":"4号线杨树浦路站-4-102"},{"poiid":"B2094655D26BA0F44692","title":"近胜里小区","lon":"121.51849","lat":"31.25417","category":"47","category_name":"住宅区","address":"平凉路245弄"},{"poiid":"B2094757D164A7FF459C","title":"保定路","lon":"121.5124551","lat":"31.252942057","category":"500","category_name":"未知分类","address":"上海市虹口区保定路"},{"poiid":"B2094757D66FA2FE459F","title":"申川线","lon":"121.517830303","lat":"31.2536470718","category":"500","category_name":"未知分类","address":"上海大连路长阳路"},{"poiid":"B2094750DA6FA5FD4098","title":"兰芳园港式冻饮","lon":"121.51267","lat":"31.25323","category":"113","category_name":"冷饮店","address":"虹口区惠民路154号(近临潼路)"},{"poiid":"B2094654D56EA5FF499C","title":"快客No.1123","lon":"121.51893","lat":"31.25402","category":"117","category_name":"便民商店/便利店","address":"平凉路"},{"poiid":"B2094753D669A3F4439A","title":"蘭记芬芳港式饮品专门店","lon":"121.512764","lat":"31.253368","category":"247","category_name":"餐饮美食","address":"上海市虹口区惠民路154号"},{"poiid":"B2094654D56FA2FC4098","title":"快客No.1305","lon":"121.51496","lat":"31.25505","category":"117","category_name":"便民商店/便利店","address":"惠民路309号"},{"poiid":"B2094655D26FA0FC489A","title":"海翔小区南区","lon":"121.51294","lat":"31.25293","category":"47","category_name":"住宅区","address":"惠民路150弄5-6号"},{"poiid":"B2094757D169ABFC439B","title":"闸航路","lon":"121.5150136","lat":"31.250760311","category":"500","category_name":"未知分类","address":"上海闸航路"},{"poiid":"B2094757D16EA1FC439C","title":"榆林路临潼西村","lon":"121.514081103","lat":"31.2541400821","category":"500","category_name":"未知分类","address":"上海市虹口区长阳路"},{"poiid":"B2094654D56FA3F4449D","title":"光明便利No.286","lon":"121.513","lat":"31.25386","category":"117","category_name":"便民商店/便利店","address":"临潼路166"},{"poiid":"B2094757D16CA6FA4192","title":"卡莎布兰卡(平凉店)","lon":"121.517949","lat":"31.253487","category":"500","category_name":"未知分类","address":"杨浦区平凉路183号(近大连路)"},{"poiid":"B2094654DB6BA2FE409D","title":"临潼苑(南门)","lon":"121.51416","lat":"31.25156","category":"48","category_name":"楼宇大门","address":"杨树浦路189弄1-30号"},{"poiid":"B2094750DB6BA3FF479B","title":"浦东滨江大道","lon":"121.515625","lat":"31.248435","category":"500","category_name":"未知分类","address":null},{"poiid":"B2094654D56EA5FF4592","title":"上海上隧实业公司大连路隧道养护管理分公司","lon":"121.51687","lat":"31.25417","category":"263","category_name":"公司","address":"榆林路192号"},{"poiid":"B2094757D16CA3F5439B","title":"马登商务中心","lon":"121.512967103","lat":"31.2518510343","category":"500","category_name":"未知分类","address":"上海市虹口区杨树浦路147号"},{"poiid":"B2094757D065A7FA439F","title":"惠民路","lon":"121.512171103","lat":"31.2525720493","category":"500","category_name":"未知分类","address":"上海28路終點站"},{"poiid":"B2094655D26BA6F54899","title":"近胜里小区(南门)","lon":"121.51865","lat":"31.25392","category":"47","category_name":"住宅区","address":"平凉路245弄"},{"poiid":"B2094757D165A5FF4492","title":"犹太百年老宅","lon":"121.512533103","lat":"31.2527640533","category":"247","category_name":"餐饮美食","address":"上海市惠民路120弄"},{"poiid":"B2094654D56FA2FD499E","title":"新港工商所","lon":"121.51387","lat":"31.25418","category":"250","category_name":"公园户外","address":"惠民路232"},{"poiid":"B2094655D26CA7F5449A","title":"杨树浦路461弄小区","lon":"121.51922","lat":"31.25242","category":"47","category_name":"住宅区","address":""},{"poiid":"B2094654D56FA3F5489B","title":"健苑小区","lon":"121.51276","lat":"31.252394","category":"47","category_name":"住宅区","address":"惠民路118弄1-17号"},{"poiid":"B2094655D265A3FD4098","title":"中信银行上海北外滩支行","lon":"121.51336","lat":"31.25138","category":"150","category_name":"银行","address":"杨树浦路147"},{"poiid":"B2094654D56FA3F44793","title":"提篮都市型工业楼宇","lon":"121.51256","lat":"31.25387","category":"46","category_name":"楼宇","address":"临潼路191"},{"poiid":"B2094655D26DABFB429E","title":"杨树浦路461弄小区(南门)","lon":"121.5193","lat":"31.25217","category":"47","category_name":"住宅区","address":"杨树浦路461弄"},{"poiid":"B2094655D26EA1FC4893","title":"188KTV会所","lon":"121.51268","lat":"31.25422","category":"170","category_name":"KTV","address":"临潼路188号临潼宾馆"},{"poiid":"B2094654D56FA3F44493","title":"汇达聚龙面包","lon":"121.51293","lat":"31.25391","category":"112","category_name":"糕饼店","address":"虹口区临潼路168号"},{"poiid":"B2094757D06BA6FA439D","title":"510終點站","lon":"121.5135638","lat":"31.254585761","category":"500","category_name":"未知分类","address":"上海惠民路251號"},{"poiid":"B2094757D165AAF8479D","title":"ˋ♥.уo尛囡丶窩窩","lon":"121.514754003","lat":"31.255285006","category":"47","category_name":"住宅区","address":"上海大連路榆林路"},{"poiid":"B2094655D26CA7FB4293","title":"海翔小区南区(北门)","lon":"121.51269","lat":"31.25331","category":"47","category_name":"住宅区","address":"惠民路150弄5-6号"},{"poiid":"B2094654D56EA5FF4793","title":"上海景程旅行社有限公司","lon":"121.51812","lat":"31.25324","category":"248","category_name":"生活娱乐","address":"杨浦区平凉路200号(近大连路)"},{"poiid":"B2094655D26CA6FA4292","title":"海翔小区北区(南门)","lon":"121.51252","lat":"31.25342","category":"47","category_name":"住宅区","address":"惠民路149弄2-18号"},{"poiid":"B2094655D264ABFE4498","title":"三乐里(边门)","lon":"121.51617","lat":"31.25539","category":"47","category_name":"住宅区","address":""},{"poiid":"B2094655D264ABF94092","title":"上海春蕾牌手表经营部","lon":"121.51679","lat":"31.25445","category":"135","category_name":"钟表店","address":"榆林路201-2临"},{"poiid":"B2094751D364AAF44599","title":"上海新国际展览中心","lon":"121.5131131","lat":"31.2545483","category":"500","category_name":"未知分类","address":"龙阳路2345号"},{"poiid":"B2094655D26CA6FD469C","title":"景星路385弄小区","lon":"121.51866","lat":"31.25462","category":"47","category_name":"住宅区","address":"景星路385弄"},{"poiid":"B2094655D26DABFE429A","title":"杨树浦路471弄小区","lon":"121.52003","lat":"31.25246","category":"47","category_name":"住宅区","address":"杨树浦路471弄"},{"poiid":"B2094654D56EA5FF4493","title":"上海表业有限公司营销部","lon":"121.51702","lat":"31.25459","category":"135","category_name":"钟表店","address":""},{"poiid":"B2094654D56FA3F5419D","title":"西邨小区(北门)","lon":"121.51445","lat":"31.25289","category":"656","category_name":"大门","address":"提篮桥"},{"poiid":"B2094757D16CA6FB4993","title":"马登仓库","lon":"121.5132621","lat":"31.251714031","category":"263","category_name":"公司","address":"虹口区杨树浦路155号(近东大名路)"},{"poiid":"B2094654DB6BA2FE409C","title":"宏惠花苑(南一门)","lon":"121.51538","lat":"31.25366","category":"656","category_name":"大门","address":"榆林路69弄"},{"poiid":"B2094655D26DA5FE469C","title":"宏惠花苑(南二门)","lon":"121.51505","lat":"31.25353","category":"656","category_name":"大门","address":"榆林路69弄1-6号"},{"poiid":"B2094655D26DA4F54492","title":"惠民路355弄小区(南门)","lon":"121.51605","lat":"31.25557","category":"47","category_name":"住宅区","address":"惠民路355弄"},{"poiid":"B2094654D56FA2FE4093","title":"晋阳里","lon":"121.51199","lat":"31.252001","category":"47","category_name":"住宅区","address":"惠民路74弄3-100号"},{"poiid":"B2094654DB6BA2FE419A","title":"健苑小区(北门)","lon":"121.51216","lat":"31.25255","category":"47","category_name":"住宅区","address":"惠民路118弄1-17号"},{"poiid":"B2094655D26EA2FF469B","title":"惠民路355弄小区","lon":"121.51581","lat":"31.25572","category":"47","category_name":"住宅区","address":"惠民路355弄"},{"poiid":"B2094750DB6DA1FA479C","title":"新天地stayreal","lon":"121.516563","lat":"31.255727","category":"249","category_name":"购物服务","address":"马当路245号"},{"poiid":"B2094654D56EA5FF449E","title":"上海手表厂","lon":"121.5175","lat":"31.25486","category":"263","category_name":"公司","address":"平凉路"},{"poiid":"B2094654DB6BA2FE429E","title":"海翔小区北区","lon":"121.51231","lat":"31.25371","category":"47","category_name":"住宅区","address":"惠民路149弄2-18号"},{"poiid":"B2094655D26CA6FD469F","title":"景星路385弄小区(东门)","lon":"121.5189","lat":"31.2547","category":"47","category_name":"住宅区","address":"景星路385弄"},{"poiid":"B2094654D56EA5FF449D","title":"上海新世纪表业有限公司(榆林路)","lon":"121.51712","lat":"31.25487","category":"263","category_name":"公司","address":"榆林路201"},{"poiid":"B2094655D26CA6FD489E","title":"榆林路280弄小区(北门)","lon":"121.5185","lat":"31.25515","category":"47","category_name":"住宅区","address":"榆林路280弄"},{"poiid":"B2094757D169A7FB4493","title":"Jayne.Lu@宅","lon":"121.5192381","lat":"31.252392045","category":"500","category_name":"未知分类","address":"上海杨树浦路471弄"},{"poiid":"B2094757D164A1F8409D","title":"大董棋牌室","lon":"121.5186491","lat":"31.253221062","category":"248","category_name":"生活娱乐","address":"上海杨树铺路461弄199号"},{"poiid":"B2094655D26CA6FE469B","title":"霍山路288号小区","lon":"121.51324","lat":"31.25545","category":"47","category_name":"住宅区","address":"霍山路288"},{"poiid":"B2094655D26FA5F94593","title":"惠民路117弄小区(东门)","lon":"121.51203","lat":"31.25288","category":"47","category_name":"住宅区","address":"惠民路117弄1-18号"},{"poiid":"B2094655D26CA7F5449B","title":"杨树浦路471弄小区(南门)","lon":"121.52007","lat":"31.25223","category":"47","category_name":"住宅区","address":"杨树浦路471弄"},{"poiid":"B2094655D26CA6FA429D","title":"惠民路117弄小区","lon":"121.51202","lat":"31.25309","category":"47","category_name":"住宅区","address":"惠民路117弄1-18号"},{"poiid":"B2094655D26CA6F5419E","title":"大连路260弄小区","lon":"121.51529","lat":"31.25592","category":"47","category_name":"住宅区","address":"大连路260弄15-23号"},{"poiid":"B2094655D265ABF4459F","title":"榆林路281弄小区","lon":"121.51835","lat":"31.2555","category":"47","category_name":"住宅区","address":"榆林路281弄"},{"poiid":"B2094655D26EA3FC409B","title":"听奕里(西门)","lon":"121.51895","lat":"31.25491","category":"47","category_name":"住宅区","address":"景星路390弄"},{"poiid":"B2094655D26EA3F94798","title":"大连路260弄小区(西门)","lon":"121.51519","lat":"31.2559","category":"47","category_name":"住宅区","address":"大连路260弄15-23号"},{"poiid":"B2094654DB6BA3F54299","title":"洁美理发店","lon":"121.51953","lat":"31.25431","category":"148","category_name":"美容美发店","address":"平凉路293"},{"poiid":"B2094654D56EA5FF4999","title":"麻将天地","lon":"121.51833","lat":"31.25369","category":"175","category_name":"棋牌室","address":"平凉路211"},{"poiid":"B2094655D26CA6FC4593","title":"人寿里","lon":"121.51683","lat":"31.25608","category":"47","category_name":"住宅区","address":""},{"poiid":"B2094757D168A7F5419E","title":"浦东新区法院金桥人民法庭","lon":"121.51920318","lat":"31.253845214","category":"500","category_name":"未知分类","address":"上海浦东新区永宁路110号"},{"poiid":"B2094655D36CA3FC4292","title":"榆林路281弄小区(东门)","lon":"121.51836","lat":"31.25557","category":"47","category_name":"住宅区","address":"榆林路281弄"},{"poiid":"B2094757D168A6FC4393","title":"惠民路***号","lon":"121.514734603","lat":"31.2555773121","category":"500","category_name":"未知分类","address":"上海惠民路***号"},{"poiid":"B2094757D06BA5F4409C","title":"921终点站","lon":"121.514079103","lat":"31.2493519821","category":"500","category_name":"未知分类","address":"上海平凉路34号(靠近临潼路)"},{"poiid":"B2094757D06BA6FD4899","title":"平凉路景星路星星粮油食品商店","lon":"121.51919","lat":"31.253808","category":"249","category_name":"购物服务","address":"上海平凉路景星路路口"},{"poiid":"B2094654D56FA2FD439F","title":"上海江南职业技能培训中心(分部)","lon":"121.51346","lat":"31.25499","category":"190","category_name":"培训机构","address":"保定路2"},{"poiid":"B2094654D56FA3F4459A","title":"上海申贝感光材料厂","lon":"121.51288","lat":"31.25394","category":"263","category_name":"公司","address":""},{"poiid":"B2094655D264ABFE449D","title":"徉漾棋牌室","lon":"121.51499","lat":"31.25506","category":"175","category_name":"棋牌室","address":"惠民路"},{"poiid":"B2094654D56EA5F94992","title":"东海养老院","lon":"121.51933","lat":"31.25451","category":"207","category_name":"度假疗养场所","address":"景星路352"},{"poiid":"B2094757D66EA6FA409C","title":"同康坊","lon":"121.5147416","lat":"31.255562611","category":"500","category_name":"未知分类","address":"上海周家嘴路620弄"},{"poiid":"B2094654DB6BA3F5419B","title":"彩虹电玩","lon":"121.51899","lat":"31.25404","category":"173","category_name":"游戏厅","address":"平凉路261"},{"poiid":"B2094757D169A3FC4799","title":"霍山大楼","lon":"121.51325","lat":"31.255457","category":"252","category_name":"楼宇机构","address":"上海霍山路288号"},{"poiid":"B2094654DB6BA2FE4299","title":"惠民小区(北一门)","lon":"121.51403","lat":"31.25431","category":"656","category_name":"大门","address":"惠民路250弄1-11号"},{"poiid":"B2094654D56FA2FB459C","title":"乐声琴行","lon":"121.51441","lat":"31.25595","category":"255","category_name":"专卖店","address":"大连路277号"},{"poiid":"B2094757D165A4FE469F","title":"马路当中","lon":"121.514411","lat":"31.255953","category":"500","category_name":"未知分类","address":"上海大连路"},{"poiid":"B2094655D26FA7FD409C","title":"惠民小区(北二门)","lon":"121.51363","lat":"31.25405","category":"656","category_name":"大门","address":"惠民路220弄1-2号"},{"poiid":"B2094654D56FA2FB4593","title":"中石化中海船舶燃料供应有限公司上海物资分公司","lon":"121.51431","lat":"31.25566","category":"263","category_name":"公司","address":"大连路277"},{"poiid":"B2094752D368A4FA4698","title":"rich baby","lon":"121.517348","lat":"31.25503","category":"248","category_name":"生活娱乐","address":"淮海中路138号无限度广场"},{"poiid":"B2094655D26CA6FE4699","title":"云舫小区(东门)","lon":"121.51486","lat":"31.2553","category":"656","category_name":"大门","address":""},{"poiid":"B2094655D268A7FF499B","title":"晋阳里(南门)","lon":"121.51274","lat":"31.25118","category":"656","category_name":"大门","address":"杨树浦路115弄"},{"poiid":"B2094655D26EA2F5429B","title":"云舫小区(西门)","lon":"121.51371","lat":"31.25483","category":"656","category_name":"大门","address":"保定路20弄10-40号"},{"poiid":"B2094654DB6BA3F4489E","title":"人寿里(南二门)","lon":"121.5162","lat":"31.25565","category":"656","category_name":"大门","address":""},{"poiid":"B2094654DB6BA2FE429F","title":"晋阳里(北门)","lon":"121.51193","lat":"31.25221","category":"656","category_name":"大门","address":"惠民路74弄3-100号"},{"poiid":"B2094655D26CA6FC469A","title":"人寿里(南一门)","lon":"121.51673","lat":"31.2559","category":"656","category_name":"大门","address":"惠民路419弄"},{"poiid":"B2094655D26CA7F54792","title":"人寿里(东门)","lon":"121.51707","lat":"31.25618","category":"656","category_name":"大门","address":""}]