[{"poiid":"B2094757D06FABFF459A","title":"上海科学技术职业学院","lon":"121.25723515","lat":"31.385574228","category":"671","category_name":"高校中心点","address":"嘉定区金沙路280号"},{"poiid":"B2094654D469A4FE459D","title":"上海市嘉定区牙病防治所","lon":"121.26079","lat":"31.38631","category":"162","category_name":"医院","address":"嘉定区塔城路261号(金沙路塔城路)"},{"poiid":"B2094757D06AA3F54093","title":"明成缘","lon":"121.25831910488","lat":"31.384932781958","category":"96","category_name":"韩国料理","address":"嘉定区金沙路201号(近塔城路)"},{"poiid":"B2094757D06BA1F4409A","title":"嘉定区委党校","lon":"121.257233","lat":"31.38462","category":"500","category_name":"未知分类","address":"上海嘉定区塔城路265号"},{"poiid":"B2094757D16DA3FB439A","title":"口口咖啡法式铁板烧","lon":"121.26291","lat":"31.39523","category":"94","category_name":"西餐厅","address":"嘉定区新城路881号-C(近塔城路)"},{"poiid":"B2094757D06BAAFE489E","title":"上海科技学院9号楼寝室","lon":"121.25843525","lat":"31.387137438","category":"500","category_name":"未知分类","address":"上海嘉定区金沙路280号(塔城路口)"},{"poiid":"B2094757D06AA6F8459B","title":"塔城路","lon":"121.26364565","lat":"31.387504245","category":"500","category_name":"未知分类","address":"上海市嘉定区"},{"poiid":"B2094654DB6AA3F8499C","title":"上海科技学院","lon":"121.25687","lat":"31.38614","category":"247","category_name":"餐饮美食","address":"嘉定区金沙路280号(金沙路塔城路)"},{"poiid":"B2094757D065A6F8489D","title":"雪岳山韩国烧烤(嘉定店)","lon":"121.25825","lat":"31.38453","category":"96","category_name":"韩国料理","address":"嘉定区塔城路257号(近金沙路)"},{"poiid":"B2094757D06AABFC489D","title":"新招鲜本地鸡窝(塔城路店)","lon":"121.256573653","lat":"31.3843191806","category":"86","category_name":"火锅店","address":"嘉定区塔城路283-6号(近金沙路)"},{"poiid":"B2094757D065A5FC4392","title":"歌顿咖啡新成店","lon":"121.2694","lat":"31.38908","category":"260","category_name":"其他","address":"嘉定区塔城东路292号(近和政路)"},{"poiid":"B2094757D064A3F44992","title":"恒通驾校","lon":"121.2621","lat":"31.38737","category":"253","category_name":"校园生活","address":"嘉定区塔城东路488号(近塔城路)"},{"poiid":"B2094654D469ABFD439B","title":"上海电视大学嘉定分校","lon":"121.25708","lat":"31.38623","category":"52","category_name":"高等院校","address":"嘉定区金沙路280"},{"poiid":"B2094655D268A5FE4698","title":"天象农家庄","lon":"121.26178","lat":"31.3909","category":"257","category_name":"中餐厅","address":"嘉定区嘉罗公路800弄5号桥东首(近塔城东路)"},{"poiid":"B2094654D469A1F9459D","title":"嘉定别墅","lon":"121.258","lat":"31.3892","category":"47","category_name":"住宅区","address":"嘉定区南大街321号(近法华塔)"},{"poiid":"B2094655D36CA0FA4899","title":"嘉罗公路塔城路","lon":"121.26109","lat":"31.38791","category":"38","category_name":"公交车站","address":""},{"poiid":"B2094757D065A6FB4193","title":"珍品(嘉罗公路店)","lon":"121.26207","lat":"31.38376","category":"76","category_name":"上海菜","address":"嘉定区嘉罗公路453号(宝嘉公路迎园中路)"},{"poiid":"B2094655D268A4FD499D","title":"塔城东路492-496弄小区","lon":"121.26263","lat":"31.38769","category":"47","category_name":"住宅区","address":"塔城东路492-496弄"},{"poiid":"B2094655D36CA0FA4993","title":"嘉定东门","lon":"121.26203","lat":"31.38712","category":"38","category_name":"公交车站","address":""},{"poiid":"B2094757D664A6F44592","title":"江湖翅客","lon":"121.258849","lat":"31.385271","category":"68","category_name":"快餐厅","address":"嘉定区塔城路174号党校东侧(近金沙路)"},{"poiid":"B2094654D469A4FE449C","title":"上海外国语大学嘉定外国语实验学校","lon":"121.25979","lat":"31.38351","category":"52","category_name":"高等院校","address":"嘉定区金沙路168号(近欧尚超市)"},{"poiid":"B2094757D06AA0FE4398","title":"夏天形象设计中心(金沙路店)","lon":"121.25784","lat":"31.38462","category":"148","category_name":"美容美发店","address":"嘉定区金沙路(近塔城路)"},{"poiid":"B2094654DB6AA5FD489D","title":"快客","lon":"121.26093","lat":"31.38751","category":"117","category_name":"便民商店/便利店","address":"嘉罗公路657"},{"poiid":"B2094655D264A7FB4292","title":"众宇花园","lon":"121.26312","lat":"31.38744","category":"47","category_name":"住宅区","address":"上海市嘉定区塔城东路288号"},{"poiid":"B2094654D469A5F5499F","title":"好德NO.3024","lon":"121.26294","lat":"31.38716","category":"117","category_name":"便民商店/便利店","address":"塔城东路493"},{"poiid":"B2094655D268A5FE469A","title":"塔城东路550弄小区","lon":"121.26181","lat":"31.38746","category":"47","category_name":"住宅区","address":"塔城东路550弄1-5号"},{"poiid":"B2094655D268A6F4409D","title":"塔城东路550弄小区(南门)","lon":"121.26185","lat":"31.38734","category":"47","category_name":"住宅区","address":"塔城东路550弄1-5号"},{"poiid":"B2094757D66BA2FB469D","title":"道草日本料理","lon":"121.25798","lat":"31.3848","category":"95","category_name":"日本料理","address":"嘉定区塔城路257号(金沙路口)"},{"poiid":"B2094655D268A4FD499C","title":"塔城东路492-496弄小区(南门)","lon":"121.2627","lat":"31.38755","category":"47","category_name":"住宅区","address":"塔城东路492-496弄"},{"poiid":"B2094655D268A6F4409C","title":"西村小区","lon":"121.26316","lat":"31.386873","category":"47","category_name":"住宅区","address":"塔城东路491弄-495弄"},{"poiid":"B2094654D469ABFD4593","title":"上海嘉定协通别克","lon":"121.26096","lat":"31.38694","category":"158","category_name":"汽车销售","address":"塔城路8号"},{"poiid":"B2094655D268A4FE499E","title":"塔城东路495弄小区(北门)","lon":"121.26253","lat":"31.38705","category":"47","category_name":"住宅区","address":"塔城东路495弄"},{"poiid":"B2094654D469ABFD4692","title":"商建公寓","lon":"121.25998","lat":"31.388151","category":"47","category_name":"住宅区","address":"嘉罗公路685弄"},{"poiid":"B2094654D469A5F5499B","title":"西村小区(北门)","lon":"121.26326","lat":"31.38722","category":"47","category_name":"住宅区","address":"塔城东路491-495弄"},{"poiid":"B2094655D268A4FE499F","title":"塔城东路495弄小区","lon":"121.26269","lat":"31.38678","category":"47","category_name":"住宅区","address":"塔城东路495弄"},{"poiid":"B2094655D26FABF8419A","title":"迎园新村五、八坊","lon":"121.26623","lat":"31.38359","category":"47","category_name":"住宅区","address":"上海嘉定区迎园中路"},{"poiid":"B2094757D16CA0FE469E","title":"阿娥汤圆店(金沙路店)","lon":"121.25817","lat":"31.3831844","category":"68","category_name":"快餐厅","address":"嘉定区金沙路(近仓场路)"},{"poiid":"B2094654D469A4FE4799","title":"嘉乐花园","lon":"121.26138","lat":"31.384384","category":"47","category_name":"住宅区","address":"嘉罗公路485弄"},{"poiid":"B2094655D268A4FE409B","title":"迎园新村十坊","lon":"121.26323","lat":"31.385235","category":"47","category_name":"住宅区","address":"新成路街道迎园路277弄"},{"poiid":"B2094654D469A4FE4699","title":"嘉星绿苑","lon":"121.26098","lat":"31.385723","category":"47","category_name":"住宅区","address":"罗嘉公路531弄"},{"poiid":"B2094757D069ABF54698","title":"巴麦隆自助烤肉嘉定店","lon":"121.257041","lat":"31.384297","category":"257","category_name":"中餐厅","address":"嘉定区嘉定区塔城路267号(金沙路欧尚超市对面)"},{"poiid":"B2094654D469A4FE439A","title":"和幸日本料理","lon":"121.257507","lat":"31.385252","category":"95","category_name":"日本料理","address":"嘉定区金沙路207号(近塔城路)"},{"poiid":"B209475DD665A0F8419E","title":"三花奶奶甜品店","lon":"121.26371","lat":"31.385597","category":"247","category_name":"餐饮美食","address":"上海市 塔城路210号"},{"poiid":"B2094655D268A4FE409A","title":"迎园十三坊","lon":"121.26463","lat":"31.38655","category":"47","category_name":"住宅区","address":""},{"poiid":"B2094654D469ABFD439C","title":"上海科学技术职业学院硕士研究生工作点","lon":"121.25707","lat":"31.38623","category":"52","category_name":"高等院校","address":"金沙路280"},{"poiid":"B209475DD268A3FA4692","title":"Bella Ciao","lon":"121.262535","lat":"31.386783","category":"500","category_name":"未知分类","address":"上海市 塔城路295号"},{"poiid":"B2094757D16EA6FF459E","title":"金地格林春岸","lon":"121.260778","lat":"31.386815","category":"500","category_name":"未知分类","address":"上海嘉定区塔城路556弄"},{"poiid":"B2094757D064AAF8429C","title":"张太和爊鸭(迎园店)","lon":"121.26682","lat":"31.38407","category":"68","category_name":"快餐厅","address":"嘉定区嘉定镇迎园中路616号(迎园北路迎园路)"},{"poiid":"B2094655D268A5FE479D","title":"嘉星绿苑(北门)","lon":"121.26167","lat":"31.3857","category":"47","category_name":"住宅区","address":"嘉罗公路531弄"},{"poiid":"B2094757D064A5F54793","title":"上海科学技术学校新教大楼","lon":"121.25741965","lat":"31.386667228","category":"500","category_name":"未知分类","address":"上海金沙路280号"},{"poiid":"B2094655D268A4FE489D","title":"塔城路489弄小区(北门)","lon":"121.26467","lat":"31.38763","category":"47","category_name":"住宅区","address":"塔城路489弄"},{"poiid":"B2094654D469A0FF449B","title":"上海市公安局嘉定分局(塔城东路)","lon":"121.26699","lat":"31.38877","category":"248","category_name":"生活娱乐","address":"塔城路400号"},{"poiid":"B2094654D469A5F4489E","title":"迎园新村六七坊","lon":"121.26358","lat":"31.38372","category":"47","category_name":"住宅区","address":"新成路"},{"poiid":"B2094654D469A4FE459C","title":"上海市嘉定区中光高级中学","lon":"121.25952","lat":"31.38437","category":"55","category_name":"中学","address":""},{"poiid":"B2094654DB6AA5FD429C","title":"迎园新村十二坊","lon":"121.26556","lat":"31.387173","category":"47","category_name":"住宅区","address":"新成路"},{"poiid":"B2094655D268A4FE499B","title":"塔城路489弄小区","lon":"121.26478","lat":"31.38733","category":"47","category_name":"住宅区","address":"塔城路489弄"},{"poiid":"B2094654D469ABFD419B","title":"金沙公寓","lon":"121.25777","lat":"31.387566","category":"47","category_name":"住宅区","address":"金沙江路318弄"},{"poiid":"B2094655D26FA1FB479C","title":"迎园十三坊(南门)","lon":"121.26441","lat":"31.38619","category":"47","category_name":"住宅区","address":""},{"poiid":"B2094753D764AAFD439E","title":"朱记港式茶餐厅","lon":"121.256881","lat":"31.385845","category":"247","category_name":"餐饮美食","address":"上海市嘉定区金沙路257号"},{"poiid":"B2094655D268A4FF409F","title":"上海国际汽车城人才培训学院(金沙路)","lon":"121.25836","lat":"31.3845","category":"253","category_name":"校园生活","address":"金沙路200号"},{"poiid":"B2094654D469A2FC409A","title":"城南新村","lon":"121.26","lat":"31.3846","category":"47","category_name":"住宅区","address":"沙霞路95弄1-29号"},{"poiid":"B2094654D469A5F4489F","title":"嘉定区迎园小学","lon":"121.26482","lat":"31.38512","category":"56","category_name":"小学","address":"迎宾路651"},{"poiid":"B2094757D66CA0F9409E","title":"嘉定区革命烈士陵园","lon":"121.26519","lat":"31.38792","category":"620","category_name":"丧葬","address":"嘉定区嘉定镇塔城东路486号(新成路塔城东路)"},{"poiid":"B2094654D469A5F4499D","title":"迎园新村十一坊","lon":"121.26624","lat":"31.385618","category":"47","category_name":"住宅区","address":"新成路附近"},{"poiid":"B2094757D16DA4F94999","title":"吉祥馄饨(金沙路店)","lon":"121.25642","lat":"31.38617","category":"68","category_name":"快餐厅","address":"嘉定区金沙路269号(近博乐路)"},{"poiid":"B2094655D268A5FE4699","title":"嘉乐花园(东门)","lon":"121.26172","lat":"31.38428","category":"47","category_name":"住宅区","address":"嘉罗公路455弄1-18号"},{"poiid":"B2094757D16DA2F9449D","title":"镇香面馆","lon":"121.25582","lat":"31.38699","category":"68","category_name":"快餐厅","address":"嘉定区金沙路369号(嘉定党校北侧)"},{"poiid":"B2094655D36DA0FC4099","title":"新成路迎园路","lon":"121.26686","lat":"31.38569","category":"38","category_name":"公交车站","address":""},{"poiid":"B2094757D168A4F84293","title":"思蜜客蜜酿酸奶 嘉定店","lon":"121.25588","lat":"31.38718","category":"257","category_name":"中餐厅","address":"嘉定区东大街461号(近欧尚大卖场)"},{"poiid":"B2094757D064AAF9449E","title":"嘉定区司法中心","lon":"121.25900465","lat":"31.386367222","category":"500","category_name":"未知分类","address":"上海市嘉定区白银路555号"},{"poiid":"B2094757D66CA2FF4793","title":"重庆金老汉烧鸡公火锅城","lon":"121.25796","lat":"31.383842","category":"247","category_name":"餐饮美食","address":"上海嘉定金沙路187号"},{"poiid":"B2094757D16AA3FE4399","title":"哈瓦那酒吧","lon":"121.2669661","lat":"31.384118816","category":"172","category_name":"酒吧","address":"嘉定区环城路579号(近嘉行公路)"},{"poiid":"B2094655D268A4FE4893","title":"悦华公寓(东门)","lon":"121.25735","lat":"31.38952","category":"47","category_name":"住宅区","address":"东大街118弄"},{"poiid":"B2094654DB69A0F4469C","title":"嘉定区疾病预防控制中心","lon":"121.25698","lat":"31.38483","category":"162","category_name":"医院","address":"塔城路264号"},{"poiid":"B2094757D66FA1FF4898","title":"上海科学技术职业学院9号楼314寝室","lon":"121.258520653","lat":"31.3883182623","category":"500","category_name":"未知分类","address":null},{"poiid":"B2094654D469ABFD4493","title":"上海城市管理职业技术学院嘉定分院","lon":"121.2577","lat":"31.38571","category":"52","category_name":"高等院校","address":"嘉定区嘉定东大街388号"},{"poiid":"B2094654D469ABFD449E","title":"上海市嘉定区社会主义学院","lon":"121.25769","lat":"31.38572","category":"52","category_name":"高等院校","address":"塔城路228号"},{"poiid":"B2094654D469ABFD4792","title":"悦华公寓","lon":"121.25692","lat":"31.390079","category":"47","category_name":"住宅区","address":"东大街118弄"},{"poiid":"B2094654D469ABFD4492","title":"上海青年管理干部学院嘉定校区","lon":"121.25769","lat":"31.38571","category":"52","category_name":"高等院校","address":"塔城路228号"},{"poiid":"B2094655D36CA0FA489E","title":"嘉罗公路新成路","lon":"121.26006","lat":"31.39309","category":"38","category_name":"公交车站","address":""},{"poiid":"B2094654D469ABFD4499","title":"嘉定行政学院","lon":"121.25769","lat":"31.38571","category":"52","category_name":"高等院校","address":"嘉定区塔城路228号"},{"poiid":"B2094655D26BA2FA489A","title":"塔城路和政路","lon":"121.26779","lat":"31.38875","category":"38","category_name":"公交车站","address":""},{"poiid":"B2094757D068A1FE4593","title":"上海科技学院1教老破楼","lon":"121.2567749","lat":"31.385976791","category":"500","category_name":"未知分类","address":"上海嘉定区金沙路280号"},{"poiid":"B2094757D065A3F8489D","title":"新城八坊","lon":"121.267408553","lat":"31.3865025252","category":"47","category_name":"住宅区","address":"上海迎园路"},{"poiid":"B2094655D268A4FD4999","title":"迎园新村六、七坊(北门)","lon":"121.26358","lat":"31.38409","category":"47","category_name":"住宅区","address":""},{"poiid":"B2094654D469A5F5409B","title":"迎园菜场","lon":"121.26553","lat":"31.38469","category":"117","category_name":"便民商店/便利店","address":"嘉定区迎园中路(近迎园小学)"},{"poiid":"B2094654D469A1F9449C","title":"六一新村","lon":"121.257","lat":"31.3871","category":"47","category_name":"住宅区","address":"塔城路332弄"},{"poiid":"B2094654D469A4FD419F","title":"上海燕子花苑酒店","lon":"121.2636","lat":"31.39274","category":"70","category_name":"综合酒楼","address":"嘉定区新成路899号"},{"poiid":"B2094750D76CA7F5439B","title":"戍號茶庄","lon":"121.261","lat":"31.3866","category":"260","category_name":"其他","address":"嘉定区塔城路5号(近嘉罗公路)"},{"poiid":"B2094757D169A0FD409A","title":"中国工商银行(迎园支行)","lon":"121.262374","lat":"31.384967","category":"150","category_name":"银行","address":"普陀区迎园新村10坊60号塔城路"},{"poiid":"B2094654D469A5F4479C","title":"集体商业有限公司银园食品商场","lon":"121.26499","lat":"31.38415","category":"119","category_name":"商场","address":"迎园中路604"},{"poiid":"B2094654D469ABFD4398","title":"上海市嘉定区社区学院","lon":"121.25707","lat":"31.38624","category":"52","category_name":"高等院校","address":"嘉定区金沙路280"},{"poiid":"B2094654D469A5F5409E","title":"良友金伴NO.498","lon":"121.26519","lat":"31.3843","category":"117","category_name":"便民商店/便利店","address":"迎园路590"},{"poiid":"B2094654D469A5F5409C","title":"好德NO.599","lon":"121.26514","lat":"31.38425","category":"117","category_name":"便民商店/便利店","address":"迎园路594"},{"poiid":"B2094757D66DA3FE4493","title":"嘉定区新成路街道劳动保障事务所","lon":"121.263408353","lat":"31.3927763534","category":"46","category_name":"楼宇","address":"上海市嘉定区新成路155号"},{"poiid":"B2094757D16AA4FF429A","title":"上海科技学院新教","lon":"121.258862653","lat":"31.385417203","category":"500","category_name":"未知分类","address":"上海嘉定区金沙路280号"},{"poiid":"B2094654D469ABFD4293","title":"上海电视大学嘉定分校一站式学生支持服务中心","lon":"121.25678","lat":"31.38627","category":"52","category_name":"高等院校","address":"金沙路282"},{"poiid":"B2094654D469A4FC419F","title":"中国工商银行上海市迎园支行ATM取款机","lon":"121.26242","lat":"31.38542","category":"152","category_name":"ATM","address":"新成路"},{"poiid":"B2094654D469A4FE4899","title":"迎园别墅","lon":"121.268","lat":"31.388","category":"47","category_name":"住宅区","address":"嘉罗公路385号"},{"poiid":"B2094757D66EA6FB4693","title":"上海科技学院2教烂楼","lon":"121.26326565","lat":"31.38481519","category":"500","category_name":"未知分类","address":"上海市嘉定区塔城路"},{"poiid":"B2094654D469ABFD489D","title":"好德便利NO.944","lon":"121.25636","lat":"31.38855","category":"117","category_name":"便民商店/便利店","address":"东大街182"},{"poiid":"B2094654D469A3F5499B","title":"东塔小区","lon":"121.258","lat":"31.3848","category":"47","category_name":"住宅区","address":"塔城路331弄1-30号,"},{"poiid":"B2094757D065ABF84799","title":"点缀青春","lon":"121.255453","lat":"31.387966","category":"149","category_name":"洗浴推拿场所","address":"嘉定区裕民路428号(家得利超市旁)"},{"poiid":"B2094655D268A6F4409A","title":"金沙路366弄小区","lon":"121.25614","lat":"31.38786","category":"47","category_name":"住宅区","address":"金沙路366弄"},{"poiid":"B2094757D66AA7FE4292","title":"田园金顺酒家","lon":"121.257919","lat":"31.384359","category":"76","category_name":"上海菜","address":"嘉定区金沙路183号(金沙路塔城路)"},{"poiid":"B2094654D469ABFD419E","title":"好德便利NO.237","lon":"121.25631","lat":"31.38687","category":"117","category_name":"便民商店/便利店","address":"金沙路310"},{"poiid":"B2094655D265A0FD479A","title":"上海市工艺美术学校","lon":"121.25759","lat":"31.38529","category":"54","category_name":"职业技术学校","address":"塔城东路"},{"poiid":"B2094654D469ABFC4693","title":"上海市嘉定区血站","lon":"121.25674","lat":"31.38567","category":"162","category_name":"医院","address":"嘉定区金沙路255号"},{"poiid":"B2094654DB65A4F44193","title":"新成十坊","lon":"121.26743","lat":"31.386713","category":"47","category_name":"住宅区","address":"迎宾路488弄16"},{"poiid":"B2094757D66FA2F5429C","title":"巴比馒头","lon":"121.256825","lat":"31.386104","category":"247","category_name":"餐饮美食","address":"上海嘉定塔城路20号上海大学校门口"},{"poiid":"B2094654D469A4FE459F","title":"美丽女人(塔城路)","lon":"121.25843","lat":"31.38504","category":"141","category_name":"服装鞋帽皮具店","address":""},{"poiid":"B2094655D26FABF84198","title":"上海外国语大学嘉定外国语实验学校(西门)","lon":"121.25834","lat":"31.38346","category":"52","category_name":"高等院校","address":"金沙路168号"},{"poiid":"B2094757D16BA0FD479A","title":"名典咖啡语茶 嘉定店","lon":"121.257564","lat":"31.386287","category":"260","category_name":"其他","address":"嘉定区金沙路280号(塔城路口)"},{"poiid":"B2094654D469ABFD419F","title":"百安居装潢嘉定分公司","lon":"121.25634","lat":"31.38683","category":"123","category_name":"家具建材市场","address":"金沙路306"},{"poiid":"B2094654D469A5F44993","title":"迎园新村八坊(边门)","lon":"121.26641","lat":"31.3849","category":"47","category_name":"住宅区","address":""},{"poiid":"B2094655D268A4F84192","title":"塔城东路365弄小区(北门)","lon":"121.2675","lat":"31.38841","category":"47","category_name":"住宅区","address":"塔城东路365弄"},{"poiid":"B2094655D268A4FA499B","title":"金沙公寓(西门)","lon":"121.25619","lat":"31.38704","category":"47","category_name":"住宅区","address":"金沙路318"},{"poiid":"B2094654D469A2F44198","title":"高扬商厦","lon":"121.25580469899","lat":"31.386537390925","category":"119","category_name":"商场","address":"城中路高扬商厦"},{"poiid":"B2094757D169A7F94498","title":"优然瑜伽SPA会所","lon":"121.25779","lat":"31.38431","category":"148","category_name":"美容美发店","address":"嘉定区塔城路261号3楼(近金沙路)"},{"poiid":"B2094655D268A4F84193","title":"新成八坊","lon":"121.26795","lat":"31.386066","category":"47","category_name":"住宅区","address":"迎园路488弄"},{"poiid":"B2094654D469A5F5409D","title":"迎园新村五、八坊(边门)","lon":"121.26546","lat":"31.38385","category":"47","category_name":"住宅区","address":""},{"poiid":"B2094757D165A2F44092","title":"ESPA音乐美容瑜伽会所","lon":"121.262045653","lat":"31.3840761756","category":"500","category_name":"未知分类","address":"上海嘉定区嘉罗公路433号"},{"poiid":"B2094757DB6FA5F5499F","title":"清风人家茶馆","lon":"121.2630306148307","lat":"31.38191434489992","category":"247","category_name":"餐饮美食","address":"嘉定区仓场路"},{"poiid":"B2094654D469ABFD499A","title":"东大小区","lon":"121.25573","lat":"31.388847","category":"47","category_name":"住宅区","address":"东大街160弄"},{"poiid":"B2094757D66CA4FA449D","title":"藏妖阁","lon":"121.25890205","lat":"31.384945493","category":"500","category_name":"未知分类","address":"上海嘉罗路455弄"},{"poiid":"B2094757D168A6F4449F","title":"诗海缘足部保健中心","lon":"121.256895","lat":"31.385439","category":"500","category_name":"未知分类","address":"上海金沙路"},{"poiid":"B2094654D469ABFC4692","title":"盆山阁","lon":"121.25683","lat":"31.38552","category":"47","category_name":"住宅区","address":"金沙路253弄"},{"poiid":"B2094655D26EA1FE4092","title":"金沙小区","lon":"121.25587","lat":"31.385836","category":"47","category_name":"住宅区","address":"金沙路253弄"},{"poiid":"B2094654D469A4F5499E","title":"永峰新苑","lon":"121.26129","lat":"31.394289","category":"47","category_name":"住宅区","address":"嘉罗公路1081弄"},{"poiid":"B2094655D268A4FE4999","title":"迎园新村四坊","lon":"121.26303","lat":"31.382111","category":"47","category_name":"住宅区","address":"仓场路40号"},{"poiid":"B2094757D66CAAFE4492","title":"迎园六、七坊","lon":"121.262827653","lat":"31.3835281644","category":"500","category_name":"未知分类","address":"上海迎园中路"},{"poiid":"B2094654D469A5F44992","title":"迎园新村八坊","lon":"121.26658","lat":"31.384575","category":"47","category_name":"住宅区","address":"新成路"},{"poiid":"B2094655D268A6FB4993","title":"金沙路366弄小区(西门)","lon":"121.2557","lat":"31.3876","category":"47","category_name":"住宅区","address":"金沙路366弄"},{"poiid":"B2094654D469ABFD449D","title":"上海市嘉定财税培训中心","lon":"121.2577","lat":"31.38572","category":"190","category_name":"培训机构","address":"塔城路228号"},{"poiid":"B2094654D469ABFC479A","title":"上海市嘉定区卫生工作者协会","lon":"121.25653","lat":"31.38593","category":"250","category_name":"公园户外","address":"金沙路257"},{"poiid":"B2094757D66EA6FF419F","title":"上海科学技术职业学院三楼报告厅","lon":"121.257075","lat":"31.386239","category":"500","category_name":"未知分类","address":"上海嘉定区金沙路280号"},{"poiid":"B2094757D569A0F5459B","title":"上海贺绿汀钢琴总汇(嘉定分部)","lon":"121.25696967","lat":"31.38910617","category":"255","category_name":"专卖店","address":"中国上海市嘉定区东大路"},{"poiid":"B2094655D268A4FE4099","title":"迎园别墅(东门)","lon":"121.26191","lat":"31.3823","category":"47","category_name":"住宅区","address":"嘉罗公路385"},{"poiid":"B2094655D268A4FE4098","title":"迎园新村十坊(北门)","lon":"121.26403","lat":"31.38603","category":"656","category_name":"大门","address":""},{"poiid":"B2094757D66CA6FC4293","title":"旺辉新概念川菜","lon":"121.26022618","lat":"31.381770138","category":"247","category_name":"餐饮美食","address":"上海嘉定区博了路塔城路"},{"poiid":"B2094654D469A4FE499F","title":"新成八坊(南门)","lon":"121.26802","lat":"31.38568","category":"47","category_name":"住宅区","address":"迎园路488弄"},{"poiid":"B2094757D16AABFE4593","title":"道草@日本料理","lon":"121.262557983","lat":"31.3834648132","category":"500","category_name":"未知分类","address":"上海嘉定区塔城路257号"},{"poiid":"B2094757D568A7FE4092","title":"可德便利(嘉定环城路)","lon":"121.25811117","lat":"31.39235623","category":"117","category_name":"便民商店/便利店","address":"环城路64"},{"poiid":"B2094654D469A4FE429F","title":"兴业银行上海嘉定支行","lon":"121.25752","lat":"31.38458","category":"150","category_name":"银行","address":"嘉定镇"},{"poiid":"B209475CD56BA6FE4592","title":"上海雅昌艺术中心","lon":"121.260055","lat":"31.393091","category":"500","category_name":"未知分类","address":"上海市 上海市嘉定区嘉罗公路1022号"},{"poiid":"B2094655D26FAAF8419E","title":"永峰新苑(南门)","lon":"121.26123","lat":"31.39377","category":"47","category_name":"住宅区","address":"嘉罗路1081弄"},{"poiid":"B2094654DB6AA5FD439B","title":"新成十坊(西一门)","lon":"121.26643","lat":"31.38771","category":"656","category_name":"大门","address":""},{"poiid":"B2094757D66EA7FD489A","title":"东门大街","lon":"121.25621485","lat":"31.388844273","category":"500","category_name":"未知分类","address":"上海东门大街"},{"poiid":"B2094654D469A4FC419C","title":"迎园新村十坊(西门)","lon":"121.26238","lat":"31.38496","category":"656","category_name":"大门","address":""},{"poiid":"B2094757D16DA3FA489B","title":"白色半透明蕾丝边窗帘大跳台","lon":"121.26722165","lat":"31.389811292","category":"500","category_name":"未知分类","address":"上海市嘉定区新成路"},{"poiid":"B2094757D065A4F9499F","title":"清華少兒英語","lon":"121.25721065","lat":"31.384874191","category":"253","category_name":"校园生活","address":"上海市嘉定區金沙路215號4樓"},{"poiid":"B2094757D16EA4F5429D","title":"科学技术职业学院7号楼寝室","lon":"121.2561725","lat":"31.3867787","category":"500","category_name":"未知分类","address":null},{"poiid":"B2094757D569A6FA439E","title":"Am琴行(金沙路店)","lon":"121.2560045","lat":"31.38730143","category":"255","category_name":"专卖店","address":"金沙路326"},{"poiid":"B2094654D469ABFD4399","title":"上海市教科院职成教研究所嘉定研究室","lon":"121.25707","lat":"31.38624","category":"191","category_name":"科研机构","address":"金沙路280"},{"poiid":"B2094757DA64A2F9429F","title":"钜凯馨园","lon":"121.26759","lat":"31.391075","category":"252","category_name":"楼宇机构","address":"嘉定区和政路885弄"},{"poiid":"B2094655D268A4FD499F","title":"迎园新村十坊(东门)","lon":"121.26377","lat":"31.38475","category":"656","category_name":"大门","address":""},{"poiid":"B2094757D16FAAFD459B","title":"科技大学文明三好寝室435","lon":"121.26512865","lat":"31.383429162","category":"500","category_name":"未知分类","address":"上海市嘉定区迎园西路"},{"poiid":"B2094654D469ABFC469F","title":"上海市嘉定卫生人才培训中心","lon":"121.25662","lat":"31.38467","category":"190","category_name":"培训机构","address":""},{"poiid":"B2094655D268A4FE409F","title":"迎园新村十一坊(北门)","lon":"121.26605","lat":"31.38635","category":"656","category_name":"大门","address":"新成路"},{"poiid":"B2094752DB6EA2F9419E","title":"东润舒庭","lon":"121.264101","lat":"31.381978","category":"500","category_name":"未知分类","address":"上海市 嘉定区墅沟路69弄"},{"poiid":"B2094654D469ABFC4899","title":"建新宠物诊所","lon":"121.25621","lat":"31.38636","category":"668","category_name":"诊所","address":"金沙路267"},{"poiid":"B2094654D469A4FE4999","title":"新成十坊(东门)","lon":"121.26677","lat":"31.3868","category":"656","category_name":"大门","address":"迎宾路488弄"},{"poiid":"B2094655D26FABF84093","title":"迎园新村十一坊(南门)","lon":"121.26637","lat":"31.38525","category":"656","category_name":"大门","address":""},{"poiid":"B2094757D16AA0FA479D","title":"迎园社区居委","lon":"121.26593696","lat":"31.384190348","category":"260","category_name":"其他","address":"上海嘉定区迎园新村八坊4号"},{"poiid":"B2094655D268A4FB469E","title":"东大小区(南门)","lon":"121.25617","lat":"31.38843","category":"656","category_name":"大门","address":""},{"poiid":"B2094655D268A4FA489D","title":"金沙小区(东门)","lon":"121.25681","lat":"31.38556","category":"656","category_name":"大门","address":"金沙路253弄"},{"poiid":"B2094757D66CA6FE4098","title":"小万水果大卖场","lon":"121.267604091","lat":"31.3853349499","category":"260","category_name":"其他","address":"嘉定区新成路523-529号(近迎园菜场)"},{"poiid":"B2094655D268A4FA489F","title":"金沙小区(南门)","lon":"121.25646","lat":"31.38446","category":"656","category_name":"大门","address":"金沙路253弄、331弄"}]