[{"poiid":"B2094757D06EAAFF4192","title":"巴黎春天(成山店)","lon":"121.5358448","lat":"31.1785916","category":"119","category_name":"商场","address":"浦东新区成山路1993号(近锦尊路)"},{"poiid":"B2094757D06EAAFD439D","title":"星巴克(成山路店)","lon":"121.5357218","lat":"31.1785685","category":"260","category_name":"其他","address":"浦东新区成山路1993号巴黎春天1楼(近博华路)"},{"poiid":"B2094757D06FA1FA439C","title":"大华锦绣假日酒店","lon":"121.53326","lat":"31.17911","category":"214","category_name":"四星级宾馆","address":"上海市浦东新区锦尊路399号(近北艾路)"},{"poiid":"B2094757D068A3F8419F","title":"洋葱餐厅","lon":"121.53409273","lat":"31.17955122","category":"500","category_name":"未知分类","address":"浦东新区浦建路118号巴黎春天4楼(浦澳路浦逸路)"},{"poiid":"B2094757D06FA6FF439B","title":"掌柜的店(锦尊路店)","lon":"121.533305108","lat":"31.1799593395","category":"260","category_name":"其他","address":"浦东新区锦尊路459号(成山路巴黎春天旁)"},{"poiid":"B2094757DA6EA6FD439C","title":"新石器烤肉(成山巴春店)","lon":"121.535721799997","lat":"31.1785685","category":"68","category_name":"快餐厅","address":"浦东新区成山路1993号巴黎春天B1楼(近博华路)"},{"poiid":"B2094757D06FA6FB4992","title":"大华锦绣华城","lon":"121.535558","lat":"31.177853","category":"47","category_name":"住宅区","address":"上海浦东新区锦绣路3168号‎(近北艾路)"},{"poiid":"B2094757D068A2FA439D","title":"甜蜜蜜","lon":"121.53405473","lat":"31.179428218","category":"500","category_name":"未知分类","address":"浦东新区成山路1993号巴黎春天B1楼19号(近博华路)"},{"poiid":"B2094757DA6EABFC4293","title":"万嘉酒店(锦尊店)","lon":"121.533100999999","lat":"31.18013","category":"72","category_name":"广东菜","address":"浦东新区锦尊路439号(近成山路)"},{"poiid":"B2094757D06FAAF8489C","title":"呷哺呷哺(成山巴春店)","lon":"121.534135738","lat":"31.1795132201","category":"86","category_name":"火锅店","address":"浦东新区成山路1993号巴黎春天B1楼5-6号(近下南路)"},{"poiid":"B2094757D068A2FA439F","title":"萨莉亚成山巴黎春天店","lon":"121.53421538","lat":"31.179115381","category":"94","category_name":"西餐厅","address":"浦东新区成山路1993号巴黎春天B1楼(近博华路)"},{"poiid":"B2094757D069A2FA4198","title":"棒约翰比萨(成山巴春店)","lon":"121.533849054","lat":"31.1784412972","category":"94","category_name":"西餐厅","address":"浦东新区成山路1993号巴黎春天(近成山路)"},{"poiid":"B2094757D16CA5FD489A","title":"君君烧烤","lon":"121.535789238","lat":"31.1695258826","category":"68","category_name":"快餐厅","address":"浦东新区东书房路148号(近板泉路)"},{"poiid":"B2094757D06FA2F9499E","title":"大华锦绣华城16街区(中原地产)","lon":"121.53004815","lat":"31.1758471245","category":"47","category_name":"住宅区","address":"成山路1728弄"},{"poiid":"B2094757D069A2FE439A","title":"卡通尼乐园(成山店)","lon":"121.534012738","lat":"31.179557221","category":"173","category_name":"游戏厅","address":"浦东新区锦尊路499弄6号B1楼(近成山路)"},{"poiid":"B2094757D465A6F84793","title":"争鲜回转寿司","lon":"121.536121","lat":"31.178694","category":"95","category_name":"日本料理","address":"浦东新区成山路1993号巴黎春天B1楼(近锦尊路)"},{"poiid":"B2094750D76EA5FE449C","title":"湘乐汇(巴黎春天店)","lon":"121.536","lat":"31.1789","category":"77","category_name":"湖南菜","address":"浦东新区成山路1993号巴黎春天(近锦尊路)"},{"poiid":"B2094757D06EAAF9499F","title":"85度C(成山店)","lon":"121.535052","lat":"31.178648","category":"67","category_name":"甜品店","address":"浦东新区成山路1993号巴黎春天内(近博华路)"},{"poiid":"B2094750DA6EA1FE4993","title":"陌生人火锅巴黎春天成山路店","lon":"121.535087","lat":"31.17881","category":"247","category_name":"餐饮美食","address":null},{"poiid":"B2094757D46EA2FC449C","title":"肯德基 成山巴春店 KFC","lon":"121.53432","lat":"31.17867","category":"68","category_name":"快餐厅","address":"浦东新区成山路1993号巴黎春天内(近博华路)"},{"poiid":"B2094655D268ABFC439D","title":"大华·锦绣华城香榭丽大道","lon":"121.53918","lat":"31.17891","category":"116","category_name":"特色商业街","address":""},{"poiid":"B2094757D465A3F94798","title":"浸香日本料理","lon":"121.53339385986","lat":"31.179615020752","category":"268","category_name":"自助","address":"浦东新区锦尊路463号(近成山路巴黎春天)"},{"poiid":"B2094757D068A5F8479B","title":"爱乐游(巴黎春天成山路店)","lon":"121.53604326","lat":"31.18206088","category":"500","category_name":"未知分类","address":"上海巴黎春天成山路店3楼"},{"poiid":"B2094750DB65A6F44792","title":"一兆韦德(成山店)","lon":"121.532546","lat":"31.178461","category":"500","category_name":"未知分类","address":"浦东新区成山路1879号(锦尊路口)"},{"poiid":"B2094757D165A0FB449B","title":"万嘉海鲜楼","lon":"121.532954","lat":"31.180759","category":"247","category_name":"餐饮美食","address":"上海锦尊路399号"},{"poiid":"B2094750DA6FA1FD4393","title":"一茶一坐（大中华锦绣店）","lon":"121.53348","lat":"31.17872","category":"91","category_name":"台湾菜","address":"浦东新区锦尊路499弄2号206,207,208室大华锦绣嘉年华项目内"},{"poiid":"B2094757D06AA6F84193","title":"张博士茗茶馆","lon":"121.533313","lat":"31.18028","category":"260","category_name":"其他","address":"浦东新区锦尊路439号3楼(近成山路)"},{"poiid":"B2094757D064A6FA429D","title":"一茶一坐(成山巴春店)","lon":"121.533770738","lat":"31.1782806938","category":"91","category_name":"台湾菜","address":"浦东新区成山路1993号巴黎春天附近(近博华路)"},{"poiid":"B2094757D06AA5F8499F","title":"麻辣天椒","lon":"121.53369175","lat":"31.178716835","category":"71","category_name":"四川菜","address":"浦东新区锦尊路479号(近成山路)"},{"poiid":"B2094757D069ABFE409E","title":"老妈米线(巴黎春天成山店)","lon":"121.53403973","lat":"31.179433218","category":"257","category_name":"中餐厅","address":"上海市浦东新区北艾路"},{"poiid":"B2094751D56CA1FC469C","title":"陌生人火锅餐厅(成山巴春店)","lon":"121.53572","lat":"31.17854","category":"86","category_name":"火锅店","address":"浦东新区成山路1993号巴黎春天B1楼(近下南路)"},{"poiid":"B2094757DA6EAAFC469C","title":"八大碗饭庄(锦尊路店)","lon":"121.534194946289","lat":"31.1784042288651","category":"76","category_name":"上海菜","address":"浦东新区成山路999弄2号(近杨高南路)"},{"poiid":"B2094750D76EA3FF459C","title":"新秦镇西北风(成山巴春店)","lon":"121.536","lat":"31.1786","category":"84","category_name":"西北菜","address":"浦东新区成山路1993号巴黎春天B1楼(锦尊路口)"},{"poiid":"B2094655D26BA6F5429A","title":"大华锦绣·嘉年华","lon":"121.53605","lat":"31.17871","category":"46","category_name":"楼宇","address":"成山路"},{"poiid":"B2094757D069A5F44492","title":"一茶一座(大华锦绣店)","lon":"121.534204","lat":"31.179278","category":"47","category_name":"住宅区","address":"上海浦东新区锦尊路499号"},{"poiid":"B2094750D26FA1FF4493","title":"梦回古都","lon":"121.5334871","lat":"31.1787186","category":"86","category_name":"火锅店","address":"浦东新区锦尊路499弄2号202室(成山路口)"},{"poiid":"B2094750D76FA1FD429C","title":"咔喱咖喱(巴黎春天店)","lon":"121.536","lat":"31.1789","category":"95","category_name":"日本料理","address":"浦东新区成山路1993号巴黎春天B1楼"},{"poiid":"B2094757D068A7FB4093","title":"安吉黄帽子(成山路店)","lon":"121.534372","lat":"31.177895","category":"158","category_name":"汽车销售","address":"上海浦东新区成山路1968号"},{"poiid":"B2094757D76BABFB4092","title":"永和豆浆 锦尊路","lon":"121.536311","lat":"31.174314","category":"68","category_name":"快餐厅","address":"锦尊路495号近华润路"},{"poiid":"B2094757DA6EA4F94499","title":"万得城电器(成山路店)","lon":"121.535717999998","lat":"31.1789729999998","category":"249","category_name":"购物服务","address":"浦东新区成山路1993号巴黎春天内"},{"poiid":"B2094757D46BA1FD4999","title":"快乐柠檬 成山巴春店 Happy Lemon","lon":"121.5357205","lat":"31.1785688","category":"113","category_name":"冷饮店","address":"浦东新区成山路1993号巴黎春天B1楼(近博华路)"},{"poiid":"B2094757D469A3FE469B","title":"海尚澳门豆捞","lon":"121.53088","lat":"31.1776","category":"86","category_name":"火锅店","address":"浦东新区成山路1748号(浦三路锦尊路间)"},{"poiid":"B2094655D26FA5FD439B","title":"大华·锦绣华城18街区(边门)","lon":"121.53745","lat":"31.17807","category":"47","category_name":"住宅区","address":"成山路2008弄1-310号"},{"poiid":"B2094751D36CABF94199","title":"我爱我汤(成山巴春店)","lon":"121.53458","lat":"31.17834","category":"68","category_name":"快餐厅","address":"浦东新区成山路1933号巴黎春天B1楼(近下南路)"},{"poiid":"B2094757D16CA6FF499F","title":"京世造型","lon":"121.53793773","lat":"31.178334195","category":"148","category_name":"美容美发店","address":"上海成山路2133号"},{"poiid":"B2094757D66FA2FE499E","title":"哈雷戴维森 浦东店","lon":"121.531309738","lat":"31.177538178","category":"500","category_name":"未知分类","address":"上海浦东新区成山路1768号"},{"poiid":"B2094757D06BA4F5459C","title":"丁哥黑鱼馆","lon":"121.5307973","lat":"31.17985186","category":"75","category_name":"浙江菜","address":"浦东新区成山路1720号(近巴黎春天)"},{"poiid":"B2094757D065ABF5429D","title":"台金兰 成山路店","lon":"121.534756605","lat":"31.1790169428","category":"68","category_name":"快餐厅","address":"浦东新区成山路1993号巴黎春天内(近博华路)"},{"poiid":"B2094757DB69ABFF479A","title":"芋贵人","lon":"121.531012","lat":"31.18127","category":"247","category_name":"餐饮美食","address":"成山路巴黎春天"},{"poiid":"B2094757D66DA2FB479B","title":"秦镇(成山店)","lon":"121.536252738","lat":"31.1794262182","category":"257","category_name":"中餐厅","address":"上海市浦东新区锦尊路"},{"poiid":"B2094757D06EAAFF4192","title":"巴黎春天(成山店)","lon":"121.5358448","lat":"31.1785916","category":"119","category_name":"商场","address":"浦东新区成山路1993号(近锦尊路)"},{"poiid":"B2094757D06EAAFD439D","title":"星巴克(成山路店)","lon":"121.5357218","lat":"31.1785685","category":"260","category_name":"其他","address":"浦东新区成山路1993号巴黎春天1楼(近博华路)"},{"poiid":"B2094757D06FA1FA439C","title":"大华锦绣假日酒店","lon":"121.53326","lat":"31.17911","category":"214","category_name":"四星级宾馆","address":"上海市浦东新区锦尊路399号(近北艾路)"},{"poiid":"B2094757D068A3F8419F","title":"洋葱餐厅","lon":"121.53409273","lat":"31.17955122","category":"500","category_name":"未知分类","address":"浦东新区浦建路118号巴黎春天4楼(浦澳路浦逸路)"},{"poiid":"B2094757D06FA6FF439B","title":"掌柜的店(锦尊路店)","lon":"121.533305108","lat":"31.1799593395","category":"260","category_name":"其他","address":"浦东新区锦尊路459号(成山路巴黎春天旁)"},{"poiid":"B2094757DA6EA6FD439C","title":"新石器烤肉(成山巴春店)","lon":"121.535721799997","lat":"31.1785685","category":"68","category_name":"快餐厅","address":"浦东新区成山路1993号巴黎春天B1楼(近博华路)"},{"poiid":"B2094757D06FA6FB4992","title":"大华锦绣华城","lon":"121.535558","lat":"31.177853","category":"47","category_name":"住宅区","address":"上海浦东新区锦绣路3168号‎(近北艾路)"},{"poiid":"B2094757D068A2FA439D","title":"甜蜜蜜","lon":"121.53405473","lat":"31.179428218","category":"500","category_name":"未知分类","address":"浦东新区成山路1993号巴黎春天B1楼19号(近博华路)"},{"poiid":"B2094757DA6EABFC4293","title":"万嘉酒店(锦尊店)","lon":"121.533100999999","lat":"31.18013","category":"72","category_name":"广东菜","address":"浦东新区锦尊路439号(近成山路)"},{"poiid":"B2094757D06FAAF8489C","title":"呷哺呷哺(成山巴春店)","lon":"121.534135738","lat":"31.1795132201","category":"86","category_name":"火锅店","address":"浦东新区成山路1993号巴黎春天B1楼5-6号(近下南路)"},{"poiid":"B2094757D068A2FA439F","title":"萨莉亚成山巴黎春天店","lon":"121.53421538","lat":"31.179115381","category":"94","category_name":"西餐厅","address":"浦东新区成山路1993号巴黎春天B1楼(近博华路)"},{"poiid":"B2094757D069A2FA4198","title":"棒约翰比萨(成山巴春店)","lon":"121.533849054","lat":"31.1784412972","category":"94","category_name":"西餐厅","address":"浦东新区成山路1993号巴黎春天(近成山路)"},{"poiid":"B2094757D16CA5FD489A","title":"君君烧烤","lon":"121.535789238","lat":"31.1695258826","category":"68","category_name":"快餐厅","address":"浦东新区东书房路148号(近板泉路)"},{"poiid":"B2094757D06FA2F9499E","title":"大华锦绣华城16街区(中原地产)","lon":"121.53004815","lat":"31.1758471245","category":"47","category_name":"住宅区","address":"成山路1728弄"},{"poiid":"B2094757D069A2FE439A","title":"卡通尼乐园(成山店)","lon":"121.534012738","lat":"31.179557221","category":"173","category_name":"游戏厅","address":"浦东新区锦尊路499弄6号B1楼(近成山路)"},{"poiid":"B2094757D465A6F84793","title":"争鲜回转寿司","lon":"121.536121","lat":"31.178694","category":"95","category_name":"日本料理","address":"浦东新区成山路1993号巴黎春天B1楼(近锦尊路)"},{"poiid":"B2094750D76EA5FE449C","title":"湘乐汇(巴黎春天店)","lon":"121.536","lat":"31.1789","category":"77","category_name":"湖南菜","address":"浦东新区成山路1993号巴黎春天(近锦尊路)"},{"poiid":"B2094757D06EAAF9499F","title":"85度C(成山店)","lon":"121.535052","lat":"31.178648","category":"67","category_name":"甜品店","address":"浦东新区成山路1993号巴黎春天内(近博华路)"},{"poiid":"B2094750DA6EA1FE4993","title":"陌生人火锅巴黎春天成山路店","lon":"121.535087","lat":"31.17881","category":"247","category_name":"餐饮美食","address":null},{"poiid":"B2094757D46EA2FC449C","title":"肯德基 成山巴春店 KFC","lon":"121.53432","lat":"31.17867","category":"68","category_name":"快餐厅","address":"浦东新区成山路1993号巴黎春天内(近博华路)"},{"poiid":"B2094655D268ABFC439D","title":"大华·锦绣华城香榭丽大道","lon":"121.53918","lat":"31.17891","category":"116","category_name":"特色商业街","address":""},{"poiid":"B2094757D465A3F94798","title":"浸香日本料理","lon":"121.53339385986","lat":"31.179615020752","category":"268","category_name":"自助","address":"浦东新区锦尊路463号(近成山路巴黎春天)"},{"poiid":"B2094757D068A5F8479B","title":"爱乐游(巴黎春天成山路店)","lon":"121.53604326","lat":"31.18206088","category":"500","category_name":"未知分类","address":"上海巴黎春天成山路店3楼"},{"poiid":"B2094750DB65A6F44792","title":"一兆韦德(成山店)","lon":"121.532546","lat":"31.178461","category":"500","category_name":"未知分类","address":"浦东新区成山路1879号(锦尊路口)"},{"poiid":"B2094757D165A0FB449B","title":"万嘉海鲜楼","lon":"121.532954","lat":"31.180759","category":"247","category_name":"餐饮美食","address":"上海锦尊路399号"},{"poiid":"B2094750DA6FA1FD4393","title":"一茶一坐（大中华锦绣店）","lon":"121.53348","lat":"31.17872","category":"91","category_name":"台湾菜","address":"浦东新区锦尊路499弄2号206,207,208室大华锦绣嘉年华项目内"},{"poiid":"B2094757D06AA6F84193","title":"张博士茗茶馆","lon":"121.533313","lat":"31.18028","category":"260","category_name":"其他","address":"浦东新区锦尊路439号3楼(近成山路)"},{"poiid":"B2094757D064A6FA429D","title":"一茶一坐(成山巴春店)","lon":"121.533770738","lat":"31.1782806938","category":"91","category_name":"台湾菜","address":"浦东新区成山路1993号巴黎春天附近(近博华路)"},{"poiid":"B2094757D06AA5F8499F","title":"麻辣天椒","lon":"121.53369175","lat":"31.178716835","category":"71","category_name":"四川菜","address":"浦东新区锦尊路479号(近成山路)"},{"poiid":"B2094757D069ABFE409E","title":"老妈米线(巴黎春天成山店)","lon":"121.53403973","lat":"31.179433218","category":"257","category_name":"中餐厅","address":"上海市浦东新区北艾路"},{"poiid":"B2094751D56CA1FC469C","title":"陌生人火锅餐厅(成山巴春店)","lon":"121.53572","lat":"31.17854","category":"86","category_name":"火锅店","address":"浦东新区成山路1993号巴黎春天B1楼(近下南路)"},{"poiid":"B2094757DA6EAAFC469C","title":"八大碗饭庄(锦尊路店)","lon":"121.534194946289","lat":"31.1784042288651","category":"76","category_name":"上海菜","address":"浦东新区成山路999弄2号(近杨高南路)"},{"poiid":"B2094750D76EA3FF459C","title":"新秦镇西北风(成山巴春店)","lon":"121.536","lat":"31.1786","category":"84","category_name":"西北菜","address":"浦东新区成山路1993号巴黎春天B1楼(锦尊路口)"},{"poiid":"B2094655D26BA6F5429A","title":"大华锦绣·嘉年华","lon":"121.53605","lat":"31.17871","category":"46","category_name":"楼宇","address":"成山路"},{"poiid":"B2094757D069A5F44492","title":"一茶一座(大华锦绣店)","lon":"121.534204","lat":"31.179278","category":"47","category_name":"住宅区","address":"上海浦东新区锦尊路499号"},{"poiid":"B2094750D26FA1FF4493","title":"梦回古都","lon":"121.5334871","lat":"31.1787186","category":"86","category_name":"火锅店","address":"浦东新区锦尊路499弄2号202室(成山路口)"},{"poiid":"B2094750D76FA1FD429C","title":"咔喱咖喱(巴黎春天店)","lon":"121.536","lat":"31.1789","category":"95","category_name":"日本料理","address":"浦东新区成山路1993号巴黎春天B1楼"},{"poiid":"B2094757D068A7FB4093","title":"安吉黄帽子(成山路店)","lon":"121.534372","lat":"31.177895","category":"158","category_name":"汽车销售","address":"上海浦东新区成山路1968号"},{"poiid":"B2094757D76BABFB4092","title":"永和豆浆 锦尊路","lon":"121.536311","lat":"31.174314","category":"68","category_name":"快餐厅","address":"锦尊路495号近华润路"},{"poiid":"B2094757DA6EA4F94499","title":"万得城电器(成山路店)","lon":"121.535717999998","lat":"31.1789729999998","category":"249","category_name":"购物服务","address":"浦东新区成山路1993号巴黎春天内"},{"poiid":"B2094757D46BA1FD4999","title":"快乐柠檬 成山巴春店 Happy Lemon","lon":"121.5357205","lat":"31.1785688","category":"113","category_name":"冷饮店","address":"浦东新区成山路1993号巴黎春天B1楼(近博华路)"},{"poiid":"B2094757D469A3FE469B","title":"海尚澳门豆捞","lon":"121.53088","lat":"31.1776","category":"86","category_name":"火锅店","address":"浦东新区成山路1748号(浦三路锦尊路间)"},{"poiid":"B2094655D26FA5FD439B","title":"大华·锦绣华城18街区(边门)","lon":"121.53745","lat":"31.17807","category":"47","category_name":"住宅区","address":"成山路2008弄1-310号"},{"poiid":"B2094751D36CABF94199","title":"我爱我汤(成山巴春店)","lon":"121.53458","lat":"31.17834","category":"68","category_name":"快餐厅","address":"浦东新区成山路1933号巴黎春天B1楼(近下南路)"},{"poiid":"B2094757D16CA6FF499F","title":"京世造型","lon":"121.53793773","lat":"31.178334195","category":"148","category_name":"美容美发店","address":"上海成山路2133号"},{"poiid":"B2094757D66FA2FE499E","title":"哈雷戴维森 浦东店","lon":"121.531309738","lat":"31.177538178","category":"500","category_name":"未知分类","address":"上海浦东新区成山路1768号"},{"poiid":"B2094757D06BA4F5459C","title":"丁哥黑鱼馆","lon":"121.5307973","lat":"31.17985186","category":"75","category_name":"浙江菜","address":"浦东新区成山路1720号(近巴黎春天)"},{"poiid":"B2094757D065ABF5429D","title":"台金兰 成山路店","lon":"121.534756605","lat":"31.1790169428","category":"68","category_name":"快餐厅","address":"浦东新区成山路1993号巴黎春天内(近博华路)"},{"poiid":"B2094757DB69ABFF479A","title":"芋贵人","lon":"121.531012","lat":"31.18127","category":"247","category_name":"餐饮美食","address":"成山路巴黎春天"},{"poiid":"B2094757D66DA2FB479B","title":"秦镇(成山店)","lon":"121.536252738","lat":"31.1794262182","category":"257","category_name":"中餐厅","address":"上海市浦东新区锦尊路"},{"poiid":"B2094757D06EAAFF4192","title":"巴黎春天(成山店)","lon":"121.5358448","lat":"31.1785916","category":"119","category_name":"商场","address":"浦东新区成山路1993号(近锦尊路)"},{"poiid":"B2094757D06EAAFD439D","title":"星巴克(成山路店)","lon":"121.5357218","lat":"31.1785685","category":"260","category_name":"其他","address":"浦东新区成山路1993号巴黎春天1楼(近博华路)"},{"poiid":"B2094757D06FA1FA439C","title":"大华锦绣假日酒店","lon":"121.53326","lat":"31.17911","category":"214","category_name":"四星级宾馆","address":"上海市浦东新区锦尊路399号(近北艾路)"},{"poiid":"B2094757D068A3F8419F","title":"洋葱餐厅","lon":"121.53409273","lat":"31.17955122","category":"500","category_name":"未知分类","address":"浦东新区浦建路118号巴黎春天4楼(浦澳路浦逸路)"},{"poiid":"B2094757D06FA6FF439B","title":"掌柜的店(锦尊路店)","lon":"121.533305108","lat":"31.1799593395","category":"260","category_name":"其他","address":"浦东新区锦尊路459号(成山路巴黎春天旁)"},{"poiid":"B2094757DA6EA6FD439C","title":"新石器烤肉(成山巴春店)","lon":"121.535721799997","lat":"31.1785685","category":"68","category_name":"快餐厅","address":"浦东新区成山路1993号巴黎春天B1楼(近博华路)"},{"poiid":"B2094757D06FA6FB4992","title":"大华锦绣华城","lon":"121.535558","lat":"31.177853","category":"47","category_name":"住宅区","address":"上海浦东新区锦绣路3168号‎(近北艾路)"},{"poiid":"B2094757D068A2FA439D","title":"甜蜜蜜","lon":"121.53405473","lat":"31.179428218","category":"500","category_name":"未知分类","address":"浦东新区成山路1993号巴黎春天B1楼19号(近博华路)"},{"poiid":"B2094757DA6EABFC4293","title":"万嘉酒店(锦尊店)","lon":"121.533100999999","lat":"31.18013","category":"72","category_name":"广东菜","address":"浦东新区锦尊路439号(近成山路)"},{"poiid":"B2094757D06FAAF8489C","title":"呷哺呷哺(成山巴春店)","lon":"121.534135738","lat":"31.1795132201","category":"86","category_name":"火锅店","address":"浦东新区成山路1993号巴黎春天B1楼5-6号(近下南路)"},{"poiid":"B2094757D068A2FA439F","title":"萨莉亚成山巴黎春天店","lon":"121.53421538","lat":"31.179115381","category":"94","category_name":"西餐厅","address":"浦东新区成山路1993号巴黎春天B1楼(近博华路)"},{"poiid":"B2094757D069A2FA4198","title":"棒约翰比萨(成山巴春店)","lon":"121.533849054","lat":"31.1784412972","category":"94","category_name":"西餐厅","address":"浦东新区成山路1993号巴黎春天(近成山路)"},{"poiid":"B2094757D16CA5FD489A","title":"君君烧烤","lon":"121.535789238","lat":"31.1695258826","category":"68","category_name":"快餐厅","address":"浦东新区东书房路148号(近板泉路)"},{"poiid":"B2094757D06FA2F9499E","title":"大华锦绣华城16街区(中原地产)","lon":"121.53004815","lat":"31.1758471245","category":"47","category_name":"住宅区","address":"成山路1728弄"},{"poiid":"B2094757D069A2FE439A","title":"卡通尼乐园(成山店)","lon":"121.534012738","lat":"31.179557221","category":"173","category_name":"游戏厅","address":"浦东新区锦尊路499弄6号B1楼(近成山路)"},{"poiid":"B2094757D465A6F84793","title":"争鲜回转寿司","lon":"121.536121","lat":"31.178694","category":"95","category_name":"日本料理","address":"浦东新区成山路1993号巴黎春天B1楼(近锦尊路)"},{"poiid":"B2094750D76EA5FE449C","title":"湘乐汇(巴黎春天店)","lon":"121.536","lat":"31.1789","category":"77","category_name":"湖南菜","address":"浦东新区成山路1993号巴黎春天(近锦尊路)"},{"poiid":"B2094757D06EAAF9499F","title":"85度C(成山店)","lon":"121.535052","lat":"31.178648","category":"67","category_name":"甜品店","address":"浦东新区成山路1993号巴黎春天内(近博华路)"},{"poiid":"B2094750DA6EA1FE4993","title":"陌生人火锅巴黎春天成山路店","lon":"121.535087","lat":"31.17881","category":"247","category_name":"餐饮美食","address":null},{"poiid":"B2094757D46EA2FC449C","title":"肯德基 成山巴春店 KFC","lon":"121.53432","lat":"31.17867","category":"68","category_name":"快餐厅","address":"浦东新区成山路1993号巴黎春天内(近博华路)"},{"poiid":"B2094655D268ABFC439D","title":"大华·锦绣华城香榭丽大道","lon":"121.53918","lat":"31.17891","category":"116","category_name":"特色商业街","address":""},{"poiid":"B2094757D465A3F94798","title":"浸香日本料理","lon":"121.53339385986","lat":"31.179615020752","category":"268","category_name":"自助","address":"浦东新区锦尊路463号(近成山路巴黎春天)"},{"poiid":"B2094757D068A5F8479B","title":"爱乐游(巴黎春天成山路店)","lon":"121.53604326","lat":"31.18206088","category":"500","category_name":"未知分类","address":"上海巴黎春天成山路店3楼"},{"poiid":"B2094750DB65A6F44792","title":"一兆韦德(成山店)","lon":"121.532546","lat":"31.178461","category":"500","category_name":"未知分类","address":"浦东新区成山路1879号(锦尊路口)"},{"poiid":"B2094757D165A0FB449B","title":"万嘉海鲜楼","lon":"121.532954","lat":"31.180759","category":"247","category_name":"餐饮美食","address":"上海锦尊路399号"},{"poiid":"B2094750DA6FA1FD4393","title":"一茶一坐（大中华锦绣店）","lon":"121.53348","lat":"31.17872","category":"91","category_name":"台湾菜","address":"浦东新区锦尊路499弄2号206,207,208室大华锦绣嘉年华项目内"},{"poiid":"B2094757D06AA6F84193","title":"张博士茗茶馆","lon":"121.533313","lat":"31.18028","category":"260","category_name":"其他","address":"浦东新区锦尊路439号3楼(近成山路)"},{"poiid":"B2094757D064A6FA429D","title":"一茶一坐(成山巴春店)","lon":"121.533770738","lat":"31.1782806938","category":"91","category_name":"台湾菜","address":"浦东新区成山路1993号巴黎春天附近(近博华路)"},{"poiid":"B2094757D06AA5F8499F","title":"麻辣天椒","lon":"121.53369175","lat":"31.178716835","category":"71","category_name":"四川菜","address":"浦东新区锦尊路479号(近成山路)"},{"poiid":"B2094757D069ABFE409E","title":"老妈米线(巴黎春天成山店)","lon":"121.53403973","lat":"31.179433218","category":"257","category_name":"中餐厅","address":"上海市浦东新区北艾路"},{"poiid":"B2094751D56CA1FC469C","title":"陌生人火锅餐厅(成山巴春店)","lon":"121.53572","lat":"31.17854","category":"86","category_name":"火锅店","address":"浦东新区成山路1993号巴黎春天B1楼(近下南路)"},{"poiid":"B2094757DA6EAAFC469C","title":"八大碗饭庄(锦尊路店)","lon":"121.534194946289","lat":"31.1784042288651","category":"76","category_name":"上海菜","address":"浦东新区成山路999弄2号(近杨高南路)"},{"poiid":"B2094750D76EA3FF459C","title":"新秦镇西北风(成山巴春店)","lon":"121.536","lat":"31.1786","category":"84","category_name":"西北菜","address":"浦东新区成山路1993号巴黎春天B1楼(锦尊路口)"},{"poiid":"B2094655D26BA6F5429A","title":"大华锦绣·嘉年华","lon":"121.53605","lat":"31.17871","category":"46","category_name":"楼宇","address":"成山路"},{"poiid":"B2094757D069A5F44492","title":"一茶一座(大华锦绣店)","lon":"121.534204","lat":"31.179278","category":"47","category_name":"住宅区","address":"上海浦东新区锦尊路499号"},{"poiid":"B2094750D26FA1FF4493","title":"梦回古都","lon":"121.5334871","lat":"31.1787186","category":"86","category_name":"火锅店","address":"浦东新区锦尊路499弄2号202室(成山路口)"},{"poiid":"B2094750D76FA1FD429C","title":"咔喱咖喱(巴黎春天店)","lon":"121.536","lat":"31.1789","category":"95","category_name":"日本料理","address":"浦东新区成山路1993号巴黎春天B1楼"},{"poiid":"B2094757D068A7FB4093","title":"安吉黄帽子(成山路店)","lon":"121.534372","lat":"31.177895","category":"158","category_name":"汽车销售","address":"上海浦东新区成山路1968号"},{"poiid":"B2094757D76BABFB4092","title":"永和豆浆 锦尊路","lon":"121.536311","lat":"31.174314","category":"68","category_name":"快餐厅","address":"锦尊路495号近华润路"},{"poiid":"B2094757DA6EA4F94499","title":"万得城电器(成山路店)","lon":"121.535717999998","lat":"31.1789729999998","category":"249","category_name":"购物服务","address":"浦东新区成山路1993号巴黎春天内"},{"poiid":"B2094757D46BA1FD4999","title":"快乐柠檬 成山巴春店 Happy Lemon","lon":"121.5357205","lat":"31.1785688","category":"113","category_name":"冷饮店","address":"浦东新区成山路1993号巴黎春天B1楼(近博华路)"},{"poiid":"B2094757D469A3FE469B","title":"海尚澳门豆捞","lon":"121.53088","lat":"31.1776","category":"86","category_name":"火锅店","address":"浦东新区成山路1748号(浦三路锦尊路间)"},{"poiid":"B2094655D26FA5FD439B","title":"大华·锦绣华城18街区(边门)","lon":"121.53745","lat":"31.17807","category":"47","category_name":"住宅区","address":"成山路2008弄1-310号"},{"poiid":"B2094751D36CABF94199","title":"我爱我汤(成山巴春店)","lon":"121.53458","lat":"31.17834","category":"68","category_name":"快餐厅","address":"浦东新区成山路1933号巴黎春天B1楼(近下南路)"},{"poiid":"B2094757D16CA6FF499F","title":"京世造型","lon":"121.53793773","lat":"31.178334195","category":"148","category_name":"美容美发店","address":"上海成山路2133号"},{"poiid":"B2094757D66FA2FE499E","title":"哈雷戴维森 浦东店","lon":"121.531309738","lat":"31.177538178","category":"500","category_name":"未知分类","address":"上海浦东新区成山路1768号"},{"poiid":"B2094757D06BA4F5459C","title":"丁哥黑鱼馆","lon":"121.5307973","lat":"31.17985186","category":"75","category_name":"浙江菜","address":"浦东新区成山路1720号(近巴黎春天)"},{"poiid":"B2094757D065ABF5429D","title":"台金兰 成山路店","lon":"121.534756605","lat":"31.1790169428","category":"68","category_name":"快餐厅","address":"浦东新区成山路1993号巴黎春天内(近博华路)"},{"poiid":"B2094757DB69ABFF479A","title":"芋贵人","lon":"121.531012","lat":"31.18127","category":"247","category_name":"餐饮美食","address":"成山路巴黎春天"},{"poiid":"B2094757D66DA2FB479B","title":"秦镇(成山店)","lon":"121.536252738","lat":"31.1794262182","category":"257","category_name":"中餐厅","address":"上海市浦东新区锦尊路"},{"poiid":"B2094757D06EAAFF4192","title":"巴黎春天(成山店)","lon":"121.5358448","lat":"31.1785916","category":"119","category_name":"商场","address":"浦东新区成山路1993号(近锦尊路)"},{"poiid":"B2094757D06EAAFD439D","title":"星巴克(成山路店)","lon":"121.5357218","lat":"31.1785685","category":"260","category_name":"其他","address":"浦东新区成山路1993号巴黎春天1楼(近博华路)"},{"poiid":"B2094757D06FA1FA439C","title":"大华锦绣假日酒店","lon":"121.53326","lat":"31.17911","category":"214","category_name":"四星级宾馆","address":"上海市浦东新区锦尊路399号(近北艾路)"},{"poiid":"B2094757D068A3F8419F","title":"洋葱餐厅","lon":"121.53409273","lat":"31.17955122","category":"500","category_name":"未知分类","address":"浦东新区浦建路118号巴黎春天4楼(浦澳路浦逸路)"},{"poiid":"B2094757D06FA6FF439B","title":"掌柜的店(锦尊路店)","lon":"121.533305108","lat":"31.1799593395","category":"260","category_name":"其他","address":"浦东新区锦尊路459号(成山路巴黎春天旁)"},{"poiid":"B2094757DA6EA6FD439C","title":"新石器烤肉(成山巴春店)","lon":"121.535721799997","lat":"31.1785685","category":"68","category_name":"快餐厅","address":"浦东新区成山路1993号巴黎春天B1楼(近博华路)"},{"poiid":"B2094757D06FA6FB4992","title":"大华锦绣华城","lon":"121.535558","lat":"31.177853","category":"47","category_name":"住宅区","address":"上海浦东新区锦绣路3168号‎(近北艾路)"},{"poiid":"B2094757D068A2FA439D","title":"甜蜜蜜","lon":"121.53405473","lat":"31.179428218","category":"500","category_name":"未知分类","address":"浦东新区成山路1993号巴黎春天B1楼19号(近博华路)"},{"poiid":"B2094757DA6EABFC4293","title":"万嘉酒店(锦尊店)","lon":"121.533100999999","lat":"31.18013","category":"72","category_name":"广东菜","address":"浦东新区锦尊路439号(近成山路)"},{"poiid":"B2094757D06FAAF8489C","title":"呷哺呷哺(成山巴春店)","lon":"121.534135738","lat":"31.1795132201","category":"86","category_name":"火锅店","address":"浦东新区成山路1993号巴黎春天B1楼5-6号(近下南路)"},{"poiid":"B2094757D068A2FA439F","title":"萨莉亚成山巴黎春天店","lon":"121.53421538","lat":"31.179115381","category":"94","category_name":"西餐厅","address":"浦东新区成山路1993号巴黎春天B1楼(近博华路)"},{"poiid":"B2094757D069A2FA4198","title":"棒约翰比萨(成山巴春店)","lon":"121.533849054","lat":"31.1784412972","category":"94","category_name":"西餐厅","address":"浦东新区成山路1993号巴黎春天(近成山路)"},{"poiid":"B2094757D16CA5FD489A","title":"君君烧烤","lon":"121.535789238","lat":"31.1695258826","category":"68","category_name":"快餐厅","address":"浦东新区东书房路148号(近板泉路)"},{"poiid":"B2094757D06FA2F9499E","title":"大华锦绣华城16街区(中原地产)","lon":"121.53004815","lat":"31.1758471245","category":"47","category_name":"住宅区","address":"成山路1728弄"},{"poiid":"B2094757D069A2FE439A","title":"卡通尼乐园(成山店)","lon":"121.534012738","lat":"31.179557221","category":"173","category_name":"游戏厅","address":"浦东新区锦尊路499弄6号B1楼(近成山路)"},{"poiid":"B2094757D465A6F84793","title":"争鲜回转寿司","lon":"121.536121","lat":"31.178694","category":"95","category_name":"日本料理","address":"浦东新区成山路1993号巴黎春天B1楼(近锦尊路)"},{"poiid":"B2094750D76EA5FE449C","title":"湘乐汇(巴黎春天店)","lon":"121.536","lat":"31.1789","category":"77","category_name":"湖南菜","address":"浦东新区成山路1993号巴黎春天(近锦尊路)"},{"poiid":"B2094757D06EAAF9499F","title":"85度C(成山店)","lon":"121.535052","lat":"31.178648","category":"67","category_name":"甜品店","address":"浦东新区成山路1993号巴黎春天内(近博华路)"},{"poiid":"B2094750DA6EA1FE4993","title":"陌生人火锅巴黎春天成山路店","lon":"121.535087","lat":"31.17881","category":"247","category_name":"餐饮美食","address":null},{"poiid":"B2094757D46EA2FC449C","title":"肯德基 成山巴春店 KFC","lon":"121.53432","lat":"31.17867","category":"68","category_name":"快餐厅","address":"浦东新区成山路1993号巴黎春天内(近博华路)"},{"poiid":"B2094655D268ABFC439D","title":"大华·锦绣华城香榭丽大道","lon":"121.53918","lat":"31.17891","category":"116","category_name":"特色商业街","address":""},{"poiid":"B2094757D465A3F94798","title":"浸香日本料理","lon":"121.53339385986","lat":"31.179615020752","category":"268","category_name":"自助","address":"浦东新区锦尊路463号(近成山路巴黎春天)"},{"poiid":"B2094757D068A5F8479B","title":"爱乐游(巴黎春天成山路店)","lon":"121.53604326","lat":"31.18206088","category":"500","category_name":"未知分类","address":"上海巴黎春天成山路店3楼"},{"poiid":"B2094750DB65A6F44792","title":"一兆韦德(成山店)","lon":"121.532546","lat":"31.178461","category":"500","category_name":"未知分类","address":"浦东新区成山路1879号(锦尊路口)"},{"poiid":"B2094757D165A0FB449B","title":"万嘉海鲜楼","lon":"121.532954","lat":"31.180759","category":"247","category_name":"餐饮美食","address":"上海锦尊路399号"},{"poiid":"B2094750DA6FA1FD4393","title":"一茶一坐（大中华锦绣店）","lon":"121.53348","lat":"31.17872","category":"91","category_name":"台湾菜","address":"浦东新区锦尊路499弄2号206,207,208室大华锦绣嘉年华项目内"},{"poiid":"B2094757D06AA6F84193","title":"张博士茗茶馆","lon":"121.533313","lat":"31.18028","category":"260","category_name":"其他","address":"浦东新区锦尊路439号3楼(近成山路)"},{"poiid":"B2094757D064A6FA429D","title":"一茶一坐(成山巴春店)","lon":"121.533770738","lat":"31.1782806938","category":"91","category_name":"台湾菜","address":"浦东新区成山路1993号巴黎春天附近(近博华路)"},{"poiid":"B2094757D06AA5F8499F","title":"麻辣天椒","lon":"121.53369175","lat":"31.178716835","category":"71","category_name":"四川菜","address":"浦东新区锦尊路479号(近成山路)"},{"poiid":"B2094757D069ABFE409E","title":"老妈米线(巴黎春天成山店)","lon":"121.53403973","lat":"31.179433218","category":"257","category_name":"中餐厅","address":"上海市浦东新区北艾路"},{"poiid":"B2094751D56CA1FC469C","title":"陌生人火锅餐厅(成山巴春店)","lon":"121.53572","lat":"31.17854","category":"86","category_name":"火锅店","address":"浦东新区成山路1993号巴黎春天B1楼(近下南路)"},{"poiid":"B2094757DA6EAAFC469C","title":"八大碗饭庄(锦尊路店)","lon":"121.534194946289","lat":"31.1784042288651","category":"76","category_name":"上海菜","address":"浦东新区成山路999弄2号(近杨高南路)"},{"poiid":"B2094750D76EA3FF459C","title":"新秦镇西北风(成山巴春店)","lon":"121.536","lat":"31.1786","category":"84","category_name":"西北菜","address":"浦东新区成山路1993号巴黎春天B1楼(锦尊路口)"},{"poiid":"B2094655D26BA6F5429A","title":"大华锦绣·嘉年华","lon":"121.53605","lat":"31.17871","category":"46","category_name":"楼宇","address":"成山路"},{"poiid":"B2094757D069A5F44492","title":"一茶一座(大华锦绣店)","lon":"121.534204","lat":"31.179278","category":"47","category_name":"住宅区","address":"上海浦东新区锦尊路499号"},{"poiid":"B2094750D26FA1FF4493","title":"梦回古都","lon":"121.5334871","lat":"31.1787186","category":"86","category_name":"火锅店","address":"浦东新区锦尊路499弄2号202室(成山路口)"},{"poiid":"B2094750D76FA1FD429C","title":"咔喱咖喱(巴黎春天店)","lon":"121.536","lat":"31.1789","category":"95","category_name":"日本料理","address":"浦东新区成山路1993号巴黎春天B1楼"},{"poiid":"B2094757D068A7FB4093","title":"安吉黄帽子(成山路店)","lon":"121.534372","lat":"31.177895","category":"158","category_name":"汽车销售","address":"上海浦东新区成山路1968号"},{"poiid":"B2094757D76BABFB4092","title":"永和豆浆 锦尊路","lon":"121.536311","lat":"31.174314","category":"68","category_name":"快餐厅","address":"锦尊路495号近华润路"},{"poiid":"B2094757DA6EA4F94499","title":"万得城电器(成山路店)","lon":"121.535717999998","lat":"31.1789729999998","category":"249","category_name":"购物服务","address":"浦东新区成山路1993号巴黎春天内"},{"poiid":"B2094757D46BA1FD4999","title":"快乐柠檬 成山巴春店 Happy Lemon","lon":"121.5357205","lat":"31.1785688","category":"113","category_name":"冷饮店","address":"浦东新区成山路1993号巴黎春天B1楼(近博华路)"},{"poiid":"B2094757D469A3FE469B","title":"海尚澳门豆捞","lon":"121.53088","lat":"31.1776","category":"86","category_name":"火锅店","address":"浦东新区成山路1748号(浦三路锦尊路间)"},{"poiid":"B2094655D26FA5FD439B","title":"大华·锦绣华城18街区(边门)","lon":"121.53745","lat":"31.17807","category":"47","category_name":"住宅区","address":"成山路2008弄1-310号"},{"poiid":"B2094751D36CABF94199","title":"我爱我汤(成山巴春店)","lon":"121.53458","lat":"31.17834","category":"68","category_name":"快餐厅","address":"浦东新区成山路1933号巴黎春天B1楼(近下南路)"},{"poiid":"B2094757D16CA6FF499F","title":"京世造型","lon":"121.53793773","lat":"31.178334195","category":"148","category_name":"美容美发店","address":"上海成山路2133号"},{"poiid":"B2094757D66FA2FE499E","title":"哈雷戴维森 浦东店","lon":"121.531309738","lat":"31.177538178","category":"500","category_name":"未知分类","address":"上海浦东新区成山路1768号"},{"poiid":"B2094757D06BA4F5459C","title":"丁哥黑鱼馆","lon":"121.5307973","lat":"31.17985186","category":"75","category_name":"浙江菜","address":"浦东新区成山路1720号(近巴黎春天)"},{"poiid":"B2094757D065ABF5429D","title":"台金兰 成山路店","lon":"121.534756605","lat":"31.1790169428","category":"68","category_name":"快餐厅","address":"浦东新区成山路1993号巴黎春天内(近博华路)"},{"poiid":"B2094757DB69ABFF479A","title":"芋贵人","lon":"121.531012","lat":"31.18127","category":"247","category_name":"餐饮美食","address":"成山路巴黎春天"},{"poiid":"B2094757D66DA2FB479B","title":"秦镇(成山店)","lon":"121.536252738","lat":"31.1794262182","category":"257","category_name":"中餐厅","address":"上海市浦东新区锦尊路"}]