[{"poiid":"B2094750D06EABF4419B","title":"上海浦东机场综合保税区","lon":"121.784713","lat":"31.135149","category":"252","category_name":"楼宇机构","address":"闻居路1333号"},{"poiid":"B2094757D16CA3F4429C","title":"祝和苑","lon":"121.76863877244","lat":"31.128664808964","category":"252","category_name":"楼宇机构","address":"上海市浦东新区祝桥镇千汇路1000号"},{"poiid":"B2094757DB6FA6FE439D","title":"浦东机场停机坪","lon":"121.7905538805545","lat":"31.11510129225799","category":"251","category_name":"出行住宿","address":"浦东国际机场"},{"poiid":"B2094654DB6DA5FC449E","title":"上海祝桥空港工业区","lon":"121.77552","lat":"31.1275","category":"45","category_name":"产业园区","address":"祝潘路66"},{"poiid":"B2094655D26DA6FD4292","title":"千汇苑三村(千汇路)","lon":"121.76387","lat":"31.11363","category":"47","category_name":"住宅区","address":"千汇路581弄"},{"poiid":"B2094757D16EA5FC439D","title":"中货航货站","lon":"121.783384063","lat":"31.126814368","category":"500","category_name":"未知分类","address":"上海浦东国际机场河滨西路"},{"poiid":"B2094757D065A4F9489A","title":"上海森松空港工场","lon":"121.773869","lat":"31.126587","category":"500","category_name":"未知分类","address":"上海南汇祝桥镇金闻路29号"},{"poiid":"B2094654DB64ABFF4393","title":"科技大楼(金闻路)","lon":"121.77134","lat":"31.12266","category":"46","category_name":"楼宇","address":"金闻路26"},{"poiid":"B2094655D26DA6FD4299","title":"千汇苑四村(千汇路)","lon":"121.76479","lat":"31.11725","category":"47","category_name":"住宅区","address":"千汇路750弄"},{"poiid":"B2094750D269A2F94092","title":"浦东机场T2航站楼 D64登机口","lon":"121.771476","lat":"31.121623","category":"500","category_name":"未知分类","address":null},{"poiid":"B2094654DB6DA5FD4992","title":"东景工业园","lon":"121.785","lat":"31.1257","category":"45","category_name":"产业园区","address":"金顺路16号"},{"poiid":"B2094654DB6DA5FC449A","title":"上海申成门窗有限公司(金顺路)","lon":"121.77588","lat":"31.12693","category":"263","category_name":"公司","address":""},{"poiid":"B2094757D168A7FA449E","title":"DTW-SHA空运部","lon":"121.771548382","lat":"31.128901834","category":"46","category_name":"楼宇","address":"上海金闻路8号"},{"poiid":"B2094750DA6DA6F84193","title":"上海浦东国际机场海关通关处进口报关大厅","lon":"121.777482","lat":"31.133406","category":"617","category_name":"政府机构","address":"上海市 闻居路1333号浦东机场综合保税区公共服务中心C区3楼"},{"poiid":"B2094757D169A7F94098","title":"金闻路58号","lon":"121.77200426","lat":"31.120611529","category":"500","category_name":"未知分类","address":"上海金闻路58号"},{"poiid":"B2094654DB64ABFF489E","title":"千汇苑二村(千汇路)","lon":"121.76581","lat":"31.11372","category":"47","category_name":"住宅区","address":"千汇路580弄"},{"poiid":"B2094655D36DA7FB4099","title":"祝潘公路川南奉公路","lon":"121.76676","lat":"31.12597","category":"38","category_name":"公交车站","address":""},{"poiid":"B2094757D66EA6F5479D","title":"金闻路68号","lon":"121.77305226","lat":"31.11792547","category":"500","category_name":"未知分类","address":"上海市浦东新区华星路"},{"poiid":"B2094655D36CA0FE429F","title":"金闻路金亭公路","lon":"121.77516","lat":"31.11164","category":"38","category_name":"公交车站","address":""},{"poiid":"B2094654DB64ABFF4392","title":"上海重矿连铸技术工程有限公司(金闻路)","lon":"121.77136","lat":"31.12265","category":"263","category_name":"公司","address":"金闻路26"},{"poiid":"B2094750DA68A0FD4593","title":"浦东机场专机坪","lon":"121.781288","lat":"31.130861","category":"500","category_name":"未知分类","address":"561"},{"poiid":"B2094757D16CA0F94593","title":"ETS","lon":"121.773906","lat":"31.114797","category":"249","category_name":"购物服务","address":"上海浦东机场金闻路72号"},{"poiid":"B2094654DB6DA5FD4998","title":"上海宏利药用包装材料有限公司(金闻路)","lon":"121.77281","lat":"31.11813","category":"263","category_name":"公司","address":""},{"poiid":"B2094655D26DA6FD409F","title":"千汇苑一村(千汇路)","lon":"121.76847","lat":"31.10978","category":"47","category_name":"住宅区","address":"千汇路280弄"},{"poiid":"B2094655D264A0F44998","title":"好又多购物中心(祝桥店)","lon":"121.77476","lat":"31.11227","category":"118","category_name":"超级市场","address":""},{"poiid":"B2094752D26EA6F9499A","title":"浦东机场","lon":"121.771437","lat":"31.113027","category":"500","category_name":"未知分类","address":null},{"poiid":"B2094654DB6DA5FD4999","title":"上海市一电机有限公司","lon":"121.77352","lat":"31.11588","category":"263","category_name":"公司","address":"祝桥空港工业园区金闻路66号"},{"poiid":"B2094655D264A4F9489E","title":"G1501闻居路收费站","lon":"121.76962","lat":"31.13378","category":"267","category_name":"收费站","address":""},{"poiid":"B2094654DB6DA5FC4792","title":"刚泰集团珠光工业园","lon":"121.76996","lat":"31.128","category":"263","category_name":"公司","address":"金闻路9"},{"poiid":"B2094757D16FA0FB4692","title":"上海加易国际货物运输代理有限公司","lon":"121.772656263","lat":"31.1143483905","category":"500","category_name":"未知分类","address":"上海浦东机场金闻路72号"},{"poiid":"B2094655D26EA7FF469C","title":"如海超市(祝桥店)","lon":"121.77232","lat":"31.113","category":"118","category_name":"超级市场","address":"南汇区祝桥镇东祝公路1072号"},{"poiid":"B2094654DB64ABF84393","title":"老尝客酒店","lon":"121.76698","lat":"31.10936","category":"70","category_name":"综合酒楼","address":"浦东新区祝桥镇千汇路296号(近川南奉公路)"},{"poiid":"B2094655D36CA2FF429A","title":"千汇路华星路","lon":"121.76354","lat":"31.11828","category":"38","category_name":"公交车站","address":""},{"poiid":"B2094655D36DA2FD499C","title":"闻居路桥","lon":"121.78326","lat":"31.13455","category":"250","category_name":"公园户外","address":""},{"poiid":"B2094751D26CAAFA439F","title":"上海浦东机场综合保税区通关服务中心","lon":"121.783767","lat":"31.132989","category":"614","category_name":"税务","address":"浦东新区闻居路1333号"},{"poiid":"B2094655D36CA0FE4293","title":"金亭公路千汇路","lon":"121.76668","lat":"31.11177","category":"38","category_name":"公交车站","address":""},{"poiid":"B2094757D66CA6FA4698","title":"上海腾隆","lon":"121.787378763","lat":"31.1139483816","category":"500","category_name":"未知分类","address":"上海金顺路16号"},{"poiid":"B2094757D66EA1FF4998","title":"TKC办公室","lon":"121.76833033","lat":"31.131655738","category":"500","category_name":"未知分类","address":"上海金闻路9号7幢"},{"poiid":"B2094654DB6DA5FD4092","title":"祝桥东港花苑三村","lon":"121.76398","lat":"31.109356","category":"47","category_name":"住宅区","address":"广益路15弄"},{"poiid":"B2094655D265A0F4429C","title":"上岛咖啡(弘基店)","lon":"121.76338","lat":"31.13343","category":"65","category_name":"咖啡厅","address":"浦东新区惠南镇川南奉公路6101号弘基广场内(近世纪联华)"},{"poiid":"B2094655D36CA5FE4192","title":"川南奉公路周祝公路(祝桥)","lon":"121.75971","lat":"31.1181","category":"38","category_name":"公交车站","address":""},{"poiid":"B2094655D36DA7FA4592","title":"朱家店","lon":"121.76372","lat":"31.13191","category":"38","category_name":"公交车站","address":""},{"poiid":"B2094654DB6DA5FC469C","title":"赫比(上海)精密冲压模具制品有限公司","lon":"121.77553","lat":"31.10972","category":"263","category_name":"公司","address":""},{"poiid":"B2094655D26DA6FD4298","title":"祝桥环城一村(川南奉公路)","lon":"121.76122","lat":"31.11965","category":"47","category_name":"住宅区","address":""},{"poiid":"B2094757D568AAF44898","title":"空港物流公众服务中心","lon":"121.7648158","lat":"31.131875","category":"248","category_name":"生活娱乐","address":"空港物流园区"},{"poiid":"B2094757D165A0FE429D","title":"OTE办公室","lon":"121.77060026","lat":"31.136060873","category":"500","category_name":"未知分类","address":"上海市浦东新区施湾六路"},{"poiid":"B2094654DB69A6FF419C","title":"绿庭百合苑","lon":"121.75946","lat":"31.11942","category":"47","category_name":"住宅区","address":"奉贤区八字桥路158弄"},{"poiid":"B2094757D164A6FB4292","title":"szx 空运部","lon":"121.770146263","lat":"31.1364808832","category":"263","category_name":"公司","address":"上海市浦东新区施湾六路"},{"poiid":"B2094654DB6DA5FE4292","title":"阳光浴场","lon":"121.76004","lat":"31.11894","category":"149","category_name":"洗浴推拿场所","address":""},{"poiid":"B2094654DB6DA5FE429F","title":"威埃姆输送机械(上海)有限公司","lon":"121.76708","lat":"31.13618","category":"263","category_name":"公司","address":""},{"poiid":"B2094750D06EABF4419B","title":"上海浦东机场综合保税区","lon":"121.784713","lat":"31.135149","category":"252","category_name":"楼宇机构","address":"闻居路1333号"},{"poiid":"B2094757D16CA3F4429C","title":"祝和苑","lon":"121.76863877244","lat":"31.128664808964","category":"252","category_name":"楼宇机构","address":"上海市浦东新区祝桥镇千汇路1000号"},{"poiid":"B2094757DB6FA6FE439D","title":"浦东机场停机坪","lon":"121.7905538805545","lat":"31.11510129225799","category":"251","category_name":"出行住宿","address":"浦东国际机场"},{"poiid":"B2094654DB6DA5FC449E","title":"上海祝桥空港工业区","lon":"121.77552","lat":"31.1275","category":"45","category_name":"产业园区","address":"祝潘路66"},{"poiid":"B2094655D26DA6FD4292","title":"千汇苑三村(千汇路)","lon":"121.76387","lat":"31.11363","category":"47","category_name":"住宅区","address":"千汇路581弄"},{"poiid":"B2094757D16EA5FC439D","title":"中货航货站","lon":"121.783384063","lat":"31.126814368","category":"500","category_name":"未知分类","address":"上海浦东国际机场河滨西路"},{"poiid":"B2094757D065A4F9489A","title":"上海森松空港工场","lon":"121.773869","lat":"31.126587","category":"500","category_name":"未知分类","address":"上海南汇祝桥镇金闻路29号"},{"poiid":"B2094654DB64ABFF4393","title":"科技大楼(金闻路)","lon":"121.77134","lat":"31.12266","category":"46","category_name":"楼宇","address":"金闻路26"},{"poiid":"B2094655D26DA6FD4299","title":"千汇苑四村(千汇路)","lon":"121.76479","lat":"31.11725","category":"47","category_name":"住宅区","address":"千汇路750弄"},{"poiid":"B2094750D269A2F94092","title":"浦东机场T2航站楼 D64登机口","lon":"121.771476","lat":"31.121623","category":"500","category_name":"未知分类","address":null},{"poiid":"B2094654DB6DA5FD4992","title":"东景工业园","lon":"121.785","lat":"31.1257","category":"45","category_name":"产业园区","address":"金顺路16号"},{"poiid":"B2094654DB6DA5FC449A","title":"上海申成门窗有限公司(金顺路)","lon":"121.77588","lat":"31.12693","category":"263","category_name":"公司","address":""},{"poiid":"B2094757D168A7FA449E","title":"DTW-SHA空运部","lon":"121.771548382","lat":"31.128901834","category":"46","category_name":"楼宇","address":"上海金闻路8号"},{"poiid":"B2094750DA6DA6F84193","title":"上海浦东国际机场海关通关处进口报关大厅","lon":"121.777482","lat":"31.133406","category":"617","category_name":"政府机构","address":"上海市 闻居路1333号浦东机场综合保税区公共服务中心C区3楼"},{"poiid":"B2094757D169A7F94098","title":"金闻路58号","lon":"121.77200426","lat":"31.120611529","category":"500","category_name":"未知分类","address":"上海金闻路58号"},{"poiid":"B2094654DB64ABFF489E","title":"千汇苑二村(千汇路)","lon":"121.76581","lat":"31.11372","category":"47","category_name":"住宅区","address":"千汇路580弄"},{"poiid":"B2094655D36DA7FB4099","title":"祝潘公路川南奉公路","lon":"121.76676","lat":"31.12597","category":"38","category_name":"公交车站","address":""},{"poiid":"B2094757D66EA6F5479D","title":"金闻路68号","lon":"121.77305226","lat":"31.11792547","category":"500","category_name":"未知分类","address":"上海市浦东新区华星路"},{"poiid":"B2094655D36CA0FE429F","title":"金闻路金亭公路","lon":"121.77516","lat":"31.11164","category":"38","category_name":"公交车站","address":""},{"poiid":"B2094654DB64ABFF4392","title":"上海重矿连铸技术工程有限公司(金闻路)","lon":"121.77136","lat":"31.12265","category":"263","category_name":"公司","address":"金闻路26"},{"poiid":"B2094750DA68A0FD4593","title":"浦东机场专机坪","lon":"121.781288","lat":"31.130861","category":"500","category_name":"未知分类","address":"561"},{"poiid":"B2094757D16CA0F94593","title":"ETS","lon":"121.773906","lat":"31.114797","category":"249","category_name":"购物服务","address":"上海浦东机场金闻路72号"},{"poiid":"B2094654DB6DA5FD4998","title":"上海宏利药用包装材料有限公司(金闻路)","lon":"121.77281","lat":"31.11813","category":"263","category_name":"公司","address":""},{"poiid":"B2094655D26DA6FD409F","title":"千汇苑一村(千汇路)","lon":"121.76847","lat":"31.10978","category":"47","category_name":"住宅区","address":"千汇路280弄"},{"poiid":"B2094655D264A0F44998","title":"好又多购物中心(祝桥店)","lon":"121.77476","lat":"31.11227","category":"118","category_name":"超级市场","address":""},{"poiid":"B2094752D26EA6F9499A","title":"浦东机场","lon":"121.771437","lat":"31.113027","category":"500","category_name":"未知分类","address":null},{"poiid":"B2094654DB6DA5FD4999","title":"上海市一电机有限公司","lon":"121.77352","lat":"31.11588","category":"263","category_name":"公司","address":"祝桥空港工业园区金闻路66号"},{"poiid":"B2094655D264A4F9489E","title":"G1501闻居路收费站","lon":"121.76962","lat":"31.13378","category":"267","category_name":"收费站","address":""},{"poiid":"B2094654DB6DA5FC4792","title":"刚泰集团珠光工业园","lon":"121.76996","lat":"31.128","category":"263","category_name":"公司","address":"金闻路9"},{"poiid":"B2094757D16FA0FB4692","title":"上海加易国际货物运输代理有限公司","lon":"121.772656263","lat":"31.1143483905","category":"500","category_name":"未知分类","address":"上海浦东机场金闻路72号"},{"poiid":"B2094655D26EA7FF469C","title":"如海超市(祝桥店)","lon":"121.77232","lat":"31.113","category":"118","category_name":"超级市场","address":"南汇区祝桥镇东祝公路1072号"},{"poiid":"B2094654DB64ABF84393","title":"老尝客酒店","lon":"121.76698","lat":"31.10936","category":"70","category_name":"综合酒楼","address":"浦东新区祝桥镇千汇路296号(近川南奉公路)"},{"poiid":"B2094655D36CA2FF429A","title":"千汇路华星路","lon":"121.76354","lat":"31.11828","category":"38","category_name":"公交车站","address":""},{"poiid":"B2094655D36DA2FD499C","title":"闻居路桥","lon":"121.78326","lat":"31.13455","category":"250","category_name":"公园户外","address":""},{"poiid":"B2094751D26CAAFA439F","title":"上海浦东机场综合保税区通关服务中心","lon":"121.783767","lat":"31.132989","category":"614","category_name":"税务","address":"浦东新区闻居路1333号"},{"poiid":"B2094655D36CA0FE4293","title":"金亭公路千汇路","lon":"121.76668","lat":"31.11177","category":"38","category_name":"公交车站","address":""},{"poiid":"B2094757D66CA6FA4698","title":"上海腾隆","lon":"121.787378763","lat":"31.1139483816","category":"500","category_name":"未知分类","address":"上海金顺路16号"},{"poiid":"B2094757D66EA1FF4998","title":"TKC办公室","lon":"121.76833033","lat":"31.131655738","category":"500","category_name":"未知分类","address":"上海金闻路9号7幢"},{"poiid":"B2094654DB6DA5FD4092","title":"祝桥东港花苑三村","lon":"121.76398","lat":"31.109356","category":"47","category_name":"住宅区","address":"广益路15弄"},{"poiid":"B2094655D265A0F4429C","title":"上岛咖啡(弘基店)","lon":"121.76338","lat":"31.13343","category":"65","category_name":"咖啡厅","address":"浦东新区惠南镇川南奉公路6101号弘基广场内(近世纪联华)"},{"poiid":"B2094655D36CA5FE4192","title":"川南奉公路周祝公路(祝桥)","lon":"121.75971","lat":"31.1181","category":"38","category_name":"公交车站","address":""},{"poiid":"B2094655D36DA7FA4592","title":"朱家店","lon":"121.76372","lat":"31.13191","category":"38","category_name":"公交车站","address":""},{"poiid":"B2094654DB6DA5FC469C","title":"赫比(上海)精密冲压模具制品有限公司","lon":"121.77553","lat":"31.10972","category":"263","category_name":"公司","address":""},{"poiid":"B2094655D26DA6FD4298","title":"祝桥环城一村(川南奉公路)","lon":"121.76122","lat":"31.11965","category":"47","category_name":"住宅区","address":""},{"poiid":"B2094757D568AAF44898","title":"空港物流公众服务中心","lon":"121.7648158","lat":"31.131875","category":"248","category_name":"生活娱乐","address":"空港物流园区"},{"poiid":"B2094757D165A0FE429D","title":"OTE办公室","lon":"121.77060026","lat":"31.136060873","category":"500","category_name":"未知分类","address":"上海市浦东新区施湾六路"},{"poiid":"B2094654DB69A6FF419C","title":"绿庭百合苑","lon":"121.75946","lat":"31.11942","category":"47","category_name":"住宅区","address":"奉贤区八字桥路158弄"},{"poiid":"B2094757D164A6FB4292","title":"szx 空运部","lon":"121.770146263","lat":"31.1364808832","category":"263","category_name":"公司","address":"上海市浦东新区施湾六路"},{"poiid":"B2094654DB6DA5FE4292","title":"阳光浴场","lon":"121.76004","lat":"31.11894","category":"149","category_name":"洗浴推拿场所","address":""},{"poiid":"B2094654DB6DA5FE429F","title":"威埃姆输送机械(上海)有限公司","lon":"121.76708","lat":"31.13618","category":"263","category_name":"公司","address":""}]