[{"poiid":"B2094757D068A0FD4792","title":"华东师范大学(闵行校区)","lon":"121.454761","lat":"31.024937","category":"671","category_name":"高校中心点","address":"闵行区东川路500号华东师范大学内(近莲花南路)"},{"poiid":"B2094757D068A3F84399","title":"上海东海学院","lon":"121.458895","lat":"31.029841","category":"253","category_name":"校园生活","address":"闵行区虹梅南路6001号(近东川路)"},{"poiid":"B2094757D06EAAF4449E","title":"华东师范大学图书馆","lon":"121.45299218","lat":"31.029252247","category":"253","category_name":"校园生活","address":"闵行区东川路500号华东师范大学内(近莲花南路)"},{"poiid":"B2094757D069A1FC419D","title":"紫竹科学园区","lon":"121.45352312","lat":"31.02358667","category":"45","category_name":"产业园区","address":"上海市闵行区东川路555号"},{"poiid":"B2094757D06FABF94392","title":"华东师范大学研究生公寓","lon":"121.457642","lat":"31.034028","category":"253","category_name":"校园生活","address":"上海闵行区虹梅南路5800号"},{"poiid":"B2094757D06FA5F94193","title":"华东师范大学本科生公寓","lon":"121.451945128","lat":"31.0369379445","category":"253","category_name":"校园生活","address":"上海闵行区东川路500号华东师范大学闵行校区"},{"poiid":"B2094757D06EAAFB439B","title":"华东师范大学 第一教学楼","lon":"121.45475769","lat":"31.024936676","category":"253","category_name":"校园生活","address":"上海闵行区东川路500号"},{"poiid":"B2094757D06EAAFD4499","title":"华东师范大学第三教学楼","lon":"121.45367407","lat":"31.026412186","category":"253","category_name":"校园生活","address":"上海闵行区东川路500号华东师范大学闵行校区"},{"poiid":"B2094757D069A3FE489A","title":"华师大第二教学楼","lon":"121.45323181","lat":"31.030958175","category":"253","category_name":"校园生活","address":"上海闵行区东川路500号华东师范大学闵行校区"},{"poiid":"B2094757D06FA1FD499C","title":"华东师范大学第四教学楼","lon":"121.45424652","lat":"31.025007247","category":"253","category_name":"校园生活","address":"上海闵行区东川路500号华东师范大学闵行校区"},{"poiid":"B2094757D06FA6FF4293","title":"微软 上海","lon":"121.45035963","lat":"31.019618749","category":"46","category_name":"楼宇","address":"上海紫星路999号"},{"poiid":"B2094757D064A1F9459F","title":"华东师范大学 大学生活动中心C区舞厅","lon":"121.45395257","lat":"31.033214743","category":"500","category_name":"未知分类","address":"上海东川路500号"},{"poiid":"B2094757D569A3FD409E","title":"东海学院学生公寓","lon":"121.458534","lat":"31.030658","category":"47","category_name":"住宅区","address":"中国上海市闵行区虹梅南路"},{"poiid":"B2094757D06FAAFB4999","title":"肯德基 KFC (吴泾店)","lon":"121.463986","lat":"31.042662","category":"68","category_name":"快餐厅","address":"闵行区吴泾镇宝秀路667号(宝秀路永德路)"},{"poiid":"B2094757D064A6FC4098","title":"英特尔亚太研发有限公司","lon":"121.448820678","lat":"31.0199671956","category":"46","category_name":"楼宇","address":"上海闵行区紫竹科学园区紫星路880号"},{"poiid":"B2094757D069A6FC4198","title":"吴泾医院","lon":"121.46771812","lat":"31.041532597","category":"162","category_name":"医院","address":"上海闵行区剑川路155号"},{"poiid":"B2094757D168A2F5469E","title":"紫竹半岛","lon":"121.464160645","lat":"31.0248502074","category":"47","category_name":"住宅区","address":"上海东川路龙吴路"},{"poiid":"B2094757D06FA2FA4993","title":"华东师范大学 华闵食堂","lon":"121.45985341","lat":"31.0302342422","category":"260","category_name":"其他","address":"上海闵行区东川路500号"},{"poiid":"B2094757D064A1FB459D","title":"华东师范大学体育与健康学院","lon":"121.458413003","lat":"31.0305680921","category":"253","category_name":"校园生活","address":"上海闵行区东川路500号"},{"poiid":"B2094750D56CA7FC479B","title":"闵行区教育学院","lon":"121.461166","lat":"31.034742","category":"253","category_name":"校园生活","address":"紫龙路835号"},{"poiid":"B2094655D36CA7F84799","title":"虹梅南路东海学院","lon":"121.45951","lat":"31.02889","category":"38","category_name":"公交车站","address":""},{"poiid":"B2094757D76FA5F4429F","title":"牛奶棚 华师大闵行店","lon":"121.459276054","lat":"31.026392793","category":"67","category_name":"甜品店","address":"闵行区东川路500号华师大闵行校区本科生公寓(近莲花南路)"},{"poiid":"B2094757D069A3FB4098","title":"729路","lon":"121.459372","lat":"31.029281","category":"38","category_name":"公交车站","address":"上海南站——东海学院"},{"poiid":"B2094757D16AAAFA409B","title":"派之星量贩式KTV","lon":"121.466659645","lat":"31.0411515709","category":"248","category_name":"生活娱乐","address":"上海闵行区剑川路165号(锦江之星院内)"},{"poiid":"B2094757D164ABFF429F","title":"虹梅新苑","lon":"121.45612964","lat":"31.041384576","category":"47","category_name":"住宅区","address":"虹梅新苑位于闵行永德路360弄"},{"poiid":"B2094757D065A7F5429A","title":"华东师范大学传播学院","lon":"121.455982245","lat":"31.0347335278","category":"52","category_name":"高等院校","address":"上海闵行区东川路500号华东师范大学闵行校区"},{"poiid":"B2094654DB69A6FA4198","title":"紫竹信息数码港","lon":"121.45375","lat":"31.02316","category":"46","category_name":"楼宇","address":"东川路555号"},{"poiid":"B2094757D069A3FB479F","title":"华东师范大学法商楼","lon":"121.4591965","lat":"31.03086821","category":"253","category_name":"校园生活","address":"上海闵行区东川路500号"},{"poiid":"B2094750D164A5FC479B","title":"上海华东师范大学教师之家宾馆","lon":"121.458216087973","lat":"31.0325500989394","category":"215","category_name":"三星级宾馆","address":"上海闵行区虹梅南路5858号教师之家宾馆"},{"poiid":"B2094655D264A0FF429A","title":"微软中国上海科技园区","lon":"121.45018","lat":"31.02005","category":"45","category_name":"产业园区","address":"紫星路999"},{"poiid":"B2094757D66DA4FF489F","title":"绍兴饭店(龙华店)","lon":"121.46408144","lat":"31.029331692","category":"247","category_name":"餐饮美食","address":"上海徐汇区龙华西路1号"},{"poiid":"B2094757D569A3FC489E","title":"东海学院学生公寓(东北门)","lon":"121.458641","lat":"31.03067","category":"47","category_name":"住宅区","address":"中国上海市闵行区虹梅南路"},{"poiid":"B2094757D069A0F44092","title":"华东师范大学外语学院","lon":"121.455313096","lat":"31.027346418","category":"253","category_name":"校园生活","address":"上海闵行区东川路500号华东师范大学闵行校区"},{"poiid":"B2094757D16DA0FE4198","title":"华师大游泳馆(闵行校区)","lon":"121.45451","lat":"31.02473","category":"220","category_name":"运动场所","address":"闵行区东川路500号华东师范大学体育与健康学院体育场馆(近莲花南路)"},{"poiid":"B2094757D16AA5F94498","title":"东海学院 8号楼","lon":"121.458379645","lat":"31.0276282693","category":"500","category_name":"未知分类","address":"上海虹梅南路6001号 8号楼"},{"poiid":"B2094757D66CA4FB469B","title":"京滨电子","lon":"121.459881745","lat":"31.0237061819","category":"46","category_name":"楼宇","address":"上海闵行区紫星路451号 近江川东路"},{"poiid":"B2094757D16EA4F4419B","title":"华东师范大学 铁轨","lon":"121.46083104","lat":"31.035000433","category":"22","category_name":"火车站","address":"上海贯穿华师大校园(闵行校区)近虹梅南路"},{"poiid":"B2094751D26DA1FC409B","title":"华东师范大学艺术学院美术学系","lon":"121.457939","lat":"31.030185","category":"253","category_name":"校园生活","address":null},{"poiid":"B2094757D16EA6FA499A","title":"68部寝室之2-205","lon":"121.45872864","lat":"31.029587313","category":"249","category_name":"购物服务","address":null},{"poiid":"B2094757D069A7FE489F","title":"华东师范大学本科生公寓16号楼","lon":"121.46164703","lat":"31.031480789","category":"500","category_name":"未知分类","address":"上海闵行区东川路500号靠近剑川路附近"},{"poiid":"B2094757D06AA1F4439E","title":"永德路步行衔","lon":"121.461725645","lat":"31.0425556022","category":"500","category_name":"未知分类","address":"上海市闵行区永德路"},{"poiid":"B209475CD265A2F9489E","title":"华师大二附中（紫竹校区）","lon":"121.45922","lat":"31.032014","category":"500","category_name":"未知分类","address":"上海市 上海市闵行区紫凤路350号"},{"poiid":"B2094757D76FA5F9409A","title":"世国烧烤","lon":"121.46617","lat":"31.04155","category":"68","category_name":"快餐厅","address":"闵行区剑川路150号(龙吴路宝秀路间)"},{"poiid":"B2094757D168A4FF4693","title":"Intel SHZ1","lon":"121.45452312","lat":"31.021117619","category":"500","category_name":"未知分类","address":"上海紫竹科技园紫星路880号"},{"poiid":"B2094757D06AA4FC419B","title":"华东师范大学闵行校大学生活动中心A区201苹果校园体验中心","lon":"121.454175628","lat":"31.032728358","category":"138","category_name":"家电电子卖场","address":"上海东川路500号"},{"poiid":"B2094655D36CA7F8479E","title":"虹梅南路华东师大","lon":"121.45794","lat":"31.03296","category":"38","category_name":"公交车站","address":""},{"poiid":"B2094655D26AA4FE4199","title":"樱桃河西餐厅","lon":"121.45424","lat":"31.025","category":"247","category_name":"餐饮美食","address":"闵行区东川路500号闵行华师大本科生公寓内(近莲花南路)"},{"poiid":"B2094757D068A5FC4092","title":"季风书园(华师大店)","lon":"121.455200795","lat":"31.0310643959","category":"260","category_name":"其他","address":"上海闵行区虹梅南路5858号教师之家内"},{"poiid":"B2094655D26AA6FF4193","title":"华闵餐厅","lon":"121.45424","lat":"31.025","category":"68","category_name":"快餐厅","address":"闵行区东川路500号闵行华师大本科生公寓内(近莲花南路)"},{"poiid":"B2094757D66FA0FB4393","title":"华东师范大学室内体育馆","lon":"121.44826912","lat":"31.033560875","category":"500","category_name":"未知分类","address":"上海市闵行区东川路500号"},{"poiid":"B2094757D068A0FD4792","title":"华东师范大学(闵行校区)","lon":"121.454761","lat":"31.024937","category":"671","category_name":"高校中心点","address":"闵行区东川路500号华东师范大学内(近莲花南路)"},{"poiid":"B2094757D068A3F84399","title":"上海东海学院","lon":"121.458895","lat":"31.029841","category":"253","category_name":"校园生活","address":"闵行区虹梅南路6001号(近东川路)"},{"poiid":"B2094757D06EAAF4449E","title":"华东师范大学图书馆","lon":"121.45299218","lat":"31.029252247","category":"253","category_name":"校园生活","address":"闵行区东川路500号华东师范大学内(近莲花南路)"},{"poiid":"B2094757D069A1FC419D","title":"紫竹科学园区","lon":"121.45352312","lat":"31.02358667","category":"45","category_name":"产业园区","address":"上海市闵行区东川路555号"},{"poiid":"B2094757D06FABF94392","title":"华东师范大学研究生公寓","lon":"121.457642","lat":"31.034028","category":"253","category_name":"校园生活","address":"上海闵行区虹梅南路5800号"},{"poiid":"B2094757D06FA5F94193","title":"华东师范大学本科生公寓","lon":"121.451945128","lat":"31.0369379445","category":"253","category_name":"校园生活","address":"上海闵行区东川路500号华东师范大学闵行校区"},{"poiid":"B2094757D06EAAFB439B","title":"华东师范大学 第一教学楼","lon":"121.45475769","lat":"31.024936676","category":"253","category_name":"校园生活","address":"上海闵行区东川路500号"},{"poiid":"B2094757D06EAAFD4499","title":"华东师范大学第三教学楼","lon":"121.45367407","lat":"31.026412186","category":"253","category_name":"校园生活","address":"上海闵行区东川路500号华东师范大学闵行校区"},{"poiid":"B2094757D069A3FE489A","title":"华师大第二教学楼","lon":"121.45323181","lat":"31.030958175","category":"253","category_name":"校园生活","address":"上海闵行区东川路500号华东师范大学闵行校区"},{"poiid":"B2094757D06FA1FD499C","title":"华东师范大学第四教学楼","lon":"121.45424652","lat":"31.025007247","category":"253","category_name":"校园生活","address":"上海闵行区东川路500号华东师范大学闵行校区"},{"poiid":"B2094757D06FA6FF4293","title":"微软 上海","lon":"121.45035963","lat":"31.019618749","category":"46","category_name":"楼宇","address":"上海紫星路999号"},{"poiid":"B2094757D064A1F9459F","title":"华东师范大学 大学生活动中心C区舞厅","lon":"121.45395257","lat":"31.033214743","category":"500","category_name":"未知分类","address":"上海东川路500号"},{"poiid":"B2094757D569A3FD409E","title":"东海学院学生公寓","lon":"121.458534","lat":"31.030658","category":"47","category_name":"住宅区","address":"中国上海市闵行区虹梅南路"},{"poiid":"B2094757D06FAAFB4999","title":"肯德基 KFC (吴泾店)","lon":"121.463986","lat":"31.042662","category":"68","category_name":"快餐厅","address":"闵行区吴泾镇宝秀路667号(宝秀路永德路)"},{"poiid":"B2094757D064A6FC4098","title":"英特尔亚太研发有限公司","lon":"121.448820678","lat":"31.0199671956","category":"46","category_name":"楼宇","address":"上海闵行区紫竹科学园区紫星路880号"},{"poiid":"B2094757D069A6FC4198","title":"吴泾医院","lon":"121.46771812","lat":"31.041532597","category":"162","category_name":"医院","address":"上海闵行区剑川路155号"},{"poiid":"B2094757D168A2F5469E","title":"紫竹半岛","lon":"121.464160645","lat":"31.0248502074","category":"47","category_name":"住宅区","address":"上海东川路龙吴路"},{"poiid":"B2094757D06FA2FA4993","title":"华东师范大学 华闵食堂","lon":"121.45985341","lat":"31.0302342422","category":"260","category_name":"其他","address":"上海闵行区东川路500号"},{"poiid":"B2094757D064A1FB459D","title":"华东师范大学体育与健康学院","lon":"121.458413003","lat":"31.0305680921","category":"253","category_name":"校园生活","address":"上海闵行区东川路500号"},{"poiid":"B2094750D56CA7FC479B","title":"闵行区教育学院","lon":"121.461166","lat":"31.034742","category":"253","category_name":"校园生活","address":"紫龙路835号"},{"poiid":"B2094655D36CA7F84799","title":"虹梅南路东海学院","lon":"121.45951","lat":"31.02889","category":"38","category_name":"公交车站","address":""},{"poiid":"B2094757D76FA5F4429F","title":"牛奶棚 华师大闵行店","lon":"121.459276054","lat":"31.026392793","category":"67","category_name":"甜品店","address":"闵行区东川路500号华师大闵行校区本科生公寓(近莲花南路)"},{"poiid":"B2094757D069A3FB4098","title":"729路","lon":"121.459372","lat":"31.029281","category":"38","category_name":"公交车站","address":"上海南站——东海学院"},{"poiid":"B2094757D16AAAFA409B","title":"派之星量贩式KTV","lon":"121.466659645","lat":"31.0411515709","category":"248","category_name":"生活娱乐","address":"上海闵行区剑川路165号(锦江之星院内)"},{"poiid":"B2094757D164ABFF429F","title":"虹梅新苑","lon":"121.45612964","lat":"31.041384576","category":"47","category_name":"住宅区","address":"虹梅新苑位于闵行永德路360弄"},{"poiid":"B2094757D065A7F5429A","title":"华东师范大学传播学院","lon":"121.455982245","lat":"31.0347335278","category":"52","category_name":"高等院校","address":"上海闵行区东川路500号华东师范大学闵行校区"},{"poiid":"B2094654DB69A6FA4198","title":"紫竹信息数码港","lon":"121.45375","lat":"31.02316","category":"46","category_name":"楼宇","address":"东川路555号"},{"poiid":"B2094757D069A3FB479F","title":"华东师范大学法商楼","lon":"121.4591965","lat":"31.03086821","category":"253","category_name":"校园生活","address":"上海闵行区东川路500号"},{"poiid":"B2094750D164A5FC479B","title":"上海华东师范大学教师之家宾馆","lon":"121.458216087973","lat":"31.0325500989394","category":"215","category_name":"三星级宾馆","address":"上海闵行区虹梅南路5858号教师之家宾馆"},{"poiid":"B2094655D264A0FF429A","title":"微软中国上海科技园区","lon":"121.45018","lat":"31.02005","category":"45","category_name":"产业园区","address":"紫星路999"},{"poiid":"B2094757D66DA4FF489F","title":"绍兴饭店(龙华店)","lon":"121.46408144","lat":"31.029331692","category":"247","category_name":"餐饮美食","address":"上海徐汇区龙华西路1号"},{"poiid":"B2094757D569A3FC489E","title":"东海学院学生公寓(东北门)","lon":"121.458641","lat":"31.03067","category":"47","category_name":"住宅区","address":"中国上海市闵行区虹梅南路"},{"poiid":"B2094757D069A0F44092","title":"华东师范大学外语学院","lon":"121.455313096","lat":"31.027346418","category":"253","category_name":"校园生活","address":"上海闵行区东川路500号华东师范大学闵行校区"},{"poiid":"B2094757D16DA0FE4198","title":"华师大游泳馆(闵行校区)","lon":"121.45451","lat":"31.02473","category":"220","category_name":"运动场所","address":"闵行区东川路500号华东师范大学体育与健康学院体育场馆(近莲花南路)"},{"poiid":"B2094757D16AA5F94498","title":"东海学院 8号楼","lon":"121.458379645","lat":"31.0276282693","category":"500","category_name":"未知分类","address":"上海虹梅南路6001号 8号楼"},{"poiid":"B2094757D66CA4FB469B","title":"京滨电子","lon":"121.459881745","lat":"31.0237061819","category":"46","category_name":"楼宇","address":"上海闵行区紫星路451号 近江川东路"},{"poiid":"B2094757D16EA4F4419B","title":"华东师范大学 铁轨","lon":"121.46083104","lat":"31.035000433","category":"22","category_name":"火车站","address":"上海贯穿华师大校园(闵行校区)近虹梅南路"},{"poiid":"B2094751D26DA1FC409B","title":"华东师范大学艺术学院美术学系","lon":"121.457939","lat":"31.030185","category":"253","category_name":"校园生活","address":null},{"poiid":"B2094757D16EA6FA499A","title":"68部寝室之2-205","lon":"121.45872864","lat":"31.029587313","category":"249","category_name":"购物服务","address":null},{"poiid":"B2094757D069A7FE489F","title":"华东师范大学本科生公寓16号楼","lon":"121.46164703","lat":"31.031480789","category":"500","category_name":"未知分类","address":"上海闵行区东川路500号靠近剑川路附近"},{"poiid":"B2094757D06AA1F4439E","title":"永德路步行衔","lon":"121.461725645","lat":"31.0425556022","category":"500","category_name":"未知分类","address":"上海市闵行区永德路"},{"poiid":"B209475CD265A2F9489E","title":"华师大二附中（紫竹校区）","lon":"121.45922","lat":"31.032014","category":"500","category_name":"未知分类","address":"上海市 上海市闵行区紫凤路350号"},{"poiid":"B2094757D76FA5F9409A","title":"世国烧烤","lon":"121.46617","lat":"31.04155","category":"68","category_name":"快餐厅","address":"闵行区剑川路150号(龙吴路宝秀路间)"},{"poiid":"B2094757D168A4FF4693","title":"Intel SHZ1","lon":"121.45452312","lat":"31.021117619","category":"500","category_name":"未知分类","address":"上海紫竹科技园紫星路880号"},{"poiid":"B2094757D06AA4FC419B","title":"华东师范大学闵行校大学生活动中心A区201苹果校园体验中心","lon":"121.454175628","lat":"31.032728358","category":"138","category_name":"家电电子卖场","address":"上海东川路500号"},{"poiid":"B2094655D36CA7F8479E","title":"虹梅南路华东师大","lon":"121.45794","lat":"31.03296","category":"38","category_name":"公交车站","address":""},{"poiid":"B2094655D26AA4FE4199","title":"樱桃河西餐厅","lon":"121.45424","lat":"31.025","category":"247","category_name":"餐饮美食","address":"闵行区东川路500号闵行华师大本科生公寓内(近莲花南路)"},{"poiid":"B2094757D068A5FC4092","title":"季风书园(华师大店)","lon":"121.455200795","lat":"31.0310643959","category":"260","category_name":"其他","address":"上海闵行区虹梅南路5858号教师之家内"},{"poiid":"B2094655D26AA6FF4193","title":"华闵餐厅","lon":"121.45424","lat":"31.025","category":"68","category_name":"快餐厅","address":"闵行区东川路500号闵行华师大本科生公寓内(近莲花南路)"},{"poiid":"B2094757D66FA0FB4393","title":"华东师范大学室内体育馆","lon":"121.44826912","lat":"31.033560875","category":"500","category_name":"未知分类","address":"上海市闵行区东川路500号"},{"poiid":"B2094757D068A0FD4792","title":"华东师范大学(闵行校区)","lon":"121.454761","lat":"31.024937","category":"671","category_name":"高校中心点","address":"闵行区东川路500号华东师范大学内(近莲花南路)"},{"poiid":"B2094757D068A3F84399","title":"上海东海学院","lon":"121.458895","lat":"31.029841","category":"253","category_name":"校园生活","address":"闵行区虹梅南路6001号(近东川路)"},{"poiid":"B2094757D06EAAF4449E","title":"华东师范大学图书馆","lon":"121.45299218","lat":"31.029252247","category":"253","category_name":"校园生活","address":"闵行区东川路500号华东师范大学内(近莲花南路)"},{"poiid":"B2094757D069A1FC419D","title":"紫竹科学园区","lon":"121.45352312","lat":"31.02358667","category":"45","category_name":"产业园区","address":"上海市闵行区东川路555号"},{"poiid":"B2094757D06FABF94392","title":"华东师范大学研究生公寓","lon":"121.457642","lat":"31.034028","category":"253","category_name":"校园生活","address":"上海闵行区虹梅南路5800号"},{"poiid":"B2094757D06FA5F94193","title":"华东师范大学本科生公寓","lon":"121.451945128","lat":"31.0369379445","category":"253","category_name":"校园生活","address":"上海闵行区东川路500号华东师范大学闵行校区"},{"poiid":"B2094757D06EAAFB439B","title":"华东师范大学 第一教学楼","lon":"121.45475769","lat":"31.024936676","category":"253","category_name":"校园生活","address":"上海闵行区东川路500号"},{"poiid":"B2094757D06EAAFD4499","title":"华东师范大学第三教学楼","lon":"121.45367407","lat":"31.026412186","category":"253","category_name":"校园生活","address":"上海闵行区东川路500号华东师范大学闵行校区"},{"poiid":"B2094757D069A3FE489A","title":"华师大第二教学楼","lon":"121.45323181","lat":"31.030958175","category":"253","category_name":"校园生活","address":"上海闵行区东川路500号华东师范大学闵行校区"},{"poiid":"B2094757D06FA1FD499C","title":"华东师范大学第四教学楼","lon":"121.45424652","lat":"31.025007247","category":"253","category_name":"校园生活","address":"上海闵行区东川路500号华东师范大学闵行校区"},{"poiid":"B2094757D06FA6FF4293","title":"微软 上海","lon":"121.45035963","lat":"31.019618749","category":"46","category_name":"楼宇","address":"上海紫星路999号"},{"poiid":"B2094757D064A1F9459F","title":"华东师范大学 大学生活动中心C区舞厅","lon":"121.45395257","lat":"31.033214743","category":"500","category_name":"未知分类","address":"上海东川路500号"},{"poiid":"B2094757D569A3FD409E","title":"东海学院学生公寓","lon":"121.458534","lat":"31.030658","category":"47","category_name":"住宅区","address":"中国上海市闵行区虹梅南路"},{"poiid":"B2094757D06FAAFB4999","title":"肯德基 KFC (吴泾店)","lon":"121.463986","lat":"31.042662","category":"68","category_name":"快餐厅","address":"闵行区吴泾镇宝秀路667号(宝秀路永德路)"},{"poiid":"B2094757D064A6FC4098","title":"英特尔亚太研发有限公司","lon":"121.448820678","lat":"31.0199671956","category":"46","category_name":"楼宇","address":"上海闵行区紫竹科学园区紫星路880号"},{"poiid":"B2094757D069A6FC4198","title":"吴泾医院","lon":"121.46771812","lat":"31.041532597","category":"162","category_name":"医院","address":"上海闵行区剑川路155号"},{"poiid":"B2094757D168A2F5469E","title":"紫竹半岛","lon":"121.464160645","lat":"31.0248502074","category":"47","category_name":"住宅区","address":"上海东川路龙吴路"},{"poiid":"B2094757D06FA2FA4993","title":"华东师范大学 华闵食堂","lon":"121.45985341","lat":"31.0302342422","category":"260","category_name":"其他","address":"上海闵行区东川路500号"},{"poiid":"B2094757D064A1FB459D","title":"华东师范大学体育与健康学院","lon":"121.458413003","lat":"31.0305680921","category":"253","category_name":"校园生活","address":"上海闵行区东川路500号"},{"poiid":"B2094750D56CA7FC479B","title":"闵行区教育学院","lon":"121.461166","lat":"31.034742","category":"253","category_name":"校园生活","address":"紫龙路835号"},{"poiid":"B2094655D36CA7F84799","title":"虹梅南路东海学院","lon":"121.45951","lat":"31.02889","category":"38","category_name":"公交车站","address":""},{"poiid":"B2094757D76FA5F4429F","title":"牛奶棚 华师大闵行店","lon":"121.459276054","lat":"31.026392793","category":"67","category_name":"甜品店","address":"闵行区东川路500号华师大闵行校区本科生公寓(近莲花南路)"},{"poiid":"B2094757D069A3FB4098","title":"729路","lon":"121.459372","lat":"31.029281","category":"38","category_name":"公交车站","address":"上海南站——东海学院"},{"poiid":"B2094757D16AAAFA409B","title":"派之星量贩式KTV","lon":"121.466659645","lat":"31.0411515709","category":"248","category_name":"生活娱乐","address":"上海闵行区剑川路165号(锦江之星院内)"},{"poiid":"B2094757D164ABFF429F","title":"虹梅新苑","lon":"121.45612964","lat":"31.041384576","category":"47","category_name":"住宅区","address":"虹梅新苑位于闵行永德路360弄"},{"poiid":"B2094757D065A7F5429A","title":"华东师范大学传播学院","lon":"121.455982245","lat":"31.0347335278","category":"52","category_name":"高等院校","address":"上海闵行区东川路500号华东师范大学闵行校区"},{"poiid":"B2094654DB69A6FA4198","title":"紫竹信息数码港","lon":"121.45375","lat":"31.02316","category":"46","category_name":"楼宇","address":"东川路555号"},{"poiid":"B2094757D069A3FB479F","title":"华东师范大学法商楼","lon":"121.4591965","lat":"31.03086821","category":"253","category_name":"校园生活","address":"上海闵行区东川路500号"},{"poiid":"B2094750D164A5FC479B","title":"上海华东师范大学教师之家宾馆","lon":"121.458216087973","lat":"31.0325500989394","category":"215","category_name":"三星级宾馆","address":"上海闵行区虹梅南路5858号教师之家宾馆"},{"poiid":"B2094655D264A0FF429A","title":"微软中国上海科技园区","lon":"121.45018","lat":"31.02005","category":"45","category_name":"产业园区","address":"紫星路999"},{"poiid":"B2094757D66DA4FF489F","title":"绍兴饭店(龙华店)","lon":"121.46408144","lat":"31.029331692","category":"247","category_name":"餐饮美食","address":"上海徐汇区龙华西路1号"},{"poiid":"B2094757D569A3FC489E","title":"东海学院学生公寓(东北门)","lon":"121.458641","lat":"31.03067","category":"47","category_name":"住宅区","address":"中国上海市闵行区虹梅南路"},{"poiid":"B2094757D069A0F44092","title":"华东师范大学外语学院","lon":"121.455313096","lat":"31.027346418","category":"253","category_name":"校园生活","address":"上海闵行区东川路500号华东师范大学闵行校区"},{"poiid":"B2094757D16DA0FE4198","title":"华师大游泳馆(闵行校区)","lon":"121.45451","lat":"31.02473","category":"220","category_name":"运动场所","address":"闵行区东川路500号华东师范大学体育与健康学院体育场馆(近莲花南路)"},{"poiid":"B2094757D16AA5F94498","title":"东海学院 8号楼","lon":"121.458379645","lat":"31.0276282693","category":"500","category_name":"未知分类","address":"上海虹梅南路6001号 8号楼"},{"poiid":"B2094757D66CA4FB469B","title":"京滨电子","lon":"121.459881745","lat":"31.0237061819","category":"46","category_name":"楼宇","address":"上海闵行区紫星路451号 近江川东路"},{"poiid":"B2094757D16EA4F4419B","title":"华东师范大学 铁轨","lon":"121.46083104","lat":"31.035000433","category":"22","category_name":"火车站","address":"上海贯穿华师大校园(闵行校区)近虹梅南路"},{"poiid":"B2094751D26DA1FC409B","title":"华东师范大学艺术学院美术学系","lon":"121.457939","lat":"31.030185","category":"253","category_name":"校园生活","address":null},{"poiid":"B2094757D16EA6FA499A","title":"68部寝室之2-205","lon":"121.45872864","lat":"31.029587313","category":"249","category_name":"购物服务","address":null},{"poiid":"B2094757D069A7FE489F","title":"华东师范大学本科生公寓16号楼","lon":"121.46164703","lat":"31.031480789","category":"500","category_name":"未知分类","address":"上海闵行区东川路500号靠近剑川路附近"},{"poiid":"B2094757D06AA1F4439E","title":"永德路步行衔","lon":"121.461725645","lat":"31.0425556022","category":"500","category_name":"未知分类","address":"上海市闵行区永德路"},{"poiid":"B209475CD265A2F9489E","title":"华师大二附中（紫竹校区）","lon":"121.45922","lat":"31.032014","category":"500","category_name":"未知分类","address":"上海市 上海市闵行区紫凤路350号"},{"poiid":"B2094757D76FA5F9409A","title":"世国烧烤","lon":"121.46617","lat":"31.04155","category":"68","category_name":"快餐厅","address":"闵行区剑川路150号(龙吴路宝秀路间)"},{"poiid":"B2094757D168A4FF4693","title":"Intel SHZ1","lon":"121.45452312","lat":"31.021117619","category":"500","category_name":"未知分类","address":"上海紫竹科技园紫星路880号"},{"poiid":"B2094757D06AA4FC419B","title":"华东师范大学闵行校大学生活动中心A区201苹果校园体验中心","lon":"121.454175628","lat":"31.032728358","category":"138","category_name":"家电电子卖场","address":"上海东川路500号"},{"poiid":"B2094655D36CA7F8479E","title":"虹梅南路华东师大","lon":"121.45794","lat":"31.03296","category":"38","category_name":"公交车站","address":""},{"poiid":"B2094655D26AA4FE4199","title":"樱桃河西餐厅","lon":"121.45424","lat":"31.025","category":"247","category_name":"餐饮美食","address":"闵行区东川路500号闵行华师大本科生公寓内(近莲花南路)"},{"poiid":"B2094757D068A5FC4092","title":"季风书园(华师大店)","lon":"121.455200795","lat":"31.0310643959","category":"260","category_name":"其他","address":"上海闵行区虹梅南路5858号教师之家内"},{"poiid":"B2094655D26AA6FF4193","title":"华闵餐厅","lon":"121.45424","lat":"31.025","category":"68","category_name":"快餐厅","address":"闵行区东川路500号闵行华师大本科生公寓内(近莲花南路)"},{"poiid":"B2094757D66FA0FB4393","title":"华东师范大学室内体育馆","lon":"121.44826912","lat":"31.033560875","category":"500","category_name":"未知分类","address":"上海市闵行区东川路500号"},{"poiid":"B2094757D068A0FD4792","title":"华东师范大学(闵行校区)","lon":"121.454761","lat":"31.024937","category":"671","category_name":"高校中心点","address":"闵行区东川路500号华东师范大学内(近莲花南路)"},{"poiid":"B2094757D068A3F84399","title":"上海东海学院","lon":"121.458895","lat":"31.029841","category":"253","category_name":"校园生活","address":"闵行区虹梅南路6001号(近东川路)"},{"poiid":"B2094757D06EAAF4449E","title":"华东师范大学图书馆","lon":"121.45299218","lat":"31.029252247","category":"253","category_name":"校园生活","address":"闵行区东川路500号华东师范大学内(近莲花南路)"},{"poiid":"B2094757D069A1FC419D","title":"紫竹科学园区","lon":"121.45352312","lat":"31.02358667","category":"45","category_name":"产业园区","address":"上海市闵行区东川路555号"},{"poiid":"B2094757D06FABF94392","title":"华东师范大学研究生公寓","lon":"121.457642","lat":"31.034028","category":"253","category_name":"校园生活","address":"上海闵行区虹梅南路5800号"},{"poiid":"B2094757D06FA5F94193","title":"华东师范大学本科生公寓","lon":"121.451945128","lat":"31.0369379445","category":"253","category_name":"校园生活","address":"上海闵行区东川路500号华东师范大学闵行校区"},{"poiid":"B2094757D06EAAFB439B","title":"华东师范大学 第一教学楼","lon":"121.45475769","lat":"31.024936676","category":"253","category_name":"校园生活","address":"上海闵行区东川路500号"},{"poiid":"B2094757D06EAAFD4499","title":"华东师范大学第三教学楼","lon":"121.45367407","lat":"31.026412186","category":"253","category_name":"校园生活","address":"上海闵行区东川路500号华东师范大学闵行校区"},{"poiid":"B2094757D069A3FE489A","title":"华师大第二教学楼","lon":"121.45323181","lat":"31.030958175","category":"253","category_name":"校园生活","address":"上海闵行区东川路500号华东师范大学闵行校区"},{"poiid":"B2094757D06FA1FD499C","title":"华东师范大学第四教学楼","lon":"121.45424652","lat":"31.025007247","category":"253","category_name":"校园生活","address":"上海闵行区东川路500号华东师范大学闵行校区"},{"poiid":"B2094757D06FA6FF4293","title":"微软 上海","lon":"121.45035963","lat":"31.019618749","category":"46","category_name":"楼宇","address":"上海紫星路999号"},{"poiid":"B2094757D064A1F9459F","title":"华东师范大学 大学生活动中心C区舞厅","lon":"121.45395257","lat":"31.033214743","category":"500","category_name":"未知分类","address":"上海东川路500号"},{"poiid":"B2094757D569A3FD409E","title":"东海学院学生公寓","lon":"121.458534","lat":"31.030658","category":"47","category_name":"住宅区","address":"中国上海市闵行区虹梅南路"},{"poiid":"B2094757D06FAAFB4999","title":"肯德基 KFC (吴泾店)","lon":"121.463986","lat":"31.042662","category":"68","category_name":"快餐厅","address":"闵行区吴泾镇宝秀路667号(宝秀路永德路)"},{"poiid":"B2094757D064A6FC4098","title":"英特尔亚太研发有限公司","lon":"121.448820678","lat":"31.0199671956","category":"46","category_name":"楼宇","address":"上海闵行区紫竹科学园区紫星路880号"},{"poiid":"B2094757D069A6FC4198","title":"吴泾医院","lon":"121.46771812","lat":"31.041532597","category":"162","category_name":"医院","address":"上海闵行区剑川路155号"},{"poiid":"B2094757D168A2F5469E","title":"紫竹半岛","lon":"121.464160645","lat":"31.0248502074","category":"47","category_name":"住宅区","address":"上海东川路龙吴路"},{"poiid":"B2094757D06FA2FA4993","title":"华东师范大学 华闵食堂","lon":"121.45985341","lat":"31.0302342422","category":"260","category_name":"其他","address":"上海闵行区东川路500号"},{"poiid":"B2094757D064A1FB459D","title":"华东师范大学体育与健康学院","lon":"121.458413003","lat":"31.0305680921","category":"253","category_name":"校园生活","address":"上海闵行区东川路500号"},{"poiid":"B2094750D56CA7FC479B","title":"闵行区教育学院","lon":"121.461166","lat":"31.034742","category":"253","category_name":"校园生活","address":"紫龙路835号"},{"poiid":"B2094655D36CA7F84799","title":"虹梅南路东海学院","lon":"121.45951","lat":"31.02889","category":"38","category_name":"公交车站","address":""},{"poiid":"B2094757D76FA5F4429F","title":"牛奶棚 华师大闵行店","lon":"121.459276054","lat":"31.026392793","category":"67","category_name":"甜品店","address":"闵行区东川路500号华师大闵行校区本科生公寓(近莲花南路)"},{"poiid":"B2094757D069A3FB4098","title":"729路","lon":"121.459372","lat":"31.029281","category":"38","category_name":"公交车站","address":"上海南站——东海学院"},{"poiid":"B2094757D16AAAFA409B","title":"派之星量贩式KTV","lon":"121.466659645","lat":"31.0411515709","category":"248","category_name":"生活娱乐","address":"上海闵行区剑川路165号(锦江之星院内)"},{"poiid":"B2094757D164ABFF429F","title":"虹梅新苑","lon":"121.45612964","lat":"31.041384576","category":"47","category_name":"住宅区","address":"虹梅新苑位于闵行永德路360弄"},{"poiid":"B2094757D065A7F5429A","title":"华东师范大学传播学院","lon":"121.455982245","lat":"31.0347335278","category":"52","category_name":"高等院校","address":"上海闵行区东川路500号华东师范大学闵行校区"},{"poiid":"B2094654DB69A6FA4198","title":"紫竹信息数码港","lon":"121.45375","lat":"31.02316","category":"46","category_name":"楼宇","address":"东川路555号"},{"poiid":"B2094757D069A3FB479F","title":"华东师范大学法商楼","lon":"121.4591965","lat":"31.03086821","category":"253","category_name":"校园生活","address":"上海闵行区东川路500号"},{"poiid":"B2094750D164A5FC479B","title":"上海华东师范大学教师之家宾馆","lon":"121.458216087973","lat":"31.0325500989394","category":"215","category_name":"三星级宾馆","address":"上海闵行区虹梅南路5858号教师之家宾馆"},{"poiid":"B2094655D264A0FF429A","title":"微软中国上海科技园区","lon":"121.45018","lat":"31.02005","category":"45","category_name":"产业园区","address":"紫星路999"},{"poiid":"B2094757D66DA4FF489F","title":"绍兴饭店(龙华店)","lon":"121.46408144","lat":"31.029331692","category":"247","category_name":"餐饮美食","address":"上海徐汇区龙华西路1号"},{"poiid":"B2094757D569A3FC489E","title":"东海学院学生公寓(东北门)","lon":"121.458641","lat":"31.03067","category":"47","category_name":"住宅区","address":"中国上海市闵行区虹梅南路"},{"poiid":"B2094757D069A0F44092","title":"华东师范大学外语学院","lon":"121.455313096","lat":"31.027346418","category":"253","category_name":"校园生活","address":"上海闵行区东川路500号华东师范大学闵行校区"},{"poiid":"B2094757D16DA0FE4198","title":"华师大游泳馆(闵行校区)","lon":"121.45451","lat":"31.02473","category":"220","category_name":"运动场所","address":"闵行区东川路500号华东师范大学体育与健康学院体育场馆(近莲花南路)"},{"poiid":"B2094757D16AA5F94498","title":"东海学院 8号楼","lon":"121.458379645","lat":"31.0276282693","category":"500","category_name":"未知分类","address":"上海虹梅南路6001号 8号楼"},{"poiid":"B2094757D66CA4FB469B","title":"京滨电子","lon":"121.459881745","lat":"31.0237061819","category":"46","category_name":"楼宇","address":"上海闵行区紫星路451号 近江川东路"},{"poiid":"B2094757D16EA4F4419B","title":"华东师范大学 铁轨","lon":"121.46083104","lat":"31.035000433","category":"22","category_name":"火车站","address":"上海贯穿华师大校园(闵行校区)近虹梅南路"},{"poiid":"B2094751D26DA1FC409B","title":"华东师范大学艺术学院美术学系","lon":"121.457939","lat":"31.030185","category":"253","category_name":"校园生活","address":null},{"poiid":"B2094757D16EA6FA499A","title":"68部寝室之2-205","lon":"121.45872864","lat":"31.029587313","category":"249","category_name":"购物服务","address":null},{"poiid":"B2094757D069A7FE489F","title":"华东师范大学本科生公寓16号楼","lon":"121.46164703","lat":"31.031480789","category":"500","category_name":"未知分类","address":"上海闵行区东川路500号靠近剑川路附近"},{"poiid":"B2094757D06AA1F4439E","title":"永德路步行衔","lon":"121.461725645","lat":"31.0425556022","category":"500","category_name":"未知分类","address":"上海市闵行区永德路"},{"poiid":"B209475CD265A2F9489E","title":"华师大二附中（紫竹校区）","lon":"121.45922","lat":"31.032014","category":"500","category_name":"未知分类","address":"上海市 上海市闵行区紫凤路350号"},{"poiid":"B2094757D76FA5F9409A","title":"世国烧烤","lon":"121.46617","lat":"31.04155","category":"68","category_name":"快餐厅","address":"闵行区剑川路150号(龙吴路宝秀路间)"},{"poiid":"B2094757D168A4FF4693","title":"Intel SHZ1","lon":"121.45452312","lat":"31.021117619","category":"500","category_name":"未知分类","address":"上海紫竹科技园紫星路880号"},{"poiid":"B2094757D06AA4FC419B","title":"华东师范大学闵行校大学生活动中心A区201苹果校园体验中心","lon":"121.454175628","lat":"31.032728358","category":"138","category_name":"家电电子卖场","address":"上海东川路500号"},{"poiid":"B2094655D36CA7F8479E","title":"虹梅南路华东师大","lon":"121.45794","lat":"31.03296","category":"38","category_name":"公交车站","address":""},{"poiid":"B2094655D26AA4FE4199","title":"樱桃河西餐厅","lon":"121.45424","lat":"31.025","category":"247","category_name":"餐饮美食","address":"闵行区东川路500号闵行华师大本科生公寓内(近莲花南路)"},{"poiid":"B2094757D068A5FC4092","title":"季风书园(华师大店)","lon":"121.455200795","lat":"31.0310643959","category":"260","category_name":"其他","address":"上海闵行区虹梅南路5858号教师之家内"},{"poiid":"B2094655D26AA6FF4193","title":"华闵餐厅","lon":"121.45424","lat":"31.025","category":"68","category_name":"快餐厅","address":"闵行区东川路500号闵行华师大本科生公寓内(近莲花南路)"},{"poiid":"B2094757D66FA0FB4393","title":"华东师范大学室内体育馆","lon":"121.44826912","lat":"31.033560875","category":"500","category_name":"未知分类","address":"上海市闵行区东川路500号"}]