[{"poiid":"B2094757D06FA2FA489D","title":"上海应用技术学院(奉贤校区)","lon":"121.5169754","lat":"30.845203399","category":"52","category_name":"高等院校","address":"近郊奉贤区奉炮公路1225号(奉炮公路海阔路)"},{"poiid":"B2094757D06FA2FE499F","title":"上海师范大学(奉贤校区)","lon":"121.52111","lat":"30.83437","category":"52","category_name":"高等院校","address":"上海近郊奉贤区海思路100号"},{"poiid":"B2094757D06FA5F54698","title":"上海师范大学(奉贤校区)图书馆","lon":"121.51958704","lat":"30.837477779","category":"181","category_name":"图书馆","address":"近郊奉贤区奉炮公路553号上海师范大学内(近海思路)"},{"poiid":"B2094757D068A7F44493","title":"上海师范大学(奉贤校区)学生宿舍区","lon":"121.511986339","lat":"30.8360213012","category":"253","category_name":"校园生活","address":"上海市奉贤区海思路500号"},{"poiid":"B2094757D06FAAF5479E","title":"上海应用技术学院图书馆","lon":"121.51285502","lat":"30.843731089","category":"253","category_name":"校园生活","address":"奉贤区奉炮公路1255号上海应用技术学院内"},{"poiid":"B2094757D06FA6FE4892","title":"上海师范大学三教(奉贤校区)","lon":"121.51912117","lat":"30.839838485","category":"253","category_name":"校园生活","address":"上海市奉贤区海思路100号"},{"poiid":"B2094757D068A4FD4099","title":"上海师范大学剧院(奉贤校区)","lon":"121.517351","lat":"30.838204","category":"179","category_name":"音乐厅","address":"上海奉贤区海思路100号上海师范大学内"},{"poiid":"B2094757D06FA0FF459E","title":"上海应用技术学院第二教学楼","lon":"121.50916697","lat":"30.84306324","category":"253","category_name":"校园生活","address":"上海市奉贤区奉炮公路1255号"},{"poiid":"B2094757D069A1FE459B","title":"上海旅游高等专科学校(奉贤校区)","lon":"121.513297187","lat":"30.837675898","category":"671","category_name":"高校中心点","address":"上海市奉贤区海思路500号"},{"poiid":"B2094757D16EAAFC499D","title":"上海师范大学奉贤校区月亮湖畔","lon":"121.51510547","lat":"30.838152913","category":"500","category_name":"未知分类","address":"上海海思路100号"},{"poiid":"B2094757D06BA2FF429D","title":"上师大第四教学楼","lon":"121.51810746","lat":"30.837016736","category":"253","category_name":"校园生活","address":"上海学海路"},{"poiid":"B2094757D068AAFB449E","title":"上海师范大学 男人村","lon":"121.51053689","lat":"30.8424930698","category":"500","category_name":"未知分类","address":"上海市奉贤区海思路100号西北角"},{"poiid":"B2094757D06AA2FB4192","title":"上师大剧院","lon":"121.51988811","lat":"30.839748446","category":"260","category_name":"其他","address":"上海奉炮公路"},{"poiid":"B2094757D068ABFB4692","title":"上海师范大学 第五教学楼","lon":"121.52171818","lat":"30.836788877","category":"500","category_name":"未知分类","address":"上海市奉贤区玉兰路"},{"poiid":"B2094757D06FA4FE459C","title":"上海师范大学四教（奉贤校区）","lon":"121.520858765","lat":"30.8346538544","category":"253","category_name":"校园生活","address":"上海师范大学（奉贤校区）内"},{"poiid":"B2094750D768A0F4469F","title":"香豪小镇农家乐","lon":"121.514","lat":"30.8498","category":"87","category_name":"特色／地方风味餐厅","address":"近郊奉贤区海湾旅游区金海公路8号"},{"poiid":"B2094655D36DA0FB449D","title":"应用技术学院","lon":"121.51636","lat":"30.84194","category":"38","category_name":"公交车站","address":""},{"poiid":"B2094655D36CA6F84092","title":"奉海","lon":"121.51505","lat":"30.84761","category":"38","category_name":"公交车站","address":""},{"poiid":"B2094757DA6EA7F5489B","title":"香豪小镇","lon":"121.516799999997","lat":"30.845361","category":"250","category_name":"公园户外","address":"近郊奉贤区海湾旅游区金海路8号(近奉柘公路)"},{"poiid":"B2094757D16AA4F8439A","title":"上海应用技术学院15号楼","lon":"121.51108388","lat":"30.847100618","category":"500","category_name":"未知分类","address":"上海奉贤区奉炮公路1255号"},{"poiid":"B2094757D66AA5F94092","title":"哈尔滨风味馆","lon":"121.518165054","lat":"30.842664793","category":"82","category_name":"东北菜","address":"近郊奉贤区奉炮路521号(近上师大东门)"},{"poiid":"B2094757D06AA1FE439B","title":"上海应用技术学院奉贤校区11号楼","lon":"121.51121503","lat":"30.845317276","category":"500","category_name":"未知分类","address":"上海近郊奉贤区奉炮公路1225号"},{"poiid":"B2094757D065A7F5419B","title":"上海应用技术学院第一学科楼","lon":"121.51524918","lat":"30.843878043","category":"500","category_name":"未知分类","address":"上海市奉炮公路1255号"},{"poiid":"B2094655D36CA6F84099","title":"奉海村","lon":"121.51379","lat":"30.84842","category":"38","category_name":"公交车站","address":""},{"poiid":"B2094757D569A2FF4298","title":"海尚墅林苑","lon":"121.514","lat":"30.8426","category":"47","category_name":"住宅区","address":"奉贤海泉路555号"},{"poiid":"B2094757D06AA6FE479E","title":"上海应用技术学院8号楼","lon":"121.510715187","lat":"30.8456920854","category":"500","category_name":"未知分类","address":"上海市奉贤区奉炮公路1255号"},{"poiid":"B2094757D069A6F84993","title":"上海应用技术学院第一食堂","lon":"121.51400618","lat":"30.843283029","category":"253","category_name":"校园生活","address":"上海奉贤区奉炮公路1255号上海应用技术学院内"},{"poiid":"B2094757D064A3F5489F","title":"上海应用技术学院 黑暗料理街","lon":"121.51732838","lat":"30.846046821","category":"500","category_name":"未知分类","address":"上海应用技术学院奉贤校区 奉炮公路"},{"poiid":"B2094757D16BA4FA4098","title":"上海师范大学实验楼","lon":"121.51953593","lat":"30.860388196","category":"500","category_name":"未知分类","address":"上海师范大学(奉贤校区)内"},{"poiid":"B2094757D068A6F8479C","title":"上海师范大学 玉兰苑（奉贤校区）","lon":"121.515324621","lat":"30.8436968791","category":"260","category_name":"其他","address":"上海市奉贤区海湾镇海思路100号"},{"poiid":"B2094757D06BA5FE429D","title":"上海应用技术学院 5号寝室楼","lon":"121.51261148","lat":"30.847558129","category":"500","category_name":"未知分类","address":"上海应用技术学院奉贤校区"},{"poiid":"B2094654DB68A4F4439C","title":"上海科勒有限公司","lon":"121.52818","lat":"30.84626","category":"263","category_name":"公司","address":""},{"poiid":"B2094757D16EA1FE459E","title":"上海应用技术学院东体育场","lon":"121.51251718","lat":"30.846269098","category":"500","category_name":"未知分类","address":"奉贤区奉炮公路1255号上海应用技术学院奉贤校区"},{"poiid":"B2094655D26EA1FB4892","title":"阿康烧烤 奉贤师大店","lon":"121.518312054","lat":"30.842222793","category":"87","category_name":"特色／地方风味餐厅","address":"近郊奉贤区奉炮路523号"},{"poiid":"B2094757D068A2FC409E","title":"上海师范大学 二教","lon":"121.520813","lat":"30.834614","category":"253","category_name":"校园生活","address":"上海市奉贤区海思路100号上海师范大学二号教学楼"},{"poiid":"B2094757D06BABFC4498","title":"上海师范大学图书馆六楼","lon":"121.51947718","lat":"30.838492917","category":"181","category_name":"图书馆","address":"上海市奉贤区海思路"},{"poiid":"B2094655D36CA7FB409B","title":"海湾加油站","lon":"121.52099","lat":"30.84061","category":"38","category_name":"公交车站","address":""},{"poiid":"B2094757D16BA5FD4798","title":"上海市应用技术学院11号楼女生浴室","lon":"121.51117943","lat":"30.845935831","category":"500","category_name":"未知分类","address":"上海应用技术学院"},{"poiid":"B2094757D16CA7F94498","title":"0528","lon":"121.516694446","lat":"30.8441675377","category":"500","category_name":"未知分类","address":null},{"poiid":"B2094757D168A5FE409D","title":"上师大校医院(奉贤校区)","lon":"121.52029573","lat":"30.838450628","category":"162","category_name":"医院","address":"上海市奉贤区海思路100号上海师范大学内"},{"poiid":"B2094757D16DA4FB419C","title":"上海应用技术学院13号寝室楼1524室","lon":"121.515537","lat":"30.843773","category":"500","category_name":"未知分类","address":"上海奉炮公路1225号"},{"poiid":"B2094757D16EABFC4793","title":"奉贤校区6号楼","lon":"121.511143987","lat":"30.8469703153","category":"500","category_name":"未知分类","address":"上海应用技术学院"},{"poiid":"B2094654DB68A4F5449A","title":"上海师大科技产业园区","lon":"121.52179","lat":"30.8398","category":"45","category_name":"产业园区","address":""},{"poiid":"B2094757D66BA7FD499A","title":"三只熊韩国料理餐厅","lon":"121.52085","lat":"30.83465","category":"96","category_name":"韩国料理","address":"近郊奉贤区海思路100号上海师范大学金桂苑2楼"},{"poiid":"B2094757D06BA1F5449E","title":"上海师范大学大学生活动中心(奉贤校区)","lon":"121.516135146","lat":"30.8356749585","category":"249","category_name":"购物服务","address":"上海奉贤区海思路100号上海师范大学内"},{"poiid":"B2094757D068A0FA469E","title":"上海应用技术学院 九号楼","lon":"121.50982143","lat":"30.845769527","category":"500","category_name":"未知分类","address":"上海奉炮公路1255号"},{"poiid":"B2094757D16FA3F5489E","title":"萨拉咖啡","lon":"121.518999","lat":"30.841223","category":"65","category_name":"咖啡厅","address":"近郊奉贤区海湾路100号上师大图书馆3楼(近上海应用技术大学)"},{"poiid":"B2094750DA6EA7F54099","title":"Himo海魔咖啡小馆","lon":"121.523239","lat":"30.837608","category":"260","category_name":"其他","address":"近郊奉贤区海湾镇海阔路(近奉炮公路)"},{"poiid":"B2094757D164AAF8459B","title":"华联上师大校园生活中心","lon":"121.51747","lat":"30.84441","category":"260","category_name":"其他","address":"近郊奉贤奉炮公路553号上师大校园内"},{"poiid":"B2094757D66DA3F84698","title":"上海师范大学五教A座","lon":"121.52152102","lat":"30.838739123","category":"253","category_name":"校园生活","address":"上海市奉贤区海思路100号"},{"poiid":"B2094757D06FA2FA489D","title":"上海应用技术学院(奉贤校区)","lon":"121.5169754","lat":"30.845203399","category":"52","category_name":"高等院校","address":"近郊奉贤区奉炮公路1225号(奉炮公路海阔路)"},{"poiid":"B2094757D06FA2FE499F","title":"上海师范大学(奉贤校区)","lon":"121.52111","lat":"30.83437","category":"52","category_name":"高等院校","address":"上海近郊奉贤区海思路100号"},{"poiid":"B2094757D06FA5F54698","title":"上海师范大学(奉贤校区)图书馆","lon":"121.51958704","lat":"30.837477779","category":"181","category_name":"图书馆","address":"近郊奉贤区奉炮公路553号上海师范大学内(近海思路)"},{"poiid":"B2094757D068A7F44493","title":"上海师范大学(奉贤校区)学生宿舍区","lon":"121.511986339","lat":"30.8360213012","category":"253","category_name":"校园生活","address":"上海市奉贤区海思路500号"},{"poiid":"B2094757D06FAAF5479E","title":"上海应用技术学院图书馆","lon":"121.51285502","lat":"30.843731089","category":"253","category_name":"校园生活","address":"奉贤区奉炮公路1255号上海应用技术学院内"},{"poiid":"B2094757D06FA6FE4892","title":"上海师范大学三教(奉贤校区)","lon":"121.51912117","lat":"30.839838485","category":"253","category_name":"校园生活","address":"上海市奉贤区海思路100号"},{"poiid":"B2094757D068A4FD4099","title":"上海师范大学剧院(奉贤校区)","lon":"121.517351","lat":"30.838204","category":"179","category_name":"音乐厅","address":"上海奉贤区海思路100号上海师范大学内"},{"poiid":"B2094757D06FA0FF459E","title":"上海应用技术学院第二教学楼","lon":"121.50916697","lat":"30.84306324","category":"253","category_name":"校园生活","address":"上海市奉贤区奉炮公路1255号"},{"poiid":"B2094757D069A1FE459B","title":"上海旅游高等专科学校(奉贤校区)","lon":"121.513297187","lat":"30.837675898","category":"671","category_name":"高校中心点","address":"上海市奉贤区海思路500号"},{"poiid":"B2094757D16EAAFC499D","title":"上海师范大学奉贤校区月亮湖畔","lon":"121.51510547","lat":"30.838152913","category":"500","category_name":"未知分类","address":"上海海思路100号"},{"poiid":"B2094757D06BA2FF429D","title":"上师大第四教学楼","lon":"121.51810746","lat":"30.837016736","category":"253","category_name":"校园生活","address":"上海学海路"},{"poiid":"B2094757D068AAFB449E","title":"上海师范大学 男人村","lon":"121.51053689","lat":"30.8424930698","category":"500","category_name":"未知分类","address":"上海市奉贤区海思路100号西北角"},{"poiid":"B2094757D06AA2FB4192","title":"上师大剧院","lon":"121.51988811","lat":"30.839748446","category":"260","category_name":"其他","address":"上海奉炮公路"},{"poiid":"B2094757D068ABFB4692","title":"上海师范大学 第五教学楼","lon":"121.52171818","lat":"30.836788877","category":"500","category_name":"未知分类","address":"上海市奉贤区玉兰路"},{"poiid":"B2094757D06FA4FE459C","title":"上海师范大学四教（奉贤校区）","lon":"121.520858765","lat":"30.8346538544","category":"253","category_name":"校园生活","address":"上海师范大学（奉贤校区）内"},{"poiid":"B2094750D768A0F4469F","title":"香豪小镇农家乐","lon":"121.514","lat":"30.8498","category":"87","category_name":"特色／地方风味餐厅","address":"近郊奉贤区海湾旅游区金海公路8号"},{"poiid":"B2094655D36DA0FB449D","title":"应用技术学院","lon":"121.51636","lat":"30.84194","category":"38","category_name":"公交车站","address":""},{"poiid":"B2094655D36CA6F84092","title":"奉海","lon":"121.51505","lat":"30.84761","category":"38","category_name":"公交车站","address":""},{"poiid":"B2094757DA6EA7F5489B","title":"香豪小镇","lon":"121.516799999997","lat":"30.845361","category":"250","category_name":"公园户外","address":"近郊奉贤区海湾旅游区金海路8号(近奉柘公路)"},{"poiid":"B2094757D16AA4F8439A","title":"上海应用技术学院15号楼","lon":"121.51108388","lat":"30.847100618","category":"500","category_name":"未知分类","address":"上海奉贤区奉炮公路1255号"},{"poiid":"B2094757D66AA5F94092","title":"哈尔滨风味馆","lon":"121.518165054","lat":"30.842664793","category":"82","category_name":"东北菜","address":"近郊奉贤区奉炮路521号(近上师大东门)"},{"poiid":"B2094757D06AA1FE439B","title":"上海应用技术学院奉贤校区11号楼","lon":"121.51121503","lat":"30.845317276","category":"500","category_name":"未知分类","address":"上海近郊奉贤区奉炮公路1225号"},{"poiid":"B2094757D065A7F5419B","title":"上海应用技术学院第一学科楼","lon":"121.51524918","lat":"30.843878043","category":"500","category_name":"未知分类","address":"上海市奉炮公路1255号"},{"poiid":"B2094655D36CA6F84099","title":"奉海村","lon":"121.51379","lat":"30.84842","category":"38","category_name":"公交车站","address":""},{"poiid":"B2094757D569A2FF4298","title":"海尚墅林苑","lon":"121.514","lat":"30.8426","category":"47","category_name":"住宅区","address":"奉贤海泉路555号"},{"poiid":"B2094757D06AA6FE479E","title":"上海应用技术学院8号楼","lon":"121.510715187","lat":"30.8456920854","category":"500","category_name":"未知分类","address":"上海市奉贤区奉炮公路1255号"},{"poiid":"B2094757D069A6F84993","title":"上海应用技术学院第一食堂","lon":"121.51400618","lat":"30.843283029","category":"253","category_name":"校园生活","address":"上海奉贤区奉炮公路1255号上海应用技术学院内"},{"poiid":"B2094757D064A3F5489F","title":"上海应用技术学院 黑暗料理街","lon":"121.51732838","lat":"30.846046821","category":"500","category_name":"未知分类","address":"上海应用技术学院奉贤校区 奉炮公路"},{"poiid":"B2094757D16BA4FA4098","title":"上海师范大学实验楼","lon":"121.51953593","lat":"30.860388196","category":"500","category_name":"未知分类","address":"上海师范大学(奉贤校区)内"},{"poiid":"B2094757D068A6F8479C","title":"上海师范大学 玉兰苑（奉贤校区）","lon":"121.515324621","lat":"30.8436968791","category":"260","category_name":"其他","address":"上海市奉贤区海湾镇海思路100号"},{"poiid":"B2094757D06BA5FE429D","title":"上海应用技术学院 5号寝室楼","lon":"121.51261148","lat":"30.847558129","category":"500","category_name":"未知分类","address":"上海应用技术学院奉贤校区"},{"poiid":"B2094654DB68A4F4439C","title":"上海科勒有限公司","lon":"121.52818","lat":"30.84626","category":"263","category_name":"公司","address":""},{"poiid":"B2094757D16EA1FE459E","title":"上海应用技术学院东体育场","lon":"121.51251718","lat":"30.846269098","category":"500","category_name":"未知分类","address":"奉贤区奉炮公路1255号上海应用技术学院奉贤校区"},{"poiid":"B2094655D26EA1FB4892","title":"阿康烧烤 奉贤师大店","lon":"121.518312054","lat":"30.842222793","category":"87","category_name":"特色／地方风味餐厅","address":"近郊奉贤区奉炮路523号"},{"poiid":"B2094757D068A2FC409E","title":"上海师范大学 二教","lon":"121.520813","lat":"30.834614","category":"253","category_name":"校园生活","address":"上海市奉贤区海思路100号上海师范大学二号教学楼"},{"poiid":"B2094757D06BABFC4498","title":"上海师范大学图书馆六楼","lon":"121.51947718","lat":"30.838492917","category":"181","category_name":"图书馆","address":"上海市奉贤区海思路"},{"poiid":"B2094655D36CA7FB409B","title":"海湾加油站","lon":"121.52099","lat":"30.84061","category":"38","category_name":"公交车站","address":""},{"poiid":"B2094757D16BA5FD4798","title":"上海市应用技术学院11号楼女生浴室","lon":"121.51117943","lat":"30.845935831","category":"500","category_name":"未知分类","address":"上海应用技术学院"},{"poiid":"B2094757D16CA7F94498","title":"0528","lon":"121.516694446","lat":"30.8441675377","category":"500","category_name":"未知分类","address":null},{"poiid":"B2094757D168A5FE409D","title":"上师大校医院(奉贤校区)","lon":"121.52029573","lat":"30.838450628","category":"162","category_name":"医院","address":"上海市奉贤区海思路100号上海师范大学内"},{"poiid":"B2094757D16DA4FB419C","title":"上海应用技术学院13号寝室楼1524室","lon":"121.515537","lat":"30.843773","category":"500","category_name":"未知分类","address":"上海奉炮公路1225号"},{"poiid":"B2094757D16EABFC4793","title":"奉贤校区6号楼","lon":"121.511143987","lat":"30.8469703153","category":"500","category_name":"未知分类","address":"上海应用技术学院"},{"poiid":"B2094654DB68A4F5449A","title":"上海师大科技产业园区","lon":"121.52179","lat":"30.8398","category":"45","category_name":"产业园区","address":""},{"poiid":"B2094757D66BA7FD499A","title":"三只熊韩国料理餐厅","lon":"121.52085","lat":"30.83465","category":"96","category_name":"韩国料理","address":"近郊奉贤区海思路100号上海师范大学金桂苑2楼"},{"poiid":"B2094757D06BA1F5449E","title":"上海师范大学大学生活动中心(奉贤校区)","lon":"121.516135146","lat":"30.8356749585","category":"249","category_name":"购物服务","address":"上海奉贤区海思路100号上海师范大学内"},{"poiid":"B2094757D068A0FA469E","title":"上海应用技术学院 九号楼","lon":"121.50982143","lat":"30.845769527","category":"500","category_name":"未知分类","address":"上海奉炮公路1255号"},{"poiid":"B2094757D16FA3F5489E","title":"萨拉咖啡","lon":"121.518999","lat":"30.841223","category":"65","category_name":"咖啡厅","address":"近郊奉贤区海湾路100号上师大图书馆3楼(近上海应用技术大学)"},{"poiid":"B2094750DA6EA7F54099","title":"Himo海魔咖啡小馆","lon":"121.523239","lat":"30.837608","category":"260","category_name":"其他","address":"近郊奉贤区海湾镇海阔路(近奉炮公路)"},{"poiid":"B2094757D164AAF8459B","title":"华联上师大校园生活中心","lon":"121.51747","lat":"30.84441","category":"260","category_name":"其他","address":"近郊奉贤奉炮公路553号上师大校园内"},{"poiid":"B2094757D66DA3F84698","title":"上海师范大学五教A座","lon":"121.52152102","lat":"30.838739123","category":"253","category_name":"校园生活","address":"上海市奉贤区海思路100号"},{"poiid":"B2094757D06FA2FA489D","title":"上海应用技术学院(奉贤校区)","lon":"121.5169754","lat":"30.845203399","category":"52","category_name":"高等院校","address":"近郊奉贤区奉炮公路1225号(奉炮公路海阔路)"},{"poiid":"B2094757D06FA2FE499F","title":"上海师范大学(奉贤校区)","lon":"121.52111","lat":"30.83437","category":"52","category_name":"高等院校","address":"上海近郊奉贤区海思路100号"},{"poiid":"B2094757D06FA5F54698","title":"上海师范大学(奉贤校区)图书馆","lon":"121.51958704","lat":"30.837477779","category":"181","category_name":"图书馆","address":"近郊奉贤区奉炮公路553号上海师范大学内(近海思路)"},{"poiid":"B2094757D068A7F44493","title":"上海师范大学(奉贤校区)学生宿舍区","lon":"121.511986339","lat":"30.8360213012","category":"253","category_name":"校园生活","address":"上海市奉贤区海思路500号"},{"poiid":"B2094757D06FAAF5479E","title":"上海应用技术学院图书馆","lon":"121.51285502","lat":"30.843731089","category":"253","category_name":"校园生活","address":"奉贤区奉炮公路1255号上海应用技术学院内"},{"poiid":"B2094757D06FA6FE4892","title":"上海师范大学三教(奉贤校区)","lon":"121.51912117","lat":"30.839838485","category":"253","category_name":"校园生活","address":"上海市奉贤区海思路100号"},{"poiid":"B2094757D068A4FD4099","title":"上海师范大学剧院(奉贤校区)","lon":"121.517351","lat":"30.838204","category":"179","category_name":"音乐厅","address":"上海奉贤区海思路100号上海师范大学内"},{"poiid":"B2094757D06FA0FF459E","title":"上海应用技术学院第二教学楼","lon":"121.50916697","lat":"30.84306324","category":"253","category_name":"校园生活","address":"上海市奉贤区奉炮公路1255号"},{"poiid":"B2094757D069A1FE459B","title":"上海旅游高等专科学校(奉贤校区)","lon":"121.513297187","lat":"30.837675898","category":"671","category_name":"高校中心点","address":"上海市奉贤区海思路500号"},{"poiid":"B2094757D16EAAFC499D","title":"上海师范大学奉贤校区月亮湖畔","lon":"121.51510547","lat":"30.838152913","category":"500","category_name":"未知分类","address":"上海海思路100号"},{"poiid":"B2094757D06BA2FF429D","title":"上师大第四教学楼","lon":"121.51810746","lat":"30.837016736","category":"253","category_name":"校园生活","address":"上海学海路"},{"poiid":"B2094757D068AAFB449E","title":"上海师范大学 男人村","lon":"121.51053689","lat":"30.8424930698","category":"500","category_name":"未知分类","address":"上海市奉贤区海思路100号西北角"},{"poiid":"B2094757D06AA2FB4192","title":"上师大剧院","lon":"121.51988811","lat":"30.839748446","category":"260","category_name":"其他","address":"上海奉炮公路"},{"poiid":"B2094757D068ABFB4692","title":"上海师范大学 第五教学楼","lon":"121.52171818","lat":"30.836788877","category":"500","category_name":"未知分类","address":"上海市奉贤区玉兰路"},{"poiid":"B2094757D06FA4FE459C","title":"上海师范大学四教（奉贤校区）","lon":"121.520858765","lat":"30.8346538544","category":"253","category_name":"校园生活","address":"上海师范大学（奉贤校区）内"},{"poiid":"B2094750D768A0F4469F","title":"香豪小镇农家乐","lon":"121.514","lat":"30.8498","category":"87","category_name":"特色／地方风味餐厅","address":"近郊奉贤区海湾旅游区金海公路8号"},{"poiid":"B2094655D36DA0FB449D","title":"应用技术学院","lon":"121.51636","lat":"30.84194","category":"38","category_name":"公交车站","address":""},{"poiid":"B2094655D36CA6F84092","title":"奉海","lon":"121.51505","lat":"30.84761","category":"38","category_name":"公交车站","address":""},{"poiid":"B2094757DA6EA7F5489B","title":"香豪小镇","lon":"121.516799999997","lat":"30.845361","category":"250","category_name":"公园户外","address":"近郊奉贤区海湾旅游区金海路8号(近奉柘公路)"},{"poiid":"B2094757D16AA4F8439A","title":"上海应用技术学院15号楼","lon":"121.51108388","lat":"30.847100618","category":"500","category_name":"未知分类","address":"上海奉贤区奉炮公路1255号"},{"poiid":"B2094757D66AA5F94092","title":"哈尔滨风味馆","lon":"121.518165054","lat":"30.842664793","category":"82","category_name":"东北菜","address":"近郊奉贤区奉炮路521号(近上师大东门)"},{"poiid":"B2094757D06AA1FE439B","title":"上海应用技术学院奉贤校区11号楼","lon":"121.51121503","lat":"30.845317276","category":"500","category_name":"未知分类","address":"上海近郊奉贤区奉炮公路1225号"},{"poiid":"B2094757D065A7F5419B","title":"上海应用技术学院第一学科楼","lon":"121.51524918","lat":"30.843878043","category":"500","category_name":"未知分类","address":"上海市奉炮公路1255号"},{"poiid":"B2094655D36CA6F84099","title":"奉海村","lon":"121.51379","lat":"30.84842","category":"38","category_name":"公交车站","address":""},{"poiid":"B2094757D569A2FF4298","title":"海尚墅林苑","lon":"121.514","lat":"30.8426","category":"47","category_name":"住宅区","address":"奉贤海泉路555号"},{"poiid":"B2094757D06AA6FE479E","title":"上海应用技术学院8号楼","lon":"121.510715187","lat":"30.8456920854","category":"500","category_name":"未知分类","address":"上海市奉贤区奉炮公路1255号"},{"poiid":"B2094757D069A6F84993","title":"上海应用技术学院第一食堂","lon":"121.51400618","lat":"30.843283029","category":"253","category_name":"校园生活","address":"上海奉贤区奉炮公路1255号上海应用技术学院内"},{"poiid":"B2094757D064A3F5489F","title":"上海应用技术学院 黑暗料理街","lon":"121.51732838","lat":"30.846046821","category":"500","category_name":"未知分类","address":"上海应用技术学院奉贤校区 奉炮公路"},{"poiid":"B2094757D16BA4FA4098","title":"上海师范大学实验楼","lon":"121.51953593","lat":"30.860388196","category":"500","category_name":"未知分类","address":"上海师范大学(奉贤校区)内"},{"poiid":"B2094757D068A6F8479C","title":"上海师范大学 玉兰苑（奉贤校区）","lon":"121.515324621","lat":"30.8436968791","category":"260","category_name":"其他","address":"上海市奉贤区海湾镇海思路100号"},{"poiid":"B2094757D06BA5FE429D","title":"上海应用技术学院 5号寝室楼","lon":"121.51261148","lat":"30.847558129","category":"500","category_name":"未知分类","address":"上海应用技术学院奉贤校区"},{"poiid":"B2094654DB68A4F4439C","title":"上海科勒有限公司","lon":"121.52818","lat":"30.84626","category":"263","category_name":"公司","address":""},{"poiid":"B2094757D16EA1FE459E","title":"上海应用技术学院东体育场","lon":"121.51251718","lat":"30.846269098","category":"500","category_name":"未知分类","address":"奉贤区奉炮公路1255号上海应用技术学院奉贤校区"},{"poiid":"B2094655D26EA1FB4892","title":"阿康烧烤 奉贤师大店","lon":"121.518312054","lat":"30.842222793","category":"87","category_name":"特色／地方风味餐厅","address":"近郊奉贤区奉炮路523号"},{"poiid":"B2094757D068A2FC409E","title":"上海师范大学 二教","lon":"121.520813","lat":"30.834614","category":"253","category_name":"校园生活","address":"上海市奉贤区海思路100号上海师范大学二号教学楼"},{"poiid":"B2094757D06BABFC4498","title":"上海师范大学图书馆六楼","lon":"121.51947718","lat":"30.838492917","category":"181","category_name":"图书馆","address":"上海市奉贤区海思路"},{"poiid":"B2094655D36CA7FB409B","title":"海湾加油站","lon":"121.52099","lat":"30.84061","category":"38","category_name":"公交车站","address":""},{"poiid":"B2094757D16BA5FD4798","title":"上海市应用技术学院11号楼女生浴室","lon":"121.51117943","lat":"30.845935831","category":"500","category_name":"未知分类","address":"上海应用技术学院"},{"poiid":"B2094757D16CA7F94498","title":"0528","lon":"121.516694446","lat":"30.8441675377","category":"500","category_name":"未知分类","address":null},{"poiid":"B2094757D168A5FE409D","title":"上师大校医院(奉贤校区)","lon":"121.52029573","lat":"30.838450628","category":"162","category_name":"医院","address":"上海市奉贤区海思路100号上海师范大学内"},{"poiid":"B2094757D16DA4FB419C","title":"上海应用技术学院13号寝室楼1524室","lon":"121.515537","lat":"30.843773","category":"500","category_name":"未知分类","address":"上海奉炮公路1225号"},{"poiid":"B2094757D16EABFC4793","title":"奉贤校区6号楼","lon":"121.511143987","lat":"30.8469703153","category":"500","category_name":"未知分类","address":"上海应用技术学院"},{"poiid":"B2094654DB68A4F5449A","title":"上海师大科技产业园区","lon":"121.52179","lat":"30.8398","category":"45","category_name":"产业园区","address":""},{"poiid":"B2094757D66BA7FD499A","title":"三只熊韩国料理餐厅","lon":"121.52085","lat":"30.83465","category":"96","category_name":"韩国料理","address":"近郊奉贤区海思路100号上海师范大学金桂苑2楼"},{"poiid":"B2094757D06BA1F5449E","title":"上海师范大学大学生活动中心(奉贤校区)","lon":"121.516135146","lat":"30.8356749585","category":"249","category_name":"购物服务","address":"上海奉贤区海思路100号上海师范大学内"},{"poiid":"B2094757D068A0FA469E","title":"上海应用技术学院 九号楼","lon":"121.50982143","lat":"30.845769527","category":"500","category_name":"未知分类","address":"上海奉炮公路1255号"},{"poiid":"B2094757D16FA3F5489E","title":"萨拉咖啡","lon":"121.518999","lat":"30.841223","category":"65","category_name":"咖啡厅","address":"近郊奉贤区海湾路100号上师大图书馆3楼(近上海应用技术大学)"},{"poiid":"B2094750DA6EA7F54099","title":"Himo海魔咖啡小馆","lon":"121.523239","lat":"30.837608","category":"260","category_name":"其他","address":"近郊奉贤区海湾镇海阔路(近奉炮公路)"},{"poiid":"B2094757D164AAF8459B","title":"华联上师大校园生活中心","lon":"121.51747","lat":"30.84441","category":"260","category_name":"其他","address":"近郊奉贤奉炮公路553号上师大校园内"},{"poiid":"B2094757D66DA3F84698","title":"上海师范大学五教A座","lon":"121.52152102","lat":"30.838739123","category":"253","category_name":"校园生活","address":"上海市奉贤区海思路100号"}]