[{"poiid":"B2094654DB6CA2FC4992","title":"大华医院","lon":"121.43475","lat":"31.13261","category":"162","category_name":"医院","address":"徐汇区老沪闵路901号(老沪闵路罗秀路)"},{"poiid":"B2094757D06FA3F94998","title":"西南影城","lon":"121.43652828","lat":"31.1343817279","category":"178","category_name":"电影院","address":"上海市徐汇区(长桥)罗香路237号(龙临路口)"},{"poiid":"B2094757D06FA6FF489A","title":"肯德基 KFC (罗香店)","lon":"121.436192","lat":"31.134534","category":"68","category_name":"快餐厅","address":"徐汇区龙临路157号(罗香路口)"},{"poiid":"B2094757D068A0FB449A","title":"老沪闵路罗秀路","lon":"121.435804","lat":"31.132418","category":"500","category_name":"未知分类","address":"上海老沪闵路罗秀路"},{"poiid":"B2094757D065ABF4479E","title":"老沪闵路 朱梅路","lon":"121.436587","lat":"31.122507","category":"500","category_name":"未知分类","address":"上海老沪闵路,朱梅路"},{"poiid":"B2094654DB6CA2FC489E","title":"和平小区(罗秀路)","lon":"121.43076","lat":"31.13226","category":"47","category_name":"住宅区","address":"上海徐汇区罗秀路930弄(近天等路)"},{"poiid":"B2094654DB6CA2FF4099","title":"老北京涮肉馆(罗秀路)","lon":"121.43386","lat":"31.13128","category":"86","category_name":"火锅店","address":"罗秀路847-849"},{"poiid":"B2094757D06FA2FB429E","title":"兴荣苑","lon":"121.43176","lat":"31.130054","category":"47","category_name":"住宅区","address":"上海市徐汇区罗秀路955弄"},{"poiid":"B2094757D16FA2FD4998","title":"舒乐小区","lon":"121.43507","lat":"31.130444","category":"47","category_name":"住宅区","address":"上海老沪闵路1039弄"},{"poiid":"B2094757D06FABFF419B","title":"长桥四村","lon":"121.4391986","lat":"31.133580784","category":"252","category_name":"楼宇机构","address":"上海徐汇区 长桥路 龙临路 罗秀路 罗香路"},{"poiid":"B2094757D069A3F8409F","title":"振鼎鸡(罗秀路店)","lon":"121.43531899","lat":"31.130709827","category":"68","category_name":"快餐厅","address":"徐汇区罗秀路776号(近老沪闵路)"},{"poiid":"B2094757D068A5F5409A","title":"文章酒楼(罗香路店)","lon":"121.435329185","lat":"31.134500201","category":"76","category_name":"上海菜","address":"上海徐汇区罗香路240号(近龙临路)"},{"poiid":"B2094757D069A6FC4299","title":"依依食府","lon":"121.433845","lat":"31.131212","category":"76","category_name":"上海菜","address":"徐汇区罗秀路853号(老沪闵路口)"},{"poiid":"B2094757D469A5F9479D","title":"兄弟连特色海鲜烧烤","lon":"121.43312","lat":"31.13133","category":"68","category_name":"快餐厅","address":"徐汇区罗秀路875号(近老沪闵路)"},{"poiid":"B2094757D069A1FF4492","title":"罗秀路","lon":"121.436782","lat":"31.1317771","category":"47","category_name":"住宅区","address":"上海徐汇区罗秀路"},{"poiid":"B2094757D06AA2F44592","title":"普乐三村","lon":"121.432746","lat":"31.123842","category":"252","category_name":"楼宇机构","address":"上海虹梅南路1555弄"},{"poiid":"B2094757D069AAFB4992","title":"杨甲烧烤(罗秀路店)","lon":"121.43396","lat":"31.13099","category":"68","category_name":"快餐厅","address":"徐汇区罗秀路859号(近天等路)"},{"poiid":"B2094757D069A0FA4599","title":"徐汇区文化馆(西南文化艺术中心)","lon":"121.43701","lat":"31.13401","category":"179","category_name":"音乐厅","address":"徐汇区罗香路237号(龙临路)"},{"poiid":"B2094654DB6CA2FF4498","title":"长桥八村","lon":"121.43988","lat":"31.130894","category":"47","category_name":"住宅区","address":"上海罗秀路龙临路"},{"poiid":"B2094757D569A1F5479B","title":"都市宜家苑","lon":"121.43343833128","lat":"31.120746833073","category":"47","category_name":"住宅区","address":"上海市闵行区虹梅南路1661弄"},{"poiid":"B2094757D66AA5FD489D","title":"新招鲜本地鸡窝 罗秀店","lon":"121.435343","lat":"31.13159","category":"86","category_name":"火锅店","address":"徐汇区罗秀路776号(老沪闵路口)"},{"poiid":"B2094654DB6CA2F5429F","title":"山鹰码头","lon":"121.43395","lat":"31.12703","category":"34","category_name":"港口码头","address":"莘朱东路118号"},{"poiid":"B2094654DB6CA2FD4193","title":"家乐苑","lon":"121.43154","lat":"31.135004","category":"47","category_name":"住宅区","address":"上海上中西路55弄"},{"poiid":"B2094757D069A4F44999","title":"新招鲜罗秀路店","lon":"121.434994857","lat":"31.1303269694","category":"500","category_name":"未知分类","address":"上海罗秀路老沪闵路"},{"poiid":"B2094757D06AABFF4592","title":"天雅村酒店(梅陇店)","lon":"121.426893","lat":"31.13003","category":"76","category_name":"上海菜","address":"徐汇区罗秀路1111号(龙州路罗秀路)"},{"poiid":"B2094757D06BAAFF489C","title":"舒城苑","lon":"121.43513","lat":"31.12995","category":"252","category_name":"楼宇机构","address":"上海市徐汇区罗秀路725号"},{"poiid":"B2094654DB6CA2FE429E","title":"天秀苑","lon":"121.43015","lat":"31.130064","category":"47","category_name":"住宅区","address":"上海市徐汇区罗秀路985弄"},{"poiid":"B2094654DB6CA2FA409C","title":"光明乳业长桥配送站","lon":"121.43714","lat":"31.12733","category":"117","category_name":"便民商店/便利店","address":""},{"poiid":"B2094654DB6CA2FF4199","title":"舒乐公寓","lon":"121.43489","lat":"31.131275","category":"47","category_name":"住宅区","address":"罗秀路717弄1-3号"},{"poiid":"B2094757D164A7F94892","title":"顶顶烧烤","lon":"121.43417785","lat":"31.131133985","category":"247","category_name":"餐饮美食","address":"徐汇区罗绣路843号(近老沪闵路)"},{"poiid":"B2094757D665A3FD429F","title":"重庆露露","lon":"121.43488528117","lat":"31.131643842075","category":"71","category_name":"四川菜","address":"闵行区老沪闵路919号(近罗秀路)"},{"poiid":"B2094654DB6CA2FF439D","title":"上海市长桥中学","lon":"121.43844","lat":"31.1303","category":"55","category_name":"中学","address":"徐汇区罗秀路400号(长华路罗秀路)"},{"poiid":"B2094655D265A7F54393","title":"徐汇凌云开业园区","lon":"121.43476","lat":"31.12983","category":"45","category_name":"产业园区","address":"老沪闵路1055弄38"},{"poiid":"B2094654DB6CA2F5429C","title":"上海电力建设物资公司码头","lon":"121.43209","lat":"31.1264","category":"34","category_name":"港口码头","address":""},{"poiid":"B2094757D16DABFE419F","title":"兄弟连烧烤","lon":"121.43465885","lat":"31.129588954","category":"247","category_name":"餐饮美食","address":"上海罗秀路菜场近老沪闵路"},{"poiid":"B2094655D36CA5F4469B","title":"北杨村","lon":"121.43744","lat":"31.12524","category":"38","category_name":"公交车站","address":""},{"poiid":"B2094655D26DA7F5419E","title":"长桥八村(北门)","lon":"121.44001","lat":"31.13194","category":"47","category_name":"住宅区","address":""},{"poiid":"B2094757D66EA1FC4299","title":"德利厨房","lon":"121.43557685","lat":"31.128235179","category":"249","category_name":"购物服务","address":"上海漕溪路"},{"poiid":"B2094757D16EA6FD429D","title":"致康儿童康健园","lon":"121.435789457","lat":"31.1331743265","category":"162","category_name":"医院","address":"徐汇区罗秀路长桥八村25号"},{"poiid":"B2094757D469A7FB4999","title":"清真精品牛肉面王","lon":"121.431247","lat":"31.131154","category":"90","category_name":"清真餐馆","address":"徐汇区罗秀路908号(近天等路)"},{"poiid":"B2094654DB6CA2F5419F","title":"上海送变电工程公司","lon":"121.43354","lat":"31.12718","category":"263","category_name":"公司","address":"莘朱东路150"},{"poiid":"B2094757D064A6FF489B","title":"上海澳联玻璃有限公司","lon":"121.430289","lat":"31.126195","category":"46","category_name":"楼宇","address":"上海闵行区莘朱东路335号"},{"poiid":"B2094655D26FA7FF499D","title":"舒乐小区(东门)","lon":"121.43579","lat":"31.13069","category":"47","category_name":"住宅区","address":"老沪闵路1039弄1-66号"},{"poiid":"B2094757D66DA2F8499E","title":"鼋头渚","lon":"121.435426257","lat":"31.130255268","category":"500","category_name":"未知分类","address":"江苏省无锡市鼋头渚风景区"},{"poiid":"B2094655D26DA7F5449F","title":"大华医院(东门)","lon":"121.43522","lat":"31.13296","category":"162","category_name":"医院","address":"老沪闵路901-903号"},{"poiid":"B2094654DB6CA2FF4398","title":"星秀苑","lon":"121.43657","lat":"31.132544","category":"47","category_name":"住宅区","address":"上海市徐汇区龙临路145号"},{"poiid":"B2094654DB6CA2FF409C","title":"舒乐小区(北大门)","lon":"121.43415","lat":"31.13111","category":"47","category_name":"住宅区","address":"老沪闵路1039弄"},{"poiid":"B2094757D465A3FF4493","title":"兴旺小海鲜","lon":"121.434702054","lat":"31.131561793","category":"260","category_name":"其他","address":"徐汇区罗秀路867-869号(近老沪闵路)"},{"poiid":"B2094655D26EAAFC469E","title":"百煲楼","lon":"121.43395","lat":"31.13157","category":"46","category_name":"楼宇","address":"徐汇区罗秀路776号"},{"poiid":"B2094655D26AA1F54092","title":"枫叶速8酒店南站店","lon":"121.43746","lat":"31.13522","category":"247","category_name":"餐饮美食","address":"上海市徐汇区罗香路174号（位于长桥地区，近龙临路））"},{"poiid":"B2094654DB6CA2FC4992","title":"大华医院","lon":"121.43475","lat":"31.13261","category":"162","category_name":"医院","address":"徐汇区老沪闵路901号(老沪闵路罗秀路)"},{"poiid":"B2094757D06FA3F94998","title":"西南影城","lon":"121.43652828","lat":"31.1343817279","category":"178","category_name":"电影院","address":"上海市徐汇区(长桥)罗香路237号(龙临路口)"},{"poiid":"B2094757D06FA6FF489A","title":"肯德基 KFC (罗香店)","lon":"121.436192","lat":"31.134534","category":"68","category_name":"快餐厅","address":"徐汇区龙临路157号(罗香路口)"},{"poiid":"B2094757D068A0FB449A","title":"老沪闵路罗秀路","lon":"121.435804","lat":"31.132418","category":"500","category_name":"未知分类","address":"上海老沪闵路罗秀路"},{"poiid":"B2094757D065ABF4479E","title":"老沪闵路 朱梅路","lon":"121.436587","lat":"31.122507","category":"500","category_name":"未知分类","address":"上海老沪闵路,朱梅路"},{"poiid":"B2094654DB6CA2FC489E","title":"和平小区(罗秀路)","lon":"121.43076","lat":"31.13226","category":"47","category_name":"住宅区","address":"上海徐汇区罗秀路930弄(近天等路)"},{"poiid":"B2094654DB6CA2FF4099","title":"老北京涮肉馆(罗秀路)","lon":"121.43386","lat":"31.13128","category":"86","category_name":"火锅店","address":"罗秀路847-849"},{"poiid":"B2094757D06FA2FB429E","title":"兴荣苑","lon":"121.43176","lat":"31.130054","category":"47","category_name":"住宅区","address":"上海市徐汇区罗秀路955弄"},{"poiid":"B2094757D16FA2FD4998","title":"舒乐小区","lon":"121.43507","lat":"31.130444","category":"47","category_name":"住宅区","address":"上海老沪闵路1039弄"},{"poiid":"B2094757D06FABFF419B","title":"长桥四村","lon":"121.4391986","lat":"31.133580784","category":"252","category_name":"楼宇机构","address":"上海徐汇区 长桥路 龙临路 罗秀路 罗香路"},{"poiid":"B2094757D069A3F8409F","title":"振鼎鸡(罗秀路店)","lon":"121.43531899","lat":"31.130709827","category":"68","category_name":"快餐厅","address":"徐汇区罗秀路776号(近老沪闵路)"},{"poiid":"B2094757D068A5F5409A","title":"文章酒楼(罗香路店)","lon":"121.435329185","lat":"31.134500201","category":"76","category_name":"上海菜","address":"上海徐汇区罗香路240号(近龙临路)"},{"poiid":"B2094757D069A6FC4299","title":"依依食府","lon":"121.433845","lat":"31.131212","category":"76","category_name":"上海菜","address":"徐汇区罗秀路853号(老沪闵路口)"},{"poiid":"B2094757D469A5F9479D","title":"兄弟连特色海鲜烧烤","lon":"121.43312","lat":"31.13133","category":"68","category_name":"快餐厅","address":"徐汇区罗秀路875号(近老沪闵路)"},{"poiid":"B2094757D069A1FF4492","title":"罗秀路","lon":"121.436782","lat":"31.1317771","category":"47","category_name":"住宅区","address":"上海徐汇区罗秀路"},{"poiid":"B2094757D06AA2F44592","title":"普乐三村","lon":"121.432746","lat":"31.123842","category":"252","category_name":"楼宇机构","address":"上海虹梅南路1555弄"},{"poiid":"B2094757D069AAFB4992","title":"杨甲烧烤(罗秀路店)","lon":"121.43396","lat":"31.13099","category":"68","category_name":"快餐厅","address":"徐汇区罗秀路859号(近天等路)"},{"poiid":"B2094757D069A0FA4599","title":"徐汇区文化馆(西南文化艺术中心)","lon":"121.43701","lat":"31.13401","category":"179","category_name":"音乐厅","address":"徐汇区罗香路237号(龙临路)"},{"poiid":"B2094654DB6CA2FF4498","title":"长桥八村","lon":"121.43988","lat":"31.130894","category":"47","category_name":"住宅区","address":"上海罗秀路龙临路"},{"poiid":"B2094757D569A1F5479B","title":"都市宜家苑","lon":"121.43343833128","lat":"31.120746833073","category":"47","category_name":"住宅区","address":"上海市闵行区虹梅南路1661弄"},{"poiid":"B2094757D66AA5FD489D","title":"新招鲜本地鸡窝 罗秀店","lon":"121.435343","lat":"31.13159","category":"86","category_name":"火锅店","address":"徐汇区罗秀路776号(老沪闵路口)"},{"poiid":"B2094654DB6CA2F5429F","title":"山鹰码头","lon":"121.43395","lat":"31.12703","category":"34","category_name":"港口码头","address":"莘朱东路118号"},{"poiid":"B2094654DB6CA2FD4193","title":"家乐苑","lon":"121.43154","lat":"31.135004","category":"47","category_name":"住宅区","address":"上海上中西路55弄"},{"poiid":"B2094757D069A4F44999","title":"新招鲜罗秀路店","lon":"121.434994857","lat":"31.1303269694","category":"500","category_name":"未知分类","address":"上海罗秀路老沪闵路"},{"poiid":"B2094757D06AABFF4592","title":"天雅村酒店(梅陇店)","lon":"121.426893","lat":"31.13003","category":"76","category_name":"上海菜","address":"徐汇区罗秀路1111号(龙州路罗秀路)"},{"poiid":"B2094757D06BAAFF489C","title":"舒城苑","lon":"121.43513","lat":"31.12995","category":"252","category_name":"楼宇机构","address":"上海市徐汇区罗秀路725号"},{"poiid":"B2094654DB6CA2FE429E","title":"天秀苑","lon":"121.43015","lat":"31.130064","category":"47","category_name":"住宅区","address":"上海市徐汇区罗秀路985弄"},{"poiid":"B2094654DB6CA2FA409C","title":"光明乳业长桥配送站","lon":"121.43714","lat":"31.12733","category":"117","category_name":"便民商店/便利店","address":""},{"poiid":"B2094654DB6CA2FF4199","title":"舒乐公寓","lon":"121.43489","lat":"31.131275","category":"47","category_name":"住宅区","address":"罗秀路717弄1-3号"},{"poiid":"B2094757D164A7F94892","title":"顶顶烧烤","lon":"121.43417785","lat":"31.131133985","category":"247","category_name":"餐饮美食","address":"徐汇区罗绣路843号(近老沪闵路)"},{"poiid":"B2094757D665A3FD429F","title":"重庆露露","lon":"121.43488528117","lat":"31.131643842075","category":"71","category_name":"四川菜","address":"闵行区老沪闵路919号(近罗秀路)"},{"poiid":"B2094654DB6CA2FF439D","title":"上海市长桥中学","lon":"121.43844","lat":"31.1303","category":"55","category_name":"中学","address":"徐汇区罗秀路400号(长华路罗秀路)"},{"poiid":"B2094655D265A7F54393","title":"徐汇凌云开业园区","lon":"121.43476","lat":"31.12983","category":"45","category_name":"产业园区","address":"老沪闵路1055弄38"},{"poiid":"B2094654DB6CA2F5429C","title":"上海电力建设物资公司码头","lon":"121.43209","lat":"31.1264","category":"34","category_name":"港口码头","address":""},{"poiid":"B2094757D16DABFE419F","title":"兄弟连烧烤","lon":"121.43465885","lat":"31.129588954","category":"247","category_name":"餐饮美食","address":"上海罗秀路菜场近老沪闵路"},{"poiid":"B2094655D36CA5F4469B","title":"北杨村","lon":"121.43744","lat":"31.12524","category":"38","category_name":"公交车站","address":""},{"poiid":"B2094655D26DA7F5419E","title":"长桥八村(北门)","lon":"121.44001","lat":"31.13194","category":"47","category_name":"住宅区","address":""},{"poiid":"B2094757D66EA1FC4299","title":"德利厨房","lon":"121.43557685","lat":"31.128235179","category":"249","category_name":"购物服务","address":"上海漕溪路"},{"poiid":"B2094757D16EA6FD429D","title":"致康儿童康健园","lon":"121.435789457","lat":"31.1331743265","category":"162","category_name":"医院","address":"徐汇区罗秀路长桥八村25号"},{"poiid":"B2094757D469A7FB4999","title":"清真精品牛肉面王","lon":"121.431247","lat":"31.131154","category":"90","category_name":"清真餐馆","address":"徐汇区罗秀路908号(近天等路)"},{"poiid":"B2094654DB6CA2F5419F","title":"上海送变电工程公司","lon":"121.43354","lat":"31.12718","category":"263","category_name":"公司","address":"莘朱东路150"},{"poiid":"B2094757D064A6FF489B","title":"上海澳联玻璃有限公司","lon":"121.430289","lat":"31.126195","category":"46","category_name":"楼宇","address":"上海闵行区莘朱东路335号"},{"poiid":"B2094655D26FA7FF499D","title":"舒乐小区(东门)","lon":"121.43579","lat":"31.13069","category":"47","category_name":"住宅区","address":"老沪闵路1039弄1-66号"},{"poiid":"B2094757D66DA2F8499E","title":"鼋头渚","lon":"121.435426257","lat":"31.130255268","category":"500","category_name":"未知分类","address":"江苏省无锡市鼋头渚风景区"},{"poiid":"B2094655D26DA7F5449F","title":"大华医院(东门)","lon":"121.43522","lat":"31.13296","category":"162","category_name":"医院","address":"老沪闵路901-903号"},{"poiid":"B2094654DB6CA2FF4398","title":"星秀苑","lon":"121.43657","lat":"31.132544","category":"47","category_name":"住宅区","address":"上海市徐汇区龙临路145号"},{"poiid":"B2094654DB6CA2FF409C","title":"舒乐小区(北大门)","lon":"121.43415","lat":"31.13111","category":"47","category_name":"住宅区","address":"老沪闵路1039弄"},{"poiid":"B2094757D465A3FF4493","title":"兴旺小海鲜","lon":"121.434702054","lat":"31.131561793","category":"260","category_name":"其他","address":"徐汇区罗秀路867-869号(近老沪闵路)"},{"poiid":"B2094655D26EAAFC469E","title":"百煲楼","lon":"121.43395","lat":"31.13157","category":"46","category_name":"楼宇","address":"徐汇区罗秀路776号"},{"poiid":"B2094655D26AA1F54092","title":"枫叶速8酒店南站店","lon":"121.43746","lat":"31.13522","category":"247","category_name":"餐饮美食","address":"上海市徐汇区罗香路174号（位于长桥地区，近龙临路））"},{"poiid":"B2094654DB6CA2FC4992","title":"大华医院","lon":"121.43475","lat":"31.13261","category":"162","category_name":"医院","address":"徐汇区老沪闵路901号(老沪闵路罗秀路)"},{"poiid":"B2094757D06FA3F94998","title":"西南影城","lon":"121.43652828","lat":"31.1343817279","category":"178","category_name":"电影院","address":"上海市徐汇区(长桥)罗香路237号(龙临路口)"},{"poiid":"B2094757D06FA6FF489A","title":"肯德基 KFC (罗香店)","lon":"121.436192","lat":"31.134534","category":"68","category_name":"快餐厅","address":"徐汇区龙临路157号(罗香路口)"},{"poiid":"B2094757D068A0FB449A","title":"老沪闵路罗秀路","lon":"121.435804","lat":"31.132418","category":"500","category_name":"未知分类","address":"上海老沪闵路罗秀路"},{"poiid":"B2094757D065ABF4479E","title":"老沪闵路 朱梅路","lon":"121.436587","lat":"31.122507","category":"500","category_name":"未知分类","address":"上海老沪闵路,朱梅路"},{"poiid":"B2094654DB6CA2FC489E","title":"和平小区(罗秀路)","lon":"121.43076","lat":"31.13226","category":"47","category_name":"住宅区","address":"上海徐汇区罗秀路930弄(近天等路)"},{"poiid":"B2094654DB6CA2FF4099","title":"老北京涮肉馆(罗秀路)","lon":"121.43386","lat":"31.13128","category":"86","category_name":"火锅店","address":"罗秀路847-849"},{"poiid":"B2094757D06FA2FB429E","title":"兴荣苑","lon":"121.43176","lat":"31.130054","category":"47","category_name":"住宅区","address":"上海市徐汇区罗秀路955弄"},{"poiid":"B2094757D16FA2FD4998","title":"舒乐小区","lon":"121.43507","lat":"31.130444","category":"47","category_name":"住宅区","address":"上海老沪闵路1039弄"},{"poiid":"B2094757D06FABFF419B","title":"长桥四村","lon":"121.4391986","lat":"31.133580784","category":"252","category_name":"楼宇机构","address":"上海徐汇区 长桥路 龙临路 罗秀路 罗香路"},{"poiid":"B2094757D069A3F8409F","title":"振鼎鸡(罗秀路店)","lon":"121.43531899","lat":"31.130709827","category":"68","category_name":"快餐厅","address":"徐汇区罗秀路776号(近老沪闵路)"},{"poiid":"B2094757D068A5F5409A","title":"文章酒楼(罗香路店)","lon":"121.435329185","lat":"31.134500201","category":"76","category_name":"上海菜","address":"上海徐汇区罗香路240号(近龙临路)"},{"poiid":"B2094757D069A6FC4299","title":"依依食府","lon":"121.433845","lat":"31.131212","category":"76","category_name":"上海菜","address":"徐汇区罗秀路853号(老沪闵路口)"},{"poiid":"B2094757D469A5F9479D","title":"兄弟连特色海鲜烧烤","lon":"121.43312","lat":"31.13133","category":"68","category_name":"快餐厅","address":"徐汇区罗秀路875号(近老沪闵路)"},{"poiid":"B2094757D069A1FF4492","title":"罗秀路","lon":"121.436782","lat":"31.1317771","category":"47","category_name":"住宅区","address":"上海徐汇区罗秀路"},{"poiid":"B2094757D06AA2F44592","title":"普乐三村","lon":"121.432746","lat":"31.123842","category":"252","category_name":"楼宇机构","address":"上海虹梅南路1555弄"},{"poiid":"B2094757D069AAFB4992","title":"杨甲烧烤(罗秀路店)","lon":"121.43396","lat":"31.13099","category":"68","category_name":"快餐厅","address":"徐汇区罗秀路859号(近天等路)"},{"poiid":"B2094757D069A0FA4599","title":"徐汇区文化馆(西南文化艺术中心)","lon":"121.43701","lat":"31.13401","category":"179","category_name":"音乐厅","address":"徐汇区罗香路237号(龙临路)"},{"poiid":"B2094654DB6CA2FF4498","title":"长桥八村","lon":"121.43988","lat":"31.130894","category":"47","category_name":"住宅区","address":"上海罗秀路龙临路"},{"poiid":"B2094757D569A1F5479B","title":"都市宜家苑","lon":"121.43343833128","lat":"31.120746833073","category":"47","category_name":"住宅区","address":"上海市闵行区虹梅南路1661弄"},{"poiid":"B2094757D66AA5FD489D","title":"新招鲜本地鸡窝 罗秀店","lon":"121.435343","lat":"31.13159","category":"86","category_name":"火锅店","address":"徐汇区罗秀路776号(老沪闵路口)"},{"poiid":"B2094654DB6CA2F5429F","title":"山鹰码头","lon":"121.43395","lat":"31.12703","category":"34","category_name":"港口码头","address":"莘朱东路118号"},{"poiid":"B2094654DB6CA2FD4193","title":"家乐苑","lon":"121.43154","lat":"31.135004","category":"47","category_name":"住宅区","address":"上海上中西路55弄"},{"poiid":"B2094757D069A4F44999","title":"新招鲜罗秀路店","lon":"121.434994857","lat":"31.1303269694","category":"500","category_name":"未知分类","address":"上海罗秀路老沪闵路"},{"poiid":"B2094757D06AABFF4592","title":"天雅村酒店(梅陇店)","lon":"121.426893","lat":"31.13003","category":"76","category_name":"上海菜","address":"徐汇区罗秀路1111号(龙州路罗秀路)"},{"poiid":"B2094757D06BAAFF489C","title":"舒城苑","lon":"121.43513","lat":"31.12995","category":"252","category_name":"楼宇机构","address":"上海市徐汇区罗秀路725号"},{"poiid":"B2094654DB6CA2FE429E","title":"天秀苑","lon":"121.43015","lat":"31.130064","category":"47","category_name":"住宅区","address":"上海市徐汇区罗秀路985弄"},{"poiid":"B2094654DB6CA2FA409C","title":"光明乳业长桥配送站","lon":"121.43714","lat":"31.12733","category":"117","category_name":"便民商店/便利店","address":""},{"poiid":"B2094654DB6CA2FF4199","title":"舒乐公寓","lon":"121.43489","lat":"31.131275","category":"47","category_name":"住宅区","address":"罗秀路717弄1-3号"},{"poiid":"B2094757D164A7F94892","title":"顶顶烧烤","lon":"121.43417785","lat":"31.131133985","category":"247","category_name":"餐饮美食","address":"徐汇区罗绣路843号(近老沪闵路)"},{"poiid":"B2094757D665A3FD429F","title":"重庆露露","lon":"121.43488528117","lat":"31.131643842075","category":"71","category_name":"四川菜","address":"闵行区老沪闵路919号(近罗秀路)"},{"poiid":"B2094654DB6CA2FF439D","title":"上海市长桥中学","lon":"121.43844","lat":"31.1303","category":"55","category_name":"中学","address":"徐汇区罗秀路400号(长华路罗秀路)"},{"poiid":"B2094655D265A7F54393","title":"徐汇凌云开业园区","lon":"121.43476","lat":"31.12983","category":"45","category_name":"产业园区","address":"老沪闵路1055弄38"},{"poiid":"B2094654DB6CA2F5429C","title":"上海电力建设物资公司码头","lon":"121.43209","lat":"31.1264","category":"34","category_name":"港口码头","address":""},{"poiid":"B2094757D16DABFE419F","title":"兄弟连烧烤","lon":"121.43465885","lat":"31.129588954","category":"247","category_name":"餐饮美食","address":"上海罗秀路菜场近老沪闵路"},{"poiid":"B2094655D36CA5F4469B","title":"北杨村","lon":"121.43744","lat":"31.12524","category":"38","category_name":"公交车站","address":""},{"poiid":"B2094655D26DA7F5419E","title":"长桥八村(北门)","lon":"121.44001","lat":"31.13194","category":"47","category_name":"住宅区","address":""},{"poiid":"B2094757D66EA1FC4299","title":"德利厨房","lon":"121.43557685","lat":"31.128235179","category":"249","category_name":"购物服务","address":"上海漕溪路"},{"poiid":"B2094757D16EA6FD429D","title":"致康儿童康健园","lon":"121.435789457","lat":"31.1331743265","category":"162","category_name":"医院","address":"徐汇区罗秀路长桥八村25号"},{"poiid":"B2094757D469A7FB4999","title":"清真精品牛肉面王","lon":"121.431247","lat":"31.131154","category":"90","category_name":"清真餐馆","address":"徐汇区罗秀路908号(近天等路)"},{"poiid":"B2094654DB6CA2F5419F","title":"上海送变电工程公司","lon":"121.43354","lat":"31.12718","category":"263","category_name":"公司","address":"莘朱东路150"},{"poiid":"B2094757D064A6FF489B","title":"上海澳联玻璃有限公司","lon":"121.430289","lat":"31.126195","category":"46","category_name":"楼宇","address":"上海闵行区莘朱东路335号"},{"poiid":"B2094655D26FA7FF499D","title":"舒乐小区(东门)","lon":"121.43579","lat":"31.13069","category":"47","category_name":"住宅区","address":"老沪闵路1039弄1-66号"},{"poiid":"B2094757D66DA2F8499E","title":"鼋头渚","lon":"121.435426257","lat":"31.130255268","category":"500","category_name":"未知分类","address":"江苏省无锡市鼋头渚风景区"},{"poiid":"B2094655D26DA7F5449F","title":"大华医院(东门)","lon":"121.43522","lat":"31.13296","category":"162","category_name":"医院","address":"老沪闵路901-903号"},{"poiid":"B2094654DB6CA2FF4398","title":"星秀苑","lon":"121.43657","lat":"31.132544","category":"47","category_name":"住宅区","address":"上海市徐汇区龙临路145号"},{"poiid":"B2094654DB6CA2FF409C","title":"舒乐小区(北大门)","lon":"121.43415","lat":"31.13111","category":"47","category_name":"住宅区","address":"老沪闵路1039弄"},{"poiid":"B2094757D465A3FF4493","title":"兴旺小海鲜","lon":"121.434702054","lat":"31.131561793","category":"260","category_name":"其他","address":"徐汇区罗秀路867-869号(近老沪闵路)"},{"poiid":"B2094655D26EAAFC469E","title":"百煲楼","lon":"121.43395","lat":"31.13157","category":"46","category_name":"楼宇","address":"徐汇区罗秀路776号"},{"poiid":"B2094655D26AA1F54092","title":"枫叶速8酒店南站店","lon":"121.43746","lat":"31.13522","category":"247","category_name":"餐饮美食","address":"上海市徐汇区罗香路174号（位于长桥地区，近龙临路））"},{"poiid":"B2094654DB6CA2FC4992","title":"大华医院","lon":"121.43475","lat":"31.13261","category":"162","category_name":"医院","address":"徐汇区老沪闵路901号(老沪闵路罗秀路)"},{"poiid":"B2094757D06FA3F94998","title":"西南影城","lon":"121.43652828","lat":"31.1343817279","category":"178","category_name":"电影院","address":"上海市徐汇区(长桥)罗香路237号(龙临路口)"},{"poiid":"B2094757D06FA6FF489A","title":"肯德基 KFC (罗香店)","lon":"121.436192","lat":"31.134534","category":"68","category_name":"快餐厅","address":"徐汇区龙临路157号(罗香路口)"},{"poiid":"B2094757D068A0FB449A","title":"老沪闵路罗秀路","lon":"121.435804","lat":"31.132418","category":"500","category_name":"未知分类","address":"上海老沪闵路罗秀路"},{"poiid":"B2094757D065ABF4479E","title":"老沪闵路 朱梅路","lon":"121.436587","lat":"31.122507","category":"500","category_name":"未知分类","address":"上海老沪闵路,朱梅路"},{"poiid":"B2094654DB6CA2FC489E","title":"和平小区(罗秀路)","lon":"121.43076","lat":"31.13226","category":"47","category_name":"住宅区","address":"上海徐汇区罗秀路930弄(近天等路)"},{"poiid":"B2094654DB6CA2FF4099","title":"老北京涮肉馆(罗秀路)","lon":"121.43386","lat":"31.13128","category":"86","category_name":"火锅店","address":"罗秀路847-849"},{"poiid":"B2094757D06FA2FB429E","title":"兴荣苑","lon":"121.43176","lat":"31.130054","category":"47","category_name":"住宅区","address":"上海市徐汇区罗秀路955弄"},{"poiid":"B2094757D16FA2FD4998","title":"舒乐小区","lon":"121.43507","lat":"31.130444","category":"47","category_name":"住宅区","address":"上海老沪闵路1039弄"},{"poiid":"B2094757D06FABFF419B","title":"长桥四村","lon":"121.4391986","lat":"31.133580784","category":"252","category_name":"楼宇机构","address":"上海徐汇区 长桥路 龙临路 罗秀路 罗香路"},{"poiid":"B2094757D069A3F8409F","title":"振鼎鸡(罗秀路店)","lon":"121.43531899","lat":"31.130709827","category":"68","category_name":"快餐厅","address":"徐汇区罗秀路776号(近老沪闵路)"},{"poiid":"B2094757D068A5F5409A","title":"文章酒楼(罗香路店)","lon":"121.435329185","lat":"31.134500201","category":"76","category_name":"上海菜","address":"上海徐汇区罗香路240号(近龙临路)"},{"poiid":"B2094757D069A6FC4299","title":"依依食府","lon":"121.433845","lat":"31.131212","category":"76","category_name":"上海菜","address":"徐汇区罗秀路853号(老沪闵路口)"},{"poiid":"B2094757D469A5F9479D","title":"兄弟连特色海鲜烧烤","lon":"121.43312","lat":"31.13133","category":"68","category_name":"快餐厅","address":"徐汇区罗秀路875号(近老沪闵路)"},{"poiid":"B2094757D069A1FF4492","title":"罗秀路","lon":"121.436782","lat":"31.1317771","category":"47","category_name":"住宅区","address":"上海徐汇区罗秀路"},{"poiid":"B2094757D06AA2F44592","title":"普乐三村","lon":"121.432746","lat":"31.123842","category":"252","category_name":"楼宇机构","address":"上海虹梅南路1555弄"},{"poiid":"B2094757D069AAFB4992","title":"杨甲烧烤(罗秀路店)","lon":"121.43396","lat":"31.13099","category":"68","category_name":"快餐厅","address":"徐汇区罗秀路859号(近天等路)"},{"poiid":"B2094757D069A0FA4599","title":"徐汇区文化馆(西南文化艺术中心)","lon":"121.43701","lat":"31.13401","category":"179","category_name":"音乐厅","address":"徐汇区罗香路237号(龙临路)"},{"poiid":"B2094654DB6CA2FF4498","title":"长桥八村","lon":"121.43988","lat":"31.130894","category":"47","category_name":"住宅区","address":"上海罗秀路龙临路"},{"poiid":"B2094757D569A1F5479B","title":"都市宜家苑","lon":"121.43343833128","lat":"31.120746833073","category":"47","category_name":"住宅区","address":"上海市闵行区虹梅南路1661弄"},{"poiid":"B2094757D66AA5FD489D","title":"新招鲜本地鸡窝 罗秀店","lon":"121.435343","lat":"31.13159","category":"86","category_name":"火锅店","address":"徐汇区罗秀路776号(老沪闵路口)"},{"poiid":"B2094654DB6CA2F5429F","title":"山鹰码头","lon":"121.43395","lat":"31.12703","category":"34","category_name":"港口码头","address":"莘朱东路118号"},{"poiid":"B2094654DB6CA2FD4193","title":"家乐苑","lon":"121.43154","lat":"31.135004","category":"47","category_name":"住宅区","address":"上海上中西路55弄"},{"poiid":"B2094757D069A4F44999","title":"新招鲜罗秀路店","lon":"121.434994857","lat":"31.1303269694","category":"500","category_name":"未知分类","address":"上海罗秀路老沪闵路"},{"poiid":"B2094757D06AABFF4592","title":"天雅村酒店(梅陇店)","lon":"121.426893","lat":"31.13003","category":"76","category_name":"上海菜","address":"徐汇区罗秀路1111号(龙州路罗秀路)"},{"poiid":"B2094757D06BAAFF489C","title":"舒城苑","lon":"121.43513","lat":"31.12995","category":"252","category_name":"楼宇机构","address":"上海市徐汇区罗秀路725号"},{"poiid":"B2094654DB6CA2FE429E","title":"天秀苑","lon":"121.43015","lat":"31.130064","category":"47","category_name":"住宅区","address":"上海市徐汇区罗秀路985弄"},{"poiid":"B2094654DB6CA2FA409C","title":"光明乳业长桥配送站","lon":"121.43714","lat":"31.12733","category":"117","category_name":"便民商店/便利店","address":""},{"poiid":"B2094654DB6CA2FF4199","title":"舒乐公寓","lon":"121.43489","lat":"31.131275","category":"47","category_name":"住宅区","address":"罗秀路717弄1-3号"},{"poiid":"B2094757D164A7F94892","title":"顶顶烧烤","lon":"121.43417785","lat":"31.131133985","category":"247","category_name":"餐饮美食","address":"徐汇区罗绣路843号(近老沪闵路)"},{"poiid":"B2094757D665A3FD429F","title":"重庆露露","lon":"121.43488528117","lat":"31.131643842075","category":"71","category_name":"四川菜","address":"闵行区老沪闵路919号(近罗秀路)"},{"poiid":"B2094654DB6CA2FF439D","title":"上海市长桥中学","lon":"121.43844","lat":"31.1303","category":"55","category_name":"中学","address":"徐汇区罗秀路400号(长华路罗秀路)"},{"poiid":"B2094655D265A7F54393","title":"徐汇凌云开业园区","lon":"121.43476","lat":"31.12983","category":"45","category_name":"产业园区","address":"老沪闵路1055弄38"},{"poiid":"B2094654DB6CA2F5429C","title":"上海电力建设物资公司码头","lon":"121.43209","lat":"31.1264","category":"34","category_name":"港口码头","address":""},{"poiid":"B2094757D16DABFE419F","title":"兄弟连烧烤","lon":"121.43465885","lat":"31.129588954","category":"247","category_name":"餐饮美食","address":"上海罗秀路菜场近老沪闵路"},{"poiid":"B2094655D36CA5F4469B","title":"北杨村","lon":"121.43744","lat":"31.12524","category":"38","category_name":"公交车站","address":""},{"poiid":"B2094655D26DA7F5419E","title":"长桥八村(北门)","lon":"121.44001","lat":"31.13194","category":"47","category_name":"住宅区","address":""},{"poiid":"B2094757D66EA1FC4299","title":"德利厨房","lon":"121.43557685","lat":"31.128235179","category":"249","category_name":"购物服务","address":"上海漕溪路"},{"poiid":"B2094757D16EA6FD429D","title":"致康儿童康健园","lon":"121.435789457","lat":"31.1331743265","category":"162","category_name":"医院","address":"徐汇区罗秀路长桥八村25号"},{"poiid":"B2094757D469A7FB4999","title":"清真精品牛肉面王","lon":"121.431247","lat":"31.131154","category":"90","category_name":"清真餐馆","address":"徐汇区罗秀路908号(近天等路)"},{"poiid":"B2094654DB6CA2F5419F","title":"上海送变电工程公司","lon":"121.43354","lat":"31.12718","category":"263","category_name":"公司","address":"莘朱东路150"},{"poiid":"B2094757D064A6FF489B","title":"上海澳联玻璃有限公司","lon":"121.430289","lat":"31.126195","category":"46","category_name":"楼宇","address":"上海闵行区莘朱东路335号"},{"poiid":"B2094655D26FA7FF499D","title":"舒乐小区(东门)","lon":"121.43579","lat":"31.13069","category":"47","category_name":"住宅区","address":"老沪闵路1039弄1-66号"},{"poiid":"B2094757D66DA2F8499E","title":"鼋头渚","lon":"121.435426257","lat":"31.130255268","category":"500","category_name":"未知分类","address":"江苏省无锡市鼋头渚风景区"},{"poiid":"B2094655D26DA7F5449F","title":"大华医院(东门)","lon":"121.43522","lat":"31.13296","category":"162","category_name":"医院","address":"老沪闵路901-903号"},{"poiid":"B2094654DB6CA2FF4398","title":"星秀苑","lon":"121.43657","lat":"31.132544","category":"47","category_name":"住宅区","address":"上海市徐汇区龙临路145号"},{"poiid":"B2094654DB6CA2FF409C","title":"舒乐小区(北大门)","lon":"121.43415","lat":"31.13111","category":"47","category_name":"住宅区","address":"老沪闵路1039弄"},{"poiid":"B2094757D465A3FF4493","title":"兴旺小海鲜","lon":"121.434702054","lat":"31.131561793","category":"260","category_name":"其他","address":"徐汇区罗秀路867-869号(近老沪闵路)"},{"poiid":"B2094655D26EAAFC469E","title":"百煲楼","lon":"121.43395","lat":"31.13157","category":"46","category_name":"楼宇","address":"徐汇区罗秀路776号"},{"poiid":"B2094655D26AA1F54092","title":"枫叶速8酒店南站店","lon":"121.43746","lat":"31.13522","category":"247","category_name":"餐饮美食","address":"上海市徐汇区罗香路174号（位于长桥地区，近龙临路））"}]