[{"poiid":"B2094655D26AAAF4479E","title":"庆春电影城","lon":"121.41084","lat":"31.1694","category":"178","category_name":"电影院","address":"徐汇区田林路140号15幢2楼近苍梧路;;"},{"poiid":"B2094757D06FA3FB4692","title":"上海市委党校","lon":"121.41277","lat":"31.16003","category":"52","category_name":"高等院校","address":"徐汇区虹漕南路200号(近漕宝路)"},{"poiid":"B2094757D06FABFF4093","title":"一番屋(华美达店)","lon":"121.40698438","lat":"31.164436905","category":"268","category_name":"自助","address":"徐汇区漕宝路509号华美达老楼2楼"},{"poiid":"B2094757D06FABF94498","title":"华美达新园酒店","lon":"121.406080905","lat":"31.1640171109","category":"217","category_name":"旅馆招待所","address":"上海徐汇区漕宝路509号(近桂平路)"},{"poiid":"B2094654DA65A7F54798","title":"上海市民进自强进修学院","lon":"121.41343","lat":"31.16381","category":"217","category_name":"旅馆招待所","address":"徐汇区桂林路95号(桂林路康健路)"},{"poiid":"B2094655D26FABFF449C","title":"上海师范大学图书馆","lon":"121.41513","lat":"31.16249","category":"181","category_name":"图书馆","address":"市桂林路100号;奉贤校区:上海市奉炮路553号"},{"poiid":"B2094655D26FA6F9479C","title":"古美小区","lon":"121.407","lat":"31.1619","category":"47","category_name":"住宅区","address":"东兰路111弄1-19号；东兰路121弄1-36号；东兰路151弄1-20号；古美路1107弄；古美路1135弄"},{"poiid":"B2094655D26AA0F8419D","title":"领域射箭台球馆","lon":"121.41084","lat":"31.1694","category":"247","category_name":"餐饮美食","address":"徐汇区田林路140号越界创意园区15号楼2楼(近苍梧路)"},{"poiid":"B2094654DA65A5FB409E","title":"新漕河泾大厦","lon":"121.40551","lat":"31.16386","category":"46","category_name":"楼宇","address":"行宫位于沈河北站一路41号"},{"poiid":"B2094654D564A2FD469F","title":"中国银行国际金融研修院(上海)","lon":"121.40663","lat":"31.16538","category":"150","category_name":"银行","address":"桂箐路5"},{"poiid":"B2094655D26BA3FC459A","title":"上海之夜KTV漕宝路店","lon":"121.41133","lat":"31.16368","category":"170","category_name":"KTV","address":"徐汇区漕宝路400号明申商务广场近虹漕南路;;"},{"poiid":"B2094655D269A4FB429A","title":"一兆韦德(田林店)","lon":"121.41084","lat":"31.1694","category":"247","category_name":"餐饮美食","address":"徐汇区田林路140号越界创意园区15号楼2楼(近苍梧路)"},{"poiid":"B2094757D064A2F54293","title":"万融大酒店","lon":"121.41231834","lat":"31.163457106","category":"72","category_name":"广东菜","address":"徐汇区漕宝路400号明申商务广场(近虹漕南路)"},{"poiid":"B2094654D564A2FD469E","title":"上海市漕河泾新兴技术开发区","lon":"121.4063","lat":"31.16595","category":"45","category_name":"产业园区","address":"桂箐路7"},{"poiid":"B2094654DB64A2FA449D","title":"锦江之星(光大会展中心店)","lon":"121.41001","lat":"31.16372","category":"216","category_name":"经济型连锁酒店","address":"上海市徐汇区漕宝路440号(近虹漕南路)"},{"poiid":"B2094757D068A7F54893","title":"上海核工程研究设计院","lon":"121.410720825","lat":"31.1686153412","category":"500","category_name":"未知分类","address":"上海徐汇区虹漕路29号"},{"poiid":"B2094752D06EABFB429D","title":"上海虹桥火车站","lon":"121.40551","lat":"31.16386","category":"627","category_name":"一般地点标志","address":"上海虹桥火车站"},{"poiid":"B2094655D36CA7F84098","title":"虹漕路漕宝路","lon":"121.4119","lat":"31.16503","category":"38","category_name":"公交车站","address":""},{"poiid":"B2094654DB65A4F5409D","title":"汉庭酒店(田林店)","lon":"121.41464","lat":"31.16522","category":"216","category_name":"经济型连锁酒店","address":"徐汇区漕宝路233号(近苍梧路)"},{"poiid":"B2094757D16DA3FB4393","title":"漕宝路桂平路","lon":"121.40600308","lat":"31.163236571","category":"500","category_name":"未知分类","address":"上海桂平路某小区"},{"poiid":"B2094757D069A2FF479D","title":"桂平小区","lon":"121.40861","lat":"31.158775","category":"47","category_name":"住宅区","address":"桂平路258弄、桂平路260弄、桂平路296弄"},{"poiid":"B2094654DA65A5FB489B","title":"龙旗控股","lon":"121.40842","lat":"31.16441","category":"263","category_name":"公司","address":"上海漕宝路401号"},{"poiid":"B2094750D76EA6FE4098","title":"小巴辣子川湘菜餐厅(田林店)","lon":"121.411","lat":"31.1692","category":"71","category_name":"四川菜","address":"徐汇区田林路140号15号楼东1楼2楼(越界园区内)"},{"poiid":"B2094750DB65A6FF4899","title":"印象台北","lon":"121.4048","lat":"31.165285","category":"91","category_name":"台湾菜","address":"徐汇区桂平路(近全州路)"},{"poiid":"B2094757D064A4F54692","title":"上海市建委党校","lon":"121.413157","lat":"31.162821","category":"500","category_name":"未知分类","address":"上海虹漕南路55号"},{"poiid":"B2094757D569A1FF489F","title":"村夫烤鱼虹漕路店","lon":"121.4119031","lat":"31.16456889","category":"68","category_name":"快餐厅","address":"徐汇区虹漕路8号(近漕宝路)"},{"poiid":"B2094757D069A3FA479A","title":"四海游龙 虹漕路店 OVERSEAS DRAGON","lon":"121.411649054","lat":"31.164276793","category":"68","category_name":"快餐厅","address":"徐汇区虹漕路8号(虹漕路口)"},{"poiid":"B2094757D068AAFE429F","title":"太平洋保险数据中心","lon":"121.411281218","lat":"31.1669573847","category":"46","category_name":"楼宇","address":"上海徐汇区田林路201号"},{"poiid":"B2094655D265A6FB459D","title":"华东理工大学国家大学科技园G7软件基地","lon":"121.40484","lat":"31.16531","category":"45","category_name":"产业园区","address":""},{"poiid":"B2094654DA65A5FB409A","title":"漕河泾都市工业园区(西区)","lon":"121.41004","lat":"31.1632","category":"45","category_name":"产业园区","address":""},{"poiid":"B2094753D66AA2F8489D","title":"虹桥机场T2航站楼候机大厅","lon":"121.41323","lat":"31.162084","category":"500","category_name":"未知分类","address":"上海市 虹桥机场T2航站楼候机大厅"},{"poiid":"B2094654DA65A5FB489F","title":"上海市公安局徐汇分局交通警察支队","lon":"121.40915","lat":"31.16403","category":"250","category_name":"公园户外","address":"漕宝路381"},{"poiid":"B2094654DA65A5F44299","title":"兴园坊","lon":"121.40506354009","lat":"31.16319913268","category":"76","category_name":"上海菜","address":"徐汇区漕宝路509号兴园宾馆1楼(桂平路口)"},{"poiid":"B2094655D265A3FF469B","title":"卡夫食品(上海)有限公司","lon":"121.40901","lat":"31.16331","category":"263","category_name":"公司","address":"漕宝路440"},{"poiid":"B2094655D36CA7FF4993","title":"虹漕南路漕宝路","lon":"121.41267","lat":"31.16253","category":"38","category_name":"公交车站","address":""},{"poiid":"B2094752D76BA1FF459C","title":"上海虹桥火车站","lon":"121.408493","lat":"31.163864","category":"500","category_name":"未知分类","address":null},{"poiid":"B2094757D168A4F8499D","title":"虹梅派出所","lon":"121.411784586","lat":"31.1651161584","category":"609","category_name":"警察局","address":"上海市徐汇区虹漕路7号"},{"poiid":"B2094757D06BA0F9449E","title":"宏亮食艺坊","lon":"121.407021","lat":"31.159352","category":"76","category_name":"上海菜","address":"徐汇区桂平路295号(漕宝路钦州南路间)"},{"poiid":"B2094757D16AA7FE4798","title":"漕宝路440号卡莎布兰卡","lon":"121.41002655","lat":"31.163717269","category":"500","category_name":"未知分类","address":"上海漕宝路440号"},{"poiid":"B2094757D468A5FD419D","title":"新绿色餐厅","lon":"121.413418054","lat":"31.164367793","category":"68","category_name":"快餐厅","address":"徐汇区漕宝路250号(近苍梧路)"},{"poiid":"B2094757D069ABF4489E","title":"华东理工科技园G7软件基地","lon":"121.40951758","lat":"31.165449164","category":"500","category_name":"未知分类","address":"上海市徐汇区桂箐路7号"},{"poiid":"B2094757D06BA6FC4993","title":"中国科学院","lon":"121.407004","lat":"31.161934","category":"671","category_name":"高校中心点","address":"上海漕宝路500号"},{"poiid":"B2094757D66DA6FD4093","title":"天合亚太有限公司","lon":"121.410465","lat":"31.163286","category":"263","category_name":"公司","address":"上海虹漕路456号漕河工业园区"},{"poiid":"B2094654DA65A5FA499A","title":"聚科生物园区","lon":"121.414","lat":"31.1679","category":"45","category_name":"产业园区","address":"龙吴路2115号"},{"poiid":"B2094757D06AA1F9469C","title":"地球上","lon":"121.40505194","lat":"31.163069256","category":"500","category_name":"未知分类","address":"上海地球上"},{"poiid":"B2094757D065AAF8459E","title":"太保田林数据中心","lon":"121.4074","lat":"31.168261","category":"500","category_name":"未知分类","address":"上海田林路201号"},{"poiid":"B2094757D06BA5FE429E","title":"城市超市(久光店)","lon":"121.41229385","lat":"31.161905381","category":"118","category_name":"超级市场","address":"上海静安区南京西路1618号"},{"poiid":"B2094757D66BA3FE449A","title":"酷乐线下主题店 Cool Life","lon":"121.411157","lat":"31.169228","category":"94","category_name":"西餐厅","address":"徐汇区田林路140号越界创意园区15D(近苍梧路)"},{"poiid":"B2094655D26FA1FF479F","title":"装饰名品展示中心","lon":"121.4132","lat":"31.16392","category":"183","category_name":"展览馆","address":"漕宝路300号"},{"poiid":"B2094757D165A7FE439E","title":"邮政储蓄漕河泾支局","lon":"121.408952","lat":"31.163991","category":"500","category_name":"未知分类","address":"上海漕宝路389号"},{"poiid":"B2094655D26AAAF4479E","title":"庆春电影城","lon":"121.41084","lat":"31.1694","category":"178","category_name":"电影院","address":"徐汇区田林路140号15幢2楼近苍梧路;;"},{"poiid":"B2094757D06FA3FB4692","title":"上海市委党校","lon":"121.41277","lat":"31.16003","category":"52","category_name":"高等院校","address":"徐汇区虹漕南路200号(近漕宝路)"},{"poiid":"B2094757D06FABFF4093","title":"一番屋(华美达店)","lon":"121.40698438","lat":"31.164436905","category":"268","category_name":"自助","address":"徐汇区漕宝路509号华美达老楼2楼"},{"poiid":"B2094757D06FABF94498","title":"华美达新园酒店","lon":"121.406080905","lat":"31.1640171109","category":"217","category_name":"旅馆招待所","address":"上海徐汇区漕宝路509号(近桂平路)"},{"poiid":"B2094654DA65A7F54798","title":"上海市民进自强进修学院","lon":"121.41343","lat":"31.16381","category":"217","category_name":"旅馆招待所","address":"徐汇区桂林路95号(桂林路康健路)"},{"poiid":"B2094655D26FABFF449C","title":"上海师范大学图书馆","lon":"121.41513","lat":"31.16249","category":"181","category_name":"图书馆","address":"市桂林路100号;奉贤校区:上海市奉炮路553号"},{"poiid":"B2094655D26FA6F9479C","title":"古美小区","lon":"121.407","lat":"31.1619","category":"47","category_name":"住宅区","address":"东兰路111弄1-19号；东兰路121弄1-36号；东兰路151弄1-20号；古美路1107弄；古美路1135弄"},{"poiid":"B2094655D26AA0F8419D","title":"领域射箭台球馆","lon":"121.41084","lat":"31.1694","category":"247","category_name":"餐饮美食","address":"徐汇区田林路140号越界创意园区15号楼2楼(近苍梧路)"},{"poiid":"B2094654DA65A5FB409E","title":"新漕河泾大厦","lon":"121.40551","lat":"31.16386","category":"46","category_name":"楼宇","address":"行宫位于沈河北站一路41号"},{"poiid":"B2094654D564A2FD469F","title":"中国银行国际金融研修院(上海)","lon":"121.40663","lat":"31.16538","category":"150","category_name":"银行","address":"桂箐路5"},{"poiid":"B2094655D26BA3FC459A","title":"上海之夜KTV漕宝路店","lon":"121.41133","lat":"31.16368","category":"170","category_name":"KTV","address":"徐汇区漕宝路400号明申商务广场近虹漕南路;;"},{"poiid":"B2094655D269A4FB429A","title":"一兆韦德(田林店)","lon":"121.41084","lat":"31.1694","category":"247","category_name":"餐饮美食","address":"徐汇区田林路140号越界创意园区15号楼2楼(近苍梧路)"},{"poiid":"B2094757D064A2F54293","title":"万融大酒店","lon":"121.41231834","lat":"31.163457106","category":"72","category_name":"广东菜","address":"徐汇区漕宝路400号明申商务广场(近虹漕南路)"},{"poiid":"B2094654D564A2FD469E","title":"上海市漕河泾新兴技术开发区","lon":"121.4063","lat":"31.16595","category":"45","category_name":"产业园区","address":"桂箐路7"},{"poiid":"B2094654DB64A2FA449D","title":"锦江之星(光大会展中心店)","lon":"121.41001","lat":"31.16372","category":"216","category_name":"经济型连锁酒店","address":"上海市徐汇区漕宝路440号(近虹漕南路)"},{"poiid":"B2094757D068A7F54893","title":"上海核工程研究设计院","lon":"121.410720825","lat":"31.1686153412","category":"500","category_name":"未知分类","address":"上海徐汇区虹漕路29号"},{"poiid":"B2094752D06EABFB429D","title":"上海虹桥火车站","lon":"121.40551","lat":"31.16386","category":"627","category_name":"一般地点标志","address":"上海虹桥火车站"},{"poiid":"B2094655D36CA7F84098","title":"虹漕路漕宝路","lon":"121.4119","lat":"31.16503","category":"38","category_name":"公交车站","address":""},{"poiid":"B2094654DB65A4F5409D","title":"汉庭酒店(田林店)","lon":"121.41464","lat":"31.16522","category":"216","category_name":"经济型连锁酒店","address":"徐汇区漕宝路233号(近苍梧路)"},{"poiid":"B2094757D16DA3FB4393","title":"漕宝路桂平路","lon":"121.40600308","lat":"31.163236571","category":"500","category_name":"未知分类","address":"上海桂平路某小区"},{"poiid":"B2094757D069A2FF479D","title":"桂平小区","lon":"121.40861","lat":"31.158775","category":"47","category_name":"住宅区","address":"桂平路258弄、桂平路260弄、桂平路296弄"},{"poiid":"B2094654DA65A5FB489B","title":"龙旗控股","lon":"121.40842","lat":"31.16441","category":"263","category_name":"公司","address":"上海漕宝路401号"},{"poiid":"B2094750D76EA6FE4098","title":"小巴辣子川湘菜餐厅(田林店)","lon":"121.411","lat":"31.1692","category":"71","category_name":"四川菜","address":"徐汇区田林路140号15号楼东1楼2楼(越界园区内)"},{"poiid":"B2094750DB65A6FF4899","title":"印象台北","lon":"121.4048","lat":"31.165285","category":"91","category_name":"台湾菜","address":"徐汇区桂平路(近全州路)"},{"poiid":"B2094757D064A4F54692","title":"上海市建委党校","lon":"121.413157","lat":"31.162821","category":"500","category_name":"未知分类","address":"上海虹漕南路55号"},{"poiid":"B2094757D569A1FF489F","title":"村夫烤鱼虹漕路店","lon":"121.4119031","lat":"31.16456889","category":"68","category_name":"快餐厅","address":"徐汇区虹漕路8号(近漕宝路)"},{"poiid":"B2094757D069A3FA479A","title":"四海游龙 虹漕路店 OVERSEAS DRAGON","lon":"121.411649054","lat":"31.164276793","category":"68","category_name":"快餐厅","address":"徐汇区虹漕路8号(虹漕路口)"},{"poiid":"B2094757D068AAFE429F","title":"太平洋保险数据中心","lon":"121.411281218","lat":"31.1669573847","category":"46","category_name":"楼宇","address":"上海徐汇区田林路201号"},{"poiid":"B2094655D265A6FB459D","title":"华东理工大学国家大学科技园G7软件基地","lon":"121.40484","lat":"31.16531","category":"45","category_name":"产业园区","address":""},{"poiid":"B2094654DA65A5FB409A","title":"漕河泾都市工业园区(西区)","lon":"121.41004","lat":"31.1632","category":"45","category_name":"产业园区","address":""},{"poiid":"B2094753D66AA2F8489D","title":"虹桥机场T2航站楼候机大厅","lon":"121.41323","lat":"31.162084","category":"500","category_name":"未知分类","address":"上海市 虹桥机场T2航站楼候机大厅"},{"poiid":"B2094654DA65A5FB489F","title":"上海市公安局徐汇分局交通警察支队","lon":"121.40915","lat":"31.16403","category":"250","category_name":"公园户外","address":"漕宝路381"},{"poiid":"B2094654DA65A5F44299","title":"兴园坊","lon":"121.40506354009","lat":"31.16319913268","category":"76","category_name":"上海菜","address":"徐汇区漕宝路509号兴园宾馆1楼(桂平路口)"},{"poiid":"B2094655D265A3FF469B","title":"卡夫食品(上海)有限公司","lon":"121.40901","lat":"31.16331","category":"263","category_name":"公司","address":"漕宝路440"},{"poiid":"B2094655D36CA7FF4993","title":"虹漕南路漕宝路","lon":"121.41267","lat":"31.16253","category":"38","category_name":"公交车站","address":""},{"poiid":"B2094752D76BA1FF459C","title":"上海虹桥火车站","lon":"121.408493","lat":"31.163864","category":"500","category_name":"未知分类","address":null},{"poiid":"B2094757D168A4F8499D","title":"虹梅派出所","lon":"121.411784586","lat":"31.1651161584","category":"609","category_name":"警察局","address":"上海市徐汇区虹漕路7号"},{"poiid":"B2094757D06BA0F9449E","title":"宏亮食艺坊","lon":"121.407021","lat":"31.159352","category":"76","category_name":"上海菜","address":"徐汇区桂平路295号(漕宝路钦州南路间)"},{"poiid":"B2094757D16AA7FE4798","title":"漕宝路440号卡莎布兰卡","lon":"121.41002655","lat":"31.163717269","category":"500","category_name":"未知分类","address":"上海漕宝路440号"},{"poiid":"B2094757D468A5FD419D","title":"新绿色餐厅","lon":"121.413418054","lat":"31.164367793","category":"68","category_name":"快餐厅","address":"徐汇区漕宝路250号(近苍梧路)"},{"poiid":"B2094757D069ABF4489E","title":"华东理工科技园G7软件基地","lon":"121.40951758","lat":"31.165449164","category":"500","category_name":"未知分类","address":"上海市徐汇区桂箐路7号"},{"poiid":"B2094757D06BA6FC4993","title":"中国科学院","lon":"121.407004","lat":"31.161934","category":"671","category_name":"高校中心点","address":"上海漕宝路500号"},{"poiid":"B2094757D66DA6FD4093","title":"天合亚太有限公司","lon":"121.410465","lat":"31.163286","category":"263","category_name":"公司","address":"上海虹漕路456号漕河工业园区"},{"poiid":"B2094654DA65A5FA499A","title":"聚科生物园区","lon":"121.414","lat":"31.1679","category":"45","category_name":"产业园区","address":"龙吴路2115号"},{"poiid":"B2094757D06AA1F9469C","title":"地球上","lon":"121.40505194","lat":"31.163069256","category":"500","category_name":"未知分类","address":"上海地球上"},{"poiid":"B2094757D065AAF8459E","title":"太保田林数据中心","lon":"121.4074","lat":"31.168261","category":"500","category_name":"未知分类","address":"上海田林路201号"},{"poiid":"B2094757D06BA5FE429E","title":"城市超市(久光店)","lon":"121.41229385","lat":"31.161905381","category":"118","category_name":"超级市场","address":"上海静安区南京西路1618号"},{"poiid":"B2094757D66BA3FE449A","title":"酷乐线下主题店 Cool Life","lon":"121.411157","lat":"31.169228","category":"94","category_name":"西餐厅","address":"徐汇区田林路140号越界创意园区15D(近苍梧路)"},{"poiid":"B2094655D26FA1FF479F","title":"装饰名品展示中心","lon":"121.4132","lat":"31.16392","category":"183","category_name":"展览馆","address":"漕宝路300号"},{"poiid":"B2094757D165A7FE439E","title":"邮政储蓄漕河泾支局","lon":"121.408952","lat":"31.163991","category":"500","category_name":"未知分类","address":"上海漕宝路389号"},{"poiid":"B2094655D26AAAF4479E","title":"庆春电影城","lon":"121.41084","lat":"31.1694","category":"178","category_name":"电影院","address":"徐汇区田林路140号15幢2楼近苍梧路;;"},{"poiid":"B2094757D06FA3FB4692","title":"上海市委党校","lon":"121.41277","lat":"31.16003","category":"52","category_name":"高等院校","address":"徐汇区虹漕南路200号(近漕宝路)"},{"poiid":"B2094757D06FABFF4093","title":"一番屋(华美达店)","lon":"121.40698438","lat":"31.164436905","category":"268","category_name":"自助","address":"徐汇区漕宝路509号华美达老楼2楼"},{"poiid":"B2094757D06FABF94498","title":"华美达新园酒店","lon":"121.406080905","lat":"31.1640171109","category":"217","category_name":"旅馆招待所","address":"上海徐汇区漕宝路509号(近桂平路)"},{"poiid":"B2094654DA65A7F54798","title":"上海市民进自强进修学院","lon":"121.41343","lat":"31.16381","category":"217","category_name":"旅馆招待所","address":"徐汇区桂林路95号(桂林路康健路)"},{"poiid":"B2094655D26FABFF449C","title":"上海师范大学图书馆","lon":"121.41513","lat":"31.16249","category":"181","category_name":"图书馆","address":"市桂林路100号;奉贤校区:上海市奉炮路553号"},{"poiid":"B2094655D26FA6F9479C","title":"古美小区","lon":"121.407","lat":"31.1619","category":"47","category_name":"住宅区","address":"东兰路111弄1-19号；东兰路121弄1-36号；东兰路151弄1-20号；古美路1107弄；古美路1135弄"},{"poiid":"B2094655D26AA0F8419D","title":"领域射箭台球馆","lon":"121.41084","lat":"31.1694","category":"247","category_name":"餐饮美食","address":"徐汇区田林路140号越界创意园区15号楼2楼(近苍梧路)"},{"poiid":"B2094654DA65A5FB409E","title":"新漕河泾大厦","lon":"121.40551","lat":"31.16386","category":"46","category_name":"楼宇","address":"行宫位于沈河北站一路41号"},{"poiid":"B2094654D564A2FD469F","title":"中国银行国际金融研修院(上海)","lon":"121.40663","lat":"31.16538","category":"150","category_name":"银行","address":"桂箐路5"},{"poiid":"B2094655D26BA3FC459A","title":"上海之夜KTV漕宝路店","lon":"121.41133","lat":"31.16368","category":"170","category_name":"KTV","address":"徐汇区漕宝路400号明申商务广场近虹漕南路;;"},{"poiid":"B2094655D269A4FB429A","title":"一兆韦德(田林店)","lon":"121.41084","lat":"31.1694","category":"247","category_name":"餐饮美食","address":"徐汇区田林路140号越界创意园区15号楼2楼(近苍梧路)"},{"poiid":"B2094757D064A2F54293","title":"万融大酒店","lon":"121.41231834","lat":"31.163457106","category":"72","category_name":"广东菜","address":"徐汇区漕宝路400号明申商务广场(近虹漕南路)"},{"poiid":"B2094654D564A2FD469E","title":"上海市漕河泾新兴技术开发区","lon":"121.4063","lat":"31.16595","category":"45","category_name":"产业园区","address":"桂箐路7"},{"poiid":"B2094654DB64A2FA449D","title":"锦江之星(光大会展中心店)","lon":"121.41001","lat":"31.16372","category":"216","category_name":"经济型连锁酒店","address":"上海市徐汇区漕宝路440号(近虹漕南路)"},{"poiid":"B2094757D068A7F54893","title":"上海核工程研究设计院","lon":"121.410720825","lat":"31.1686153412","category":"500","category_name":"未知分类","address":"上海徐汇区虹漕路29号"},{"poiid":"B2094752D06EABFB429D","title":"上海虹桥火车站","lon":"121.40551","lat":"31.16386","category":"627","category_name":"一般地点标志","address":"上海虹桥火车站"},{"poiid":"B2094655D36CA7F84098","title":"虹漕路漕宝路","lon":"121.4119","lat":"31.16503","category":"38","category_name":"公交车站","address":""},{"poiid":"B2094654DB65A4F5409D","title":"汉庭酒店(田林店)","lon":"121.41464","lat":"31.16522","category":"216","category_name":"经济型连锁酒店","address":"徐汇区漕宝路233号(近苍梧路)"},{"poiid":"B2094757D16DA3FB4393","title":"漕宝路桂平路","lon":"121.40600308","lat":"31.163236571","category":"500","category_name":"未知分类","address":"上海桂平路某小区"},{"poiid":"B2094757D069A2FF479D","title":"桂平小区","lon":"121.40861","lat":"31.158775","category":"47","category_name":"住宅区","address":"桂平路258弄、桂平路260弄、桂平路296弄"},{"poiid":"B2094654DA65A5FB489B","title":"龙旗控股","lon":"121.40842","lat":"31.16441","category":"263","category_name":"公司","address":"上海漕宝路401号"},{"poiid":"B2094750D76EA6FE4098","title":"小巴辣子川湘菜餐厅(田林店)","lon":"121.411","lat":"31.1692","category":"71","category_name":"四川菜","address":"徐汇区田林路140号15号楼东1楼2楼(越界园区内)"},{"poiid":"B2094750DB65A6FF4899","title":"印象台北","lon":"121.4048","lat":"31.165285","category":"91","category_name":"台湾菜","address":"徐汇区桂平路(近全州路)"},{"poiid":"B2094757D064A4F54692","title":"上海市建委党校","lon":"121.413157","lat":"31.162821","category":"500","category_name":"未知分类","address":"上海虹漕南路55号"},{"poiid":"B2094757D569A1FF489F","title":"村夫烤鱼虹漕路店","lon":"121.4119031","lat":"31.16456889","category":"68","category_name":"快餐厅","address":"徐汇区虹漕路8号(近漕宝路)"},{"poiid":"B2094757D069A3FA479A","title":"四海游龙 虹漕路店 OVERSEAS DRAGON","lon":"121.411649054","lat":"31.164276793","category":"68","category_name":"快餐厅","address":"徐汇区虹漕路8号(虹漕路口)"},{"poiid":"B2094757D068AAFE429F","title":"太平洋保险数据中心","lon":"121.411281218","lat":"31.1669573847","category":"46","category_name":"楼宇","address":"上海徐汇区田林路201号"},{"poiid":"B2094655D265A6FB459D","title":"华东理工大学国家大学科技园G7软件基地","lon":"121.40484","lat":"31.16531","category":"45","category_name":"产业园区","address":""},{"poiid":"B2094654DA65A5FB409A","title":"漕河泾都市工业园区(西区)","lon":"121.41004","lat":"31.1632","category":"45","category_name":"产业园区","address":""},{"poiid":"B2094753D66AA2F8489D","title":"虹桥机场T2航站楼候机大厅","lon":"121.41323","lat":"31.162084","category":"500","category_name":"未知分类","address":"上海市 虹桥机场T2航站楼候机大厅"},{"poiid":"B2094654DA65A5FB489F","title":"上海市公安局徐汇分局交通警察支队","lon":"121.40915","lat":"31.16403","category":"250","category_name":"公园户外","address":"漕宝路381"},{"poiid":"B2094654DA65A5F44299","title":"兴园坊","lon":"121.40506354009","lat":"31.16319913268","category":"76","category_name":"上海菜","address":"徐汇区漕宝路509号兴园宾馆1楼(桂平路口)"},{"poiid":"B2094655D265A3FF469B","title":"卡夫食品(上海)有限公司","lon":"121.40901","lat":"31.16331","category":"263","category_name":"公司","address":"漕宝路440"},{"poiid":"B2094655D36CA7FF4993","title":"虹漕南路漕宝路","lon":"121.41267","lat":"31.16253","category":"38","category_name":"公交车站","address":""},{"poiid":"B2094752D76BA1FF459C","title":"上海虹桥火车站","lon":"121.408493","lat":"31.163864","category":"500","category_name":"未知分类","address":null},{"poiid":"B2094757D168A4F8499D","title":"虹梅派出所","lon":"121.411784586","lat":"31.1651161584","category":"609","category_name":"警察局","address":"上海市徐汇区虹漕路7号"},{"poiid":"B2094757D06BA0F9449E","title":"宏亮食艺坊","lon":"121.407021","lat":"31.159352","category":"76","category_name":"上海菜","address":"徐汇区桂平路295号(漕宝路钦州南路间)"},{"poiid":"B2094757D16AA7FE4798","title":"漕宝路440号卡莎布兰卡","lon":"121.41002655","lat":"31.163717269","category":"500","category_name":"未知分类","address":"上海漕宝路440号"},{"poiid":"B2094757D468A5FD419D","title":"新绿色餐厅","lon":"121.413418054","lat":"31.164367793","category":"68","category_name":"快餐厅","address":"徐汇区漕宝路250号(近苍梧路)"},{"poiid":"B2094757D069ABF4489E","title":"华东理工科技园G7软件基地","lon":"121.40951758","lat":"31.165449164","category":"500","category_name":"未知分类","address":"上海市徐汇区桂箐路7号"},{"poiid":"B2094757D06BA6FC4993","title":"中国科学院","lon":"121.407004","lat":"31.161934","category":"671","category_name":"高校中心点","address":"上海漕宝路500号"},{"poiid":"B2094757D66DA6FD4093","title":"天合亚太有限公司","lon":"121.410465","lat":"31.163286","category":"263","category_name":"公司","address":"上海虹漕路456号漕河工业园区"},{"poiid":"B2094654DA65A5FA499A","title":"聚科生物园区","lon":"121.414","lat":"31.1679","category":"45","category_name":"产业园区","address":"龙吴路2115号"},{"poiid":"B2094757D06AA1F9469C","title":"地球上","lon":"121.40505194","lat":"31.163069256","category":"500","category_name":"未知分类","address":"上海地球上"},{"poiid":"B2094757D065AAF8459E","title":"太保田林数据中心","lon":"121.4074","lat":"31.168261","category":"500","category_name":"未知分类","address":"上海田林路201号"},{"poiid":"B2094757D06BA5FE429E","title":"城市超市(久光店)","lon":"121.41229385","lat":"31.161905381","category":"118","category_name":"超级市场","address":"上海静安区南京西路1618号"},{"poiid":"B2094757D66BA3FE449A","title":"酷乐线下主题店 Cool Life","lon":"121.411157","lat":"31.169228","category":"94","category_name":"西餐厅","address":"徐汇区田林路140号越界创意园区15D(近苍梧路)"},{"poiid":"B2094655D26FA1FF479F","title":"装饰名品展示中心","lon":"121.4132","lat":"31.16392","category":"183","category_name":"展览馆","address":"漕宝路300号"},{"poiid":"B2094757D165A7FE439E","title":"邮政储蓄漕河泾支局","lon":"121.408952","lat":"31.163991","category":"500","category_name":"未知分类","address":"上海漕宝路389号"},{"poiid":"B2094655D26AAAF4479E","title":"庆春电影城","lon":"121.41084","lat":"31.1694","category":"178","category_name":"电影院","address":"徐汇区田林路140号15幢2楼近苍梧路;;"},{"poiid":"B2094757D06FA3FB4692","title":"上海市委党校","lon":"121.41277","lat":"31.16003","category":"52","category_name":"高等院校","address":"徐汇区虹漕南路200号(近漕宝路)"},{"poiid":"B2094757D06FABFF4093","title":"一番屋(华美达店)","lon":"121.40698438","lat":"31.164436905","category":"268","category_name":"自助","address":"徐汇区漕宝路509号华美达老楼2楼"},{"poiid":"B2094757D06FABF94498","title":"华美达新园酒店","lon":"121.406080905","lat":"31.1640171109","category":"217","category_name":"旅馆招待所","address":"上海徐汇区漕宝路509号(近桂平路)"},{"poiid":"B2094654DA65A7F54798","title":"上海市民进自强进修学院","lon":"121.41343","lat":"31.16381","category":"217","category_name":"旅馆招待所","address":"徐汇区桂林路95号(桂林路康健路)"},{"poiid":"B2094655D26FABFF449C","title":"上海师范大学图书馆","lon":"121.41513","lat":"31.16249","category":"181","category_name":"图书馆","address":"市桂林路100号;奉贤校区:上海市奉炮路553号"},{"poiid":"B2094655D26FA6F9479C","title":"古美小区","lon":"121.407","lat":"31.1619","category":"47","category_name":"住宅区","address":"东兰路111弄1-19号；东兰路121弄1-36号；东兰路151弄1-20号；古美路1107弄；古美路1135弄"},{"poiid":"B2094655D26AA0F8419D","title":"领域射箭台球馆","lon":"121.41084","lat":"31.1694","category":"247","category_name":"餐饮美食","address":"徐汇区田林路140号越界创意园区15号楼2楼(近苍梧路)"},{"poiid":"B2094654DA65A5FB409E","title":"新漕河泾大厦","lon":"121.40551","lat":"31.16386","category":"46","category_name":"楼宇","address":"行宫位于沈河北站一路41号"},{"poiid":"B2094654D564A2FD469F","title":"中国银行国际金融研修院(上海)","lon":"121.40663","lat":"31.16538","category":"150","category_name":"银行","address":"桂箐路5"},{"poiid":"B2094655D26BA3FC459A","title":"上海之夜KTV漕宝路店","lon":"121.41133","lat":"31.16368","category":"170","category_name":"KTV","address":"徐汇区漕宝路400号明申商务广场近虹漕南路;;"},{"poiid":"B2094655D269A4FB429A","title":"一兆韦德(田林店)","lon":"121.41084","lat":"31.1694","category":"247","category_name":"餐饮美食","address":"徐汇区田林路140号越界创意园区15号楼2楼(近苍梧路)"},{"poiid":"B2094757D064A2F54293","title":"万融大酒店","lon":"121.41231834","lat":"31.163457106","category":"72","category_name":"广东菜","address":"徐汇区漕宝路400号明申商务广场(近虹漕南路)"},{"poiid":"B2094654D564A2FD469E","title":"上海市漕河泾新兴技术开发区","lon":"121.4063","lat":"31.16595","category":"45","category_name":"产业园区","address":"桂箐路7"},{"poiid":"B2094654DB64A2FA449D","title":"锦江之星(光大会展中心店)","lon":"121.41001","lat":"31.16372","category":"216","category_name":"经济型连锁酒店","address":"上海市徐汇区漕宝路440号(近虹漕南路)"},{"poiid":"B2094757D068A7F54893","title":"上海核工程研究设计院","lon":"121.410720825","lat":"31.1686153412","category":"500","category_name":"未知分类","address":"上海徐汇区虹漕路29号"},{"poiid":"B2094752D06EABFB429D","title":"上海虹桥火车站","lon":"121.40551","lat":"31.16386","category":"627","category_name":"一般地点标志","address":"上海虹桥火车站"},{"poiid":"B2094655D36CA7F84098","title":"虹漕路漕宝路","lon":"121.4119","lat":"31.16503","category":"38","category_name":"公交车站","address":""},{"poiid":"B2094654DB65A4F5409D","title":"汉庭酒店(田林店)","lon":"121.41464","lat":"31.16522","category":"216","category_name":"经济型连锁酒店","address":"徐汇区漕宝路233号(近苍梧路)"},{"poiid":"B2094757D16DA3FB4393","title":"漕宝路桂平路","lon":"121.40600308","lat":"31.163236571","category":"500","category_name":"未知分类","address":"上海桂平路某小区"},{"poiid":"B2094757D069A2FF479D","title":"桂平小区","lon":"121.40861","lat":"31.158775","category":"47","category_name":"住宅区","address":"桂平路258弄、桂平路260弄、桂平路296弄"},{"poiid":"B2094654DA65A5FB489B","title":"龙旗控股","lon":"121.40842","lat":"31.16441","category":"263","category_name":"公司","address":"上海漕宝路401号"},{"poiid":"B2094750D76EA6FE4098","title":"小巴辣子川湘菜餐厅(田林店)","lon":"121.411","lat":"31.1692","category":"71","category_name":"四川菜","address":"徐汇区田林路140号15号楼东1楼2楼(越界园区内)"},{"poiid":"B2094750DB65A6FF4899","title":"印象台北","lon":"121.4048","lat":"31.165285","category":"91","category_name":"台湾菜","address":"徐汇区桂平路(近全州路)"},{"poiid":"B2094757D064A4F54692","title":"上海市建委党校","lon":"121.413157","lat":"31.162821","category":"500","category_name":"未知分类","address":"上海虹漕南路55号"},{"poiid":"B2094757D569A1FF489F","title":"村夫烤鱼虹漕路店","lon":"121.4119031","lat":"31.16456889","category":"68","category_name":"快餐厅","address":"徐汇区虹漕路8号(近漕宝路)"},{"poiid":"B2094757D069A3FA479A","title":"四海游龙 虹漕路店 OVERSEAS DRAGON","lon":"121.411649054","lat":"31.164276793","category":"68","category_name":"快餐厅","address":"徐汇区虹漕路8号(虹漕路口)"},{"poiid":"B2094757D068AAFE429F","title":"太平洋保险数据中心","lon":"121.411281218","lat":"31.1669573847","category":"46","category_name":"楼宇","address":"上海徐汇区田林路201号"},{"poiid":"B2094655D265A6FB459D","title":"华东理工大学国家大学科技园G7软件基地","lon":"121.40484","lat":"31.16531","category":"45","category_name":"产业园区","address":""},{"poiid":"B2094654DA65A5FB409A","title":"漕河泾都市工业园区(西区)","lon":"121.41004","lat":"31.1632","category":"45","category_name":"产业园区","address":""},{"poiid":"B2094753D66AA2F8489D","title":"虹桥机场T2航站楼候机大厅","lon":"121.41323","lat":"31.162084","category":"500","category_name":"未知分类","address":"上海市 虹桥机场T2航站楼候机大厅"},{"poiid":"B2094654DA65A5FB489F","title":"上海市公安局徐汇分局交通警察支队","lon":"121.40915","lat":"31.16403","category":"250","category_name":"公园户外","address":"漕宝路381"},{"poiid":"B2094654DA65A5F44299","title":"兴园坊","lon":"121.40506354009","lat":"31.16319913268","category":"76","category_name":"上海菜","address":"徐汇区漕宝路509号兴园宾馆1楼(桂平路口)"},{"poiid":"B2094655D265A3FF469B","title":"卡夫食品(上海)有限公司","lon":"121.40901","lat":"31.16331","category":"263","category_name":"公司","address":"漕宝路440"},{"poiid":"B2094655D36CA7FF4993","title":"虹漕南路漕宝路","lon":"121.41267","lat":"31.16253","category":"38","category_name":"公交车站","address":""},{"poiid":"B2094752D76BA1FF459C","title":"上海虹桥火车站","lon":"121.408493","lat":"31.163864","category":"500","category_name":"未知分类","address":null},{"poiid":"B2094757D168A4F8499D","title":"虹梅派出所","lon":"121.411784586","lat":"31.1651161584","category":"609","category_name":"警察局","address":"上海市徐汇区虹漕路7号"},{"poiid":"B2094757D06BA0F9449E","title":"宏亮食艺坊","lon":"121.407021","lat":"31.159352","category":"76","category_name":"上海菜","address":"徐汇区桂平路295号(漕宝路钦州南路间)"},{"poiid":"B2094757D16AA7FE4798","title":"漕宝路440号卡莎布兰卡","lon":"121.41002655","lat":"31.163717269","category":"500","category_name":"未知分类","address":"上海漕宝路440号"},{"poiid":"B2094757D468A5FD419D","title":"新绿色餐厅","lon":"121.413418054","lat":"31.164367793","category":"68","category_name":"快餐厅","address":"徐汇区漕宝路250号(近苍梧路)"},{"poiid":"B2094757D069ABF4489E","title":"华东理工科技园G7软件基地","lon":"121.40951758","lat":"31.165449164","category":"500","category_name":"未知分类","address":"上海市徐汇区桂箐路7号"},{"poiid":"B2094757D06BA6FC4993","title":"中国科学院","lon":"121.407004","lat":"31.161934","category":"671","category_name":"高校中心点","address":"上海漕宝路500号"},{"poiid":"B2094757D66DA6FD4093","title":"天合亚太有限公司","lon":"121.410465","lat":"31.163286","category":"263","category_name":"公司","address":"上海虹漕路456号漕河工业园区"},{"poiid":"B2094654DA65A5FA499A","title":"聚科生物园区","lon":"121.414","lat":"31.1679","category":"45","category_name":"产业园区","address":"龙吴路2115号"},{"poiid":"B2094757D06AA1F9469C","title":"地球上","lon":"121.40505194","lat":"31.163069256","category":"500","category_name":"未知分类","address":"上海地球上"},{"poiid":"B2094757D065AAF8459E","title":"太保田林数据中心","lon":"121.4074","lat":"31.168261","category":"500","category_name":"未知分类","address":"上海田林路201号"},{"poiid":"B2094757D06BA5FE429E","title":"城市超市(久光店)","lon":"121.41229385","lat":"31.161905381","category":"118","category_name":"超级市场","address":"上海静安区南京西路1618号"},{"poiid":"B2094757D66BA3FE449A","title":"酷乐线下主题店 Cool Life","lon":"121.411157","lat":"31.169228","category":"94","category_name":"西餐厅","address":"徐汇区田林路140号越界创意园区15D(近苍梧路)"},{"poiid":"B2094655D26FA1FF479F","title":"装饰名品展示中心","lon":"121.4132","lat":"31.16392","category":"183","category_name":"展览馆","address":"漕宝路300号"},{"poiid":"B2094757D165A7FE439E","title":"邮政储蓄漕河泾支局","lon":"121.408952","lat":"31.163991","category":"500","category_name":"未知分类","address":"上海漕宝路389号"}]