[{"poiid":"B2094654DA6AA3FE479D","title":"上海浦东游泳馆","lon":"121.50572","lat":"31.18856","category":"231","category_name":"游泳馆","address":"浦东新区浦东南路3669号"},{"poiid":"B2094757D06FA7FA4093","title":"浦东游泳馆新羽毛球馆","lon":"121.505721806","lat":"31.1885572023","category":"220","category_name":"运动场所","address":"浦东新区浦东南路3669号浦东游泳馆南门内(近沂林路)"},{"poiid":"B2094757D66FA6FB419F","title":"高科西路地铁站","lon":"121.509704","lat":"31.185786","category":"36","category_name":"地铁站","address":"上海轨道交通 六号线 七号线 轨交高科西路站 6 7"},{"poiid":"B2094757D168AAF4469C","title":"上海世博园","lon":"121.506916","lat":"31.193412","category":"500","category_name":"未知分类","address":"中国上海"},{"poiid":"B2094757D468AAFE419C","title":"蜀府 世博店","lon":"121.50602","lat":"31.19398","category":"71","category_name":"四川菜","address":"浦东新区世博大道1200号梅赛德斯奔驰中心6楼"},{"poiid":"B2094757D06FA7F44493","title":"浦东新区社会保险事业管理中心","lon":"121.50377231","lat":"31.185200481","category":"260","category_name":"其他","address":"上海浦东南路浦东南路3993号"},{"poiid":"B2094757D069A3FB449F","title":"上海东方尚博创意产业园","lon":"121.51148986","lat":"31.189821243","category":"45","category_name":"产业园区","address":"浦东新区东方路3539号(近地铁7号线高科西路站)"},{"poiid":"B2094655D26BA2F54492","title":"浦东南路华丰路","lon":"121.50691","lat":"31.19281","category":"38","category_name":"公交车站","address":""},{"poiid":"B2094757D069A6FB4698","title":"汉庭快捷浦东南路店(原世博村店)","lon":"121.50672","lat":"31.19234","category":"217","category_name":"旅馆招待所","address":"上海浦东新区浦东南路3500号(近华丰路)  "},{"poiid":"B2094654DA6AA3F9439C","title":"世博大厦","lon":"121.50595","lat":"31.1911","category":"46","category_name":"楼宇","address":"上海浦东南路3588号"},{"poiid":"B2094757D065A0FB499D","title":"丰华园","lon":"121.51013573","lat":"31.188650414","category":"500","category_name":"未知分类","address":"上海市浦东新区东方路"},{"poiid":"B2094757D068ABFF499D","title":"客家小厨 临沂路店","lon":"121.51342","lat":"31.19523","category":"72","category_name":"广东菜","address":"浦东新区临沂路213号(近南码头路)"},{"poiid":"B2094654DB65A7FA4298","title":"格林豪泰上海世博园酒店","lon":"121.50691","lat":"31.19341","category":"216","category_name":"经济型连锁酒店","address":"上海市浦东新区浦东南路3500号(近南码头路)"},{"poiid":"B2094654DA6AA3FE4599","title":"宏博坊海鲜大酒楼","lon":"121.50926","lat":"31.18887","category":"88","category_name":"海鲜酒楼","address":"浦东新区东方路3641号(近临沂路)"},{"poiid":"B2094757D068A7FF4098","title":"一阳轩(高科西路店)","lon":"121.50404073","lat":"31.184218214","category":"72","category_name":"广东菜","address":"浦东新区世博园区高科西路551号6楼(近云莲路)"},{"poiid":"B2094654DA68A6FA4993","title":"浦东长途汽车客运总站","lon":"121.50264","lat":"31.18449","category":"35","category_name":"长途汽车站","address":"浦东新区浦东南路3843号(近莲南路)"},{"poiid":"B2094757D069A3FF459A","title":"临沂公园","lon":"121.50754","lat":"31.18913","category":"196","category_name":"公园","address":"浦东新区东方路3683号(近浦东南路)"},{"poiid":"B2094753D46CA6F4459C","title":"梅赛德斯奔驰文化中心","lon":"121.507537","lat":"31.193929","category":"500","category_name":"未知分类","address":"上海市 上海世博园"},{"poiid":"B2094655D26FA7FB4299","title":"港机新村","lon":"121.50813","lat":"31.191181","category":"47","category_name":"住宅区","address":"上海浦东南路东方路口"},{"poiid":"B2094757D06FA4FB4492","title":"上海世博会事务协调局","lon":"121.50553894","lat":"31.191095352","category":"46","category_name":"楼宇","address":"上海浦东南路3588号"},{"poiid":"B2094757D06FA5F54299","title":"临沂五村","lon":"121.510414","lat":"31.190658","category":"47","category_name":"住宅区","address":"临沂路381弄1号-29号"},{"poiid":"B2094654DA6AA3FE499E","title":"上海乔家栅小吃世界No.10","lon":"121.50607","lat":"31.19061","category":"68","category_name":"快餐厅","address":"浦东新区浦东南路3633号(东方路口)"},{"poiid":"B2094655D26BA3FB449E","title":"久斯台球天地","lon":"121.50573","lat":"31.18856","category":"171","category_name":"台球厅","address":"浦东新区浦东南路3669号浦东游泳馆2楼(近东方路)"},{"poiid":"B2094750D26EA2FA4093","title":"大悦城","lon":"121.503593","lat":"31.190885","category":"500","category_name":"未知分类","address":"西藏南路曲阜路"},{"poiid":"B2094655D26DA7FA4993","title":"华南名苑","lon":"121.5041","lat":"31.18997","category":"47","category_name":"住宅区","address":"上海市浦东新区浦东南路3666号"},{"poiid":"B2094655D26AA7FA469C","title":"G&A健身俱乐部浦东店","lon":"121.50573","lat":"31.18856","category":"247","category_name":"餐饮美食","address":"浦东新区浦东南路3669号浦东游泳馆3楼"},{"poiid":"B2094753DA6FA5FC439C","title":"世博国际影城","lon":"121.505012","lat":"31.189611","category":"178","category_name":"电影院","address":"上海市 梅赛德斯奔驰"},{"poiid":"B2094655D268A1FD479B","title":"浦东南路3649弄小区","lon":"121.5057","lat":"31.18942","category":"47","category_name":"住宅区","address":"浦东南路3649弄"},{"poiid":"B2094655D36CA7FD419A","title":"华丰路","lon":"121.50477","lat":"31.18903","category":"38","category_name":"公交车站","address":""},{"poiid":"B2094757D168A7FF439B","title":"上海市浦东新区土地储备中心","lon":"121.50522073","lat":"31.190175447","category":"46","category_name":"楼宇","address":"上海市浦东新区浦东南路3618号"},{"poiid":"B2094655D26BA2F4499D","title":"浦三路","lon":"121.50555","lat":"31.1904","category":"38","category_name":"公交车站","address":""},{"poiid":"B2094655D268A1FD479A","title":"浦东南路3649弄小区(侧门)","lon":"121.50599","lat":"31.18932","category":"47","category_name":"住宅区","address":"浦东南路3649弄"},{"poiid":"B2094655D26AA0F54093","title":"跆博跆拳道健身俱乐部","lon":"121.50573","lat":"31.18856","category":"247","category_name":"餐饮美食","address":"浦东新区浦东南路3669号浦东游泳馆(浦东南路沂林路)"},{"poiid":"B2094655D26AA0F9479A","title":"地铁高科西路站","lon":"121.50979","lat":"31.18557","category":"36","category_name":"地铁站","address":""},{"poiid":"B2094655D36CA3F5489A","title":"中国2010上海世博会纪念品展示厅","lon":"121.50587","lat":"31.19149","category":"183","category_name":"展览馆","address":"上海世博园区"},{"poiid":"B2094654DA6AA3FE4798","title":"天意洲家园","lon":"121.50825","lat":"31.187544","category":"47","category_name":"住宅区","address":"上海市浦东新区栖山路1876弄"},{"poiid":"B2094753D665ABF44898","title":"浦南医院","lon":"121.504104","lat":"31.188503","category":"162","category_name":"医院","address":"上海市 浦东南路"},{"poiid":"B2094654DA6AA3FE499A","title":"新桥小区","lon":"121.50654","lat":"31.19043","category":"47","category_name":"住宅区","address":"南码头"},{"poiid":"B2094655D26FAAF9469D","title":"金缘坊天赋家园(边一门)","lon":"121.50524","lat":"31.19032","category":"47","category_name":"住宅区","address":"浦东南路3630"},{"poiid":"B2094757D068A3F4409A","title":"西藏南路隧道","lon":"121.50355886","lat":"31.184528366","category":"260","category_name":"其他","address":"上海西藏南路隧道"},{"poiid":"B2094654DB64A3FF449D","title":"沁一春","lon":"121.50617","lat":"31.19082","category":"65","category_name":"咖啡厅","address":"浦东新区浦东南路3631号(近东方路)"},{"poiid":"B2094655D36CA7FD419B","title":"华丰路临沂路","lon":"121.50745","lat":"31.19218","category":"38","category_name":"公交车站","address":"上海市浦东新区华丰路"},{"poiid":"B2094750D56DA1F44698","title":"浦南医院","lon":"121.510131","lat":"31.192165","category":"162","category_name":"医院","address":"南码头路519号"},{"poiid":"B2094757D169AAFE479C","title":"私语Da1sy＇s Home","lon":"121.50499573","lat":"31.18987144","category":"500","category_name":"未知分类","address":null},{"poiid":"B2094757D165A0FD439E","title":"克丽缇娜(浦东南路店)","lon":"121.50509","lat":"31.1893","category":"148","category_name":"美容美发店","address":"浦东新区浦东南路3650号(近东方路)"},{"poiid":"B2094655D36CA3FD4599","title":"规划展厅","lon":"121.50554","lat":"31.19109","category":"183","category_name":"展览馆","address":"浦东南路3588号世博大厦1层"},{"poiid":"B2094753D56BA2FA4998","title":"鱼羊老镇浦东总店","lon":"121.506294","lat":"31.188165","category":"500","category_name":"未知分类","address":"上海市 高科西路611号东明路"},{"poiid":"B2094655D26BA4F4439D","title":"纪念品展示厅","lon":"121.50554","lat":"31.1911","category":"183","category_name":"展览馆","address":"浦东南路3588号世博大厦1层"},{"poiid":"B2094654DA6AA3FE4793","title":"浦东新区游泳学校","lon":"121.50573","lat":"31.18856","category":"253","category_name":"校园生活","address":"浦东南路3669"},{"poiid":"B2094655D26FAAF94692","title":"金缘坊天赋家园(边二门)","lon":"121.50563","lat":"31.19075","category":"47","category_name":"住宅区","address":"浦东南路3610"},{"poiid":"B2094654DA6AA3FE479D","title":"上海浦东游泳馆","lon":"121.50572","lat":"31.18856","category":"231","category_name":"游泳馆","address":"浦东新区浦东南路3669号"},{"poiid":"B2094757D06FA7FA4093","title":"浦东游泳馆新羽毛球馆","lon":"121.505721806","lat":"31.1885572023","category":"220","category_name":"运动场所","address":"浦东新区浦东南路3669号浦东游泳馆南门内(近沂林路)"},{"poiid":"B2094757D66FA6FB419F","title":"高科西路地铁站","lon":"121.509704","lat":"31.185786","category":"36","category_name":"地铁站","address":"上海轨道交通 六号线 七号线 轨交高科西路站 6 7"},{"poiid":"B2094757D168AAF4469C","title":"上海世博园","lon":"121.506916","lat":"31.193412","category":"500","category_name":"未知分类","address":"中国上海"},{"poiid":"B2094757D468AAFE419C","title":"蜀府 世博店","lon":"121.50602","lat":"31.19398","category":"71","category_name":"四川菜","address":"浦东新区世博大道1200号梅赛德斯奔驰中心6楼"},{"poiid":"B2094757D06FA7F44493","title":"浦东新区社会保险事业管理中心","lon":"121.50377231","lat":"31.185200481","category":"260","category_name":"其他","address":"上海浦东南路浦东南路3993号"},{"poiid":"B2094757D069A3FB449F","title":"上海东方尚博创意产业园","lon":"121.51148986","lat":"31.189821243","category":"45","category_name":"产业园区","address":"浦东新区东方路3539号(近地铁7号线高科西路站)"},{"poiid":"B2094655D26BA2F54492","title":"浦东南路华丰路","lon":"121.50691","lat":"31.19281","category":"38","category_name":"公交车站","address":""},{"poiid":"B2094757D069A6FB4698","title":"汉庭快捷浦东南路店(原世博村店)","lon":"121.50672","lat":"31.19234","category":"217","category_name":"旅馆招待所","address":"上海浦东新区浦东南路3500号(近华丰路)  "},{"poiid":"B2094654DA6AA3F9439C","title":"世博大厦","lon":"121.50595","lat":"31.1911","category":"46","category_name":"楼宇","address":"上海浦东南路3588号"},{"poiid":"B2094757D065A0FB499D","title":"丰华园","lon":"121.51013573","lat":"31.188650414","category":"500","category_name":"未知分类","address":"上海市浦东新区东方路"},{"poiid":"B2094757D068ABFF499D","title":"客家小厨 临沂路店","lon":"121.51342","lat":"31.19523","category":"72","category_name":"广东菜","address":"浦东新区临沂路213号(近南码头路)"},{"poiid":"B2094654DB65A7FA4298","title":"格林豪泰上海世博园酒店","lon":"121.50691","lat":"31.19341","category":"216","category_name":"经济型连锁酒店","address":"上海市浦东新区浦东南路3500号(近南码头路)"},{"poiid":"B2094654DA6AA3FE4599","title":"宏博坊海鲜大酒楼","lon":"121.50926","lat":"31.18887","category":"88","category_name":"海鲜酒楼","address":"浦东新区东方路3641号(近临沂路)"},{"poiid":"B2094757D068A7FF4098","title":"一阳轩(高科西路店)","lon":"121.50404073","lat":"31.184218214","category":"72","category_name":"广东菜","address":"浦东新区世博园区高科西路551号6楼(近云莲路)"},{"poiid":"B2094654DA68A6FA4993","title":"浦东长途汽车客运总站","lon":"121.50264","lat":"31.18449","category":"35","category_name":"长途汽车站","address":"浦东新区浦东南路3843号(近莲南路)"},{"poiid":"B2094757D069A3FF459A","title":"临沂公园","lon":"121.50754","lat":"31.18913","category":"196","category_name":"公园","address":"浦东新区东方路3683号(近浦东南路)"},{"poiid":"B2094753D46CA6F4459C","title":"梅赛德斯奔驰文化中心","lon":"121.507537","lat":"31.193929","category":"500","category_name":"未知分类","address":"上海市 上海世博园"},{"poiid":"B2094655D26FA7FB4299","title":"港机新村","lon":"121.50813","lat":"31.191181","category":"47","category_name":"住宅区","address":"上海浦东南路东方路口"},{"poiid":"B2094757D06FA4FB4492","title":"上海世博会事务协调局","lon":"121.50553894","lat":"31.191095352","category":"46","category_name":"楼宇","address":"上海浦东南路3588号"},{"poiid":"B2094757D06FA5F54299","title":"临沂五村","lon":"121.510414","lat":"31.190658","category":"47","category_name":"住宅区","address":"临沂路381弄1号-29号"},{"poiid":"B2094654DA6AA3FE499E","title":"上海乔家栅小吃世界No.10","lon":"121.50607","lat":"31.19061","category":"68","category_name":"快餐厅","address":"浦东新区浦东南路3633号(东方路口)"},{"poiid":"B2094655D26BA3FB449E","title":"久斯台球天地","lon":"121.50573","lat":"31.18856","category":"171","category_name":"台球厅","address":"浦东新区浦东南路3669号浦东游泳馆2楼(近东方路)"},{"poiid":"B2094750D26EA2FA4093","title":"大悦城","lon":"121.503593","lat":"31.190885","category":"500","category_name":"未知分类","address":"西藏南路曲阜路"},{"poiid":"B2094655D26DA7FA4993","title":"华南名苑","lon":"121.5041","lat":"31.18997","category":"47","category_name":"住宅区","address":"上海市浦东新区浦东南路3666号"},{"poiid":"B2094655D26AA7FA469C","title":"G&A健身俱乐部浦东店","lon":"121.50573","lat":"31.18856","category":"247","category_name":"餐饮美食","address":"浦东新区浦东南路3669号浦东游泳馆3楼"},{"poiid":"B2094753DA6FA5FC439C","title":"世博国际影城","lon":"121.505012","lat":"31.189611","category":"178","category_name":"电影院","address":"上海市 梅赛德斯奔驰"},{"poiid":"B2094655D268A1FD479B","title":"浦东南路3649弄小区","lon":"121.5057","lat":"31.18942","category":"47","category_name":"住宅区","address":"浦东南路3649弄"},{"poiid":"B2094655D36CA7FD419A","title":"华丰路","lon":"121.50477","lat":"31.18903","category":"38","category_name":"公交车站","address":""},{"poiid":"B2094757D168A7FF439B","title":"上海市浦东新区土地储备中心","lon":"121.50522073","lat":"31.190175447","category":"46","category_name":"楼宇","address":"上海市浦东新区浦东南路3618号"},{"poiid":"B2094655D26BA2F4499D","title":"浦三路","lon":"121.50555","lat":"31.1904","category":"38","category_name":"公交车站","address":""},{"poiid":"B2094655D268A1FD479A","title":"浦东南路3649弄小区(侧门)","lon":"121.50599","lat":"31.18932","category":"47","category_name":"住宅区","address":"浦东南路3649弄"},{"poiid":"B2094655D26AA0F54093","title":"跆博跆拳道健身俱乐部","lon":"121.50573","lat":"31.18856","category":"247","category_name":"餐饮美食","address":"浦东新区浦东南路3669号浦东游泳馆(浦东南路沂林路)"},{"poiid":"B2094655D26AA0F9479A","title":"地铁高科西路站","lon":"121.50979","lat":"31.18557","category":"36","category_name":"地铁站","address":""},{"poiid":"B2094655D36CA3F5489A","title":"中国2010上海世博会纪念品展示厅","lon":"121.50587","lat":"31.19149","category":"183","category_name":"展览馆","address":"上海世博园区"},{"poiid":"B2094654DA6AA3FE4798","title":"天意洲家园","lon":"121.50825","lat":"31.187544","category":"47","category_name":"住宅区","address":"上海市浦东新区栖山路1876弄"},{"poiid":"B2094753D665ABF44898","title":"浦南医院","lon":"121.504104","lat":"31.188503","category":"162","category_name":"医院","address":"上海市 浦东南路"},{"poiid":"B2094654DA6AA3FE499A","title":"新桥小区","lon":"121.50654","lat":"31.19043","category":"47","category_name":"住宅区","address":"南码头"},{"poiid":"B2094655D26FAAF9469D","title":"金缘坊天赋家园(边一门)","lon":"121.50524","lat":"31.19032","category":"47","category_name":"住宅区","address":"浦东南路3630"},{"poiid":"B2094757D068A3F4409A","title":"西藏南路隧道","lon":"121.50355886","lat":"31.184528366","category":"260","category_name":"其他","address":"上海西藏南路隧道"},{"poiid":"B2094654DB64A3FF449D","title":"沁一春","lon":"121.50617","lat":"31.19082","category":"65","category_name":"咖啡厅","address":"浦东新区浦东南路3631号(近东方路)"},{"poiid":"B2094655D36CA7FD419B","title":"华丰路临沂路","lon":"121.50745","lat":"31.19218","category":"38","category_name":"公交车站","address":"上海市浦东新区华丰路"},{"poiid":"B2094750D56DA1F44698","title":"浦南医院","lon":"121.510131","lat":"31.192165","category":"162","category_name":"医院","address":"南码头路519号"},{"poiid":"B2094757D169AAFE479C","title":"私语Da1sy＇s Home","lon":"121.50499573","lat":"31.18987144","category":"500","category_name":"未知分类","address":null},{"poiid":"B2094757D165A0FD439E","title":"克丽缇娜(浦东南路店)","lon":"121.50509","lat":"31.1893","category":"148","category_name":"美容美发店","address":"浦东新区浦东南路3650号(近东方路)"},{"poiid":"B2094655D36CA3FD4599","title":"规划展厅","lon":"121.50554","lat":"31.19109","category":"183","category_name":"展览馆","address":"浦东南路3588号世博大厦1层"},{"poiid":"B2094753D56BA2FA4998","title":"鱼羊老镇浦东总店","lon":"121.506294","lat":"31.188165","category":"500","category_name":"未知分类","address":"上海市 高科西路611号东明路"},{"poiid":"B2094655D26BA4F4439D","title":"纪念品展示厅","lon":"121.50554","lat":"31.1911","category":"183","category_name":"展览馆","address":"浦东南路3588号世博大厦1层"},{"poiid":"B2094654DA6AA3FE4793","title":"浦东新区游泳学校","lon":"121.50573","lat":"31.18856","category":"253","category_name":"校园生活","address":"浦东南路3669"},{"poiid":"B2094655D26FAAF94692","title":"金缘坊天赋家园(边二门)","lon":"121.50563","lat":"31.19075","category":"47","category_name":"住宅区","address":"浦东南路3610"},{"poiid":"B2094654DA6AA3FE479D","title":"上海浦东游泳馆","lon":"121.50572","lat":"31.18856","category":"231","category_name":"游泳馆","address":"浦东新区浦东南路3669号"},{"poiid":"B2094757D06FA7FA4093","title":"浦东游泳馆新羽毛球馆","lon":"121.505721806","lat":"31.1885572023","category":"220","category_name":"运动场所","address":"浦东新区浦东南路3669号浦东游泳馆南门内(近沂林路)"},{"poiid":"B2094757D66FA6FB419F","title":"高科西路地铁站","lon":"121.509704","lat":"31.185786","category":"36","category_name":"地铁站","address":"上海轨道交通 六号线 七号线 轨交高科西路站 6 7"},{"poiid":"B2094757D168AAF4469C","title":"上海世博园","lon":"121.506916","lat":"31.193412","category":"500","category_name":"未知分类","address":"中国上海"},{"poiid":"B2094757D468AAFE419C","title":"蜀府 世博店","lon":"121.50602","lat":"31.19398","category":"71","category_name":"四川菜","address":"浦东新区世博大道1200号梅赛德斯奔驰中心6楼"},{"poiid":"B2094757D06FA7F44493","title":"浦东新区社会保险事业管理中心","lon":"121.50377231","lat":"31.185200481","category":"260","category_name":"其他","address":"上海浦东南路浦东南路3993号"},{"poiid":"B2094757D069A3FB449F","title":"上海东方尚博创意产业园","lon":"121.51148986","lat":"31.189821243","category":"45","category_name":"产业园区","address":"浦东新区东方路3539号(近地铁7号线高科西路站)"},{"poiid":"B2094655D26BA2F54492","title":"浦东南路华丰路","lon":"121.50691","lat":"31.19281","category":"38","category_name":"公交车站","address":""},{"poiid":"B2094757D069A6FB4698","title":"汉庭快捷浦东南路店(原世博村店)","lon":"121.50672","lat":"31.19234","category":"217","category_name":"旅馆招待所","address":"上海浦东新区浦东南路3500号(近华丰路)  "},{"poiid":"B2094654DA6AA3F9439C","title":"世博大厦","lon":"121.50595","lat":"31.1911","category":"46","category_name":"楼宇","address":"上海浦东南路3588号"},{"poiid":"B2094757D065A0FB499D","title":"丰华园","lon":"121.51013573","lat":"31.188650414","category":"500","category_name":"未知分类","address":"上海市浦东新区东方路"},{"poiid":"B2094757D068ABFF499D","title":"客家小厨 临沂路店","lon":"121.51342","lat":"31.19523","category":"72","category_name":"广东菜","address":"浦东新区临沂路213号(近南码头路)"},{"poiid":"B2094654DB65A7FA4298","title":"格林豪泰上海世博园酒店","lon":"121.50691","lat":"31.19341","category":"216","category_name":"经济型连锁酒店","address":"上海市浦东新区浦东南路3500号(近南码头路)"},{"poiid":"B2094654DA6AA3FE4599","title":"宏博坊海鲜大酒楼","lon":"121.50926","lat":"31.18887","category":"88","category_name":"海鲜酒楼","address":"浦东新区东方路3641号(近临沂路)"},{"poiid":"B2094757D068A7FF4098","title":"一阳轩(高科西路店)","lon":"121.50404073","lat":"31.184218214","category":"72","category_name":"广东菜","address":"浦东新区世博园区高科西路551号6楼(近云莲路)"},{"poiid":"B2094654DA68A6FA4993","title":"浦东长途汽车客运总站","lon":"121.50264","lat":"31.18449","category":"35","category_name":"长途汽车站","address":"浦东新区浦东南路3843号(近莲南路)"},{"poiid":"B2094757D069A3FF459A","title":"临沂公园","lon":"121.50754","lat":"31.18913","category":"196","category_name":"公园","address":"浦东新区东方路3683号(近浦东南路)"},{"poiid":"B2094753D46CA6F4459C","title":"梅赛德斯奔驰文化中心","lon":"121.507537","lat":"31.193929","category":"500","category_name":"未知分类","address":"上海市 上海世博园"},{"poiid":"B2094655D26FA7FB4299","title":"港机新村","lon":"121.50813","lat":"31.191181","category":"47","category_name":"住宅区","address":"上海浦东南路东方路口"},{"poiid":"B2094757D06FA4FB4492","title":"上海世博会事务协调局","lon":"121.50553894","lat":"31.191095352","category":"46","category_name":"楼宇","address":"上海浦东南路3588号"},{"poiid":"B2094757D06FA5F54299","title":"临沂五村","lon":"121.510414","lat":"31.190658","category":"47","category_name":"住宅区","address":"临沂路381弄1号-29号"},{"poiid":"B2094654DA6AA3FE499E","title":"上海乔家栅小吃世界No.10","lon":"121.50607","lat":"31.19061","category":"68","category_name":"快餐厅","address":"浦东新区浦东南路3633号(东方路口)"},{"poiid":"B2094655D26BA3FB449E","title":"久斯台球天地","lon":"121.50573","lat":"31.18856","category":"171","category_name":"台球厅","address":"浦东新区浦东南路3669号浦东游泳馆2楼(近东方路)"},{"poiid":"B2094750D26EA2FA4093","title":"大悦城","lon":"121.503593","lat":"31.190885","category":"500","category_name":"未知分类","address":"西藏南路曲阜路"},{"poiid":"B2094655D26DA7FA4993","title":"华南名苑","lon":"121.5041","lat":"31.18997","category":"47","category_name":"住宅区","address":"上海市浦东新区浦东南路3666号"},{"poiid":"B2094655D26AA7FA469C","title":"G&A健身俱乐部浦东店","lon":"121.50573","lat":"31.18856","category":"247","category_name":"餐饮美食","address":"浦东新区浦东南路3669号浦东游泳馆3楼"},{"poiid":"B2094753DA6FA5FC439C","title":"世博国际影城","lon":"121.505012","lat":"31.189611","category":"178","category_name":"电影院","address":"上海市 梅赛德斯奔驰"},{"poiid":"B2094655D268A1FD479B","title":"浦东南路3649弄小区","lon":"121.5057","lat":"31.18942","category":"47","category_name":"住宅区","address":"浦东南路3649弄"},{"poiid":"B2094655D36CA7FD419A","title":"华丰路","lon":"121.50477","lat":"31.18903","category":"38","category_name":"公交车站","address":""},{"poiid":"B2094757D168A7FF439B","title":"上海市浦东新区土地储备中心","lon":"121.50522073","lat":"31.190175447","category":"46","category_name":"楼宇","address":"上海市浦东新区浦东南路3618号"},{"poiid":"B2094655D26BA2F4499D","title":"浦三路","lon":"121.50555","lat":"31.1904","category":"38","category_name":"公交车站","address":""},{"poiid":"B2094655D268A1FD479A","title":"浦东南路3649弄小区(侧门)","lon":"121.50599","lat":"31.18932","category":"47","category_name":"住宅区","address":"浦东南路3649弄"},{"poiid":"B2094655D26AA0F54093","title":"跆博跆拳道健身俱乐部","lon":"121.50573","lat":"31.18856","category":"247","category_name":"餐饮美食","address":"浦东新区浦东南路3669号浦东游泳馆(浦东南路沂林路)"},{"poiid":"B2094655D26AA0F9479A","title":"地铁高科西路站","lon":"121.50979","lat":"31.18557","category":"36","category_name":"地铁站","address":""},{"poiid":"B2094655D36CA3F5489A","title":"中国2010上海世博会纪念品展示厅","lon":"121.50587","lat":"31.19149","category":"183","category_name":"展览馆","address":"上海世博园区"},{"poiid":"B2094654DA6AA3FE4798","title":"天意洲家园","lon":"121.50825","lat":"31.187544","category":"47","category_name":"住宅区","address":"上海市浦东新区栖山路1876弄"},{"poiid":"B2094753D665ABF44898","title":"浦南医院","lon":"121.504104","lat":"31.188503","category":"162","category_name":"医院","address":"上海市 浦东南路"},{"poiid":"B2094654DA6AA3FE499A","title":"新桥小区","lon":"121.50654","lat":"31.19043","category":"47","category_name":"住宅区","address":"南码头"},{"poiid":"B2094655D26FAAF9469D","title":"金缘坊天赋家园(边一门)","lon":"121.50524","lat":"31.19032","category":"47","category_name":"住宅区","address":"浦东南路3630"},{"poiid":"B2094757D068A3F4409A","title":"西藏南路隧道","lon":"121.50355886","lat":"31.184528366","category":"260","category_name":"其他","address":"上海西藏南路隧道"},{"poiid":"B2094654DB64A3FF449D","title":"沁一春","lon":"121.50617","lat":"31.19082","category":"65","category_name":"咖啡厅","address":"浦东新区浦东南路3631号(近东方路)"},{"poiid":"B2094655D36CA7FD419B","title":"华丰路临沂路","lon":"121.50745","lat":"31.19218","category":"38","category_name":"公交车站","address":"上海市浦东新区华丰路"},{"poiid":"B2094750D56DA1F44698","title":"浦南医院","lon":"121.510131","lat":"31.192165","category":"162","category_name":"医院","address":"南码头路519号"},{"poiid":"B2094757D169AAFE479C","title":"私语Da1sy＇s Home","lon":"121.50499573","lat":"31.18987144","category":"500","category_name":"未知分类","address":null},{"poiid":"B2094757D165A0FD439E","title":"克丽缇娜(浦东南路店)","lon":"121.50509","lat":"31.1893","category":"148","category_name":"美容美发店","address":"浦东新区浦东南路3650号(近东方路)"},{"poiid":"B2094655D36CA3FD4599","title":"规划展厅","lon":"121.50554","lat":"31.19109","category":"183","category_name":"展览馆","address":"浦东南路3588号世博大厦1层"},{"poiid":"B2094753D56BA2FA4998","title":"鱼羊老镇浦东总店","lon":"121.506294","lat":"31.188165","category":"500","category_name":"未知分类","address":"上海市 高科西路611号东明路"},{"poiid":"B2094655D26BA4F4439D","title":"纪念品展示厅","lon":"121.50554","lat":"31.1911","category":"183","category_name":"展览馆","address":"浦东南路3588号世博大厦1层"},{"poiid":"B2094654DA6AA3FE4793","title":"浦东新区游泳学校","lon":"121.50573","lat":"31.18856","category":"253","category_name":"校园生活","address":"浦东南路3669"},{"poiid":"B2094655D26FAAF94692","title":"金缘坊天赋家园(边二门)","lon":"121.50563","lat":"31.19075","category":"47","category_name":"住宅区","address":"浦东南路3610"},{"poiid":"B2094654DA6AA3FE479D","title":"上海浦东游泳馆","lon":"121.50572","lat":"31.18856","category":"231","category_name":"游泳馆","address":"浦东新区浦东南路3669号"},{"poiid":"B2094757D06FA7FA4093","title":"浦东游泳馆新羽毛球馆","lon":"121.505721806","lat":"31.1885572023","category":"220","category_name":"运动场所","address":"浦东新区浦东南路3669号浦东游泳馆南门内(近沂林路)"},{"poiid":"B2094757D66FA6FB419F","title":"高科西路地铁站","lon":"121.509704","lat":"31.185786","category":"36","category_name":"地铁站","address":"上海轨道交通 六号线 七号线 轨交高科西路站 6 7"},{"poiid":"B2094757D168AAF4469C","title":"上海世博园","lon":"121.506916","lat":"31.193412","category":"500","category_name":"未知分类","address":"中国上海"},{"poiid":"B2094757D468AAFE419C","title":"蜀府 世博店","lon":"121.50602","lat":"31.19398","category":"71","category_name":"四川菜","address":"浦东新区世博大道1200号梅赛德斯奔驰中心6楼"},{"poiid":"B2094757D06FA7F44493","title":"浦东新区社会保险事业管理中心","lon":"121.50377231","lat":"31.185200481","category":"260","category_name":"其他","address":"上海浦东南路浦东南路3993号"},{"poiid":"B2094757D069A3FB449F","title":"上海东方尚博创意产业园","lon":"121.51148986","lat":"31.189821243","category":"45","category_name":"产业园区","address":"浦东新区东方路3539号(近地铁7号线高科西路站)"},{"poiid":"B2094655D26BA2F54492","title":"浦东南路华丰路","lon":"121.50691","lat":"31.19281","category":"38","category_name":"公交车站","address":""},{"poiid":"B2094757D069A6FB4698","title":"汉庭快捷浦东南路店(原世博村店)","lon":"121.50672","lat":"31.19234","category":"217","category_name":"旅馆招待所","address":"上海浦东新区浦东南路3500号(近华丰路)  "},{"poiid":"B2094654DA6AA3F9439C","title":"世博大厦","lon":"121.50595","lat":"31.1911","category":"46","category_name":"楼宇","address":"上海浦东南路3588号"},{"poiid":"B2094757D065A0FB499D","title":"丰华园","lon":"121.51013573","lat":"31.188650414","category":"500","category_name":"未知分类","address":"上海市浦东新区东方路"},{"poiid":"B2094757D068ABFF499D","title":"客家小厨 临沂路店","lon":"121.51342","lat":"31.19523","category":"72","category_name":"广东菜","address":"浦东新区临沂路213号(近南码头路)"},{"poiid":"B2094654DB65A7FA4298","title":"格林豪泰上海世博园酒店","lon":"121.50691","lat":"31.19341","category":"216","category_name":"经济型连锁酒店","address":"上海市浦东新区浦东南路3500号(近南码头路)"},{"poiid":"B2094654DA6AA3FE4599","title":"宏博坊海鲜大酒楼","lon":"121.50926","lat":"31.18887","category":"88","category_name":"海鲜酒楼","address":"浦东新区东方路3641号(近临沂路)"},{"poiid":"B2094757D068A7FF4098","title":"一阳轩(高科西路店)","lon":"121.50404073","lat":"31.184218214","category":"72","category_name":"广东菜","address":"浦东新区世博园区高科西路551号6楼(近云莲路)"},{"poiid":"B2094654DA68A6FA4993","title":"浦东长途汽车客运总站","lon":"121.50264","lat":"31.18449","category":"35","category_name":"长途汽车站","address":"浦东新区浦东南路3843号(近莲南路)"},{"poiid":"B2094757D069A3FF459A","title":"临沂公园","lon":"121.50754","lat":"31.18913","category":"196","category_name":"公园","address":"浦东新区东方路3683号(近浦东南路)"},{"poiid":"B2094753D46CA6F4459C","title":"梅赛德斯奔驰文化中心","lon":"121.507537","lat":"31.193929","category":"500","category_name":"未知分类","address":"上海市 上海世博园"},{"poiid":"B2094655D26FA7FB4299","title":"港机新村","lon":"121.50813","lat":"31.191181","category":"47","category_name":"住宅区","address":"上海浦东南路东方路口"},{"poiid":"B2094757D06FA4FB4492","title":"上海世博会事务协调局","lon":"121.50553894","lat":"31.191095352","category":"46","category_name":"楼宇","address":"上海浦东南路3588号"},{"poiid":"B2094757D06FA5F54299","title":"临沂五村","lon":"121.510414","lat":"31.190658","category":"47","category_name":"住宅区","address":"临沂路381弄1号-29号"},{"poiid":"B2094654DA6AA3FE499E","title":"上海乔家栅小吃世界No.10","lon":"121.50607","lat":"31.19061","category":"68","category_name":"快餐厅","address":"浦东新区浦东南路3633号(东方路口)"},{"poiid":"B2094655D26BA3FB449E","title":"久斯台球天地","lon":"121.50573","lat":"31.18856","category":"171","category_name":"台球厅","address":"浦东新区浦东南路3669号浦东游泳馆2楼(近东方路)"},{"poiid":"B2094750D26EA2FA4093","title":"大悦城","lon":"121.503593","lat":"31.190885","category":"500","category_name":"未知分类","address":"西藏南路曲阜路"},{"poiid":"B2094655D26DA7FA4993","title":"华南名苑","lon":"121.5041","lat":"31.18997","category":"47","category_name":"住宅区","address":"上海市浦东新区浦东南路3666号"},{"poiid":"B2094655D26AA7FA469C","title":"G&A健身俱乐部浦东店","lon":"121.50573","lat":"31.18856","category":"247","category_name":"餐饮美食","address":"浦东新区浦东南路3669号浦东游泳馆3楼"},{"poiid":"B2094753DA6FA5FC439C","title":"世博国际影城","lon":"121.505012","lat":"31.189611","category":"178","category_name":"电影院","address":"上海市 梅赛德斯奔驰"},{"poiid":"B2094655D268A1FD479B","title":"浦东南路3649弄小区","lon":"121.5057","lat":"31.18942","category":"47","category_name":"住宅区","address":"浦东南路3649弄"},{"poiid":"B2094655D36CA7FD419A","title":"华丰路","lon":"121.50477","lat":"31.18903","category":"38","category_name":"公交车站","address":""},{"poiid":"B2094757D168A7FF439B","title":"上海市浦东新区土地储备中心","lon":"121.50522073","lat":"31.190175447","category":"46","category_name":"楼宇","address":"上海市浦东新区浦东南路3618号"},{"poiid":"B2094655D26BA2F4499D","title":"浦三路","lon":"121.50555","lat":"31.1904","category":"38","category_name":"公交车站","address":""},{"poiid":"B2094655D268A1FD479A","title":"浦东南路3649弄小区(侧门)","lon":"121.50599","lat":"31.18932","category":"47","category_name":"住宅区","address":"浦东南路3649弄"},{"poiid":"B2094655D26AA0F54093","title":"跆博跆拳道健身俱乐部","lon":"121.50573","lat":"31.18856","category":"247","category_name":"餐饮美食","address":"浦东新区浦东南路3669号浦东游泳馆(浦东南路沂林路)"},{"poiid":"B2094655D26AA0F9479A","title":"地铁高科西路站","lon":"121.50979","lat":"31.18557","category":"36","category_name":"地铁站","address":""},{"poiid":"B2094655D36CA3F5489A","title":"中国2010上海世博会纪念品展示厅","lon":"121.50587","lat":"31.19149","category":"183","category_name":"展览馆","address":"上海世博园区"},{"poiid":"B2094654DA6AA3FE4798","title":"天意洲家园","lon":"121.50825","lat":"31.187544","category":"47","category_name":"住宅区","address":"上海市浦东新区栖山路1876弄"},{"poiid":"B2094753D665ABF44898","title":"浦南医院","lon":"121.504104","lat":"31.188503","category":"162","category_name":"医院","address":"上海市 浦东南路"},{"poiid":"B2094654DA6AA3FE499A","title":"新桥小区","lon":"121.50654","lat":"31.19043","category":"47","category_name":"住宅区","address":"南码头"},{"poiid":"B2094655D26FAAF9469D","title":"金缘坊天赋家园(边一门)","lon":"121.50524","lat":"31.19032","category":"47","category_name":"住宅区","address":"浦东南路3630"},{"poiid":"B2094757D068A3F4409A","title":"西藏南路隧道","lon":"121.50355886","lat":"31.184528366","category":"260","category_name":"其他","address":"上海西藏南路隧道"},{"poiid":"B2094654DB64A3FF449D","title":"沁一春","lon":"121.50617","lat":"31.19082","category":"65","category_name":"咖啡厅","address":"浦东新区浦东南路3631号(近东方路)"},{"poiid":"B2094655D36CA7FD419B","title":"华丰路临沂路","lon":"121.50745","lat":"31.19218","category":"38","category_name":"公交车站","address":"上海市浦东新区华丰路"},{"poiid":"B2094750D56DA1F44698","title":"浦南医院","lon":"121.510131","lat":"31.192165","category":"162","category_name":"医院","address":"南码头路519号"},{"poiid":"B2094757D169AAFE479C","title":"私语Da1sy＇s Home","lon":"121.50499573","lat":"31.18987144","category":"500","category_name":"未知分类","address":null},{"poiid":"B2094757D165A0FD439E","title":"克丽缇娜(浦东南路店)","lon":"121.50509","lat":"31.1893","category":"148","category_name":"美容美发店","address":"浦东新区浦东南路3650号(近东方路)"},{"poiid":"B2094655D36CA3FD4599","title":"规划展厅","lon":"121.50554","lat":"31.19109","category":"183","category_name":"展览馆","address":"浦东南路3588号世博大厦1层"},{"poiid":"B2094753D56BA2FA4998","title":"鱼羊老镇浦东总店","lon":"121.506294","lat":"31.188165","category":"500","category_name":"未知分类","address":"上海市 高科西路611号东明路"},{"poiid":"B2094655D26BA4F4439D","title":"纪念品展示厅","lon":"121.50554","lat":"31.1911","category":"183","category_name":"展览馆","address":"浦东南路3588号世博大厦1层"},{"poiid":"B2094654DA6AA3FE4793","title":"浦东新区游泳学校","lon":"121.50573","lat":"31.18856","category":"253","category_name":"校园生活","address":"浦东南路3669"},{"poiid":"B2094655D26FAAF94692","title":"金缘坊天赋家园(边二门)","lon":"121.50563","lat":"31.19075","category":"47","category_name":"住宅区","address":"浦东南路3610"}]