[{"poiid":"B2094757D06AA3FA469C","title":"旭龙鱼头王","lon":"121.356894586","lat":"31.1717832886","category":"88","category_name":"海鲜酒楼","address":"闵行区航东路271号(近航北路)"},{"poiid":"B2094757D06FA3FD4493","title":"航中路地铁站","lon":"121.35431257408618","lat":"31.165802804243846","category":"36","category_name":"地铁站","address":"上海轨道交通 十号线 轨交航中路站 10"},{"poiid":"B2094757D068A3F9499A","title":"龙通生活广场","lon":"121.35712036","lat":"31.166309951","category":"217","category_name":"旅馆招待所","address":"闵行区吴中路2115号龙通生活广场内(近航东路)"},{"poiid":"B2094654D56AA3F9429B","title":"航华新村(航新路)","lon":"121.35004","lat":"31.16749","category":"47","category_name":"住宅区","address":"航新路50号"},{"poiid":"B2094757D16CA3FF4693","title":"虹桥机场2号航站楼31号登机口","lon":"121.348781","lat":"31.166038","category":"21","category_name":"飞机场","address":"上海虹桥机场T2"},{"poiid":"B2094655D26EA4FD409E","title":"龙通生活广场龙宴楼","lon":"121.35704","lat":"31.16625","category":"247","category_name":"餐饮美食","address":"上海闵行区吴中路2115号龙通生活广场(近航东路)  "},{"poiid":"B2094757D06FA7FA4499","title":"麦当劳 航北路店 McDonald's","lon":"121.349222054","lat":"31.171051793","category":"68","category_name":"快餐厅","address":"闵行区航北路647号晋豪生活广场1楼东侧(近航西路)"},{"poiid":"B2094655D26EA0F4449A","title":"新明星花园","lon":"121.35749","lat":"31.17371","category":"47","category_name":"住宅区","address":"航北路180弄1-66号"},{"poiid":"B2094757D06AA3FC489C","title":"航華","lon":"121.35209113","lat":"31.171603721","category":"249","category_name":"购物服务","address":"航北路234号(近航中路)"},{"poiid":"B2094757D06AA2F84199","title":"得悦捞","lon":"121.355263054","lat":"31.173794793","category":"86","category_name":"火锅店","address":"闵行区航东路358号(近航北路)"},{"poiid":"B2094654D56AA0FC449B","title":"航华二村嘉丰公寓","lon":"121.35091","lat":"31.171717","category":"47","category_name":"住宅区","address":"航北路456号"},{"poiid":"B2094655D26BA2FC489D","title":"吴中路航中路","lon":"121.35786","lat":"31.16705","category":"38","category_name":"公交车站","address":""},{"poiid":"B2094757D068A0FB4699","title":"航华四村","lon":"121.35918","lat":"31.17104","category":"252","category_name":"楼宇机构","address":"上海市闵行区航北路"},{"poiid":"B2094654D56AA2F54999","title":"中国东方航空住宅区","lon":"121.35338","lat":"31.17019","category":"47","category_name":"住宅区","address":"航华三村1-39号"},{"poiid":"B2094757D068AAF9469F","title":"崔记牛肉拉面馆","lon":"121.35448","lat":"31.17271","category":"68","category_name":"快餐厅","address":"闵行区航北路416号(近航中路)"},{"poiid":"B2094654DB6AA2FC4398","title":"上岛咖啡(航北店)","lon":"121.35535","lat":"31.1737","category":"65","category_name":"咖啡厅","address":"闵行区航北路208号2楼(航东路口)"},{"poiid":"B2094655D26EA4FC459F","title":"第一笼(航北路店)","lon":"121.35343","lat":"31.1725","category":"68","category_name":"快餐厅","address":"闵行区航北路275号(近航中路)"},{"poiid":"B2094654D56AA2F54699","title":"航华四村三街坊","lon":"121.35427","lat":"31.169958","category":"47","category_name":"住宅区","address":"航中路232-304"},{"poiid":"B2094654D56AA6FF4392","title":"徐记餐厅","lon":"121.3541","lat":"31.16842","category":"257","category_name":"中餐厅","address":""},{"poiid":"B2094655D26BA5FE4592","title":"龙昇园","lon":"121.35722","lat":"31.16636","category":"76","category_name":"上海菜","address":"闵行区吴中路2115号龙通生活广场内(近航东路)"},{"poiid":"B2094654D56AA6FC419E","title":"香当香烧烤","lon":"121.35395","lat":"31.16922","category":"87","category_name":"特色／地方风味餐厅","address":""},{"poiid":"B2094654DA6BABF54293","title":"兴隆别墅","lon":"121.353","lat":"31.1682","category":"47","category_name":"住宅区","address":"吴中路2768弄"},{"poiid":"B2094654D56AA7F54598","title":"韩朝乐园","lon":"121.35437","lat":"31.1692","category":"96","category_name":"韩国料理","address":"航中路230号"},{"poiid":"B2094654D56AA1FD469D","title":"龙柏369大胡子家常菜","lon":"121.35151","lat":"31.17196","category":"257","category_name":"中餐厅","address":"航北路426号"},{"poiid":"B2094654D56AA1FD419B","title":"山鼎鸡","lon":"121.35366","lat":"31.1725","category":"68","category_name":"快餐厅","address":"闵行区航北路271号(航北路航中路)"},{"poiid":"B2094654D56AA2F54993","title":"GPS卫星导航器","lon":"121.35442","lat":"31.16843","category":"138","category_name":"家电电子卖场","address":"航中路"},{"poiid":"B2094654D56AA7F5459A","title":"三江源特色牛肉面","lon":"121.35497","lat":"31.16916","category":"257","category_name":"中餐厅","address":""},{"poiid":"B2094654D56AA0FE409E","title":"嘉锭经济城(航南路)","lon":"121.35515","lat":"31.16924","category":"45","category_name":"产业园区","address":"航南路278号"},{"poiid":"B2094655D36CA7FA439D","title":"航南路航中路","lon":"121.35532","lat":"31.16916","category":"38","category_name":"公交车站","address":""},{"poiid":"B2094654D56AA1FE4999","title":"嘉丰新苑(航南路)","lon":"121.35643","lat":"31.16978","category":"47","category_name":"住宅区","address":"上海市闵行区航东路255弄"},{"poiid":"B2094757D16FA1FE409C","title":"航华三村一街坊","lon":"121.35343924","lat":"31.170220828","category":"500","category_name":"未知分类","address":"上海市闵行区航中路航华三村一街坊"},{"poiid":"B2094757D064A7FC4798","title":"渝鲜塘水煮鱼牛蛙馆","lon":"121.349353","lat":"31.171194","category":"71","category_name":"四川菜","address":"闵行区航北路659号晋豪生活广场1楼(近航西路)"},{"poiid":"B2094654D56AA1FE4993","title":"好德(航南路)","lon":"121.35555","lat":"31.16942","category":"117","category_name":"便民商店/便利店","address":"航南路"},{"poiid":"B2094654D56AA6FC419A","title":"哈尔滨风味小厨","lon":"121.35351","lat":"31.17001","category":"257","category_name":"中餐厅","address":""},{"poiid":"B2094757D068A7FD499C","title":"85度C(航北店)","lon":"121.3484013","lat":"31.1704253","category":"112","category_name":"糕饼店","address":"闵行区航北路647号晋豪生活广场1楼(近麦当劳)"},{"poiid":"B2094654D56AA6FC4192","title":"爱车族汽车装潢中心","lon":"121.35404","lat":"31.1687","category":"159","category_name":"汽车维修","address":""},{"poiid":"B2094757D66FA2F94693","title":"工商银行","lon":"121.35481558","lat":"31.168998234","category":"150","category_name":"银行","address":"上海市航南路290号"},{"poiid":"B2094654D56AA1FD4093","title":"云南过桥米线馆(航北路)","lon":"121.35157","lat":"31.17158","category":"68","category_name":"快餐厅","address":"闵行区航北路371号(近航中路)"},{"poiid":"B2094654D56AA0FC429C","title":"复泰景苑","lon":"121.35353","lat":"31.170601","category":"47","category_name":"住宅区","address":"航中路288弄"},{"poiid":"B2094654D56AA1FF409C","title":"中国工商银行航华新村支行","lon":"121.35469","lat":"31.16904","category":"150","category_name":"银行","address":"闵行区航南路258号(近航中路)"},{"poiid":"B2094654DB65A0FA409D","title":"航华二中羽毛球馆","lon":"121.35118","lat":"31.1646","category":"220","category_name":"运动场所","address":"闵行区航新路75号(航新路吴中路)"},{"poiid":"B2094655D36DA6FD4393","title":"航中路","lon":"121.35451","lat":"31.16562","category":"38","category_name":"公交车站","address":""},{"poiid":"B2094757D66BA6FD4792","title":"故乡明太鱼屋 航北店","lon":"121.35913","lat":"31.17454","category":"96","category_name":"韩国料理","address":"闵行区航北路23号"},{"poiid":"B2094654D56AA6FD439C","title":"上海中天汽配","lon":"121.35384","lat":"31.16814","category":"248","category_name":"生活娱乐","address":"吴中汽配城11幢20号"},{"poiid":"B2094750D26AA3FC459A","title":"龙通时尚婚礼庄园","lon":"121.35592","lat":"31.16617","category":"72","category_name":"广东菜","address":"吴中路2115号龙通生活广场近航东路"},{"poiid":"B2094654D56AA3F9429D","title":"嘉丰花苑","lon":"121.3572","lat":"31.171242","category":"47","category_name":"住宅区","address":"上海航东路204弄"},{"poiid":"B2094654D56AA1FF4098","title":"和悦汽车改装装潢","lon":"121.35491","lat":"31.16912","category":"159","category_name":"汽车维修","address":"航南路270号"},{"poiid":"B2094757D165A1FE4998","title":"皇家加勒比海洋梦幻号","lon":"121.35312046","lat":"31.169966176","category":"500","category_name":"未知分类","address":"上海东大名路500号码头"},{"poiid":"B2094654D56AA7F4479F","title":"车霸汽车专业美容NO.0001","lon":"121.35504","lat":"31.16882","category":"159","category_name":"汽车维修","address":""},{"poiid":"B2094655D26FA6FC4192","title":"藏香阁","lon":"121.35675","lat":"31.16958","category":"96","category_name":"韩国料理","address":"浦东新区民耀路"},{"poiid":"B2094757D06AA3FA469C","title":"旭龙鱼头王","lon":"121.356894586","lat":"31.1717832886","category":"88","category_name":"海鲜酒楼","address":"闵行区航东路271号(近航北路)"},{"poiid":"B2094757D06FA3FD4493","title":"航中路地铁站","lon":"121.35431257408618","lat":"31.165802804243846","category":"36","category_name":"地铁站","address":"上海轨道交通 十号线 轨交航中路站 10"},{"poiid":"B2094757D068A3F9499A","title":"龙通生活广场","lon":"121.35712036","lat":"31.166309951","category":"217","category_name":"旅馆招待所","address":"闵行区吴中路2115号龙通生活广场内(近航东路)"},{"poiid":"B2094654D56AA3F9429B","title":"航华新村(航新路)","lon":"121.35004","lat":"31.16749","category":"47","category_name":"住宅区","address":"航新路50号"},{"poiid":"B2094757D16CA3FF4693","title":"虹桥机场2号航站楼31号登机口","lon":"121.348781","lat":"31.166038","category":"21","category_name":"飞机场","address":"上海虹桥机场T2"},{"poiid":"B2094655D26EA4FD409E","title":"龙通生活广场龙宴楼","lon":"121.35704","lat":"31.16625","category":"247","category_name":"餐饮美食","address":"上海闵行区吴中路2115号龙通生活广场(近航东路)  "},{"poiid":"B2094757D06FA7FA4499","title":"麦当劳 航北路店 McDonald's","lon":"121.349222054","lat":"31.171051793","category":"68","category_name":"快餐厅","address":"闵行区航北路647号晋豪生活广场1楼东侧(近航西路)"},{"poiid":"B2094655D26EA0F4449A","title":"新明星花园","lon":"121.35749","lat":"31.17371","category":"47","category_name":"住宅区","address":"航北路180弄1-66号"},{"poiid":"B2094757D06AA3FC489C","title":"航華","lon":"121.35209113","lat":"31.171603721","category":"249","category_name":"购物服务","address":"航北路234号(近航中路)"},{"poiid":"B2094757D06AA2F84199","title":"得悦捞","lon":"121.355263054","lat":"31.173794793","category":"86","category_name":"火锅店","address":"闵行区航东路358号(近航北路)"},{"poiid":"B2094654D56AA0FC449B","title":"航华二村嘉丰公寓","lon":"121.35091","lat":"31.171717","category":"47","category_name":"住宅区","address":"航北路456号"},{"poiid":"B2094655D26BA2FC489D","title":"吴中路航中路","lon":"121.35786","lat":"31.16705","category":"38","category_name":"公交车站","address":""},{"poiid":"B2094757D068A0FB4699","title":"航华四村","lon":"121.35918","lat":"31.17104","category":"252","category_name":"楼宇机构","address":"上海市闵行区航北路"},{"poiid":"B2094654D56AA2F54999","title":"中国东方航空住宅区","lon":"121.35338","lat":"31.17019","category":"47","category_name":"住宅区","address":"航华三村1-39号"},{"poiid":"B2094757D068AAF9469F","title":"崔记牛肉拉面馆","lon":"121.35448","lat":"31.17271","category":"68","category_name":"快餐厅","address":"闵行区航北路416号(近航中路)"},{"poiid":"B2094654DB6AA2FC4398","title":"上岛咖啡(航北店)","lon":"121.35535","lat":"31.1737","category":"65","category_name":"咖啡厅","address":"闵行区航北路208号2楼(航东路口)"},{"poiid":"B2094655D26EA4FC459F","title":"第一笼(航北路店)","lon":"121.35343","lat":"31.1725","category":"68","category_name":"快餐厅","address":"闵行区航北路275号(近航中路)"},{"poiid":"B2094654D56AA2F54699","title":"航华四村三街坊","lon":"121.35427","lat":"31.169958","category":"47","category_name":"住宅区","address":"航中路232-304"},{"poiid":"B2094654D56AA6FF4392","title":"徐记餐厅","lon":"121.3541","lat":"31.16842","category":"257","category_name":"中餐厅","address":""},{"poiid":"B2094655D26BA5FE4592","title":"龙昇园","lon":"121.35722","lat":"31.16636","category":"76","category_name":"上海菜","address":"闵行区吴中路2115号龙通生活广场内(近航东路)"},{"poiid":"B2094654D56AA6FC419E","title":"香当香烧烤","lon":"121.35395","lat":"31.16922","category":"87","category_name":"特色／地方风味餐厅","address":""},{"poiid":"B2094654DA6BABF54293","title":"兴隆别墅","lon":"121.353","lat":"31.1682","category":"47","category_name":"住宅区","address":"吴中路2768弄"},{"poiid":"B2094654D56AA7F54598","title":"韩朝乐园","lon":"121.35437","lat":"31.1692","category":"96","category_name":"韩国料理","address":"航中路230号"},{"poiid":"B2094654D56AA1FD469D","title":"龙柏369大胡子家常菜","lon":"121.35151","lat":"31.17196","category":"257","category_name":"中餐厅","address":"航北路426号"},{"poiid":"B2094654D56AA1FD419B","title":"山鼎鸡","lon":"121.35366","lat":"31.1725","category":"68","category_name":"快餐厅","address":"闵行区航北路271号(航北路航中路)"},{"poiid":"B2094654D56AA2F54993","title":"GPS卫星导航器","lon":"121.35442","lat":"31.16843","category":"138","category_name":"家电电子卖场","address":"航中路"},{"poiid":"B2094654D56AA7F5459A","title":"三江源特色牛肉面","lon":"121.35497","lat":"31.16916","category":"257","category_name":"中餐厅","address":""},{"poiid":"B2094654D56AA0FE409E","title":"嘉锭经济城(航南路)","lon":"121.35515","lat":"31.16924","category":"45","category_name":"产业园区","address":"航南路278号"},{"poiid":"B2094655D36CA7FA439D","title":"航南路航中路","lon":"121.35532","lat":"31.16916","category":"38","category_name":"公交车站","address":""},{"poiid":"B2094654D56AA1FE4999","title":"嘉丰新苑(航南路)","lon":"121.35643","lat":"31.16978","category":"47","category_name":"住宅区","address":"上海市闵行区航东路255弄"},{"poiid":"B2094757D16FA1FE409C","title":"航华三村一街坊","lon":"121.35343924","lat":"31.170220828","category":"500","category_name":"未知分类","address":"上海市闵行区航中路航华三村一街坊"},{"poiid":"B2094757D064A7FC4798","title":"渝鲜塘水煮鱼牛蛙馆","lon":"121.349353","lat":"31.171194","category":"71","category_name":"四川菜","address":"闵行区航北路659号晋豪生活广场1楼(近航西路)"},{"poiid":"B2094654D56AA1FE4993","title":"好德(航南路)","lon":"121.35555","lat":"31.16942","category":"117","category_name":"便民商店/便利店","address":"航南路"},{"poiid":"B2094654D56AA6FC419A","title":"哈尔滨风味小厨","lon":"121.35351","lat":"31.17001","category":"257","category_name":"中餐厅","address":""},{"poiid":"B2094757D068A7FD499C","title":"85度C(航北店)","lon":"121.3484013","lat":"31.1704253","category":"112","category_name":"糕饼店","address":"闵行区航北路647号晋豪生活广场1楼(近麦当劳)"},{"poiid":"B2094654D56AA6FC4192","title":"爱车族汽车装潢中心","lon":"121.35404","lat":"31.1687","category":"159","category_name":"汽车维修","address":""},{"poiid":"B2094757D66FA2F94693","title":"工商银行","lon":"121.35481558","lat":"31.168998234","category":"150","category_name":"银行","address":"上海市航南路290号"},{"poiid":"B2094654D56AA1FD4093","title":"云南过桥米线馆(航北路)","lon":"121.35157","lat":"31.17158","category":"68","category_name":"快餐厅","address":"闵行区航北路371号(近航中路)"},{"poiid":"B2094654D56AA0FC429C","title":"复泰景苑","lon":"121.35353","lat":"31.170601","category":"47","category_name":"住宅区","address":"航中路288弄"},{"poiid":"B2094654D56AA1FF409C","title":"中国工商银行航华新村支行","lon":"121.35469","lat":"31.16904","category":"150","category_name":"银行","address":"闵行区航南路258号(近航中路)"},{"poiid":"B2094654DB65A0FA409D","title":"航华二中羽毛球馆","lon":"121.35118","lat":"31.1646","category":"220","category_name":"运动场所","address":"闵行区航新路75号(航新路吴中路)"},{"poiid":"B2094655D36DA6FD4393","title":"航中路","lon":"121.35451","lat":"31.16562","category":"38","category_name":"公交车站","address":""},{"poiid":"B2094757D66BA6FD4792","title":"故乡明太鱼屋 航北店","lon":"121.35913","lat":"31.17454","category":"96","category_name":"韩国料理","address":"闵行区航北路23号"},{"poiid":"B2094654D56AA6FD439C","title":"上海中天汽配","lon":"121.35384","lat":"31.16814","category":"248","category_name":"生活娱乐","address":"吴中汽配城11幢20号"},{"poiid":"B2094750D26AA3FC459A","title":"龙通时尚婚礼庄园","lon":"121.35592","lat":"31.16617","category":"72","category_name":"广东菜","address":"吴中路2115号龙通生活广场近航东路"},{"poiid":"B2094654D56AA3F9429D","title":"嘉丰花苑","lon":"121.3572","lat":"31.171242","category":"47","category_name":"住宅区","address":"上海航东路204弄"},{"poiid":"B2094654D56AA1FF4098","title":"和悦汽车改装装潢","lon":"121.35491","lat":"31.16912","category":"159","category_name":"汽车维修","address":"航南路270号"},{"poiid":"B2094757D165A1FE4998","title":"皇家加勒比海洋梦幻号","lon":"121.35312046","lat":"31.169966176","category":"500","category_name":"未知分类","address":"上海东大名路500号码头"},{"poiid":"B2094654D56AA7F4479F","title":"车霸汽车专业美容NO.0001","lon":"121.35504","lat":"31.16882","category":"159","category_name":"汽车维修","address":""},{"poiid":"B2094655D26FA6FC4192","title":"藏香阁","lon":"121.35675","lat":"31.16958","category":"96","category_name":"韩国料理","address":"浦东新区民耀路"},{"poiid":"B2094757D06AA3FA469C","title":"旭龙鱼头王","lon":"121.356894586","lat":"31.1717832886","category":"88","category_name":"海鲜酒楼","address":"闵行区航东路271号(近航北路)"},{"poiid":"B2094757D06FA3FD4493","title":"航中路地铁站","lon":"121.35431257408618","lat":"31.165802804243846","category":"36","category_name":"地铁站","address":"上海轨道交通 十号线 轨交航中路站 10"},{"poiid":"B2094757D068A3F9499A","title":"龙通生活广场","lon":"121.35712036","lat":"31.166309951","category":"217","category_name":"旅馆招待所","address":"闵行区吴中路2115号龙通生活广场内(近航东路)"},{"poiid":"B2094654D56AA3F9429B","title":"航华新村(航新路)","lon":"121.35004","lat":"31.16749","category":"47","category_name":"住宅区","address":"航新路50号"},{"poiid":"B2094757D16CA3FF4693","title":"虹桥机场2号航站楼31号登机口","lon":"121.348781","lat":"31.166038","category":"21","category_name":"飞机场","address":"上海虹桥机场T2"},{"poiid":"B2094655D26EA4FD409E","title":"龙通生活广场龙宴楼","lon":"121.35704","lat":"31.16625","category":"247","category_name":"餐饮美食","address":"上海闵行区吴中路2115号龙通生活广场(近航东路)  "},{"poiid":"B2094757D06FA7FA4499","title":"麦当劳 航北路店 McDonald's","lon":"121.349222054","lat":"31.171051793","category":"68","category_name":"快餐厅","address":"闵行区航北路647号晋豪生活广场1楼东侧(近航西路)"},{"poiid":"B2094655D26EA0F4449A","title":"新明星花园","lon":"121.35749","lat":"31.17371","category":"47","category_name":"住宅区","address":"航北路180弄1-66号"},{"poiid":"B2094757D06AA3FC489C","title":"航華","lon":"121.35209113","lat":"31.171603721","category":"249","category_name":"购物服务","address":"航北路234号(近航中路)"},{"poiid":"B2094757D06AA2F84199","title":"得悦捞","lon":"121.355263054","lat":"31.173794793","category":"86","category_name":"火锅店","address":"闵行区航东路358号(近航北路)"},{"poiid":"B2094654D56AA0FC449B","title":"航华二村嘉丰公寓","lon":"121.35091","lat":"31.171717","category":"47","category_name":"住宅区","address":"航北路456号"},{"poiid":"B2094655D26BA2FC489D","title":"吴中路航中路","lon":"121.35786","lat":"31.16705","category":"38","category_name":"公交车站","address":""},{"poiid":"B2094757D068A0FB4699","title":"航华四村","lon":"121.35918","lat":"31.17104","category":"252","category_name":"楼宇机构","address":"上海市闵行区航北路"},{"poiid":"B2094654D56AA2F54999","title":"中国东方航空住宅区","lon":"121.35338","lat":"31.17019","category":"47","category_name":"住宅区","address":"航华三村1-39号"},{"poiid":"B2094757D068AAF9469F","title":"崔记牛肉拉面馆","lon":"121.35448","lat":"31.17271","category":"68","category_name":"快餐厅","address":"闵行区航北路416号(近航中路)"},{"poiid":"B2094654DB6AA2FC4398","title":"上岛咖啡(航北店)","lon":"121.35535","lat":"31.1737","category":"65","category_name":"咖啡厅","address":"闵行区航北路208号2楼(航东路口)"},{"poiid":"B2094655D26EA4FC459F","title":"第一笼(航北路店)","lon":"121.35343","lat":"31.1725","category":"68","category_name":"快餐厅","address":"闵行区航北路275号(近航中路)"},{"poiid":"B2094654D56AA2F54699","title":"航华四村三街坊","lon":"121.35427","lat":"31.169958","category":"47","category_name":"住宅区","address":"航中路232-304"},{"poiid":"B2094654D56AA6FF4392","title":"徐记餐厅","lon":"121.3541","lat":"31.16842","category":"257","category_name":"中餐厅","address":""},{"poiid":"B2094655D26BA5FE4592","title":"龙昇园","lon":"121.35722","lat":"31.16636","category":"76","category_name":"上海菜","address":"闵行区吴中路2115号龙通生活广场内(近航东路)"},{"poiid":"B2094654D56AA6FC419E","title":"香当香烧烤","lon":"121.35395","lat":"31.16922","category":"87","category_name":"特色／地方风味餐厅","address":""},{"poiid":"B2094654DA6BABF54293","title":"兴隆别墅","lon":"121.353","lat":"31.1682","category":"47","category_name":"住宅区","address":"吴中路2768弄"},{"poiid":"B2094654D56AA7F54598","title":"韩朝乐园","lon":"121.35437","lat":"31.1692","category":"96","category_name":"韩国料理","address":"航中路230号"},{"poiid":"B2094654D56AA1FD469D","title":"龙柏369大胡子家常菜","lon":"121.35151","lat":"31.17196","category":"257","category_name":"中餐厅","address":"航北路426号"},{"poiid":"B2094654D56AA1FD419B","title":"山鼎鸡","lon":"121.35366","lat":"31.1725","category":"68","category_name":"快餐厅","address":"闵行区航北路271号(航北路航中路)"},{"poiid":"B2094654D56AA2F54993","title":"GPS卫星导航器","lon":"121.35442","lat":"31.16843","category":"138","category_name":"家电电子卖场","address":"航中路"},{"poiid":"B2094654D56AA7F5459A","title":"三江源特色牛肉面","lon":"121.35497","lat":"31.16916","category":"257","category_name":"中餐厅","address":""},{"poiid":"B2094654D56AA0FE409E","title":"嘉锭经济城(航南路)","lon":"121.35515","lat":"31.16924","category":"45","category_name":"产业园区","address":"航南路278号"},{"poiid":"B2094655D36CA7FA439D","title":"航南路航中路","lon":"121.35532","lat":"31.16916","category":"38","category_name":"公交车站","address":""},{"poiid":"B2094654D56AA1FE4999","title":"嘉丰新苑(航南路)","lon":"121.35643","lat":"31.16978","category":"47","category_name":"住宅区","address":"上海市闵行区航东路255弄"},{"poiid":"B2094757D16FA1FE409C","title":"航华三村一街坊","lon":"121.35343924","lat":"31.170220828","category":"500","category_name":"未知分类","address":"上海市闵行区航中路航华三村一街坊"},{"poiid":"B2094757D064A7FC4798","title":"渝鲜塘水煮鱼牛蛙馆","lon":"121.349353","lat":"31.171194","category":"71","category_name":"四川菜","address":"闵行区航北路659号晋豪生活广场1楼(近航西路)"},{"poiid":"B2094654D56AA1FE4993","title":"好德(航南路)","lon":"121.35555","lat":"31.16942","category":"117","category_name":"便民商店/便利店","address":"航南路"},{"poiid":"B2094654D56AA6FC419A","title":"哈尔滨风味小厨","lon":"121.35351","lat":"31.17001","category":"257","category_name":"中餐厅","address":""},{"poiid":"B2094757D068A7FD499C","title":"85度C(航北店)","lon":"121.3484013","lat":"31.1704253","category":"112","category_name":"糕饼店","address":"闵行区航北路647号晋豪生活广场1楼(近麦当劳)"},{"poiid":"B2094654D56AA6FC4192","title":"爱车族汽车装潢中心","lon":"121.35404","lat":"31.1687","category":"159","category_name":"汽车维修","address":""},{"poiid":"B2094757D66FA2F94693","title":"工商银行","lon":"121.35481558","lat":"31.168998234","category":"150","category_name":"银行","address":"上海市航南路290号"},{"poiid":"B2094654D56AA1FD4093","title":"云南过桥米线馆(航北路)","lon":"121.35157","lat":"31.17158","category":"68","category_name":"快餐厅","address":"闵行区航北路371号(近航中路)"},{"poiid":"B2094654D56AA0FC429C","title":"复泰景苑","lon":"121.35353","lat":"31.170601","category":"47","category_name":"住宅区","address":"航中路288弄"},{"poiid":"B2094654D56AA1FF409C","title":"中国工商银行航华新村支行","lon":"121.35469","lat":"31.16904","category":"150","category_name":"银行","address":"闵行区航南路258号(近航中路)"},{"poiid":"B2094654DB65A0FA409D","title":"航华二中羽毛球馆","lon":"121.35118","lat":"31.1646","category":"220","category_name":"运动场所","address":"闵行区航新路75号(航新路吴中路)"},{"poiid":"B2094655D36DA6FD4393","title":"航中路","lon":"121.35451","lat":"31.16562","category":"38","category_name":"公交车站","address":""},{"poiid":"B2094757D66BA6FD4792","title":"故乡明太鱼屋 航北店","lon":"121.35913","lat":"31.17454","category":"96","category_name":"韩国料理","address":"闵行区航北路23号"},{"poiid":"B2094654D56AA6FD439C","title":"上海中天汽配","lon":"121.35384","lat":"31.16814","category":"248","category_name":"生活娱乐","address":"吴中汽配城11幢20号"},{"poiid":"B2094750D26AA3FC459A","title":"龙通时尚婚礼庄园","lon":"121.35592","lat":"31.16617","category":"72","category_name":"广东菜","address":"吴中路2115号龙通生活广场近航东路"},{"poiid":"B2094654D56AA3F9429D","title":"嘉丰花苑","lon":"121.3572","lat":"31.171242","category":"47","category_name":"住宅区","address":"上海航东路204弄"},{"poiid":"B2094654D56AA1FF4098","title":"和悦汽车改装装潢","lon":"121.35491","lat":"31.16912","category":"159","category_name":"汽车维修","address":"航南路270号"},{"poiid":"B2094757D165A1FE4998","title":"皇家加勒比海洋梦幻号","lon":"121.35312046","lat":"31.169966176","category":"500","category_name":"未知分类","address":"上海东大名路500号码头"},{"poiid":"B2094654D56AA7F4479F","title":"车霸汽车专业美容NO.0001","lon":"121.35504","lat":"31.16882","category":"159","category_name":"汽车维修","address":""},{"poiid":"B2094655D26FA6FC4192","title":"藏香阁","lon":"121.35675","lat":"31.16958","category":"96","category_name":"韩国料理","address":"浦东新区民耀路"},{"poiid":"B2094757D06AA3FA469C","title":"旭龙鱼头王","lon":"121.356894586","lat":"31.1717832886","category":"88","category_name":"海鲜酒楼","address":"闵行区航东路271号(近航北路)"},{"poiid":"B2094757D06FA3FD4493","title":"航中路地铁站","lon":"121.35431257408618","lat":"31.165802804243846","category":"36","category_name":"地铁站","address":"上海轨道交通 十号线 轨交航中路站 10"},{"poiid":"B2094757D068A3F9499A","title":"龙通生活广场","lon":"121.35712036","lat":"31.166309951","category":"217","category_name":"旅馆招待所","address":"闵行区吴中路2115号龙通生活广场内(近航东路)"},{"poiid":"B2094654D56AA3F9429B","title":"航华新村(航新路)","lon":"121.35004","lat":"31.16749","category":"47","category_name":"住宅区","address":"航新路50号"},{"poiid":"B2094757D16CA3FF4693","title":"虹桥机场2号航站楼31号登机口","lon":"121.348781","lat":"31.166038","category":"21","category_name":"飞机场","address":"上海虹桥机场T2"},{"poiid":"B2094655D26EA4FD409E","title":"龙通生活广场龙宴楼","lon":"121.35704","lat":"31.16625","category":"247","category_name":"餐饮美食","address":"上海闵行区吴中路2115号龙通生活广场(近航东路)  "},{"poiid":"B2094757D06FA7FA4499","title":"麦当劳 航北路店 McDonald's","lon":"121.349222054","lat":"31.171051793","category":"68","category_name":"快餐厅","address":"闵行区航北路647号晋豪生活广场1楼东侧(近航西路)"},{"poiid":"B2094655D26EA0F4449A","title":"新明星花园","lon":"121.35749","lat":"31.17371","category":"47","category_name":"住宅区","address":"航北路180弄1-66号"},{"poiid":"B2094757D06AA3FC489C","title":"航華","lon":"121.35209113","lat":"31.171603721","category":"249","category_name":"购物服务","address":"航北路234号(近航中路)"},{"poiid":"B2094757D06AA2F84199","title":"得悦捞","lon":"121.355263054","lat":"31.173794793","category":"86","category_name":"火锅店","address":"闵行区航东路358号(近航北路)"},{"poiid":"B2094654D56AA0FC449B","title":"航华二村嘉丰公寓","lon":"121.35091","lat":"31.171717","category":"47","category_name":"住宅区","address":"航北路456号"},{"poiid":"B2094655D26BA2FC489D","title":"吴中路航中路","lon":"121.35786","lat":"31.16705","category":"38","category_name":"公交车站","address":""},{"poiid":"B2094757D068A0FB4699","title":"航华四村","lon":"121.35918","lat":"31.17104","category":"252","category_name":"楼宇机构","address":"上海市闵行区航北路"},{"poiid":"B2094654D56AA2F54999","title":"中国东方航空住宅区","lon":"121.35338","lat":"31.17019","category":"47","category_name":"住宅区","address":"航华三村1-39号"},{"poiid":"B2094757D068AAF9469F","title":"崔记牛肉拉面馆","lon":"121.35448","lat":"31.17271","category":"68","category_name":"快餐厅","address":"闵行区航北路416号(近航中路)"},{"poiid":"B2094654DB6AA2FC4398","title":"上岛咖啡(航北店)","lon":"121.35535","lat":"31.1737","category":"65","category_name":"咖啡厅","address":"闵行区航北路208号2楼(航东路口)"},{"poiid":"B2094655D26EA4FC459F","title":"第一笼(航北路店)","lon":"121.35343","lat":"31.1725","category":"68","category_name":"快餐厅","address":"闵行区航北路275号(近航中路)"},{"poiid":"B2094654D56AA2F54699","title":"航华四村三街坊","lon":"121.35427","lat":"31.169958","category":"47","category_name":"住宅区","address":"航中路232-304"},{"poiid":"B2094654D56AA6FF4392","title":"徐记餐厅","lon":"121.3541","lat":"31.16842","category":"257","category_name":"中餐厅","address":""},{"poiid":"B2094655D26BA5FE4592","title":"龙昇园","lon":"121.35722","lat":"31.16636","category":"76","category_name":"上海菜","address":"闵行区吴中路2115号龙通生活广场内(近航东路)"},{"poiid":"B2094654D56AA6FC419E","title":"香当香烧烤","lon":"121.35395","lat":"31.16922","category":"87","category_name":"特色／地方风味餐厅","address":""},{"poiid":"B2094654DA6BABF54293","title":"兴隆别墅","lon":"121.353","lat":"31.1682","category":"47","category_name":"住宅区","address":"吴中路2768弄"},{"poiid":"B2094654D56AA7F54598","title":"韩朝乐园","lon":"121.35437","lat":"31.1692","category":"96","category_name":"韩国料理","address":"航中路230号"},{"poiid":"B2094654D56AA1FD469D","title":"龙柏369大胡子家常菜","lon":"121.35151","lat":"31.17196","category":"257","category_name":"中餐厅","address":"航北路426号"},{"poiid":"B2094654D56AA1FD419B","title":"山鼎鸡","lon":"121.35366","lat":"31.1725","category":"68","category_name":"快餐厅","address":"闵行区航北路271号(航北路航中路)"},{"poiid":"B2094654D56AA2F54993","title":"GPS卫星导航器","lon":"121.35442","lat":"31.16843","category":"138","category_name":"家电电子卖场","address":"航中路"},{"poiid":"B2094654D56AA7F5459A","title":"三江源特色牛肉面","lon":"121.35497","lat":"31.16916","category":"257","category_name":"中餐厅","address":""},{"poiid":"B2094654D56AA0FE409E","title":"嘉锭经济城(航南路)","lon":"121.35515","lat":"31.16924","category":"45","category_name":"产业园区","address":"航南路278号"},{"poiid":"B2094655D36CA7FA439D","title":"航南路航中路","lon":"121.35532","lat":"31.16916","category":"38","category_name":"公交车站","address":""},{"poiid":"B2094654D56AA1FE4999","title":"嘉丰新苑(航南路)","lon":"121.35643","lat":"31.16978","category":"47","category_name":"住宅区","address":"上海市闵行区航东路255弄"},{"poiid":"B2094757D16FA1FE409C","title":"航华三村一街坊","lon":"121.35343924","lat":"31.170220828","category":"500","category_name":"未知分类","address":"上海市闵行区航中路航华三村一街坊"},{"poiid":"B2094757D064A7FC4798","title":"渝鲜塘水煮鱼牛蛙馆","lon":"121.349353","lat":"31.171194","category":"71","category_name":"四川菜","address":"闵行区航北路659号晋豪生活广场1楼(近航西路)"},{"poiid":"B2094654D56AA1FE4993","title":"好德(航南路)","lon":"121.35555","lat":"31.16942","category":"117","category_name":"便民商店/便利店","address":"航南路"},{"poiid":"B2094654D56AA6FC419A","title":"哈尔滨风味小厨","lon":"121.35351","lat":"31.17001","category":"257","category_name":"中餐厅","address":""},{"poiid":"B2094757D068A7FD499C","title":"85度C(航北店)","lon":"121.3484013","lat":"31.1704253","category":"112","category_name":"糕饼店","address":"闵行区航北路647号晋豪生活广场1楼(近麦当劳)"},{"poiid":"B2094654D56AA6FC4192","title":"爱车族汽车装潢中心","lon":"121.35404","lat":"31.1687","category":"159","category_name":"汽车维修","address":""},{"poiid":"B2094757D66FA2F94693","title":"工商银行","lon":"121.35481558","lat":"31.168998234","category":"150","category_name":"银行","address":"上海市航南路290号"},{"poiid":"B2094654D56AA1FD4093","title":"云南过桥米线馆(航北路)","lon":"121.35157","lat":"31.17158","category":"68","category_name":"快餐厅","address":"闵行区航北路371号(近航中路)"},{"poiid":"B2094654D56AA0FC429C","title":"复泰景苑","lon":"121.35353","lat":"31.170601","category":"47","category_name":"住宅区","address":"航中路288弄"},{"poiid":"B2094654D56AA1FF409C","title":"中国工商银行航华新村支行","lon":"121.35469","lat":"31.16904","category":"150","category_name":"银行","address":"闵行区航南路258号(近航中路)"},{"poiid":"B2094654DB65A0FA409D","title":"航华二中羽毛球馆","lon":"121.35118","lat":"31.1646","category":"220","category_name":"运动场所","address":"闵行区航新路75号(航新路吴中路)"},{"poiid":"B2094655D36DA6FD4393","title":"航中路","lon":"121.35451","lat":"31.16562","category":"38","category_name":"公交车站","address":""},{"poiid":"B2094757D66BA6FD4792","title":"故乡明太鱼屋 航北店","lon":"121.35913","lat":"31.17454","category":"96","category_name":"韩国料理","address":"闵行区航北路23号"},{"poiid":"B2094654D56AA6FD439C","title":"上海中天汽配","lon":"121.35384","lat":"31.16814","category":"248","category_name":"生活娱乐","address":"吴中汽配城11幢20号"},{"poiid":"B2094750D26AA3FC459A","title":"龙通时尚婚礼庄园","lon":"121.35592","lat":"31.16617","category":"72","category_name":"广东菜","address":"吴中路2115号龙通生活广场近航东路"},{"poiid":"B2094654D56AA3F9429D","title":"嘉丰花苑","lon":"121.3572","lat":"31.171242","category":"47","category_name":"住宅区","address":"上海航东路204弄"},{"poiid":"B2094654D56AA1FF4098","title":"和悦汽车改装装潢","lon":"121.35491","lat":"31.16912","category":"159","category_name":"汽车维修","address":"航南路270号"},{"poiid":"B2094757D165A1FE4998","title":"皇家加勒比海洋梦幻号","lon":"121.35312046","lat":"31.169966176","category":"500","category_name":"未知分类","address":"上海东大名路500号码头"},{"poiid":"B2094654D56AA7F4479F","title":"车霸汽车专业美容NO.0001","lon":"121.35504","lat":"31.16882","category":"159","category_name":"汽车维修","address":""},{"poiid":"B2094655D26FA6FC4192","title":"藏香阁","lon":"121.35675","lat":"31.16958","category":"96","category_name":"韩国料理","address":"浦东新区民耀路"}]