[{"poiid":"B2094757D06FA3F9489D","title":"上大路地铁站","lon":"121.40900643","lat":"31.314450071","category":"36","category_name":"地铁站","address":"上海轨道交通 七号线 轨交上大路站 7"},{"poiid":"B2094655D265A1FA439D","title":"经纬城市绿洲","lon":"121.40513","lat":"31.32703","category":"47","category_name":"住宅区","address":"纬地路88弄1-107号"},{"poiid":"B2094655D26FA6FB4792","title":"共康四村","lon":"121.43363","lat":"31.32072","category":"47","category_name":"住宅区","address":"长临路380弄1-185号"},{"poiid":"B2094654D464A5F94692","title":"共康八村","lon":"121.43336","lat":"31.324244","category":"47","category_name":"住宅区","address":"长临路880弄"},{"poiid":"B2094757D16FABFC4499","title":"共康雅苑","lon":"121.43021595","lat":"31.3284111765","category":"47","category_name":"住宅区","address":"上海花园宅路"},{"poiid":"B2094655D26FA1FE419F","title":"9英里","lon":"121.43074","lat":"31.3295","category":"47","category_name":"住宅区","address":"长临路1318弄"},{"poiid":"B2094757D068ABFE4598","title":"大康度假城室内水上世界","lon":"121.435832101","lat":"31.3213803431","category":"173","category_name":"游戏厅","address":"宝山区共康路555号(近长临路)"},{"poiid":"B2094757D06FAAFF4692","title":"肯德基 KFC (长临店)","lon":"121.435666","lat":"31.321406","category":"68","category_name":"快餐厅","address":"宝山区共康路555号(近长临路)"},{"poiid":"B2094757D068A3FF429D","title":"屹立家园","lon":"121.43272","lat":"31.326672","category":"47","category_name":"住宅区","address":"上海宝山区长临路1118弄"},{"poiid":"B2094655D26DA4FF4192","title":"华东师范大学宝山实验学校","lon":"121.43272","lat":"31.32859","category":"55","category_name":"中学","address":""},{"poiid":"B2094757D068A1FA4092","title":"老盛昌苏州汤包馆(环镇北路店)","lon":"121.41023","lat":"31.30774","category":"87","category_name":"特色／地方风味餐厅","address":"宝山区场联路口(近环镇北路)"},{"poiid":"B2094757D56DA0F84598","title":"北斗星营业厅","lon":"121.435524","lat":"31.324114","category":"151","category_name":"电讯营业厅","address":"长临路913号207室"},{"poiid":"B2094654DB6AABF5499B","title":"上大阳光乾静园","lon":"121.40745","lat":"31.31087","category":"47","category_name":"住宅区","address":"上海市宝山区上大路128弄"},{"poiid":"B2094654D465A6FD499F","title":"东方国贸新城","lon":"121.406136","lat":"31.329373","category":"248","category_name":"生活娱乐","address":"沪太路3999号"},{"poiid":"B2094654D465A6FE4792","title":"大康公寓","lon":"121.42245","lat":"31.3202","category":"47","category_name":"住宅区","address":"共康路1089弄"},{"poiid":"B2094655D26CA0FF479E","title":"邻里人家 北斗星广场店","lon":"121.436026054","lat":"31.324971793","category":"76","category_name":"上海菜","address":"宝山区长临路959弄37号北斗星商业广场1楼(近共康路)"},{"poiid":"B2094757D06FA1FB489E","title":"一兆韦德(北斗星店)","lon":"121.43486","lat":"31.32605","category":"221","category_name":"健身中心","address":"宝山区长临路969号959弄11号北斗星商业广场4楼(近共康路)"},{"poiid":"B2094654DB6AABF54998","title":"乾泽园","lon":"121.40899283552","lat":"31.316330635524","category":"47","category_name":"住宅区","address":"上海环镇北路699弄"},{"poiid":"B2094654DB6AABFD439D","title":"豪享来上海共康店","lon":"121.4361","lat":"31.3223","category":"247","category_name":"餐饮美食","address":"上海市宝山区共康路555号"},{"poiid":"B2094751D26CA0F5489F","title":"同济大学附属第十人民医院","lon":"121.418724","lat":"31.325757","category":"162","category_name":"医院","address":"延长路301号"},{"poiid":"B2094753D665A0FC429C","title":"宝山区万达广场","lon":"121.418792","lat":"31.32582","category":"500","category_name":"未知分类","address":"上海市 共和新路一二八纪念路"},{"poiid":"B2094757D068A1FB459C","title":"乾清园","lon":"121.41009","lat":"31.310429","category":"500","category_name":"未知分类","address":"上海市宝山区环镇北路152号"},{"poiid":"B2094757D169AAF9459B","title":"宜仕怡家","lon":"121.42443595","lat":"31.320389423","category":"47","category_name":"住宅区","address":"上海徐匯區龍華西路591弄"},{"poiid":"B2094757D065A1FB499C","title":"东方国贸","lon":"121.407152","lat":"31.327869","category":"500","category_name":"未知分类","address":"宝山区沪太路3999号"},{"poiid":"B2094757D66FA7FE4993","title":"上海大学羽毛球馆","lon":"121.41815227","lat":"31.325263607","category":"500","category_name":"未知分类","address":"宝山区上大路99号上海大学内(近南陈路)"},{"poiid":"B2094750D365A0FD4693","title":"上海飞机制造有限公司","lon":"121.419914","lat":"31.323566","category":"263","category_name":"公司","address":null},{"poiid":"B2094655D26FA6F94299","title":"格林豪泰酒店(共康店)","lon":"121.43583","lat":"31.32137","category":"216","category_name":"经济型连锁酒店","address":"宝山区共康路555号(近长临路)"},{"poiid":"B2094757D469A5F94199","title":"德克士 沪太路店","lon":"121.4059498","lat":"31.3301162","category":"68","category_name":"快餐厅","address":"宝山区沪太路3987-3989号东方国贸新城1楼"},{"poiid":"B2094757D168AAFD469E","title":"庙行社区卫生服务中心","lon":"121.42448425","lat":"31.327952167","category":"500","category_name":"未知分类","address":"上海庙行"},{"poiid":"B2094757D06AA3FD469E","title":"陈伯吹实验幼儿园","lon":"121.432951217","lat":"31.3295597252","category":"57","category_name":"幼儿园","address":"宝山区长临路1236号"},{"poiid":"B2094757D16AA2F8459F","title":"宝安公路","lon":"121.42395095","lat":"31.3204129235","category":"500","category_name":"未知分类","address":"上海宝安公路"},{"poiid":"B2094751D265A7F4419E","title":"江芝南大酒店","lon":"121.42901","lat":"31.33261","category":"76","category_name":"上海菜","address":"宝山区场北路(近纪蕴路)"},{"poiid":"B2094654DB6AABF5499E","title":"上大阳光乾恩园","lon":"121.41116007124","lat":"31.315618633581","category":"47","category_name":"住宅区","address":"环镇北路655弄"},{"poiid":"B2094757D168A0FD4492","title":"经纬城市绿洲-阳光水岸家园","lon":"121.40630425","lat":"31.3280000687","category":"252","category_name":"楼宇机构","address":"上海纬地路88弄"},{"poiid":"B2094757D16CA1FE439C","title":"La Paleta","lon":"121.42511749","lat":"31.320384979","category":"500","category_name":"未知分类","address":"上海彩色盘8839"},{"poiid":"B2094655D36CA0F44699","title":"环镇北路","lon":"121.4079","lat":"31.30797","category":"38","category_name":"公交车站","address":""},{"poiid":"B2094655D264A1FF4198","title":"乾澄园","lon":"121.415","lat":"31.3136","category":"47","category_name":"住宅区","address":"上海市宝山区环镇北路300弄"},{"poiid":"B2094757D068ABFF4293","title":"巴黎贝甜(长临路店)","lon":"121.43468695","lat":"31.3217860498","category":"67","category_name":"甜品店","address":"宝山区共康路555号(近大康度假城)"},{"poiid":"B2094757D06BA7F4429C","title":"噢谢特","lon":"121.42021965","lat":"31.31604494","category":"249","category_name":"购物服务","address":"上海噢谢特"},{"poiid":"B2094751D26DA7F4499C","title":"中国商飞民用飞机试飞中心","lon":"121.418731","lat":"31.325757","category":"263","category_name":"公司","address":"大场机场"},{"poiid":"B2094753D46AA5F44099","title":"临汾路夜市","lon":"121.428428","lat":"31.321561","category":"247","category_name":"餐饮美食","address":"上海市 临汾路"},{"poiid":"B2094654D465A4FE439E","title":"共康便利店(共康路)","lon":"121.42732","lat":"31.3206","category":"117","category_name":"便民商店/便利店","address":"共康路888号"},{"poiid":"B209475CD76FABFC479F","title":"宝山万达影城","lon":"121.42984","lat":"31.318515","category":"178","category_name":"电影院","address":"上海市 一二八纪念路"},{"poiid":"B2094757D16DA2F84598","title":"鑫沪港海鲜大酒店","lon":"121.4069","lat":"31.32657","category":"76","category_name":"上海菜","address":"宝山区沪太路3677号(近东方国贸)"},{"poiid":"B2094655D36DA1FD499A","title":"万鸡场桥","lon":"121.42555","lat":"31.32408","category":"250","category_name":"公园户外","address":""},{"poiid":"B2094655D36DA6FE4399","title":"上大路","lon":"121.40928","lat":"31.31367","category":"38","category_name":"公交车站","address":""},{"poiid":"B2094655D264A0FB409D","title":"乾恩园二期","lon":"121.412691","lat":"31.313969","category":"47","category_name":"住宅区","address":"上海市宝山区环镇北路655弄"},{"poiid":"B2094757D06BA3FC4892","title":"环镇北路500弄","lon":"121.412","lat":"31.3135","category":"500","category_name":"未知分类","address":"上海环镇北路500弄"},{"poiid":"B2094752D06DAAFD4098","title":"万达影城","lon":"121.414062","lat":"31.327545","category":"178","category_name":"电影院","address":null},{"poiid":"B2094654DB6AABF5429F","title":"上海新通联包装材料有限公司","lon":"121.42555","lat":"31.32085","category":"263","category_name":"公司","address":"共康路999"},{"poiid":"B2094757D06FA3F9489D","title":"上大路地铁站","lon":"121.40900643","lat":"31.314450071","category":"36","category_name":"地铁站","address":"上海轨道交通 七号线 轨交上大路站 7"},{"poiid":"B2094655D265A1FA439D","title":"经纬城市绿洲","lon":"121.40513","lat":"31.32703","category":"47","category_name":"住宅区","address":"纬地路88弄1-107号"},{"poiid":"B2094655D26FA6FB4792","title":"共康四村","lon":"121.43363","lat":"31.32072","category":"47","category_name":"住宅区","address":"长临路380弄1-185号"},{"poiid":"B2094654D464A5F94692","title":"共康八村","lon":"121.43336","lat":"31.324244","category":"47","category_name":"住宅区","address":"长临路880弄"},{"poiid":"B2094757D16FABFC4499","title":"共康雅苑","lon":"121.43021595","lat":"31.3284111765","category":"47","category_name":"住宅区","address":"上海花园宅路"},{"poiid":"B2094655D26FA1FE419F","title":"9英里","lon":"121.43074","lat":"31.3295","category":"47","category_name":"住宅区","address":"长临路1318弄"},{"poiid":"B2094757D068ABFE4598","title":"大康度假城室内水上世界","lon":"121.435832101","lat":"31.3213803431","category":"173","category_name":"游戏厅","address":"宝山区共康路555号(近长临路)"},{"poiid":"B2094757D06FAAFF4692","title":"肯德基 KFC (长临店)","lon":"121.435666","lat":"31.321406","category":"68","category_name":"快餐厅","address":"宝山区共康路555号(近长临路)"},{"poiid":"B2094757D068A3FF429D","title":"屹立家园","lon":"121.43272","lat":"31.326672","category":"47","category_name":"住宅区","address":"上海宝山区长临路1118弄"},{"poiid":"B2094655D26DA4FF4192","title":"华东师范大学宝山实验学校","lon":"121.43272","lat":"31.32859","category":"55","category_name":"中学","address":""},{"poiid":"B2094757D068A1FA4092","title":"老盛昌苏州汤包馆(环镇北路店)","lon":"121.41023","lat":"31.30774","category":"87","category_name":"特色／地方风味餐厅","address":"宝山区场联路口(近环镇北路)"},{"poiid":"B2094757D56DA0F84598","title":"北斗星营业厅","lon":"121.435524","lat":"31.324114","category":"151","category_name":"电讯营业厅","address":"长临路913号207室"},{"poiid":"B2094654DB6AABF5499B","title":"上大阳光乾静园","lon":"121.40745","lat":"31.31087","category":"47","category_name":"住宅区","address":"上海市宝山区上大路128弄"},{"poiid":"B2094654D465A6FD499F","title":"东方国贸新城","lon":"121.406136","lat":"31.329373","category":"248","category_name":"生活娱乐","address":"沪太路3999号"},{"poiid":"B2094654D465A6FE4792","title":"大康公寓","lon":"121.42245","lat":"31.3202","category":"47","category_name":"住宅区","address":"共康路1089弄"},{"poiid":"B2094655D26CA0FF479E","title":"邻里人家 北斗星广场店","lon":"121.436026054","lat":"31.324971793","category":"76","category_name":"上海菜","address":"宝山区长临路959弄37号北斗星商业广场1楼(近共康路)"},{"poiid":"B2094757D06FA1FB489E","title":"一兆韦德(北斗星店)","lon":"121.43486","lat":"31.32605","category":"221","category_name":"健身中心","address":"宝山区长临路969号959弄11号北斗星商业广场4楼(近共康路)"},{"poiid":"B2094654DB6AABF54998","title":"乾泽园","lon":"121.40899283552","lat":"31.316330635524","category":"47","category_name":"住宅区","address":"上海环镇北路699弄"},{"poiid":"B2094654DB6AABFD439D","title":"豪享来上海共康店","lon":"121.4361","lat":"31.3223","category":"247","category_name":"餐饮美食","address":"上海市宝山区共康路555号"},{"poiid":"B2094751D26CA0F5489F","title":"同济大学附属第十人民医院","lon":"121.418724","lat":"31.325757","category":"162","category_name":"医院","address":"延长路301号"},{"poiid":"B2094753D665A0FC429C","title":"宝山区万达广场","lon":"121.418792","lat":"31.32582","category":"500","category_name":"未知分类","address":"上海市 共和新路一二八纪念路"},{"poiid":"B2094757D068A1FB459C","title":"乾清园","lon":"121.41009","lat":"31.310429","category":"500","category_name":"未知分类","address":"上海市宝山区环镇北路152号"},{"poiid":"B2094757D169AAF9459B","title":"宜仕怡家","lon":"121.42443595","lat":"31.320389423","category":"47","category_name":"住宅区","address":"上海徐匯區龍華西路591弄"},{"poiid":"B2094757D065A1FB499C","title":"东方国贸","lon":"121.407152","lat":"31.327869","category":"500","category_name":"未知分类","address":"宝山区沪太路3999号"},{"poiid":"B2094757D66FA7FE4993","title":"上海大学羽毛球馆","lon":"121.41815227","lat":"31.325263607","category":"500","category_name":"未知分类","address":"宝山区上大路99号上海大学内(近南陈路)"},{"poiid":"B2094750D365A0FD4693","title":"上海飞机制造有限公司","lon":"121.419914","lat":"31.323566","category":"263","category_name":"公司","address":null},{"poiid":"B2094655D26FA6F94299","title":"格林豪泰酒店(共康店)","lon":"121.43583","lat":"31.32137","category":"216","category_name":"经济型连锁酒店","address":"宝山区共康路555号(近长临路)"},{"poiid":"B2094757D469A5F94199","title":"德克士 沪太路店","lon":"121.4059498","lat":"31.3301162","category":"68","category_name":"快餐厅","address":"宝山区沪太路3987-3989号东方国贸新城1楼"},{"poiid":"B2094757D168AAFD469E","title":"庙行社区卫生服务中心","lon":"121.42448425","lat":"31.327952167","category":"500","category_name":"未知分类","address":"上海庙行"},{"poiid":"B2094757D06AA3FD469E","title":"陈伯吹实验幼儿园","lon":"121.432951217","lat":"31.3295597252","category":"57","category_name":"幼儿园","address":"宝山区长临路1236号"},{"poiid":"B2094757D16AA2F8459F","title":"宝安公路","lon":"121.42395095","lat":"31.3204129235","category":"500","category_name":"未知分类","address":"上海宝安公路"},{"poiid":"B2094751D265A7F4419E","title":"江芝南大酒店","lon":"121.42901","lat":"31.33261","category":"76","category_name":"上海菜","address":"宝山区场北路(近纪蕴路)"},{"poiid":"B2094654DB6AABF5499E","title":"上大阳光乾恩园","lon":"121.41116007124","lat":"31.315618633581","category":"47","category_name":"住宅区","address":"环镇北路655弄"},{"poiid":"B2094757D168A0FD4492","title":"经纬城市绿洲-阳光水岸家园","lon":"121.40630425","lat":"31.3280000687","category":"252","category_name":"楼宇机构","address":"上海纬地路88弄"},{"poiid":"B2094757D16CA1FE439C","title":"La Paleta","lon":"121.42511749","lat":"31.320384979","category":"500","category_name":"未知分类","address":"上海彩色盘8839"},{"poiid":"B2094655D36CA0F44699","title":"环镇北路","lon":"121.4079","lat":"31.30797","category":"38","category_name":"公交车站","address":""},{"poiid":"B2094655D264A1FF4198","title":"乾澄园","lon":"121.415","lat":"31.3136","category":"47","category_name":"住宅区","address":"上海市宝山区环镇北路300弄"},{"poiid":"B2094757D068ABFF4293","title":"巴黎贝甜(长临路店)","lon":"121.43468695","lat":"31.3217860498","category":"67","category_name":"甜品店","address":"宝山区共康路555号(近大康度假城)"},{"poiid":"B2094757D06BA7F4429C","title":"噢谢特","lon":"121.42021965","lat":"31.31604494","category":"249","category_name":"购物服务","address":"上海噢谢特"},{"poiid":"B2094751D26DA7F4499C","title":"中国商飞民用飞机试飞中心","lon":"121.418731","lat":"31.325757","category":"263","category_name":"公司","address":"大场机场"},{"poiid":"B2094753D46AA5F44099","title":"临汾路夜市","lon":"121.428428","lat":"31.321561","category":"247","category_name":"餐饮美食","address":"上海市 临汾路"},{"poiid":"B2094654D465A4FE439E","title":"共康便利店(共康路)","lon":"121.42732","lat":"31.3206","category":"117","category_name":"便民商店/便利店","address":"共康路888号"},{"poiid":"B209475CD76FABFC479F","title":"宝山万达影城","lon":"121.42984","lat":"31.318515","category":"178","category_name":"电影院","address":"上海市 一二八纪念路"},{"poiid":"B2094757D16DA2F84598","title":"鑫沪港海鲜大酒店","lon":"121.4069","lat":"31.32657","category":"76","category_name":"上海菜","address":"宝山区沪太路3677号(近东方国贸)"},{"poiid":"B2094655D36DA1FD499A","title":"万鸡场桥","lon":"121.42555","lat":"31.32408","category":"250","category_name":"公园户外","address":""},{"poiid":"B2094655D36DA6FE4399","title":"上大路","lon":"121.40928","lat":"31.31367","category":"38","category_name":"公交车站","address":""},{"poiid":"B2094655D264A0FB409D","title":"乾恩园二期","lon":"121.412691","lat":"31.313969","category":"47","category_name":"住宅区","address":"上海市宝山区环镇北路655弄"},{"poiid":"B2094757D06BA3FC4892","title":"环镇北路500弄","lon":"121.412","lat":"31.3135","category":"500","category_name":"未知分类","address":"上海环镇北路500弄"},{"poiid":"B2094752D06DAAFD4098","title":"万达影城","lon":"121.414062","lat":"31.327545","category":"178","category_name":"电影院","address":null},{"poiid":"B2094654DB6AABF5429F","title":"上海新通联包装材料有限公司","lon":"121.42555","lat":"31.32085","category":"263","category_name":"公司","address":"共康路999"},{"poiid":"B2094757D06FA3F9489D","title":"上大路地铁站","lon":"121.40900643","lat":"31.314450071","category":"36","category_name":"地铁站","address":"上海轨道交通 七号线 轨交上大路站 7"},{"poiid":"B2094655D265A1FA439D","title":"经纬城市绿洲","lon":"121.40513","lat":"31.32703","category":"47","category_name":"住宅区","address":"纬地路88弄1-107号"},{"poiid":"B2094655D26FA6FB4792","title":"共康四村","lon":"121.43363","lat":"31.32072","category":"47","category_name":"住宅区","address":"长临路380弄1-185号"},{"poiid":"B2094654D464A5F94692","title":"共康八村","lon":"121.43336","lat":"31.324244","category":"47","category_name":"住宅区","address":"长临路880弄"},{"poiid":"B2094757D16FABFC4499","title":"共康雅苑","lon":"121.43021595","lat":"31.3284111765","category":"47","category_name":"住宅区","address":"上海花园宅路"},{"poiid":"B2094655D26FA1FE419F","title":"9英里","lon":"121.43074","lat":"31.3295","category":"47","category_name":"住宅区","address":"长临路1318弄"},{"poiid":"B2094757D068ABFE4598","title":"大康度假城室内水上世界","lon":"121.435832101","lat":"31.3213803431","category":"173","category_name":"游戏厅","address":"宝山区共康路555号(近长临路)"},{"poiid":"B2094757D06FAAFF4692","title":"肯德基 KFC (长临店)","lon":"121.435666","lat":"31.321406","category":"68","category_name":"快餐厅","address":"宝山区共康路555号(近长临路)"},{"poiid":"B2094757D068A3FF429D","title":"屹立家园","lon":"121.43272","lat":"31.326672","category":"47","category_name":"住宅区","address":"上海宝山区长临路1118弄"},{"poiid":"B2094655D26DA4FF4192","title":"华东师范大学宝山实验学校","lon":"121.43272","lat":"31.32859","category":"55","category_name":"中学","address":""},{"poiid":"B2094757D068A1FA4092","title":"老盛昌苏州汤包馆(环镇北路店)","lon":"121.41023","lat":"31.30774","category":"87","category_name":"特色／地方风味餐厅","address":"宝山区场联路口(近环镇北路)"},{"poiid":"B2094757D56DA0F84598","title":"北斗星营业厅","lon":"121.435524","lat":"31.324114","category":"151","category_name":"电讯营业厅","address":"长临路913号207室"},{"poiid":"B2094654DB6AABF5499B","title":"上大阳光乾静园","lon":"121.40745","lat":"31.31087","category":"47","category_name":"住宅区","address":"上海市宝山区上大路128弄"},{"poiid":"B2094654D465A6FD499F","title":"东方国贸新城","lon":"121.406136","lat":"31.329373","category":"248","category_name":"生活娱乐","address":"沪太路3999号"},{"poiid":"B2094654D465A6FE4792","title":"大康公寓","lon":"121.42245","lat":"31.3202","category":"47","category_name":"住宅区","address":"共康路1089弄"},{"poiid":"B2094655D26CA0FF479E","title":"邻里人家 北斗星广场店","lon":"121.436026054","lat":"31.324971793","category":"76","category_name":"上海菜","address":"宝山区长临路959弄37号北斗星商业广场1楼(近共康路)"},{"poiid":"B2094757D06FA1FB489E","title":"一兆韦德(北斗星店)","lon":"121.43486","lat":"31.32605","category":"221","category_name":"健身中心","address":"宝山区长临路969号959弄11号北斗星商业广场4楼(近共康路)"},{"poiid":"B2094654DB6AABF54998","title":"乾泽园","lon":"121.40899283552","lat":"31.316330635524","category":"47","category_name":"住宅区","address":"上海环镇北路699弄"},{"poiid":"B2094654DB6AABFD439D","title":"豪享来上海共康店","lon":"121.4361","lat":"31.3223","category":"247","category_name":"餐饮美食","address":"上海市宝山区共康路555号"},{"poiid":"B2094751D26CA0F5489F","title":"同济大学附属第十人民医院","lon":"121.418724","lat":"31.325757","category":"162","category_name":"医院","address":"延长路301号"},{"poiid":"B2094753D665A0FC429C","title":"宝山区万达广场","lon":"121.418792","lat":"31.32582","category":"500","category_name":"未知分类","address":"上海市 共和新路一二八纪念路"},{"poiid":"B2094757D068A1FB459C","title":"乾清园","lon":"121.41009","lat":"31.310429","category":"500","category_name":"未知分类","address":"上海市宝山区环镇北路152号"},{"poiid":"B2094757D169AAF9459B","title":"宜仕怡家","lon":"121.42443595","lat":"31.320389423","category":"47","category_name":"住宅区","address":"上海徐匯區龍華西路591弄"},{"poiid":"B2094757D065A1FB499C","title":"东方国贸","lon":"121.407152","lat":"31.327869","category":"500","category_name":"未知分类","address":"宝山区沪太路3999号"},{"poiid":"B2094757D66FA7FE4993","title":"上海大学羽毛球馆","lon":"121.41815227","lat":"31.325263607","category":"500","category_name":"未知分类","address":"宝山区上大路99号上海大学内(近南陈路)"},{"poiid":"B2094750D365A0FD4693","title":"上海飞机制造有限公司","lon":"121.419914","lat":"31.323566","category":"263","category_name":"公司","address":null},{"poiid":"B2094655D26FA6F94299","title":"格林豪泰酒店(共康店)","lon":"121.43583","lat":"31.32137","category":"216","category_name":"经济型连锁酒店","address":"宝山区共康路555号(近长临路)"},{"poiid":"B2094757D469A5F94199","title":"德克士 沪太路店","lon":"121.4059498","lat":"31.3301162","category":"68","category_name":"快餐厅","address":"宝山区沪太路3987-3989号东方国贸新城1楼"},{"poiid":"B2094757D168AAFD469E","title":"庙行社区卫生服务中心","lon":"121.42448425","lat":"31.327952167","category":"500","category_name":"未知分类","address":"上海庙行"},{"poiid":"B2094757D06AA3FD469E","title":"陈伯吹实验幼儿园","lon":"121.432951217","lat":"31.3295597252","category":"57","category_name":"幼儿园","address":"宝山区长临路1236号"},{"poiid":"B2094757D16AA2F8459F","title":"宝安公路","lon":"121.42395095","lat":"31.3204129235","category":"500","category_name":"未知分类","address":"上海宝安公路"},{"poiid":"B2094751D265A7F4419E","title":"江芝南大酒店","lon":"121.42901","lat":"31.33261","category":"76","category_name":"上海菜","address":"宝山区场北路(近纪蕴路)"},{"poiid":"B2094654DB6AABF5499E","title":"上大阳光乾恩园","lon":"121.41116007124","lat":"31.315618633581","category":"47","category_name":"住宅区","address":"环镇北路655弄"},{"poiid":"B2094757D168A0FD4492","title":"经纬城市绿洲-阳光水岸家园","lon":"121.40630425","lat":"31.3280000687","category":"252","category_name":"楼宇机构","address":"上海纬地路88弄"},{"poiid":"B2094757D16CA1FE439C","title":"La Paleta","lon":"121.42511749","lat":"31.320384979","category":"500","category_name":"未知分类","address":"上海彩色盘8839"},{"poiid":"B2094655D36CA0F44699","title":"环镇北路","lon":"121.4079","lat":"31.30797","category":"38","category_name":"公交车站","address":""},{"poiid":"B2094655D264A1FF4198","title":"乾澄园","lon":"121.415","lat":"31.3136","category":"47","category_name":"住宅区","address":"上海市宝山区环镇北路300弄"},{"poiid":"B2094757D068ABFF4293","title":"巴黎贝甜(长临路店)","lon":"121.43468695","lat":"31.3217860498","category":"67","category_name":"甜品店","address":"宝山区共康路555号(近大康度假城)"},{"poiid":"B2094757D06BA7F4429C","title":"噢谢特","lon":"121.42021965","lat":"31.31604494","category":"249","category_name":"购物服务","address":"上海噢谢特"},{"poiid":"B2094751D26DA7F4499C","title":"中国商飞民用飞机试飞中心","lon":"121.418731","lat":"31.325757","category":"263","category_name":"公司","address":"大场机场"},{"poiid":"B2094753D46AA5F44099","title":"临汾路夜市","lon":"121.428428","lat":"31.321561","category":"247","category_name":"餐饮美食","address":"上海市 临汾路"},{"poiid":"B2094654D465A4FE439E","title":"共康便利店(共康路)","lon":"121.42732","lat":"31.3206","category":"117","category_name":"便民商店/便利店","address":"共康路888号"},{"poiid":"B209475CD76FABFC479F","title":"宝山万达影城","lon":"121.42984","lat":"31.318515","category":"178","category_name":"电影院","address":"上海市 一二八纪念路"},{"poiid":"B2094757D16DA2F84598","title":"鑫沪港海鲜大酒店","lon":"121.4069","lat":"31.32657","category":"76","category_name":"上海菜","address":"宝山区沪太路3677号(近东方国贸)"},{"poiid":"B2094655D36DA1FD499A","title":"万鸡场桥","lon":"121.42555","lat":"31.32408","category":"250","category_name":"公园户外","address":""},{"poiid":"B2094655D36DA6FE4399","title":"上大路","lon":"121.40928","lat":"31.31367","category":"38","category_name":"公交车站","address":""},{"poiid":"B2094655D264A0FB409D","title":"乾恩园二期","lon":"121.412691","lat":"31.313969","category":"47","category_name":"住宅区","address":"上海市宝山区环镇北路655弄"},{"poiid":"B2094757D06BA3FC4892","title":"环镇北路500弄","lon":"121.412","lat":"31.3135","category":"500","category_name":"未知分类","address":"上海环镇北路500弄"},{"poiid":"B2094752D06DAAFD4098","title":"万达影城","lon":"121.414062","lat":"31.327545","category":"178","category_name":"电影院","address":null},{"poiid":"B2094654DB6AABF5429F","title":"上海新通联包装材料有限公司","lon":"121.42555","lat":"31.32085","category":"263","category_name":"公司","address":"共康路999"},{"poiid":"B2094757D06FA3F9489D","title":"上大路地铁站","lon":"121.40900643","lat":"31.314450071","category":"36","category_name":"地铁站","address":"上海轨道交通 七号线 轨交上大路站 7"},{"poiid":"B2094655D265A1FA439D","title":"经纬城市绿洲","lon":"121.40513","lat":"31.32703","category":"47","category_name":"住宅区","address":"纬地路88弄1-107号"},{"poiid":"B2094655D26FA6FB4792","title":"共康四村","lon":"121.43363","lat":"31.32072","category":"47","category_name":"住宅区","address":"长临路380弄1-185号"},{"poiid":"B2094654D464A5F94692","title":"共康八村","lon":"121.43336","lat":"31.324244","category":"47","category_name":"住宅区","address":"长临路880弄"},{"poiid":"B2094757D16FABFC4499","title":"共康雅苑","lon":"121.43021595","lat":"31.3284111765","category":"47","category_name":"住宅区","address":"上海花园宅路"},{"poiid":"B2094655D26FA1FE419F","title":"9英里","lon":"121.43074","lat":"31.3295","category":"47","category_name":"住宅区","address":"长临路1318弄"},{"poiid":"B2094757D068ABFE4598","title":"大康度假城室内水上世界","lon":"121.435832101","lat":"31.3213803431","category":"173","category_name":"游戏厅","address":"宝山区共康路555号(近长临路)"},{"poiid":"B2094757D06FAAFF4692","title":"肯德基 KFC (长临店)","lon":"121.435666","lat":"31.321406","category":"68","category_name":"快餐厅","address":"宝山区共康路555号(近长临路)"},{"poiid":"B2094757D068A3FF429D","title":"屹立家园","lon":"121.43272","lat":"31.326672","category":"47","category_name":"住宅区","address":"上海宝山区长临路1118弄"},{"poiid":"B2094655D26DA4FF4192","title":"华东师范大学宝山实验学校","lon":"121.43272","lat":"31.32859","category":"55","category_name":"中学","address":""},{"poiid":"B2094757D068A1FA4092","title":"老盛昌苏州汤包馆(环镇北路店)","lon":"121.41023","lat":"31.30774","category":"87","category_name":"特色／地方风味餐厅","address":"宝山区场联路口(近环镇北路)"},{"poiid":"B2094757D56DA0F84598","title":"北斗星营业厅","lon":"121.435524","lat":"31.324114","category":"151","category_name":"电讯营业厅","address":"长临路913号207室"},{"poiid":"B2094654DB6AABF5499B","title":"上大阳光乾静园","lon":"121.40745","lat":"31.31087","category":"47","category_name":"住宅区","address":"上海市宝山区上大路128弄"},{"poiid":"B2094654D465A6FD499F","title":"东方国贸新城","lon":"121.406136","lat":"31.329373","category":"248","category_name":"生活娱乐","address":"沪太路3999号"},{"poiid":"B2094654D465A6FE4792","title":"大康公寓","lon":"121.42245","lat":"31.3202","category":"47","category_name":"住宅区","address":"共康路1089弄"},{"poiid":"B2094655D26CA0FF479E","title":"邻里人家 北斗星广场店","lon":"121.436026054","lat":"31.324971793","category":"76","category_name":"上海菜","address":"宝山区长临路959弄37号北斗星商业广场1楼(近共康路)"},{"poiid":"B2094757D06FA1FB489E","title":"一兆韦德(北斗星店)","lon":"121.43486","lat":"31.32605","category":"221","category_name":"健身中心","address":"宝山区长临路969号959弄11号北斗星商业广场4楼(近共康路)"},{"poiid":"B2094654DB6AABF54998","title":"乾泽园","lon":"121.40899283552","lat":"31.316330635524","category":"47","category_name":"住宅区","address":"上海环镇北路699弄"},{"poiid":"B2094654DB6AABFD439D","title":"豪享来上海共康店","lon":"121.4361","lat":"31.3223","category":"247","category_name":"餐饮美食","address":"上海市宝山区共康路555号"},{"poiid":"B2094751D26CA0F5489F","title":"同济大学附属第十人民医院","lon":"121.418724","lat":"31.325757","category":"162","category_name":"医院","address":"延长路301号"},{"poiid":"B2094753D665A0FC429C","title":"宝山区万达广场","lon":"121.418792","lat":"31.32582","category":"500","category_name":"未知分类","address":"上海市 共和新路一二八纪念路"},{"poiid":"B2094757D068A1FB459C","title":"乾清园","lon":"121.41009","lat":"31.310429","category":"500","category_name":"未知分类","address":"上海市宝山区环镇北路152号"},{"poiid":"B2094757D169AAF9459B","title":"宜仕怡家","lon":"121.42443595","lat":"31.320389423","category":"47","category_name":"住宅区","address":"上海徐匯區龍華西路591弄"},{"poiid":"B2094757D065A1FB499C","title":"东方国贸","lon":"121.407152","lat":"31.327869","category":"500","category_name":"未知分类","address":"宝山区沪太路3999号"},{"poiid":"B2094757D66FA7FE4993","title":"上海大学羽毛球馆","lon":"121.41815227","lat":"31.325263607","category":"500","category_name":"未知分类","address":"宝山区上大路99号上海大学内(近南陈路)"},{"poiid":"B2094750D365A0FD4693","title":"上海飞机制造有限公司","lon":"121.419914","lat":"31.323566","category":"263","category_name":"公司","address":null},{"poiid":"B2094655D26FA6F94299","title":"格林豪泰酒店(共康店)","lon":"121.43583","lat":"31.32137","category":"216","category_name":"经济型连锁酒店","address":"宝山区共康路555号(近长临路)"},{"poiid":"B2094757D469A5F94199","title":"德克士 沪太路店","lon":"121.4059498","lat":"31.3301162","category":"68","category_name":"快餐厅","address":"宝山区沪太路3987-3989号东方国贸新城1楼"},{"poiid":"B2094757D168AAFD469E","title":"庙行社区卫生服务中心","lon":"121.42448425","lat":"31.327952167","category":"500","category_name":"未知分类","address":"上海庙行"},{"poiid":"B2094757D06AA3FD469E","title":"陈伯吹实验幼儿园","lon":"121.432951217","lat":"31.3295597252","category":"57","category_name":"幼儿园","address":"宝山区长临路1236号"},{"poiid":"B2094757D16AA2F8459F","title":"宝安公路","lon":"121.42395095","lat":"31.3204129235","category":"500","category_name":"未知分类","address":"上海宝安公路"},{"poiid":"B2094751D265A7F4419E","title":"江芝南大酒店","lon":"121.42901","lat":"31.33261","category":"76","category_name":"上海菜","address":"宝山区场北路(近纪蕴路)"},{"poiid":"B2094654DB6AABF5499E","title":"上大阳光乾恩园","lon":"121.41116007124","lat":"31.315618633581","category":"47","category_name":"住宅区","address":"环镇北路655弄"},{"poiid":"B2094757D168A0FD4492","title":"经纬城市绿洲-阳光水岸家园","lon":"121.40630425","lat":"31.3280000687","category":"252","category_name":"楼宇机构","address":"上海纬地路88弄"},{"poiid":"B2094757D16CA1FE439C","title":"La Paleta","lon":"121.42511749","lat":"31.320384979","category":"500","category_name":"未知分类","address":"上海彩色盘8839"},{"poiid":"B2094655D36CA0F44699","title":"环镇北路","lon":"121.4079","lat":"31.30797","category":"38","category_name":"公交车站","address":""},{"poiid":"B2094655D264A1FF4198","title":"乾澄园","lon":"121.415","lat":"31.3136","category":"47","category_name":"住宅区","address":"上海市宝山区环镇北路300弄"},{"poiid":"B2094757D068ABFF4293","title":"巴黎贝甜(长临路店)","lon":"121.43468695","lat":"31.3217860498","category":"67","category_name":"甜品店","address":"宝山区共康路555号(近大康度假城)"},{"poiid":"B2094757D06BA7F4429C","title":"噢谢特","lon":"121.42021965","lat":"31.31604494","category":"249","category_name":"购物服务","address":"上海噢谢特"},{"poiid":"B2094751D26DA7F4499C","title":"中国商飞民用飞机试飞中心","lon":"121.418731","lat":"31.325757","category":"263","category_name":"公司","address":"大场机场"},{"poiid":"B2094753D46AA5F44099","title":"临汾路夜市","lon":"121.428428","lat":"31.321561","category":"247","category_name":"餐饮美食","address":"上海市 临汾路"},{"poiid":"B2094654D465A4FE439E","title":"共康便利店(共康路)","lon":"121.42732","lat":"31.3206","category":"117","category_name":"便民商店/便利店","address":"共康路888号"},{"poiid":"B209475CD76FABFC479F","title":"宝山万达影城","lon":"121.42984","lat":"31.318515","category":"178","category_name":"电影院","address":"上海市 一二八纪念路"},{"poiid":"B2094757D16DA2F84598","title":"鑫沪港海鲜大酒店","lon":"121.4069","lat":"31.32657","category":"76","category_name":"上海菜","address":"宝山区沪太路3677号(近东方国贸)"},{"poiid":"B2094655D36DA1FD499A","title":"万鸡场桥","lon":"121.42555","lat":"31.32408","category":"250","category_name":"公园户外","address":""},{"poiid":"B2094655D36DA6FE4399","title":"上大路","lon":"121.40928","lat":"31.31367","category":"38","category_name":"公交车站","address":""},{"poiid":"B2094655D264A0FB409D","title":"乾恩园二期","lon":"121.412691","lat":"31.313969","category":"47","category_name":"住宅区","address":"上海市宝山区环镇北路655弄"},{"poiid":"B2094757D06BA3FC4892","title":"环镇北路500弄","lon":"121.412","lat":"31.3135","category":"500","category_name":"未知分类","address":"上海环镇北路500弄"},{"poiid":"B2094752D06DAAFD4098","title":"万达影城","lon":"121.414062","lat":"31.327545","category":"178","category_name":"电影院","address":null},{"poiid":"B2094654DB6AABF5429F","title":"上海新通联包装材料有限公司","lon":"121.42555","lat":"31.32085","category":"263","category_name":"公司","address":"共康路999"}]