[{"poiid":"B2094654DA6FA6F4429D","title":"七浦路服装批发市场(七浦路)","lon":"121.47849","lat":"31.24509","category":"141","category_name":"服装鞋帽皮具店","address":"闸北区七浦路303号(近河南北路)"},{"poiid":"B2094757D068A4F44098","title":"新金桥广场","lon":"121.479","lat":"31.243","category":"46","category_name":"楼宇","address":"上海市黄浦区北京西路1号"},{"poiid":"B2094750DB6BA0F9439D","title":"江边城外（大悦城店）","lon":"121.474555","lat":"31.243404","category":"247","category_name":"餐饮美食","address":"大悦城"},{"poiid":"B209475CD564A7F84292","title":"上海滩新天地店","lon":"121.47463","lat":"31.22164","category":"119","category_name":"商场","address":"\"太仓路181弄新天地北里15号\r\n\""},{"poiid":"B209475CD564A7F8439E","title":"上海滩中信泰富店","lon":"121.45602","lat":"31.22851","category":"119","category_name":"商场","address":"\"南京西路1168号中信泰富广场，店铺号221.\r\n\""},{"poiid":"B209475CD564A7F84392","title":"上海滩浦东香格里拉店","lon":"121.50058","lat":"31.23634","category":"119","category_name":"商场","address":"浦东富成路33号香格里拉酒店内大堂层"},{"poiid":"B2094750DB65AAFB489A","title":"大悦城","lon":"121.476074","lat":"31.24032","category":"500","category_name":"未知分类","address":null},{"poiid":"B2094655D264A0FE4099","title":"圣和圣韩国馆","lon":"121.48016","lat":"31.24638","category":"141","category_name":"服装鞋帽皮具店","address":""},{"poiid":"B2094757D068A0FA4698","title":"肯德基(七浦路店)","lon":"121.480537","lat":"31.24559","category":"68","category_name":"快餐厅","address":"虹口区七浦路133号兴旺国际服饰城1楼(近河南北路)"},{"poiid":"B2094757DA69A2F54493","title":"金逸院线新恒星影城","lon":"121.47467","lat":"31.24432","category":"178","category_name":"电影院","address":"西藏北路166号大悦城10-11楼"},{"poiid":"B2094757D069A6FB4398","title":"七浦路韩国馆","lon":"121.4782303","lat":"31.245244","category":"500","category_name":"未知分类","address":"上海七浦路批发市场"},{"poiid":"B2094757D069A3FA479D","title":"六合大厦","lon":"121.481","lat":"31.2432","category":"46","category_name":"楼宇","address":"上海市四川北路1851号"},{"poiid":"B2094655D26CABF4409A","title":"七浦商业街","lon":"121.48107","lat":"31.24392","category":"116","category_name":"特色商业街","address":""},{"poiid":"B2094757D068ABF44393","title":"美欣大厦","lon":"121.48","lat":"31.2461","category":"46","category_name":"楼宇","address":"浦东临港新城主城区申港大道200号"},{"poiid":"B2094655D36CA7FB419C","title":"海宁路浙江北路","lon":"121.47581","lat":"31.24608","category":"38","category_name":"公交车站","address":""},{"poiid":"B2094654DA68A3FA4499","title":"长新大楼","lon":"121.476","lat":"31.2446","category":"46","category_name":"楼宇","address":"静安区长寿路(万航渡路口)"},{"poiid":"B2094750DB6CA4FE449D","title":"正大","lon":"121.475636","lat":"31.24442","category":"500","category_name":"未知分类","address":null},{"poiid":"B2094757D068A5F8499B","title":"妯娌老鸭粉丝(七浦路店)","lon":"121.47583","lat":"31.24439","category":"257","category_name":"中餐厅","address":"上海虹口区七浦路  "},{"poiid":"B2094654DA6FA6F4479F","title":"天星大厦","lon":"121.47881","lat":"31.24381","category":"46","category_name":"楼宇","address":"天潼路768号"},{"poiid":"B2094757D169A5F54592","title":"天福牛肉面馆","lon":"121.47751","lat":"31.24311","category":"87","category_name":"特色／地方风味餐厅","address":"闸北区天潼路855号(近浙江路)"},{"poiid":"B2094757DA6BA4FA429C","title":"长泰企业天地广场","lon":"121.476942","lat":"31.245884","category":"252","category_name":"楼宇机构","address":"城阳308国道西侧，华仙路北侧"},{"poiid":"B2094654DA6FA6F84999","title":"七浦商厦","lon":"121.47499","lat":"31.24441","category":"46","category_name":"楼宇","address":"七浦路535"},{"poiid":"B2094654DA6FA6FB4293","title":"白马大厦(东楼)","lon":"121.47773","lat":"31.24554","category":"46","category_name":"楼宇","address":"塘沽路985号"},{"poiid":"B2094752DA68A6FC4598","title":"新白鹿酒店","lon":"121.478016","lat":"31.24367","category":"247","category_name":"餐饮美食","address":"上海市 东方商厦9楼"},{"poiid":"B2094757D069A0F94093","title":"焦叶(大悦城店)","lon":"121.47440831","lat":"31.245327969","category":"110","category_name":"其他亚洲菜","address":"上海大悦城7楼"},{"poiid":"B2094654DB65A0F54898","title":"茶风暴 七浦路店 Tea Storm","lon":"121.475365054","lat":"31.244604793","category":"113","category_name":"冷饮店","address":"虹口区七浦路486号(近浙江路)"},{"poiid":"B2094654DA6FA6F94998","title":"中共三大后中央局机关历史纪念馆","lon":"121.4762","lat":"31.2437","category":"243","category_name":"纪念馆","address":"浙江北路118号"},{"poiid":"B2094757D66CA3F9419D","title":"上海轨道交通新闸路职工食堂","lon":"121.477387","lat":"31.243999","category":"500","category_name":"未知分类","address":"上海市新闸路"},{"poiid":"B2094655D265A7FF419C","title":"重庆鸡公堡","lon":"121.47906","lat":"31.24336","category":"257","category_name":"中餐厅","address":"黄浦区山西路(近南京东路)"},{"poiid":"B2094752D368A7FA479B","title":"星怡会","lon":"121.474488","lat":"31.245342","category":"247","category_name":"餐饮美食","address":"四川北路1360号中信泰富虹广场303单元"},{"poiid":"B2094654DA6FA6F9489E","title":"上海良友连锁经营有限公司天潼店","lon":"121.47683","lat":"31.24332","category":"117","category_name":"便民商店/便利店","address":"天潼路868"},{"poiid":"B2094655D265A5FF4892","title":"买买提的故事","lon":"121.47857","lat":"31.24374","category":"90","category_name":"清真餐馆","address":""},{"poiid":"B2094654DA6FAAF44792","title":"四行仓库创意科技园区","lon":"121.478","lat":"31.2464","category":"45","category_name":"产业园区","address":"光复路1号老四行创意园5-6层"},{"poiid":"B2094757D16AA0F84699","title":"真功夫 金浦店","lon":"121.480173054","lat":"31.245301793","category":"68","category_name":"快餐厅","address":"虹口区七浦路258号(山西北路口)"},{"poiid":"B2094655D26DAAFC489B","title":"南唐小区(北门)","lon":"121.47724","lat":"31.24318","category":"47","category_name":"住宅区","address":"天潼路847弄"},{"poiid":"B2094655D26CABF4449E","title":"福庆坊","lon":"121.47652","lat":"31.24389","category":"47","category_name":"住宅区","address":"浙江北路132弄"},{"poiid":"B2094654DA68A3FC489B","title":"金瓯万国大厦","lon":"121.47591985314","lat":"31.240754198427","category":"46","category_name":"楼宇","address":"上海市黄浦区新昌路180号"},{"poiid":"B2094654DA68A3FA469A","title":"家化中房苑","lon":"121.479","lat":"31.2454","category":"46","category_name":"楼宇","address":"西藏中路725弄10-12号"},{"poiid":"B209475CDA64A2FD479B","title":"外白渡桥","lon":"121.47705","lat":"31.243576","category":"500","category_name":"未知分类","address":"上海市 天潼路"},{"poiid":"B2094654DA6FA2F8429C","title":"南高寿里","lon":"121.47594","lat":"31.246386","category":"47","category_name":"住宅区","address":"海宁路942弄"},{"poiid":"B2094654DA6FA6F54592","title":"联富假日公寓","lon":"121.48061","lat":"31.24444","category":"47","category_name":"住宅区","address":"山西北路222弄"},{"poiid":"B2094757D164A5FE4998","title":"中石油加油站 建行洗车点","lon":"121.47737806","lat":"31.244830781","category":"500","category_name":"未知分类","address":"上海海宁路浙江路"},{"poiid":"B2094655D26DABFB4493","title":"上海豪浦服饰城","lon":"121.48032","lat":"31.24527","category":"141","category_name":"服装鞋帽皮具店","address":"闸北七浦路225号"},{"poiid":"B2094750D76FABFE4299","title":"OASE釜山料理","lon":"121.481","lat":"31.2466","category":"96","category_name":"韩国料理","address":"虹口区河南北路233号圣和圣时尚汇5楼(新七浦对面)"},{"poiid":"B2094655D26CABF4449F","title":"福庆坊(西门)","lon":"121.47617","lat":"31.24394","category":"47","category_name":"住宅区","address":"浙江北路132弄"},{"poiid":"B2094757D66EA0FA4992","title":"天潼路800弄","lon":"121.47802734","lat":"31.243759155","category":"500","category_name":"未知分类","address":"上海天潼路800弄"},{"poiid":"B2094654DB6BABFC489C","title":"赛博数码广场(福建北路)","lon":"121.47861","lat":"31.24358","category":"138","category_name":"家电电子卖场","address":""},{"poiid":"B2094654DA6FA6FA479F","title":"白马大厦高级服装市场","lon":"121.47797","lat":"31.24549","category":"141","category_name":"服装鞋帽皮具店","address":"七浦路488"},{"poiid":"B2094757D06BAAFE429C","title":"新川专线","lon":"121.47561938","lat":"31.2443002","category":"38","category_name":"公交车站","address":"川沙镇—上海火车站"},{"poiid":"B2094655D36DA7FE4493","title":"浙江北路","lon":"121.47635","lat":"31.24255","category":"38","category_name":"公交车站","address":""},{"poiid":"B2094654DA6FA6F4429D","title":"七浦路服装批发市场(七浦路)","lon":"121.47849","lat":"31.24509","category":"141","category_name":"服装鞋帽皮具店","address":"闸北区七浦路303号(近河南北路)"},{"poiid":"B2094757D068A4F44098","title":"新金桥广场","lon":"121.479","lat":"31.243","category":"46","category_name":"楼宇","address":"上海市黄浦区北京西路1号"},{"poiid":"B2094750DB6BA0F9439D","title":"江边城外（大悦城店）","lon":"121.474555","lat":"31.243404","category":"247","category_name":"餐饮美食","address":"大悦城"},{"poiid":"B209475CD564A7F84292","title":"上海滩新天地店","lon":"121.47463","lat":"31.22164","category":"119","category_name":"商场","address":"\"太仓路181弄新天地北里15号\r\n\""},{"poiid":"B209475CD564A7F8439E","title":"上海滩中信泰富店","lon":"121.45602","lat":"31.22851","category":"119","category_name":"商场","address":"\"南京西路1168号中信泰富广场，店铺号221.\r\n\""},{"poiid":"B209475CD564A7F84392","title":"上海滩浦东香格里拉店","lon":"121.50058","lat":"31.23634","category":"119","category_name":"商场","address":"浦东富成路33号香格里拉酒店内大堂层"},{"poiid":"B2094750DB65AAFB489A","title":"大悦城","lon":"121.476074","lat":"31.24032","category":"500","category_name":"未知分类","address":null},{"poiid":"B2094655D264A0FE4099","title":"圣和圣韩国馆","lon":"121.48016","lat":"31.24638","category":"141","category_name":"服装鞋帽皮具店","address":""},{"poiid":"B2094757D068A0FA4698","title":"肯德基(七浦路店)","lon":"121.480537","lat":"31.24559","category":"68","category_name":"快餐厅","address":"虹口区七浦路133号兴旺国际服饰城1楼(近河南北路)"},{"poiid":"B2094757DA69A2F54493","title":"金逸院线新恒星影城","lon":"121.47467","lat":"31.24432","category":"178","category_name":"电影院","address":"西藏北路166号大悦城10-11楼"},{"poiid":"B2094757D069A6FB4398","title":"七浦路韩国馆","lon":"121.4782303","lat":"31.245244","category":"500","category_name":"未知分类","address":"上海七浦路批发市场"},{"poiid":"B2094757D069A3FA479D","title":"六合大厦","lon":"121.481","lat":"31.2432","category":"46","category_name":"楼宇","address":"上海市四川北路1851号"},{"poiid":"B2094655D26CABF4409A","title":"七浦商业街","lon":"121.48107","lat":"31.24392","category":"116","category_name":"特色商业街","address":""},{"poiid":"B2094757D068ABF44393","title":"美欣大厦","lon":"121.48","lat":"31.2461","category":"46","category_name":"楼宇","address":"浦东临港新城主城区申港大道200号"},{"poiid":"B2094655D36CA7FB419C","title":"海宁路浙江北路","lon":"121.47581","lat":"31.24608","category":"38","category_name":"公交车站","address":""},{"poiid":"B2094654DA68A3FA4499","title":"长新大楼","lon":"121.476","lat":"31.2446","category":"46","category_name":"楼宇","address":"静安区长寿路(万航渡路口)"},{"poiid":"B2094750DB6CA4FE449D","title":"正大","lon":"121.475636","lat":"31.24442","category":"500","category_name":"未知分类","address":null},{"poiid":"B2094757D068A5F8499B","title":"妯娌老鸭粉丝(七浦路店)","lon":"121.47583","lat":"31.24439","category":"257","category_name":"中餐厅","address":"上海虹口区七浦路  "},{"poiid":"B2094654DA6FA6F4479F","title":"天星大厦","lon":"121.47881","lat":"31.24381","category":"46","category_name":"楼宇","address":"天潼路768号"},{"poiid":"B2094757D169A5F54592","title":"天福牛肉面馆","lon":"121.47751","lat":"31.24311","category":"87","category_name":"特色／地方风味餐厅","address":"闸北区天潼路855号(近浙江路)"},{"poiid":"B2094757DA6BA4FA429C","title":"长泰企业天地广场","lon":"121.476942","lat":"31.245884","category":"252","category_name":"楼宇机构","address":"城阳308国道西侧，华仙路北侧"},{"poiid":"B2094654DA6FA6F84999","title":"七浦商厦","lon":"121.47499","lat":"31.24441","category":"46","category_name":"楼宇","address":"七浦路535"},{"poiid":"B2094654DA6FA6FB4293","title":"白马大厦(东楼)","lon":"121.47773","lat":"31.24554","category":"46","category_name":"楼宇","address":"塘沽路985号"},{"poiid":"B2094752DA68A6FC4598","title":"新白鹿酒店","lon":"121.478016","lat":"31.24367","category":"247","category_name":"餐饮美食","address":"上海市 东方商厦9楼"},{"poiid":"B2094757D069A0F94093","title":"焦叶(大悦城店)","lon":"121.47440831","lat":"31.245327969","category":"110","category_name":"其他亚洲菜","address":"上海大悦城7楼"},{"poiid":"B2094654DB65A0F54898","title":"茶风暴 七浦路店 Tea Storm","lon":"121.475365054","lat":"31.244604793","category":"113","category_name":"冷饮店","address":"虹口区七浦路486号(近浙江路)"},{"poiid":"B2094654DA6FA6F94998","title":"中共三大后中央局机关历史纪念馆","lon":"121.4762","lat":"31.2437","category":"243","category_name":"纪念馆","address":"浙江北路118号"},{"poiid":"B2094757D66CA3F9419D","title":"上海轨道交通新闸路职工食堂","lon":"121.477387","lat":"31.243999","category":"500","category_name":"未知分类","address":"上海市新闸路"},{"poiid":"B2094655D265A7FF419C","title":"重庆鸡公堡","lon":"121.47906","lat":"31.24336","category":"257","category_name":"中餐厅","address":"黄浦区山西路(近南京东路)"},{"poiid":"B2094752D368A7FA479B","title":"星怡会","lon":"121.474488","lat":"31.245342","category":"247","category_name":"餐饮美食","address":"四川北路1360号中信泰富虹广场303单元"},{"poiid":"B2094654DA6FA6F9489E","title":"上海良友连锁经营有限公司天潼店","lon":"121.47683","lat":"31.24332","category":"117","category_name":"便民商店/便利店","address":"天潼路868"},{"poiid":"B2094655D265A5FF4892","title":"买买提的故事","lon":"121.47857","lat":"31.24374","category":"90","category_name":"清真餐馆","address":""},{"poiid":"B2094654DA6FAAF44792","title":"四行仓库创意科技园区","lon":"121.478","lat":"31.2464","category":"45","category_name":"产业园区","address":"光复路1号老四行创意园5-6层"},{"poiid":"B2094757D16AA0F84699","title":"真功夫 金浦店","lon":"121.480173054","lat":"31.245301793","category":"68","category_name":"快餐厅","address":"虹口区七浦路258号(山西北路口)"},{"poiid":"B2094655D26DAAFC489B","title":"南唐小区(北门)","lon":"121.47724","lat":"31.24318","category":"47","category_name":"住宅区","address":"天潼路847弄"},{"poiid":"B2094655D26CABF4449E","title":"福庆坊","lon":"121.47652","lat":"31.24389","category":"47","category_name":"住宅区","address":"浙江北路132弄"},{"poiid":"B2094654DA68A3FC489B","title":"金瓯万国大厦","lon":"121.47591985314","lat":"31.240754198427","category":"46","category_name":"楼宇","address":"上海市黄浦区新昌路180号"},{"poiid":"B2094654DA68A3FA469A","title":"家化中房苑","lon":"121.479","lat":"31.2454","category":"46","category_name":"楼宇","address":"西藏中路725弄10-12号"},{"poiid":"B209475CDA64A2FD479B","title":"外白渡桥","lon":"121.47705","lat":"31.243576","category":"500","category_name":"未知分类","address":"上海市 天潼路"},{"poiid":"B2094654DA6FA2F8429C","title":"南高寿里","lon":"121.47594","lat":"31.246386","category":"47","category_name":"住宅区","address":"海宁路942弄"},{"poiid":"B2094654DA6FA6F54592","title":"联富假日公寓","lon":"121.48061","lat":"31.24444","category":"47","category_name":"住宅区","address":"山西北路222弄"},{"poiid":"B2094757D164A5FE4998","title":"中石油加油站 建行洗车点","lon":"121.47737806","lat":"31.244830781","category":"500","category_name":"未知分类","address":"上海海宁路浙江路"},{"poiid":"B2094655D26DABFB4493","title":"上海豪浦服饰城","lon":"121.48032","lat":"31.24527","category":"141","category_name":"服装鞋帽皮具店","address":"闸北七浦路225号"},{"poiid":"B2094750D76FABFE4299","title":"OASE釜山料理","lon":"121.481","lat":"31.2466","category":"96","category_name":"韩国料理","address":"虹口区河南北路233号圣和圣时尚汇5楼(新七浦对面)"},{"poiid":"B2094655D26CABF4449F","title":"福庆坊(西门)","lon":"121.47617","lat":"31.24394","category":"47","category_name":"住宅区","address":"浙江北路132弄"},{"poiid":"B2094757D66EA0FA4992","title":"天潼路800弄","lon":"121.47802734","lat":"31.243759155","category":"500","category_name":"未知分类","address":"上海天潼路800弄"},{"poiid":"B2094654DB6BABFC489C","title":"赛博数码广场(福建北路)","lon":"121.47861","lat":"31.24358","category":"138","category_name":"家电电子卖场","address":""},{"poiid":"B2094654DA6FA6FA479F","title":"白马大厦高级服装市场","lon":"121.47797","lat":"31.24549","category":"141","category_name":"服装鞋帽皮具店","address":"七浦路488"},{"poiid":"B2094757D06BAAFE429C","title":"新川专线","lon":"121.47561938","lat":"31.2443002","category":"38","category_name":"公交车站","address":"川沙镇—上海火车站"},{"poiid":"B2094655D36DA7FE4493","title":"浙江北路","lon":"121.47635","lat":"31.24255","category":"38","category_name":"公交车站","address":""},{"poiid":"B2094654DA6FA6F4429D","title":"七浦路服装批发市场(七浦路)","lon":"121.47849","lat":"31.24509","category":"141","category_name":"服装鞋帽皮具店","address":"闸北区七浦路303号(近河南北路)"},{"poiid":"B2094757D068A4F44098","title":"新金桥广场","lon":"121.479","lat":"31.243","category":"46","category_name":"楼宇","address":"上海市黄浦区北京西路1号"},{"poiid":"B2094750DB6BA0F9439D","title":"江边城外（大悦城店）","lon":"121.474555","lat":"31.243404","category":"247","category_name":"餐饮美食","address":"大悦城"},{"poiid":"B209475CD564A7F84292","title":"上海滩新天地店","lon":"121.47463","lat":"31.22164","category":"119","category_name":"商场","address":"\"太仓路181弄新天地北里15号\r\n\""},{"poiid":"B209475CD564A7F8439E","title":"上海滩中信泰富店","lon":"121.45602","lat":"31.22851","category":"119","category_name":"商场","address":"\"南京西路1168号中信泰富广场，店铺号221.\r\n\""},{"poiid":"B209475CD564A7F84392","title":"上海滩浦东香格里拉店","lon":"121.50058","lat":"31.23634","category":"119","category_name":"商场","address":"浦东富成路33号香格里拉酒店内大堂层"},{"poiid":"B2094750DB65AAFB489A","title":"大悦城","lon":"121.476074","lat":"31.24032","category":"500","category_name":"未知分类","address":null},{"poiid":"B2094655D264A0FE4099","title":"圣和圣韩国馆","lon":"121.48016","lat":"31.24638","category":"141","category_name":"服装鞋帽皮具店","address":""},{"poiid":"B2094757D068A0FA4698","title":"肯德基(七浦路店)","lon":"121.480537","lat":"31.24559","category":"68","category_name":"快餐厅","address":"虹口区七浦路133号兴旺国际服饰城1楼(近河南北路)"},{"poiid":"B2094757DA69A2F54493","title":"金逸院线新恒星影城","lon":"121.47467","lat":"31.24432","category":"178","category_name":"电影院","address":"西藏北路166号大悦城10-11楼"},{"poiid":"B2094757D069A6FB4398","title":"七浦路韩国馆","lon":"121.4782303","lat":"31.245244","category":"500","category_name":"未知分类","address":"上海七浦路批发市场"},{"poiid":"B2094757D069A3FA479D","title":"六合大厦","lon":"121.481","lat":"31.2432","category":"46","category_name":"楼宇","address":"上海市四川北路1851号"},{"poiid":"B2094655D26CABF4409A","title":"七浦商业街","lon":"121.48107","lat":"31.24392","category":"116","category_name":"特色商业街","address":""},{"poiid":"B2094757D068ABF44393","title":"美欣大厦","lon":"121.48","lat":"31.2461","category":"46","category_name":"楼宇","address":"浦东临港新城主城区申港大道200号"},{"poiid":"B2094655D36CA7FB419C","title":"海宁路浙江北路","lon":"121.47581","lat":"31.24608","category":"38","category_name":"公交车站","address":""},{"poiid":"B2094654DA68A3FA4499","title":"长新大楼","lon":"121.476","lat":"31.2446","category":"46","category_name":"楼宇","address":"静安区长寿路(万航渡路口)"},{"poiid":"B2094750DB6CA4FE449D","title":"正大","lon":"121.475636","lat":"31.24442","category":"500","category_name":"未知分类","address":null},{"poiid":"B2094757D068A5F8499B","title":"妯娌老鸭粉丝(七浦路店)","lon":"121.47583","lat":"31.24439","category":"257","category_name":"中餐厅","address":"上海虹口区七浦路  "},{"poiid":"B2094654DA6FA6F4479F","title":"天星大厦","lon":"121.47881","lat":"31.24381","category":"46","category_name":"楼宇","address":"天潼路768号"},{"poiid":"B2094757D169A5F54592","title":"天福牛肉面馆","lon":"121.47751","lat":"31.24311","category":"87","category_name":"特色／地方风味餐厅","address":"闸北区天潼路855号(近浙江路)"},{"poiid":"B2094757DA6BA4FA429C","title":"长泰企业天地广场","lon":"121.476942","lat":"31.245884","category":"252","category_name":"楼宇机构","address":"城阳308国道西侧，华仙路北侧"},{"poiid":"B2094654DA6FA6F84999","title":"七浦商厦","lon":"121.47499","lat":"31.24441","category":"46","category_name":"楼宇","address":"七浦路535"},{"poiid":"B2094654DA6FA6FB4293","title":"白马大厦(东楼)","lon":"121.47773","lat":"31.24554","category":"46","category_name":"楼宇","address":"塘沽路985号"},{"poiid":"B2094752DA68A6FC4598","title":"新白鹿酒店","lon":"121.478016","lat":"31.24367","category":"247","category_name":"餐饮美食","address":"上海市 东方商厦9楼"},{"poiid":"B2094757D069A0F94093","title":"焦叶(大悦城店)","lon":"121.47440831","lat":"31.245327969","category":"110","category_name":"其他亚洲菜","address":"上海大悦城7楼"},{"poiid":"B2094654DB65A0F54898","title":"茶风暴 七浦路店 Tea Storm","lon":"121.475365054","lat":"31.244604793","category":"113","category_name":"冷饮店","address":"虹口区七浦路486号(近浙江路)"},{"poiid":"B2094654DA6FA6F94998","title":"中共三大后中央局机关历史纪念馆","lon":"121.4762","lat":"31.2437","category":"243","category_name":"纪念馆","address":"浙江北路118号"},{"poiid":"B2094757D66CA3F9419D","title":"上海轨道交通新闸路职工食堂","lon":"121.477387","lat":"31.243999","category":"500","category_name":"未知分类","address":"上海市新闸路"},{"poiid":"B2094655D265A7FF419C","title":"重庆鸡公堡","lon":"121.47906","lat":"31.24336","category":"257","category_name":"中餐厅","address":"黄浦区山西路(近南京东路)"},{"poiid":"B2094752D368A7FA479B","title":"星怡会","lon":"121.474488","lat":"31.245342","category":"247","category_name":"餐饮美食","address":"四川北路1360号中信泰富虹广场303单元"},{"poiid":"B2094654DA6FA6F9489E","title":"上海良友连锁经营有限公司天潼店","lon":"121.47683","lat":"31.24332","category":"117","category_name":"便民商店/便利店","address":"天潼路868"},{"poiid":"B2094655D265A5FF4892","title":"买买提的故事","lon":"121.47857","lat":"31.24374","category":"90","category_name":"清真餐馆","address":""},{"poiid":"B2094654DA6FAAF44792","title":"四行仓库创意科技园区","lon":"121.478","lat":"31.2464","category":"45","category_name":"产业园区","address":"光复路1号老四行创意园5-6层"},{"poiid":"B2094757D16AA0F84699","title":"真功夫 金浦店","lon":"121.480173054","lat":"31.245301793","category":"68","category_name":"快餐厅","address":"虹口区七浦路258号(山西北路口)"},{"poiid":"B2094655D26DAAFC489B","title":"南唐小区(北门)","lon":"121.47724","lat":"31.24318","category":"47","category_name":"住宅区","address":"天潼路847弄"},{"poiid":"B2094655D26CABF4449E","title":"福庆坊","lon":"121.47652","lat":"31.24389","category":"47","category_name":"住宅区","address":"浙江北路132弄"},{"poiid":"B2094654DA68A3FC489B","title":"金瓯万国大厦","lon":"121.47591985314","lat":"31.240754198427","category":"46","category_name":"楼宇","address":"上海市黄浦区新昌路180号"},{"poiid":"B2094654DA68A3FA469A","title":"家化中房苑","lon":"121.479","lat":"31.2454","category":"46","category_name":"楼宇","address":"西藏中路725弄10-12号"},{"poiid":"B209475CDA64A2FD479B","title":"外白渡桥","lon":"121.47705","lat":"31.243576","category":"500","category_name":"未知分类","address":"上海市 天潼路"},{"poiid":"B2094654DA6FA2F8429C","title":"南高寿里","lon":"121.47594","lat":"31.246386","category":"47","category_name":"住宅区","address":"海宁路942弄"},{"poiid":"B2094654DA6FA6F54592","title":"联富假日公寓","lon":"121.48061","lat":"31.24444","category":"47","category_name":"住宅区","address":"山西北路222弄"},{"poiid":"B2094757D164A5FE4998","title":"中石油加油站 建行洗车点","lon":"121.47737806","lat":"31.244830781","category":"500","category_name":"未知分类","address":"上海海宁路浙江路"},{"poiid":"B2094655D26DABFB4493","title":"上海豪浦服饰城","lon":"121.48032","lat":"31.24527","category":"141","category_name":"服装鞋帽皮具店","address":"闸北七浦路225号"},{"poiid":"B2094750D76FABFE4299","title":"OASE釜山料理","lon":"121.481","lat":"31.2466","category":"96","category_name":"韩国料理","address":"虹口区河南北路233号圣和圣时尚汇5楼(新七浦对面)"},{"poiid":"B2094655D26CABF4449F","title":"福庆坊(西门)","lon":"121.47617","lat":"31.24394","category":"47","category_name":"住宅区","address":"浙江北路132弄"},{"poiid":"B2094757D66EA0FA4992","title":"天潼路800弄","lon":"121.47802734","lat":"31.243759155","category":"500","category_name":"未知分类","address":"上海天潼路800弄"},{"poiid":"B2094654DB6BABFC489C","title":"赛博数码广场(福建北路)","lon":"121.47861","lat":"31.24358","category":"138","category_name":"家电电子卖场","address":""},{"poiid":"B2094654DA6FA6FA479F","title":"白马大厦高级服装市场","lon":"121.47797","lat":"31.24549","category":"141","category_name":"服装鞋帽皮具店","address":"七浦路488"},{"poiid":"B2094757D06BAAFE429C","title":"新川专线","lon":"121.47561938","lat":"31.2443002","category":"38","category_name":"公交车站","address":"川沙镇—上海火车站"},{"poiid":"B2094655D36DA7FE4493","title":"浙江北路","lon":"121.47635","lat":"31.24255","category":"38","category_name":"公交车站","address":""},{"poiid":"B2094654DA6FA6F4429D","title":"七浦路服装批发市场(七浦路)","lon":"121.47849","lat":"31.24509","category":"141","category_name":"服装鞋帽皮具店","address":"闸北区七浦路303号(近河南北路)"},{"poiid":"B2094757D068A4F44098","title":"新金桥广场","lon":"121.479","lat":"31.243","category":"46","category_name":"楼宇","address":"上海市黄浦区北京西路1号"},{"poiid":"B2094750DB6BA0F9439D","title":"江边城外（大悦城店）","lon":"121.474555","lat":"31.243404","category":"247","category_name":"餐饮美食","address":"大悦城"},{"poiid":"B209475CD564A7F84292","title":"上海滩新天地店","lon":"121.47463","lat":"31.22164","category":"119","category_name":"商场","address":"\"太仓路181弄新天地北里15号\r\n\""},{"poiid":"B209475CD564A7F8439E","title":"上海滩中信泰富店","lon":"121.45602","lat":"31.22851","category":"119","category_name":"商场","address":"\"南京西路1168号中信泰富广场，店铺号221.\r\n\""},{"poiid":"B209475CD564A7F84392","title":"上海滩浦东香格里拉店","lon":"121.50058","lat":"31.23634","category":"119","category_name":"商场","address":"浦东富成路33号香格里拉酒店内大堂层"},{"poiid":"B2094750DB65AAFB489A","title":"大悦城","lon":"121.476074","lat":"31.24032","category":"500","category_name":"未知分类","address":null},{"poiid":"B2094655D264A0FE4099","title":"圣和圣韩国馆","lon":"121.48016","lat":"31.24638","category":"141","category_name":"服装鞋帽皮具店","address":""},{"poiid":"B2094757D068A0FA4698","title":"肯德基(七浦路店)","lon":"121.480537","lat":"31.24559","category":"68","category_name":"快餐厅","address":"虹口区七浦路133号兴旺国际服饰城1楼(近河南北路)"},{"poiid":"B2094757DA69A2F54493","title":"金逸院线新恒星影城","lon":"121.47467","lat":"31.24432","category":"178","category_name":"电影院","address":"西藏北路166号大悦城10-11楼"},{"poiid":"B2094757D069A6FB4398","title":"七浦路韩国馆","lon":"121.4782303","lat":"31.245244","category":"500","category_name":"未知分类","address":"上海七浦路批发市场"},{"poiid":"B2094757D069A3FA479D","title":"六合大厦","lon":"121.481","lat":"31.2432","category":"46","category_name":"楼宇","address":"上海市四川北路1851号"},{"poiid":"B2094655D26CABF4409A","title":"七浦商业街","lon":"121.48107","lat":"31.24392","category":"116","category_name":"特色商业街","address":""},{"poiid":"B2094757D068ABF44393","title":"美欣大厦","lon":"121.48","lat":"31.2461","category":"46","category_name":"楼宇","address":"浦东临港新城主城区申港大道200号"},{"poiid":"B2094655D36CA7FB419C","title":"海宁路浙江北路","lon":"121.47581","lat":"31.24608","category":"38","category_name":"公交车站","address":""},{"poiid":"B2094654DA68A3FA4499","title":"长新大楼","lon":"121.476","lat":"31.2446","category":"46","category_name":"楼宇","address":"静安区长寿路(万航渡路口)"},{"poiid":"B2094750DB6CA4FE449D","title":"正大","lon":"121.475636","lat":"31.24442","category":"500","category_name":"未知分类","address":null},{"poiid":"B2094757D068A5F8499B","title":"妯娌老鸭粉丝(七浦路店)","lon":"121.47583","lat":"31.24439","category":"257","category_name":"中餐厅","address":"上海虹口区七浦路  "},{"poiid":"B2094654DA6FA6F4479F","title":"天星大厦","lon":"121.47881","lat":"31.24381","category":"46","category_name":"楼宇","address":"天潼路768号"},{"poiid":"B2094757D169A5F54592","title":"天福牛肉面馆","lon":"121.47751","lat":"31.24311","category":"87","category_name":"特色／地方风味餐厅","address":"闸北区天潼路855号(近浙江路)"},{"poiid":"B2094757DA6BA4FA429C","title":"长泰企业天地广场","lon":"121.476942","lat":"31.245884","category":"252","category_name":"楼宇机构","address":"城阳308国道西侧，华仙路北侧"},{"poiid":"B2094654DA6FA6F84999","title":"七浦商厦","lon":"121.47499","lat":"31.24441","category":"46","category_name":"楼宇","address":"七浦路535"},{"poiid":"B2094654DA6FA6FB4293","title":"白马大厦(东楼)","lon":"121.47773","lat":"31.24554","category":"46","category_name":"楼宇","address":"塘沽路985号"},{"poiid":"B2094752DA68A6FC4598","title":"新白鹿酒店","lon":"121.478016","lat":"31.24367","category":"247","category_name":"餐饮美食","address":"上海市 东方商厦9楼"},{"poiid":"B2094757D069A0F94093","title":"焦叶(大悦城店)","lon":"121.47440831","lat":"31.245327969","category":"110","category_name":"其他亚洲菜","address":"上海大悦城7楼"},{"poiid":"B2094654DB65A0F54898","title":"茶风暴 七浦路店 Tea Storm","lon":"121.475365054","lat":"31.244604793","category":"113","category_name":"冷饮店","address":"虹口区七浦路486号(近浙江路)"},{"poiid":"B2094654DA6FA6F94998","title":"中共三大后中央局机关历史纪念馆","lon":"121.4762","lat":"31.2437","category":"243","category_name":"纪念馆","address":"浙江北路118号"},{"poiid":"B2094757D66CA3F9419D","title":"上海轨道交通新闸路职工食堂","lon":"121.477387","lat":"31.243999","category":"500","category_name":"未知分类","address":"上海市新闸路"},{"poiid":"B2094655D265A7FF419C","title":"重庆鸡公堡","lon":"121.47906","lat":"31.24336","category":"257","category_name":"中餐厅","address":"黄浦区山西路(近南京东路)"},{"poiid":"B2094752D368A7FA479B","title":"星怡会","lon":"121.474488","lat":"31.245342","category":"247","category_name":"餐饮美食","address":"四川北路1360号中信泰富虹广场303单元"},{"poiid":"B2094654DA6FA6F9489E","title":"上海良友连锁经营有限公司天潼店","lon":"121.47683","lat":"31.24332","category":"117","category_name":"便民商店/便利店","address":"天潼路868"},{"poiid":"B2094655D265A5FF4892","title":"买买提的故事","lon":"121.47857","lat":"31.24374","category":"90","category_name":"清真餐馆","address":""},{"poiid":"B2094654DA6FAAF44792","title":"四行仓库创意科技园区","lon":"121.478","lat":"31.2464","category":"45","category_name":"产业园区","address":"光复路1号老四行创意园5-6层"},{"poiid":"B2094757D16AA0F84699","title":"真功夫 金浦店","lon":"121.480173054","lat":"31.245301793","category":"68","category_name":"快餐厅","address":"虹口区七浦路258号(山西北路口)"},{"poiid":"B2094655D26DAAFC489B","title":"南唐小区(北门)","lon":"121.47724","lat":"31.24318","category":"47","category_name":"住宅区","address":"天潼路847弄"},{"poiid":"B2094655D26CABF4449E","title":"福庆坊","lon":"121.47652","lat":"31.24389","category":"47","category_name":"住宅区","address":"浙江北路132弄"},{"poiid":"B2094654DA68A3FC489B","title":"金瓯万国大厦","lon":"121.47591985314","lat":"31.240754198427","category":"46","category_name":"楼宇","address":"上海市黄浦区新昌路180号"},{"poiid":"B2094654DA68A3FA469A","title":"家化中房苑","lon":"121.479","lat":"31.2454","category":"46","category_name":"楼宇","address":"西藏中路725弄10-12号"},{"poiid":"B209475CDA64A2FD479B","title":"外白渡桥","lon":"121.47705","lat":"31.243576","category":"500","category_name":"未知分类","address":"上海市 天潼路"},{"poiid":"B2094654DA6FA2F8429C","title":"南高寿里","lon":"121.47594","lat":"31.246386","category":"47","category_name":"住宅区","address":"海宁路942弄"},{"poiid":"B2094654DA6FA6F54592","title":"联富假日公寓","lon":"121.48061","lat":"31.24444","category":"47","category_name":"住宅区","address":"山西北路222弄"},{"poiid":"B2094757D164A5FE4998","title":"中石油加油站 建行洗车点","lon":"121.47737806","lat":"31.244830781","category":"500","category_name":"未知分类","address":"上海海宁路浙江路"},{"poiid":"B2094655D26DABFB4493","title":"上海豪浦服饰城","lon":"121.48032","lat":"31.24527","category":"141","category_name":"服装鞋帽皮具店","address":"闸北七浦路225号"},{"poiid":"B2094750D76FABFE4299","title":"OASE釜山料理","lon":"121.481","lat":"31.2466","category":"96","category_name":"韩国料理","address":"虹口区河南北路233号圣和圣时尚汇5楼(新七浦对面)"},{"poiid":"B2094655D26CABF4449F","title":"福庆坊(西门)","lon":"121.47617","lat":"31.24394","category":"47","category_name":"住宅区","address":"浙江北路132弄"},{"poiid":"B2094757D66EA0FA4992","title":"天潼路800弄","lon":"121.47802734","lat":"31.243759155","category":"500","category_name":"未知分类","address":"上海天潼路800弄"},{"poiid":"B2094654DB6BABFC489C","title":"赛博数码广场(福建北路)","lon":"121.47861","lat":"31.24358","category":"138","category_name":"家电电子卖场","address":""},{"poiid":"B2094654DA6FA6FA479F","title":"白马大厦高级服装市场","lon":"121.47797","lat":"31.24549","category":"141","category_name":"服装鞋帽皮具店","address":"七浦路488"},{"poiid":"B2094757D06BAAFE429C","title":"新川专线","lon":"121.47561938","lat":"31.2443002","category":"38","category_name":"公交车站","address":"川沙镇—上海火车站"},{"poiid":"B2094655D36DA7FE4493","title":"浙江北路","lon":"121.47635","lat":"31.24255","category":"38","category_name":"公交车站","address":""}]