[{"poiid":"B2094757D06FA0F94599","title":"沪松公路农家乐","lon":"121.25937","lat":"31.03747","category":"257","category_name":"中餐厅","address":"松江区沪松公路6351号(近茸平路)"},{"poiid":"B2094757D06FA4F5469B","title":"阳光绿洲生态酒店","lon":"121.240118","lat":"31.0294","category":"76","category_name":"上海菜","address":"松江区通波路50号(近思贤路)"},{"poiid":"B2094757DB6DA5F84793","title":"上海锦丰国际大酒店","lon":"121.246227622","lat":"31.035910179","category":"76","category_name":"上海菜","address":"松江区茸梅路237号锦丰国际大酒店内(近茸平路)"},{"poiid":"B2094757D66EAAFF479D","title":"农家乐","lon":"121.2590401","lat":"31.038299892","category":"500","category_name":"未知分类","address":"上海市松江区文翔路"},{"poiid":"B2094757D06AA6F44498","title":"阿胖鲁肉饭(松江店)","lon":"121.25749","lat":"31.017","category":"91","category_name":"台湾菜","address":"松江区荣乐东路1825号(近爱丽雅花苑)"},{"poiid":"B2094757D16DA2FB4998","title":"云峰大众4S","lon":"121.25114656","lat":"31.033345822","category":"500","category_name":"未知分类","address":"上海松江区茸兴路128号"},{"poiid":"B2094655D36CA6FA439F","title":"洞泾港桥","lon":"121.25898","lat":"31.03735","category":"38","category_name":"公交车站","address":""},{"poiid":"B2094654DB64A0FE439C","title":"如家快捷酒店(上海松江工业区店)","lon":"121.26161","lat":"31.02251","category":"216","category_name":"经济型连锁酒店","address":"上海市松江区松卫北路679号（松卫汽配城旁）"},{"poiid":"B2094654DB64A0FE4292","title":"上海奔腾企业(集团)有限公司","lon":"121.25724","lat":"31.03197","category":"263","category_name":"公司","address":""},{"poiid":"B2094654DB69A5FF4292","title":"莫泰168连锁旅店(松卫北路店)","lon":"121.26164","lat":"31.02169","category":"216","category_name":"经济型连锁酒店","address":"松江区松卫北路860-868号(松卫北路荣乐东路)"},{"poiid":"B2094654DB6EA5FD4999","title":"松江试点园区北部工业分区","lon":"121.2591","lat":"31.0379","category":"45","category_name":"产业园区","address":"沪松路588号"},{"poiid":"B2094654DB64A1F44599","title":"中山广场","lon":"121.24704","lat":"31.03328","category":"201","category_name":"城市广场","address":"松江区茸梅路288弄"},{"poiid":"B2094753D66BABF94392","title":"农家菜老大","lon":"121.263832","lat":"31.036577","category":"247","category_name":"餐饮美食","address":"上海市 松江区沪松公路6351号"},{"poiid":"B209475CD36CA6FF499F","title":"农家菜老大 松江店","lon":"121.25902","lat":"31.03914","category":"68","category_name":"快餐厅","address":"沪松公路6351号(近茸平路)"},{"poiid":"B2094654DB6DA4F4459D","title":"韦和大楼","lon":"121.25397","lat":"31.03406","category":"46","category_name":"楼宇","address":""},{"poiid":"B2094655D36DA2FE469E","title":"庙塘桥","lon":"121.26327","lat":"31.03413","category":"250","category_name":"公园户外","address":""},{"poiid":"B2094654DB6EA6FF489A","title":"上海五腾金属制品有限公司","lon":"121.25661","lat":"31.03608","category":"263","category_name":"公司","address":"茸平路口香川路663号"},{"poiid":"B2094757D169AAFF409E","title":"延锋伟世通汽车电子有限公司","lon":"121.257423","lat":"31.025313","category":"46","category_name":"楼宇","address":"上海美能达路300号"},{"poiid":"B2094757D16CA1F9499D","title":"天萌羽毛球馆","lon":"121.250976793","lat":"31.048601684","category":"500","category_name":"未知分类","address":"松江区茸阳路250号(近茸兴路)"},{"poiid":"B2094655D26FA6F94392","title":"格林豪泰酒店(松江新城店)","lon":"121.24644","lat":"31.03144","category":"216","category_name":"经济型连锁酒店","address":"松江区茸梅路215号(近茸平路)"},{"poiid":"B2094654DB6EA5FC4893","title":"百事食品(中国)有限公司","lon":"121.26339","lat":"31.03277","category":"263","category_name":"公司","address":"东兴路99"},{"poiid":"B2094654DB6DA4FF4092","title":"上海第十九机动车安全检测站","lon":"121.25151","lat":"31.02699","category":"250","category_name":"公园户外","address":"松东路337"},{"poiid":"B2094655D26BA2FB4798","title":"松东路","lon":"121.25523","lat":"31.01743","category":"38","category_name":"公交车站","address":""},{"poiid":"B2094654DB6EA5FC499A","title":"三铭工业园区","lon":"121.26638","lat":"31.03006","category":"45","category_name":"产业园区","address":""},{"poiid":"B2094654DB6EA6FF429B","title":"普茨迈斯特机械(上海)有限公司","lon":"121.25746","lat":"31.02866","category":"263","category_name":"公司","address":"松江工业区洞泾路39"},{"poiid":"B2094654DB6DA4FE449F","title":"松江邮件转运站","lon":"121.25297","lat":"31.03581","category":"248","category_name":"生活娱乐","address":"茸树路143"},{"poiid":"B2094757D468A4FD439B","title":"富春江山里人家","lon":"121.2434284","lat":"31.0254068","category":"76","category_name":"上海菜","address":"松江区沪松路219号"},{"poiid":"B2094654DB6DA4FE489B","title":"上海云峰松江汽车销售服务有限公司","lon":"121.25138","lat":"31.03434","category":"159","category_name":"汽车维修","address":"松江区茸兴路128号"},{"poiid":"B2094655D36CA2F9489E","title":"茸梅路","lon":"121.24674","lat":"31.03121","category":"38","category_name":"公交车站","address":""},{"poiid":"B2094757D16FA2F44599","title":"大江苑","lon":"121.24307251","lat":"31.0285453796","category":"500","category_name":"未知分类","address":"上海市松江区茸龙路257弄"},{"poiid":"B2094654DB6EA5FC489D","title":"庄信万丰(上海)化工有限公司","lon":"121.26625","lat":"31.03077","category":"263","category_name":"公司","address":""},{"poiid":"B2094654DB6DA4FE4398","title":"茸平苑","lon":"121.24386","lat":"31.037045","category":"47","category_name":"住宅区","address":"茸平路288弄"},{"poiid":"B2094655D36CA2F94893","title":"茸平路","lon":"121.24531","lat":"31.03539","category":"38","category_name":"公交车站","address":"上海市松江区茸平路12号(近沪松公路)"},{"poiid":"B2094757D665A3FC4098","title":"四海游龙 茸梅路店","lon":"121.24636","lat":"31.03946","category":"68","category_name":"快餐厅","address":"松江区茸梅路(近格林豪泰松江新城店)"},{"poiid":"B2094654DB6EA4F44899","title":"松江工业区高新技术产业园区","lon":"121.25589","lat":"31.02444","category":"45","category_name":"产业园区","address":"美能达路503号"},{"poiid":"B2094757D169A3FE4993","title":"企福天地","lon":"121.262777","lat":"31.019279","category":"46","category_name":"楼宇","address":"上海松江区松卫北路665号"},{"poiid":"B2094757DA64A6F9419F","title":"中山商业楼","lon":"121.25257360791","lat":"31.040642969101","category":"252","category_name":"楼宇机构","address":"松江茸梅路185号"},{"poiid":"B2094757D568ABF44098","title":"哈里欧咖啡(茸梅路店)","lon":"121.246212","lat":"31.036325","category":"65","category_name":"咖啡厅","address":"茸梅路227号"},{"poiid":"B2094654DB6EA5FC4799","title":"上海美维电子有限公司(联阳路)","lon":"121.27182","lat":"31.03465","category":"263","category_name":"公司","address":""},{"poiid":"B2094655D36CA6FA439C","title":"洞泾路","lon":"121.25631","lat":"31.025","category":"38","category_name":"公交车站","address":""},{"poiid":"B2094654DB6DA4FE4792","title":"五龙邮政局","lon":"121.25104","lat":"31.03556","category":"248","category_name":"生活娱乐","address":"五昆路334号"},{"poiid":"B2094654DB6DA4F5479D","title":"中铁十一局集团电务工程有限公司上海分公司","lon":"121.25053","lat":"31.03328","category":"263","category_name":"公司","address":"茸兴路111"},{"poiid":"B2094654DB6DA4F44193","title":"天虹人家","lon":"121.2521","lat":"31.02623","category":"76","category_name":"上海菜","address":"松江区茸梅路57号(近沪松公路)"},{"poiid":"B2094654DB6EA4F44898","title":"上海市松江工业区管理委员会(美能达路)","lon":"121.25588","lat":"31.02444","category":"45","category_name":"产业园区","address":"美能达路503号"},{"poiid":"B2094655D26BA1FA409D","title":"美能达路","lon":"121.25158","lat":"31.02396","category":"38","category_name":"公交车站","address":""},{"poiid":"B2094655D36CA0F9409C","title":"江田东路","lon":"121.27695","lat":"31.03681","category":"38","category_name":"公交车站","address":""},{"poiid":"B2094654DB6DA4FF439F","title":"茸一中学","lon":"121.24462","lat":"31.03212","category":"55","category_name":"中学","address":"松江区茸北镇五昆路268号"},{"poiid":"B2094654DB6EA5FD4093","title":"上海宏邦","lon":"121.26991","lat":"31.03035","category":"263","category_name":"公司","address":""},{"poiid":"B2094757D66CA0FF479E","title":"金月海大饭店","lon":"121.261783103","lat":"31.0207705048","category":"72","category_name":"广东菜","address":"松江区松卫北路789号(近荣乐东路)"},{"poiid":"B2094654DB6EA2F4469A","title":"裕盛豪园","lon":"121.244305","lat":"31.038462","category":"47","category_name":"住宅区","address":"上海市松江区谷阳北路166号"},{"poiid":"B2094757D06FA0F94599","title":"沪松公路农家乐","lon":"121.25937","lat":"31.03747","category":"257","category_name":"中餐厅","address":"松江区沪松公路6351号(近茸平路)"},{"poiid":"B2094757D06FA4F5469B","title":"阳光绿洲生态酒店","lon":"121.240118","lat":"31.0294","category":"76","category_name":"上海菜","address":"松江区通波路50号(近思贤路)"},{"poiid":"B2094757DB6DA5F84793","title":"上海锦丰国际大酒店","lon":"121.246227622","lat":"31.035910179","category":"76","category_name":"上海菜","address":"松江区茸梅路237号锦丰国际大酒店内(近茸平路)"},{"poiid":"B2094757D66EAAFF479D","title":"农家乐","lon":"121.2590401","lat":"31.038299892","category":"500","category_name":"未知分类","address":"上海市松江区文翔路"},{"poiid":"B2094757D06AA6F44498","title":"阿胖鲁肉饭(松江店)","lon":"121.25749","lat":"31.017","category":"91","category_name":"台湾菜","address":"松江区荣乐东路1825号(近爱丽雅花苑)"},{"poiid":"B2094757D16DA2FB4998","title":"云峰大众4S","lon":"121.25114656","lat":"31.033345822","category":"500","category_name":"未知分类","address":"上海松江区茸兴路128号"},{"poiid":"B2094655D36CA6FA439F","title":"洞泾港桥","lon":"121.25898","lat":"31.03735","category":"38","category_name":"公交车站","address":""},{"poiid":"B2094654DB64A0FE439C","title":"如家快捷酒店(上海松江工业区店)","lon":"121.26161","lat":"31.02251","category":"216","category_name":"经济型连锁酒店","address":"上海市松江区松卫北路679号（松卫汽配城旁）"},{"poiid":"B2094654DB64A0FE4292","title":"上海奔腾企业(集团)有限公司","lon":"121.25724","lat":"31.03197","category":"263","category_name":"公司","address":""},{"poiid":"B2094654DB69A5FF4292","title":"莫泰168连锁旅店(松卫北路店)","lon":"121.26164","lat":"31.02169","category":"216","category_name":"经济型连锁酒店","address":"松江区松卫北路860-868号(松卫北路荣乐东路)"},{"poiid":"B2094654DB6EA5FD4999","title":"松江试点园区北部工业分区","lon":"121.2591","lat":"31.0379","category":"45","category_name":"产业园区","address":"沪松路588号"},{"poiid":"B2094654DB64A1F44599","title":"中山广场","lon":"121.24704","lat":"31.03328","category":"201","category_name":"城市广场","address":"松江区茸梅路288弄"},{"poiid":"B2094753D66BABF94392","title":"农家菜老大","lon":"121.263832","lat":"31.036577","category":"247","category_name":"餐饮美食","address":"上海市 松江区沪松公路6351号"},{"poiid":"B209475CD36CA6FF499F","title":"农家菜老大 松江店","lon":"121.25902","lat":"31.03914","category":"68","category_name":"快餐厅","address":"沪松公路6351号(近茸平路)"},{"poiid":"B2094654DB6DA4F4459D","title":"韦和大楼","lon":"121.25397","lat":"31.03406","category":"46","category_name":"楼宇","address":""},{"poiid":"B2094655D36DA2FE469E","title":"庙塘桥","lon":"121.26327","lat":"31.03413","category":"250","category_name":"公园户外","address":""},{"poiid":"B2094654DB6EA6FF489A","title":"上海五腾金属制品有限公司","lon":"121.25661","lat":"31.03608","category":"263","category_name":"公司","address":"茸平路口香川路663号"},{"poiid":"B2094757D169AAFF409E","title":"延锋伟世通汽车电子有限公司","lon":"121.257423","lat":"31.025313","category":"46","category_name":"楼宇","address":"上海美能达路300号"},{"poiid":"B2094757D16CA1F9499D","title":"天萌羽毛球馆","lon":"121.250976793","lat":"31.048601684","category":"500","category_name":"未知分类","address":"松江区茸阳路250号(近茸兴路)"},{"poiid":"B2094655D26FA6F94392","title":"格林豪泰酒店(松江新城店)","lon":"121.24644","lat":"31.03144","category":"216","category_name":"经济型连锁酒店","address":"松江区茸梅路215号(近茸平路)"},{"poiid":"B2094654DB6EA5FC4893","title":"百事食品(中国)有限公司","lon":"121.26339","lat":"31.03277","category":"263","category_name":"公司","address":"东兴路99"},{"poiid":"B2094654DB6DA4FF4092","title":"上海第十九机动车安全检测站","lon":"121.25151","lat":"31.02699","category":"250","category_name":"公园户外","address":"松东路337"},{"poiid":"B2094655D26BA2FB4798","title":"松东路","lon":"121.25523","lat":"31.01743","category":"38","category_name":"公交车站","address":""},{"poiid":"B2094654DB6EA5FC499A","title":"三铭工业园区","lon":"121.26638","lat":"31.03006","category":"45","category_name":"产业园区","address":""},{"poiid":"B2094654DB6EA6FF429B","title":"普茨迈斯特机械(上海)有限公司","lon":"121.25746","lat":"31.02866","category":"263","category_name":"公司","address":"松江工业区洞泾路39"},{"poiid":"B2094654DB6DA4FE449F","title":"松江邮件转运站","lon":"121.25297","lat":"31.03581","category":"248","category_name":"生活娱乐","address":"茸树路143"},{"poiid":"B2094757D468A4FD439B","title":"富春江山里人家","lon":"121.2434284","lat":"31.0254068","category":"76","category_name":"上海菜","address":"松江区沪松路219号"},{"poiid":"B2094654DB6DA4FE489B","title":"上海云峰松江汽车销售服务有限公司","lon":"121.25138","lat":"31.03434","category":"159","category_name":"汽车维修","address":"松江区茸兴路128号"},{"poiid":"B2094655D36CA2F9489E","title":"茸梅路","lon":"121.24674","lat":"31.03121","category":"38","category_name":"公交车站","address":""},{"poiid":"B2094757D16FA2F44599","title":"大江苑","lon":"121.24307251","lat":"31.0285453796","category":"500","category_name":"未知分类","address":"上海市松江区茸龙路257弄"},{"poiid":"B2094654DB6EA5FC489D","title":"庄信万丰(上海)化工有限公司","lon":"121.26625","lat":"31.03077","category":"263","category_name":"公司","address":""},{"poiid":"B2094654DB6DA4FE4398","title":"茸平苑","lon":"121.24386","lat":"31.037045","category":"47","category_name":"住宅区","address":"茸平路288弄"},{"poiid":"B2094655D36CA2F94893","title":"茸平路","lon":"121.24531","lat":"31.03539","category":"38","category_name":"公交车站","address":"上海市松江区茸平路12号(近沪松公路)"},{"poiid":"B2094757D665A3FC4098","title":"四海游龙 茸梅路店","lon":"121.24636","lat":"31.03946","category":"68","category_name":"快餐厅","address":"松江区茸梅路(近格林豪泰松江新城店)"},{"poiid":"B2094654DB6EA4F44899","title":"松江工业区高新技术产业园区","lon":"121.25589","lat":"31.02444","category":"45","category_name":"产业园区","address":"美能达路503号"},{"poiid":"B2094757D169A3FE4993","title":"企福天地","lon":"121.262777","lat":"31.019279","category":"46","category_name":"楼宇","address":"上海松江区松卫北路665号"},{"poiid":"B2094757DA64A6F9419F","title":"中山商业楼","lon":"121.25257360791","lat":"31.040642969101","category":"252","category_name":"楼宇机构","address":"松江茸梅路185号"},{"poiid":"B2094757D568ABF44098","title":"哈里欧咖啡(茸梅路店)","lon":"121.246212","lat":"31.036325","category":"65","category_name":"咖啡厅","address":"茸梅路227号"},{"poiid":"B2094654DB6EA5FC4799","title":"上海美维电子有限公司(联阳路)","lon":"121.27182","lat":"31.03465","category":"263","category_name":"公司","address":""},{"poiid":"B2094655D36CA6FA439C","title":"洞泾路","lon":"121.25631","lat":"31.025","category":"38","category_name":"公交车站","address":""},{"poiid":"B2094654DB6DA4FE4792","title":"五龙邮政局","lon":"121.25104","lat":"31.03556","category":"248","category_name":"生活娱乐","address":"五昆路334号"},{"poiid":"B2094654DB6DA4F5479D","title":"中铁十一局集团电务工程有限公司上海分公司","lon":"121.25053","lat":"31.03328","category":"263","category_name":"公司","address":"茸兴路111"},{"poiid":"B2094654DB6DA4F44193","title":"天虹人家","lon":"121.2521","lat":"31.02623","category":"76","category_name":"上海菜","address":"松江区茸梅路57号(近沪松公路)"},{"poiid":"B2094654DB6EA4F44898","title":"上海市松江工业区管理委员会(美能达路)","lon":"121.25588","lat":"31.02444","category":"45","category_name":"产业园区","address":"美能达路503号"},{"poiid":"B2094655D26BA1FA409D","title":"美能达路","lon":"121.25158","lat":"31.02396","category":"38","category_name":"公交车站","address":""},{"poiid":"B2094655D36CA0F9409C","title":"江田东路","lon":"121.27695","lat":"31.03681","category":"38","category_name":"公交车站","address":""},{"poiid":"B2094654DB6DA4FF439F","title":"茸一中学","lon":"121.24462","lat":"31.03212","category":"55","category_name":"中学","address":"松江区茸北镇五昆路268号"},{"poiid":"B2094654DB6EA5FD4093","title":"上海宏邦","lon":"121.26991","lat":"31.03035","category":"263","category_name":"公司","address":""},{"poiid":"B2094757D66CA0FF479E","title":"金月海大饭店","lon":"121.261783103","lat":"31.0207705048","category":"72","category_name":"广东菜","address":"松江区松卫北路789号(近荣乐东路)"},{"poiid":"B2094654DB6EA2F4469A","title":"裕盛豪园","lon":"121.244305","lat":"31.038462","category":"47","category_name":"住宅区","address":"上海市松江区谷阳北路166号"},{"poiid":"B2094757D06FA0F94599","title":"沪松公路农家乐","lon":"121.25937","lat":"31.03747","category":"257","category_name":"中餐厅","address":"松江区沪松公路6351号(近茸平路)"},{"poiid":"B2094757D06FA4F5469B","title":"阳光绿洲生态酒店","lon":"121.240118","lat":"31.0294","category":"76","category_name":"上海菜","address":"松江区通波路50号(近思贤路)"},{"poiid":"B2094757DB6DA5F84793","title":"上海锦丰国际大酒店","lon":"121.246227622","lat":"31.035910179","category":"76","category_name":"上海菜","address":"松江区茸梅路237号锦丰国际大酒店内(近茸平路)"},{"poiid":"B2094757D66EAAFF479D","title":"农家乐","lon":"121.2590401","lat":"31.038299892","category":"500","category_name":"未知分类","address":"上海市松江区文翔路"},{"poiid":"B2094757D06AA6F44498","title":"阿胖鲁肉饭(松江店)","lon":"121.25749","lat":"31.017","category":"91","category_name":"台湾菜","address":"松江区荣乐东路1825号(近爱丽雅花苑)"},{"poiid":"B2094757D16DA2FB4998","title":"云峰大众4S","lon":"121.25114656","lat":"31.033345822","category":"500","category_name":"未知分类","address":"上海松江区茸兴路128号"},{"poiid":"B2094655D36CA6FA439F","title":"洞泾港桥","lon":"121.25898","lat":"31.03735","category":"38","category_name":"公交车站","address":""},{"poiid":"B2094654DB64A0FE439C","title":"如家快捷酒店(上海松江工业区店)","lon":"121.26161","lat":"31.02251","category":"216","category_name":"经济型连锁酒店","address":"上海市松江区松卫北路679号（松卫汽配城旁）"},{"poiid":"B2094654DB64A0FE4292","title":"上海奔腾企业(集团)有限公司","lon":"121.25724","lat":"31.03197","category":"263","category_name":"公司","address":""},{"poiid":"B2094654DB69A5FF4292","title":"莫泰168连锁旅店(松卫北路店)","lon":"121.26164","lat":"31.02169","category":"216","category_name":"经济型连锁酒店","address":"松江区松卫北路860-868号(松卫北路荣乐东路)"},{"poiid":"B2094654DB6EA5FD4999","title":"松江试点园区北部工业分区","lon":"121.2591","lat":"31.0379","category":"45","category_name":"产业园区","address":"沪松路588号"},{"poiid":"B2094654DB64A1F44599","title":"中山广场","lon":"121.24704","lat":"31.03328","category":"201","category_name":"城市广场","address":"松江区茸梅路288弄"},{"poiid":"B2094753D66BABF94392","title":"农家菜老大","lon":"121.263832","lat":"31.036577","category":"247","category_name":"餐饮美食","address":"上海市 松江区沪松公路6351号"},{"poiid":"B209475CD36CA6FF499F","title":"农家菜老大 松江店","lon":"121.25902","lat":"31.03914","category":"68","category_name":"快餐厅","address":"沪松公路6351号(近茸平路)"},{"poiid":"B2094654DB6DA4F4459D","title":"韦和大楼","lon":"121.25397","lat":"31.03406","category":"46","category_name":"楼宇","address":""},{"poiid":"B2094655D36DA2FE469E","title":"庙塘桥","lon":"121.26327","lat":"31.03413","category":"250","category_name":"公园户外","address":""},{"poiid":"B2094654DB6EA6FF489A","title":"上海五腾金属制品有限公司","lon":"121.25661","lat":"31.03608","category":"263","category_name":"公司","address":"茸平路口香川路663号"},{"poiid":"B2094757D169AAFF409E","title":"延锋伟世通汽车电子有限公司","lon":"121.257423","lat":"31.025313","category":"46","category_name":"楼宇","address":"上海美能达路300号"},{"poiid":"B2094757D16CA1F9499D","title":"天萌羽毛球馆","lon":"121.250976793","lat":"31.048601684","category":"500","category_name":"未知分类","address":"松江区茸阳路250号(近茸兴路)"},{"poiid":"B2094655D26FA6F94392","title":"格林豪泰酒店(松江新城店)","lon":"121.24644","lat":"31.03144","category":"216","category_name":"经济型连锁酒店","address":"松江区茸梅路215号(近茸平路)"},{"poiid":"B2094654DB6EA5FC4893","title":"百事食品(中国)有限公司","lon":"121.26339","lat":"31.03277","category":"263","category_name":"公司","address":"东兴路99"},{"poiid":"B2094654DB6DA4FF4092","title":"上海第十九机动车安全检测站","lon":"121.25151","lat":"31.02699","category":"250","category_name":"公园户外","address":"松东路337"},{"poiid":"B2094655D26BA2FB4798","title":"松东路","lon":"121.25523","lat":"31.01743","category":"38","category_name":"公交车站","address":""},{"poiid":"B2094654DB6EA5FC499A","title":"三铭工业园区","lon":"121.26638","lat":"31.03006","category":"45","category_name":"产业园区","address":""},{"poiid":"B2094654DB6EA6FF429B","title":"普茨迈斯特机械(上海)有限公司","lon":"121.25746","lat":"31.02866","category":"263","category_name":"公司","address":"松江工业区洞泾路39"},{"poiid":"B2094654DB6DA4FE449F","title":"松江邮件转运站","lon":"121.25297","lat":"31.03581","category":"248","category_name":"生活娱乐","address":"茸树路143"},{"poiid":"B2094757D468A4FD439B","title":"富春江山里人家","lon":"121.2434284","lat":"31.0254068","category":"76","category_name":"上海菜","address":"松江区沪松路219号"},{"poiid":"B2094654DB6DA4FE489B","title":"上海云峰松江汽车销售服务有限公司","lon":"121.25138","lat":"31.03434","category":"159","category_name":"汽车维修","address":"松江区茸兴路128号"},{"poiid":"B2094655D36CA2F9489E","title":"茸梅路","lon":"121.24674","lat":"31.03121","category":"38","category_name":"公交车站","address":""},{"poiid":"B2094757D16FA2F44599","title":"大江苑","lon":"121.24307251","lat":"31.0285453796","category":"500","category_name":"未知分类","address":"上海市松江区茸龙路257弄"},{"poiid":"B2094654DB6EA5FC489D","title":"庄信万丰(上海)化工有限公司","lon":"121.26625","lat":"31.03077","category":"263","category_name":"公司","address":""},{"poiid":"B2094654DB6DA4FE4398","title":"茸平苑","lon":"121.24386","lat":"31.037045","category":"47","category_name":"住宅区","address":"茸平路288弄"},{"poiid":"B2094655D36CA2F94893","title":"茸平路","lon":"121.24531","lat":"31.03539","category":"38","category_name":"公交车站","address":"上海市松江区茸平路12号(近沪松公路)"},{"poiid":"B2094757D665A3FC4098","title":"四海游龙 茸梅路店","lon":"121.24636","lat":"31.03946","category":"68","category_name":"快餐厅","address":"松江区茸梅路(近格林豪泰松江新城店)"},{"poiid":"B2094654DB6EA4F44899","title":"松江工业区高新技术产业园区","lon":"121.25589","lat":"31.02444","category":"45","category_name":"产业园区","address":"美能达路503号"},{"poiid":"B2094757D169A3FE4993","title":"企福天地","lon":"121.262777","lat":"31.019279","category":"46","category_name":"楼宇","address":"上海松江区松卫北路665号"},{"poiid":"B2094757DA64A6F9419F","title":"中山商业楼","lon":"121.25257360791","lat":"31.040642969101","category":"252","category_name":"楼宇机构","address":"松江茸梅路185号"},{"poiid":"B2094757D568ABF44098","title":"哈里欧咖啡(茸梅路店)","lon":"121.246212","lat":"31.036325","category":"65","category_name":"咖啡厅","address":"茸梅路227号"},{"poiid":"B2094654DB6EA5FC4799","title":"上海美维电子有限公司(联阳路)","lon":"121.27182","lat":"31.03465","category":"263","category_name":"公司","address":""},{"poiid":"B2094655D36CA6FA439C","title":"洞泾路","lon":"121.25631","lat":"31.025","category":"38","category_name":"公交车站","address":""},{"poiid":"B2094654DB6DA4FE4792","title":"五龙邮政局","lon":"121.25104","lat":"31.03556","category":"248","category_name":"生活娱乐","address":"五昆路334号"},{"poiid":"B2094654DB6DA4F5479D","title":"中铁十一局集团电务工程有限公司上海分公司","lon":"121.25053","lat":"31.03328","category":"263","category_name":"公司","address":"茸兴路111"},{"poiid":"B2094654DB6DA4F44193","title":"天虹人家","lon":"121.2521","lat":"31.02623","category":"76","category_name":"上海菜","address":"松江区茸梅路57号(近沪松公路)"},{"poiid":"B2094654DB6EA4F44898","title":"上海市松江工业区管理委员会(美能达路)","lon":"121.25588","lat":"31.02444","category":"45","category_name":"产业园区","address":"美能达路503号"},{"poiid":"B2094655D26BA1FA409D","title":"美能达路","lon":"121.25158","lat":"31.02396","category":"38","category_name":"公交车站","address":""},{"poiid":"B2094655D36CA0F9409C","title":"江田东路","lon":"121.27695","lat":"31.03681","category":"38","category_name":"公交车站","address":""},{"poiid":"B2094654DB6DA4FF439F","title":"茸一中学","lon":"121.24462","lat":"31.03212","category":"55","category_name":"中学","address":"松江区茸北镇五昆路268号"},{"poiid":"B2094654DB6EA5FD4093","title":"上海宏邦","lon":"121.26991","lat":"31.03035","category":"263","category_name":"公司","address":""},{"poiid":"B2094757D66CA0FF479E","title":"金月海大饭店","lon":"121.261783103","lat":"31.0207705048","category":"72","category_name":"广东菜","address":"松江区松卫北路789号(近荣乐东路)"},{"poiid":"B2094654DB6EA2F4469A","title":"裕盛豪园","lon":"121.244305","lat":"31.038462","category":"47","category_name":"住宅区","address":"上海市松江区谷阳北路166号"},{"poiid":"B2094757D06FA0F94599","title":"沪松公路农家乐","lon":"121.25937","lat":"31.03747","category":"257","category_name":"中餐厅","address":"松江区沪松公路6351号(近茸平路)"},{"poiid":"B2094757D06FA4F5469B","title":"阳光绿洲生态酒店","lon":"121.240118","lat":"31.0294","category":"76","category_name":"上海菜","address":"松江区通波路50号(近思贤路)"},{"poiid":"B2094757DB6DA5F84793","title":"上海锦丰国际大酒店","lon":"121.246227622","lat":"31.035910179","category":"76","category_name":"上海菜","address":"松江区茸梅路237号锦丰国际大酒店内(近茸平路)"},{"poiid":"B2094757D66EAAFF479D","title":"农家乐","lon":"121.2590401","lat":"31.038299892","category":"500","category_name":"未知分类","address":"上海市松江区文翔路"},{"poiid":"B2094757D06AA6F44498","title":"阿胖鲁肉饭(松江店)","lon":"121.25749","lat":"31.017","category":"91","category_name":"台湾菜","address":"松江区荣乐东路1825号(近爱丽雅花苑)"},{"poiid":"B2094757D16DA2FB4998","title":"云峰大众4S","lon":"121.25114656","lat":"31.033345822","category":"500","category_name":"未知分类","address":"上海松江区茸兴路128号"},{"poiid":"B2094655D36CA6FA439F","title":"洞泾港桥","lon":"121.25898","lat":"31.03735","category":"38","category_name":"公交车站","address":""},{"poiid":"B2094654DB64A0FE439C","title":"如家快捷酒店(上海松江工业区店)","lon":"121.26161","lat":"31.02251","category":"216","category_name":"经济型连锁酒店","address":"上海市松江区松卫北路679号（松卫汽配城旁）"},{"poiid":"B2094654DB64A0FE4292","title":"上海奔腾企业(集团)有限公司","lon":"121.25724","lat":"31.03197","category":"263","category_name":"公司","address":""},{"poiid":"B2094654DB69A5FF4292","title":"莫泰168连锁旅店(松卫北路店)","lon":"121.26164","lat":"31.02169","category":"216","category_name":"经济型连锁酒店","address":"松江区松卫北路860-868号(松卫北路荣乐东路)"},{"poiid":"B2094654DB6EA5FD4999","title":"松江试点园区北部工业分区","lon":"121.2591","lat":"31.0379","category":"45","category_name":"产业园区","address":"沪松路588号"},{"poiid":"B2094654DB64A1F44599","title":"中山广场","lon":"121.24704","lat":"31.03328","category":"201","category_name":"城市广场","address":"松江区茸梅路288弄"},{"poiid":"B2094753D66BABF94392","title":"农家菜老大","lon":"121.263832","lat":"31.036577","category":"247","category_name":"餐饮美食","address":"上海市 松江区沪松公路6351号"},{"poiid":"B209475CD36CA6FF499F","title":"农家菜老大 松江店","lon":"121.25902","lat":"31.03914","category":"68","category_name":"快餐厅","address":"沪松公路6351号(近茸平路)"},{"poiid":"B2094654DB6DA4F4459D","title":"韦和大楼","lon":"121.25397","lat":"31.03406","category":"46","category_name":"楼宇","address":""},{"poiid":"B2094655D36DA2FE469E","title":"庙塘桥","lon":"121.26327","lat":"31.03413","category":"250","category_name":"公园户外","address":""},{"poiid":"B2094654DB6EA6FF489A","title":"上海五腾金属制品有限公司","lon":"121.25661","lat":"31.03608","category":"263","category_name":"公司","address":"茸平路口香川路663号"},{"poiid":"B2094757D169AAFF409E","title":"延锋伟世通汽车电子有限公司","lon":"121.257423","lat":"31.025313","category":"46","category_name":"楼宇","address":"上海美能达路300号"},{"poiid":"B2094757D16CA1F9499D","title":"天萌羽毛球馆","lon":"121.250976793","lat":"31.048601684","category":"500","category_name":"未知分类","address":"松江区茸阳路250号(近茸兴路)"},{"poiid":"B2094655D26FA6F94392","title":"格林豪泰酒店(松江新城店)","lon":"121.24644","lat":"31.03144","category":"216","category_name":"经济型连锁酒店","address":"松江区茸梅路215号(近茸平路)"},{"poiid":"B2094654DB6EA5FC4893","title":"百事食品(中国)有限公司","lon":"121.26339","lat":"31.03277","category":"263","category_name":"公司","address":"东兴路99"},{"poiid":"B2094654DB6DA4FF4092","title":"上海第十九机动车安全检测站","lon":"121.25151","lat":"31.02699","category":"250","category_name":"公园户外","address":"松东路337"},{"poiid":"B2094655D26BA2FB4798","title":"松东路","lon":"121.25523","lat":"31.01743","category":"38","category_name":"公交车站","address":""},{"poiid":"B2094654DB6EA5FC499A","title":"三铭工业园区","lon":"121.26638","lat":"31.03006","category":"45","category_name":"产业园区","address":""},{"poiid":"B2094654DB6EA6FF429B","title":"普茨迈斯特机械(上海)有限公司","lon":"121.25746","lat":"31.02866","category":"263","category_name":"公司","address":"松江工业区洞泾路39"},{"poiid":"B2094654DB6DA4FE449F","title":"松江邮件转运站","lon":"121.25297","lat":"31.03581","category":"248","category_name":"生活娱乐","address":"茸树路143"},{"poiid":"B2094757D468A4FD439B","title":"富春江山里人家","lon":"121.2434284","lat":"31.0254068","category":"76","category_name":"上海菜","address":"松江区沪松路219号"},{"poiid":"B2094654DB6DA4FE489B","title":"上海云峰松江汽车销售服务有限公司","lon":"121.25138","lat":"31.03434","category":"159","category_name":"汽车维修","address":"松江区茸兴路128号"},{"poiid":"B2094655D36CA2F9489E","title":"茸梅路","lon":"121.24674","lat":"31.03121","category":"38","category_name":"公交车站","address":""},{"poiid":"B2094757D16FA2F44599","title":"大江苑","lon":"121.24307251","lat":"31.0285453796","category":"500","category_name":"未知分类","address":"上海市松江区茸龙路257弄"},{"poiid":"B2094654DB6EA5FC489D","title":"庄信万丰(上海)化工有限公司","lon":"121.26625","lat":"31.03077","category":"263","category_name":"公司","address":""},{"poiid":"B2094654DB6DA4FE4398","title":"茸平苑","lon":"121.24386","lat":"31.037045","category":"47","category_name":"住宅区","address":"茸平路288弄"},{"poiid":"B2094655D36CA2F94893","title":"茸平路","lon":"121.24531","lat":"31.03539","category":"38","category_name":"公交车站","address":"上海市松江区茸平路12号(近沪松公路)"},{"poiid":"B2094757D665A3FC4098","title":"四海游龙 茸梅路店","lon":"121.24636","lat":"31.03946","category":"68","category_name":"快餐厅","address":"松江区茸梅路(近格林豪泰松江新城店)"},{"poiid":"B2094654DB6EA4F44899","title":"松江工业区高新技术产业园区","lon":"121.25589","lat":"31.02444","category":"45","category_name":"产业园区","address":"美能达路503号"},{"poiid":"B2094757D169A3FE4993","title":"企福天地","lon":"121.262777","lat":"31.019279","category":"46","category_name":"楼宇","address":"上海松江区松卫北路665号"},{"poiid":"B2094757DA64A6F9419F","title":"中山商业楼","lon":"121.25257360791","lat":"31.040642969101","category":"252","category_name":"楼宇机构","address":"松江茸梅路185号"},{"poiid":"B2094757D568ABF44098","title":"哈里欧咖啡(茸梅路店)","lon":"121.246212","lat":"31.036325","category":"65","category_name":"咖啡厅","address":"茸梅路227号"},{"poiid":"B2094654DB6EA5FC4799","title":"上海美维电子有限公司(联阳路)","lon":"121.27182","lat":"31.03465","category":"263","category_name":"公司","address":""},{"poiid":"B2094655D36CA6FA439C","title":"洞泾路","lon":"121.25631","lat":"31.025","category":"38","category_name":"公交车站","address":""},{"poiid":"B2094654DB6DA4FE4792","title":"五龙邮政局","lon":"121.25104","lat":"31.03556","category":"248","category_name":"生活娱乐","address":"五昆路334号"},{"poiid":"B2094654DB6DA4F5479D","title":"中铁十一局集团电务工程有限公司上海分公司","lon":"121.25053","lat":"31.03328","category":"263","category_name":"公司","address":"茸兴路111"},{"poiid":"B2094654DB6DA4F44193","title":"天虹人家","lon":"121.2521","lat":"31.02623","category":"76","category_name":"上海菜","address":"松江区茸梅路57号(近沪松公路)"},{"poiid":"B2094654DB6EA4F44898","title":"上海市松江工业区管理委员会(美能达路)","lon":"121.25588","lat":"31.02444","category":"45","category_name":"产业园区","address":"美能达路503号"},{"poiid":"B2094655D26BA1FA409D","title":"美能达路","lon":"121.25158","lat":"31.02396","category":"38","category_name":"公交车站","address":""},{"poiid":"B2094655D36CA0F9409C","title":"江田东路","lon":"121.27695","lat":"31.03681","category":"38","category_name":"公交车站","address":""},{"poiid":"B2094654DB6DA4FF439F","title":"茸一中学","lon":"121.24462","lat":"31.03212","category":"55","category_name":"中学","address":"松江区茸北镇五昆路268号"},{"poiid":"B2094654DB6EA5FD4093","title":"上海宏邦","lon":"121.26991","lat":"31.03035","category":"263","category_name":"公司","address":""},{"poiid":"B2094757D66CA0FF479E","title":"金月海大饭店","lon":"121.261783103","lat":"31.0207705048","category":"72","category_name":"广东菜","address":"松江区松卫北路789号(近荣乐东路)"},{"poiid":"B2094654DB6EA2F4469A","title":"裕盛豪园","lon":"121.244305","lat":"31.038462","category":"47","category_name":"住宅区","address":"上海市松江区谷阳北路166号"}]