[{"poiid":"B2094757D06FA2F84498","title":"上海兴荣温德姆酒店","lon":"121.53912567915063","lat":"31.26011215378175","category":"76","category_name":"上海菜","address":"杨浦区宁国路25号兴荣温德姆酒店(近杭州路)"},{"poiid":"B2094757D06FA3FD429E","title":"红房子妇产科医院(杨浦分院)","lon":"121.534619481","lat":"31.2590112668","category":"162","category_name":"医院","address":"上海杨浦区沈阳路128号(近眉州路)"},{"poiid":"B2094655D36DA0F94092","title":"杨浦大桥","lon":"121.54012","lat":"31.26137","category":"38","category_name":"公交车站","address":"浦东新区浦东大道2175弄88号(近北洋泾路)"},{"poiid":"B2094757D06FA2FD469B","title":"复旦大学附属妇产科医院(杨浦院区)","lon":"121.53505897","lat":"31.260293398","category":"68","category_name":"快餐厅","address":"杨浦区沈阳路128号(近眉州路)"},{"poiid":"B2094757D06FA3F5449C","title":"平凉路眉州路","lon":"121.534188","lat":"31.261715","category":"47","category_name":"住宅区","address":"上海平凉路眉州路"},{"poiid":"B2094757D06FA5F8449B","title":"杨浦区中医医院","lon":"121.53841","lat":"31.25735","category":"162","category_name":"医院","address":"杨浦区眉州路185号(近平凉路)"},{"poiid":"B2094757D06FA3F84493","title":"85度C(平凉店)","lon":"121.534764","lat":"31.261609","category":"112","category_name":"糕饼店","address":"杨浦区平凉路1200号1楼(近眉州路)"},{"poiid":"B2094757D16CA6FF479C","title":"平凉路宁国路","lon":"121.536385103","lat":"31.262084248","category":"500","category_name":"未知分类","address":"上海市杨浦区平凉路宁国路"},{"poiid":"B2094757D06FAAF84892","title":"杨浦区老年医院","lon":"121.53890578","lat":"31.260598383","category":"162","category_name":"医院","address":"杨浦区杭州路349号(近宁国路)"},{"poiid":"B2094757D06FA4F44692","title":"杭州路","lon":"121.53958","lat":"31.261819","category":"500","category_name":"未知分类","address":"上海杭州路宁国路"},{"poiid":"B2094757D465A4F9489C","title":"上海兴荣温德姆酒店 尚荣轩","lon":"121.538991","lat":"31.26016","category":"76","category_name":"上海菜","address":"杨浦区宁国路25号兴荣温德姆酒店2、31、32楼(近杭州路)"},{"poiid":"B2094757D065A2FC4392","title":"东宫","lon":"121.53514872","lat":"31.261538216","category":"260","category_name":"其他","address":"上海三星路"},{"poiid":"B2094757D068A4F94893","title":"杨树浦路松潘路","lon":"121.540130143","lat":"31.2605108352","category":"260","category_name":"其他","address":"上海杨树浦路松潘路"},{"poiid":"B2094757D069AAFF419F","title":"杨树浦路","lon":"121.537211","lat":"31.255356","category":"500","category_name":"未知分类","address":"上海杨树浦路眉州路"},{"poiid":"B2094757D069ABFE439E","title":"广东人家","lon":"121.540422054","lat":"31.262050793","category":"68","category_name":"快餐厅","address":"杨浦区周家牌路109弄203号后门(三星路口)"},{"poiid":"B2094654D56EA7F94092","title":"华谊星城大厦","lon":"121.53456","lat":"31.2615","category":"46","category_name":"楼宇","address":"越秀区广州沿江中路298号"},{"poiid":"B2094757D06BA1F9459D","title":"美好人声","lon":"121.53430335","lat":"31.261921044","category":"170","category_name":"KTV","address":"杨浦区平凉路1295号2楼(近渭南路)"},{"poiid":"B2094757D06BA4F5469F","title":"禾禄寿司","lon":"121.5371261","lat":"31.258931182","category":"247","category_name":"餐饮美食","address":"上海五角场百联又一城"},{"poiid":"B2094654D56EA7FF489D","title":"申润江涛苑","lon":"121.53604","lat":"31.256815","category":"47","category_name":"住宅区","address":"上海市杨浦区广州路55弄1-6号"},{"poiid":"B2094655D265A2F84199","title":"眉州路100弄小区","lon":"121.53876","lat":"31.25843","category":"47","category_name":"住宅区","address":"眉州路100弄"},{"poiid":"B2094654D56FA6FE469A","title":"老北京热气涮羊肉","lon":"121.540374054","lat":"31.261556793","category":"86","category_name":"火锅店","address":"杨浦区松潘路148号(853车站终点站对面)"},{"poiid":"B2094757D16BA2FC4998","title":"喜喜国际母婴月子会所(杨浦兴荣温德姆店)","lon":"121.5369741","lat":"31.260318711","category":"500","category_name":"未知分类","address":"上海市杨浦区宁国路25号"},{"poiid":"B2094757D068A0F4479D","title":"崇业小区","lon":"121.53728","lat":"31.256132","category":"47","category_name":"住宅区","address":"上海杨树浦路1455弄"},{"poiid":"B2094750D664A0FA479C","title":"老盛兴苏州汤包馆(眉州路店)","lon":"121.536","lat":"31.261","category":"68","category_name":"快餐厅","address":"杨浦区眉州路300号(近沈阳路)"},{"poiid":"B2094655D26CA6F44592","title":"兴荣商务大厦","lon":"121.53902","lat":"31.26004","category":"46","category_name":"楼宇","address":""},{"poiid":"B2094655D265A5F94599","title":"重庆鸡公煲","lon":"121.53777","lat":"31.25783","category":"86","category_name":"火锅店","address":"杨浦区眉州路"},{"poiid":"B2094757D064A3FB4592","title":"天目山农庄","lon":"121.5339941","lat":"31.261634238","category":"87","category_name":"特色／地方风味餐厅","address":"杨浦区平凉路1158号"},{"poiid":"B2094757D068A7FB4793","title":"广杭苑","lon":"121.53644","lat":"31.257813","category":"500","category_name":"未知分类","address":"上海杭州路66弄"},{"poiid":"B2094757D064A7FB4198","title":"长城饭店","lon":"121.536225054","lat":"31.260812793","category":"75","category_name":"浙江菜","address":"杨浦区眉州路272号"},{"poiid":"B2094655D36CA2FD489F","title":"渭南路145弄小区","lon":"121.53754","lat":"31.2603","category":"47","category_name":"住宅区","address":"渭南路145弄"},{"poiid":"B2094757D465A1FC4792","title":"意海居 杭州路店","lon":"121.539274054","lat":"31.260794793","category":"76","category_name":"上海菜","address":"杨浦区杭州路403号(近宁国路)"},{"poiid":"B2094655D26EA3F94599","title":"福宁路27弄小区","lon":"121.53827818324","lat":"31.260109471193","category":"47","category_name":"住宅区","address":"福宁路27弄"},{"poiid":"B2094654D56EA7F84099","title":"城建大厦","lon":"121.53736","lat":"31.26309","category":"46","category_name":"楼宇","address":"上海杨浦区宁国路129号"},{"poiid":"B2094655D26BA7FB429C","title":"渭南路145弄小区(东门)","lon":"121.53774","lat":"31.26039","category":"47","category_name":"住宅区","address":"渭南路145弄"},{"poiid":"B2094757D465A2F4489A","title":"蓝欣雅苑","lon":"121.536225054","lat":"31.260812793","category":"47","category_name":"住宅区","address":"杨浦区眉州路272号长城饭店内(眉州路沈阳路)"},{"poiid":"B2094654DB6BA3F4419F","title":"良友(眉州路)","lon":"121.53668","lat":"31.25961","category":"117","category_name":"便民商店/便利店","address":"眉州路202号"},{"poiid":"B2094757D469A1FE419F","title":"武氏龙虾","lon":"121.540522","lat":"31.26109","category":"68","category_name":"快餐厅","address":"杨浦区松潘路138号(近杭州路)"},{"poiid":"B2094654DB6BA3F4419E","title":"高阳里","lon":"121.53693","lat":"31.259645","category":"47","category_name":"住宅区","address":"眉州路200弄"},{"poiid":"B2094655D26CA5FA489E","title":"怀德路201弄","lon":"121.53502264122","lat":"31.259616193756","category":"47","category_name":"住宅区","address":"怀德路201弄"},{"poiid":"B2094757D16BA1FE459B","title":"洪都酒家","lon":"121.53787","lat":"31.25708","category":"76","category_name":"上海菜","address":"杨浦区广州路109号(近眉州路)"},{"poiid":"B2094655D36CA3FB4892","title":"联华超市","lon":"121.53757","lat":"31.25833","category":"118","category_name":"超级市场","address":"眉州路120"},{"poiid":"B2094757D06AA0FA439E","title":"华谊星城","lon":"121.534816","lat":"31.260837","category":"47","category_name":"住宅区","address":"上海华谊星城名苑"},{"poiid":"B2094757D16DA4FF479E","title":"杨树浦路大连路站(公交28,135,853)","lon":"121.5404701","lat":"31.25933819","category":"38","category_name":"公交车站","address":"上海市虹口路大连路杨树浦路"},{"poiid":"B2094655D265A2FD439B","title":"谭记私房菜","lon":"121.53984","lat":"31.26164","category":"76","category_name":"上海菜","address":"杨浦区松潘路149号(杭州路松潘路)"},{"poiid":"B2094654D56EA7F84198","title":"大桥派出所","lon":"121.53968","lat":"31.25957","category":"609","category_name":"警察局","address":"宁国路19号"},{"poiid":"B2094654D56EA7F84298","title":"乐狗生活馆","lon":"121.53768","lat":"31.25792","category":"162","category_name":"医院","address":"杨浦区眉州路129号(近杨树浦路)"},{"poiid":"B2094757D66CA5FE4393","title":"御香斋","lon":"121.53597","lat":"31.26124","category":"68","category_name":"快餐厅","address":"杨浦区眉州路300号(近平凉路)"},{"poiid":"B2094757D068AAFF4992","title":"苏州汤包馆 眉州路","lon":"121.535589","lat":"31.261182","category":"257","category_name":"中餐厅","address":"眉州路300号近沈阳路"},{"poiid":"B2094757D069A6FB499F","title":"中国银行(杨浦支行)","lon":"121.53367","lat":"31.26103","category":"150","category_name":"银行","address":"杨浦区平凉路1128号"},{"poiid":"B2094655D26EA0FE4493","title":"速8酒店(上海东外滩店)","lon":"121.53542","lat":"31.26133","category":"216","category_name":"经济型连锁酒店","address":"眉州路300号"},{"poiid":"B2094757D06FA2F84498","title":"上海兴荣温德姆酒店","lon":"121.53912567915063","lat":"31.26011215378175","category":"76","category_name":"上海菜","address":"杨浦区宁国路25号兴荣温德姆酒店(近杭州路)"},{"poiid":"B2094757D06FA3FD429E","title":"红房子妇产科医院(杨浦分院)","lon":"121.534619481","lat":"31.2590112668","category":"162","category_name":"医院","address":"上海杨浦区沈阳路128号(近眉州路)"},{"poiid":"B2094655D36DA0F94092","title":"杨浦大桥","lon":"121.54012","lat":"31.26137","category":"38","category_name":"公交车站","address":"浦东新区浦东大道2175弄88号(近北洋泾路)"},{"poiid":"B2094757D06FA2FD469B","title":"复旦大学附属妇产科医院(杨浦院区)","lon":"121.53505897","lat":"31.260293398","category":"68","category_name":"快餐厅","address":"杨浦区沈阳路128号(近眉州路)"},{"poiid":"B2094757D06FA3F5449C","title":"平凉路眉州路","lon":"121.534188","lat":"31.261715","category":"47","category_name":"住宅区","address":"上海平凉路眉州路"},{"poiid":"B2094757D06FA5F8449B","title":"杨浦区中医医院","lon":"121.53841","lat":"31.25735","category":"162","category_name":"医院","address":"杨浦区眉州路185号(近平凉路)"},{"poiid":"B2094757D06FA3F84493","title":"85度C(平凉店)","lon":"121.534764","lat":"31.261609","category":"112","category_name":"糕饼店","address":"杨浦区平凉路1200号1楼(近眉州路)"},{"poiid":"B2094757D16CA6FF479C","title":"平凉路宁国路","lon":"121.536385103","lat":"31.262084248","category":"500","category_name":"未知分类","address":"上海市杨浦区平凉路宁国路"},{"poiid":"B2094757D06FAAF84892","title":"杨浦区老年医院","lon":"121.53890578","lat":"31.260598383","category":"162","category_name":"医院","address":"杨浦区杭州路349号(近宁国路)"},{"poiid":"B2094757D06FA4F44692","title":"杭州路","lon":"121.53958","lat":"31.261819","category":"500","category_name":"未知分类","address":"上海杭州路宁国路"},{"poiid":"B2094757D465A4F9489C","title":"上海兴荣温德姆酒店 尚荣轩","lon":"121.538991","lat":"31.26016","category":"76","category_name":"上海菜","address":"杨浦区宁国路25号兴荣温德姆酒店2、31、32楼(近杭州路)"},{"poiid":"B2094757D065A2FC4392","title":"东宫","lon":"121.53514872","lat":"31.261538216","category":"260","category_name":"其他","address":"上海三星路"},{"poiid":"B2094757D068A4F94893","title":"杨树浦路松潘路","lon":"121.540130143","lat":"31.2605108352","category":"260","category_name":"其他","address":"上海杨树浦路松潘路"},{"poiid":"B2094757D069AAFF419F","title":"杨树浦路","lon":"121.537211","lat":"31.255356","category":"500","category_name":"未知分类","address":"上海杨树浦路眉州路"},{"poiid":"B2094757D069ABFE439E","title":"广东人家","lon":"121.540422054","lat":"31.262050793","category":"68","category_name":"快餐厅","address":"杨浦区周家牌路109弄203号后门(三星路口)"},{"poiid":"B2094654D56EA7F94092","title":"华谊星城大厦","lon":"121.53456","lat":"31.2615","category":"46","category_name":"楼宇","address":"越秀区广州沿江中路298号"},{"poiid":"B2094757D06BA1F9459D","title":"美好人声","lon":"121.53430335","lat":"31.261921044","category":"170","category_name":"KTV","address":"杨浦区平凉路1295号2楼(近渭南路)"},{"poiid":"B2094757D06BA4F5469F","title":"禾禄寿司","lon":"121.5371261","lat":"31.258931182","category":"247","category_name":"餐饮美食","address":"上海五角场百联又一城"},{"poiid":"B2094654D56EA7FF489D","title":"申润江涛苑","lon":"121.53604","lat":"31.256815","category":"47","category_name":"住宅区","address":"上海市杨浦区广州路55弄1-6号"},{"poiid":"B2094655D265A2F84199","title":"眉州路100弄小区","lon":"121.53876","lat":"31.25843","category":"47","category_name":"住宅区","address":"眉州路100弄"},{"poiid":"B2094654D56FA6FE469A","title":"老北京热气涮羊肉","lon":"121.540374054","lat":"31.261556793","category":"86","category_name":"火锅店","address":"杨浦区松潘路148号(853车站终点站对面)"},{"poiid":"B2094757D16BA2FC4998","title":"喜喜国际母婴月子会所(杨浦兴荣温德姆店)","lon":"121.5369741","lat":"31.260318711","category":"500","category_name":"未知分类","address":"上海市杨浦区宁国路25号"},{"poiid":"B2094757D068A0F4479D","title":"崇业小区","lon":"121.53728","lat":"31.256132","category":"47","category_name":"住宅区","address":"上海杨树浦路1455弄"},{"poiid":"B2094750D664A0FA479C","title":"老盛兴苏州汤包馆(眉州路店)","lon":"121.536","lat":"31.261","category":"68","category_name":"快餐厅","address":"杨浦区眉州路300号(近沈阳路)"},{"poiid":"B2094655D26CA6F44592","title":"兴荣商务大厦","lon":"121.53902","lat":"31.26004","category":"46","category_name":"楼宇","address":""},{"poiid":"B2094655D265A5F94599","title":"重庆鸡公煲","lon":"121.53777","lat":"31.25783","category":"86","category_name":"火锅店","address":"杨浦区眉州路"},{"poiid":"B2094757D064A3FB4592","title":"天目山农庄","lon":"121.5339941","lat":"31.261634238","category":"87","category_name":"特色／地方风味餐厅","address":"杨浦区平凉路1158号"},{"poiid":"B2094757D068A7FB4793","title":"广杭苑","lon":"121.53644","lat":"31.257813","category":"500","category_name":"未知分类","address":"上海杭州路66弄"},{"poiid":"B2094757D064A7FB4198","title":"长城饭店","lon":"121.536225054","lat":"31.260812793","category":"75","category_name":"浙江菜","address":"杨浦区眉州路272号"},{"poiid":"B2094655D36CA2FD489F","title":"渭南路145弄小区","lon":"121.53754","lat":"31.2603","category":"47","category_name":"住宅区","address":"渭南路145弄"},{"poiid":"B2094757D465A1FC4792","title":"意海居 杭州路店","lon":"121.539274054","lat":"31.260794793","category":"76","category_name":"上海菜","address":"杨浦区杭州路403号(近宁国路)"},{"poiid":"B2094655D26EA3F94599","title":"福宁路27弄小区","lon":"121.53827818324","lat":"31.260109471193","category":"47","category_name":"住宅区","address":"福宁路27弄"},{"poiid":"B2094654D56EA7F84099","title":"城建大厦","lon":"121.53736","lat":"31.26309","category":"46","category_name":"楼宇","address":"上海杨浦区宁国路129号"},{"poiid":"B2094655D26BA7FB429C","title":"渭南路145弄小区(东门)","lon":"121.53774","lat":"31.26039","category":"47","category_name":"住宅区","address":"渭南路145弄"},{"poiid":"B2094757D465A2F4489A","title":"蓝欣雅苑","lon":"121.536225054","lat":"31.260812793","category":"47","category_name":"住宅区","address":"杨浦区眉州路272号长城饭店内(眉州路沈阳路)"},{"poiid":"B2094654DB6BA3F4419F","title":"良友(眉州路)","lon":"121.53668","lat":"31.25961","category":"117","category_name":"便民商店/便利店","address":"眉州路202号"},{"poiid":"B2094757D469A1FE419F","title":"武氏龙虾","lon":"121.540522","lat":"31.26109","category":"68","category_name":"快餐厅","address":"杨浦区松潘路138号(近杭州路)"},{"poiid":"B2094654DB6BA3F4419E","title":"高阳里","lon":"121.53693","lat":"31.259645","category":"47","category_name":"住宅区","address":"眉州路200弄"},{"poiid":"B2094655D26CA5FA489E","title":"怀德路201弄","lon":"121.53502264122","lat":"31.259616193756","category":"47","category_name":"住宅区","address":"怀德路201弄"},{"poiid":"B2094757D16BA1FE459B","title":"洪都酒家","lon":"121.53787","lat":"31.25708","category":"76","category_name":"上海菜","address":"杨浦区广州路109号(近眉州路)"},{"poiid":"B2094655D36CA3FB4892","title":"联华超市","lon":"121.53757","lat":"31.25833","category":"118","category_name":"超级市场","address":"眉州路120"},{"poiid":"B2094757D06AA0FA439E","title":"华谊星城","lon":"121.534816","lat":"31.260837","category":"47","category_name":"住宅区","address":"上海华谊星城名苑"},{"poiid":"B2094757D16DA4FF479E","title":"杨树浦路大连路站(公交28,135,853)","lon":"121.5404701","lat":"31.25933819","category":"38","category_name":"公交车站","address":"上海市虹口路大连路杨树浦路"},{"poiid":"B2094655D265A2FD439B","title":"谭记私房菜","lon":"121.53984","lat":"31.26164","category":"76","category_name":"上海菜","address":"杨浦区松潘路149号(杭州路松潘路)"},{"poiid":"B2094654D56EA7F84198","title":"大桥派出所","lon":"121.53968","lat":"31.25957","category":"609","category_name":"警察局","address":"宁国路19号"},{"poiid":"B2094654D56EA7F84298","title":"乐狗生活馆","lon":"121.53768","lat":"31.25792","category":"162","category_name":"医院","address":"杨浦区眉州路129号(近杨树浦路)"},{"poiid":"B2094757D66CA5FE4393","title":"御香斋","lon":"121.53597","lat":"31.26124","category":"68","category_name":"快餐厅","address":"杨浦区眉州路300号(近平凉路)"},{"poiid":"B2094757D068AAFF4992","title":"苏州汤包馆 眉州路","lon":"121.535589","lat":"31.261182","category":"257","category_name":"中餐厅","address":"眉州路300号近沈阳路"},{"poiid":"B2094757D069A6FB499F","title":"中国银行(杨浦支行)","lon":"121.53367","lat":"31.26103","category":"150","category_name":"银行","address":"杨浦区平凉路1128号"},{"poiid":"B2094655D26EA0FE4493","title":"速8酒店(上海东外滩店)","lon":"121.53542","lat":"31.26133","category":"216","category_name":"经济型连锁酒店","address":"眉州路300号"},{"poiid":"B2094757D06FA2F84498","title":"上海兴荣温德姆酒店","lon":"121.53912567915063","lat":"31.26011215378175","category":"76","category_name":"上海菜","address":"杨浦区宁国路25号兴荣温德姆酒店(近杭州路)"},{"poiid":"B2094757D06FA3FD429E","title":"红房子妇产科医院(杨浦分院)","lon":"121.534619481","lat":"31.2590112668","category":"162","category_name":"医院","address":"上海杨浦区沈阳路128号(近眉州路)"},{"poiid":"B2094655D36DA0F94092","title":"杨浦大桥","lon":"121.54012","lat":"31.26137","category":"38","category_name":"公交车站","address":"浦东新区浦东大道2175弄88号(近北洋泾路)"},{"poiid":"B2094757D06FA2FD469B","title":"复旦大学附属妇产科医院(杨浦院区)","lon":"121.53505897","lat":"31.260293398","category":"68","category_name":"快餐厅","address":"杨浦区沈阳路128号(近眉州路)"},{"poiid":"B2094757D06FA3F5449C","title":"平凉路眉州路","lon":"121.534188","lat":"31.261715","category":"47","category_name":"住宅区","address":"上海平凉路眉州路"},{"poiid":"B2094757D06FA5F8449B","title":"杨浦区中医医院","lon":"121.53841","lat":"31.25735","category":"162","category_name":"医院","address":"杨浦区眉州路185号(近平凉路)"},{"poiid":"B2094757D06FA3F84493","title":"85度C(平凉店)","lon":"121.534764","lat":"31.261609","category":"112","category_name":"糕饼店","address":"杨浦区平凉路1200号1楼(近眉州路)"},{"poiid":"B2094757D16CA6FF479C","title":"平凉路宁国路","lon":"121.536385103","lat":"31.262084248","category":"500","category_name":"未知分类","address":"上海市杨浦区平凉路宁国路"},{"poiid":"B2094757D06FAAF84892","title":"杨浦区老年医院","lon":"121.53890578","lat":"31.260598383","category":"162","category_name":"医院","address":"杨浦区杭州路349号(近宁国路)"},{"poiid":"B2094757D06FA4F44692","title":"杭州路","lon":"121.53958","lat":"31.261819","category":"500","category_name":"未知分类","address":"上海杭州路宁国路"},{"poiid":"B2094757D465A4F9489C","title":"上海兴荣温德姆酒店 尚荣轩","lon":"121.538991","lat":"31.26016","category":"76","category_name":"上海菜","address":"杨浦区宁国路25号兴荣温德姆酒店2、31、32楼(近杭州路)"},{"poiid":"B2094757D065A2FC4392","title":"东宫","lon":"121.53514872","lat":"31.261538216","category":"260","category_name":"其他","address":"上海三星路"},{"poiid":"B2094757D068A4F94893","title":"杨树浦路松潘路","lon":"121.540130143","lat":"31.2605108352","category":"260","category_name":"其他","address":"上海杨树浦路松潘路"},{"poiid":"B2094757D069AAFF419F","title":"杨树浦路","lon":"121.537211","lat":"31.255356","category":"500","category_name":"未知分类","address":"上海杨树浦路眉州路"},{"poiid":"B2094757D069ABFE439E","title":"广东人家","lon":"121.540422054","lat":"31.262050793","category":"68","category_name":"快餐厅","address":"杨浦区周家牌路109弄203号后门(三星路口)"},{"poiid":"B2094654D56EA7F94092","title":"华谊星城大厦","lon":"121.53456","lat":"31.2615","category":"46","category_name":"楼宇","address":"越秀区广州沿江中路298号"},{"poiid":"B2094757D06BA1F9459D","title":"美好人声","lon":"121.53430335","lat":"31.261921044","category":"170","category_name":"KTV","address":"杨浦区平凉路1295号2楼(近渭南路)"},{"poiid":"B2094757D06BA4F5469F","title":"禾禄寿司","lon":"121.5371261","lat":"31.258931182","category":"247","category_name":"餐饮美食","address":"上海五角场百联又一城"},{"poiid":"B2094654D56EA7FF489D","title":"申润江涛苑","lon":"121.53604","lat":"31.256815","category":"47","category_name":"住宅区","address":"上海市杨浦区广州路55弄1-6号"},{"poiid":"B2094655D265A2F84199","title":"眉州路100弄小区","lon":"121.53876","lat":"31.25843","category":"47","category_name":"住宅区","address":"眉州路100弄"},{"poiid":"B2094654D56FA6FE469A","title":"老北京热气涮羊肉","lon":"121.540374054","lat":"31.261556793","category":"86","category_name":"火锅店","address":"杨浦区松潘路148号(853车站终点站对面)"},{"poiid":"B2094757D16BA2FC4998","title":"喜喜国际母婴月子会所(杨浦兴荣温德姆店)","lon":"121.5369741","lat":"31.260318711","category":"500","category_name":"未知分类","address":"上海市杨浦区宁国路25号"},{"poiid":"B2094757D068A0F4479D","title":"崇业小区","lon":"121.53728","lat":"31.256132","category":"47","category_name":"住宅区","address":"上海杨树浦路1455弄"},{"poiid":"B2094750D664A0FA479C","title":"老盛兴苏州汤包馆(眉州路店)","lon":"121.536","lat":"31.261","category":"68","category_name":"快餐厅","address":"杨浦区眉州路300号(近沈阳路)"},{"poiid":"B2094655D26CA6F44592","title":"兴荣商务大厦","lon":"121.53902","lat":"31.26004","category":"46","category_name":"楼宇","address":""},{"poiid":"B2094655D265A5F94599","title":"重庆鸡公煲","lon":"121.53777","lat":"31.25783","category":"86","category_name":"火锅店","address":"杨浦区眉州路"},{"poiid":"B2094757D064A3FB4592","title":"天目山农庄","lon":"121.5339941","lat":"31.261634238","category":"87","category_name":"特色／地方风味餐厅","address":"杨浦区平凉路1158号"},{"poiid":"B2094757D068A7FB4793","title":"广杭苑","lon":"121.53644","lat":"31.257813","category":"500","category_name":"未知分类","address":"上海杭州路66弄"},{"poiid":"B2094757D064A7FB4198","title":"长城饭店","lon":"121.536225054","lat":"31.260812793","category":"75","category_name":"浙江菜","address":"杨浦区眉州路272号"},{"poiid":"B2094655D36CA2FD489F","title":"渭南路145弄小区","lon":"121.53754","lat":"31.2603","category":"47","category_name":"住宅区","address":"渭南路145弄"},{"poiid":"B2094757D465A1FC4792","title":"意海居 杭州路店","lon":"121.539274054","lat":"31.260794793","category":"76","category_name":"上海菜","address":"杨浦区杭州路403号(近宁国路)"},{"poiid":"B2094655D26EA3F94599","title":"福宁路27弄小区","lon":"121.53827818324","lat":"31.260109471193","category":"47","category_name":"住宅区","address":"福宁路27弄"},{"poiid":"B2094654D56EA7F84099","title":"城建大厦","lon":"121.53736","lat":"31.26309","category":"46","category_name":"楼宇","address":"上海杨浦区宁国路129号"},{"poiid":"B2094655D26BA7FB429C","title":"渭南路145弄小区(东门)","lon":"121.53774","lat":"31.26039","category":"47","category_name":"住宅区","address":"渭南路145弄"},{"poiid":"B2094757D465A2F4489A","title":"蓝欣雅苑","lon":"121.536225054","lat":"31.260812793","category":"47","category_name":"住宅区","address":"杨浦区眉州路272号长城饭店内(眉州路沈阳路)"},{"poiid":"B2094654DB6BA3F4419F","title":"良友(眉州路)","lon":"121.53668","lat":"31.25961","category":"117","category_name":"便民商店/便利店","address":"眉州路202号"},{"poiid":"B2094757D469A1FE419F","title":"武氏龙虾","lon":"121.540522","lat":"31.26109","category":"68","category_name":"快餐厅","address":"杨浦区松潘路138号(近杭州路)"},{"poiid":"B2094654DB6BA3F4419E","title":"高阳里","lon":"121.53693","lat":"31.259645","category":"47","category_name":"住宅区","address":"眉州路200弄"},{"poiid":"B2094655D26CA5FA489E","title":"怀德路201弄","lon":"121.53502264122","lat":"31.259616193756","category":"47","category_name":"住宅区","address":"怀德路201弄"},{"poiid":"B2094757D16BA1FE459B","title":"洪都酒家","lon":"121.53787","lat":"31.25708","category":"76","category_name":"上海菜","address":"杨浦区广州路109号(近眉州路)"},{"poiid":"B2094655D36CA3FB4892","title":"联华超市","lon":"121.53757","lat":"31.25833","category":"118","category_name":"超级市场","address":"眉州路120"},{"poiid":"B2094757D06AA0FA439E","title":"华谊星城","lon":"121.534816","lat":"31.260837","category":"47","category_name":"住宅区","address":"上海华谊星城名苑"},{"poiid":"B2094757D16DA4FF479E","title":"杨树浦路大连路站(公交28,135,853)","lon":"121.5404701","lat":"31.25933819","category":"38","category_name":"公交车站","address":"上海市虹口路大连路杨树浦路"},{"poiid":"B2094655D265A2FD439B","title":"谭记私房菜","lon":"121.53984","lat":"31.26164","category":"76","category_name":"上海菜","address":"杨浦区松潘路149号(杭州路松潘路)"},{"poiid":"B2094654D56EA7F84198","title":"大桥派出所","lon":"121.53968","lat":"31.25957","category":"609","category_name":"警察局","address":"宁国路19号"},{"poiid":"B2094654D56EA7F84298","title":"乐狗生活馆","lon":"121.53768","lat":"31.25792","category":"162","category_name":"医院","address":"杨浦区眉州路129号(近杨树浦路)"},{"poiid":"B2094757D66CA5FE4393","title":"御香斋","lon":"121.53597","lat":"31.26124","category":"68","category_name":"快餐厅","address":"杨浦区眉州路300号(近平凉路)"},{"poiid":"B2094757D068AAFF4992","title":"苏州汤包馆 眉州路","lon":"121.535589","lat":"31.261182","category":"257","category_name":"中餐厅","address":"眉州路300号近沈阳路"},{"poiid":"B2094757D069A6FB499F","title":"中国银行(杨浦支行)","lon":"121.53367","lat":"31.26103","category":"150","category_name":"银行","address":"杨浦区平凉路1128号"},{"poiid":"B2094655D26EA0FE4493","title":"速8酒店(上海东外滩店)","lon":"121.53542","lat":"31.26133","category":"216","category_name":"经济型连锁酒店","address":"眉州路300号"},{"poiid":"B2094757D06FA2F84498","title":"上海兴荣温德姆酒店","lon":"121.53912567915063","lat":"31.26011215378175","category":"76","category_name":"上海菜","address":"杨浦区宁国路25号兴荣温德姆酒店(近杭州路)"},{"poiid":"B2094757D06FA3FD429E","title":"红房子妇产科医院(杨浦分院)","lon":"121.534619481","lat":"31.2590112668","category":"162","category_name":"医院","address":"上海杨浦区沈阳路128号(近眉州路)"},{"poiid":"B2094655D36DA0F94092","title":"杨浦大桥","lon":"121.54012","lat":"31.26137","category":"38","category_name":"公交车站","address":"浦东新区浦东大道2175弄88号(近北洋泾路)"},{"poiid":"B2094757D06FA2FD469B","title":"复旦大学附属妇产科医院(杨浦院区)","lon":"121.53505897","lat":"31.260293398","category":"68","category_name":"快餐厅","address":"杨浦区沈阳路128号(近眉州路)"},{"poiid":"B2094757D06FA3F5449C","title":"平凉路眉州路","lon":"121.534188","lat":"31.261715","category":"47","category_name":"住宅区","address":"上海平凉路眉州路"},{"poiid":"B2094757D06FA5F8449B","title":"杨浦区中医医院","lon":"121.53841","lat":"31.25735","category":"162","category_name":"医院","address":"杨浦区眉州路185号(近平凉路)"},{"poiid":"B2094757D06FA3F84493","title":"85度C(平凉店)","lon":"121.534764","lat":"31.261609","category":"112","category_name":"糕饼店","address":"杨浦区平凉路1200号1楼(近眉州路)"},{"poiid":"B2094757D16CA6FF479C","title":"平凉路宁国路","lon":"121.536385103","lat":"31.262084248","category":"500","category_name":"未知分类","address":"上海市杨浦区平凉路宁国路"},{"poiid":"B2094757D06FAAF84892","title":"杨浦区老年医院","lon":"121.53890578","lat":"31.260598383","category":"162","category_name":"医院","address":"杨浦区杭州路349号(近宁国路)"},{"poiid":"B2094757D06FA4F44692","title":"杭州路","lon":"121.53958","lat":"31.261819","category":"500","category_name":"未知分类","address":"上海杭州路宁国路"},{"poiid":"B2094757D465A4F9489C","title":"上海兴荣温德姆酒店 尚荣轩","lon":"121.538991","lat":"31.26016","category":"76","category_name":"上海菜","address":"杨浦区宁国路25号兴荣温德姆酒店2、31、32楼(近杭州路)"},{"poiid":"B2094757D065A2FC4392","title":"东宫","lon":"121.53514872","lat":"31.261538216","category":"260","category_name":"其他","address":"上海三星路"},{"poiid":"B2094757D068A4F94893","title":"杨树浦路松潘路","lon":"121.540130143","lat":"31.2605108352","category":"260","category_name":"其他","address":"上海杨树浦路松潘路"},{"poiid":"B2094757D069AAFF419F","title":"杨树浦路","lon":"121.537211","lat":"31.255356","category":"500","category_name":"未知分类","address":"上海杨树浦路眉州路"},{"poiid":"B2094757D069ABFE439E","title":"广东人家","lon":"121.540422054","lat":"31.262050793","category":"68","category_name":"快餐厅","address":"杨浦区周家牌路109弄203号后门(三星路口)"},{"poiid":"B2094654D56EA7F94092","title":"华谊星城大厦","lon":"121.53456","lat":"31.2615","category":"46","category_name":"楼宇","address":"越秀区广州沿江中路298号"},{"poiid":"B2094757D06BA1F9459D","title":"美好人声","lon":"121.53430335","lat":"31.261921044","category":"170","category_name":"KTV","address":"杨浦区平凉路1295号2楼(近渭南路)"},{"poiid":"B2094757D06BA4F5469F","title":"禾禄寿司","lon":"121.5371261","lat":"31.258931182","category":"247","category_name":"餐饮美食","address":"上海五角场百联又一城"},{"poiid":"B2094654D56EA7FF489D","title":"申润江涛苑","lon":"121.53604","lat":"31.256815","category":"47","category_name":"住宅区","address":"上海市杨浦区广州路55弄1-6号"},{"poiid":"B2094655D265A2F84199","title":"眉州路100弄小区","lon":"121.53876","lat":"31.25843","category":"47","category_name":"住宅区","address":"眉州路100弄"},{"poiid":"B2094654D56FA6FE469A","title":"老北京热气涮羊肉","lon":"121.540374054","lat":"31.261556793","category":"86","category_name":"火锅店","address":"杨浦区松潘路148号(853车站终点站对面)"},{"poiid":"B2094757D16BA2FC4998","title":"喜喜国际母婴月子会所(杨浦兴荣温德姆店)","lon":"121.5369741","lat":"31.260318711","category":"500","category_name":"未知分类","address":"上海市杨浦区宁国路25号"},{"poiid":"B2094757D068A0F4479D","title":"崇业小区","lon":"121.53728","lat":"31.256132","category":"47","category_name":"住宅区","address":"上海杨树浦路1455弄"},{"poiid":"B2094750D664A0FA479C","title":"老盛兴苏州汤包馆(眉州路店)","lon":"121.536","lat":"31.261","category":"68","category_name":"快餐厅","address":"杨浦区眉州路300号(近沈阳路)"},{"poiid":"B2094655D26CA6F44592","title":"兴荣商务大厦","lon":"121.53902","lat":"31.26004","category":"46","category_name":"楼宇","address":""},{"poiid":"B2094655D265A5F94599","title":"重庆鸡公煲","lon":"121.53777","lat":"31.25783","category":"86","category_name":"火锅店","address":"杨浦区眉州路"},{"poiid":"B2094757D064A3FB4592","title":"天目山农庄","lon":"121.5339941","lat":"31.261634238","category":"87","category_name":"特色／地方风味餐厅","address":"杨浦区平凉路1158号"},{"poiid":"B2094757D068A7FB4793","title":"广杭苑","lon":"121.53644","lat":"31.257813","category":"500","category_name":"未知分类","address":"上海杭州路66弄"},{"poiid":"B2094757D064A7FB4198","title":"长城饭店","lon":"121.536225054","lat":"31.260812793","category":"75","category_name":"浙江菜","address":"杨浦区眉州路272号"},{"poiid":"B2094655D36CA2FD489F","title":"渭南路145弄小区","lon":"121.53754","lat":"31.2603","category":"47","category_name":"住宅区","address":"渭南路145弄"},{"poiid":"B2094757D465A1FC4792","title":"意海居 杭州路店","lon":"121.539274054","lat":"31.260794793","category":"76","category_name":"上海菜","address":"杨浦区杭州路403号(近宁国路)"},{"poiid":"B2094655D26EA3F94599","title":"福宁路27弄小区","lon":"121.53827818324","lat":"31.260109471193","category":"47","category_name":"住宅区","address":"福宁路27弄"},{"poiid":"B2094654D56EA7F84099","title":"城建大厦","lon":"121.53736","lat":"31.26309","category":"46","category_name":"楼宇","address":"上海杨浦区宁国路129号"},{"poiid":"B2094655D26BA7FB429C","title":"渭南路145弄小区(东门)","lon":"121.53774","lat":"31.26039","category":"47","category_name":"住宅区","address":"渭南路145弄"},{"poiid":"B2094757D465A2F4489A","title":"蓝欣雅苑","lon":"121.536225054","lat":"31.260812793","category":"47","category_name":"住宅区","address":"杨浦区眉州路272号长城饭店内(眉州路沈阳路)"},{"poiid":"B2094654DB6BA3F4419F","title":"良友(眉州路)","lon":"121.53668","lat":"31.25961","category":"117","category_name":"便民商店/便利店","address":"眉州路202号"},{"poiid":"B2094757D469A1FE419F","title":"武氏龙虾","lon":"121.540522","lat":"31.26109","category":"68","category_name":"快餐厅","address":"杨浦区松潘路138号(近杭州路)"},{"poiid":"B2094654DB6BA3F4419E","title":"高阳里","lon":"121.53693","lat":"31.259645","category":"47","category_name":"住宅区","address":"眉州路200弄"},{"poiid":"B2094655D26CA5FA489E","title":"怀德路201弄","lon":"121.53502264122","lat":"31.259616193756","category":"47","category_name":"住宅区","address":"怀德路201弄"},{"poiid":"B2094757D16BA1FE459B","title":"洪都酒家","lon":"121.53787","lat":"31.25708","category":"76","category_name":"上海菜","address":"杨浦区广州路109号(近眉州路)"},{"poiid":"B2094655D36CA3FB4892","title":"联华超市","lon":"121.53757","lat":"31.25833","category":"118","category_name":"超级市场","address":"眉州路120"},{"poiid":"B2094757D06AA0FA439E","title":"华谊星城","lon":"121.534816","lat":"31.260837","category":"47","category_name":"住宅区","address":"上海华谊星城名苑"},{"poiid":"B2094757D16DA4FF479E","title":"杨树浦路大连路站(公交28,135,853)","lon":"121.5404701","lat":"31.25933819","category":"38","category_name":"公交车站","address":"上海市虹口路大连路杨树浦路"},{"poiid":"B2094655D265A2FD439B","title":"谭记私房菜","lon":"121.53984","lat":"31.26164","category":"76","category_name":"上海菜","address":"杨浦区松潘路149号(杭州路松潘路)"},{"poiid":"B2094654D56EA7F84198","title":"大桥派出所","lon":"121.53968","lat":"31.25957","category":"609","category_name":"警察局","address":"宁国路19号"},{"poiid":"B2094654D56EA7F84298","title":"乐狗生活馆","lon":"121.53768","lat":"31.25792","category":"162","category_name":"医院","address":"杨浦区眉州路129号(近杨树浦路)"},{"poiid":"B2094757D66CA5FE4393","title":"御香斋","lon":"121.53597","lat":"31.26124","category":"68","category_name":"快餐厅","address":"杨浦区眉州路300号(近平凉路)"},{"poiid":"B2094757D068AAFF4992","title":"苏州汤包馆 眉州路","lon":"121.535589","lat":"31.261182","category":"257","category_name":"中餐厅","address":"眉州路300号近沈阳路"},{"poiid":"B2094757D069A6FB499F","title":"中国银行(杨浦支行)","lon":"121.53367","lat":"31.26103","category":"150","category_name":"银行","address":"杨浦区平凉路1128号"},{"poiid":"B2094655D26EA0FE4493","title":"速8酒店(上海东外滩店)","lon":"121.53542","lat":"31.26133","category":"216","category_name":"经济型连锁酒店","address":"眉州路300号"}]