[{"poiid":"B2094654DB64AAFD499A","title":"大团桃园","lon":"121.74049","lat":"30.98645","category":"205","category_name":"采摘园","address":"上海市浦东新区南汇大团镇赵桥村888号"},{"poiid":"B2094757D16DA7FA459F","title":"浦东新区大团镇","lon":"121.739478128","lat":"30.9729776601","category":"500","category_name":"未知分类","address":"上海浦东新区大团镇"},{"poiid":"B2094655D36CA2FA459E","title":"三墩镇","lon":"121.75541","lat":"30.99243","category":"38","category_name":"公交车站","address":""},{"poiid":"B2094655D265A1FE4599","title":"金团圆农家菜馆","lon":"121.731788","lat":"30.990896","category":"76","category_name":"上海菜","address":"浦东新区大团镇赵桥村888号桃花园内"},{"poiid":"B2094757D065AAFD4593","title":"东大公路","lon":"121.736697947","lat":"30.9820357902","category":"500","category_name":"未知分类","address":"上海市浦东新区东大公路"},{"poiid":"B2094655D26BA1FE489A","title":"南团公路东大公路","lon":"121.75652","lat":"30.98623","category":"38","category_name":"公交车站","address":""},{"poiid":"B2094757D465A1FE459B","title":"敦煌农家乐","lon":"121.7529436","lat":"30.9938394","category":"76","category_name":"上海菜","address":"浦东新区三墩镇三宣公路401-403号"},{"poiid":"B2094655D36CA2FB439D","title":"三宣公路下塘","lon":"121.75021","lat":"30.99559","category":"38","category_name":"公交车站","address":""},{"poiid":"B2094655D26BA0F54998","title":"定慧禅院","lon":"121.73585","lat":"30.97549","category":"244","category_name":"寺庙道观","address":"浦东新区大团永春西二路112号"},{"poiid":"B2094757D465A1F8479E","title":"团一舫","lon":"121.7449","lat":"30.97314","category":"76","category_name":"上海菜","address":"浦东新区南汇大团镇永春东路39号(近永春东路)"},{"poiid":"B2094655D36CA4FE4099","title":"爱家新城","lon":"121.75229","lat":"30.97403","category":"47","category_name":"住宅区","address":"永旺路258弄1～16号"},{"poiid":"B2094655D36CA6F5499D","title":"大团镇","lon":"121.73864","lat":"30.97023","category":"38","category_name":"公交车站","address":"上海南芦公路"},{"poiid":"B2094757D66DA3F44692","title":"上岛咖啡","lon":"121.744458628","lat":"30.9714956261","category":"65","category_name":"咖啡厅","address":"浦东新区大团镇永春东路36号"},{"poiid":"B2094655D36CA2FA4599","title":"三墩","lon":"121.75363","lat":"30.9935","category":"38","category_name":"公交车站","address":""},{"poiid":"B2094751D36DA3F4469D","title":"星田农家访","lon":"121.75669","lat":"30.9866","category":"76","category_name":"上海菜","address":"浦东新区大团镇南团公路1898号(近东大公路)"},{"poiid":"B2094655D36CA2FB439F","title":"三宣公路三墩","lon":"121.75451","lat":"30.99296","category":"38","category_name":"公交车站","address":""},{"poiid":"B2094654DB64A0F5409A","title":"三墩中学","lon":"121.75423","lat":"30.99288","category":"55","category_name":"中学","address":""},{"poiid":"B2094654DB68A2FA489D","title":"三墩花苑","lon":"121.75381","lat":"30.99313","category":"47","category_name":"住宅区","address":"三宣公路397弄"},{"poiid":"B2094757D168A5FB4698","title":"南芦公路","lon":"121.72023846","lat":"30.991698923","category":"500","category_name":"未知分类","address":"上海马路上"},{"poiid":"B2094654DB65A7F8469B","title":"百味林(三墩镇店)","lon":"121.75924","lat":"30.99019","category":"648","category_name":"零食","address":"浦东新区三墩镇三宣公路365号"},{"poiid":"B2094654DB69ABFF459F","title":"农工商超市(三墩店)","lon":"121.75446","lat":"30.9929","category":"118","category_name":"超级市场","address":"南汇区大团镇三宣公路275号"},{"poiid":"B2094654DB68A1FD4298","title":"上海莲城百货商场","lon":"121.7563","lat":"30.99229","category":"119","category_name":"商场","address":""},{"poiid":"B2094654DB64AAFD459F","title":"芦洋花园","lon":"121.7356","lat":"30.973581","category":"47","category_name":"住宅区","address":"永春西一路169弄"},{"poiid":"B2094654DB64AAFD409E","title":"大团影剧院","lon":"121.755445","lat":"30.993485","category":"178","category_name":"电影院","address":"大团镇永春东路51号"},{"poiid":"B2094750D26CA2FD419C","title":"奉城医院","lon":"121.735759","lat":"30.972803","category":"162","category_name":"医院","address":null},{"poiid":"B2094654DB68A2F4479C","title":"小辣椒火锅城","lon":"121.73903","lat":"30.97294","category":"86","category_name":"火锅店","address":""},{"poiid":"B2094654DB68A2FB4098","title":"新华书店(永春中路)","lon":"121.73888","lat":"30.97303","category":"125","category_name":"书店","address":"永春路138号"},{"poiid":"B2094757D66EA7FD499F","title":"来伊份(松江大学城三期店)","lon":"121.72878","lat":"30.97733","category":"500","category_name":"未知分类","address":"上海近郊松江区文汇路松江大学城三期(教育超市对面)  "},{"poiid":"B2094655D36CA6F5499C","title":"大团镇(永春中路)","lon":"121.73855","lat":"30.97116","category":"38","category_name":"公交车站","address":""},{"poiid":"B2094654DB69A0F4439E","title":"大团镇小学","lon":"121.74079","lat":"30.97261","category":"56","category_name":"小学","address":"浦东新区大团镇永春东路70号(永春东路永定北路)"},{"poiid":"B2094654DB65A6FC409D","title":"百味林(大团镇二店)","lon":"121.739585","lat":"30.972633","category":"648","category_name":"零食","address":"浦东新区大团镇永春东路83号"},{"poiid":"B2094655D36CA6FF479F","title":"扶栏村","lon":"121.75348","lat":"30.99995","category":"38","category_name":"公交车站","address":""},{"poiid":"B2094655D36DA3F44399","title":"果元桥","lon":"121.72316","lat":"30.98009","category":"250","category_name":"公园户外","address":""},{"poiid":"B2094654DB68A1FC439F","title":"南湾新村","lon":"121.73803","lat":"30.96934","category":"47","category_name":"住宅区","address":""},{"poiid":"B2094655D36CA2F5469B","title":"邵村","lon":"121.72884","lat":"31.00494","category":"38","category_name":"公交车站","address":""},{"poiid":"B2094654DB64AAFD459E","title":"金团公园","lon":"121.75308","lat":"30.97611","category":"196","category_name":"公园","address":""},{"poiid":"B2094655D265A0F4429E","title":"克莉丝汀(大团店)","lon":"121.738","lat":"30.96935","category":"112","category_name":"糕饼店","address":"浦东新区南三支路南湾新村17号(近永春东路)"},{"poiid":"B2094654DB68A2F4449B","title":"军民新村","lon":"121.74622","lat":"30.972281","category":"47","category_name":"住宅区","address":"新场镇军民新村"},{"poiid":"B2094655D26BA1FF4493","title":"南芦公路永春南路","lon":"121.73883","lat":"30.9692","category":"38","category_name":"公交车站","address":""},{"poiid":"B2094654DB68A2F44693","title":"华泰蟠龙角药店","lon":"121.73954","lat":"30.97346","category":"669","category_name":"药店","address":"大团镇"},{"poiid":"B2094654DB64ABFA4099","title":"上海农村商业银行三墩支行","lon":"121.75808","lat":"30.99061","category":"150","category_name":"银行","address":"三墩镇"},{"poiid":"B2094757D164A2FE429D","title":"建德南郊别墅","lon":"121.72553662","lat":"30.974248289","category":"500","category_name":"未知分类","address":"上海近郊南汇南六公路  "},{"poiid":"B2094654DB64ABF9459B","title":"中国农业银行三墩支行","lon":"121.75789","lat":"30.99074","category":"150","category_name":"银行","address":"三墩镇(三宣公路325号)"},{"poiid":"B2094654DB68A2F44492","title":"大团邮政支局","lon":"121.73833","lat":"30.97244","category":"248","category_name":"生活娱乐","address":"大团镇永春中路169号"},{"poiid":"B2094654DB64A0F5429D","title":"中国建设银行上海大团支行","lon":"121.73817","lat":"30.96976","category":"150","category_name":"银行","address":"浦东新区大团镇南湾新村18号101室(永春南路永宁东路)"}]