[{"poiid":"B2094757D06FA6FA4492","title":"上海电机学院(临港校区)","lon":"121.88798904","lat":"30.886849223","category":"52","category_name":"高等院校","address":"浦东新区临港新城橄榄路1350号(近南汇党校)"},{"poiid":"B2094654DB68ABF44493","title":"洋山保税港区","lon":"121.88819","lat":"30.87725","category":"45","category_name":"产业园区","address":""},{"poiid":"B2094757D06FA1FB469B","title":"深水港商务广场","lon":"121.88806915","lat":"30.877120971","category":"46","category_name":"楼宇","address":"上海浦东新区芦潮港镇顺通路9号"},{"poiid":"B2094757D66EA1FF4299","title":"上海电机学院(临港校区)A楼","lon":"121.884833758","lat":"30.8881474777","category":"253","category_name":"校园生活","address":"上海橄榄路水华路"},{"poiid":"B2094757D16CA6FD439B","title":"上海电机学院(临港校区)B教学楼","lon":"121.87608975","lat":"30.892017673","category":"500","category_name":"未知分类","address":"上海中林路"},{"poiid":"B2094757D16DABF54098","title":"上海电机学院(临港校区)图书馆","lon":"121.888338458","lat":"30.8774607127","category":"181","category_name":"图书馆","address":"上海浦东新区临港新城橄榄路1350号"},{"poiid":"B2094655D36DA3F8499A","title":"人民塘隋塘河","lon":"121.87772","lat":"30.88658","category":"250","category_name":"公园户外","address":""},{"poiid":"B2094757D66FA0F5409C","title":"上海电机学院临港语言教学中心","lon":"121.882011658","lat":"30.8880336749","category":"500","category_name":"未知分类","address":"上海市浦东新区橄榄路1350号"},{"poiid":"B2094757D16BABFD479D","title":"上海电机学院26号302","lon":"121.88254595","lat":"30.889944622","category":"500","category_name":"未知分类","address":null},{"poiid":"B2094757D065A1FE459F","title":"上海电机学院19宿510","lon":"121.88201295","lat":"30.888979598","category":"500","category_name":"未知分类","address":"上海橄榄路1350号"},{"poiid":"B2094757D165AAFD469B","title":"上海电机学院(临港校区)学生事务中心","lon":"121.884803558","lat":"30.8865319377","category":"500","category_name":"未知分类","address":"上海河洲路"},{"poiid":"B2094757D064AAF54293","title":"两港大道","lon":"121.866346","lat":"30.896227","category":"260","category_name":"其他","address":"上海市浦东新区两港大道"},{"poiid":"B2094757D165A7FA499A","title":"上海电机学院(临港校区)16宿","lon":"121.87156825","lat":"30.883208955","category":"500","category_name":"未知分类","address":"上海春早路"},{"poiid":"B2094752DB6BA5F5489C","title":"上海电机学院图书馆","lon":"121.8853","lat":"30.887238","category":"500","category_name":"未知分类","address":"上海市 上海市浦东新区临港新城橄榄路1350号"},{"poiid":"B2094757D569A3FF479B","title":"海事大学临港新校区学生公寓小区","lon":"121.89234","lat":"30.88553","category":"47","category_name":"住宅区","address":"海港大道1550号"},{"poiid":"B2094757D16CA4F4469D","title":"洋山海关查验科","lon":"121.885709035","lat":"30.8799332018","category":"500","category_name":"未知分类","address":"上海浦东新区顺通路8号"},{"poiid":"B2094757DB6CA5FA429F","title":"临港新城","lon":"121.885616","lat":"30.881313","category":"47","category_name":"住宅区","address":"临港新城"},{"poiid":"B2094751D369ABF4409C","title":"韶梦酒店(深水港店)","lon":"121.8853","lat":"30.87714","category":"76","category_name":"上海菜","address":"浦东新区顺通路5号深水港商务广场1楼"},{"poiid":"B2094757DA64A5FC429C","title":"上海海洋大学第六小区","lon":"121.892622","lat":"30.880606","category":"253","category_name":"校园生活","address":"上海海洋大学沪城环路999号"},{"poiid":"B2094757D66DA4F9409D","title":"橄榄路水华路站(公交龙港快线,龙临线,龙芦线,芦杜线,三港线)","lon":"121.890493207","lat":"30.8854479111","category":"38","category_name":"公交车站","address":"上海浦东新区橄榄路"},{"poiid":"B2094757D16DA1F4449E","title":"上海电机学院(临港校区)D#304","lon":"121.89024645","lat":"30.894788342","category":"500","category_name":"未知分类","address":"上海中林路"},{"poiid":"B2094757D66DA5F4469A","title":"上海电机学院15宿","lon":"121.887052558","lat":"30.882716643","category":"500","category_name":"未知分类","address":null},{"poiid":"B2094757D568A5F8489A","title":"海事大学行政楼","lon":"121.89253","lat":"30.88536","category":"52","category_name":"高等院校","address":"海事大学临港校区"},{"poiid":"B2094757D16EA1F84699","title":"中共上海市浦东新区区委党校(银莲路南校区)","lon":"121.89073895","lat":"30.882171429","category":"190","category_name":"培训机构","address":"浦东新区银莲路2号(近顺翔路)"},{"poiid":"B2094654DB64ABFE449F","title":"中国农业银行(顺翔路)","lon":"121.87998","lat":"30.87822","category":"150","category_name":"银行","address":""},{"poiid":"B2094655D36DA0F9459B","title":"洋山公安分局","lon":"121.87884","lat":"30.87554","category":"38","category_name":"公交车站","address":""},{"poiid":"B2094752D76BABFB439E","title":"上海海事大学大礼堂","lon":"121.891455","lat":"30.897753","category":"253","category_name":"校园生活","address":null},{"poiid":"B2094655D265A6F44998","title":"书院1号公寓","lon":"121.878","lat":"30.875","category":"47","category_name":"住宅区","address":"浦东新区老芦公路855号"},{"poiid":"B2094654DB68ABFA489B","title":"芦潮港站进口","lon":"121.86778","lat":"30.87506","category":"34","category_name":"港口码头","address":""},{"poiid":"B2094750DA69A2F94893","title":"上海海洋大学第十四小区","lon":"121.893463","lat":"30.886184","category":"253","category_name":"校园生活","address":null},{"poiid":"B2094757D16DA6FD479F","title":"克莱斯勒仓库","lon":"121.887047858","lat":"30.8827116429","category":"260","category_name":"其他","address":"上海业盛路66号"},{"poiid":"B2094757D16EAAFA4892","title":"东海大桥票务监控室","lon":"121.89061695","lat":"30.879036351","category":"46","category_name":"楼宇","address":"上海市浦东新区S2沪芦高速路"},{"poiid":"B2094757D165A6FE499C","title":"嵊泗海边人家","lon":"121.86312795","lat":"30.903797966","category":"247","category_name":"餐饮美食","address":"上海嵊泗海边人家"},{"poiid":"B2094654DB68ABFA499F","title":"临港普洛斯国际物流园区","lon":"121.87456","lat":"30.87625","category":"248","category_name":"生活娱乐","address":"同顺大道555号"},{"poiid":"B2094757D168A2FC429A","title":"重庆鸡公堡(海洋大学店)","lon":"121.88831175","lat":"30.877464812","category":"247","category_name":"餐饮美食","address":"上海海洋大学第二食堂2楼"},{"poiid":"B2094757D164A3FC4593","title":"麦盛莉(顺通路店)","lon":"121.8834","lat":"30.87713","category":"249","category_name":"购物服务","address":"上海近郊南汇区顺通路9号深水港商务广场B座1楼(近芦潮港)  "},{"poiid":"B2094757D06AA0FE4992","title":"上海深水港物流有限公司","lon":"121.881998","lat":"30.875382","category":"263","category_name":"公司","address":"上海同汇路1号"},{"poiid":"B2094654DB68ABFA4999","title":"卡特彼勒物流","lon":"121.87802","lat":"30.87511","category":"248","category_name":"生活娱乐","address":""}]