[{"poiid":"B2094757D06FA3F8429C","title":"淮海路","lon":"121.46398412","lat":"31.222631868","category":"260","category_name":"其他","address":"上海淮海路"},{"poiid":"B2094654DA6EAAFC499A","title":"香港广场","lon":"121.47505","lat":"31.2229","category":"46","category_name":"楼宇","address":"朝阳华威桥东北角"},{"poiid":"B2094654DB6AA3FC4298","title":"广州蕉叶(香港广场店)","lon":"121.47513","lat":"31.22284","category":"99","category_name":"泰国／越南菜品餐厅","address":"卢湾区淮海中路283号香港广场南座4楼(近黄陂南路)"},{"poiid":"B2094753D76FAAFA449C","title":"上海滩国泰旗舰店","lon":"121.466011","lat":"31.216125","category":"249","category_name":"购物服务","address":"淮海中路868号"},{"poiid":"B209475CD564A7F84292","title":"上海滩新天地店","lon":"121.47463","lat":"31.22164","category":"119","category_name":"商场","address":"\"太仓路181弄新天地北里15号\r\n\""},{"poiid":"B209475CD564A7F8439E","title":"上海滩中信泰富店","lon":"121.45602","lat":"31.22851","category":"119","category_name":"商场","address":"\"南京西路1168号中信泰富广场，店铺号221.\r\n\""},{"poiid":"B209475CD564A7F84392","title":"上海滩浦东香格里拉店","lon":"121.50058","lat":"31.23634","category":"119","category_name":"商场","address":"浦东富成路33号香格里拉酒店内大堂层"},{"poiid":"B2094757D06EAAFD449D","title":"In Tokyo 东京食尚","lon":"121.47522583","lat":"31.22324526","category":"95","category_name":"日本料理","address":"卢湾区淮海中路283号香港广场B1楼(近嵩山路)"},{"poiid":"B2094655D26AAAFE489F","title":"M2","lon":"121.47513","lat":"31.22284","category":"172","category_name":"酒吧","address":"卢湾区淮海中路283号香港广场4楼;;"},{"poiid":"B2094654DB69A0FA4998","title":"鹿港小镇(新天地店)","lon":"121.47697","lat":"31.22197","category":"91","category_name":"台湾菜","address":"卢湾区太仓路68号(近嵩山路)"},{"poiid":"B2094654DB6BA4FA4899","title":"好乐迪量贩KTV","lon":"121.47646","lat":"31.22161","category":"170","category_name":"KTV","address":"顺昌路2"},{"poiid":"B2094655D26AA0F84799","title":"上海中医药大学附属曙光医院","lon":"121.47867","lat":"31.22293","category":"162","category_name":"医院","address":"卢湾区普安路185号(近淮海公园)"},{"poiid":"B2094757D06EAAF8439D","title":"鲜芋仙(嵩山路店)","lon":"121.475493573","lat":"31.2229826306","category":"67","category_name":"甜品店","address":"卢湾区嵩山路77号1楼(近淮海路)"},{"poiid":"B2094654DB6BA4FB4499","title":"兰亭餐厅","lon":"121.47562077847","lat":"31.222343552913","category":"76","category_name":"上海菜","address":"卢湾区嵩山路107号(近太仓路)"},{"poiid":"B2094757D06FA3F84399","title":"枣子树(淮海店)","lon":"121.47648","lat":"31.22225","category":"89","category_name":"中式素餐馆","address":"卢湾区嵩山路77号上海皇宫内(近淮海中路)"},{"poiid":"B2094757D06FAAF4469C","title":"上海安达仕酒店","lon":"121.475939667","lat":"31.2220295725","category":"217","category_name":"旅馆招待所","address":"卢湾区嵩山路88号(近香港广场)"},{"poiid":"B2094655D26FA2FA439D","title":"复茂小龙虾 淮海中路店 FOMO","lon":"121.47673364297","lat":"31.224215393217","category":"68","category_name":"快餐厅","address":"卢湾区淮海中路172号(近普安路)"},{"poiid":"B2094654DA6EABF5459F","title":"企业天地","lon":"121.47592","lat":"31.22109","category":"46","category_name":"楼宇","address":"上海市平凉路1398号"},{"poiid":"B2094757D069AAFE4598","title":"Andaz Shanghai","lon":"121.475196738","lat":"31.2218871223","category":"500","category_name":"未知分类","address":"上海88 Songshan Road"},{"poiid":"B2094757D06FA2FE429B","title":"企业天地1号楼","lon":"121.476076722","lat":"31.2208862618","category":"46","category_name":"楼宇","address":"上海市卢湾区湖滨路222号"},{"poiid":"B2094750D56DABFB469A","title":"上海广场（原无限度广场）","lon":"121.47599","lat":"31.22404","category":"500","category_name":"未知分类","address":"上海卢湾区淮海中路138号(近普安路)"},{"poiid":"B2094757D06FA2F44599","title":"蝶园(太仓路店)","lon":"121.47718","lat":"31.22167","category":"76","category_name":"上海菜","address":"卢湾区太仓路70号(近嵩山路)"},{"poiid":"B2094757D66CA4FB499C","title":"好樂迪","lon":"121.477838738","lat":"31.2232501514","category":"500","category_name":"未知分类","address":"上海市黄浦区黄陂南路"},{"poiid":"B2094655D26AA0F84298","title":"舒适堡香港广场店","lon":"121.47513","lat":"31.22284","category":"221","category_name":"健身中心","address":"卢湾区淮海中路282号香港广场北座3楼(近黄陂南路)"},{"poiid":"B2094757D06FA2FA4292","title":"普华永道中心","lon":"121.47667706","lat":"31.2208910235","category":"46","category_name":"楼宇","address":"上海卢湾区湖滨路202号"},{"poiid":"B2094753D768A7FE489D","title":"甜品工房","lon":"121.477027","lat":"31.22192","category":"247","category_name":"餐饮美食","address":"上海市 济南路9号103商铺(近太仓路)"},{"poiid":"B2094757D069AAFF4593","title":"俏江南","lon":"121.475415738","lat":"31.2212311083","category":"71","category_name":"四川菜","address":"卢湾区太仓路181弄新天地北里235号02、05单元(近马当路)"},{"poiid":"B2094654DB6BA4FB4493","title":"天家 太仓路店","lon":"121.47643526081","lat":"31.221847695273","category":"95","category_name":"日本料理","address":"卢湾区太仓路68号(近嵩山路)"},{"poiid":"B2094757D06FA1F84593","title":"Enoterra红酒吧(太仓路店)","lon":"121.477109909","lat":"31.2219337278","category":"260","category_name":"其他","address":"卢湾区太仓路58号(近济南路)"},{"poiid":"B2094757D06FA1F8489D","title":"淮海公园","lon":"121.47755186","lat":"31.222709558","category":"196","category_name":"公园","address":"卢湾区淮海中路177号(近普安路)"},{"poiid":"B2094757D66FA6FA499E","title":"路易威登Louis Vuitton(淮海旗舰店)","lon":"121.4759","lat":"31.22392","category":"141","category_name":"服装鞋帽皮具店","address":"上海卢湾区淮海中路222号力宝广场1楼105商铺(近嵩山路)"},{"poiid":"B2094655D26EA5FE469C","title":"y+瑜伽馆(新天地店)","lon":"121.47625","lat":"31.22076","category":"148","category_name":"美容美发店","address":"黄浦区湖滨路202号企业天地2号2楼(新天地会所)"},{"poiid":"B2094757D069A6FC4292","title":"新天地上海滩餐厅","lon":"121.475547","lat":"31.221403","category":"76","category_name":"上海菜","address":"上海黄陂路333号"},{"poiid":"B2094757D06FA3FF4299","title":"楚楚园馅饼粥(卢湾店)","lon":"121.47536","lat":"31.22284","category":"68","category_name":"快餐厅","address":"卢湾区嵩山路77号2楼(近淮海中路)"},{"poiid":"B2094751D469A0FC4093","title":"浦东机场T2","lon":"121.475928","lat":"31.221897","category":"500","category_name":"未知分类","address":null},{"poiid":"B2094757D06FAAFA409A","title":"广州焦叶","lon":"121.474889738","lat":"31.2223761327","category":"500","category_name":"未知分类","address":"上海香港广场4楼"},{"poiid":"B2094757D06FA4F44093","title":"富民面馆","lon":"121.47687790213","lat":"31.221657822044","category":"68","category_name":"快餐厅","address":"卢湾区太仓路78号(顺昌路口)"},{"poiid":"B2094757D568A4FA4692","title":"Green Massage新天地店","lon":"121.4773631","lat":"31.22202611","category":"149","category_name":"洗浴推拿场所","address":"太仓路58号"},{"poiid":"B2094757D06BA7F54899","title":"瑞尔齿科(新天地店)","lon":"121.47636","lat":"31.2209","category":"162","category_name":"医院","address":"上海卢湾区湖滨路202号企业天地商业中心2号2楼(近济南路)  "},{"poiid":"B2094757D065A2F5429F","title":"明阁","lon":"121.473816","lat":"31.221939","category":"72","category_name":"广东菜","address":"卢湾区马当路99号新天地朗廷酒店5楼"},{"poiid":"B2094654DA6EAAFA459A","title":"中国建设银行上海市分行营业部","lon":"121.47667","lat":"31.22432","category":"150","category_name":"银行","address":"淮海中路200"},{"poiid":"B2094757D065A6FA4999","title":"XTD Elevated","lon":"121.47515473","lat":"31.222710139","category":"260","category_name":"其他","address":"卢湾区马当路99号新天地朗廷酒店内(近兴安路)"},{"poiid":"B2094654DB65A7F5499E","title":"Y+瑜伽生活馆(新天地店)","lon":"121.4761","lat":"31.22175","category":"220","category_name":"运动场所","address":"卢湾区湖滨路202号企业天地2号楼2楼单元17-20室(近济南路)"},{"poiid":"B2094757D16CA0F84493","title":"立裴米缇咖啡","lon":"121.474973738","lat":"31.222578137","category":"65","category_name":"咖啡厅","address":"卢湾区淮海路283号香港广场3楼301室(近太平洋百货)"},{"poiid":"B2094750D76DAAF94599","title":"Éclair","lon":"121.476","lat":"31.2228","category":"67","category_name":"甜品店","address":"卢湾区嵩山路88号上海安达仕酒店1楼"},{"poiid":"B2094752D16AA4F4409D","title":"楚楚园","lon":"121.475053","lat":"31.222129","category":"247","category_name":"餐饮美食","address":"嵩山路"},{"poiid":"B2094757D06FAAFB479F","title":"振江川菜馆","lon":"121.4756","lat":"31.2225","category":"71","category_name":"四川菜","address":"卢湾区嵩山路81号2楼(近淮海中路)"},{"poiid":"B2094757D064ABF5459C","title":"Whittard of Chelsea","lon":"121.47663773","lat":"31.223583158","category":"260","category_name":"其他","address":"卢湾区淮海中路222号力宝广场B1楼101店铺(近嵩山路)"},{"poiid":"B2094654DA6DABFA469B","title":"复兴广场","lon":"121.477","lat":"31.2237","category":"248","category_name":"生活娱乐","address":"卢湾区重庆南路208号(近南昌路)"},{"poiid":"B2094757D06FA2FE439D","title":"传奇台球(淮海路店)","lon":"121.47703","lat":"31.22407","category":"171","category_name":"台球厅","address":"上海卢湾区淮海中路188号5楼(近普安路)"},{"poiid":"B2094757D06FA3F8429C","title":"淮海路","lon":"121.46398412","lat":"31.222631868","category":"260","category_name":"其他","address":"上海淮海路"},{"poiid":"B2094654DA6EAAFC499A","title":"香港广场","lon":"121.47505","lat":"31.2229","category":"46","category_name":"楼宇","address":"朝阳华威桥东北角"},{"poiid":"B2094654DB6AA3FC4298","title":"广州蕉叶(香港广场店)","lon":"121.47513","lat":"31.22284","category":"99","category_name":"泰国／越南菜品餐厅","address":"卢湾区淮海中路283号香港广场南座4楼(近黄陂南路)"},{"poiid":"B2094753D76FAAFA449C","title":"上海滩国泰旗舰店","lon":"121.466011","lat":"31.216125","category":"249","category_name":"购物服务","address":"淮海中路868号"},{"poiid":"B209475CD564A7F84292","title":"上海滩新天地店","lon":"121.47463","lat":"31.22164","category":"119","category_name":"商场","address":"\"太仓路181弄新天地北里15号\r\n\""},{"poiid":"B209475CD564A7F8439E","title":"上海滩中信泰富店","lon":"121.45602","lat":"31.22851","category":"119","category_name":"商场","address":"\"南京西路1168号中信泰富广场，店铺号221.\r\n\""},{"poiid":"B209475CD564A7F84392","title":"上海滩浦东香格里拉店","lon":"121.50058","lat":"31.23634","category":"119","category_name":"商场","address":"浦东富成路33号香格里拉酒店内大堂层"},{"poiid":"B2094757D06EAAFD449D","title":"In Tokyo 东京食尚","lon":"121.47522583","lat":"31.22324526","category":"95","category_name":"日本料理","address":"卢湾区淮海中路283号香港广场B1楼(近嵩山路)"},{"poiid":"B2094655D26AAAFE489F","title":"M2","lon":"121.47513","lat":"31.22284","category":"172","category_name":"酒吧","address":"卢湾区淮海中路283号香港广场4楼;;"},{"poiid":"B2094654DB69A0FA4998","title":"鹿港小镇(新天地店)","lon":"121.47697","lat":"31.22197","category":"91","category_name":"台湾菜","address":"卢湾区太仓路68号(近嵩山路)"},{"poiid":"B2094654DB6BA4FA4899","title":"好乐迪量贩KTV","lon":"121.47646","lat":"31.22161","category":"170","category_name":"KTV","address":"顺昌路2"},{"poiid":"B2094655D26AA0F84799","title":"上海中医药大学附属曙光医院","lon":"121.47867","lat":"31.22293","category":"162","category_name":"医院","address":"卢湾区普安路185号(近淮海公园)"},{"poiid":"B2094757D06EAAF8439D","title":"鲜芋仙(嵩山路店)","lon":"121.475493573","lat":"31.2229826306","category":"67","category_name":"甜品店","address":"卢湾区嵩山路77号1楼(近淮海路)"},{"poiid":"B2094654DB6BA4FB4499","title":"兰亭餐厅","lon":"121.47562077847","lat":"31.222343552913","category":"76","category_name":"上海菜","address":"卢湾区嵩山路107号(近太仓路)"},{"poiid":"B2094757D06FA3F84399","title":"枣子树(淮海店)","lon":"121.47648","lat":"31.22225","category":"89","category_name":"中式素餐馆","address":"卢湾区嵩山路77号上海皇宫内(近淮海中路)"},{"poiid":"B2094757D06FAAF4469C","title":"上海安达仕酒店","lon":"121.475939667","lat":"31.2220295725","category":"217","category_name":"旅馆招待所","address":"卢湾区嵩山路88号(近香港广场)"},{"poiid":"B2094655D26FA2FA439D","title":"复茂小龙虾 淮海中路店 FOMO","lon":"121.47673364297","lat":"31.224215393217","category":"68","category_name":"快餐厅","address":"卢湾区淮海中路172号(近普安路)"},{"poiid":"B2094654DA6EABF5459F","title":"企业天地","lon":"121.47592","lat":"31.22109","category":"46","category_name":"楼宇","address":"上海市平凉路1398号"},{"poiid":"B2094757D069AAFE4598","title":"Andaz Shanghai","lon":"121.475196738","lat":"31.2218871223","category":"500","category_name":"未知分类","address":"上海88 Songshan Road"},{"poiid":"B2094757D06FA2FE429B","title":"企业天地1号楼","lon":"121.476076722","lat":"31.2208862618","category":"46","category_name":"楼宇","address":"上海市卢湾区湖滨路222号"},{"poiid":"B2094750D56DABFB469A","title":"上海广场（原无限度广场）","lon":"121.47599","lat":"31.22404","category":"500","category_name":"未知分类","address":"上海卢湾区淮海中路138号(近普安路)"},{"poiid":"B2094757D06FA2F44599","title":"蝶园(太仓路店)","lon":"121.47718","lat":"31.22167","category":"76","category_name":"上海菜","address":"卢湾区太仓路70号(近嵩山路)"},{"poiid":"B2094757D66CA4FB499C","title":"好樂迪","lon":"121.477838738","lat":"31.2232501514","category":"500","category_name":"未知分类","address":"上海市黄浦区黄陂南路"},{"poiid":"B2094655D26AA0F84298","title":"舒适堡香港广场店","lon":"121.47513","lat":"31.22284","category":"221","category_name":"健身中心","address":"卢湾区淮海中路282号香港广场北座3楼(近黄陂南路)"},{"poiid":"B2094757D06FA2FA4292","title":"普华永道中心","lon":"121.47667706","lat":"31.2208910235","category":"46","category_name":"楼宇","address":"上海卢湾区湖滨路202号"},{"poiid":"B2094753D768A7FE489D","title":"甜品工房","lon":"121.477027","lat":"31.22192","category":"247","category_name":"餐饮美食","address":"上海市 济南路9号103商铺(近太仓路)"},{"poiid":"B2094757D069AAFF4593","title":"俏江南","lon":"121.475415738","lat":"31.2212311083","category":"71","category_name":"四川菜","address":"卢湾区太仓路181弄新天地北里235号02、05单元(近马当路)"},{"poiid":"B2094654DB6BA4FB4493","title":"天家 太仓路店","lon":"121.47643526081","lat":"31.221847695273","category":"95","category_name":"日本料理","address":"卢湾区太仓路68号(近嵩山路)"},{"poiid":"B2094757D06FA1F84593","title":"Enoterra红酒吧(太仓路店)","lon":"121.477109909","lat":"31.2219337278","category":"260","category_name":"其他","address":"卢湾区太仓路58号(近济南路)"},{"poiid":"B2094757D06FA1F8489D","title":"淮海公园","lon":"121.47755186","lat":"31.222709558","category":"196","category_name":"公园","address":"卢湾区淮海中路177号(近普安路)"},{"poiid":"B2094757D66FA6FA499E","title":"路易威登Louis Vuitton(淮海旗舰店)","lon":"121.4759","lat":"31.22392","category":"141","category_name":"服装鞋帽皮具店","address":"上海卢湾区淮海中路222号力宝广场1楼105商铺(近嵩山路)"},{"poiid":"B2094655D26EA5FE469C","title":"y+瑜伽馆(新天地店)","lon":"121.47625","lat":"31.22076","category":"148","category_name":"美容美发店","address":"黄浦区湖滨路202号企业天地2号2楼(新天地会所)"},{"poiid":"B2094757D069A6FC4292","title":"新天地上海滩餐厅","lon":"121.475547","lat":"31.221403","category":"76","category_name":"上海菜","address":"上海黄陂路333号"},{"poiid":"B2094757D06FA3FF4299","title":"楚楚园馅饼粥(卢湾店)","lon":"121.47536","lat":"31.22284","category":"68","category_name":"快餐厅","address":"卢湾区嵩山路77号2楼(近淮海中路)"},{"poiid":"B2094751D469A0FC4093","title":"浦东机场T2","lon":"121.475928","lat":"31.221897","category":"500","category_name":"未知分类","address":null},{"poiid":"B2094757D06FAAFA409A","title":"广州焦叶","lon":"121.474889738","lat":"31.2223761327","category":"500","category_name":"未知分类","address":"上海香港广场4楼"},{"poiid":"B2094757D06FA4F44093","title":"富民面馆","lon":"121.47687790213","lat":"31.221657822044","category":"68","category_name":"快餐厅","address":"卢湾区太仓路78号(顺昌路口)"},{"poiid":"B2094757D568A4FA4692","title":"Green Massage新天地店","lon":"121.4773631","lat":"31.22202611","category":"149","category_name":"洗浴推拿场所","address":"太仓路58号"},{"poiid":"B2094757D06BA7F54899","title":"瑞尔齿科(新天地店)","lon":"121.47636","lat":"31.2209","category":"162","category_name":"医院","address":"上海卢湾区湖滨路202号企业天地商业中心2号2楼(近济南路)  "},{"poiid":"B2094757D065A2F5429F","title":"明阁","lon":"121.473816","lat":"31.221939","category":"72","category_name":"广东菜","address":"卢湾区马当路99号新天地朗廷酒店5楼"},{"poiid":"B2094654DA6EAAFA459A","title":"中国建设银行上海市分行营业部","lon":"121.47667","lat":"31.22432","category":"150","category_name":"银行","address":"淮海中路200"},{"poiid":"B2094757D065A6FA4999","title":"XTD Elevated","lon":"121.47515473","lat":"31.222710139","category":"260","category_name":"其他","address":"卢湾区马当路99号新天地朗廷酒店内(近兴安路)"},{"poiid":"B2094654DB65A7F5499E","title":"Y+瑜伽生活馆(新天地店)","lon":"121.4761","lat":"31.22175","category":"220","category_name":"运动场所","address":"卢湾区湖滨路202号企业天地2号楼2楼单元17-20室(近济南路)"},{"poiid":"B2094757D16CA0F84493","title":"立裴米缇咖啡","lon":"121.474973738","lat":"31.222578137","category":"65","category_name":"咖啡厅","address":"卢湾区淮海路283号香港广场3楼301室(近太平洋百货)"},{"poiid":"B2094750D76DAAF94599","title":"Éclair","lon":"121.476","lat":"31.2228","category":"67","category_name":"甜品店","address":"卢湾区嵩山路88号上海安达仕酒店1楼"},{"poiid":"B2094752D16AA4F4409D","title":"楚楚园","lon":"121.475053","lat":"31.222129","category":"247","category_name":"餐饮美食","address":"嵩山路"},{"poiid":"B2094757D06FAAFB479F","title":"振江川菜馆","lon":"121.4756","lat":"31.2225","category":"71","category_name":"四川菜","address":"卢湾区嵩山路81号2楼(近淮海中路)"},{"poiid":"B2094757D064ABF5459C","title":"Whittard of Chelsea","lon":"121.47663773","lat":"31.223583158","category":"260","category_name":"其他","address":"卢湾区淮海中路222号力宝广场B1楼101店铺(近嵩山路)"},{"poiid":"B2094654DA6DABFA469B","title":"复兴广场","lon":"121.477","lat":"31.2237","category":"248","category_name":"生活娱乐","address":"卢湾区重庆南路208号(近南昌路)"},{"poiid":"B2094757D06FA2FE439D","title":"传奇台球(淮海路店)","lon":"121.47703","lat":"31.22407","category":"171","category_name":"台球厅","address":"上海卢湾区淮海中路188号5楼(近普安路)"},{"poiid":"B2094757D06FA3F8429C","title":"淮海路","lon":"121.46398412","lat":"31.222631868","category":"260","category_name":"其他","address":"上海淮海路"},{"poiid":"B2094654DA6EAAFC499A","title":"香港广场","lon":"121.47505","lat":"31.2229","category":"46","category_name":"楼宇","address":"朝阳华威桥东北角"},{"poiid":"B2094654DB6AA3FC4298","title":"广州蕉叶(香港广场店)","lon":"121.47513","lat":"31.22284","category":"99","category_name":"泰国／越南菜品餐厅","address":"卢湾区淮海中路283号香港广场南座4楼(近黄陂南路)"},{"poiid":"B2094753D76FAAFA449C","title":"上海滩国泰旗舰店","lon":"121.466011","lat":"31.216125","category":"249","category_name":"购物服务","address":"淮海中路868号"},{"poiid":"B209475CD564A7F84292","title":"上海滩新天地店","lon":"121.47463","lat":"31.22164","category":"119","category_name":"商场","address":"\"太仓路181弄新天地北里15号\r\n\""},{"poiid":"B209475CD564A7F8439E","title":"上海滩中信泰富店","lon":"121.45602","lat":"31.22851","category":"119","category_name":"商场","address":"\"南京西路1168号中信泰富广场，店铺号221.\r\n\""},{"poiid":"B209475CD564A7F84392","title":"上海滩浦东香格里拉店","lon":"121.50058","lat":"31.23634","category":"119","category_name":"商场","address":"浦东富成路33号香格里拉酒店内大堂层"},{"poiid":"B2094757D06EAAFD449D","title":"In Tokyo 东京食尚","lon":"121.47522583","lat":"31.22324526","category":"95","category_name":"日本料理","address":"卢湾区淮海中路283号香港广场B1楼(近嵩山路)"},{"poiid":"B2094655D26AAAFE489F","title":"M2","lon":"121.47513","lat":"31.22284","category":"172","category_name":"酒吧","address":"卢湾区淮海中路283号香港广场4楼;;"},{"poiid":"B2094654DB69A0FA4998","title":"鹿港小镇(新天地店)","lon":"121.47697","lat":"31.22197","category":"91","category_name":"台湾菜","address":"卢湾区太仓路68号(近嵩山路)"},{"poiid":"B2094654DB6BA4FA4899","title":"好乐迪量贩KTV","lon":"121.47646","lat":"31.22161","category":"170","category_name":"KTV","address":"顺昌路2"},{"poiid":"B2094655D26AA0F84799","title":"上海中医药大学附属曙光医院","lon":"121.47867","lat":"31.22293","category":"162","category_name":"医院","address":"卢湾区普安路185号(近淮海公园)"},{"poiid":"B2094757D06EAAF8439D","title":"鲜芋仙(嵩山路店)","lon":"121.475493573","lat":"31.2229826306","category":"67","category_name":"甜品店","address":"卢湾区嵩山路77号1楼(近淮海路)"},{"poiid":"B2094654DB6BA4FB4499","title":"兰亭餐厅","lon":"121.47562077847","lat":"31.222343552913","category":"76","category_name":"上海菜","address":"卢湾区嵩山路107号(近太仓路)"},{"poiid":"B2094757D06FA3F84399","title":"枣子树(淮海店)","lon":"121.47648","lat":"31.22225","category":"89","category_name":"中式素餐馆","address":"卢湾区嵩山路77号上海皇宫内(近淮海中路)"},{"poiid":"B2094757D06FAAF4469C","title":"上海安达仕酒店","lon":"121.475939667","lat":"31.2220295725","category":"217","category_name":"旅馆招待所","address":"卢湾区嵩山路88号(近香港广场)"},{"poiid":"B2094655D26FA2FA439D","title":"复茂小龙虾 淮海中路店 FOMO","lon":"121.47673364297","lat":"31.224215393217","category":"68","category_name":"快餐厅","address":"卢湾区淮海中路172号(近普安路)"},{"poiid":"B2094654DA6EABF5459F","title":"企业天地","lon":"121.47592","lat":"31.22109","category":"46","category_name":"楼宇","address":"上海市平凉路1398号"},{"poiid":"B2094757D069AAFE4598","title":"Andaz Shanghai","lon":"121.475196738","lat":"31.2218871223","category":"500","category_name":"未知分类","address":"上海88 Songshan Road"},{"poiid":"B2094757D06FA2FE429B","title":"企业天地1号楼","lon":"121.476076722","lat":"31.2208862618","category":"46","category_name":"楼宇","address":"上海市卢湾区湖滨路222号"},{"poiid":"B2094750D56DABFB469A","title":"上海广场（原无限度广场）","lon":"121.47599","lat":"31.22404","category":"500","category_name":"未知分类","address":"上海卢湾区淮海中路138号(近普安路)"},{"poiid":"B2094757D06FA2F44599","title":"蝶园(太仓路店)","lon":"121.47718","lat":"31.22167","category":"76","category_name":"上海菜","address":"卢湾区太仓路70号(近嵩山路)"},{"poiid":"B2094757D66CA4FB499C","title":"好樂迪","lon":"121.477838738","lat":"31.2232501514","category":"500","category_name":"未知分类","address":"上海市黄浦区黄陂南路"},{"poiid":"B2094655D26AA0F84298","title":"舒适堡香港广场店","lon":"121.47513","lat":"31.22284","category":"221","category_name":"健身中心","address":"卢湾区淮海中路282号香港广场北座3楼(近黄陂南路)"},{"poiid":"B2094757D06FA2FA4292","title":"普华永道中心","lon":"121.47667706","lat":"31.2208910235","category":"46","category_name":"楼宇","address":"上海卢湾区湖滨路202号"},{"poiid":"B2094753D768A7FE489D","title":"甜品工房","lon":"121.477027","lat":"31.22192","category":"247","category_name":"餐饮美食","address":"上海市 济南路9号103商铺(近太仓路)"},{"poiid":"B2094757D069AAFF4593","title":"俏江南","lon":"121.475415738","lat":"31.2212311083","category":"71","category_name":"四川菜","address":"卢湾区太仓路181弄新天地北里235号02、05单元(近马当路)"},{"poiid":"B2094654DB6BA4FB4493","title":"天家 太仓路店","lon":"121.47643526081","lat":"31.221847695273","category":"95","category_name":"日本料理","address":"卢湾区太仓路68号(近嵩山路)"},{"poiid":"B2094757D06FA1F84593","title":"Enoterra红酒吧(太仓路店)","lon":"121.477109909","lat":"31.2219337278","category":"260","category_name":"其他","address":"卢湾区太仓路58号(近济南路)"},{"poiid":"B2094757D06FA1F8489D","title":"淮海公园","lon":"121.47755186","lat":"31.222709558","category":"196","category_name":"公园","address":"卢湾区淮海中路177号(近普安路)"},{"poiid":"B2094757D66FA6FA499E","title":"路易威登Louis Vuitton(淮海旗舰店)","lon":"121.4759","lat":"31.22392","category":"141","category_name":"服装鞋帽皮具店","address":"上海卢湾区淮海中路222号力宝广场1楼105商铺(近嵩山路)"},{"poiid":"B2094655D26EA5FE469C","title":"y+瑜伽馆(新天地店)","lon":"121.47625","lat":"31.22076","category":"148","category_name":"美容美发店","address":"黄浦区湖滨路202号企业天地2号2楼(新天地会所)"},{"poiid":"B2094757D069A6FC4292","title":"新天地上海滩餐厅","lon":"121.475547","lat":"31.221403","category":"76","category_name":"上海菜","address":"上海黄陂路333号"},{"poiid":"B2094757D06FA3FF4299","title":"楚楚园馅饼粥(卢湾店)","lon":"121.47536","lat":"31.22284","category":"68","category_name":"快餐厅","address":"卢湾区嵩山路77号2楼(近淮海中路)"},{"poiid":"B2094751D469A0FC4093","title":"浦东机场T2","lon":"121.475928","lat":"31.221897","category":"500","category_name":"未知分类","address":null},{"poiid":"B2094757D06FAAFA409A","title":"广州焦叶","lon":"121.474889738","lat":"31.2223761327","category":"500","category_name":"未知分类","address":"上海香港广场4楼"},{"poiid":"B2094757D06FA4F44093","title":"富民面馆","lon":"121.47687790213","lat":"31.221657822044","category":"68","category_name":"快餐厅","address":"卢湾区太仓路78号(顺昌路口)"},{"poiid":"B2094757D568A4FA4692","title":"Green Massage新天地店","lon":"121.4773631","lat":"31.22202611","category":"149","category_name":"洗浴推拿场所","address":"太仓路58号"},{"poiid":"B2094757D06BA7F54899","title":"瑞尔齿科(新天地店)","lon":"121.47636","lat":"31.2209","category":"162","category_name":"医院","address":"上海卢湾区湖滨路202号企业天地商业中心2号2楼(近济南路)  "},{"poiid":"B2094757D065A2F5429F","title":"明阁","lon":"121.473816","lat":"31.221939","category":"72","category_name":"广东菜","address":"卢湾区马当路99号新天地朗廷酒店5楼"},{"poiid":"B2094654DA6EAAFA459A","title":"中国建设银行上海市分行营业部","lon":"121.47667","lat":"31.22432","category":"150","category_name":"银行","address":"淮海中路200"},{"poiid":"B2094757D065A6FA4999","title":"XTD Elevated","lon":"121.47515473","lat":"31.222710139","category":"260","category_name":"其他","address":"卢湾区马当路99号新天地朗廷酒店内(近兴安路)"},{"poiid":"B2094654DB65A7F5499E","title":"Y+瑜伽生活馆(新天地店)","lon":"121.4761","lat":"31.22175","category":"220","category_name":"运动场所","address":"卢湾区湖滨路202号企业天地2号楼2楼单元17-20室(近济南路)"},{"poiid":"B2094757D16CA0F84493","title":"立裴米缇咖啡","lon":"121.474973738","lat":"31.222578137","category":"65","category_name":"咖啡厅","address":"卢湾区淮海路283号香港广场3楼301室(近太平洋百货)"},{"poiid":"B2094750D76DAAF94599","title":"Éclair","lon":"121.476","lat":"31.2228","category":"67","category_name":"甜品店","address":"卢湾区嵩山路88号上海安达仕酒店1楼"},{"poiid":"B2094752D16AA4F4409D","title":"楚楚园","lon":"121.475053","lat":"31.222129","category":"247","category_name":"餐饮美食","address":"嵩山路"},{"poiid":"B2094757D06FAAFB479F","title":"振江川菜馆","lon":"121.4756","lat":"31.2225","category":"71","category_name":"四川菜","address":"卢湾区嵩山路81号2楼(近淮海中路)"},{"poiid":"B2094757D064ABF5459C","title":"Whittard of Chelsea","lon":"121.47663773","lat":"31.223583158","category":"260","category_name":"其他","address":"卢湾区淮海中路222号力宝广场B1楼101店铺(近嵩山路)"},{"poiid":"B2094654DA6DABFA469B","title":"复兴广场","lon":"121.477","lat":"31.2237","category":"248","category_name":"生活娱乐","address":"卢湾区重庆南路208号(近南昌路)"},{"poiid":"B2094757D06FA2FE439D","title":"传奇台球(淮海路店)","lon":"121.47703","lat":"31.22407","category":"171","category_name":"台球厅","address":"上海卢湾区淮海中路188号5楼(近普安路)"},{"poiid":"B2094757D06FA3F8429C","title":"淮海路","lon":"121.46398412","lat":"31.222631868","category":"260","category_name":"其他","address":"上海淮海路"},{"poiid":"B2094654DA6EAAFC499A","title":"香港广场","lon":"121.47505","lat":"31.2229","category":"46","category_name":"楼宇","address":"朝阳华威桥东北角"},{"poiid":"B2094654DB6AA3FC4298","title":"广州蕉叶(香港广场店)","lon":"121.47513","lat":"31.22284","category":"99","category_name":"泰国／越南菜品餐厅","address":"卢湾区淮海中路283号香港广场南座4楼(近黄陂南路)"},{"poiid":"B2094753D76FAAFA449C","title":"上海滩国泰旗舰店","lon":"121.466011","lat":"31.216125","category":"249","category_name":"购物服务","address":"淮海中路868号"},{"poiid":"B209475CD564A7F84292","title":"上海滩新天地店","lon":"121.47463","lat":"31.22164","category":"119","category_name":"商场","address":"\"太仓路181弄新天地北里15号\r\n\""},{"poiid":"B209475CD564A7F8439E","title":"上海滩中信泰富店","lon":"121.45602","lat":"31.22851","category":"119","category_name":"商场","address":"\"南京西路1168号中信泰富广场，店铺号221.\r\n\""},{"poiid":"B209475CD564A7F84392","title":"上海滩浦东香格里拉店","lon":"121.50058","lat":"31.23634","category":"119","category_name":"商场","address":"浦东富成路33号香格里拉酒店内大堂层"},{"poiid":"B2094757D06EAAFD449D","title":"In Tokyo 东京食尚","lon":"121.47522583","lat":"31.22324526","category":"95","category_name":"日本料理","address":"卢湾区淮海中路283号香港广场B1楼(近嵩山路)"},{"poiid":"B2094655D26AAAFE489F","title":"M2","lon":"121.47513","lat":"31.22284","category":"172","category_name":"酒吧","address":"卢湾区淮海中路283号香港广场4楼;;"},{"poiid":"B2094654DB69A0FA4998","title":"鹿港小镇(新天地店)","lon":"121.47697","lat":"31.22197","category":"91","category_name":"台湾菜","address":"卢湾区太仓路68号(近嵩山路)"},{"poiid":"B2094654DB6BA4FA4899","title":"好乐迪量贩KTV","lon":"121.47646","lat":"31.22161","category":"170","category_name":"KTV","address":"顺昌路2"},{"poiid":"B2094655D26AA0F84799","title":"上海中医药大学附属曙光医院","lon":"121.47867","lat":"31.22293","category":"162","category_name":"医院","address":"卢湾区普安路185号(近淮海公园)"},{"poiid":"B2094757D06EAAF8439D","title":"鲜芋仙(嵩山路店)","lon":"121.475493573","lat":"31.2229826306","category":"67","category_name":"甜品店","address":"卢湾区嵩山路77号1楼(近淮海路)"},{"poiid":"B2094654DB6BA4FB4499","title":"兰亭餐厅","lon":"121.47562077847","lat":"31.222343552913","category":"76","category_name":"上海菜","address":"卢湾区嵩山路107号(近太仓路)"},{"poiid":"B2094757D06FA3F84399","title":"枣子树(淮海店)","lon":"121.47648","lat":"31.22225","category":"89","category_name":"中式素餐馆","address":"卢湾区嵩山路77号上海皇宫内(近淮海中路)"},{"poiid":"B2094757D06FAAF4469C","title":"上海安达仕酒店","lon":"121.475939667","lat":"31.2220295725","category":"217","category_name":"旅馆招待所","address":"卢湾区嵩山路88号(近香港广场)"},{"poiid":"B2094655D26FA2FA439D","title":"复茂小龙虾 淮海中路店 FOMO","lon":"121.47673364297","lat":"31.224215393217","category":"68","category_name":"快餐厅","address":"卢湾区淮海中路172号(近普安路)"},{"poiid":"B2094654DA6EABF5459F","title":"企业天地","lon":"121.47592","lat":"31.22109","category":"46","category_name":"楼宇","address":"上海市平凉路1398号"},{"poiid":"B2094757D069AAFE4598","title":"Andaz Shanghai","lon":"121.475196738","lat":"31.2218871223","category":"500","category_name":"未知分类","address":"上海88 Songshan Road"},{"poiid":"B2094757D06FA2FE429B","title":"企业天地1号楼","lon":"121.476076722","lat":"31.2208862618","category":"46","category_name":"楼宇","address":"上海市卢湾区湖滨路222号"},{"poiid":"B2094750D56DABFB469A","title":"上海广场（原无限度广场）","lon":"121.47599","lat":"31.22404","category":"500","category_name":"未知分类","address":"上海卢湾区淮海中路138号(近普安路)"},{"poiid":"B2094757D06FA2F44599","title":"蝶园(太仓路店)","lon":"121.47718","lat":"31.22167","category":"76","category_name":"上海菜","address":"卢湾区太仓路70号(近嵩山路)"},{"poiid":"B2094757D66CA4FB499C","title":"好樂迪","lon":"121.477838738","lat":"31.2232501514","category":"500","category_name":"未知分类","address":"上海市黄浦区黄陂南路"},{"poiid":"B2094655D26AA0F84298","title":"舒适堡香港广场店","lon":"121.47513","lat":"31.22284","category":"221","category_name":"健身中心","address":"卢湾区淮海中路282号香港广场北座3楼(近黄陂南路)"},{"poiid":"B2094757D06FA2FA4292","title":"普华永道中心","lon":"121.47667706","lat":"31.2208910235","category":"46","category_name":"楼宇","address":"上海卢湾区湖滨路202号"},{"poiid":"B2094753D768A7FE489D","title":"甜品工房","lon":"121.477027","lat":"31.22192","category":"247","category_name":"餐饮美食","address":"上海市 济南路9号103商铺(近太仓路)"},{"poiid":"B2094757D069AAFF4593","title":"俏江南","lon":"121.475415738","lat":"31.2212311083","category":"71","category_name":"四川菜","address":"卢湾区太仓路181弄新天地北里235号02、05单元(近马当路)"},{"poiid":"B2094654DB6BA4FB4493","title":"天家 太仓路店","lon":"121.47643526081","lat":"31.221847695273","category":"95","category_name":"日本料理","address":"卢湾区太仓路68号(近嵩山路)"},{"poiid":"B2094757D06FA1F84593","title":"Enoterra红酒吧(太仓路店)","lon":"121.477109909","lat":"31.2219337278","category":"260","category_name":"其他","address":"卢湾区太仓路58号(近济南路)"},{"poiid":"B2094757D06FA1F8489D","title":"淮海公园","lon":"121.47755186","lat":"31.222709558","category":"196","category_name":"公园","address":"卢湾区淮海中路177号(近普安路)"},{"poiid":"B2094757D66FA6FA499E","title":"路易威登Louis Vuitton(淮海旗舰店)","lon":"121.4759","lat":"31.22392","category":"141","category_name":"服装鞋帽皮具店","address":"上海卢湾区淮海中路222号力宝广场1楼105商铺(近嵩山路)"},{"poiid":"B2094655D26EA5FE469C","title":"y+瑜伽馆(新天地店)","lon":"121.47625","lat":"31.22076","category":"148","category_name":"美容美发店","address":"黄浦区湖滨路202号企业天地2号2楼(新天地会所)"},{"poiid":"B2094757D069A6FC4292","title":"新天地上海滩餐厅","lon":"121.475547","lat":"31.221403","category":"76","category_name":"上海菜","address":"上海黄陂路333号"},{"poiid":"B2094757D06FA3FF4299","title":"楚楚园馅饼粥(卢湾店)","lon":"121.47536","lat":"31.22284","category":"68","category_name":"快餐厅","address":"卢湾区嵩山路77号2楼(近淮海中路)"},{"poiid":"B2094751D469A0FC4093","title":"浦东机场T2","lon":"121.475928","lat":"31.221897","category":"500","category_name":"未知分类","address":null},{"poiid":"B2094757D06FAAFA409A","title":"广州焦叶","lon":"121.474889738","lat":"31.2223761327","category":"500","category_name":"未知分类","address":"上海香港广场4楼"},{"poiid":"B2094757D06FA4F44093","title":"富民面馆","lon":"121.47687790213","lat":"31.221657822044","category":"68","category_name":"快餐厅","address":"卢湾区太仓路78号(顺昌路口)"},{"poiid":"B2094757D568A4FA4692","title":"Green Massage新天地店","lon":"121.4773631","lat":"31.22202611","category":"149","category_name":"洗浴推拿场所","address":"太仓路58号"},{"poiid":"B2094757D06BA7F54899","title":"瑞尔齿科(新天地店)","lon":"121.47636","lat":"31.2209","category":"162","category_name":"医院","address":"上海卢湾区湖滨路202号企业天地商业中心2号2楼(近济南路)  "},{"poiid":"B2094757D065A2F5429F","title":"明阁","lon":"121.473816","lat":"31.221939","category":"72","category_name":"广东菜","address":"卢湾区马当路99号新天地朗廷酒店5楼"},{"poiid":"B2094654DA6EAAFA459A","title":"中国建设银行上海市分行营业部","lon":"121.47667","lat":"31.22432","category":"150","category_name":"银行","address":"淮海中路200"},{"poiid":"B2094757D065A6FA4999","title":"XTD Elevated","lon":"121.47515473","lat":"31.222710139","category":"260","category_name":"其他","address":"卢湾区马当路99号新天地朗廷酒店内(近兴安路)"},{"poiid":"B2094654DB65A7F5499E","title":"Y+瑜伽生活馆(新天地店)","lon":"121.4761","lat":"31.22175","category":"220","category_name":"运动场所","address":"卢湾区湖滨路202号企业天地2号楼2楼单元17-20室(近济南路)"},{"poiid":"B2094757D16CA0F84493","title":"立裴米缇咖啡","lon":"121.474973738","lat":"31.222578137","category":"65","category_name":"咖啡厅","address":"卢湾区淮海路283号香港广场3楼301室(近太平洋百货)"},{"poiid":"B2094750D76DAAF94599","title":"Éclair","lon":"121.476","lat":"31.2228","category":"67","category_name":"甜品店","address":"卢湾区嵩山路88号上海安达仕酒店1楼"},{"poiid":"B2094752D16AA4F4409D","title":"楚楚园","lon":"121.475053","lat":"31.222129","category":"247","category_name":"餐饮美食","address":"嵩山路"},{"poiid":"B2094757D06FAAFB479F","title":"振江川菜馆","lon":"121.4756","lat":"31.2225","category":"71","category_name":"四川菜","address":"卢湾区嵩山路81号2楼(近淮海中路)"},{"poiid":"B2094757D064ABF5459C","title":"Whittard of Chelsea","lon":"121.47663773","lat":"31.223583158","category":"260","category_name":"其他","address":"卢湾区淮海中路222号力宝广场B1楼101店铺(近嵩山路)"},{"poiid":"B2094654DA6DABFA469B","title":"复兴广场","lon":"121.477","lat":"31.2237","category":"248","category_name":"生活娱乐","address":"卢湾区重庆南路208号(近南昌路)"},{"poiid":"B2094757D06FA2FE439D","title":"传奇台球(淮海路店)","lon":"121.47703","lat":"31.22407","category":"171","category_name":"台球厅","address":"上海卢湾区淮海中路188号5楼(近普安路)"},{"poiid":"B2094757D06FA3F8429C","title":"淮海路","lon":"121.46398412","lat":"31.222631868","category":"260","category_name":"其他","address":"上海淮海路"},{"poiid":"B2094654DA6EAAFC499A","title":"香港广场","lon":"121.47505","lat":"31.2229","category":"46","category_name":"楼宇","address":"朝阳华威桥东北角"},{"poiid":"B2094654DB6AA3FC4298","title":"广州蕉叶(香港广场店)","lon":"121.47513","lat":"31.22284","category":"99","category_name":"泰国／越南菜品餐厅","address":"卢湾区淮海中路283号香港广场南座4楼(近黄陂南路)"},{"poiid":"B2094753D76FAAFA449C","title":"上海滩国泰旗舰店","lon":"121.466011","lat":"31.216125","category":"249","category_name":"购物服务","address":"淮海中路868号"},{"poiid":"B209475CD564A7F84292","title":"上海滩新天地店","lon":"121.47463","lat":"31.22164","category":"119","category_name":"商场","address":"\"太仓路181弄新天地北里15号\r\n\""},{"poiid":"B209475CD564A7F8439E","title":"上海滩中信泰富店","lon":"121.45602","lat":"31.22851","category":"119","category_name":"商场","address":"\"南京西路1168号中信泰富广场，店铺号221.\r\n\""},{"poiid":"B209475CD564A7F84392","title":"上海滩浦东香格里拉店","lon":"121.50058","lat":"31.23634","category":"119","category_name":"商场","address":"浦东富成路33号香格里拉酒店内大堂层"},{"poiid":"B2094757D06EAAFD449D","title":"In Tokyo 东京食尚","lon":"121.47522583","lat":"31.22324526","category":"95","category_name":"日本料理","address":"卢湾区淮海中路283号香港广场B1楼(近嵩山路)"},{"poiid":"B2094655D26AAAFE489F","title":"M2","lon":"121.47513","lat":"31.22284","category":"172","category_name":"酒吧","address":"卢湾区淮海中路283号香港广场4楼;;"},{"poiid":"B2094654DB69A0FA4998","title":"鹿港小镇(新天地店)","lon":"121.47697","lat":"31.22197","category":"91","category_name":"台湾菜","address":"卢湾区太仓路68号(近嵩山路)"},{"poiid":"B2094654DB6BA4FA4899","title":"好乐迪量贩KTV","lon":"121.47646","lat":"31.22161","category":"170","category_name":"KTV","address":"顺昌路2"},{"poiid":"B2094655D26AA0F84799","title":"上海中医药大学附属曙光医院","lon":"121.47867","lat":"31.22293","category":"162","category_name":"医院","address":"卢湾区普安路185号(近淮海公园)"},{"poiid":"B2094757D06EAAF8439D","title":"鲜芋仙(嵩山路店)","lon":"121.475493573","lat":"31.2229826306","category":"67","category_name":"甜品店","address":"卢湾区嵩山路77号1楼(近淮海路)"},{"poiid":"B2094654DB6BA4FB4499","title":"兰亭餐厅","lon":"121.47562077847","lat":"31.222343552913","category":"76","category_name":"上海菜","address":"卢湾区嵩山路107号(近太仓路)"},{"poiid":"B2094757D06FA3F84399","title":"枣子树(淮海店)","lon":"121.47648","lat":"31.22225","category":"89","category_name":"中式素餐馆","address":"卢湾区嵩山路77号上海皇宫内(近淮海中路)"},{"poiid":"B2094757D06FAAF4469C","title":"上海安达仕酒店","lon":"121.475939667","lat":"31.2220295725","category":"217","category_name":"旅馆招待所","address":"卢湾区嵩山路88号(近香港广场)"},{"poiid":"B2094655D26FA2FA439D","title":"复茂小龙虾 淮海中路店 FOMO","lon":"121.47673364297","lat":"31.224215393217","category":"68","category_name":"快餐厅","address":"卢湾区淮海中路172号(近普安路)"},{"poiid":"B2094654DA6EABF5459F","title":"企业天地","lon":"121.47592","lat":"31.22109","category":"46","category_name":"楼宇","address":"上海市平凉路1398号"},{"poiid":"B2094757D069AAFE4598","title":"Andaz Shanghai","lon":"121.475196738","lat":"31.2218871223","category":"500","category_name":"未知分类","address":"上海88 Songshan Road"},{"poiid":"B2094757D06FA2FE429B","title":"企业天地1号楼","lon":"121.476076722","lat":"31.2208862618","category":"46","category_name":"楼宇","address":"上海市卢湾区湖滨路222号"},{"poiid":"B2094750D56DABFB469A","title":"上海广场（原无限度广场）","lon":"121.47599","lat":"31.22404","category":"500","category_name":"未知分类","address":"上海卢湾区淮海中路138号(近普安路)"},{"poiid":"B2094757D06FA2F44599","title":"蝶园(太仓路店)","lon":"121.47718","lat":"31.22167","category":"76","category_name":"上海菜","address":"卢湾区太仓路70号(近嵩山路)"},{"poiid":"B2094757D66CA4FB499C","title":"好樂迪","lon":"121.477838738","lat":"31.2232501514","category":"500","category_name":"未知分类","address":"上海市黄浦区黄陂南路"},{"poiid":"B2094655D26AA0F84298","title":"舒适堡香港广场店","lon":"121.47513","lat":"31.22284","category":"221","category_name":"健身中心","address":"卢湾区淮海中路282号香港广场北座3楼(近黄陂南路)"},{"poiid":"B2094757D06FA2FA4292","title":"普华永道中心","lon":"121.47667706","lat":"31.2208910235","category":"46","category_name":"楼宇","address":"上海卢湾区湖滨路202号"},{"poiid":"B2094753D768A7FE489D","title":"甜品工房","lon":"121.477027","lat":"31.22192","category":"247","category_name":"餐饮美食","address":"上海市 济南路9号103商铺(近太仓路)"},{"poiid":"B2094757D069AAFF4593","title":"俏江南","lon":"121.475415738","lat":"31.2212311083","category":"71","category_name":"四川菜","address":"卢湾区太仓路181弄新天地北里235号02、05单元(近马当路)"},{"poiid":"B2094654DB6BA4FB4493","title":"天家 太仓路店","lon":"121.47643526081","lat":"31.221847695273","category":"95","category_name":"日本料理","address":"卢湾区太仓路68号(近嵩山路)"},{"poiid":"B2094757D06FA1F84593","title":"Enoterra红酒吧(太仓路店)","lon":"121.477109909","lat":"31.2219337278","category":"260","category_name":"其他","address":"卢湾区太仓路58号(近济南路)"},{"poiid":"B2094757D06FA1F8489D","title":"淮海公园","lon":"121.47755186","lat":"31.222709558","category":"196","category_name":"公园","address":"卢湾区淮海中路177号(近普安路)"},{"poiid":"B2094757D66FA6FA499E","title":"路易威登Louis Vuitton(淮海旗舰店)","lon":"121.4759","lat":"31.22392","category":"141","category_name":"服装鞋帽皮具店","address":"上海卢湾区淮海中路222号力宝广场1楼105商铺(近嵩山路)"},{"poiid":"B2094655D26EA5FE469C","title":"y+瑜伽馆(新天地店)","lon":"121.47625","lat":"31.22076","category":"148","category_name":"美容美发店","address":"黄浦区湖滨路202号企业天地2号2楼(新天地会所)"},{"poiid":"B2094757D069A6FC4292","title":"新天地上海滩餐厅","lon":"121.475547","lat":"31.221403","category":"76","category_name":"上海菜","address":"上海黄陂路333号"},{"poiid":"B2094757D06FA3FF4299","title":"楚楚园馅饼粥(卢湾店)","lon":"121.47536","lat":"31.22284","category":"68","category_name":"快餐厅","address":"卢湾区嵩山路77号2楼(近淮海中路)"},{"poiid":"B2094751D469A0FC4093","title":"浦东机场T2","lon":"121.475928","lat":"31.221897","category":"500","category_name":"未知分类","address":null},{"poiid":"B2094757D06FAAFA409A","title":"广州焦叶","lon":"121.474889738","lat":"31.2223761327","category":"500","category_name":"未知分类","address":"上海香港广场4楼"},{"poiid":"B2094757D06FA4F44093","title":"富民面馆","lon":"121.47687790213","lat":"31.221657822044","category":"68","category_name":"快餐厅","address":"卢湾区太仓路78号(顺昌路口)"},{"poiid":"B2094757D568A4FA4692","title":"Green Massage新天地店","lon":"121.4773631","lat":"31.22202611","category":"149","category_name":"洗浴推拿场所","address":"太仓路58号"},{"poiid":"B2094757D06BA7F54899","title":"瑞尔齿科(新天地店)","lon":"121.47636","lat":"31.2209","category":"162","category_name":"医院","address":"上海卢湾区湖滨路202号企业天地商业中心2号2楼(近济南路)  "},{"poiid":"B2094757D065A2F5429F","title":"明阁","lon":"121.473816","lat":"31.221939","category":"72","category_name":"广东菜","address":"卢湾区马当路99号新天地朗廷酒店5楼"},{"poiid":"B2094654DA6EAAFA459A","title":"中国建设银行上海市分行营业部","lon":"121.47667","lat":"31.22432","category":"150","category_name":"银行","address":"淮海中路200"},{"poiid":"B2094757D065A6FA4999","title":"XTD Elevated","lon":"121.47515473","lat":"31.222710139","category":"260","category_name":"其他","address":"卢湾区马当路99号新天地朗廷酒店内(近兴安路)"},{"poiid":"B2094654DB65A7F5499E","title":"Y+瑜伽生活馆(新天地店)","lon":"121.4761","lat":"31.22175","category":"220","category_name":"运动场所","address":"卢湾区湖滨路202号企业天地2号楼2楼单元17-20室(近济南路)"},{"poiid":"B2094757D16CA0F84493","title":"立裴米缇咖啡","lon":"121.474973738","lat":"31.222578137","category":"65","category_name":"咖啡厅","address":"卢湾区淮海路283号香港广场3楼301室(近太平洋百货)"},{"poiid":"B2094750D76DAAF94599","title":"Éclair","lon":"121.476","lat":"31.2228","category":"67","category_name":"甜品店","address":"卢湾区嵩山路88号上海安达仕酒店1楼"},{"poiid":"B2094752D16AA4F4409D","title":"楚楚园","lon":"121.475053","lat":"31.222129","category":"247","category_name":"餐饮美食","address":"嵩山路"},{"poiid":"B2094757D06FAAFB479F","title":"振江川菜馆","lon":"121.4756","lat":"31.2225","category":"71","category_name":"四川菜","address":"卢湾区嵩山路81号2楼(近淮海中路)"},{"poiid":"B2094757D064ABF5459C","title":"Whittard of Chelsea","lon":"121.47663773","lat":"31.223583158","category":"260","category_name":"其他","address":"卢湾区淮海中路222号力宝广场B1楼101店铺(近嵩山路)"},{"poiid":"B2094654DA6DABFA469B","title":"复兴广场","lon":"121.477","lat":"31.2237","category":"248","category_name":"生活娱乐","address":"卢湾区重庆南路208号(近南昌路)"},{"poiid":"B2094757D06FA2FE439D","title":"传奇台球(淮海路店)","lon":"121.47703","lat":"31.22407","category":"171","category_name":"台球厅","address":"上海卢湾区淮海中路188号5楼(近普安路)"}]