[{"poiid":"B2094757D16CA0F94292","title":"仁济医院","lon":"121.52358273","lat":"31.207214809","category":"162","category_name":"医院","address":"上海市浦东新区浦建路"},{"poiid":"B2094654DA69A6FF4992","title":"上海交通大学医学院附属仁济医院","lon":"121.5234","lat":"31.20656","category":"162","category_name":"医院","address":"浦东新区东方路1630"},{"poiid":"B2094654DA69A6F8409B","title":"上海交通大学医学院上海儿童医学中心","lon":"121.52359","lat":"31.20527","category":"162","category_name":"医院","address":"上海浦东新区东方路1678号"},{"poiid":"B2094757D06EABF5409E","title":"西贝莜面村(东方路店)","lon":"121.52699","lat":"31.20819","category":"84","category_name":"西北菜","address":"浦东新区东方路1535号(浦建路口)"},{"poiid":"B2094655D26DA7FB4199","title":"卜蜂莲花购物中心(杨高南路)","lon":"121.53021","lat":"31.20626","category":"118","category_name":"超级市场","address":"浦东新区杨高南路1126-1128号(近浦建路)"},{"poiid":"B2094655D26EA3FF429E","title":"仁济医院(东门)","lon":"121.52515","lat":"31.20711","category":"656","category_name":"大门","address":"东方路1630"},{"poiid":"B2094757D06FA3FD469C","title":"东方城市花园二期","lon":"121.527896","lat":"31.204892","category":"47","category_name":"住宅区","address":"上海浦东新区东方路1881弄"},{"poiid":"B2094757D16FAAFE419A","title":"仁济医院(东院)门急诊输液室","lon":"121.522502786","lat":"31.2080806928","category":"162","category_name":"医院","address":"上海浦东新区东方路1630号仁济医院一号楼一楼"},{"poiid":"B2094757D06FA2F9449D","title":"文建中学","lon":"121.52579","lat":"31.20856","category":"55","category_name":"中学","address":"浦东新区东方路1600弄(东方路浦建路)"},{"poiid":"B2094757D068A7FF409E","title":"丽晟假日酒店","lon":"121.528429325","lat":"31.2068004771","category":"217","category_name":"旅馆招待所","address":"上海市浦东新区环龙路55号(近浦建路)"},{"poiid":"B2094655D36CA6FB489D","title":"东方路蓝村路","lon":"121.52706","lat":"31.21041","category":"38","category_name":"公交车站","address":"上海市浦东新区蓝村大厦28楼"},{"poiid":"B2094655D36DA6FE439C","title":"上海儿童医学中心","lon":"121.52387","lat":"31.20432","category":"38","category_name":"公交车站","address":"浦东新区东方路1687号(近浦建路)"},{"poiid":"B2094757D06FA4FF459E","title":"东方城市花园一期","lon":"121.527032","lat":"31.209243","category":"47","category_name":"住宅区","address":"上海市浦东新区东方路1881弄"},{"poiid":"B2094655D26AA6FC4892","title":"双季花艺园艺市场","lon":"121.52958","lat":"31.20749","category":"247","category_name":"餐饮美食","address":"浦东新区浦建路620号(近杨高南路)"},{"poiid":"B2094750D36FA3FE459F","title":"陆家嘴","lon":"121.528472","lat":"31.207599","category":"500","category_name":"未知分类","address":null},{"poiid":"B2094757D169ABFF489B","title":"仁济医院东院二号楼一楼PET-CT","lon":"121.52850073","lat":"31.2067958","category":"162","category_name":"医院","address":"上海东方路1630号"},{"poiid":"B2094757D06BA3F8469D","title":"新澳港式茶餐厅","lon":"121.52647873","lat":"31.210972889","category":"72","category_name":"广东菜","address":"浦东新区蓝村路510号(近南泉路)"},{"poiid":"B2094654DA6AA1FF4098","title":"华南大厦","lon":"121.52678154289","lat":"31.204592331508","category":"46","category_name":"楼宇","address":"浦东区东方路1988号"},{"poiid":"B2094750D76FA3FC419B","title":"滇道橡木餐厅酒吧(环龙路店)","lon":"121.528","lat":"31.2064","category":"269","category_name":"烧烤","address":"环龙路65弄111号(近交通银行)"},{"poiid":"B2094757D06AA1FE4893","title":"贵龙园","lon":"121.52592","lat":"31.205503","category":"500","category_name":"未知分类","address":"贵龙园位于浦东东方路1669弄"},{"poiid":"B2094757D068A0FF419B","title":"爱婴室(浦建路店)","lon":"121.52985","lat":"31.20722","category":"128","category_name":"儿童用品店","address":"浦东新区浦建路620号双季花艺西区3楼(近杨高南路)"},{"poiid":"B2094757D068ABF9469B","title":"新亚大包 蓝村路店","lon":"121.52740750022","lat":"31.211781249752","category":"68","category_name":"快餐厅","address":"浦东新区蓝村路450号(近东方路)"},{"poiid":"B2094757D168A6FA4292","title":"仁济东内科大楼","lon":"121.52254373","lat":"31.208428835","category":"500","category_name":"未知分类","address":"上海浦东新区东方路1630号仁济医院三号楼"},{"poiid":"B2094757D068A6FD4793","title":"顶鲜汤包 浦建路店","lon":"121.524676","lat":"31.208249","category":"68","category_name":"快餐厅","address":"浦东新区浦建路243号(东方路口)"},{"poiid":"B2094757D068A3FE409D","title":"上海儿童医学中心地铁站","lon":"121.52387652","lat":"31.204341307","category":"36","category_name":"地铁站","address":"上海轨道交通 六号线 轨交儿童医学中心站 6"},{"poiid":"B2094655D26DA7F94092","title":"上海儿童医学中心(南门)","lon":"121.52307","lat":"31.20475","category":"162","category_name":"医院","address":"东方路1678号"},{"poiid":"B2094757D16DA3FB4692","title":"怡东花园","lon":"121.52715","lat":"31.203518","category":"47","category_name":"住宅区","address":"上海市浦东新区环龙路263弄1号"},{"poiid":"B2094655D36CA2F94192","title":"仁济东院","lon":"121.52355","lat":"31.20815","category":"47","category_name":"住宅区","address":""},{"poiid":"B2094757D068A0F9449B","title":"国美电器(东方路店)","lon":"121.527978","lat":"31.207394","category":"138","category_name":"家电电子卖场","address":"上海市浦东新区浦建路348号"},{"poiid":"B2094757D069A4F8419E","title":"苏宁电器(浦建路店)","lon":"121.529882","lat":"31.207768","category":"138","category_name":"家电电子卖场","address":"浦东新区浦建路620号(近东方路)"},{"poiid":"B2094654DA69A5FA4593","title":"乐晨大酒店","lon":"121.52256","lat":"31.20867","category":"76","category_name":"上海菜","address":"浦东新区浦建路145号强生大厦4-5楼(近东方路)"},{"poiid":"B2094757D06BA6FC449C","title":"仁济医院食堂","lon":"121.52539","lat":"31.20697","category":"68","category_name":"快餐厅","address":"浦东新区东方路1630号仁济医院东部(近浦建路)"},{"poiid":"B2094757D068A5FC4893","title":"上海仁济医院教学楼","lon":"121.52515","lat":"31.207117","category":"253","category_name":"校园生活","address":"上海市东方路1630号上海仁济医院教学楼"},{"poiid":"B2094655D26BA2F5429C","title":"浦建路东方路","lon":"121.5248","lat":"31.20808","category":"38","category_name":"公交车站","address":""},{"poiid":"B2094750DB6CAAFD489A","title":"陆家嘴环球金融中心","lon":"121.523635","lat":"31.204925","category":"500","category_name":"未知分类","address":null},{"poiid":"B2094751D36FA1FC4099","title":"滇道橡木云南餐吧(环龙路店)","lon":"121.5283","lat":"31.20644","category":"247","category_name":"餐饮美食","address":"浦东新区环龙路55号丽晟假日酒店2楼(近浦建路)"},{"poiid":"B2094655D26EA7FD419C","title":"上海新华儿童医院","lon":"121.52413","lat":"31.20528","category":"162","category_name":"医院","address":"浦东新区东方路1678号"},{"poiid":"B2094654DA69A6F9439C","title":"吉野家  杨高店","lon":"121.5302","lat":"31.20651","category":"95","category_name":"日本料理","address":"浦东新区杨高南路1126号卜蜂莲花2楼(近浦建路)"},{"poiid":"B2094757D16EABFE4793","title":"千味拉面","lon":"121.52731","lat":"31.20748","category":"68","category_name":"快餐厅","address":"浦东新区浦建路(近东方路)"},{"poiid":"B2094757D069A5F44898","title":"文建中学羽毛球馆","lon":"121.52673","lat":"31.20925","category":"253","category_name":"校园生活","address":"浦东新区东方路1600弄1号(近蓝村路)"},{"poiid":"B2094757D065A5FC4099","title":"大桶大足浴浦建路店","lon":"121.52531073","lat":"31.208064827","category":"500","category_name":"未知分类","address":"浦东新区浦建路243号(近仁济医院)"},{"poiid":"B2094655D26DA1F4409A","title":"春之声公寓","lon":"121.52483","lat":"31.209272","category":"47","category_name":"住宅区","address":"东方路1600弄1-15号"},{"poiid":"B2094654DA69A6F4459F","title":"金龙花园","lon":"121.52761","lat":"31.209513","category":"47","category_name":"住宅区","address":"东方路1523弄1-3号"},{"poiid":"B2094757D46EABF94993","title":"味老大","lon":"121.524815","lat":"31.208263","category":"68","category_name":"快餐厅","address":"浦东新区浦建路243号(近东方路)"},{"poiid":"B2094654DA69A5FA4093","title":"文兰小区","lon":"121.52592","lat":"31.211079","category":"47","category_name":"住宅区","address":"蓝村路470弄"},{"poiid":"B2094757D464AAF5409B","title":"随心豆花香","lon":"121.524866054","lat":"31.205778793","category":"68","category_name":"快餐厅","address":"浦东新区东方路(近北园路)"},{"poiid":"B2094654DA69A6F4449D","title":"顽皮家族宠物医疗","lon":"121.5268","lat":"31.20868","category":"162","category_name":"医院","address":""},{"poiid":"B2094757D06AA1F84992","title":"艺林盲人按摩院(浦东店)","lon":"121.52711","lat":"31.2034","category":"149","category_name":"洗浴推拿场所","address":"浦东新区环龙路263弄1号怡东会所内(近地铁6号线儿童医学中心地铁站1号出口)"},{"poiid":"B2094654DB69A4F4489D","title":"永乐电器(东方店)","lon":"121.52854","lat":"31.20833","category":"138","category_name":"家电电子卖场","address":"上海市浦东新区浦建路365号(易初莲花对面)"},{"poiid":"B2094751D465A3F9489D","title":"上海虹桥火车站","lon":"121.525","lat":"31.207217","category":"251","category_name":"出行住宿","address":null},{"poiid":"B2094757D16CA0F94292","title":"仁济医院","lon":"121.52358273","lat":"31.207214809","category":"162","category_name":"医院","address":"上海市浦东新区浦建路"},{"poiid":"B2094654DA69A6FF4992","title":"上海交通大学医学院附属仁济医院","lon":"121.5234","lat":"31.20656","category":"162","category_name":"医院","address":"浦东新区东方路1630"},{"poiid":"B2094654DA69A6F8409B","title":"上海交通大学医学院上海儿童医学中心","lon":"121.52359","lat":"31.20527","category":"162","category_name":"医院","address":"上海浦东新区东方路1678号"},{"poiid":"B2094757D06EABF5409E","title":"西贝莜面村(东方路店)","lon":"121.52699","lat":"31.20819","category":"84","category_name":"西北菜","address":"浦东新区东方路1535号(浦建路口)"},{"poiid":"B2094655D26DA7FB4199","title":"卜蜂莲花购物中心(杨高南路)","lon":"121.53021","lat":"31.20626","category":"118","category_name":"超级市场","address":"浦东新区杨高南路1126-1128号(近浦建路)"},{"poiid":"B2094655D26EA3FF429E","title":"仁济医院(东门)","lon":"121.52515","lat":"31.20711","category":"656","category_name":"大门","address":"东方路1630"},{"poiid":"B2094757D06FA3FD469C","title":"东方城市花园二期","lon":"121.527896","lat":"31.204892","category":"47","category_name":"住宅区","address":"上海浦东新区东方路1881弄"},{"poiid":"B2094757D16FAAFE419A","title":"仁济医院(东院)门急诊输液室","lon":"121.522502786","lat":"31.2080806928","category":"162","category_name":"医院","address":"上海浦东新区东方路1630号仁济医院一号楼一楼"},{"poiid":"B2094757D06FA2F9449D","title":"文建中学","lon":"121.52579","lat":"31.20856","category":"55","category_name":"中学","address":"浦东新区东方路1600弄(东方路浦建路)"},{"poiid":"B2094757D068A7FF409E","title":"丽晟假日酒店","lon":"121.528429325","lat":"31.2068004771","category":"217","category_name":"旅馆招待所","address":"上海市浦东新区环龙路55号(近浦建路)"},{"poiid":"B2094655D36CA6FB489D","title":"东方路蓝村路","lon":"121.52706","lat":"31.21041","category":"38","category_name":"公交车站","address":"上海市浦东新区蓝村大厦28楼"},{"poiid":"B2094655D36DA6FE439C","title":"上海儿童医学中心","lon":"121.52387","lat":"31.20432","category":"38","category_name":"公交车站","address":"浦东新区东方路1687号(近浦建路)"},{"poiid":"B2094757D06FA4FF459E","title":"东方城市花园一期","lon":"121.527032","lat":"31.209243","category":"47","category_name":"住宅区","address":"上海市浦东新区东方路1881弄"},{"poiid":"B2094655D26AA6FC4892","title":"双季花艺园艺市场","lon":"121.52958","lat":"31.20749","category":"247","category_name":"餐饮美食","address":"浦东新区浦建路620号(近杨高南路)"},{"poiid":"B2094750D36FA3FE459F","title":"陆家嘴","lon":"121.528472","lat":"31.207599","category":"500","category_name":"未知分类","address":null},{"poiid":"B2094757D169ABFF489B","title":"仁济医院东院二号楼一楼PET-CT","lon":"121.52850073","lat":"31.2067958","category":"162","category_name":"医院","address":"上海东方路1630号"},{"poiid":"B2094757D06BA3F8469D","title":"新澳港式茶餐厅","lon":"121.52647873","lat":"31.210972889","category":"72","category_name":"广东菜","address":"浦东新区蓝村路510号(近南泉路)"},{"poiid":"B2094654DA6AA1FF4098","title":"华南大厦","lon":"121.52678154289","lat":"31.204592331508","category":"46","category_name":"楼宇","address":"浦东区东方路1988号"},{"poiid":"B2094750D76FA3FC419B","title":"滇道橡木餐厅酒吧(环龙路店)","lon":"121.528","lat":"31.2064","category":"269","category_name":"烧烤","address":"环龙路65弄111号(近交通银行)"},{"poiid":"B2094757D06AA1FE4893","title":"贵龙园","lon":"121.52592","lat":"31.205503","category":"500","category_name":"未知分类","address":"贵龙园位于浦东东方路1669弄"},{"poiid":"B2094757D068A0FF419B","title":"爱婴室(浦建路店)","lon":"121.52985","lat":"31.20722","category":"128","category_name":"儿童用品店","address":"浦东新区浦建路620号双季花艺西区3楼(近杨高南路)"},{"poiid":"B2094757D068ABF9469B","title":"新亚大包 蓝村路店","lon":"121.52740750022","lat":"31.211781249752","category":"68","category_name":"快餐厅","address":"浦东新区蓝村路450号(近东方路)"},{"poiid":"B2094757D168A6FA4292","title":"仁济东内科大楼","lon":"121.52254373","lat":"31.208428835","category":"500","category_name":"未知分类","address":"上海浦东新区东方路1630号仁济医院三号楼"},{"poiid":"B2094757D068A6FD4793","title":"顶鲜汤包 浦建路店","lon":"121.524676","lat":"31.208249","category":"68","category_name":"快餐厅","address":"浦东新区浦建路243号(东方路口)"},{"poiid":"B2094757D068A3FE409D","title":"上海儿童医学中心地铁站","lon":"121.52387652","lat":"31.204341307","category":"36","category_name":"地铁站","address":"上海轨道交通 六号线 轨交儿童医学中心站 6"},{"poiid":"B2094655D26DA7F94092","title":"上海儿童医学中心(南门)","lon":"121.52307","lat":"31.20475","category":"162","category_name":"医院","address":"东方路1678号"},{"poiid":"B2094757D16DA3FB4692","title":"怡东花园","lon":"121.52715","lat":"31.203518","category":"47","category_name":"住宅区","address":"上海市浦东新区环龙路263弄1号"},{"poiid":"B2094655D36CA2F94192","title":"仁济东院","lon":"121.52355","lat":"31.20815","category":"47","category_name":"住宅区","address":""},{"poiid":"B2094757D068A0F9449B","title":"国美电器(东方路店)","lon":"121.527978","lat":"31.207394","category":"138","category_name":"家电电子卖场","address":"上海市浦东新区浦建路348号"},{"poiid":"B2094757D069A4F8419E","title":"苏宁电器(浦建路店)","lon":"121.529882","lat":"31.207768","category":"138","category_name":"家电电子卖场","address":"浦东新区浦建路620号(近东方路)"},{"poiid":"B2094654DA69A5FA4593","title":"乐晨大酒店","lon":"121.52256","lat":"31.20867","category":"76","category_name":"上海菜","address":"浦东新区浦建路145号强生大厦4-5楼(近东方路)"},{"poiid":"B2094757D06BA6FC449C","title":"仁济医院食堂","lon":"121.52539","lat":"31.20697","category":"68","category_name":"快餐厅","address":"浦东新区东方路1630号仁济医院东部(近浦建路)"},{"poiid":"B2094757D068A5FC4893","title":"上海仁济医院教学楼","lon":"121.52515","lat":"31.207117","category":"253","category_name":"校园生活","address":"上海市东方路1630号上海仁济医院教学楼"},{"poiid":"B2094655D26BA2F5429C","title":"浦建路东方路","lon":"121.5248","lat":"31.20808","category":"38","category_name":"公交车站","address":""},{"poiid":"B2094750DB6CAAFD489A","title":"陆家嘴环球金融中心","lon":"121.523635","lat":"31.204925","category":"500","category_name":"未知分类","address":null},{"poiid":"B2094751D36FA1FC4099","title":"滇道橡木云南餐吧(环龙路店)","lon":"121.5283","lat":"31.20644","category":"247","category_name":"餐饮美食","address":"浦东新区环龙路55号丽晟假日酒店2楼(近浦建路)"},{"poiid":"B2094655D26EA7FD419C","title":"上海新华儿童医院","lon":"121.52413","lat":"31.20528","category":"162","category_name":"医院","address":"浦东新区东方路1678号"},{"poiid":"B2094654DA69A6F9439C","title":"吉野家  杨高店","lon":"121.5302","lat":"31.20651","category":"95","category_name":"日本料理","address":"浦东新区杨高南路1126号卜蜂莲花2楼(近浦建路)"},{"poiid":"B2094757D16EABFE4793","title":"千味拉面","lon":"121.52731","lat":"31.20748","category":"68","category_name":"快餐厅","address":"浦东新区浦建路(近东方路)"},{"poiid":"B2094757D069A5F44898","title":"文建中学羽毛球馆","lon":"121.52673","lat":"31.20925","category":"253","category_name":"校园生活","address":"浦东新区东方路1600弄1号(近蓝村路)"},{"poiid":"B2094757D065A5FC4099","title":"大桶大足浴浦建路店","lon":"121.52531073","lat":"31.208064827","category":"500","category_name":"未知分类","address":"浦东新区浦建路243号(近仁济医院)"},{"poiid":"B2094655D26DA1F4409A","title":"春之声公寓","lon":"121.52483","lat":"31.209272","category":"47","category_name":"住宅区","address":"东方路1600弄1-15号"},{"poiid":"B2094654DA69A6F4459F","title":"金龙花园","lon":"121.52761","lat":"31.209513","category":"47","category_name":"住宅区","address":"东方路1523弄1-3号"},{"poiid":"B2094757D46EABF94993","title":"味老大","lon":"121.524815","lat":"31.208263","category":"68","category_name":"快餐厅","address":"浦东新区浦建路243号(近东方路)"},{"poiid":"B2094654DA69A5FA4093","title":"文兰小区","lon":"121.52592","lat":"31.211079","category":"47","category_name":"住宅区","address":"蓝村路470弄"},{"poiid":"B2094757D464AAF5409B","title":"随心豆花香","lon":"121.524866054","lat":"31.205778793","category":"68","category_name":"快餐厅","address":"浦东新区东方路(近北园路)"},{"poiid":"B2094654DA69A6F4449D","title":"顽皮家族宠物医疗","lon":"121.5268","lat":"31.20868","category":"162","category_name":"医院","address":""},{"poiid":"B2094757D06AA1F84992","title":"艺林盲人按摩院(浦东店)","lon":"121.52711","lat":"31.2034","category":"149","category_name":"洗浴推拿场所","address":"浦东新区环龙路263弄1号怡东会所内(近地铁6号线儿童医学中心地铁站1号出口)"},{"poiid":"B2094654DB69A4F4489D","title":"永乐电器(东方店)","lon":"121.52854","lat":"31.20833","category":"138","category_name":"家电电子卖场","address":"上海市浦东新区浦建路365号(易初莲花对面)"},{"poiid":"B2094751D465A3F9489D","title":"上海虹桥火车站","lon":"121.525","lat":"31.207217","category":"251","category_name":"出行住宿","address":null},{"poiid":"B2094757D16CA0F94292","title":"仁济医院","lon":"121.52358273","lat":"31.207214809","category":"162","category_name":"医院","address":"上海市浦东新区浦建路"},{"poiid":"B2094654DA69A6FF4992","title":"上海交通大学医学院附属仁济医院","lon":"121.5234","lat":"31.20656","category":"162","category_name":"医院","address":"浦东新区东方路1630"},{"poiid":"B2094654DA69A6F8409B","title":"上海交通大学医学院上海儿童医学中心","lon":"121.52359","lat":"31.20527","category":"162","category_name":"医院","address":"上海浦东新区东方路1678号"},{"poiid":"B2094757D06EABF5409E","title":"西贝莜面村(东方路店)","lon":"121.52699","lat":"31.20819","category":"84","category_name":"西北菜","address":"浦东新区东方路1535号(浦建路口)"},{"poiid":"B2094655D26DA7FB4199","title":"卜蜂莲花购物中心(杨高南路)","lon":"121.53021","lat":"31.20626","category":"118","category_name":"超级市场","address":"浦东新区杨高南路1126-1128号(近浦建路)"},{"poiid":"B2094655D26EA3FF429E","title":"仁济医院(东门)","lon":"121.52515","lat":"31.20711","category":"656","category_name":"大门","address":"东方路1630"},{"poiid":"B2094757D06FA3FD469C","title":"东方城市花园二期","lon":"121.527896","lat":"31.204892","category":"47","category_name":"住宅区","address":"上海浦东新区东方路1881弄"},{"poiid":"B2094757D16FAAFE419A","title":"仁济医院(东院)门急诊输液室","lon":"121.522502786","lat":"31.2080806928","category":"162","category_name":"医院","address":"上海浦东新区东方路1630号仁济医院一号楼一楼"},{"poiid":"B2094757D06FA2F9449D","title":"文建中学","lon":"121.52579","lat":"31.20856","category":"55","category_name":"中学","address":"浦东新区东方路1600弄(东方路浦建路)"},{"poiid":"B2094757D068A7FF409E","title":"丽晟假日酒店","lon":"121.528429325","lat":"31.2068004771","category":"217","category_name":"旅馆招待所","address":"上海市浦东新区环龙路55号(近浦建路)"},{"poiid":"B2094655D36CA6FB489D","title":"东方路蓝村路","lon":"121.52706","lat":"31.21041","category":"38","category_name":"公交车站","address":"上海市浦东新区蓝村大厦28楼"},{"poiid":"B2094655D36DA6FE439C","title":"上海儿童医学中心","lon":"121.52387","lat":"31.20432","category":"38","category_name":"公交车站","address":"浦东新区东方路1687号(近浦建路)"},{"poiid":"B2094757D06FA4FF459E","title":"东方城市花园一期","lon":"121.527032","lat":"31.209243","category":"47","category_name":"住宅区","address":"上海市浦东新区东方路1881弄"},{"poiid":"B2094655D26AA6FC4892","title":"双季花艺园艺市场","lon":"121.52958","lat":"31.20749","category":"247","category_name":"餐饮美食","address":"浦东新区浦建路620号(近杨高南路)"},{"poiid":"B2094750D36FA3FE459F","title":"陆家嘴","lon":"121.528472","lat":"31.207599","category":"500","category_name":"未知分类","address":null},{"poiid":"B2094757D169ABFF489B","title":"仁济医院东院二号楼一楼PET-CT","lon":"121.52850073","lat":"31.2067958","category":"162","category_name":"医院","address":"上海东方路1630号"},{"poiid":"B2094757D06BA3F8469D","title":"新澳港式茶餐厅","lon":"121.52647873","lat":"31.210972889","category":"72","category_name":"广东菜","address":"浦东新区蓝村路510号(近南泉路)"},{"poiid":"B2094654DA6AA1FF4098","title":"华南大厦","lon":"121.52678154289","lat":"31.204592331508","category":"46","category_name":"楼宇","address":"浦东区东方路1988号"},{"poiid":"B2094750D76FA3FC419B","title":"滇道橡木餐厅酒吧(环龙路店)","lon":"121.528","lat":"31.2064","category":"269","category_name":"烧烤","address":"环龙路65弄111号(近交通银行)"},{"poiid":"B2094757D06AA1FE4893","title":"贵龙园","lon":"121.52592","lat":"31.205503","category":"500","category_name":"未知分类","address":"贵龙园位于浦东东方路1669弄"},{"poiid":"B2094757D068A0FF419B","title":"爱婴室(浦建路店)","lon":"121.52985","lat":"31.20722","category":"128","category_name":"儿童用品店","address":"浦东新区浦建路620号双季花艺西区3楼(近杨高南路)"},{"poiid":"B2094757D068ABF9469B","title":"新亚大包 蓝村路店","lon":"121.52740750022","lat":"31.211781249752","category":"68","category_name":"快餐厅","address":"浦东新区蓝村路450号(近东方路)"},{"poiid":"B2094757D168A6FA4292","title":"仁济东内科大楼","lon":"121.52254373","lat":"31.208428835","category":"500","category_name":"未知分类","address":"上海浦东新区东方路1630号仁济医院三号楼"},{"poiid":"B2094757D068A6FD4793","title":"顶鲜汤包 浦建路店","lon":"121.524676","lat":"31.208249","category":"68","category_name":"快餐厅","address":"浦东新区浦建路243号(东方路口)"},{"poiid":"B2094757D068A3FE409D","title":"上海儿童医学中心地铁站","lon":"121.52387652","lat":"31.204341307","category":"36","category_name":"地铁站","address":"上海轨道交通 六号线 轨交儿童医学中心站 6"},{"poiid":"B2094655D26DA7F94092","title":"上海儿童医学中心(南门)","lon":"121.52307","lat":"31.20475","category":"162","category_name":"医院","address":"东方路1678号"},{"poiid":"B2094757D16DA3FB4692","title":"怡东花园","lon":"121.52715","lat":"31.203518","category":"47","category_name":"住宅区","address":"上海市浦东新区环龙路263弄1号"},{"poiid":"B2094655D36CA2F94192","title":"仁济东院","lon":"121.52355","lat":"31.20815","category":"47","category_name":"住宅区","address":""},{"poiid":"B2094757D068A0F9449B","title":"国美电器(东方路店)","lon":"121.527978","lat":"31.207394","category":"138","category_name":"家电电子卖场","address":"上海市浦东新区浦建路348号"},{"poiid":"B2094757D069A4F8419E","title":"苏宁电器(浦建路店)","lon":"121.529882","lat":"31.207768","category":"138","category_name":"家电电子卖场","address":"浦东新区浦建路620号(近东方路)"},{"poiid":"B2094654DA69A5FA4593","title":"乐晨大酒店","lon":"121.52256","lat":"31.20867","category":"76","category_name":"上海菜","address":"浦东新区浦建路145号强生大厦4-5楼(近东方路)"},{"poiid":"B2094757D06BA6FC449C","title":"仁济医院食堂","lon":"121.52539","lat":"31.20697","category":"68","category_name":"快餐厅","address":"浦东新区东方路1630号仁济医院东部(近浦建路)"},{"poiid":"B2094757D068A5FC4893","title":"上海仁济医院教学楼","lon":"121.52515","lat":"31.207117","category":"253","category_name":"校园生活","address":"上海市东方路1630号上海仁济医院教学楼"},{"poiid":"B2094655D26BA2F5429C","title":"浦建路东方路","lon":"121.5248","lat":"31.20808","category":"38","category_name":"公交车站","address":""},{"poiid":"B2094750DB6CAAFD489A","title":"陆家嘴环球金融中心","lon":"121.523635","lat":"31.204925","category":"500","category_name":"未知分类","address":null},{"poiid":"B2094751D36FA1FC4099","title":"滇道橡木云南餐吧(环龙路店)","lon":"121.5283","lat":"31.20644","category":"247","category_name":"餐饮美食","address":"浦东新区环龙路55号丽晟假日酒店2楼(近浦建路)"},{"poiid":"B2094655D26EA7FD419C","title":"上海新华儿童医院","lon":"121.52413","lat":"31.20528","category":"162","category_name":"医院","address":"浦东新区东方路1678号"},{"poiid":"B2094654DA69A6F9439C","title":"吉野家  杨高店","lon":"121.5302","lat":"31.20651","category":"95","category_name":"日本料理","address":"浦东新区杨高南路1126号卜蜂莲花2楼(近浦建路)"},{"poiid":"B2094757D16EABFE4793","title":"千味拉面","lon":"121.52731","lat":"31.20748","category":"68","category_name":"快餐厅","address":"浦东新区浦建路(近东方路)"},{"poiid":"B2094757D069A5F44898","title":"文建中学羽毛球馆","lon":"121.52673","lat":"31.20925","category":"253","category_name":"校园生活","address":"浦东新区东方路1600弄1号(近蓝村路)"},{"poiid":"B2094757D065A5FC4099","title":"大桶大足浴浦建路店","lon":"121.52531073","lat":"31.208064827","category":"500","category_name":"未知分类","address":"浦东新区浦建路243号(近仁济医院)"},{"poiid":"B2094655D26DA1F4409A","title":"春之声公寓","lon":"121.52483","lat":"31.209272","category":"47","category_name":"住宅区","address":"东方路1600弄1-15号"},{"poiid":"B2094654DA69A6F4459F","title":"金龙花园","lon":"121.52761","lat":"31.209513","category":"47","category_name":"住宅区","address":"东方路1523弄1-3号"},{"poiid":"B2094757D46EABF94993","title":"味老大","lon":"121.524815","lat":"31.208263","category":"68","category_name":"快餐厅","address":"浦东新区浦建路243号(近东方路)"},{"poiid":"B2094654DA69A5FA4093","title":"文兰小区","lon":"121.52592","lat":"31.211079","category":"47","category_name":"住宅区","address":"蓝村路470弄"},{"poiid":"B2094757D464AAF5409B","title":"随心豆花香","lon":"121.524866054","lat":"31.205778793","category":"68","category_name":"快餐厅","address":"浦东新区东方路(近北园路)"},{"poiid":"B2094654DA69A6F4449D","title":"顽皮家族宠物医疗","lon":"121.5268","lat":"31.20868","category":"162","category_name":"医院","address":""},{"poiid":"B2094757D06AA1F84992","title":"艺林盲人按摩院(浦东店)","lon":"121.52711","lat":"31.2034","category":"149","category_name":"洗浴推拿场所","address":"浦东新区环龙路263弄1号怡东会所内(近地铁6号线儿童医学中心地铁站1号出口)"},{"poiid":"B2094654DB69A4F4489D","title":"永乐电器(东方店)","lon":"121.52854","lat":"31.20833","category":"138","category_name":"家电电子卖场","address":"上海市浦东新区浦建路365号(易初莲花对面)"},{"poiid":"B2094751D465A3F9489D","title":"上海虹桥火车站","lon":"121.525","lat":"31.207217","category":"251","category_name":"出行住宿","address":null},{"poiid":"B2094757D16CA0F94292","title":"仁济医院","lon":"121.52358273","lat":"31.207214809","category":"162","category_name":"医院","address":"上海市浦东新区浦建路"},{"poiid":"B2094654DA69A6FF4992","title":"上海交通大学医学院附属仁济医院","lon":"121.5234","lat":"31.20656","category":"162","category_name":"医院","address":"浦东新区东方路1630"},{"poiid":"B2094654DA69A6F8409B","title":"上海交通大学医学院上海儿童医学中心","lon":"121.52359","lat":"31.20527","category":"162","category_name":"医院","address":"上海浦东新区东方路1678号"},{"poiid":"B2094757D06EABF5409E","title":"西贝莜面村(东方路店)","lon":"121.52699","lat":"31.20819","category":"84","category_name":"西北菜","address":"浦东新区东方路1535号(浦建路口)"},{"poiid":"B2094655D26DA7FB4199","title":"卜蜂莲花购物中心(杨高南路)","lon":"121.53021","lat":"31.20626","category":"118","category_name":"超级市场","address":"浦东新区杨高南路1126-1128号(近浦建路)"},{"poiid":"B2094655D26EA3FF429E","title":"仁济医院(东门)","lon":"121.52515","lat":"31.20711","category":"656","category_name":"大门","address":"东方路1630"},{"poiid":"B2094757D06FA3FD469C","title":"东方城市花园二期","lon":"121.527896","lat":"31.204892","category":"47","category_name":"住宅区","address":"上海浦东新区东方路1881弄"},{"poiid":"B2094757D16FAAFE419A","title":"仁济医院(东院)门急诊输液室","lon":"121.522502786","lat":"31.2080806928","category":"162","category_name":"医院","address":"上海浦东新区东方路1630号仁济医院一号楼一楼"},{"poiid":"B2094757D06FA2F9449D","title":"文建中学","lon":"121.52579","lat":"31.20856","category":"55","category_name":"中学","address":"浦东新区东方路1600弄(东方路浦建路)"},{"poiid":"B2094757D068A7FF409E","title":"丽晟假日酒店","lon":"121.528429325","lat":"31.2068004771","category":"217","category_name":"旅馆招待所","address":"上海市浦东新区环龙路55号(近浦建路)"},{"poiid":"B2094655D36CA6FB489D","title":"东方路蓝村路","lon":"121.52706","lat":"31.21041","category":"38","category_name":"公交车站","address":"上海市浦东新区蓝村大厦28楼"},{"poiid":"B2094655D36DA6FE439C","title":"上海儿童医学中心","lon":"121.52387","lat":"31.20432","category":"38","category_name":"公交车站","address":"浦东新区东方路1687号(近浦建路)"},{"poiid":"B2094757D06FA4FF459E","title":"东方城市花园一期","lon":"121.527032","lat":"31.209243","category":"47","category_name":"住宅区","address":"上海市浦东新区东方路1881弄"},{"poiid":"B2094655D26AA6FC4892","title":"双季花艺园艺市场","lon":"121.52958","lat":"31.20749","category":"247","category_name":"餐饮美食","address":"浦东新区浦建路620号(近杨高南路)"},{"poiid":"B2094750D36FA3FE459F","title":"陆家嘴","lon":"121.528472","lat":"31.207599","category":"500","category_name":"未知分类","address":null},{"poiid":"B2094757D169ABFF489B","title":"仁济医院东院二号楼一楼PET-CT","lon":"121.52850073","lat":"31.2067958","category":"162","category_name":"医院","address":"上海东方路1630号"},{"poiid":"B2094757D06BA3F8469D","title":"新澳港式茶餐厅","lon":"121.52647873","lat":"31.210972889","category":"72","category_name":"广东菜","address":"浦东新区蓝村路510号(近南泉路)"},{"poiid":"B2094654DA6AA1FF4098","title":"华南大厦","lon":"121.52678154289","lat":"31.204592331508","category":"46","category_name":"楼宇","address":"浦东区东方路1988号"},{"poiid":"B2094750D76FA3FC419B","title":"滇道橡木餐厅酒吧(环龙路店)","lon":"121.528","lat":"31.2064","category":"269","category_name":"烧烤","address":"环龙路65弄111号(近交通银行)"},{"poiid":"B2094757D06AA1FE4893","title":"贵龙园","lon":"121.52592","lat":"31.205503","category":"500","category_name":"未知分类","address":"贵龙园位于浦东东方路1669弄"},{"poiid":"B2094757D068A0FF419B","title":"爱婴室(浦建路店)","lon":"121.52985","lat":"31.20722","category":"128","category_name":"儿童用品店","address":"浦东新区浦建路620号双季花艺西区3楼(近杨高南路)"},{"poiid":"B2094757D068ABF9469B","title":"新亚大包 蓝村路店","lon":"121.52740750022","lat":"31.211781249752","category":"68","category_name":"快餐厅","address":"浦东新区蓝村路450号(近东方路)"},{"poiid":"B2094757D168A6FA4292","title":"仁济东内科大楼","lon":"121.52254373","lat":"31.208428835","category":"500","category_name":"未知分类","address":"上海浦东新区东方路1630号仁济医院三号楼"},{"poiid":"B2094757D068A6FD4793","title":"顶鲜汤包 浦建路店","lon":"121.524676","lat":"31.208249","category":"68","category_name":"快餐厅","address":"浦东新区浦建路243号(东方路口)"},{"poiid":"B2094757D068A3FE409D","title":"上海儿童医学中心地铁站","lon":"121.52387652","lat":"31.204341307","category":"36","category_name":"地铁站","address":"上海轨道交通 六号线 轨交儿童医学中心站 6"},{"poiid":"B2094655D26DA7F94092","title":"上海儿童医学中心(南门)","lon":"121.52307","lat":"31.20475","category":"162","category_name":"医院","address":"东方路1678号"},{"poiid":"B2094757D16DA3FB4692","title":"怡东花园","lon":"121.52715","lat":"31.203518","category":"47","category_name":"住宅区","address":"上海市浦东新区环龙路263弄1号"},{"poiid":"B2094655D36CA2F94192","title":"仁济东院","lon":"121.52355","lat":"31.20815","category":"47","category_name":"住宅区","address":""},{"poiid":"B2094757D068A0F9449B","title":"国美电器(东方路店)","lon":"121.527978","lat":"31.207394","category":"138","category_name":"家电电子卖场","address":"上海市浦东新区浦建路348号"},{"poiid":"B2094757D069A4F8419E","title":"苏宁电器(浦建路店)","lon":"121.529882","lat":"31.207768","category":"138","category_name":"家电电子卖场","address":"浦东新区浦建路620号(近东方路)"},{"poiid":"B2094654DA69A5FA4593","title":"乐晨大酒店","lon":"121.52256","lat":"31.20867","category":"76","category_name":"上海菜","address":"浦东新区浦建路145号强生大厦4-5楼(近东方路)"},{"poiid":"B2094757D06BA6FC449C","title":"仁济医院食堂","lon":"121.52539","lat":"31.20697","category":"68","category_name":"快餐厅","address":"浦东新区东方路1630号仁济医院东部(近浦建路)"},{"poiid":"B2094757D068A5FC4893","title":"上海仁济医院教学楼","lon":"121.52515","lat":"31.207117","category":"253","category_name":"校园生活","address":"上海市东方路1630号上海仁济医院教学楼"},{"poiid":"B2094655D26BA2F5429C","title":"浦建路东方路","lon":"121.5248","lat":"31.20808","category":"38","category_name":"公交车站","address":""},{"poiid":"B2094750DB6CAAFD489A","title":"陆家嘴环球金融中心","lon":"121.523635","lat":"31.204925","category":"500","category_name":"未知分类","address":null},{"poiid":"B2094751D36FA1FC4099","title":"滇道橡木云南餐吧(环龙路店)","lon":"121.5283","lat":"31.20644","category":"247","category_name":"餐饮美食","address":"浦东新区环龙路55号丽晟假日酒店2楼(近浦建路)"},{"poiid":"B2094655D26EA7FD419C","title":"上海新华儿童医院","lon":"121.52413","lat":"31.20528","category":"162","category_name":"医院","address":"浦东新区东方路1678号"},{"poiid":"B2094654DA69A6F9439C","title":"吉野家  杨高店","lon":"121.5302","lat":"31.20651","category":"95","category_name":"日本料理","address":"浦东新区杨高南路1126号卜蜂莲花2楼(近浦建路)"},{"poiid":"B2094757D16EABFE4793","title":"千味拉面","lon":"121.52731","lat":"31.20748","category":"68","category_name":"快餐厅","address":"浦东新区浦建路(近东方路)"},{"poiid":"B2094757D069A5F44898","title":"文建中学羽毛球馆","lon":"121.52673","lat":"31.20925","category":"253","category_name":"校园生活","address":"浦东新区东方路1600弄1号(近蓝村路)"},{"poiid":"B2094757D065A5FC4099","title":"大桶大足浴浦建路店","lon":"121.52531073","lat":"31.208064827","category":"500","category_name":"未知分类","address":"浦东新区浦建路243号(近仁济医院)"},{"poiid":"B2094655D26DA1F4409A","title":"春之声公寓","lon":"121.52483","lat":"31.209272","category":"47","category_name":"住宅区","address":"东方路1600弄1-15号"},{"poiid":"B2094654DA69A6F4459F","title":"金龙花园","lon":"121.52761","lat":"31.209513","category":"47","category_name":"住宅区","address":"东方路1523弄1-3号"},{"poiid":"B2094757D46EABF94993","title":"味老大","lon":"121.524815","lat":"31.208263","category":"68","category_name":"快餐厅","address":"浦东新区浦建路243号(近东方路)"},{"poiid":"B2094654DA69A5FA4093","title":"文兰小区","lon":"121.52592","lat":"31.211079","category":"47","category_name":"住宅区","address":"蓝村路470弄"},{"poiid":"B2094757D464AAF5409B","title":"随心豆花香","lon":"121.524866054","lat":"31.205778793","category":"68","category_name":"快餐厅","address":"浦东新区东方路(近北园路)"},{"poiid":"B2094654DA69A6F4449D","title":"顽皮家族宠物医疗","lon":"121.5268","lat":"31.20868","category":"162","category_name":"医院","address":""},{"poiid":"B2094757D06AA1F84992","title":"艺林盲人按摩院(浦东店)","lon":"121.52711","lat":"31.2034","category":"149","category_name":"洗浴推拿场所","address":"浦东新区环龙路263弄1号怡东会所内(近地铁6号线儿童医学中心地铁站1号出口)"},{"poiid":"B2094654DB69A4F4489D","title":"永乐电器(东方店)","lon":"121.52854","lat":"31.20833","category":"138","category_name":"家电电子卖场","address":"上海市浦东新区浦建路365号(易初莲花对面)"},{"poiid":"B2094751D465A3F9489D","title":"上海虹桥火车站","lon":"121.525","lat":"31.207217","category":"251","category_name":"出行住宿","address":null}]