[{"poiid":"B2094757D068A2FA439B","title":"上海松江妇幼保健院","lon":"121.218708","lat":"31.02497","category":"500","category_name":"未知分类","address":"上海松江西林北路1010号"},{"poiid":"B2094757D06FA6FE409B","title":"大润发(荣乐中路店)","lon":"121.21961641","lat":"31.017390405","category":"118","category_name":"超级市场","address":"松江区荣乐中路552-652号"},{"poiid":"B2094757D068A7F8459E","title":"上海松江大学城","lon":"121.219432","lat":"31.02291","category":"500","category_name":"未知分类","address":"上海松江大学城"},{"poiid":"B2094757D068A6FE4799","title":"思贤公园","lon":"121.22401","lat":"31.02957","category":"196","category_name":"公园","address":"松江区思贤路北侧(近人民北路)"},{"poiid":"B2094757D068ABFC4493","title":"卜蜂莲花(松江文诚路店)","lon":"121.21972536","lat":"31.032609641","category":"118","category_name":"超级市场","address":"松江区文诚路258号(近人民北路)"},{"poiid":"B2094654DB65A6F5489F","title":"上海市城市科技学校","lon":"121.22214","lat":"31.02243","category":"54","category_name":"职业技术学校","address":"松江区人民北路925号(北翠路人民北路)"},{"poiid":"B2094757D16DAAFC419C","title":"雪浪湖浴场","lon":"121.219662467","lat":"31.0230388459","category":"149","category_name":"洗浴推拿场所","address":"松江区西林北路956号(南期昌路口)"},{"poiid":"B2094655D268A5FD409B","title":"锦江之星旅馆松江大学城店","lon":"121.2195","lat":"31.02258","category":"216","category_name":"经济型连锁酒店","address":"松江区西林北路950号(南其昌路口)"},{"poiid":"B2094757D06FA3FF459A","title":"沪杭高速公路","lon":"121.228906","lat":"31.017155","category":"260","category_name":"其他","address":"沪杭高速公路 沪杭高速 上海-杭州"},{"poiid":"B2094654DB64A0FD429E","title":"白洋苑","lon":"121.2192","lat":"31.018274","category":"47","category_name":"住宅区","address":"荣乐中路800弄1-270号"},{"poiid":"B2094757D064A7F9449A","title":"肯德基 KFC (荣乐店)","lon":"121.219864","lat":"31.016828","category":"68","category_name":"快餐厅","address":"松江区荣乐中路552号(荣乐中路西林北路)"},{"poiid":"B2094654DB6EA1FE4093","title":"民乐小区(荣乐中路)","lon":"121.22319","lat":"31.01821","category":"47","category_name":"住宅区","address":"上海荣乐路西林北路"},{"poiid":"B2094757D064A5F44092","title":"香涌海鲜大酒楼(松江店)","lon":"121.221393742","lat":"31.0327239336","category":"76","category_name":"上海菜","address":"松江区人民北路1508号(北翠路人民北路)"},{"poiid":"B2094757D06AA3F4449A","title":"G60沪昆高速松江新城收费站","lon":"121.230430071","lat":"31.023214309","category":"267","category_name":"收费站","address":"上海G60沪昆高速松江新城收费站"},{"poiid":"B2094655D268A6F9499C","title":"林芝大厦","lon":"121.21984","lat":"31.02297","category":"46","category_name":"楼宇","address":"南期昌路751号"},{"poiid":"B2094654DB64A0FD419F","title":"上海大学高等技术学院松江分院","lon":"121.22035","lat":"31.02338","category":"52","category_name":"高等院校","address":"南期昌路699"},{"poiid":"B2094757D064A0FC489E","title":"江虹花园","lon":"121.22646","lat":"31.023369","category":"47","category_name":"住宅区","address":"南其昌路459弄"},{"poiid":"B2094655D268A5FC4998","title":"松江区国家税务局第三税务所","lon":"121.21984","lat":"31.02297","category":"250","category_name":"公园户外","address":"南期昌路751号"},{"poiid":"B2094757D06AA2F8499D","title":"自由港量贩式KTV(松江店)","lon":"121.22656","lat":"31.01634","category":"170","category_name":"KTV","address":"松江区人民北路361号(近荣乐路)"},{"poiid":"B2094654DB65A6F54192","title":"华东理工大学网络教育学院松江教育中心","lon":"121.22214","lat":"31.02243","category":"52","category_name":"高等院校","address":"人民北路925"},{"poiid":"B2094655D36CA2FE469F","title":"其昌路","lon":"121.22315","lat":"31.02502","category":"38","category_name":"公交车站","address":""},{"poiid":"B2094752D664A5F5479A","title":"松江人民医院","lon":"121.219264","lat":"31.021609","category":"162","category_name":"医院","address":null},{"poiid":"B2094655D268A7FB4693","title":"荣鹰小区(东门)","lon":"121.21827","lat":"31.02471","category":"47","category_name":"住宅区","address":"西林北路1025弄1-100号"},{"poiid":"B2094757D064A1FC439E","title":"蒙自源云南米线(松江店)","lon":"121.21998","lat":"31.01691","category":"68","category_name":"快餐厅","address":"松江区荣乐中路552-652号大润发1楼(荣乐中路西林北路)"},{"poiid":"B2094757D16BAAF8489B","title":"松江大学城四期20楼","lon":"121.219373","lat":"31.023044","category":"500","category_name":"未知分类","address":"上海松江区大学城四期二十号楼"},{"poiid":"B2094654DB6EA1FE439F","title":"广源楼","lon":"121.224","lat":"31.0233","category":"46","category_name":"楼宇","address":"荣乐中路698弄"},{"poiid":"B2094654DB6EA1FC439C","title":"克莉丝汀NO.219","lon":"121.22453","lat":"31.02458","category":"112","category_name":"糕饼店","address":"松江区南其昌路558-560号(近人民北路)"},{"poiid":"B2094757D168A6FB489D","title":"上海银行","lon":"121.222242","lat":"31.024298","category":"150","category_name":"银行","address":"上海松江区人民北路其昌路600号"},{"poiid":"B2094654DB6EA1FC479F","title":"上海市松江区疾病预防控制中心(西林北路)","lon":"121.21864","lat":"31.02522","category":"162","category_name":"医院","address":"西林北路1050、1052"},{"poiid":"B2094757D168ABFE439D","title":"方松派出所","lon":"121.218563","lat":"31.025484","category":"609","category_name":"警察局","address":"上海松江西林北路1080号"},{"poiid":"B2094654DB6EA1FC459F","title":"东庭人家","lon":"121.21465","lat":"31.024559","category":"47","category_name":"住宅区","address":"松江其昌路888弄"},{"poiid":"B2094654DB6EA1FC469C","title":"荣鹰小区","lon":"121.21717","lat":"31.024817","category":"47","category_name":"住宅区","address":"西林北路1025弄1-100号"},{"poiid":"B2094654DB64A0FD419D","title":"放生池花园","lon":"121.21286","lat":"31.02198","category":"47","category_name":"住宅区","address":"上海松江南其昌路889弄"},{"poiid":"B2094757D169A2F84299","title":"松江区卫生局","lon":"121.218652","lat":"31.025225","category":"500","category_name":"未知分类","address":"上海松江区西林北路1050号"},{"poiid":"B2094655D36CA2FE469D","title":"其昌路人民北路","lon":"121.22476","lat":"31.02434","category":"38","category_name":"公交车站","address":""},{"poiid":"B2094757D16AA5F9429F","title":"钱塘茶人(松江店)","lon":"121.21676","lat":"31.02271","category":"247","category_name":"餐饮美食","address":"上海近郊松江区南期昌路(近江学路)  "},{"poiid":"B2094654DB64A0FD419E","title":"上海市城市科技学校(东门)","lon":"121.22373","lat":"31.02311","category":"253","category_name":"校园生活","address":"人民北路925"},{"poiid":"B2094757D16AA4F8479A","title":"松江实验幼儿园","lon":"121.225018","lat":"31.024563","category":"57","category_name":"幼儿园","address":"松江区南期昌路458弄49号"},{"poiid":"B2094655D26FABFC419E","title":"放生池花园(北门)","lon":"121.2163","lat":"31.02299","category":"47","category_name":"住宅区","address":"南期昌路889弄168"},{"poiid":"B2094655D268A7FB469C","title":"东庭人家(南一号门)","lon":"121.21616","lat":"31.0237","category":"47","category_name":"住宅区","address":"南期昌路888弄"},{"poiid":"B2094654DB6EA0FE419D","title":"松乐苑","lon":"121.21642","lat":"31.015387","category":"47","category_name":"住宅区","address":"上海市松江区荣乐中路835弄"},{"poiid":"B2094757D068A4FF4898","title":"上海交通大学附属第一人民医院(南部分院)3B","lon":"121.218365467","lat":"31.0286144684","category":"162","category_name":"医院","address":"上海市松江区新松江路650号"},{"poiid":"B2094655D268A5FD4198","title":"江诚苑西北区","lon":"121.22516","lat":"31.02507","category":"47","category_name":"住宅区","address":""},{"poiid":"B2094654DB6EA1FC4598","title":"克丽缇娜松江店","lon":"121.21585","lat":"31.0237","category":"148","category_name":"美容美发店","address":"南其昌路900号"},{"poiid":"B2094757D16AA2FD479A","title":"松江区社会保险事业管理中心","lon":"121.226919985","lat":"31.0171022381","category":"500","category_name":"未知分类","address":"上海市松江区荣乐中路248号"},{"poiid":"B2094654DB6EA1FC4298","title":"好玩宝贝宠物医疗美容中心","lon":"121.22541","lat":"31.02456","category":"162","category_name":"医院","address":"奉贤区南期昌路506-508"},{"poiid":"B2094757D065ABFE4798","title":"上海市松江社会福利院","lon":"121.2234673","lat":"31.0242511","category":"260","category_name":"其他","address":"上海松江区南期昌路 600 号"},{"poiid":"B2094654DB64A0FD4199","title":"大宋足浴","lon":"121.21601","lat":"31.0237","category":"149","category_name":"洗浴推拿场所","address":"南期昌路894-896"},{"poiid":"B2094654DB6EA2FB4598","title":"上海市松江区国家税务局","lon":"121.22527","lat":"31.0311","category":"250","category_name":"公园户外","address":"松江新城区园中路2号"},{"poiid":"B2094654DB6EA1FD4693","title":"民乐学校","lon":"121.22531","lat":"31.01847","category":"54","category_name":"职业技术学校","address":"松江区人民北路439号"},{"poiid":"B2094757D068A2FA439B","title":"上海松江妇幼保健院","lon":"121.218708","lat":"31.02497","category":"500","category_name":"未知分类","address":"上海松江西林北路1010号"},{"poiid":"B2094757D06FA6FE409B","title":"大润发(荣乐中路店)","lon":"121.21961641","lat":"31.017390405","category":"118","category_name":"超级市场","address":"松江区荣乐中路552-652号"},{"poiid":"B2094757D068A7F8459E","title":"上海松江大学城","lon":"121.219432","lat":"31.02291","category":"500","category_name":"未知分类","address":"上海松江大学城"},{"poiid":"B2094757D068A6FE4799","title":"思贤公园","lon":"121.22401","lat":"31.02957","category":"196","category_name":"公园","address":"松江区思贤路北侧(近人民北路)"},{"poiid":"B2094757D068ABFC4493","title":"卜蜂莲花(松江文诚路店)","lon":"121.21972536","lat":"31.032609641","category":"118","category_name":"超级市场","address":"松江区文诚路258号(近人民北路)"},{"poiid":"B2094654DB65A6F5489F","title":"上海市城市科技学校","lon":"121.22214","lat":"31.02243","category":"54","category_name":"职业技术学校","address":"松江区人民北路925号(北翠路人民北路)"},{"poiid":"B2094757D16DAAFC419C","title":"雪浪湖浴场","lon":"121.219662467","lat":"31.0230388459","category":"149","category_name":"洗浴推拿场所","address":"松江区西林北路956号(南期昌路口)"},{"poiid":"B2094655D268A5FD409B","title":"锦江之星旅馆松江大学城店","lon":"121.2195","lat":"31.02258","category":"216","category_name":"经济型连锁酒店","address":"松江区西林北路950号(南其昌路口)"},{"poiid":"B2094757D06FA3FF459A","title":"沪杭高速公路","lon":"121.228906","lat":"31.017155","category":"260","category_name":"其他","address":"沪杭高速公路 沪杭高速 上海-杭州"},{"poiid":"B2094654DB64A0FD429E","title":"白洋苑","lon":"121.2192","lat":"31.018274","category":"47","category_name":"住宅区","address":"荣乐中路800弄1-270号"},{"poiid":"B2094757D064A7F9449A","title":"肯德基 KFC (荣乐店)","lon":"121.219864","lat":"31.016828","category":"68","category_name":"快餐厅","address":"松江区荣乐中路552号(荣乐中路西林北路)"},{"poiid":"B2094654DB6EA1FE4093","title":"民乐小区(荣乐中路)","lon":"121.22319","lat":"31.01821","category":"47","category_name":"住宅区","address":"上海荣乐路西林北路"},{"poiid":"B2094757D064A5F44092","title":"香涌海鲜大酒楼(松江店)","lon":"121.221393742","lat":"31.0327239336","category":"76","category_name":"上海菜","address":"松江区人民北路1508号(北翠路人民北路)"},{"poiid":"B2094757D06AA3F4449A","title":"G60沪昆高速松江新城收费站","lon":"121.230430071","lat":"31.023214309","category":"267","category_name":"收费站","address":"上海G60沪昆高速松江新城收费站"},{"poiid":"B2094655D268A6F9499C","title":"林芝大厦","lon":"121.21984","lat":"31.02297","category":"46","category_name":"楼宇","address":"南期昌路751号"},{"poiid":"B2094654DB64A0FD419F","title":"上海大学高等技术学院松江分院","lon":"121.22035","lat":"31.02338","category":"52","category_name":"高等院校","address":"南期昌路699"},{"poiid":"B2094757D064A0FC489E","title":"江虹花园","lon":"121.22646","lat":"31.023369","category":"47","category_name":"住宅区","address":"南其昌路459弄"},{"poiid":"B2094655D268A5FC4998","title":"松江区国家税务局第三税务所","lon":"121.21984","lat":"31.02297","category":"250","category_name":"公园户外","address":"南期昌路751号"},{"poiid":"B2094757D06AA2F8499D","title":"自由港量贩式KTV(松江店)","lon":"121.22656","lat":"31.01634","category":"170","category_name":"KTV","address":"松江区人民北路361号(近荣乐路)"},{"poiid":"B2094654DB65A6F54192","title":"华东理工大学网络教育学院松江教育中心","lon":"121.22214","lat":"31.02243","category":"52","category_name":"高等院校","address":"人民北路925"},{"poiid":"B2094655D36CA2FE469F","title":"其昌路","lon":"121.22315","lat":"31.02502","category":"38","category_name":"公交车站","address":""},{"poiid":"B2094752D664A5F5479A","title":"松江人民医院","lon":"121.219264","lat":"31.021609","category":"162","category_name":"医院","address":null},{"poiid":"B2094655D268A7FB4693","title":"荣鹰小区(东门)","lon":"121.21827","lat":"31.02471","category":"47","category_name":"住宅区","address":"西林北路1025弄1-100号"},{"poiid":"B2094757D064A1FC439E","title":"蒙自源云南米线(松江店)","lon":"121.21998","lat":"31.01691","category":"68","category_name":"快餐厅","address":"松江区荣乐中路552-652号大润发1楼(荣乐中路西林北路)"},{"poiid":"B2094757D16BAAF8489B","title":"松江大学城四期20楼","lon":"121.219373","lat":"31.023044","category":"500","category_name":"未知分类","address":"上海松江区大学城四期二十号楼"},{"poiid":"B2094654DB6EA1FE439F","title":"广源楼","lon":"121.224","lat":"31.0233","category":"46","category_name":"楼宇","address":"荣乐中路698弄"},{"poiid":"B2094654DB6EA1FC439C","title":"克莉丝汀NO.219","lon":"121.22453","lat":"31.02458","category":"112","category_name":"糕饼店","address":"松江区南其昌路558-560号(近人民北路)"},{"poiid":"B2094757D168A6FB489D","title":"上海银行","lon":"121.222242","lat":"31.024298","category":"150","category_name":"银行","address":"上海松江区人民北路其昌路600号"},{"poiid":"B2094654DB6EA1FC479F","title":"上海市松江区疾病预防控制中心(西林北路)","lon":"121.21864","lat":"31.02522","category":"162","category_name":"医院","address":"西林北路1050、1052"},{"poiid":"B2094757D168ABFE439D","title":"方松派出所","lon":"121.218563","lat":"31.025484","category":"609","category_name":"警察局","address":"上海松江西林北路1080号"},{"poiid":"B2094654DB6EA1FC459F","title":"东庭人家","lon":"121.21465","lat":"31.024559","category":"47","category_name":"住宅区","address":"松江其昌路888弄"},{"poiid":"B2094654DB6EA1FC469C","title":"荣鹰小区","lon":"121.21717","lat":"31.024817","category":"47","category_name":"住宅区","address":"西林北路1025弄1-100号"},{"poiid":"B2094654DB64A0FD419D","title":"放生池花园","lon":"121.21286","lat":"31.02198","category":"47","category_name":"住宅区","address":"上海松江南其昌路889弄"},{"poiid":"B2094757D169A2F84299","title":"松江区卫生局","lon":"121.218652","lat":"31.025225","category":"500","category_name":"未知分类","address":"上海松江区西林北路1050号"},{"poiid":"B2094655D36CA2FE469D","title":"其昌路人民北路","lon":"121.22476","lat":"31.02434","category":"38","category_name":"公交车站","address":""},{"poiid":"B2094757D16AA5F9429F","title":"钱塘茶人(松江店)","lon":"121.21676","lat":"31.02271","category":"247","category_name":"餐饮美食","address":"上海近郊松江区南期昌路(近江学路)  "},{"poiid":"B2094654DB64A0FD419E","title":"上海市城市科技学校(东门)","lon":"121.22373","lat":"31.02311","category":"253","category_name":"校园生活","address":"人民北路925"},{"poiid":"B2094757D16AA4F8479A","title":"松江实验幼儿园","lon":"121.225018","lat":"31.024563","category":"57","category_name":"幼儿园","address":"松江区南期昌路458弄49号"},{"poiid":"B2094655D26FABFC419E","title":"放生池花园(北门)","lon":"121.2163","lat":"31.02299","category":"47","category_name":"住宅区","address":"南期昌路889弄168"},{"poiid":"B2094655D268A7FB469C","title":"东庭人家(南一号门)","lon":"121.21616","lat":"31.0237","category":"47","category_name":"住宅区","address":"南期昌路888弄"},{"poiid":"B2094654DB6EA0FE419D","title":"松乐苑","lon":"121.21642","lat":"31.015387","category":"47","category_name":"住宅区","address":"上海市松江区荣乐中路835弄"},{"poiid":"B2094757D068A4FF4898","title":"上海交通大学附属第一人民医院(南部分院)3B","lon":"121.218365467","lat":"31.0286144684","category":"162","category_name":"医院","address":"上海市松江区新松江路650号"},{"poiid":"B2094655D268A5FD4198","title":"江诚苑西北区","lon":"121.22516","lat":"31.02507","category":"47","category_name":"住宅区","address":""},{"poiid":"B2094654DB6EA1FC4598","title":"克丽缇娜松江店","lon":"121.21585","lat":"31.0237","category":"148","category_name":"美容美发店","address":"南其昌路900号"},{"poiid":"B2094757D16AA2FD479A","title":"松江区社会保险事业管理中心","lon":"121.226919985","lat":"31.0171022381","category":"500","category_name":"未知分类","address":"上海市松江区荣乐中路248号"},{"poiid":"B2094654DB6EA1FC4298","title":"好玩宝贝宠物医疗美容中心","lon":"121.22541","lat":"31.02456","category":"162","category_name":"医院","address":"奉贤区南期昌路506-508"},{"poiid":"B2094757D065ABFE4798","title":"上海市松江社会福利院","lon":"121.2234673","lat":"31.0242511","category":"260","category_name":"其他","address":"上海松江区南期昌路 600 号"},{"poiid":"B2094654DB64A0FD4199","title":"大宋足浴","lon":"121.21601","lat":"31.0237","category":"149","category_name":"洗浴推拿场所","address":"南期昌路894-896"},{"poiid":"B2094654DB6EA2FB4598","title":"上海市松江区国家税务局","lon":"121.22527","lat":"31.0311","category":"250","category_name":"公园户外","address":"松江新城区园中路2号"},{"poiid":"B2094654DB6EA1FD4693","title":"民乐学校","lon":"121.22531","lat":"31.01847","category":"54","category_name":"职业技术学校","address":"松江区人民北路439号"},{"poiid":"B2094757D068A2FA439B","title":"上海松江妇幼保健院","lon":"121.218708","lat":"31.02497","category":"500","category_name":"未知分类","address":"上海松江西林北路1010号"},{"poiid":"B2094757D06FA6FE409B","title":"大润发(荣乐中路店)","lon":"121.21961641","lat":"31.017390405","category":"118","category_name":"超级市场","address":"松江区荣乐中路552-652号"},{"poiid":"B2094757D068A7F8459E","title":"上海松江大学城","lon":"121.219432","lat":"31.02291","category":"500","category_name":"未知分类","address":"上海松江大学城"},{"poiid":"B2094757D068A6FE4799","title":"思贤公园","lon":"121.22401","lat":"31.02957","category":"196","category_name":"公园","address":"松江区思贤路北侧(近人民北路)"},{"poiid":"B2094757D068ABFC4493","title":"卜蜂莲花(松江文诚路店)","lon":"121.21972536","lat":"31.032609641","category":"118","category_name":"超级市场","address":"松江区文诚路258号(近人民北路)"},{"poiid":"B2094654DB65A6F5489F","title":"上海市城市科技学校","lon":"121.22214","lat":"31.02243","category":"54","category_name":"职业技术学校","address":"松江区人民北路925号(北翠路人民北路)"},{"poiid":"B2094757D16DAAFC419C","title":"雪浪湖浴场","lon":"121.219662467","lat":"31.0230388459","category":"149","category_name":"洗浴推拿场所","address":"松江区西林北路956号(南期昌路口)"},{"poiid":"B2094655D268A5FD409B","title":"锦江之星旅馆松江大学城店","lon":"121.2195","lat":"31.02258","category":"216","category_name":"经济型连锁酒店","address":"松江区西林北路950号(南其昌路口)"},{"poiid":"B2094757D06FA3FF459A","title":"沪杭高速公路","lon":"121.228906","lat":"31.017155","category":"260","category_name":"其他","address":"沪杭高速公路 沪杭高速 上海-杭州"},{"poiid":"B2094654DB64A0FD429E","title":"白洋苑","lon":"121.2192","lat":"31.018274","category":"47","category_name":"住宅区","address":"荣乐中路800弄1-270号"},{"poiid":"B2094757D064A7F9449A","title":"肯德基 KFC (荣乐店)","lon":"121.219864","lat":"31.016828","category":"68","category_name":"快餐厅","address":"松江区荣乐中路552号(荣乐中路西林北路)"},{"poiid":"B2094654DB6EA1FE4093","title":"民乐小区(荣乐中路)","lon":"121.22319","lat":"31.01821","category":"47","category_name":"住宅区","address":"上海荣乐路西林北路"},{"poiid":"B2094757D064A5F44092","title":"香涌海鲜大酒楼(松江店)","lon":"121.221393742","lat":"31.0327239336","category":"76","category_name":"上海菜","address":"松江区人民北路1508号(北翠路人民北路)"},{"poiid":"B2094757D06AA3F4449A","title":"G60沪昆高速松江新城收费站","lon":"121.230430071","lat":"31.023214309","category":"267","category_name":"收费站","address":"上海G60沪昆高速松江新城收费站"},{"poiid":"B2094655D268A6F9499C","title":"林芝大厦","lon":"121.21984","lat":"31.02297","category":"46","category_name":"楼宇","address":"南期昌路751号"},{"poiid":"B2094654DB64A0FD419F","title":"上海大学高等技术学院松江分院","lon":"121.22035","lat":"31.02338","category":"52","category_name":"高等院校","address":"南期昌路699"},{"poiid":"B2094757D064A0FC489E","title":"江虹花园","lon":"121.22646","lat":"31.023369","category":"47","category_name":"住宅区","address":"南其昌路459弄"},{"poiid":"B2094655D268A5FC4998","title":"松江区国家税务局第三税务所","lon":"121.21984","lat":"31.02297","category":"250","category_name":"公园户外","address":"南期昌路751号"},{"poiid":"B2094757D06AA2F8499D","title":"自由港量贩式KTV(松江店)","lon":"121.22656","lat":"31.01634","category":"170","category_name":"KTV","address":"松江区人民北路361号(近荣乐路)"},{"poiid":"B2094654DB65A6F54192","title":"华东理工大学网络教育学院松江教育中心","lon":"121.22214","lat":"31.02243","category":"52","category_name":"高等院校","address":"人民北路925"},{"poiid":"B2094655D36CA2FE469F","title":"其昌路","lon":"121.22315","lat":"31.02502","category":"38","category_name":"公交车站","address":""},{"poiid":"B2094752D664A5F5479A","title":"松江人民医院","lon":"121.219264","lat":"31.021609","category":"162","category_name":"医院","address":null},{"poiid":"B2094655D268A7FB4693","title":"荣鹰小区(东门)","lon":"121.21827","lat":"31.02471","category":"47","category_name":"住宅区","address":"西林北路1025弄1-100号"},{"poiid":"B2094757D064A1FC439E","title":"蒙自源云南米线(松江店)","lon":"121.21998","lat":"31.01691","category":"68","category_name":"快餐厅","address":"松江区荣乐中路552-652号大润发1楼(荣乐中路西林北路)"},{"poiid":"B2094757D16BAAF8489B","title":"松江大学城四期20楼","lon":"121.219373","lat":"31.023044","category":"500","category_name":"未知分类","address":"上海松江区大学城四期二十号楼"},{"poiid":"B2094654DB6EA1FE439F","title":"广源楼","lon":"121.224","lat":"31.0233","category":"46","category_name":"楼宇","address":"荣乐中路698弄"},{"poiid":"B2094654DB6EA1FC439C","title":"克莉丝汀NO.219","lon":"121.22453","lat":"31.02458","category":"112","category_name":"糕饼店","address":"松江区南其昌路558-560号(近人民北路)"},{"poiid":"B2094757D168A6FB489D","title":"上海银行","lon":"121.222242","lat":"31.024298","category":"150","category_name":"银行","address":"上海松江区人民北路其昌路600号"},{"poiid":"B2094654DB6EA1FC479F","title":"上海市松江区疾病预防控制中心(西林北路)","lon":"121.21864","lat":"31.02522","category":"162","category_name":"医院","address":"西林北路1050、1052"},{"poiid":"B2094757D168ABFE439D","title":"方松派出所","lon":"121.218563","lat":"31.025484","category":"609","category_name":"警察局","address":"上海松江西林北路1080号"},{"poiid":"B2094654DB6EA1FC459F","title":"东庭人家","lon":"121.21465","lat":"31.024559","category":"47","category_name":"住宅区","address":"松江其昌路888弄"},{"poiid":"B2094654DB6EA1FC469C","title":"荣鹰小区","lon":"121.21717","lat":"31.024817","category":"47","category_name":"住宅区","address":"西林北路1025弄1-100号"},{"poiid":"B2094654DB64A0FD419D","title":"放生池花园","lon":"121.21286","lat":"31.02198","category":"47","category_name":"住宅区","address":"上海松江南其昌路889弄"},{"poiid":"B2094757D169A2F84299","title":"松江区卫生局","lon":"121.218652","lat":"31.025225","category":"500","category_name":"未知分类","address":"上海松江区西林北路1050号"},{"poiid":"B2094655D36CA2FE469D","title":"其昌路人民北路","lon":"121.22476","lat":"31.02434","category":"38","category_name":"公交车站","address":""},{"poiid":"B2094757D16AA5F9429F","title":"钱塘茶人(松江店)","lon":"121.21676","lat":"31.02271","category":"247","category_name":"餐饮美食","address":"上海近郊松江区南期昌路(近江学路)  "},{"poiid":"B2094654DB64A0FD419E","title":"上海市城市科技学校(东门)","lon":"121.22373","lat":"31.02311","category":"253","category_name":"校园生活","address":"人民北路925"},{"poiid":"B2094757D16AA4F8479A","title":"松江实验幼儿园","lon":"121.225018","lat":"31.024563","category":"57","category_name":"幼儿园","address":"松江区南期昌路458弄49号"},{"poiid":"B2094655D26FABFC419E","title":"放生池花园(北门)","lon":"121.2163","lat":"31.02299","category":"47","category_name":"住宅区","address":"南期昌路889弄168"},{"poiid":"B2094655D268A7FB469C","title":"东庭人家(南一号门)","lon":"121.21616","lat":"31.0237","category":"47","category_name":"住宅区","address":"南期昌路888弄"},{"poiid":"B2094654DB6EA0FE419D","title":"松乐苑","lon":"121.21642","lat":"31.015387","category":"47","category_name":"住宅区","address":"上海市松江区荣乐中路835弄"},{"poiid":"B2094757D068A4FF4898","title":"上海交通大学附属第一人民医院(南部分院)3B","lon":"121.218365467","lat":"31.0286144684","category":"162","category_name":"医院","address":"上海市松江区新松江路650号"},{"poiid":"B2094655D268A5FD4198","title":"江诚苑西北区","lon":"121.22516","lat":"31.02507","category":"47","category_name":"住宅区","address":""},{"poiid":"B2094654DB6EA1FC4598","title":"克丽缇娜松江店","lon":"121.21585","lat":"31.0237","category":"148","category_name":"美容美发店","address":"南其昌路900号"},{"poiid":"B2094757D16AA2FD479A","title":"松江区社会保险事业管理中心","lon":"121.226919985","lat":"31.0171022381","category":"500","category_name":"未知分类","address":"上海市松江区荣乐中路248号"},{"poiid":"B2094654DB6EA1FC4298","title":"好玩宝贝宠物医疗美容中心","lon":"121.22541","lat":"31.02456","category":"162","category_name":"医院","address":"奉贤区南期昌路506-508"},{"poiid":"B2094757D065ABFE4798","title":"上海市松江社会福利院","lon":"121.2234673","lat":"31.0242511","category":"260","category_name":"其他","address":"上海松江区南期昌路 600 号"},{"poiid":"B2094654DB64A0FD4199","title":"大宋足浴","lon":"121.21601","lat":"31.0237","category":"149","category_name":"洗浴推拿场所","address":"南期昌路894-896"},{"poiid":"B2094654DB6EA2FB4598","title":"上海市松江区国家税务局","lon":"121.22527","lat":"31.0311","category":"250","category_name":"公园户外","address":"松江新城区园中路2号"},{"poiid":"B2094654DB6EA1FD4693","title":"民乐学校","lon":"121.22531","lat":"31.01847","category":"54","category_name":"职业技术学校","address":"松江区人民北路439号"},{"poiid":"B2094757D068A2FA439B","title":"上海松江妇幼保健院","lon":"121.218708","lat":"31.02497","category":"500","category_name":"未知分类","address":"上海松江西林北路1010号"},{"poiid":"B2094757D06FA6FE409B","title":"大润发(荣乐中路店)","lon":"121.21961641","lat":"31.017390405","category":"118","category_name":"超级市场","address":"松江区荣乐中路552-652号"},{"poiid":"B2094757D068A7F8459E","title":"上海松江大学城","lon":"121.219432","lat":"31.02291","category":"500","category_name":"未知分类","address":"上海松江大学城"},{"poiid":"B2094757D068A6FE4799","title":"思贤公园","lon":"121.22401","lat":"31.02957","category":"196","category_name":"公园","address":"松江区思贤路北侧(近人民北路)"},{"poiid":"B2094757D068ABFC4493","title":"卜蜂莲花(松江文诚路店)","lon":"121.21972536","lat":"31.032609641","category":"118","category_name":"超级市场","address":"松江区文诚路258号(近人民北路)"},{"poiid":"B2094654DB65A6F5489F","title":"上海市城市科技学校","lon":"121.22214","lat":"31.02243","category":"54","category_name":"职业技术学校","address":"松江区人民北路925号(北翠路人民北路)"},{"poiid":"B2094757D16DAAFC419C","title":"雪浪湖浴场","lon":"121.219662467","lat":"31.0230388459","category":"149","category_name":"洗浴推拿场所","address":"松江区西林北路956号(南期昌路口)"},{"poiid":"B2094655D268A5FD409B","title":"锦江之星旅馆松江大学城店","lon":"121.2195","lat":"31.02258","category":"216","category_name":"经济型连锁酒店","address":"松江区西林北路950号(南其昌路口)"},{"poiid":"B2094757D06FA3FF459A","title":"沪杭高速公路","lon":"121.228906","lat":"31.017155","category":"260","category_name":"其他","address":"沪杭高速公路 沪杭高速 上海-杭州"},{"poiid":"B2094654DB64A0FD429E","title":"白洋苑","lon":"121.2192","lat":"31.018274","category":"47","category_name":"住宅区","address":"荣乐中路800弄1-270号"},{"poiid":"B2094757D064A7F9449A","title":"肯德基 KFC (荣乐店)","lon":"121.219864","lat":"31.016828","category":"68","category_name":"快餐厅","address":"松江区荣乐中路552号(荣乐中路西林北路)"},{"poiid":"B2094654DB6EA1FE4093","title":"民乐小区(荣乐中路)","lon":"121.22319","lat":"31.01821","category":"47","category_name":"住宅区","address":"上海荣乐路西林北路"},{"poiid":"B2094757D064A5F44092","title":"香涌海鲜大酒楼(松江店)","lon":"121.221393742","lat":"31.0327239336","category":"76","category_name":"上海菜","address":"松江区人民北路1508号(北翠路人民北路)"},{"poiid":"B2094757D06AA3F4449A","title":"G60沪昆高速松江新城收费站","lon":"121.230430071","lat":"31.023214309","category":"267","category_name":"收费站","address":"上海G60沪昆高速松江新城收费站"},{"poiid":"B2094655D268A6F9499C","title":"林芝大厦","lon":"121.21984","lat":"31.02297","category":"46","category_name":"楼宇","address":"南期昌路751号"},{"poiid":"B2094654DB64A0FD419F","title":"上海大学高等技术学院松江分院","lon":"121.22035","lat":"31.02338","category":"52","category_name":"高等院校","address":"南期昌路699"},{"poiid":"B2094757D064A0FC489E","title":"江虹花园","lon":"121.22646","lat":"31.023369","category":"47","category_name":"住宅区","address":"南其昌路459弄"},{"poiid":"B2094655D268A5FC4998","title":"松江区国家税务局第三税务所","lon":"121.21984","lat":"31.02297","category":"250","category_name":"公园户外","address":"南期昌路751号"},{"poiid":"B2094757D06AA2F8499D","title":"自由港量贩式KTV(松江店)","lon":"121.22656","lat":"31.01634","category":"170","category_name":"KTV","address":"松江区人民北路361号(近荣乐路)"},{"poiid":"B2094654DB65A6F54192","title":"华东理工大学网络教育学院松江教育中心","lon":"121.22214","lat":"31.02243","category":"52","category_name":"高等院校","address":"人民北路925"},{"poiid":"B2094655D36CA2FE469F","title":"其昌路","lon":"121.22315","lat":"31.02502","category":"38","category_name":"公交车站","address":""},{"poiid":"B2094752D664A5F5479A","title":"松江人民医院","lon":"121.219264","lat":"31.021609","category":"162","category_name":"医院","address":null},{"poiid":"B2094655D268A7FB4693","title":"荣鹰小区(东门)","lon":"121.21827","lat":"31.02471","category":"47","category_name":"住宅区","address":"西林北路1025弄1-100号"},{"poiid":"B2094757D064A1FC439E","title":"蒙自源云南米线(松江店)","lon":"121.21998","lat":"31.01691","category":"68","category_name":"快餐厅","address":"松江区荣乐中路552-652号大润发1楼(荣乐中路西林北路)"},{"poiid":"B2094757D16BAAF8489B","title":"松江大学城四期20楼","lon":"121.219373","lat":"31.023044","category":"500","category_name":"未知分类","address":"上海松江区大学城四期二十号楼"},{"poiid":"B2094654DB6EA1FE439F","title":"广源楼","lon":"121.224","lat":"31.0233","category":"46","category_name":"楼宇","address":"荣乐中路698弄"},{"poiid":"B2094654DB6EA1FC439C","title":"克莉丝汀NO.219","lon":"121.22453","lat":"31.02458","category":"112","category_name":"糕饼店","address":"松江区南其昌路558-560号(近人民北路)"},{"poiid":"B2094757D168A6FB489D","title":"上海银行","lon":"121.222242","lat":"31.024298","category":"150","category_name":"银行","address":"上海松江区人民北路其昌路600号"},{"poiid":"B2094654DB6EA1FC479F","title":"上海市松江区疾病预防控制中心(西林北路)","lon":"121.21864","lat":"31.02522","category":"162","category_name":"医院","address":"西林北路1050、1052"},{"poiid":"B2094757D168ABFE439D","title":"方松派出所","lon":"121.218563","lat":"31.025484","category":"609","category_name":"警察局","address":"上海松江西林北路1080号"},{"poiid":"B2094654DB6EA1FC459F","title":"东庭人家","lon":"121.21465","lat":"31.024559","category":"47","category_name":"住宅区","address":"松江其昌路888弄"},{"poiid":"B2094654DB6EA1FC469C","title":"荣鹰小区","lon":"121.21717","lat":"31.024817","category":"47","category_name":"住宅区","address":"西林北路1025弄1-100号"},{"poiid":"B2094654DB64A0FD419D","title":"放生池花园","lon":"121.21286","lat":"31.02198","category":"47","category_name":"住宅区","address":"上海松江南其昌路889弄"},{"poiid":"B2094757D169A2F84299","title":"松江区卫生局","lon":"121.218652","lat":"31.025225","category":"500","category_name":"未知分类","address":"上海松江区西林北路1050号"},{"poiid":"B2094655D36CA2FE469D","title":"其昌路人民北路","lon":"121.22476","lat":"31.02434","category":"38","category_name":"公交车站","address":""},{"poiid":"B2094757D16AA5F9429F","title":"钱塘茶人(松江店)","lon":"121.21676","lat":"31.02271","category":"247","category_name":"餐饮美食","address":"上海近郊松江区南期昌路(近江学路)  "},{"poiid":"B2094654DB64A0FD419E","title":"上海市城市科技学校(东门)","lon":"121.22373","lat":"31.02311","category":"253","category_name":"校园生活","address":"人民北路925"},{"poiid":"B2094757D16AA4F8479A","title":"松江实验幼儿园","lon":"121.225018","lat":"31.024563","category":"57","category_name":"幼儿园","address":"松江区南期昌路458弄49号"},{"poiid":"B2094655D26FABFC419E","title":"放生池花园(北门)","lon":"121.2163","lat":"31.02299","category":"47","category_name":"住宅区","address":"南期昌路889弄168"},{"poiid":"B2094655D268A7FB469C","title":"东庭人家(南一号门)","lon":"121.21616","lat":"31.0237","category":"47","category_name":"住宅区","address":"南期昌路888弄"},{"poiid":"B2094654DB6EA0FE419D","title":"松乐苑","lon":"121.21642","lat":"31.015387","category":"47","category_name":"住宅区","address":"上海市松江区荣乐中路835弄"},{"poiid":"B2094757D068A4FF4898","title":"上海交通大学附属第一人民医院(南部分院)3B","lon":"121.218365467","lat":"31.0286144684","category":"162","category_name":"医院","address":"上海市松江区新松江路650号"},{"poiid":"B2094655D268A5FD4198","title":"江诚苑西北区","lon":"121.22516","lat":"31.02507","category":"47","category_name":"住宅区","address":""},{"poiid":"B2094654DB6EA1FC4598","title":"克丽缇娜松江店","lon":"121.21585","lat":"31.0237","category":"148","category_name":"美容美发店","address":"南其昌路900号"},{"poiid":"B2094757D16AA2FD479A","title":"松江区社会保险事业管理中心","lon":"121.226919985","lat":"31.0171022381","category":"500","category_name":"未知分类","address":"上海市松江区荣乐中路248号"},{"poiid":"B2094654DB6EA1FC4298","title":"好玩宝贝宠物医疗美容中心","lon":"121.22541","lat":"31.02456","category":"162","category_name":"医院","address":"奉贤区南期昌路506-508"},{"poiid":"B2094757D065ABFE4798","title":"上海市松江社会福利院","lon":"121.2234673","lat":"31.0242511","category":"260","category_name":"其他","address":"上海松江区南期昌路 600 号"},{"poiid":"B2094654DB64A0FD4199","title":"大宋足浴","lon":"121.21601","lat":"31.0237","category":"149","category_name":"洗浴推拿场所","address":"南期昌路894-896"},{"poiid":"B2094654DB6EA2FB4598","title":"上海市松江区国家税务局","lon":"121.22527","lat":"31.0311","category":"250","category_name":"公园户外","address":"松江新城区园中路2号"},{"poiid":"B2094654DB6EA1FD4693","title":"民乐学校","lon":"121.22531","lat":"31.01847","category":"54","category_name":"职业技术学校","address":"松江区人民北路439号"}]