[{"poiid":"B2094655D26BA0FD479D","title":"世博洲际酒店","lon":"121.50538","lat":"31.19933","category":"213","category_name":"五星级宾馆","address":"浦东新区雪野路1188号(近南码头路)"},{"poiid":"B2094655D26DA7FA489C","title":"浦南医院","lon":"121.51039","lat":"31.19795","category":"162","category_name":"医院","address":"上海浦东新区浦东南路2400号"},{"poiid":"B2094655D26BA2F5449E","title":"浦东南路浦三路","lon":"121.5112","lat":"31.19872","category":"38","category_name":"公交车站","address":""},{"poiid":"B2094757D06FA2FB459A","title":"艾福敦酒店 (Eiffelton Riverside Hotel Pudong Shanghai)","lon":"121.509251618","lat":"31.2056334725","category":"217","category_name":"旅馆招待所","address":"浦东新区浦明路1888号(近浦建路)"},{"poiid":"B2094757D06FA1F94793","title":"南码头轮渡","lon":"121.50582772","lat":"31.202802396","category":"260","category_name":"其他","address":"上海浦东新区南码头路1号摆渡口"},{"poiid":"B2094757D068A3FB4299","title":"苏先生海鲜渔庄 南浦店","lon":"121.5131","lat":"31.20325","category":"260","category_name":"其他","address":"浦东新区浦东南路2304号(近龙阳路)"},{"poiid":"B2094757D169A6FF459D","title":"世博滨江大道","lon":"121.5105841","lat":"31.196527512","category":"500","category_name":"未知分类","address":"上海世博园区世博大道沿黄浦江边"},{"poiid":"B2094757D06FA7F8409A","title":"肯德基 KFC (浦三店)","lon":"121.511004","lat":"31.198278","category":"68","category_name":"快餐厅","address":"浦东新区浦东南路2551号(近浦三路)"},{"poiid":"B2094655D26EA2F44199","title":"山城烤鱼浦三店","lon":"121.51065","lat":"31.19831","category":"88","category_name":"海鲜酒楼","address":"浦东新区浦东南路浦南医院附近(近临沂路)"},{"poiid":"B2094654DA6AA3FC4593","title":"陌生人火锅餐厅浦三路店","lon":"121.51184","lat":"31.19657","category":"86","category_name":"火锅店","address":"浦东新区浦三路48号(近浦东南路)"},{"poiid":"B2094757D068ABFD4298","title":"南浦广场公园","lon":"121.514124","lat":"31.204002","category":"196","category_name":"公园","address":"浦东新区浦东南路2277号(近龙阳路)"},{"poiid":"B2094757D068ABF8419D","title":"南码头小区","lon":"121.509275732","lat":"31.1982065693","category":"47","category_name":"住宅区","address":"上海浦东南路浦三路"},{"poiid":"B2094757D068A3FC439D","title":"陈记烧烤","lon":"121.51050259","lat":"31.197492468","category":"68","category_name":"快餐厅","address":"浦东新区南码头支路81号(胶南路口)"},{"poiid":"B2094654DA6AA3F84898","title":"风味小吃","lon":"121.50752","lat":"31.20025","category":"68","category_name":"快餐厅","address":"浦东新区浦东南路2386号(近胶南路)"},{"poiid":"B2094757D568A1F44998","title":"盱眙龙虾","lon":"121.510906","lat":"31.197684","category":"68","category_name":"快餐厅","address":"浦东新区浦东南路2384号(浦三路口)"},{"poiid":"B2094753D76AA6FC499B","title":"宝燕壹号(滨江店)","lon":"121.51101","lat":"31.20368","category":"75","category_name":"浙江菜","address":"上海市浦东新区浦明路1999号云天地美食休闲广场内"},{"poiid":"B2094757D069AAFD4699","title":"东江高尔夫","lon":"121.50941473","lat":"31.205573774","category":"500","category_name":"未知分类","address":"上海市南码头路5号"},{"poiid":"B2094757D069AAF5429A","title":"光鸿苑","lon":"121.51543","lat":"31.199341","category":"252","category_name":"楼宇机构","address":"上海市浦东新区临沂路8弄"},{"poiid":"B2094757D569A3FA4198","title":"南码头","lon":"121.511367","lat":"31.205579","category":"201","category_name":"城市广场","address":"浦明路1888"},{"poiid":"B2094757D06EABF54393","title":"布丁酒店(上海世博南浦大桥店)","lon":"121.513055","lat":"31.20313","category":"217","category_name":"旅馆招待所","address":"浦东新区浦东南路2304号(近龙阳路)"},{"poiid":"B2094655D26DA1F44999","title":"东三小区","lon":"121.5102","lat":"31.201494","category":"47","category_name":"住宅区","address":"东三街102弄"},{"poiid":"B2094757D068A7FF459D","title":"临沂一村","lon":"121.513924673","lat":"31.1973909041","category":"47","category_name":"住宅区","address":"上海临沂一村"},{"poiid":"B2094655D26BA0FA499E","title":"阳光摩天城","lon":"121.5130386","lat":"31.2008171","category":"47","category_name":"住宅区","address":"阳光摩天城位于浦东浦东南路2321号(近东三里桥路)"},{"poiid":"B2094655D26DABFA469F","title":"胶南小区(北门)","lon":"121.51058","lat":"31.2006","category":"656","category_name":"大门","address":"东三里桥160、170弄"},{"poiid":"B2094654DA6AA3FC449B","title":"金霖酒家(浦东南路)","lon":"121.5108","lat":"31.19768","category":"76","category_name":"上海菜","address":"浦东新区浦东南路2611号(近浦三路)"},{"poiid":"B2094757D16BA5F4429A","title":"老北京涮羊肉","lon":"121.510728","lat":"31.198508","category":"86","category_name":"火锅店","address":"浦东新区浦东南路2384号(近浦三路)"},{"poiid":"B2094654DA6AA3FC4699","title":"齐爱馆","lon":"121.51199","lat":"31.19627","category":"76","category_name":"上海菜","address":"浦东新区浦三路58号(近临沂路)"},{"poiid":"B2094654DA6AA3F8459D","title":"良友金伴(东三里桥路)","lon":"121.50967","lat":"31.20063","category":"117","category_name":"便民商店/便利店","address":"东三里桥路151-5"},{"poiid":"B2094655D26DABFA4493","title":"东三小区(边门)","lon":"121.50942","lat":"31.20057","category":"47","category_name":"住宅区","address":"东三街102弄"},{"poiid":"B2094654DA6AA3F8459B","title":"南码头小学","lon":"121.50871","lat":"31.19947","category":"56","category_name":"小学","address":"浦东新区东三里桥路16号(东三里桥路胶南路)"},{"poiid":"B2094757D06AA5F54693","title":"胶南小区","lon":"121.51067","lat":"31.199404","category":"252","category_name":"楼宇机构","address":"上海东三里桥路160弄"},{"poiid":"B2094757D06BABFB4193","title":"滨江2250","lon":"121.513661738","lat":"31.2047697577","category":"46","category_name":"楼宇","address":"上海市浦东新区浦东南路"},{"poiid":"B2094757D16AA7FC479D","title":"三两春","lon":"121.511521","lat":"31.197064","category":"68","category_name":"快餐厅","address":"浦东新区浦三路26-1号(近浦东南路)"},{"poiid":"B2094757D568A5FE449E","title":"胶南路烧烤摊","lon":"121.5098869","lat":"31.19931889","category":"87","category_name":"特色／地方风味餐厅","address":"胶南路66号新亚大包附近"},{"poiid":"B2094757D465A5FB4199","title":"方师傅小笼 南码头路店","lon":"121.508044054","lat":"31.199132793","category":"68","category_name":"快餐厅","address":"浦东新区南码头路175号(东三里桥与沂南路间)"},{"poiid":"B2094757D06BA6F5479D","title":"普明面馆(浦三路店)","lon":"121.512127888","lat":"31.1964895064","category":"68","category_name":"快餐厅","address":"浦东新区浦东南路2553号(近浦三路)"},{"poiid":"B2094654DA6AA3F8489B","title":"好德便利No.477","lon":"121.51012","lat":"31.19914","category":"117","category_name":"便民商店/便利店","address":"南码头"},{"poiid":"B2094757D165A3FB429C","title":"福建千里香馄饨","lon":"121.50975","lat":"31.19955","category":"247","category_name":"餐饮美食","address":"上海浦东新区胶南路  "},{"poiid":"B2094654DB69A7F94299","title":"西三小区","lon":"121.50658","lat":"31.200727","category":"47","category_name":"住宅区","address":"浦东新区西三小区"},{"poiid":"B209475CDA6BA6FC4198","title":"倪同学炸猪排","lon":"121.509658","lat":"31.199125","category":"247","category_name":"餐饮美食","address":"上海市 浦东新区南码头胶南路路口"},{"poiid":"B2094757D168A4F9429D","title":"来吧面道","lon":"121.510538","lat":"31.197409","category":"68","category_name":"快餐厅","address":"浦东新区浦东南路2661号(近浦三路)"},{"poiid":"B2094757D064A0F8459B","title":"一一八八 Cafe 1188","lon":"121.505704","lat":"31.2001","category":"247","category_name":"餐饮美食","address":"雪野路1188号世博洲际酒店1楼内近南码头路"},{"poiid":"B2094750D76FA3FC4993","title":"和容轩","lon":"121.511","lat":"31.2056","category":"76","category_name":"上海菜","address":"浦东新区浦明路1888号15号楼3楼(近微山路)"},{"poiid":"B2094655D26BA2F4479F","title":"浦三路浦东南路","lon":"121.51112","lat":"31.19856","category":"38","category_name":"公交车站","address":""},{"poiid":"B2094654DB65A7FB469D","title":"家得利(胶南店)","lon":"121.50893","lat":"31.20037","category":"118","category_name":"超级市场","address":"浦东新区东三里桥路79弄1-6号"},{"poiid":"B2094654DB6AA6FF419F","title":"南码头渡口","lon":"121.50591","lat":"31.20227","category":"34","category_name":"港口码头","address":""},{"poiid":"B2094757D068A2F4479A","title":"南码头社区市民中心","lon":"121.50903","lat":"31.19601","category":"260","category_name":"其他","address":"浦东新区南码头路400号(近浦东南路)"},{"poiid":"B2094655D264A5FF4998","title":"重庆鸡公煲浦三路店","lon":"121.51162","lat":"31.19691","category":"71","category_name":"四川菜","address":"长宁区武夷路340号(近定西路)"},{"poiid":"B2094757D76DA0F4439B","title":"巴赛丽意大利餐厅 Basilico","lon":"121.505704","lat":"31.20014","category":"94","category_name":"西餐厅","address":"浦东新区雪野路1188号世博洲际酒店内(近世博大道)"},{"poiid":"B2094655D268A2F54998","title":"东三里桥路79弄小区(侧门)","lon":"121.50867","lat":"31.20082","category":"47","category_name":"住宅区","address":"东三里桥路79弄"},{"poiid":"B2094655D26BA0FD479D","title":"世博洲际酒店","lon":"121.50538","lat":"31.19933","category":"213","category_name":"五星级宾馆","address":"浦东新区雪野路1188号(近南码头路)"},{"poiid":"B2094655D26DA7FA489C","title":"浦南医院","lon":"121.51039","lat":"31.19795","category":"162","category_name":"医院","address":"上海浦东新区浦东南路2400号"},{"poiid":"B2094655D26BA2F5449E","title":"浦东南路浦三路","lon":"121.5112","lat":"31.19872","category":"38","category_name":"公交车站","address":""},{"poiid":"B2094757D06FA2FB459A","title":"艾福敦酒店 (Eiffelton Riverside Hotel Pudong Shanghai)","lon":"121.509251618","lat":"31.2056334725","category":"217","category_name":"旅馆招待所","address":"浦东新区浦明路1888号(近浦建路)"},{"poiid":"B2094757D06FA1F94793","title":"南码头轮渡","lon":"121.50582772","lat":"31.202802396","category":"260","category_name":"其他","address":"上海浦东新区南码头路1号摆渡口"},{"poiid":"B2094757D068A3FB4299","title":"苏先生海鲜渔庄 南浦店","lon":"121.5131","lat":"31.20325","category":"260","category_name":"其他","address":"浦东新区浦东南路2304号(近龙阳路)"},{"poiid":"B2094757D169A6FF459D","title":"世博滨江大道","lon":"121.5105841","lat":"31.196527512","category":"500","category_name":"未知分类","address":"上海世博园区世博大道沿黄浦江边"},{"poiid":"B2094757D06FA7F8409A","title":"肯德基 KFC (浦三店)","lon":"121.511004","lat":"31.198278","category":"68","category_name":"快餐厅","address":"浦东新区浦东南路2551号(近浦三路)"},{"poiid":"B2094655D26EA2F44199","title":"山城烤鱼浦三店","lon":"121.51065","lat":"31.19831","category":"88","category_name":"海鲜酒楼","address":"浦东新区浦东南路浦南医院附近(近临沂路)"},{"poiid":"B2094654DA6AA3FC4593","title":"陌生人火锅餐厅浦三路店","lon":"121.51184","lat":"31.19657","category":"86","category_name":"火锅店","address":"浦东新区浦三路48号(近浦东南路)"},{"poiid":"B2094757D068ABFD4298","title":"南浦广场公园","lon":"121.514124","lat":"31.204002","category":"196","category_name":"公园","address":"浦东新区浦东南路2277号(近龙阳路)"},{"poiid":"B2094757D068ABF8419D","title":"南码头小区","lon":"121.509275732","lat":"31.1982065693","category":"47","category_name":"住宅区","address":"上海浦东南路浦三路"},{"poiid":"B2094757D068A3FC439D","title":"陈记烧烤","lon":"121.51050259","lat":"31.197492468","category":"68","category_name":"快餐厅","address":"浦东新区南码头支路81号(胶南路口)"},{"poiid":"B2094654DA6AA3F84898","title":"风味小吃","lon":"121.50752","lat":"31.20025","category":"68","category_name":"快餐厅","address":"浦东新区浦东南路2386号(近胶南路)"},{"poiid":"B2094757D568A1F44998","title":"盱眙龙虾","lon":"121.510906","lat":"31.197684","category":"68","category_name":"快餐厅","address":"浦东新区浦东南路2384号(浦三路口)"},{"poiid":"B2094753D76AA6FC499B","title":"宝燕壹号(滨江店)","lon":"121.51101","lat":"31.20368","category":"75","category_name":"浙江菜","address":"上海市浦东新区浦明路1999号云天地美食休闲广场内"},{"poiid":"B2094757D069AAFD4699","title":"东江高尔夫","lon":"121.50941473","lat":"31.205573774","category":"500","category_name":"未知分类","address":"上海市南码头路5号"},{"poiid":"B2094757D069AAF5429A","title":"光鸿苑","lon":"121.51543","lat":"31.199341","category":"252","category_name":"楼宇机构","address":"上海市浦东新区临沂路8弄"},{"poiid":"B2094757D569A3FA4198","title":"南码头","lon":"121.511367","lat":"31.205579","category":"201","category_name":"城市广场","address":"浦明路1888"},{"poiid":"B2094757D06EABF54393","title":"布丁酒店(上海世博南浦大桥店)","lon":"121.513055","lat":"31.20313","category":"217","category_name":"旅馆招待所","address":"浦东新区浦东南路2304号(近龙阳路)"},{"poiid":"B2094655D26DA1F44999","title":"东三小区","lon":"121.5102","lat":"31.201494","category":"47","category_name":"住宅区","address":"东三街102弄"},{"poiid":"B2094757D068A7FF459D","title":"临沂一村","lon":"121.513924673","lat":"31.1973909041","category":"47","category_name":"住宅区","address":"上海临沂一村"},{"poiid":"B2094655D26BA0FA499E","title":"阳光摩天城","lon":"121.5130386","lat":"31.2008171","category":"47","category_name":"住宅区","address":"阳光摩天城位于浦东浦东南路2321号(近东三里桥路)"},{"poiid":"B2094655D26DABFA469F","title":"胶南小区(北门)","lon":"121.51058","lat":"31.2006","category":"656","category_name":"大门","address":"东三里桥160、170弄"},{"poiid":"B2094654DA6AA3FC449B","title":"金霖酒家(浦东南路)","lon":"121.5108","lat":"31.19768","category":"76","category_name":"上海菜","address":"浦东新区浦东南路2611号(近浦三路)"},{"poiid":"B2094757D16BA5F4429A","title":"老北京涮羊肉","lon":"121.510728","lat":"31.198508","category":"86","category_name":"火锅店","address":"浦东新区浦东南路2384号(近浦三路)"},{"poiid":"B2094654DA6AA3FC4699","title":"齐爱馆","lon":"121.51199","lat":"31.19627","category":"76","category_name":"上海菜","address":"浦东新区浦三路58号(近临沂路)"},{"poiid":"B2094654DA6AA3F8459D","title":"良友金伴(东三里桥路)","lon":"121.50967","lat":"31.20063","category":"117","category_name":"便民商店/便利店","address":"东三里桥路151-5"},{"poiid":"B2094655D26DABFA4493","title":"东三小区(边门)","lon":"121.50942","lat":"31.20057","category":"47","category_name":"住宅区","address":"东三街102弄"},{"poiid":"B2094654DA6AA3F8459B","title":"南码头小学","lon":"121.50871","lat":"31.19947","category":"56","category_name":"小学","address":"浦东新区东三里桥路16号(东三里桥路胶南路)"},{"poiid":"B2094757D06AA5F54693","title":"胶南小区","lon":"121.51067","lat":"31.199404","category":"252","category_name":"楼宇机构","address":"上海东三里桥路160弄"},{"poiid":"B2094757D06BABFB4193","title":"滨江2250","lon":"121.513661738","lat":"31.2047697577","category":"46","category_name":"楼宇","address":"上海市浦东新区浦东南路"},{"poiid":"B2094757D16AA7FC479D","title":"三两春","lon":"121.511521","lat":"31.197064","category":"68","category_name":"快餐厅","address":"浦东新区浦三路26-1号(近浦东南路)"},{"poiid":"B2094757D568A5FE449E","title":"胶南路烧烤摊","lon":"121.5098869","lat":"31.19931889","category":"87","category_name":"特色／地方风味餐厅","address":"胶南路66号新亚大包附近"},{"poiid":"B2094757D465A5FB4199","title":"方师傅小笼 南码头路店","lon":"121.508044054","lat":"31.199132793","category":"68","category_name":"快餐厅","address":"浦东新区南码头路175号(东三里桥与沂南路间)"},{"poiid":"B2094757D06BA6F5479D","title":"普明面馆(浦三路店)","lon":"121.512127888","lat":"31.1964895064","category":"68","category_name":"快餐厅","address":"浦东新区浦东南路2553号(近浦三路)"},{"poiid":"B2094654DA6AA3F8489B","title":"好德便利No.477","lon":"121.51012","lat":"31.19914","category":"117","category_name":"便民商店/便利店","address":"南码头"},{"poiid":"B2094757D165A3FB429C","title":"福建千里香馄饨","lon":"121.50975","lat":"31.19955","category":"247","category_name":"餐饮美食","address":"上海浦东新区胶南路  "},{"poiid":"B2094654DB69A7F94299","title":"西三小区","lon":"121.50658","lat":"31.200727","category":"47","category_name":"住宅区","address":"浦东新区西三小区"},{"poiid":"B209475CDA6BA6FC4198","title":"倪同学炸猪排","lon":"121.509658","lat":"31.199125","category":"247","category_name":"餐饮美食","address":"上海市 浦东新区南码头胶南路路口"},{"poiid":"B2094757D168A4F9429D","title":"来吧面道","lon":"121.510538","lat":"31.197409","category":"68","category_name":"快餐厅","address":"浦东新区浦东南路2661号(近浦三路)"},{"poiid":"B2094757D064A0F8459B","title":"一一八八 Cafe 1188","lon":"121.505704","lat":"31.2001","category":"247","category_name":"餐饮美食","address":"雪野路1188号世博洲际酒店1楼内近南码头路"},{"poiid":"B2094750D76FA3FC4993","title":"和容轩","lon":"121.511","lat":"31.2056","category":"76","category_name":"上海菜","address":"浦东新区浦明路1888号15号楼3楼(近微山路)"},{"poiid":"B2094655D26BA2F4479F","title":"浦三路浦东南路","lon":"121.51112","lat":"31.19856","category":"38","category_name":"公交车站","address":""},{"poiid":"B2094654DB65A7FB469D","title":"家得利(胶南店)","lon":"121.50893","lat":"31.20037","category":"118","category_name":"超级市场","address":"浦东新区东三里桥路79弄1-6号"},{"poiid":"B2094654DB6AA6FF419F","title":"南码头渡口","lon":"121.50591","lat":"31.20227","category":"34","category_name":"港口码头","address":""},{"poiid":"B2094757D068A2F4479A","title":"南码头社区市民中心","lon":"121.50903","lat":"31.19601","category":"260","category_name":"其他","address":"浦东新区南码头路400号(近浦东南路)"},{"poiid":"B2094655D264A5FF4998","title":"重庆鸡公煲浦三路店","lon":"121.51162","lat":"31.19691","category":"71","category_name":"四川菜","address":"长宁区武夷路340号(近定西路)"},{"poiid":"B2094757D76DA0F4439B","title":"巴赛丽意大利餐厅 Basilico","lon":"121.505704","lat":"31.20014","category":"94","category_name":"西餐厅","address":"浦东新区雪野路1188号世博洲际酒店内(近世博大道)"},{"poiid":"B2094655D268A2F54998","title":"东三里桥路79弄小区(侧门)","lon":"121.50867","lat":"31.20082","category":"47","category_name":"住宅区","address":"东三里桥路79弄"},{"poiid":"B2094655D26BA0FD479D","title":"世博洲际酒店","lon":"121.50538","lat":"31.19933","category":"213","category_name":"五星级宾馆","address":"浦东新区雪野路1188号(近南码头路)"},{"poiid":"B2094655D26DA7FA489C","title":"浦南医院","lon":"121.51039","lat":"31.19795","category":"162","category_name":"医院","address":"上海浦东新区浦东南路2400号"},{"poiid":"B2094655D26BA2F5449E","title":"浦东南路浦三路","lon":"121.5112","lat":"31.19872","category":"38","category_name":"公交车站","address":""},{"poiid":"B2094757D06FA2FB459A","title":"艾福敦酒店 (Eiffelton Riverside Hotel Pudong Shanghai)","lon":"121.509251618","lat":"31.2056334725","category":"217","category_name":"旅馆招待所","address":"浦东新区浦明路1888号(近浦建路)"},{"poiid":"B2094757D06FA1F94793","title":"南码头轮渡","lon":"121.50582772","lat":"31.202802396","category":"260","category_name":"其他","address":"上海浦东新区南码头路1号摆渡口"},{"poiid":"B2094757D068A3FB4299","title":"苏先生海鲜渔庄 南浦店","lon":"121.5131","lat":"31.20325","category":"260","category_name":"其他","address":"浦东新区浦东南路2304号(近龙阳路)"},{"poiid":"B2094757D169A6FF459D","title":"世博滨江大道","lon":"121.5105841","lat":"31.196527512","category":"500","category_name":"未知分类","address":"上海世博园区世博大道沿黄浦江边"},{"poiid":"B2094757D06FA7F8409A","title":"肯德基 KFC (浦三店)","lon":"121.511004","lat":"31.198278","category":"68","category_name":"快餐厅","address":"浦东新区浦东南路2551号(近浦三路)"},{"poiid":"B2094655D26EA2F44199","title":"山城烤鱼浦三店","lon":"121.51065","lat":"31.19831","category":"88","category_name":"海鲜酒楼","address":"浦东新区浦东南路浦南医院附近(近临沂路)"},{"poiid":"B2094654DA6AA3FC4593","title":"陌生人火锅餐厅浦三路店","lon":"121.51184","lat":"31.19657","category":"86","category_name":"火锅店","address":"浦东新区浦三路48号(近浦东南路)"},{"poiid":"B2094757D068ABFD4298","title":"南浦广场公园","lon":"121.514124","lat":"31.204002","category":"196","category_name":"公园","address":"浦东新区浦东南路2277号(近龙阳路)"},{"poiid":"B2094757D068ABF8419D","title":"南码头小区","lon":"121.509275732","lat":"31.1982065693","category":"47","category_name":"住宅区","address":"上海浦东南路浦三路"},{"poiid":"B2094757D068A3FC439D","title":"陈记烧烤","lon":"121.51050259","lat":"31.197492468","category":"68","category_name":"快餐厅","address":"浦东新区南码头支路81号(胶南路口)"},{"poiid":"B2094654DA6AA3F84898","title":"风味小吃","lon":"121.50752","lat":"31.20025","category":"68","category_name":"快餐厅","address":"浦东新区浦东南路2386号(近胶南路)"},{"poiid":"B2094757D568A1F44998","title":"盱眙龙虾","lon":"121.510906","lat":"31.197684","category":"68","category_name":"快餐厅","address":"浦东新区浦东南路2384号(浦三路口)"},{"poiid":"B2094753D76AA6FC499B","title":"宝燕壹号(滨江店)","lon":"121.51101","lat":"31.20368","category":"75","category_name":"浙江菜","address":"上海市浦东新区浦明路1999号云天地美食休闲广场内"},{"poiid":"B2094757D069AAFD4699","title":"东江高尔夫","lon":"121.50941473","lat":"31.205573774","category":"500","category_name":"未知分类","address":"上海市南码头路5号"},{"poiid":"B2094757D069AAF5429A","title":"光鸿苑","lon":"121.51543","lat":"31.199341","category":"252","category_name":"楼宇机构","address":"上海市浦东新区临沂路8弄"},{"poiid":"B2094757D569A3FA4198","title":"南码头","lon":"121.511367","lat":"31.205579","category":"201","category_name":"城市广场","address":"浦明路1888"},{"poiid":"B2094757D06EABF54393","title":"布丁酒店(上海世博南浦大桥店)","lon":"121.513055","lat":"31.20313","category":"217","category_name":"旅馆招待所","address":"浦东新区浦东南路2304号(近龙阳路)"},{"poiid":"B2094655D26DA1F44999","title":"东三小区","lon":"121.5102","lat":"31.201494","category":"47","category_name":"住宅区","address":"东三街102弄"},{"poiid":"B2094757D068A7FF459D","title":"临沂一村","lon":"121.513924673","lat":"31.1973909041","category":"47","category_name":"住宅区","address":"上海临沂一村"},{"poiid":"B2094655D26BA0FA499E","title":"阳光摩天城","lon":"121.5130386","lat":"31.2008171","category":"47","category_name":"住宅区","address":"阳光摩天城位于浦东浦东南路2321号(近东三里桥路)"},{"poiid":"B2094655D26DABFA469F","title":"胶南小区(北门)","lon":"121.51058","lat":"31.2006","category":"656","category_name":"大门","address":"东三里桥160、170弄"},{"poiid":"B2094654DA6AA3FC449B","title":"金霖酒家(浦东南路)","lon":"121.5108","lat":"31.19768","category":"76","category_name":"上海菜","address":"浦东新区浦东南路2611号(近浦三路)"},{"poiid":"B2094757D16BA5F4429A","title":"老北京涮羊肉","lon":"121.510728","lat":"31.198508","category":"86","category_name":"火锅店","address":"浦东新区浦东南路2384号(近浦三路)"},{"poiid":"B2094654DA6AA3FC4699","title":"齐爱馆","lon":"121.51199","lat":"31.19627","category":"76","category_name":"上海菜","address":"浦东新区浦三路58号(近临沂路)"},{"poiid":"B2094654DA6AA3F8459D","title":"良友金伴(东三里桥路)","lon":"121.50967","lat":"31.20063","category":"117","category_name":"便民商店/便利店","address":"东三里桥路151-5"},{"poiid":"B2094655D26DABFA4493","title":"东三小区(边门)","lon":"121.50942","lat":"31.20057","category":"47","category_name":"住宅区","address":"东三街102弄"},{"poiid":"B2094654DA6AA3F8459B","title":"南码头小学","lon":"121.50871","lat":"31.19947","category":"56","category_name":"小学","address":"浦东新区东三里桥路16号(东三里桥路胶南路)"},{"poiid":"B2094757D06AA5F54693","title":"胶南小区","lon":"121.51067","lat":"31.199404","category":"252","category_name":"楼宇机构","address":"上海东三里桥路160弄"},{"poiid":"B2094757D06BABFB4193","title":"滨江2250","lon":"121.513661738","lat":"31.2047697577","category":"46","category_name":"楼宇","address":"上海市浦东新区浦东南路"},{"poiid":"B2094757D16AA7FC479D","title":"三两春","lon":"121.511521","lat":"31.197064","category":"68","category_name":"快餐厅","address":"浦东新区浦三路26-1号(近浦东南路)"},{"poiid":"B2094757D568A5FE449E","title":"胶南路烧烤摊","lon":"121.5098869","lat":"31.19931889","category":"87","category_name":"特色／地方风味餐厅","address":"胶南路66号新亚大包附近"},{"poiid":"B2094757D465A5FB4199","title":"方师傅小笼 南码头路店","lon":"121.508044054","lat":"31.199132793","category":"68","category_name":"快餐厅","address":"浦东新区南码头路175号(东三里桥与沂南路间)"},{"poiid":"B2094757D06BA6F5479D","title":"普明面馆(浦三路店)","lon":"121.512127888","lat":"31.1964895064","category":"68","category_name":"快餐厅","address":"浦东新区浦东南路2553号(近浦三路)"},{"poiid":"B2094654DA6AA3F8489B","title":"好德便利No.477","lon":"121.51012","lat":"31.19914","category":"117","category_name":"便民商店/便利店","address":"南码头"},{"poiid":"B2094757D165A3FB429C","title":"福建千里香馄饨","lon":"121.50975","lat":"31.19955","category":"247","category_name":"餐饮美食","address":"上海浦东新区胶南路  "},{"poiid":"B2094654DB69A7F94299","title":"西三小区","lon":"121.50658","lat":"31.200727","category":"47","category_name":"住宅区","address":"浦东新区西三小区"},{"poiid":"B209475CDA6BA6FC4198","title":"倪同学炸猪排","lon":"121.509658","lat":"31.199125","category":"247","category_name":"餐饮美食","address":"上海市 浦东新区南码头胶南路路口"},{"poiid":"B2094757D168A4F9429D","title":"来吧面道","lon":"121.510538","lat":"31.197409","category":"68","category_name":"快餐厅","address":"浦东新区浦东南路2661号(近浦三路)"},{"poiid":"B2094757D064A0F8459B","title":"一一八八 Cafe 1188","lon":"121.505704","lat":"31.2001","category":"247","category_name":"餐饮美食","address":"雪野路1188号世博洲际酒店1楼内近南码头路"},{"poiid":"B2094750D76FA3FC4993","title":"和容轩","lon":"121.511","lat":"31.2056","category":"76","category_name":"上海菜","address":"浦东新区浦明路1888号15号楼3楼(近微山路)"},{"poiid":"B2094655D26BA2F4479F","title":"浦三路浦东南路","lon":"121.51112","lat":"31.19856","category":"38","category_name":"公交车站","address":""},{"poiid":"B2094654DB65A7FB469D","title":"家得利(胶南店)","lon":"121.50893","lat":"31.20037","category":"118","category_name":"超级市场","address":"浦东新区东三里桥路79弄1-6号"},{"poiid":"B2094654DB6AA6FF419F","title":"南码头渡口","lon":"121.50591","lat":"31.20227","category":"34","category_name":"港口码头","address":""},{"poiid":"B2094757D068A2F4479A","title":"南码头社区市民中心","lon":"121.50903","lat":"31.19601","category":"260","category_name":"其他","address":"浦东新区南码头路400号(近浦东南路)"},{"poiid":"B2094655D264A5FF4998","title":"重庆鸡公煲浦三路店","lon":"121.51162","lat":"31.19691","category":"71","category_name":"四川菜","address":"长宁区武夷路340号(近定西路)"},{"poiid":"B2094757D76DA0F4439B","title":"巴赛丽意大利餐厅 Basilico","lon":"121.505704","lat":"31.20014","category":"94","category_name":"西餐厅","address":"浦东新区雪野路1188号世博洲际酒店内(近世博大道)"},{"poiid":"B2094655D268A2F54998","title":"东三里桥路79弄小区(侧门)","lon":"121.50867","lat":"31.20082","category":"47","category_name":"住宅区","address":"东三里桥路79弄"},{"poiid":"B2094655D26BA0FD479D","title":"世博洲际酒店","lon":"121.50538","lat":"31.19933","category":"213","category_name":"五星级宾馆","address":"浦东新区雪野路1188号(近南码头路)"},{"poiid":"B2094655D26DA7FA489C","title":"浦南医院","lon":"121.51039","lat":"31.19795","category":"162","category_name":"医院","address":"上海浦东新区浦东南路2400号"},{"poiid":"B2094655D26BA2F5449E","title":"浦东南路浦三路","lon":"121.5112","lat":"31.19872","category":"38","category_name":"公交车站","address":""},{"poiid":"B2094757D06FA2FB459A","title":"艾福敦酒店 (Eiffelton Riverside Hotel Pudong Shanghai)","lon":"121.509251618","lat":"31.2056334725","category":"217","category_name":"旅馆招待所","address":"浦东新区浦明路1888号(近浦建路)"},{"poiid":"B2094757D06FA1F94793","title":"南码头轮渡","lon":"121.50582772","lat":"31.202802396","category":"260","category_name":"其他","address":"上海浦东新区南码头路1号摆渡口"},{"poiid":"B2094757D068A3FB4299","title":"苏先生海鲜渔庄 南浦店","lon":"121.5131","lat":"31.20325","category":"260","category_name":"其他","address":"浦东新区浦东南路2304号(近龙阳路)"},{"poiid":"B2094757D169A6FF459D","title":"世博滨江大道","lon":"121.5105841","lat":"31.196527512","category":"500","category_name":"未知分类","address":"上海世博园区世博大道沿黄浦江边"},{"poiid":"B2094757D06FA7F8409A","title":"肯德基 KFC (浦三店)","lon":"121.511004","lat":"31.198278","category":"68","category_name":"快餐厅","address":"浦东新区浦东南路2551号(近浦三路)"},{"poiid":"B2094655D26EA2F44199","title":"山城烤鱼浦三店","lon":"121.51065","lat":"31.19831","category":"88","category_name":"海鲜酒楼","address":"浦东新区浦东南路浦南医院附近(近临沂路)"},{"poiid":"B2094654DA6AA3FC4593","title":"陌生人火锅餐厅浦三路店","lon":"121.51184","lat":"31.19657","category":"86","category_name":"火锅店","address":"浦东新区浦三路48号(近浦东南路)"},{"poiid":"B2094757D068ABFD4298","title":"南浦广场公园","lon":"121.514124","lat":"31.204002","category":"196","category_name":"公园","address":"浦东新区浦东南路2277号(近龙阳路)"},{"poiid":"B2094757D068ABF8419D","title":"南码头小区","lon":"121.509275732","lat":"31.1982065693","category":"47","category_name":"住宅区","address":"上海浦东南路浦三路"},{"poiid":"B2094757D068A3FC439D","title":"陈记烧烤","lon":"121.51050259","lat":"31.197492468","category":"68","category_name":"快餐厅","address":"浦东新区南码头支路81号(胶南路口)"},{"poiid":"B2094654DA6AA3F84898","title":"风味小吃","lon":"121.50752","lat":"31.20025","category":"68","category_name":"快餐厅","address":"浦东新区浦东南路2386号(近胶南路)"},{"poiid":"B2094757D568A1F44998","title":"盱眙龙虾","lon":"121.510906","lat":"31.197684","category":"68","category_name":"快餐厅","address":"浦东新区浦东南路2384号(浦三路口)"},{"poiid":"B2094753D76AA6FC499B","title":"宝燕壹号(滨江店)","lon":"121.51101","lat":"31.20368","category":"75","category_name":"浙江菜","address":"上海市浦东新区浦明路1999号云天地美食休闲广场内"},{"poiid":"B2094757D069AAFD4699","title":"东江高尔夫","lon":"121.50941473","lat":"31.205573774","category":"500","category_name":"未知分类","address":"上海市南码头路5号"},{"poiid":"B2094757D069AAF5429A","title":"光鸿苑","lon":"121.51543","lat":"31.199341","category":"252","category_name":"楼宇机构","address":"上海市浦东新区临沂路8弄"},{"poiid":"B2094757D569A3FA4198","title":"南码头","lon":"121.511367","lat":"31.205579","category":"201","category_name":"城市广场","address":"浦明路1888"},{"poiid":"B2094757D06EABF54393","title":"布丁酒店(上海世博南浦大桥店)","lon":"121.513055","lat":"31.20313","category":"217","category_name":"旅馆招待所","address":"浦东新区浦东南路2304号(近龙阳路)"},{"poiid":"B2094655D26DA1F44999","title":"东三小区","lon":"121.5102","lat":"31.201494","category":"47","category_name":"住宅区","address":"东三街102弄"},{"poiid":"B2094757D068A7FF459D","title":"临沂一村","lon":"121.513924673","lat":"31.1973909041","category":"47","category_name":"住宅区","address":"上海临沂一村"},{"poiid":"B2094655D26BA0FA499E","title":"阳光摩天城","lon":"121.5130386","lat":"31.2008171","category":"47","category_name":"住宅区","address":"阳光摩天城位于浦东浦东南路2321号(近东三里桥路)"},{"poiid":"B2094655D26DABFA469F","title":"胶南小区(北门)","lon":"121.51058","lat":"31.2006","category":"656","category_name":"大门","address":"东三里桥160、170弄"},{"poiid":"B2094654DA6AA3FC449B","title":"金霖酒家(浦东南路)","lon":"121.5108","lat":"31.19768","category":"76","category_name":"上海菜","address":"浦东新区浦东南路2611号(近浦三路)"},{"poiid":"B2094757D16BA5F4429A","title":"老北京涮羊肉","lon":"121.510728","lat":"31.198508","category":"86","category_name":"火锅店","address":"浦东新区浦东南路2384号(近浦三路)"},{"poiid":"B2094654DA6AA3FC4699","title":"齐爱馆","lon":"121.51199","lat":"31.19627","category":"76","category_name":"上海菜","address":"浦东新区浦三路58号(近临沂路)"},{"poiid":"B2094654DA6AA3F8459D","title":"良友金伴(东三里桥路)","lon":"121.50967","lat":"31.20063","category":"117","category_name":"便民商店/便利店","address":"东三里桥路151-5"},{"poiid":"B2094655D26DABFA4493","title":"东三小区(边门)","lon":"121.50942","lat":"31.20057","category":"47","category_name":"住宅区","address":"东三街102弄"},{"poiid":"B2094654DA6AA3F8459B","title":"南码头小学","lon":"121.50871","lat":"31.19947","category":"56","category_name":"小学","address":"浦东新区东三里桥路16号(东三里桥路胶南路)"},{"poiid":"B2094757D06AA5F54693","title":"胶南小区","lon":"121.51067","lat":"31.199404","category":"252","category_name":"楼宇机构","address":"上海东三里桥路160弄"},{"poiid":"B2094757D06BABFB4193","title":"滨江2250","lon":"121.513661738","lat":"31.2047697577","category":"46","category_name":"楼宇","address":"上海市浦东新区浦东南路"},{"poiid":"B2094757D16AA7FC479D","title":"三两春","lon":"121.511521","lat":"31.197064","category":"68","category_name":"快餐厅","address":"浦东新区浦三路26-1号(近浦东南路)"},{"poiid":"B2094757D568A5FE449E","title":"胶南路烧烤摊","lon":"121.5098869","lat":"31.19931889","category":"87","category_name":"特色／地方风味餐厅","address":"胶南路66号新亚大包附近"},{"poiid":"B2094757D465A5FB4199","title":"方师傅小笼 南码头路店","lon":"121.508044054","lat":"31.199132793","category":"68","category_name":"快餐厅","address":"浦东新区南码头路175号(东三里桥与沂南路间)"},{"poiid":"B2094757D06BA6F5479D","title":"普明面馆(浦三路店)","lon":"121.512127888","lat":"31.1964895064","category":"68","category_name":"快餐厅","address":"浦东新区浦东南路2553号(近浦三路)"},{"poiid":"B2094654DA6AA3F8489B","title":"好德便利No.477","lon":"121.51012","lat":"31.19914","category":"117","category_name":"便民商店/便利店","address":"南码头"},{"poiid":"B2094757D165A3FB429C","title":"福建千里香馄饨","lon":"121.50975","lat":"31.19955","category":"247","category_name":"餐饮美食","address":"上海浦东新区胶南路  "},{"poiid":"B2094654DB69A7F94299","title":"西三小区","lon":"121.50658","lat":"31.200727","category":"47","category_name":"住宅区","address":"浦东新区西三小区"},{"poiid":"B209475CDA6BA6FC4198","title":"倪同学炸猪排","lon":"121.509658","lat":"31.199125","category":"247","category_name":"餐饮美食","address":"上海市 浦东新区南码头胶南路路口"},{"poiid":"B2094757D168A4F9429D","title":"来吧面道","lon":"121.510538","lat":"31.197409","category":"68","category_name":"快餐厅","address":"浦东新区浦东南路2661号(近浦三路)"},{"poiid":"B2094757D064A0F8459B","title":"一一八八 Cafe 1188","lon":"121.505704","lat":"31.2001","category":"247","category_name":"餐饮美食","address":"雪野路1188号世博洲际酒店1楼内近南码头路"},{"poiid":"B2094750D76FA3FC4993","title":"和容轩","lon":"121.511","lat":"31.2056","category":"76","category_name":"上海菜","address":"浦东新区浦明路1888号15号楼3楼(近微山路)"},{"poiid":"B2094655D26BA2F4479F","title":"浦三路浦东南路","lon":"121.51112","lat":"31.19856","category":"38","category_name":"公交车站","address":""},{"poiid":"B2094654DB65A7FB469D","title":"家得利(胶南店)","lon":"121.50893","lat":"31.20037","category":"118","category_name":"超级市场","address":"浦东新区东三里桥路79弄1-6号"},{"poiid":"B2094654DB6AA6FF419F","title":"南码头渡口","lon":"121.50591","lat":"31.20227","category":"34","category_name":"港口码头","address":""},{"poiid":"B2094757D068A2F4479A","title":"南码头社区市民中心","lon":"121.50903","lat":"31.19601","category":"260","category_name":"其他","address":"浦东新区南码头路400号(近浦东南路)"},{"poiid":"B2094655D264A5FF4998","title":"重庆鸡公煲浦三路店","lon":"121.51162","lat":"31.19691","category":"71","category_name":"四川菜","address":"长宁区武夷路340号(近定西路)"},{"poiid":"B2094757D76DA0F4439B","title":"巴赛丽意大利餐厅 Basilico","lon":"121.505704","lat":"31.20014","category":"94","category_name":"西餐厅","address":"浦东新区雪野路1188号世博洲际酒店内(近世博大道)"},{"poiid":"B2094655D268A2F54998","title":"东三里桥路79弄小区(侧门)","lon":"121.50867","lat":"31.20082","category":"47","category_name":"住宅区","address":"东三里桥路79弄"}]