[{"poiid":"B2094757D06AA1F54392","title":"蓝宫大饭店","lon":"121.26272","lat":"31.376016","category":"247","category_name":"餐饮美食","address":"上海市嘉定区博乐南路125号"},{"poiid":"B2094757D069A2FF499C","title":"上海绿地万怡酒店","lon":"121.25815765","lat":"31.368406855","category":"214","category_name":"四星级宾馆","address":"嘉定区沪宜公路3101号(近叶城路)"},{"poiid":"B2094654D469A4FD429E","title":"嘉定紫藤园","lon":"121.25816","lat":"31.37908","category":"196","category_name":"公园","address":"博乐路45"},{"poiid":"B2094757D06AA6F4439C","title":"仓场路","lon":"121.26558865","lat":"31.381247117","category":"500","category_name":"未知分类","address":"上海市嘉定区仓场路"},{"poiid":"B2094757D06FA0FC4298","title":"乐购(嘉定店)","lon":"121.2542","lat":"31.37347","category":"118","category_name":"超级市场","address":"嘉定区城中路2号(沪宜公路口)"},{"poiid":"B2094757D06FAAF4469E","title":"嘉定区人民政府","lon":"121.26968967","lat":"31.37477983","category":"252","category_name":"楼宇机构","address":"上海嘉定区博乐南路111号"},{"poiid":"B2094655D26FAAF4499E","title":"麦当劳沪宜餐厅","lon":"121.25702","lat":"31.37002","category":"68","category_name":"快餐厅","address":"嘉定区沪宜公路沪宜路3145号(近永乐生活)"},{"poiid":"B2094751D268A5FA469B","title":"星巴克(嘉定罗宾森店)","lon":"121.2653","lat":"31.375602","category":"65","category_name":"咖啡厅","address":"上海市嘉定区嘉定镇城中路138号罗宾森购物广场一楼"},{"poiid":"B2094757D06FA4FB489A","title":"S5沪嘉高速嘉定城区收费站","lon":"121.26694911","lat":"31.3694721994","category":"267","category_name":"收费站","address":"上海嘉定区S5沪嘉高速嘉定城区收费站"},{"poiid":"B2094757D06FA4FC4493","title":"嘉定区汽车客运中心","lon":"121.25516","lat":"31.37235","category":"38","category_name":"公交车站","address":"上海近郊嘉定区沪宜公路3205号(近群裕路)  "},{"poiid":"B2094751D564A0FD419A","title":"随意门","lon":"121.260361","lat":"31.367538","category":"248","category_name":"生活娱乐","address":"沪宜公路3128号"},{"poiid":"B2094757D068A1F5479E","title":"嘉定区投资服务和办证办照中心","lon":"121.26584177","lat":"31.371860156","category":"260","category_name":"其他","address":"上海嘉戬公路118号"},{"poiid":"B2094757D064A3F5419E","title":"老盛昌汤包馆","lon":"121.267241653","lat":"31.3812336176","category":"247","category_name":"餐饮美食","address":"上海仓城路店"},{"poiid":"B2094757D06AA3FD479C","title":"七欣天迷宗蟹","lon":"121.25685915","lat":"31.380669106","category":"86","category_name":"火锅店","address":"嘉定区博乐路85号(近中信银行)"},{"poiid":"B2094757D66CA4FD4699","title":"嘉定区房地产交易中心","lon":"121.26717965","lat":"31.373643962","category":"500","category_name":"未知分类","address":"上海市嘉定区博乐南路"},{"poiid":"B2094757D66DABFD4999","title":"新石器烤肉•石锅拌饭(嘉定店)","lon":"121.254447853","lat":"31.3721040713","category":"68","category_name":"快餐厅","address":"嘉定区城中路2号嘉定乐购购物广场1楼"},{"poiid":"B2094654D469A4FA4199","title":"上海汽车工业活动中心","lon":"121.26267","lat":"31.37614","category":"45","category_name":"产业园区","address":"博乐南路125"},{"poiid":"B2094654D469A5F5419C","title":"快乐鸟盱眙十三香龙虾","lon":"121.26595","lat":"31.38135","category":"257","category_name":"中餐厅","address":"嘉定区仓场路2758号(近迎园路)"},{"poiid":"B2094757D065A7FA469A","title":"今夜酒吧","lon":"121.258167","lat":"31.37908","category":"260","category_name":"其他","address":"嘉定区博乐路45号紫藤园内(近金沙路)"},{"poiid":"B2094757D16DA3F4439A","title":"大宋足浴(嘉定店)","lon":"121.26133316","lat":"31.375959509","category":"149","category_name":"洗浴推拿场所","address":"上海近郊嘉定区博乐南路158号泰宸商务楼2楼(近宝嘉路)  "},{"poiid":"B2094757D06AAAF5439B","title":"嘉定社保基金管理中心","lon":"121.257152","lat":"31.37966","category":"252","category_name":"楼宇机构","address":"上海嘉定区博乐路69号"},{"poiid":"B2094750D76DA0FF429B","title":"蓝宫大酒店宴会厅","lon":"121.263","lat":"31.3761","category":"76","category_name":"上海菜","address":"嘉定区博乐南路125号(博乐南路墅沟路)"},{"poiid":"B2094757D16FA4FA489C","title":"吴姑娘特色煲(仓场店)","lon":"121.265738653","lat":"31.3821161356","category":"76","category_name":"上海菜","address":"嘉定区仓场路2871号(近迎园路)"},{"poiid":"B2094757D16CAAFD4792","title":"上海汽车变速器有限公司","lon":"121.259014","lat":"31.37632","category":"46","category_name":"楼宇","address":"上海嘉定区疁南街105号"},{"poiid":"B2094757D66BA3FA4799","title":"张太和爊鸭 仓场路店","lon":"121.266739054","lat":"31.381288793","category":"68","category_name":"快餐厅","address":"嘉定区仓场路2879号(仓场路迎园路)"},{"poiid":"B2094654DB6AA6F44299","title":"南苑新世纪公寓","lon":"121.25969667426","lat":"31.375707224604","category":"47","category_name":"住宅区","address":"裕民路1190弄"},{"poiid":"B2094655D268A4FA489A","title":"民乐路100弄","lon":"121.262","lat":"31.3745","category":"47","category_name":"住宅区","address":"民乐路100弄"},{"poiid":"B2094757D069AAFC489C","title":"德克士(嘉定店)","lon":"121.25402","lat":"31.37342","category":"68","category_name":"快餐厅","address":"嘉定区城中路2号乐购1楼(沪宜公路城中路)"},{"poiid":"B2094655D264A5F54499","title":"麦当劳嘉定南门店","lon":"121.25497","lat":"31.37246","category":"68","category_name":"快餐厅","address":"沪宜公路3205号"},{"poiid":"B2094655D26EAAFB419C","title":"常磐居","lon":"121.26267","lat":"31.37614","category":"247","category_name":"餐饮美食","address":"嘉定区蓝宫大饭店博乐南路125号"},{"poiid":"B209475CD66BA1F54899","title":"韩天衡美术馆","lon":"121.260765","lat":"31.376579","category":"184","category_name":"美术馆","address":"上海市嘉定区博乐路70号"},{"poiid":"B2094655D268A0F54099","title":"嘉城商务","lon":"121.26406","lat":"31.37661","category":"46","category_name":"楼宇","address":"墅沟路1915"},{"poiid":"B2094655D26BA5FD4698","title":"墅沟路888弄","lon":"121.2634","lat":"31.37764","category":"47","category_name":"住宅区","address":"上海市嘉定区墅沟路888号"},{"poiid":"B2094654D469A4FA409A","title":"上海市工商行政管理局嘉定分局","lon":"121.26662","lat":"31.37708","category":"250","category_name":"公园户外","address":"迎园路955"},{"poiid":"B2094750D665A1FC449E","title":"万泓公馆","lon":"121.259","lat":"31.3682","category":"72","category_name":"广东菜","address":"嘉定区沪宜公路3099号嘉创国际大厦4楼(近叶城路)"},{"poiid":"B2094654D469A5FD449B","title":"爱里舍花园","lon":"121.26358","lat":"31.37017","category":"47","category_name":"住宅区","address":"戬浜镇"},{"poiid":"B2094757D464A5FF429E","title":"七宝老街汤圆店","lon":"121.265256","lat":"31.37562","category":"76","category_name":"上海菜","address":"嘉定镇州桥老街"},{"poiid":"B2094655D36CA5FE489F","title":"齿轮厂","lon":"121.26003","lat":"31.37581","category":"38","category_name":"公交车站","address":""},{"poiid":"B2094757D16FA7FF4098","title":"大众变速器有限公司","lon":"121.262721233","lat":"31.373864687","category":"263","category_name":"公司","address":"上海市博乐南路100号"},{"poiid":"B2094655D26BABFC449B","title":"铭记烧烤麻辣烫","lon":"121.2638","lat":"31.38099","category":"68","category_name":"快餐厅","address":"嘉定区仓场路2899号(仓场路嘉定迎宾路)"},{"poiid":"B2094654D469A4FE449C","title":"上海外国语大学嘉定外国语实验学校","lon":"121.25979","lat":"31.38351","category":"52","category_name":"高等院校","address":"嘉定区金沙路168号(近欧尚超市)"},{"poiid":"B2094757D065A6FB4193","title":"珍品(嘉罗公路店)","lon":"121.26207","lat":"31.38376","category":"76","category_name":"上海菜","address":"嘉定区嘉罗公路453号(宝嘉公路迎园中路)"},{"poiid":"B2094654DB6AA5FD439E","title":"沈坚强游泳俱乐部","lon":"121.27068","lat":"31.37664","category":"231","category_name":"游泳馆","address":"新成路118"},{"poiid":"B2094655D268A4FE409E","title":"嘉华山庄(东门)","lon":"121.26184","lat":"31.3791","category":"47","category_name":"住宅区","address":"嘉罗公路351号"},{"poiid":"B2094757D16FAAFC4593","title":"嘉定区","lon":"121.266920054","lat":"31.3760325184","category":"250","category_name":"公园户外","address":"上海嘉定区区域"},{"poiid":"B2094751D46BA6F8489D","title":"嘉定海关","lon":"121.260846","lat":"31.376448","category":"617","category_name":"政府机构","address":"嘉定区嘉罗公路221号"},{"poiid":"B2094750D76FA1FD4898","title":"伊诺咖啡(博乐南路店)","lon":"121.265","lat":"31.3733","category":"260","category_name":"其他","address":"嘉定区博乐南路"},{"poiid":"B2094654D469A4F94993","title":"迎园中学","lon":"121.26667","lat":"31.3782","category":"55","category_name":"中学","address":"上海嘉定区新成路街道墅沟路600号"},{"poiid":"B2094757D16CA0FE469E","title":"阿娥汤圆店(金沙路店)","lon":"121.25817","lat":"31.3831844","category":"68","category_name":"快餐厅","address":"嘉定区金沙路(近仓场路)"},{"poiid":"B2094655D268A4FF429E","title":"嘉源","lon":"121.26917","lat":"31.37747","category":"47","category_name":"住宅区","address":"新成路129弄"},{"poiid":"B2094757D06AA1F54392","title":"蓝宫大饭店","lon":"121.26272","lat":"31.376016","category":"247","category_name":"餐饮美食","address":"上海市嘉定区博乐南路125号"},{"poiid":"B2094757D069A2FF499C","title":"上海绿地万怡酒店","lon":"121.25815765","lat":"31.368406855","category":"214","category_name":"四星级宾馆","address":"嘉定区沪宜公路3101号(近叶城路)"},{"poiid":"B2094654D469A4FD429E","title":"嘉定紫藤园","lon":"121.25816","lat":"31.37908","category":"196","category_name":"公园","address":"博乐路45"},{"poiid":"B2094757D06AA6F4439C","title":"仓场路","lon":"121.26558865","lat":"31.381247117","category":"500","category_name":"未知分类","address":"上海市嘉定区仓场路"},{"poiid":"B2094757D06FA0FC4298","title":"乐购(嘉定店)","lon":"121.2542","lat":"31.37347","category":"118","category_name":"超级市场","address":"嘉定区城中路2号(沪宜公路口)"},{"poiid":"B2094757D06FAAF4469E","title":"嘉定区人民政府","lon":"121.26968967","lat":"31.37477983","category":"252","category_name":"楼宇机构","address":"上海嘉定区博乐南路111号"},{"poiid":"B2094655D26FAAF4499E","title":"麦当劳沪宜餐厅","lon":"121.25702","lat":"31.37002","category":"68","category_name":"快餐厅","address":"嘉定区沪宜公路沪宜路3145号(近永乐生活)"},{"poiid":"B2094751D268A5FA469B","title":"星巴克(嘉定罗宾森店)","lon":"121.2653","lat":"31.375602","category":"65","category_name":"咖啡厅","address":"上海市嘉定区嘉定镇城中路138号罗宾森购物广场一楼"},{"poiid":"B2094757D06FA4FB489A","title":"S5沪嘉高速嘉定城区收费站","lon":"121.26694911","lat":"31.3694721994","category":"267","category_name":"收费站","address":"上海嘉定区S5沪嘉高速嘉定城区收费站"},{"poiid":"B2094757D06FA4FC4493","title":"嘉定区汽车客运中心","lon":"121.25516","lat":"31.37235","category":"38","category_name":"公交车站","address":"上海近郊嘉定区沪宜公路3205号(近群裕路)  "},{"poiid":"B2094751D564A0FD419A","title":"随意门","lon":"121.260361","lat":"31.367538","category":"248","category_name":"生活娱乐","address":"沪宜公路3128号"},{"poiid":"B2094757D068A1F5479E","title":"嘉定区投资服务和办证办照中心","lon":"121.26584177","lat":"31.371860156","category":"260","category_name":"其他","address":"上海嘉戬公路118号"},{"poiid":"B2094757D064A3F5419E","title":"老盛昌汤包馆","lon":"121.267241653","lat":"31.3812336176","category":"247","category_name":"餐饮美食","address":"上海仓城路店"},{"poiid":"B2094757D06AA3FD479C","title":"七欣天迷宗蟹","lon":"121.25685915","lat":"31.380669106","category":"86","category_name":"火锅店","address":"嘉定区博乐路85号(近中信银行)"},{"poiid":"B2094757D66CA4FD4699","title":"嘉定区房地产交易中心","lon":"121.26717965","lat":"31.373643962","category":"500","category_name":"未知分类","address":"上海市嘉定区博乐南路"},{"poiid":"B2094757D66DABFD4999","title":"新石器烤肉•石锅拌饭(嘉定店)","lon":"121.254447853","lat":"31.3721040713","category":"68","category_name":"快餐厅","address":"嘉定区城中路2号嘉定乐购购物广场1楼"},{"poiid":"B2094654D469A4FA4199","title":"上海汽车工业活动中心","lon":"121.26267","lat":"31.37614","category":"45","category_name":"产业园区","address":"博乐南路125"},{"poiid":"B2094654D469A5F5419C","title":"快乐鸟盱眙十三香龙虾","lon":"121.26595","lat":"31.38135","category":"257","category_name":"中餐厅","address":"嘉定区仓场路2758号(近迎园路)"},{"poiid":"B2094757D065A7FA469A","title":"今夜酒吧","lon":"121.258167","lat":"31.37908","category":"260","category_name":"其他","address":"嘉定区博乐路45号紫藤园内(近金沙路)"},{"poiid":"B2094757D16DA3F4439A","title":"大宋足浴(嘉定店)","lon":"121.26133316","lat":"31.375959509","category":"149","category_name":"洗浴推拿场所","address":"上海近郊嘉定区博乐南路158号泰宸商务楼2楼(近宝嘉路)  "},{"poiid":"B2094757D06AAAF5439B","title":"嘉定社保基金管理中心","lon":"121.257152","lat":"31.37966","category":"252","category_name":"楼宇机构","address":"上海嘉定区博乐路69号"},{"poiid":"B2094750D76DA0FF429B","title":"蓝宫大酒店宴会厅","lon":"121.263","lat":"31.3761","category":"76","category_name":"上海菜","address":"嘉定区博乐南路125号(博乐南路墅沟路)"},{"poiid":"B2094757D16FA4FA489C","title":"吴姑娘特色煲(仓场店)","lon":"121.265738653","lat":"31.3821161356","category":"76","category_name":"上海菜","address":"嘉定区仓场路2871号(近迎园路)"},{"poiid":"B2094757D16CAAFD4792","title":"上海汽车变速器有限公司","lon":"121.259014","lat":"31.37632","category":"46","category_name":"楼宇","address":"上海嘉定区疁南街105号"},{"poiid":"B2094757D66BA3FA4799","title":"张太和爊鸭 仓场路店","lon":"121.266739054","lat":"31.381288793","category":"68","category_name":"快餐厅","address":"嘉定区仓场路2879号(仓场路迎园路)"},{"poiid":"B2094654DB6AA6F44299","title":"南苑新世纪公寓","lon":"121.25969667426","lat":"31.375707224604","category":"47","category_name":"住宅区","address":"裕民路1190弄"},{"poiid":"B2094655D268A4FA489A","title":"民乐路100弄","lon":"121.262","lat":"31.3745","category":"47","category_name":"住宅区","address":"民乐路100弄"},{"poiid":"B2094757D069AAFC489C","title":"德克士(嘉定店)","lon":"121.25402","lat":"31.37342","category":"68","category_name":"快餐厅","address":"嘉定区城中路2号乐购1楼(沪宜公路城中路)"},{"poiid":"B2094655D264A5F54499","title":"麦当劳嘉定南门店","lon":"121.25497","lat":"31.37246","category":"68","category_name":"快餐厅","address":"沪宜公路3205号"},{"poiid":"B2094655D26EAAFB419C","title":"常磐居","lon":"121.26267","lat":"31.37614","category":"247","category_name":"餐饮美食","address":"嘉定区蓝宫大饭店博乐南路125号"},{"poiid":"B209475CD66BA1F54899","title":"韩天衡美术馆","lon":"121.260765","lat":"31.376579","category":"184","category_name":"美术馆","address":"上海市嘉定区博乐路70号"},{"poiid":"B2094655D268A0F54099","title":"嘉城商务","lon":"121.26406","lat":"31.37661","category":"46","category_name":"楼宇","address":"墅沟路1915"},{"poiid":"B2094655D26BA5FD4698","title":"墅沟路888弄","lon":"121.2634","lat":"31.37764","category":"47","category_name":"住宅区","address":"上海市嘉定区墅沟路888号"},{"poiid":"B2094654D469A4FA409A","title":"上海市工商行政管理局嘉定分局","lon":"121.26662","lat":"31.37708","category":"250","category_name":"公园户外","address":"迎园路955"},{"poiid":"B2094750D665A1FC449E","title":"万泓公馆","lon":"121.259","lat":"31.3682","category":"72","category_name":"广东菜","address":"嘉定区沪宜公路3099号嘉创国际大厦4楼(近叶城路)"},{"poiid":"B2094654D469A5FD449B","title":"爱里舍花园","lon":"121.26358","lat":"31.37017","category":"47","category_name":"住宅区","address":"戬浜镇"},{"poiid":"B2094757D464A5FF429E","title":"七宝老街汤圆店","lon":"121.265256","lat":"31.37562","category":"76","category_name":"上海菜","address":"嘉定镇州桥老街"},{"poiid":"B2094655D36CA5FE489F","title":"齿轮厂","lon":"121.26003","lat":"31.37581","category":"38","category_name":"公交车站","address":""},{"poiid":"B2094757D16FA7FF4098","title":"大众变速器有限公司","lon":"121.262721233","lat":"31.373864687","category":"263","category_name":"公司","address":"上海市博乐南路100号"},{"poiid":"B2094655D26BABFC449B","title":"铭记烧烤麻辣烫","lon":"121.2638","lat":"31.38099","category":"68","category_name":"快餐厅","address":"嘉定区仓场路2899号(仓场路嘉定迎宾路)"},{"poiid":"B2094654D469A4FE449C","title":"上海外国语大学嘉定外国语实验学校","lon":"121.25979","lat":"31.38351","category":"52","category_name":"高等院校","address":"嘉定区金沙路168号(近欧尚超市)"},{"poiid":"B2094757D065A6FB4193","title":"珍品(嘉罗公路店)","lon":"121.26207","lat":"31.38376","category":"76","category_name":"上海菜","address":"嘉定区嘉罗公路453号(宝嘉公路迎园中路)"},{"poiid":"B2094654DB6AA5FD439E","title":"沈坚强游泳俱乐部","lon":"121.27068","lat":"31.37664","category":"231","category_name":"游泳馆","address":"新成路118"},{"poiid":"B2094655D268A4FE409E","title":"嘉华山庄(东门)","lon":"121.26184","lat":"31.3791","category":"47","category_name":"住宅区","address":"嘉罗公路351号"},{"poiid":"B2094757D16FAAFC4593","title":"嘉定区","lon":"121.266920054","lat":"31.3760325184","category":"250","category_name":"公园户外","address":"上海嘉定区区域"},{"poiid":"B2094751D46BA6F8489D","title":"嘉定海关","lon":"121.260846","lat":"31.376448","category":"617","category_name":"政府机构","address":"嘉定区嘉罗公路221号"},{"poiid":"B2094750D76FA1FD4898","title":"伊诺咖啡(博乐南路店)","lon":"121.265","lat":"31.3733","category":"260","category_name":"其他","address":"嘉定区博乐南路"},{"poiid":"B2094654D469A4F94993","title":"迎园中学","lon":"121.26667","lat":"31.3782","category":"55","category_name":"中学","address":"上海嘉定区新成路街道墅沟路600号"},{"poiid":"B2094757D16CA0FE469E","title":"阿娥汤圆店(金沙路店)","lon":"121.25817","lat":"31.3831844","category":"68","category_name":"快餐厅","address":"嘉定区金沙路(近仓场路)"},{"poiid":"B2094655D268A4FF429E","title":"嘉源","lon":"121.26917","lat":"31.37747","category":"47","category_name":"住宅区","address":"新成路129弄"},{"poiid":"B2094757D06AA1F54392","title":"蓝宫大饭店","lon":"121.26272","lat":"31.376016","category":"247","category_name":"餐饮美食","address":"上海市嘉定区博乐南路125号"},{"poiid":"B2094757D069A2FF499C","title":"上海绿地万怡酒店","lon":"121.25815765","lat":"31.368406855","category":"214","category_name":"四星级宾馆","address":"嘉定区沪宜公路3101号(近叶城路)"},{"poiid":"B2094654D469A4FD429E","title":"嘉定紫藤园","lon":"121.25816","lat":"31.37908","category":"196","category_name":"公园","address":"博乐路45"},{"poiid":"B2094757D06AA6F4439C","title":"仓场路","lon":"121.26558865","lat":"31.381247117","category":"500","category_name":"未知分类","address":"上海市嘉定区仓场路"},{"poiid":"B2094757D06FA0FC4298","title":"乐购(嘉定店)","lon":"121.2542","lat":"31.37347","category":"118","category_name":"超级市场","address":"嘉定区城中路2号(沪宜公路口)"},{"poiid":"B2094757D06FAAF4469E","title":"嘉定区人民政府","lon":"121.26968967","lat":"31.37477983","category":"252","category_name":"楼宇机构","address":"上海嘉定区博乐南路111号"},{"poiid":"B2094655D26FAAF4499E","title":"麦当劳沪宜餐厅","lon":"121.25702","lat":"31.37002","category":"68","category_name":"快餐厅","address":"嘉定区沪宜公路沪宜路3145号(近永乐生活)"},{"poiid":"B2094751D268A5FA469B","title":"星巴克(嘉定罗宾森店)","lon":"121.2653","lat":"31.375602","category":"65","category_name":"咖啡厅","address":"上海市嘉定区嘉定镇城中路138号罗宾森购物广场一楼"},{"poiid":"B2094757D06FA4FB489A","title":"S5沪嘉高速嘉定城区收费站","lon":"121.26694911","lat":"31.3694721994","category":"267","category_name":"收费站","address":"上海嘉定区S5沪嘉高速嘉定城区收费站"},{"poiid":"B2094757D06FA4FC4493","title":"嘉定区汽车客运中心","lon":"121.25516","lat":"31.37235","category":"38","category_name":"公交车站","address":"上海近郊嘉定区沪宜公路3205号(近群裕路)  "},{"poiid":"B2094751D564A0FD419A","title":"随意门","lon":"121.260361","lat":"31.367538","category":"248","category_name":"生活娱乐","address":"沪宜公路3128号"},{"poiid":"B2094757D068A1F5479E","title":"嘉定区投资服务和办证办照中心","lon":"121.26584177","lat":"31.371860156","category":"260","category_name":"其他","address":"上海嘉戬公路118号"},{"poiid":"B2094757D064A3F5419E","title":"老盛昌汤包馆","lon":"121.267241653","lat":"31.3812336176","category":"247","category_name":"餐饮美食","address":"上海仓城路店"},{"poiid":"B2094757D06AA3FD479C","title":"七欣天迷宗蟹","lon":"121.25685915","lat":"31.380669106","category":"86","category_name":"火锅店","address":"嘉定区博乐路85号(近中信银行)"},{"poiid":"B2094757D66CA4FD4699","title":"嘉定区房地产交易中心","lon":"121.26717965","lat":"31.373643962","category":"500","category_name":"未知分类","address":"上海市嘉定区博乐南路"},{"poiid":"B2094757D66DABFD4999","title":"新石器烤肉•石锅拌饭(嘉定店)","lon":"121.254447853","lat":"31.3721040713","category":"68","category_name":"快餐厅","address":"嘉定区城中路2号嘉定乐购购物广场1楼"},{"poiid":"B2094654D469A4FA4199","title":"上海汽车工业活动中心","lon":"121.26267","lat":"31.37614","category":"45","category_name":"产业园区","address":"博乐南路125"},{"poiid":"B2094654D469A5F5419C","title":"快乐鸟盱眙十三香龙虾","lon":"121.26595","lat":"31.38135","category":"257","category_name":"中餐厅","address":"嘉定区仓场路2758号(近迎园路)"},{"poiid":"B2094757D065A7FA469A","title":"今夜酒吧","lon":"121.258167","lat":"31.37908","category":"260","category_name":"其他","address":"嘉定区博乐路45号紫藤园内(近金沙路)"},{"poiid":"B2094757D16DA3F4439A","title":"大宋足浴(嘉定店)","lon":"121.26133316","lat":"31.375959509","category":"149","category_name":"洗浴推拿场所","address":"上海近郊嘉定区博乐南路158号泰宸商务楼2楼(近宝嘉路)  "},{"poiid":"B2094757D06AAAF5439B","title":"嘉定社保基金管理中心","lon":"121.257152","lat":"31.37966","category":"252","category_name":"楼宇机构","address":"上海嘉定区博乐路69号"},{"poiid":"B2094750D76DA0FF429B","title":"蓝宫大酒店宴会厅","lon":"121.263","lat":"31.3761","category":"76","category_name":"上海菜","address":"嘉定区博乐南路125号(博乐南路墅沟路)"},{"poiid":"B2094757D16FA4FA489C","title":"吴姑娘特色煲(仓场店)","lon":"121.265738653","lat":"31.3821161356","category":"76","category_name":"上海菜","address":"嘉定区仓场路2871号(近迎园路)"},{"poiid":"B2094757D16CAAFD4792","title":"上海汽车变速器有限公司","lon":"121.259014","lat":"31.37632","category":"46","category_name":"楼宇","address":"上海嘉定区疁南街105号"},{"poiid":"B2094757D66BA3FA4799","title":"张太和爊鸭 仓场路店","lon":"121.266739054","lat":"31.381288793","category":"68","category_name":"快餐厅","address":"嘉定区仓场路2879号(仓场路迎园路)"},{"poiid":"B2094654DB6AA6F44299","title":"南苑新世纪公寓","lon":"121.25969667426","lat":"31.375707224604","category":"47","category_name":"住宅区","address":"裕民路1190弄"},{"poiid":"B2094655D268A4FA489A","title":"民乐路100弄","lon":"121.262","lat":"31.3745","category":"47","category_name":"住宅区","address":"民乐路100弄"},{"poiid":"B2094757D069AAFC489C","title":"德克士(嘉定店)","lon":"121.25402","lat":"31.37342","category":"68","category_name":"快餐厅","address":"嘉定区城中路2号乐购1楼(沪宜公路城中路)"},{"poiid":"B2094655D264A5F54499","title":"麦当劳嘉定南门店","lon":"121.25497","lat":"31.37246","category":"68","category_name":"快餐厅","address":"沪宜公路3205号"},{"poiid":"B2094655D26EAAFB419C","title":"常磐居","lon":"121.26267","lat":"31.37614","category":"247","category_name":"餐饮美食","address":"嘉定区蓝宫大饭店博乐南路125号"},{"poiid":"B209475CD66BA1F54899","title":"韩天衡美术馆","lon":"121.260765","lat":"31.376579","category":"184","category_name":"美术馆","address":"上海市嘉定区博乐路70号"},{"poiid":"B2094655D268A0F54099","title":"嘉城商务","lon":"121.26406","lat":"31.37661","category":"46","category_name":"楼宇","address":"墅沟路1915"},{"poiid":"B2094655D26BA5FD4698","title":"墅沟路888弄","lon":"121.2634","lat":"31.37764","category":"47","category_name":"住宅区","address":"上海市嘉定区墅沟路888号"},{"poiid":"B2094654D469A4FA409A","title":"上海市工商行政管理局嘉定分局","lon":"121.26662","lat":"31.37708","category":"250","category_name":"公园户外","address":"迎园路955"},{"poiid":"B2094750D665A1FC449E","title":"万泓公馆","lon":"121.259","lat":"31.3682","category":"72","category_name":"广东菜","address":"嘉定区沪宜公路3099号嘉创国际大厦4楼(近叶城路)"},{"poiid":"B2094654D469A5FD449B","title":"爱里舍花园","lon":"121.26358","lat":"31.37017","category":"47","category_name":"住宅区","address":"戬浜镇"},{"poiid":"B2094757D464A5FF429E","title":"七宝老街汤圆店","lon":"121.265256","lat":"31.37562","category":"76","category_name":"上海菜","address":"嘉定镇州桥老街"},{"poiid":"B2094655D36CA5FE489F","title":"齿轮厂","lon":"121.26003","lat":"31.37581","category":"38","category_name":"公交车站","address":""},{"poiid":"B2094757D16FA7FF4098","title":"大众变速器有限公司","lon":"121.262721233","lat":"31.373864687","category":"263","category_name":"公司","address":"上海市博乐南路100号"},{"poiid":"B2094655D26BABFC449B","title":"铭记烧烤麻辣烫","lon":"121.2638","lat":"31.38099","category":"68","category_name":"快餐厅","address":"嘉定区仓场路2899号(仓场路嘉定迎宾路)"},{"poiid":"B2094654D469A4FE449C","title":"上海外国语大学嘉定外国语实验学校","lon":"121.25979","lat":"31.38351","category":"52","category_name":"高等院校","address":"嘉定区金沙路168号(近欧尚超市)"},{"poiid":"B2094757D065A6FB4193","title":"珍品(嘉罗公路店)","lon":"121.26207","lat":"31.38376","category":"76","category_name":"上海菜","address":"嘉定区嘉罗公路453号(宝嘉公路迎园中路)"},{"poiid":"B2094654DB6AA5FD439E","title":"沈坚强游泳俱乐部","lon":"121.27068","lat":"31.37664","category":"231","category_name":"游泳馆","address":"新成路118"},{"poiid":"B2094655D268A4FE409E","title":"嘉华山庄(东门)","lon":"121.26184","lat":"31.3791","category":"47","category_name":"住宅区","address":"嘉罗公路351号"},{"poiid":"B2094757D16FAAFC4593","title":"嘉定区","lon":"121.266920054","lat":"31.3760325184","category":"250","category_name":"公园户外","address":"上海嘉定区区域"},{"poiid":"B2094751D46BA6F8489D","title":"嘉定海关","lon":"121.260846","lat":"31.376448","category":"617","category_name":"政府机构","address":"嘉定区嘉罗公路221号"},{"poiid":"B2094750D76FA1FD4898","title":"伊诺咖啡(博乐南路店)","lon":"121.265","lat":"31.3733","category":"260","category_name":"其他","address":"嘉定区博乐南路"},{"poiid":"B2094654D469A4F94993","title":"迎园中学","lon":"121.26667","lat":"31.3782","category":"55","category_name":"中学","address":"上海嘉定区新成路街道墅沟路600号"},{"poiid":"B2094757D16CA0FE469E","title":"阿娥汤圆店(金沙路店)","lon":"121.25817","lat":"31.3831844","category":"68","category_name":"快餐厅","address":"嘉定区金沙路(近仓场路)"},{"poiid":"B2094655D268A4FF429E","title":"嘉源","lon":"121.26917","lat":"31.37747","category":"47","category_name":"住宅区","address":"新成路129弄"},{"poiid":"B2094757D06AA1F54392","title":"蓝宫大饭店","lon":"121.26272","lat":"31.376016","category":"247","category_name":"餐饮美食","address":"上海市嘉定区博乐南路125号"},{"poiid":"B2094757D069A2FF499C","title":"上海绿地万怡酒店","lon":"121.25815765","lat":"31.368406855","category":"214","category_name":"四星级宾馆","address":"嘉定区沪宜公路3101号(近叶城路)"},{"poiid":"B2094654D469A4FD429E","title":"嘉定紫藤园","lon":"121.25816","lat":"31.37908","category":"196","category_name":"公园","address":"博乐路45"},{"poiid":"B2094757D06AA6F4439C","title":"仓场路","lon":"121.26558865","lat":"31.381247117","category":"500","category_name":"未知分类","address":"上海市嘉定区仓场路"},{"poiid":"B2094757D06FA0FC4298","title":"乐购(嘉定店)","lon":"121.2542","lat":"31.37347","category":"118","category_name":"超级市场","address":"嘉定区城中路2号(沪宜公路口)"},{"poiid":"B2094757D06FAAF4469E","title":"嘉定区人民政府","lon":"121.26968967","lat":"31.37477983","category":"252","category_name":"楼宇机构","address":"上海嘉定区博乐南路111号"},{"poiid":"B2094655D26FAAF4499E","title":"麦当劳沪宜餐厅","lon":"121.25702","lat":"31.37002","category":"68","category_name":"快餐厅","address":"嘉定区沪宜公路沪宜路3145号(近永乐生活)"},{"poiid":"B2094751D268A5FA469B","title":"星巴克(嘉定罗宾森店)","lon":"121.2653","lat":"31.375602","category":"65","category_name":"咖啡厅","address":"上海市嘉定区嘉定镇城中路138号罗宾森购物广场一楼"},{"poiid":"B2094757D06FA4FB489A","title":"S5沪嘉高速嘉定城区收费站","lon":"121.26694911","lat":"31.3694721994","category":"267","category_name":"收费站","address":"上海嘉定区S5沪嘉高速嘉定城区收费站"},{"poiid":"B2094757D06FA4FC4493","title":"嘉定区汽车客运中心","lon":"121.25516","lat":"31.37235","category":"38","category_name":"公交车站","address":"上海近郊嘉定区沪宜公路3205号(近群裕路)  "},{"poiid":"B2094751D564A0FD419A","title":"随意门","lon":"121.260361","lat":"31.367538","category":"248","category_name":"生活娱乐","address":"沪宜公路3128号"},{"poiid":"B2094757D068A1F5479E","title":"嘉定区投资服务和办证办照中心","lon":"121.26584177","lat":"31.371860156","category":"260","category_name":"其他","address":"上海嘉戬公路118号"},{"poiid":"B2094757D064A3F5419E","title":"老盛昌汤包馆","lon":"121.267241653","lat":"31.3812336176","category":"247","category_name":"餐饮美食","address":"上海仓城路店"},{"poiid":"B2094757D06AA3FD479C","title":"七欣天迷宗蟹","lon":"121.25685915","lat":"31.380669106","category":"86","category_name":"火锅店","address":"嘉定区博乐路85号(近中信银行)"},{"poiid":"B2094757D66CA4FD4699","title":"嘉定区房地产交易中心","lon":"121.26717965","lat":"31.373643962","category":"500","category_name":"未知分类","address":"上海市嘉定区博乐南路"},{"poiid":"B2094757D66DABFD4999","title":"新石器烤肉•石锅拌饭(嘉定店)","lon":"121.254447853","lat":"31.3721040713","category":"68","category_name":"快餐厅","address":"嘉定区城中路2号嘉定乐购购物广场1楼"},{"poiid":"B2094654D469A4FA4199","title":"上海汽车工业活动中心","lon":"121.26267","lat":"31.37614","category":"45","category_name":"产业园区","address":"博乐南路125"},{"poiid":"B2094654D469A5F5419C","title":"快乐鸟盱眙十三香龙虾","lon":"121.26595","lat":"31.38135","category":"257","category_name":"中餐厅","address":"嘉定区仓场路2758号(近迎园路)"},{"poiid":"B2094757D065A7FA469A","title":"今夜酒吧","lon":"121.258167","lat":"31.37908","category":"260","category_name":"其他","address":"嘉定区博乐路45号紫藤园内(近金沙路)"},{"poiid":"B2094757D16DA3F4439A","title":"大宋足浴(嘉定店)","lon":"121.26133316","lat":"31.375959509","category":"149","category_name":"洗浴推拿场所","address":"上海近郊嘉定区博乐南路158号泰宸商务楼2楼(近宝嘉路)  "},{"poiid":"B2094757D06AAAF5439B","title":"嘉定社保基金管理中心","lon":"121.257152","lat":"31.37966","category":"252","category_name":"楼宇机构","address":"上海嘉定区博乐路69号"},{"poiid":"B2094750D76DA0FF429B","title":"蓝宫大酒店宴会厅","lon":"121.263","lat":"31.3761","category":"76","category_name":"上海菜","address":"嘉定区博乐南路125号(博乐南路墅沟路)"},{"poiid":"B2094757D16FA4FA489C","title":"吴姑娘特色煲(仓场店)","lon":"121.265738653","lat":"31.3821161356","category":"76","category_name":"上海菜","address":"嘉定区仓场路2871号(近迎园路)"},{"poiid":"B2094757D16CAAFD4792","title":"上海汽车变速器有限公司","lon":"121.259014","lat":"31.37632","category":"46","category_name":"楼宇","address":"上海嘉定区疁南街105号"},{"poiid":"B2094757D66BA3FA4799","title":"张太和爊鸭 仓场路店","lon":"121.266739054","lat":"31.381288793","category":"68","category_name":"快餐厅","address":"嘉定区仓场路2879号(仓场路迎园路)"},{"poiid":"B2094654DB6AA6F44299","title":"南苑新世纪公寓","lon":"121.25969667426","lat":"31.375707224604","category":"47","category_name":"住宅区","address":"裕民路1190弄"},{"poiid":"B2094655D268A4FA489A","title":"民乐路100弄","lon":"121.262","lat":"31.3745","category":"47","category_name":"住宅区","address":"民乐路100弄"},{"poiid":"B2094757D069AAFC489C","title":"德克士(嘉定店)","lon":"121.25402","lat":"31.37342","category":"68","category_name":"快餐厅","address":"嘉定区城中路2号乐购1楼(沪宜公路城中路)"},{"poiid":"B2094655D264A5F54499","title":"麦当劳嘉定南门店","lon":"121.25497","lat":"31.37246","category":"68","category_name":"快餐厅","address":"沪宜公路3205号"},{"poiid":"B2094655D26EAAFB419C","title":"常磐居","lon":"121.26267","lat":"31.37614","category":"247","category_name":"餐饮美食","address":"嘉定区蓝宫大饭店博乐南路125号"},{"poiid":"B209475CD66BA1F54899","title":"韩天衡美术馆","lon":"121.260765","lat":"31.376579","category":"184","category_name":"美术馆","address":"上海市嘉定区博乐路70号"},{"poiid":"B2094655D268A0F54099","title":"嘉城商务","lon":"121.26406","lat":"31.37661","category":"46","category_name":"楼宇","address":"墅沟路1915"},{"poiid":"B2094655D26BA5FD4698","title":"墅沟路888弄","lon":"121.2634","lat":"31.37764","category":"47","category_name":"住宅区","address":"上海市嘉定区墅沟路888号"},{"poiid":"B2094654D469A4FA409A","title":"上海市工商行政管理局嘉定分局","lon":"121.26662","lat":"31.37708","category":"250","category_name":"公园户外","address":"迎园路955"},{"poiid":"B2094750D665A1FC449E","title":"万泓公馆","lon":"121.259","lat":"31.3682","category":"72","category_name":"广东菜","address":"嘉定区沪宜公路3099号嘉创国际大厦4楼(近叶城路)"},{"poiid":"B2094654D469A5FD449B","title":"爱里舍花园","lon":"121.26358","lat":"31.37017","category":"47","category_name":"住宅区","address":"戬浜镇"},{"poiid":"B2094757D464A5FF429E","title":"七宝老街汤圆店","lon":"121.265256","lat":"31.37562","category":"76","category_name":"上海菜","address":"嘉定镇州桥老街"},{"poiid":"B2094655D36CA5FE489F","title":"齿轮厂","lon":"121.26003","lat":"31.37581","category":"38","category_name":"公交车站","address":""},{"poiid":"B2094757D16FA7FF4098","title":"大众变速器有限公司","lon":"121.262721233","lat":"31.373864687","category":"263","category_name":"公司","address":"上海市博乐南路100号"},{"poiid":"B2094655D26BABFC449B","title":"铭记烧烤麻辣烫","lon":"121.2638","lat":"31.38099","category":"68","category_name":"快餐厅","address":"嘉定区仓场路2899号(仓场路嘉定迎宾路)"},{"poiid":"B2094654D469A4FE449C","title":"上海外国语大学嘉定外国语实验学校","lon":"121.25979","lat":"31.38351","category":"52","category_name":"高等院校","address":"嘉定区金沙路168号(近欧尚超市)"},{"poiid":"B2094757D065A6FB4193","title":"珍品(嘉罗公路店)","lon":"121.26207","lat":"31.38376","category":"76","category_name":"上海菜","address":"嘉定区嘉罗公路453号(宝嘉公路迎园中路)"},{"poiid":"B2094654DB6AA5FD439E","title":"沈坚强游泳俱乐部","lon":"121.27068","lat":"31.37664","category":"231","category_name":"游泳馆","address":"新成路118"},{"poiid":"B2094655D268A4FE409E","title":"嘉华山庄(东门)","lon":"121.26184","lat":"31.3791","category":"47","category_name":"住宅区","address":"嘉罗公路351号"},{"poiid":"B2094757D16FAAFC4593","title":"嘉定区","lon":"121.266920054","lat":"31.3760325184","category":"250","category_name":"公园户外","address":"上海嘉定区区域"},{"poiid":"B2094751D46BA6F8489D","title":"嘉定海关","lon":"121.260846","lat":"31.376448","category":"617","category_name":"政府机构","address":"嘉定区嘉罗公路221号"},{"poiid":"B2094750D76FA1FD4898","title":"伊诺咖啡(博乐南路店)","lon":"121.265","lat":"31.3733","category":"260","category_name":"其他","address":"嘉定区博乐南路"},{"poiid":"B2094654D469A4F94993","title":"迎园中学","lon":"121.26667","lat":"31.3782","category":"55","category_name":"中学","address":"上海嘉定区新成路街道墅沟路600号"},{"poiid":"B2094757D16CA0FE469E","title":"阿娥汤圆店(金沙路店)","lon":"121.25817","lat":"31.3831844","category":"68","category_name":"快餐厅","address":"嘉定区金沙路(近仓场路)"},{"poiid":"B2094655D268A4FF429E","title":"嘉源","lon":"121.26917","lat":"31.37747","category":"47","category_name":"住宅区","address":"新成路129弄"}]