[{"poiid":"B2094655D26BA1FB409F","title":"罗泾","lon":"121.34946","lat":"31.47944","category":"38","category_name":"公交车站","address":""},{"poiid":"B2094757D66FA7FF4893","title":"华联超市No.657(陈镇路店)","lon":"121.350182","lat":"31.485205","category":"118","category_name":"超级市场","address":"上海宝山区罗泾镇陈镇路55号"},{"poiid":"B2094655D36DA0FC419A","title":"新川沙路北蕰川路","lon":"121.35432","lat":"31.48076","category":"38","category_name":"公交车站","address":""},{"poiid":"B2094757D16CA5FB469C","title":"都是客酒店(罗泾店)","lon":"121.34056","lat":"31.4832","category":"76","category_name":"上海菜","address":"宝山区陈镇路316号(陈川路口)"},{"poiid":"B2094757D065A3FB419F","title":"陈行镇","lon":"121.343734018","lat":"31.4817434726","category":"500","category_name":"未知分类","address":"上海市宝山区徐介路"},{"poiid":"B2094654D468A4FB4599","title":"阀门新村","lon":"121.34354","lat":"31.482084","category":"47","category_name":"住宅区","address":"陈东路185弄"},{"poiid":"B2094757D66EA6FD489B","title":"coco都可茶饮(陈行店)","lon":"121.341660718","lat":"31.4806728509","category":"500","category_name":"未知分类","address":"宝山区罗泾镇陈镇路152号"},{"poiid":"B2094757D169A2FC499A","title":"罗泾中心小学","lon":"121.343818","lat":"31.48067","category":"56","category_name":"小学","address":"宝山区罗泾镇陈东路118号(宝山陈东路陈川路)"},{"poiid":"B2094757D16EABFC479D","title":"麦当劳","lon":"121.343800018","lat":"31.4823464849","category":"500","category_name":"未知分类","address":"上海多家连锁店  "},{"poiid":"B2094757D16EA6FD4492","title":"PUMA(一百店)","lon":"121.34367301","lat":"31.482236482","category":"500","category_name":"未知分类","address":"上海南京东路800-830号7楼"},{"poiid":"B2094757D66CA2FB499D","title":"gokou","lon":"121.34380201","lat":"31.48211948","category":"500","category_name":"未知分类","address":"北京上海市宝山区陈镇路"},{"poiid":"B2094654D468A4F5439D","title":"罗泾社区卫生服务中心","lon":"121.33699","lat":"31.48172","category":"162","category_name":"医院","address":"罗泾镇"},{"poiid":"B2094757D66EA2FB4999","title":"男人装","lon":"121.34352601","lat":"31.482342484","category":"249","category_name":"购物服务","address":"上海"},{"poiid":"B2094757D06AA0F9449D","title":"罗泾中心幼儿园","lon":"121.33556701","lat":"31.488440608","category":"57","category_name":"幼儿园","address":"上海市宝山区罗宁路3030弄1号"},{"poiid":"B2094654D468A4F44798","title":"罗泾中学","lon":"121.33569","lat":"31.48234","category":"55","category_name":"中学","address":"上海宝山区罗泾镇东朱路8号"},{"poiid":"B2094654D468A4F44799","title":"陈川新村","lon":"121.34092","lat":"31.48039","category":"47","category_name":"住宅区","address":"罗泾镇"},{"poiid":"B2094655D26BA1FD4499","title":"潘泾路潘新路","lon":"121.33357","lat":"31.48793","category":"38","category_name":"公交车站","address":""},{"poiid":"B2094654D468A4FB419F","title":"陈行大酒店","lon":"121.34377","lat":"31.47837","category":"250","category_name":"公园户外","address":""},{"poiid":"B2094757D165A1F84298","title":"中国农业银行罗泾支行","lon":"121.34875001","lat":"31.476952375","category":"150","category_name":"银行","address":"宝山区罗泾陈行街25号(陈川路罗泾东升路)"},{"poiid":"B2094757D16AA3F94699","title":"勤益杂货店","lon":"121.343845","lat":"31.477485","category":"117","category_name":"便民商店/便利店","address":"上海宝山区罗泾镇新川沙路516号"},{"poiid":"B2094654D468A4F4469F","title":"罗泾派出所","lon":"121.34294","lat":"31.47738","category":"609","category_name":"警察局","address":"宝山区新川沙路535号"},{"poiid":"B2094757D66CA4FF4198","title":"中国移动通信罗泾营业厅","lon":"121.34409627","lat":"31.478285792","category":"150","category_name":"银行","address":"上海宝山区罗泾镇陈镇路28号"}]