[{"poiid":"B2094757D065ABFB439D","title":"绿地万豪酒店","lon":"121.47298469159864","lat":"31.192103398628525","category":"213","category_name":"五星级宾馆","address":"卢湾区江滨路99号(近打浦路)"},{"poiid":"B2094655D265A6F5429C","title":"海外滩中心","lon":"121.47417","lat":"31.19376","category":"46","category_name":"楼宇","address":"卢湾区龙华东路886号"},{"poiid":"B2094757D06FA2FA449D","title":"上海世博会博物馆 - 上海世博会纪念展","lon":"121.48130635","lat":"31.1936099525","category":"182","category_name":"博物馆","address":"卢湾区局门路原世博会城市足迹馆内(近龙华东路)"},{"poiid":"B2094753D76FAAFA449C","title":"上海滩国泰旗舰店","lon":"121.466011","lat":"31.216125","category":"249","category_name":"购物服务","address":"淮海中路868号"},{"poiid":"B2094753D76BA0FD4593","title":"K11购物艺术中心","lon":"121.474906","lat":"31.194225","category":"500","category_name":"未知分类","address":"上海市 上海市淮海中路300号"},{"poiid":"B2094757D06FA7F5409F","title":"南园公园","lon":"121.4752825","lat":"31.193345331","category":"196","category_name":"公园","address":"上海卢湾区龙华东路800号(打浦路口)"},{"poiid":"B2094757D068A7F4479A","title":"南园滨江绿地","lon":"121.47228412","lat":"31.194327672","category":"500","category_name":"未知分类","address":"卢湾区龙华东路800号(打浦路口)"},{"poiid":"B2094757D06AA3F9449C","title":"江滨路观江平台～","lon":"121.47499573","lat":"31.192089987","category":"500","category_name":"未知分类","address":"上海卢湾区"},{"poiid":"B2094751D46FA1F9439B","title":"小团圆甜品","lon":"121.477386","lat":"31.198929","category":"247","category_name":"餐饮美食","address":"瞿溪路汇暻广场"},{"poiid":"B2094757D068A2FC439C","title":"星港酒楼","lon":"121.47484","lat":"31.19505","category":"76","category_name":"上海菜","address":"卢湾区打浦路603号农工商超市5楼(近中山南一路)"},{"poiid":"B2094750DA6AABFB4293","title":"汇暻生活广场","lon":"121.47724395700834","lat":"31.198751495772107","category":"248","category_name":"生活娱乐","address":"上海市黄浦区瞿溪路988号"},{"poiid":"B2094757D16CA2FF439C","title":"新富港中心I座","lon":"121.482165824","lat":"31.1968062719","category":"46","category_name":"楼宇","address":"上海市卢湾区蒙自路763号"},{"poiid":"B2094757D06AA3FA4193","title":"鲁班路瞿溪路口","lon":"121.476666597","lat":"31.1987295703","category":"500","category_name":"未知分类","address":"上海鲁班路瞿溪路"},{"poiid":"B2094757D168A5FC419C","title":"卢湾滨江","lon":"121.47411438","lat":"31.197354649","category":"47","category_name":"住宅区","address":"上海卢湾滨江"},{"poiid":"B2094757D064A4FE4198","title":"海外滩","lon":"121.472043738","lat":"31.1922194905","category":"500","category_name":"未知分类","address":"上海龙华东路868号"},{"poiid":"B2094654DA6DA4FA419D","title":"卢湾城市花园","lon":"121.4775","lat":"31.19385","category":"47","category_name":"住宅区","address":"上海市卢湾区鲁班路738弄"},{"poiid":"B2094751D16CABFE4593","title":"海外滩舒适堡","lon":"121.473662","lat":"31.193563","category":"248","category_name":"生活娱乐","address":"徐汇区龙华东路868号绿地海外滩中心B1楼(近打浦路)"},{"poiid":"B2094654DA6DA4FA429B","title":"紫荆新苑","lon":"121.47836","lat":"31.192335","category":"47","category_name":"住宅区","address":"紫荆新苑位于卢湾鲁班路797号"},{"poiid":"B2094750D76FA0FB489B","title":"屋企汤馆(汇景天地店)","lon":"121.477","lat":"31.199","category":"72","category_name":"广东菜","address":"卢湾区瞿溪路988号汇暻生活广场A4楼1楼(近地铁4号线鲁班路站)"},{"poiid":"B2094655D26BA1F44499","title":"鲁班路瞿溪路","lon":"121.47688","lat":"31.19875","category":"38","category_name":"公交车站","address":""},{"poiid":"B2094655D26FA5F44792","title":"农工商超市No.0119","lon":"121.4751","lat":"31.19522","category":"118","category_name":"超级市场","address":"打浦路603"},{"poiid":"B209475CD66DA6FC4198","title":"辣府","lon":"121.474594","lat":"31.19452","category":"247","category_name":"餐饮美食","address":"上海市 打浦路603号"},{"poiid":"B2094757D068ABFD429C","title":"半盆菜酒家","lon":"121.47602","lat":"31.19694","category":"76","category_name":"上海菜","address":"卢湾区中山南一路893号(鲁班路口)"},{"poiid":"B2094753D568ABFE479F","title":"风云电竞馆","lon":"121.479003","lat":"31.194408","category":"500","category_name":"未知分类","address":"上海市 鲁班路899号"},{"poiid":"B2094757D069A2FE449B","title":"Level-T撞球公社","lon":"121.4738576","lat":"31.1959885","category":"171","category_name":"台球厅","address":"上海卢湾区中山南一路937号(近打浦路)"},{"poiid":"B2094757D069A2FA469F","title":"肯德基 KFC (五里桥店)","lon":"121.474865","lat":"31.195255","category":"68","category_name":"快餐厅","address":"卢湾区打浦路603号农工商超市(近中山南一路)"},{"poiid":"B2094750DB64A5FE459B","title":"Rose Queen Coffee","lon":"121.47404","lat":"31.19128","category":"260","category_name":"其他","address":"卢湾区打浦路688号(近江滨路)"},{"poiid":"B2094654DA6DAAF4489F","title":"江南造船大厦餐厅","lon":"121.47678603674","lat":"31.198814812868","category":"268","category_name":"自助","address":"卢湾区鲁班路600号(近中山南一路)"},{"poiid":"B2094751D264A2FC4099","title":"广粥渔港","lon":"121.474773","lat":"31.198354","category":"86","category_name":"火锅店","address":"卢湾区鲁班路600号江南造船大厦1-3楼"},{"poiid":"B2094757D464ABF9439F","title":"棒约翰比萨 打浦店 Papa John's Pizza","lon":"121.47492980957","lat":"31.194774627686","category":"101","category_name":"美式风味","address":"卢湾区打浦路603号农工商超市1楼(近中山南一路)"},{"poiid":"B2094757D168A0FE4393","title":"绿地万豪28楼行政餐厅","lon":"121.472935738","lat":"31.1918104818","category":"500","category_name":"未知分类","address":"上海市卢湾区江滨路99号"},{"poiid":"B2094655D26EA1FB439F","title":"卢浦大桥观光平台","lon":"121.47928","lat":"31.19279","category":"250","category_name":"公园户外","address":"鲁班路909"},{"poiid":"B2094752DA6BA2FE4898","title":"上海八万人体育场","lon":"121.477028","lat":"31.192318","category":"500","category_name":"未知分类","address":"上海市 中山南二路"},{"poiid":"B2094654DA6DA4FA4193","title":"鲁班公寓","lon":"121.47804","lat":"31.193214","category":"47","category_name":"住宅区","address":"上海市卢湾区鲁班路776号"},{"poiid":"B209475CD16EA4F8419E","title":"辣府","lon":"121.478958","lat":"31.1928","category":"247","category_name":"餐饮美食","address":"上海市 打浦路603号"},{"poiid":"B209475CD568A0FD4192","title":"环贸iapm","lon":"121.476234","lat":"31.193092","category":"500","category_name":"未知分类","address":"上海市 淮海中路襄阳路"},{"poiid":"B2094654DA6DAAF54093","title":"上海第二医科大学学生公寓一区","lon":"121.47491","lat":"31.19697","category":"47","category_name":"住宅区","address":"上海市卢湾区中山南一路937号"},{"poiid":"B2094654DA6DAAF5429B","title":"沧浪亭(打浦路)","lon":"121.47322","lat":"31.19724","category":"87","category_name":"特色／地方风味餐厅","address":"卢湾区打浦路455号北方大厦门口(近中山南一路)"},{"poiid":"B2094751D56BA4FA479F","title":"上海歌城","lon":"121.480165","lat":"31.191962","category":"170","category_name":"KTV","address":"昌里路337号浦东商场4层"},{"poiid":"B2094757DA69A2FE429B","title":"海外滩-卢湾绿地商业","lon":"121.47404291225","lat":"31.193181193841","category":"119","category_name":"商场","address":"上海市黄浦区龙华东路810号海外滩?名品汇"},{"poiid":"B209475DDA6FA3FD439B","title":"辣府(打浦路旗舰店)","lon":"121.474662","lat":"31.196044","category":"247","category_name":"餐饮美食","address":"上海市 黄浦区打浦路603号"},{"poiid":"B2094655D268ABFF419A","title":"内环鲁班路立交桥","lon":"121.47785","lat":"31.1974","category":"250","category_name":"公园户外","address":""},{"poiid":"B209475CD76FA7FA479A","title":"品粹","lon":"121.476852","lat":"31.193559","category":"500","category_name":"未知分类","address":"上海市 上海市黄浦区江滨路99号2层"},{"poiid":"B2094654DA6DA4F9439D","title":"卢湾区教师进修学院附属中山学校(东门)","lon":"121.47768","lat":"31.19597","category":"678","category_name":"学校大门","address":"鲁班路618"},{"poiid":"B2094655D36DA7F8479C","title":"中山南一路打浦路","lon":"121.47502","lat":"31.19667","category":"38","category_name":"公交车站","address":""},{"poiid":"B2094753D764AAFF4193","title":"K11","lon":"121.474914","lat":"31.194227","category":"500","category_name":"未知分类","address":"上海市 黄陂南路"},{"poiid":"B2094750DA6AAAF9499C","title":"GYOTOU渔藤寿司","lon":"121.477096","lat":"31.198917","category":"95","category_name":"日本料理","address":"卢湾区鲁班路615号汇暻生活广场1楼"},{"poiid":"B2094757D06AA7FC4192","title":"南园绿地","lon":"121.476075","lat":"31.193347","category":"500","category_name":"未知分类","address":"上海卢湾区江滨路打浦路"},{"poiid":"B2094654DA6DA4FA419B","title":"世博林绿地公共运动场","lon":"121.47682","lat":"31.19649","category":"220","category_name":"运动场所","address":""},{"poiid":"B2094654DA6DA4FA4198","title":"世博林绿地","lon":"121.47683","lat":"31.1967","category":"196","category_name":"公园","address":"卢湾区鲁班路(打浦路瞿溪路)"},{"poiid":"B2094654DA6DA4FA439F","title":"雪龙新村(南门)","lon":"121.47724","lat":"31.19454","category":"47","category_name":"住宅区","address":"龙华路565弄"},{"poiid":"B2094757D169A6F44498","title":"南汇农家乐(南汇滨海农家乐)","lon":"121.47594423","lat":"31.19411703","category":"247","category_name":"餐饮美食","address":"上海近郊南汇老港镇东河村火箭路235号(老果公路)  "},{"poiid":"B209475CD46EA5F4449B","title":"爱丽舍宫韩国高端礼堂","lon":"121.481152","lat":"31.193035","category":"265","category_name":"知名企业","address":"黄浦区局门路801号（近蒙自路）"},{"poiid":"B2094757D068AAF5479A","title":"中辉新苑","lon":"121.47437","lat":"31.195599","category":"47","category_name":"住宅区","address":"上海市卢湾区打浦路585弄"},{"poiid":"B2094655D26CA4F9489C","title":"卢湾区教师进修学院附属中山学校(上海雷卡勃针纺织品有限公司北)","lon":"121.4773","lat":"31.19577","category":"55","category_name":"中学","address":"卢湾区鲁班路618号(近中山南一路)"},{"poiid":"B2094757DA6BA7FF4999","title":"绿地海外滩中心B幢","lon":"121.475476","lat":"31.193273","category":"252","category_name":"楼宇机构","address":"河西区土城医院西侧"},{"poiid":"B2094655D264A2FD479B","title":"自由广场","lon":"121.47981","lat":"31.19517","category":"201","category_name":"城市广场","address":"上海世博园区"},{"poiid":"B2094750DB65A1FF4092","title":"江边城外巫山烤全鱼","lon":"121.479843","lat":"31.195262","category":"247","category_name":"餐饮美食","address":"金陵东路"},{"poiid":"B2094752D26AA6FB439B","title":"汉江","lon":"121.4742","lat":"31.193779","category":"500","category_name":"未知分类","address":null},{"poiid":"B2094655D26AA0FC4392","title":"私房小厨 打浦路店","lon":"121.474305054","lat":"31.195341793","category":"68","category_name":"快餐厅","address":"卢湾区打浦路603号农工商超市内(近中山南一路)"},{"poiid":"B2094757D16DA6F4479D","title":"绿地滨江CBD","lon":"121.4735559","lat":"31.1914703","category":"47","category_name":"住宅区","address":"上海卢湾区江滨路99号"},{"poiid":"B2094655D36CA3FA4293","title":"海珀·日晖","lon":"121.47398","lat":"31.1926","category":"47","category_name":"住宅区","address":"龙华东路886号"},{"poiid":"B2094753D468A7F8409F","title":"home","lon":"121.474906","lat":"31.19421","category":"500","category_name":"未知分类","address":"淮海路k11店"},{"poiid":"B2094752D16EA3FF449A","title":"徐家汇","lon":"121.47847","lat":"31.19473","category":"500","category_name":"未知分类","address":null},{"poiid":"B209475CD165A2FD439E","title":"汉江韩国料理","lon":"121.474014","lat":"31.194011","category":"247","category_name":"餐饮美食","address":"上海市 上海市打浦路"},{"poiid":"B2094757D165A7F84593","title":"城市农场","lon":"121.47684003","lat":"31.194304964","category":"500","category_name":"未知分类","address":"上海龙华东路鲁班路"},{"poiid":"B2094751DA6DA1F8419D","title":"上海文化广场","lon":"121.477489","lat":"31.195069","category":"248","category_name":"生活娱乐","address":"陕西南路255号"},{"poiid":"B2094757D568A0FC4092","title":"天福茗茶龙华东路店","lon":"121.4773783","lat":"31.19445472","category":"255","category_name":"专卖店","address":"龙华东路562号"},{"poiid":"B2094757D168ABF4429A","title":"绿地大厦","lon":"121.474651","lat":"31.1942576","category":"252","category_name":"楼宇机构","address":"上海打浦路700号"},{"poiid":"B2094655D26BA1F4449D","title":"鲁班路","lon":"121.47952","lat":"31.19795","category":"38","category_name":"公交车站","address":""},{"poiid":"B2094654DA68A7FA439D","title":"鲁班大楼","lon":"121.47838","lat":"31.197166","category":"47","category_name":"住宅区","address":"鲁班路721弄1-2号"},{"poiid":"B2094757D16BA3FB439B","title":"龙华东路","lon":"121.478322326","lat":"31.1919154909","category":"500","category_name":"未知分类","address":"上海打浦路"},{"poiid":"B2094750D66FA2FC4998","title":"威尔士健身俱乐部（汇景天地店）","lon":"121.47776","lat":"31.198797","category":"248","category_name":"生活娱乐","address":"瞿溪路968号"},{"poiid":"B2094757D068A1F5419F","title":"世博园一号门","lon":"121.48098064","lat":"31.194694578","category":"260","category_name":"其他","address":"上海世博园一号门鲁班路出入口"},{"poiid":"B209475CD36AA1FD419D","title":"源牌品粹","lon":"121.474","lat":"31.1938","category":"78","category_name":"安徽菜","address":"龙华东路810号海外滩名品汇1楼201室(近打浦路)"},{"poiid":"B209475DD06EA0F94399","title":"香草香草云南原生态火锅","lon":"121.479568","lat":"31.19663","category":"247","category_name":"餐饮美食","address":"上海市 上海市黄浦区瞿溪路988号汇暻生活广场6A四层"},{"poiid":"B2094654DA68A7F44093","title":"江南新苑","lon":"121.47919","lat":"31.198936","category":"47","category_name":"住宅区","address":"瞿溪路926弄3-9号、中山南一路721弄1-2号"},{"poiid":"B2094757D169A5FD4892","title":"奥林幼儿园","lon":"121.47755","lat":"31.19821","category":"57","category_name":"幼儿园","address":"卢湾区瞿溪路1072弄35号(近鲁班路)"},{"poiid":"B2094751D46BA5FF4698","title":"上海市黄浦区教育学院附属中山学校","lon":"121.477604","lat":"31.195444","category":"253","category_name":"校园生活","address":"上海市鲁班路618号"},{"poiid":"B2094654DB64A7FA4498","title":"乔家栅 打浦店","lon":"121.473388054","lat":"31.195684793","category":"68","category_name":"快餐厅","address":"卢湾区打浦路461号(近中山南一路)"},{"poiid":"B2094757D06AAAFF469A","title":"新亚大包 打浦店","lon":"121.47255615402","lat":"31.197839057821","category":"68","category_name":"快餐厅","address":"卢湾区打浦路453号(近瞿溪路)"},{"poiid":"B2094757D16FAAF44799","title":"253路公交车终点站","lon":"121.477762","lat":"31.197251","category":"38","category_name":"公交车站","address":"上海鲁班路中山南一路"},{"poiid":"B2094752D364A4FF4992","title":"COSTA,COFFEE(海外滩店)","lon":"121.47264","lat":"31.19226","category":"65","category_name":"咖啡厅","address":"卢湾区龙华东路868号绿地海外滩中心内(近打浦路)"},{"poiid":"B2094753D76AAAF4469A","title":"阿吾罗","lon":"121.474899","lat":"31.194217","category":"249","category_name":"购物服务","address":"上海市 淮海中路300号上海K11"},{"poiid":"B2094654DA6DAAF5409C","title":"上海斯米克陶瓷科技艺术馆","lon":"121.47552","lat":"31.19706","category":"182","category_name":"博物馆","address":"中山南一路893号斯米克广场1层右、1层1/2"},{"poiid":"B2094750DA6AAAFC4293","title":"渔藤Gyotou","lon":"121.476066","lat":"31.19911","category":"95","category_name":"日本料理","address":"卢湾区瞿溪路988号汇暻生活广场1楼(近鲁班路)"},{"poiid":"B2094654DA6DA4FA4092","title":"申龙大楼","lon":"121.47633","lat":"31.196571","category":"47","category_name":"住宅区","address":"中山南一路892号"},{"poiid":"B209475CDB6BA2FD4993","title":"万岛","lon":"121.480049","lat":"31.194213","category":"500","category_name":"未知分类","address":"上海市 四川中路33号"},{"poiid":"B2094654DA6DA4FA4192","title":"鲁班公寓(东门)","lon":"121.47892","lat":"31.19359","category":"48","category_name":"楼宇大门","address":"鲁班路776弄1-8号"},{"poiid":"B2094757D06AA3FA4099","title":"龙凰餐厅","lon":"121.47653","lat":"31.19865","category":"68","category_name":"快餐厅","address":"卢湾区瞿溪路1034号(近鲁班路)"},{"poiid":"B2094654DA6DA4F9469A","title":"好德便利No.499(打浦路)","lon":"121.47433","lat":"31.19536","category":"117","category_name":"便民商店/便利店","address":"五里桥"},{"poiid":"B2094757D16EA6F4449B","title":"卢浦大桥拱顶","lon":"121.471820738","lat":"31.192571498","category":"500","category_name":"未知分类","address":"上海卢浦大桥拱顶"},{"poiid":"B2094757D165A7FF419E","title":"鐵道路","lon":"121.475131738","lat":"31.1962024753","category":"47","category_name":"住宅区","address":"上海盧灣區鐵道路"},{"poiid":"B2094750D76DA6FF4998","title":"吃得福热气羊肉","lon":"121.473","lat":"31.1969","category":"86","category_name":"火锅店","address":"卢湾区打浦路472号(近地铁4号线鲁班路站)"},{"poiid":"B2094757D06AA5FD499D","title":"四号线大木桥路站","lon":"121.473038838","lat":"31.1900380441","category":"500","category_name":"未知分类","address":"上海四号线"},{"poiid":"B2094750D664ABF4419D","title":"大浪淘沙浴场餐厅(卢湾店)","lon":"121.473","lat":"31.1959","category":"268","category_name":"自助","address":"卢湾区中山南一路1061号(近打浦路)"},{"poiid":"B2094654DA6DA4FA4199","title":"上海市轻工业工程设计院","lon":"121.47824","lat":"31.19464","category":"191","category_name":"科研机构","address":"鲁班路700"},{"poiid":"B2094757D16AA2FC499A","title":"唐饼家(来福士广场)","lon":"121.476137738","lat":"31.1914344738","category":"500","category_name":"未知分类","address":"上海西藏中路来福士广场B1楼"},{"poiid":"B209475CD46DA4FB469C","title":"风云电竞馆","lon":"121.481163","lat":"31.193283","category":"500","category_name":"未知分类","address":"上海市 上海市黄浦区鲁班路往南到底（近龙华东路），风云电竞馆。"},{"poiid":"B2094757D065A6FC479B","title":"地铁十三号线(已暂停营运)","lon":"121.481882","lat":"31.193804","category":"36","category_name":"地铁站","address":"上海马当路 - 世博大道 轨道交通十三号线 轨交 13"},{"poiid":"B2094654DA6DA4FA4098","title":"中南公寓","lon":"121.47549","lat":"31.196318","category":"47","category_name":"住宅区","address":"上海中山南一路904号"},{"poiid":"B209475DD464A3FE4493","title":"上海梅赛德斯-奔驰文化中心","lon":"121.478187","lat":"31.197416","category":"248","category_name":"生活娱乐","address":"上海市 浦东新区"},{"poiid":"B209475CD664A6FC409C","title":"辣府滨江店","lon":"121.481399","lat":"31.195335","category":"500","category_name":"未知分类","address":"上海市 卢湾区打浦路603号"},{"poiid":"B2094654DA6DA4FA429A","title":"紫荆新苑(东门)","lon":"121.47891","lat":"31.19288","category":"656","category_name":"大门","address":"鲁班路778弄1-60号"},{"poiid":"B2094757D064A7FA449F","title":"146终点站卢浦大桥","lon":"121.47825073","lat":"31.196041571","category":"500","category_name":"未知分类","address":"上海146路卢浦大桥终点站"},{"poiid":"B2094654DA6DA4FA4392","title":"卢湾城市花园(西门)","lon":"121.47613","lat":"31.19362","category":"656","category_name":"大门","address":"打浦路582号"},{"poiid":"B2094757D464A7F94393","title":"369川香海","lon":"121.473162","lat":"31.197373","category":"71","category_name":"四川菜","address":"卢湾区打浦路451号(近瞿溪路)"},{"poiid":"B2094655D268A5FB489F","title":"鲁班大楼(西门)","lon":"121.47824","lat":"31.19681","category":"47","category_name":"住宅区","address":"鲁班路"},{"poiid":"B2094654DA6DA4FA4599","title":"紫荆新苑(西门)","lon":"121.47669","lat":"31.19221","category":"656","category_name":"大门","address":"五里桥"},{"poiid":"B2094752D269A4F4419D","title":"Costa","lon":"121.473183","lat":"31.195524","category":"247","category_name":"餐饮美食","address":"海外滩中心A座868号"},{"poiid":"B2094654DA6DA4FA419C","title":"卢湾城市花园(东门)","lon":"121.47865","lat":"31.19421","category":"656","category_name":"大门","address":"鲁班路738弄"},{"poiid":"B2094757D569A1FB409C","title":"喜士多便利店(远剑门市)","lon":"121.47509657","lat":"31.19620578","category":"117","category_name":"便民商店/便利店","address":"中山南一路908"},{"poiid":"B2094757D568ABFC479F","title":"全家便利店(中山南一路)","lon":"121.47440213","lat":"31.19596381","category":"117","category_name":"便民商店/便利店","address":"卢湾区中山南一路922号107室"},{"poiid":"B2094750DB6FA6FB469F","title":"山姆会员店","lon":"121.480545","lat":"31.194852","category":"249","category_name":"购物服务","address":"高科西路2110号"},{"poiid":"B2094654DA6DAAF4489C","title":"江南造船大厦会议中心","lon":"121.47627","lat":"31.19774","category":"185","category_name":"会展中心","address":"鲁班路600号江南造船大厦4层"},{"poiid":"B2094654DA6DAAF4449D","title":"江南造船博物馆","lon":"121.47626","lat":"31.19773","category":"182","category_name":"博物馆","address":"卢湾区鲁班路600号江南造船大厦2楼(近中山南一路)"},{"poiid":"B2094655D264A4F94493","title":"鲁班路立交","lon":"121.47791","lat":"31.19742","category":"250","category_name":"公园户外","address":""},{"poiid":"B2094757D065AAFB439F","title":"上海交通大学医学院男生宿舍","lon":"121.474858","lat":"31.197033","category":"500","category_name":"未知分类","address":"上海中山南一路937号"},{"poiid":"B2094751D26FA7F5439B","title":"陇翠轩西北菜","lon":"121.47211","lat":"31.19285","category":"84","category_name":"西北菜","address":"卢湾区龙华东路868号海外滩中心6号楼3楼301号(近打浦路)"},{"poiid":"B2094757D169A6F4489A","title":"中国石化","lon":"121.47406287","lat":"31.192919199","category":"154","category_name":"加油加气站","address":"上海瑞金南路中山南二路"},{"poiid":"B2094757D568A1FC499B","title":"巴黎三城眼镜(农工商打浦路店销售点)","lon":"121.474972","lat":"31.195053","category":"132","category_name":"眼镜店","address":"卢湾区打浦路603号农工商打浦店(近中山南一路)"},{"poiid":"B2094757D66DA7FB4092","title":"崇明阿婆","lon":"121.47445223","lat":"31.196370578","category":"247","category_name":"餐饮美食","address":"打浦路603号近中山南一路"},{"poiid":"B2094757D165A2FF469B","title":"简创造型美容","lon":"121.480817738","lat":"31.1932025114","category":"148","category_name":"美容美发店","address":"卢湾区瞿溪路829号(近蒙自路)"},{"poiid":"B2094757D065A7FE489C","title":"浦江桥隧公司","lon":"121.474225","lat":"31.194771","category":"500","category_name":"未知分类","address":"上海打浦路600号"},{"poiid":"B2094655D26AA0F9489E","title":"地铁卢浦大桥站","lon":"121.48238","lat":"31.19623","category":"36","category_name":"地铁站","address":""},{"poiid":"B2094654DA6DA4F94892","title":"龙华小区(北门)","lon":"121.47307","lat":"31.19556","category":"47","category_name":"住宅区","address":""},{"poiid":"B2094753D66BA5F84298","title":"外滩十八号","lon":"121.476028","lat":"31.197021","category":"500","category_name":"未知分类","address":"上海市 中山东一路18号"},{"poiid":"B2094655D264A0F5489E","title":"江南造船广场","lon":"121.47631","lat":"31.19773","category":"47","category_name":"住宅区","address":"上海市卢湾区鲁班路598弄"},{"poiid":"B2094750D769A2F9479A","title":"城市节奏咖啡厅","lon":"121.474","lat":"31.1915","category":"260","category_name":"其他","address":"卢湾区江滨路99号绿地万豪大酒店2楼"},{"poiid":"B2094655D264A6FD499C","title":"卢湾交警支队车辆管理宣传科","lon":"121.47388","lat":"31.19541","category":"250","category_name":"公园户外","address":"打浦路588-590"},{"poiid":"B2094655D26FABFD449C","title":"上海第二医科大学学生公寓一区(南门)","lon":"121.47496","lat":"31.19683","category":"47","category_name":"住宅区","address":"中山南一路937"},{"poiid":"B2094757D468ABF4489A","title":"德兴坊西点 瞿溪路店","lon":"121.4807","lat":"31.20091","category":"67","category_name":"甜品店","address":"卢湾区瞿溪路833号(近蒙自路)"},{"poiid":"B2094750D26EA0F84199","title":"绿地集团金融A","lon":"121.473175","lat":"31.193553","category":"252","category_name":"楼宇机构","address":"龙华东路818号"},{"poiid":"B2094757DA69A2FA4598","title":"绿地集团20年","lon":"121.47468894575","lat":"31.191774729137","category":"637","category_name":"房地产类公司","address":"打浦路700号"},{"poiid":"B2094655D26EA4FB419C","title":"渔家铜锣湾","lon":"121.47626","lat":"31.19773","category":"88","category_name":"海鲜酒楼","address":"卢湾区鲁班路600号"},{"poiid":"B2094757D16BA3FE4498","title":"海外滩酒店","lon":"121.47640228","lat":"31.190292358","category":"217","category_name":"旅馆招待所","address":"上海江滨路"},{"poiid":"B2094654DA6DA4FA409F","title":"中国工商银行中山南一路支行","lon":"121.47611","lat":"31.1965","category":"150","category_name":"银行","address":"卢湾区中山南一路898号近打浦路"},{"poiid":"B209475CD36AA0FF409A","title":"小团圆甜品精选","lon":"121.47674","lat":"31.19811","category":"67","category_name":"甜品店","address":"鲁班路615号汇暻生活广场1楼A6-109号铺(近瞿溪路)"},{"poiid":"B2094655D265AAFB479E","title":"卢湾公安分局交通警察支队事故违章审理科","lon":"121.47891","lat":"31.19736","category":"250","category_name":"公园户外","address":"中山南一路800"},{"poiid":"B2094655D26BA7F9439D","title":"爵品桌球","lon":"121.47377","lat":"31.1966","category":"171","category_name":"台球厅","address":"中山南一路937-3临"},{"poiid":"B2094751DA64A3F94598","title":"风云再起","lon":"121.480591","lat":"31.190842","category":"248","category_name":"生活娱乐","address":"人民广场迪美购物中心"},{"poiid":"B2094757D16DA2F94592","title":"卢教院附属中山学校","lon":"121.477163128","lat":"31.1977215376","category":"500","category_name":"未知分类","address":"卢湾区鲁班路618号(近中山南一路)"},{"poiid":"B2094654DA6DAAF54099","title":"斯米克广场","lon":"121.47558","lat":"31.19734","category":"123","category_name":"家具建材市场","address":"上海中山南一路893号"},{"poiid":"B2094750D26BAAF9439B","title":"感智盲人按摩","lon":"121.47322","lat":"31.194448","category":"148","category_name":"美容美发店","address":"肇家浜路（打浦桥）"},{"poiid":"B2094654DA6DA4F94599","title":"上海浦江桥隧运营管理有限公司打浦路隧道分公司","lon":"121.47422","lat":"31.19477","category":"263","category_name":"公司","address":"打浦路600"},{"poiid":"B2094753D164A7F8429F","title":"老人和饭店","lon":"121.473196","lat":"31.196987","category":"247","category_name":"餐饮美食","address":"上海市 打浦路457弄"},{"poiid":"B2094757D06AAAF8439C","title":"上海壹周","lon":"121.47400665","lat":"31.197832107","category":"46","category_name":"楼宇","address":"上海市卢湾区打浦路443号荣科大厦16楼"},{"poiid":"B2094757D069A2F9429A","title":"786路公交","lon":"121.47825758","lat":"31.188280152","category":"38","category_name":"公交车站","address":"上海文化广场—南码头路昌里东路"},{"poiid":"B2094654DA6DAAF5419D","title":"可的(打浦路)","lon":"121.47347","lat":"31.19692","category":"117","category_name":"便民商店/便利店","address":"卢湾区打浦路463号(打浦路中山南一路)"},{"poiid":"B2094654DA68A7FA449E","title":"卢湾公安分局交通警察支队机动中队","lon":"121.47902","lat":"31.19757","category":"250","category_name":"公园户外","address":"中山南一路800"},{"poiid":"B2094655D26BA7F9469F","title":"莱茵广场","lon":"121.47729","lat":"31.19898","category":"46","category_name":"楼宇","address":"鲁班路611号"},{"poiid":"B2094757D164A7FD429D","title":"吃得福火锅店","lon":"121.473174738","lat":"31.1967585871","category":"247","category_name":"餐饮美食","address":"上海打浦路472(靠近瞿溪路)"},{"poiid":"B2094757D568AAF8499A","title":"瀛通·浦江湾1号","lon":"121.4718669","lat":"31.19208659","category":"47","category_name":"住宅区","address":"开平路70号"},{"poiid":"B2094751D26FA0F8469E","title":"曹杨路","lon":"121.475189","lat":"31.198089","category":"500","category_name":"未知分类","address":null},{"poiid":"B2094654DA6DAAF54798","title":"良友(打浦路)","lon":"121.47286","lat":"31.19699","category":"117","category_name":"便民商店/便利店","address":"打浦路474"},{"poiid":"B2094757D064A3FE419B","title":"衡辰商务楼","lon":"121.47322727","lat":"31.194003299","category":"252","category_name":"楼宇机构","address":"上海打浦路398弄4号楼"},{"poiid":"B2094757D16FA4F9499A","title":"日清设计","lon":"121.473350525","lat":"31.1949634552","category":"148","category_name":"美容美发店","address":"上海茶陵路159弄18号"},{"poiid":"B2094655D268A7F8449B","title":"中山南一路1043弄小区(南门)","lon":"121.47285","lat":"31.19601","category":"47","category_name":"住宅区","address":"中山南一路1043弄1-6号"},{"poiid":"B2094654DA6DAAF44992","title":"江南造船大厦住宅楼","lon":"121.47614","lat":"31.198376","category":"47","category_name":"住宅区","address":"鲁班路598弄1号"},{"poiid":"B2094654DB6BA4FC449F","title":"打浦路500弄1-7号小区","lon":"121.47318","lat":"31.19649","category":"47","category_name":"住宅区","address":"打浦路500弄1-7号"},{"poiid":"B209475CD568A1F44593","title":"金赛罗海鲜烤肉","lon":"121.477478","lat":"31.19914","category":"247","category_name":"餐饮美食","address":"上海市 上海市卢湾区鲁班路615号"},{"poiid":"B2094757D06BA2FC459D","title":"卢湾区公安分局交通警察支队","lon":"121.479028","lat":"31.197578","category":"500","category_name":"未知分类","address":"上海中山南一路800号"},{"poiid":"B2094757D66DAAFF489B","title":"144路中山南一路打浦路站","lon":"121.47377323","lat":"31.196121973","category":"500","category_name":"未知分类","address":"上海市卢湾区中山南一路近打浦路东侧"},{"poiid":"B2094757D16BAAFB449C","title":"CEVA headoffice","lon":"121.476312","lat":"31.197732","category":"500","category_name":"未知分类","address":"上海鲁班路600号19楼"},{"poiid":"B2094757D064AAFE459F","title":"公交253路鲁班路终点站","lon":"121.47765523","lat":"31.197693659","category":"500","category_name":"未知分类","address":"上海中山南路鲁班路"},{"poiid":"B2094757D165A7FA4593","title":"南园新村","lon":"121.473810738","lat":"31.1963975794","category":"252","category_name":"楼宇机构","address":"卢湾区打浦路457弄6号(打浦路中山南一路)"},{"poiid":"B2094654DA6DA4F94698","title":"中辉新苑(西门)","lon":"121.47417","lat":"31.19568","category":"48","category_name":"楼宇大门","address":""},{"poiid":"B2094751D568A7F4469C","title":"鲜手仙","lon":"121.477692","lat":"31.198746","category":"67","category_name":"甜品店","address":"卢湾区瞿溪路988号汇暻生活广场1楼(近鲁班路)"},{"poiid":"B2094751DA68A6F84498","title":"瑞金医院六号楼","lon":"121.472538","lat":"31.194514","category":"252","category_name":"楼宇机构","address":"瑞金二路"},{"poiid":"B2094655D268A4FE4198","title":"打浦路480弄小区(东门)","lon":"121.47305","lat":"31.19676","category":"47","category_name":"住宅区","address":"打浦路480弄"},{"poiid":"B209475CD469A1FB4299","title":"罗曼园卢宾巴黎印象馆","lon":"121.483261","lat":"31.193529","category":"500","category_name":"未知分类","address":"上海市 局门路735号"},{"poiid":"B2094655D26EA1F8439F","title":"打浦路480弄小区","lon":"121.473","lat":"31.19674","category":"47","category_name":"住宅区","address":"打浦路480弄"},{"poiid":"B2094655D264A7F54599","title":"海珀·日晖(东门)","lon":"121.47469","lat":"31.19278","category":"656","category_name":"大门","address":""},{"poiid":"B2094654DA68A7FA449A","title":"卢湾五里靓车房汽车清洁服务社","lon":"121.47866","lat":"31.19738","category":"159","category_name":"汽车维修","address":"中山南一路802"},{"poiid":"B2094757DA64ABFF4992","title":"新富港中心","lon":"121.481527","lat":"31.197614","category":"252","category_name":"楼宇机构","address":"胶南市珠海东路288号"},{"poiid":"B2094757D16FAAFF4493","title":"*^o^*","lon":"121.472943","lat":"31.195418","category":"500","category_name":"未知分类","address":null},{"poiid":"B2094655D268A1FF4493","title":"瞿溪路1032弄小区","lon":"121.47595","lat":"31.19882","category":"47","category_name":"住宅区","address":"瞿溪路1032弄1-4号"},{"poiid":"B2094752D368A0FC4499","title":"上海市公安局黄浦分局出入境管理办公室","lon":"121.475223","lat":"31.198381","category":"627","category_name":"一般地点标志","address":"蒙自路701号"},{"poiid":"B2094757D064AAF84693","title":"敦煌艺术展","lon":"121.479272038","lat":"31.1979811131","category":"500","category_name":"未知分类","address":"上海局门路世博纪念馆临展馆"},{"poiid":"B2094757D66CABFE4792","title":"峒•小窩","lon":"121.475129738","lat":"31.1975346036","category":"500","category_name":"未知分类","address":null},{"poiid":"B2094757D06AAAFD409A","title":"打浦路北方大厦","lon":"121.47308712","lat":"31.196639454","category":"500","category_name":"未知分类","address":"上海市卢湾区打浦路457弄"},{"poiid":"B2094655D268A1FF459A","title":"瞿溪路1032弄小区(东门)","lon":"121.47593","lat":"31.19903","category":"47","category_name":"住宅区","address":"瞿溪路1032弄1-4号"},{"poiid":"B2094757D169AAFF4893","title":"苏公馆","lon":"121.477328938","lat":"31.1992656405","category":"47","category_name":"住宅区","address":"上海瞿溪路926弄"},{"poiid":"B2094654DB65A1FF479F","title":"瞿溪路1060弄1-4号小区","lon":"121.47502","lat":"31.19861","category":"47","category_name":"住宅区","address":"瞿溪路1060弄1-4号"},{"poiid":"B2094757D169A7FF459B","title":"卢湾就业促进中心","lon":"121.479285538","lat":"31.1982065179","category":"500","category_name":"未知分类","address":"卢湾区中山南一路555号(近局门路)"},{"poiid":"B2094654DA6DAAF5419A","title":"晟豪驾校报名点(中山南一路)","lon":"121.47433","lat":"31.19657","category":"248","category_name":"生活娱乐","address":"中山南一路937识别"},{"poiid":"B2094757D16BAAFB449F","title":"17路打浦路瞿溪路站","lon":"121.48037173","lat":"31.19783561","category":"500","category_name":"未知分类","address":"上海打浦路瞿溪路"},{"poiid":"B2094757D16BA7F4459B","title":"36路终点站","lon":"121.48093414","lat":"31.189289093","category":"500","category_name":"未知分类","address":"上海卢浦大桥"},{"poiid":"B2094654DA6DAAF54299","title":"中国工商银行上海市瞿溪路支行","lon":"121.47317","lat":"31.19731","category":"150","category_name":"银行","address":"卢湾区打浦路443号(近中山南一路)"},{"poiid":"B2094757D16AA2FC449A","title":"安旭市场研究服务有限公司","lon":"121.472185238","lat":"31.1957605659","category":"500","category_name":"未知分类","address":"上海打浦路398弄4号衡辰商务楼409室(靠近中山南二路)"},{"poiid":"B209475CDA64A0FD409A","title":"食之秘（汇暻店）","lon":"121.481994","lat":"31.197282","category":"500","category_name":"未知分类","address":"上海市 上海市瞿溪路988号汇暻生活广场1楼"},{"poiid":"B2094655D265A0F8459C","title":"海珀·日晖(北门)","lon":"121.47331","lat":"31.19353","category":"656","category_name":"大门","address":""},{"poiid":"B2094757D164A7F4409B","title":"新象城购物广场","lon":"121.47973173","lat":"31.198038614","category":"249","category_name":"购物服务","address":"运城河东东街和学苑路交叉口"},{"poiid":"B2094750DB69AAFE499B","title":"汇璟生活广场","lon":"121.482192","lat":"31.196895","category":"248","category_name":"生活娱乐","address":"鲁班路瞿溪路"},{"poiid":"B2094757D068A3F4449E","title":"●~Nicole_Kwok's home~●","lon":"121.476926","lat":"31.199018","category":"500","category_name":"未知分类","address":"上海市卢湾区鲁班路瞿溪路937弄**号***室"},{"poiid":"B2094757D66EA3FE4699","title":"巴比伦棋牌室","lon":"121.48077332","lat":"31.197953292","category":"248","category_name":"生活娱乐","address":"上海瞿溪路"},{"poiid":"B2094751D565A6FE459E","title":"汇暻生活广场","lon":"121.474899","lat":"31.198334","category":"248","category_name":"生活娱乐","address":"卢湾区鲁班路"},{"poiid":"B2094757D66EABFC409B","title":"贴地飞行","lon":"121.476465","lat":"31.198585","category":"248","category_name":"生活娱乐","address":"上海延安中路839号120"},{"poiid":"B2094752D06BA5F44192","title":"凌兆新村","lon":"121.473572","lat":"31.195999","category":"627","category_name":"一般地点标志","address":"上海地铁8号线"},{"poiid":"B2094654DA6DA4F9479E","title":"新华南园大厦(东门)","lon":"121.47185","lat":"31.19279","category":"656","category_name":"大门","address":""},{"poiid":"B2094750D365A4FA499C","title":"华祥苑茗茶馆","lon":"121.477737","lat":"31.198606","category":"260","category_name":"其他","address":"卢湾区瞿溪路988号汇暻生活广场4楼(近鲁班路)"}]