[{"poiid":"B2094654DB65A4FE4793","title":"上海交通大学医学院","lon":"121.47212","lat":"31.21238","category":"671","category_name":"高校中心点","address":"上海市重庆南路227号"},{"poiid":"B2094757D06FA2FD4399","title":"吉祥草","lon":"121.47559","lat":"31.21365","category":"89","category_name":"中式素餐馆","address":"卢湾区马当路428号2楼(近合肥路)"},{"poiid":"B2094757D16CA3FA409F","title":"上海谦刺青","lon":"121.471876238","lat":"31.2107683855","category":"260","category_name":"其他","address":"徐汇区永嘉路527弄4号"},{"poiid":"B2094753D76FAAFA449C","title":"上海滩国泰旗舰店","lon":"121.466011","lat":"31.216125","category":"249","category_name":"购物服务","address":"淮海中路868号"},{"poiid":"B209475CD564A7F84292","title":"上海滩新天地店","lon":"121.47463","lat":"31.22164","category":"119","category_name":"商场","address":"\"太仓路181弄新天地北里15号\r\n\""},{"poiid":"B209475CD564A7F8439E","title":"上海滩中信泰富店","lon":"121.45602","lat":"31.22851","category":"119","category_name":"商场","address":"\"南京西路1168号中信泰富广场，店铺号221.\r\n\""},{"poiid":"B2094757D06FA3F8449A","title":"COSTA COFFEE(思南公馆店)","lon":"121.46997364","lat":"31.21457859","category":"65","category_name":"咖啡厅","address":"卢湾区复兴中路507弄5号1楼103室(近重庆南路)"},{"poiid":"B2094751D56BA1F44893","title":"壹品饼家（新天地店）","lon":"121.47524","lat":"31.21418","category":"67","category_name":"甜品店","address":"卢湾区卢湾区马当路245号新天地时尚B1楼(近复兴中路)"},{"poiid":"B2094757D66EA7FC499F","title":"交通大学医学院","lon":"121.47045573","lat":"31.212595924","category":"253","category_name":"校园生活","address":"上海重庆南路280号"},{"poiid":"B2094757D06AA4FE439E","title":"交大医学院","lon":"121.47128583","lat":"31.211549299","category":"253","category_name":"校园生活","address":"上海重庆南路靠近建国路"},{"poiid":"B2094757D164A2FF449F","title":"南北高架","lon":"121.470309792","lat":"31.2140381135","category":"500","category_name":"未知分类","address":"上海卢湾"},{"poiid":"B2094757D069ABFA409C","title":"上海市基督教诸圣堂","lon":"121.473615","lat":"31.215621","category":"245","category_name":"教堂","address":"上海复兴中路425号(近淡水路)"},{"poiid":"B2094757D065ABF94893","title":"交大医学院懿德楼","lon":"121.472265","lat":"31.212037","category":"500","category_name":"未知分类","address":"上海重庆南路227号"},{"poiid":"B2094757D06FA2F4409F","title":"巴士大厦","lon":"121.47304474","lat":"31.210916296","category":"46","category_name":"楼宇","address":"上海卢湾区建国东路525号(近重庆南路)"},{"poiid":"B2094750D26EABFA499F","title":"吉祥草素食馆 Lucky  Zen&Veg  Restaurant","lon":"121.47517238998","lat":"31.213610898688","category":"89","category_name":"中式素餐馆","address":"马当路428号2楼近合肥路"},{"poiid":"B2094757D064A7FC479F","title":"上海第二医科大学","lon":"121.470434636","lat":"31.211727589","category":"671","category_name":"高校中心点","address":"上海重庆南路227号"},{"poiid":"B2094753D76AA5FC439A","title":"树洞咖啡","lon":"121.47134","lat":"31.21385","category":"65","category_name":"咖啡厅","address":"上海市卢湾区合肥路636号(近重庆南路)"},{"poiid":"B2094757D06BA4FF4299","title":"卢湾区第一中心小学","lon":"121.47419","lat":"31.21231","category":"56","category_name":"小学","address":"卢湾区淡水路416号(淡水路建国东路)"},{"poiid":"B2094654DA6FA3FE4793","title":"圣乐大酒店","lon":"121.47262","lat":"31.21314","category":"88","category_name":"海鲜酒楼","address":"卢湾区金陵西路38号(连云路口)"},{"poiid":"B2094654DA6DA5FE429B","title":"天主教上海教区圣伯多禄堂","lon":"121.46995","lat":"31.21339","category":"245","category_name":"教堂","address":"重庆南路270"},{"poiid":"B2094757D66DA1FD489E","title":"嘉定汽车公园","lon":"121.47260803","lat":"31.213414041","category":"196","category_name":"公园","address":"上海嘉定汽车博物馆"},{"poiid":"B2094751DA6FA6FA439B","title":"cafe espmark","lon":"121.472498","lat":"31.213737","category":"248","category_name":"生活娱乐","address":"上海市黄浦区合肥路588号"},{"poiid":"B2094757D06FA5FA4799","title":"原味坊(八号桥店)","lon":"121.47149658","lat":"31.210737228","category":"67","category_name":"甜品店","address":"上海卢湾区建国中路10号8号楼8101(近重庆南路)"},{"poiid":"B2094757D064A5FB469E","title":"黎云阁","lon":"121.47304678","lat":"31.215470918","category":"76","category_name":"上海菜","address":"卢湾区复兴中路470号(近淡水路)"},{"poiid":"B2094750D76CA3FF4098","title":"3Q脆皮鸡排","lon":"121.474","lat":"31.2144","category":"68","category_name":"快餐厅","address":"卢湾区合肥路297号(近淡水路)"},{"poiid":"B2094757D069A4F94393","title":"上海交通大学医学院合肥路学生公寓","lon":"121.47309764","lat":"31.213114581","category":"500","category_name":"未知分类","address":"卢湾区重庆南路227号交通大学医学院内(近合肥路)"},{"poiid":"B2094655D268A0FF449C","title":"上海交通大学医学院(北门)","lon":"121.4725","lat":"31.21357","category":"656","category_name":"大门","address":"合肥路381"},{"poiid":"B2094654DA6FA3FE469E","title":"韬奋纪念馆","lon":"121.47106","lat":"31.2141","category":"243","category_name":"纪念馆","address":"卢湾区重庆南路205弄53-54号(合肥路重庆南路)"},{"poiid":"B2094757D064A4FD429E","title":"香山路7号","lon":"121.47295173","lat":"31.213255938","category":"500","category_name":"未知分类","address":"上海香山路7号"},{"poiid":"B2094655D26BA0FB4493","title":"重庆南路杂粮煎饼摊","lon":"121.47213","lat":"31.21238","category":"68","category_name":"快餐厅","address":"卢湾区重庆南路227号二医大教育超市门口"},{"poiid":"B2094757D064ABFF459C","title":"海文商务楼","lon":"121.47376723","lat":"31.213863451","category":"252","category_name":"楼宇机构","address":"上海合肥路315号"},{"poiid":"B209475CD06BA7F9479B","title":"Small Spice","lon":"121.474174","lat":"31.213106","category":"75","category_name":"浙江菜","address":"淡水路250号"},{"poiid":"B2094654DA6FA3FF4492","title":"上海市兴业中学","lon":"121.47257","lat":"31.21138","category":"55","category_name":"中学","address":"卢湾区建国东路518号"},{"poiid":"B2094654DB6BA4FB479F","title":"二医大小区(合肥路)","lon":"121.47165","lat":"31.21362","category":"47","category_name":"住宅区","address":"合肥路381"},{"poiid":"B2094655D268A0F84899","title":"合肥小区(南门)","lon":"121.47216","lat":"31.21389","category":"47","category_name":"住宅区","address":"合肥路592弄16-31号"},{"poiid":"B2094655D268A6F44598","title":"体育馆","lon":"121.47292","lat":"31.21284","category":"224","category_name":"综合体育馆","address":""},{"poiid":"B2094654DB6BA4FB469D","title":"豪享来中西餐厅(马当路)","lon":"121.47533","lat":"31.21392","category":"94","category_name":"西餐厅","address":"卢湾区马当路428号(近合肥路)"},{"poiid":"B2094654DA6FA3FE4792","title":"花园理发店","lon":"121.47223","lat":"31.21387","category":"148","category_name":"美容美发店","address":""},{"poiid":"B2094654DA6FA3FE4299","title":"淡水公寓","lon":"121.47429","lat":"31.212645","category":"47","category_name":"住宅区","address":"上海市卢湾区淡水路361号"},{"poiid":"B2094655D268A6F4459F","title":"合肥小区","lon":"121.47216","lat":"31.21409","category":"47","category_name":"住宅区","address":"合肥路592弄16-31号"},{"poiid":"B2094757D06AA2FC409E","title":"瑞金医院干部病房","lon":"121.47264301","lat":"31.212139202","category":"162","category_name":"医院","address":"上海市卢湾区建德路9号瑞金医院一号门内九号楼"},{"poiid":"B2094752DB6CA5FA469D","title":"思南公館","lon":"121.473636","lat":"31.21627","category":"500","category_name":"未知分类","address":"上海市 上海市思南路"},{"poiid":"B209475CDA65ABFB4093","title":"Enight.C.Bar","lon":"121.472165","lat":"31.213828","category":"500","category_name":"未知分类","address":"黄浦区合肥路588号（近重庆南路）"},{"poiid":"B2094654DA6FA3FE499A","title":"淮海中路街道社区卫生服务中心","lon":"121.47365","lat":"31.21475","category":"162","category_name":"医院","address":"卢湾区淡水路285号(近合肥路)"},{"poiid":"B2094757D16AA6F9489C","title":"大桥一线","lon":"121.47371208","lat":"31.214056722","category":"38","category_name":"公交车站","address":"上海重庆南路建国中路"},{"poiid":"B2094757D66DA3FB429B","title":"肇嘉浜路地铁站","lon":"121.472531","lat":"31.210758","category":"36","category_name":"地铁站","address":"上海轨道交通7/9号线 肇嘉浜路站"},{"poiid":"B2094654DA6FA3FE4899","title":"上海交通大学医学院学生活动中心","lon":"121.47296","lat":"31.21361","category":"248","category_name":"生活娱乐","address":"合肥路365"},{"poiid":"B209475DD76EA1FB439E","title":"新天地","lon":"121.473968","lat":"31.213369","category":"249","category_name":"购物服务","address":"上海市 淮海路"},{"poiid":"B2094757D064A2FB439A","title":"思南公馆诗碧阁Specialty","lon":"121.47044173","lat":"31.214863972","category":"500","category_name":"未知分类","address":"上海市卢湾区南昌路"},{"poiid":"B2094757D464AAF44599","title":"交通大学医学院食堂","lon":"121.471829054","lat":"31.211296793","category":"76","category_name":"上海菜","address":"卢湾区重庆南路227号交通大学医学院内(近合肥路)"},{"poiid":"B2094654DB65A4FE4793","title":"上海交通大学医学院","lon":"121.47212","lat":"31.21238","category":"671","category_name":"高校中心点","address":"上海市重庆南路227号"},{"poiid":"B2094757D06FA2FD4399","title":"吉祥草","lon":"121.47559","lat":"31.21365","category":"89","category_name":"中式素餐馆","address":"卢湾区马当路428号2楼(近合肥路)"},{"poiid":"B2094757D16CA3FA409F","title":"上海谦刺青","lon":"121.471876238","lat":"31.2107683855","category":"260","category_name":"其他","address":"徐汇区永嘉路527弄4号"},{"poiid":"B2094753D76FAAFA449C","title":"上海滩国泰旗舰店","lon":"121.466011","lat":"31.216125","category":"249","category_name":"购物服务","address":"淮海中路868号"},{"poiid":"B209475CD564A7F84292","title":"上海滩新天地店","lon":"121.47463","lat":"31.22164","category":"119","category_name":"商场","address":"\"太仓路181弄新天地北里15号\r\n\""},{"poiid":"B209475CD564A7F8439E","title":"上海滩中信泰富店","lon":"121.45602","lat":"31.22851","category":"119","category_name":"商场","address":"\"南京西路1168号中信泰富广场，店铺号221.\r\n\""},{"poiid":"B2094757D06FA3F8449A","title":"COSTA COFFEE(思南公馆店)","lon":"121.46997364","lat":"31.21457859","category":"65","category_name":"咖啡厅","address":"卢湾区复兴中路507弄5号1楼103室(近重庆南路)"},{"poiid":"B2094751D56BA1F44893","title":"壹品饼家（新天地店）","lon":"121.47524","lat":"31.21418","category":"67","category_name":"甜品店","address":"卢湾区卢湾区马当路245号新天地时尚B1楼(近复兴中路)"},{"poiid":"B2094757D66EA7FC499F","title":"交通大学医学院","lon":"121.47045573","lat":"31.212595924","category":"253","category_name":"校园生活","address":"上海重庆南路280号"},{"poiid":"B2094757D06AA4FE439E","title":"交大医学院","lon":"121.47128583","lat":"31.211549299","category":"253","category_name":"校园生活","address":"上海重庆南路靠近建国路"},{"poiid":"B2094757D164A2FF449F","title":"南北高架","lon":"121.470309792","lat":"31.2140381135","category":"500","category_name":"未知分类","address":"上海卢湾"},{"poiid":"B2094757D069ABFA409C","title":"上海市基督教诸圣堂","lon":"121.473615","lat":"31.215621","category":"245","category_name":"教堂","address":"上海复兴中路425号(近淡水路)"},{"poiid":"B2094757D065ABF94893","title":"交大医学院懿德楼","lon":"121.472265","lat":"31.212037","category":"500","category_name":"未知分类","address":"上海重庆南路227号"},{"poiid":"B2094757D06FA2F4409F","title":"巴士大厦","lon":"121.47304474","lat":"31.210916296","category":"46","category_name":"楼宇","address":"上海卢湾区建国东路525号(近重庆南路)"},{"poiid":"B2094750D26EABFA499F","title":"吉祥草素食馆 Lucky  Zen&Veg  Restaurant","lon":"121.47517238998","lat":"31.213610898688","category":"89","category_name":"中式素餐馆","address":"马当路428号2楼近合肥路"},{"poiid":"B2094757D064A7FC479F","title":"上海第二医科大学","lon":"121.470434636","lat":"31.211727589","category":"671","category_name":"高校中心点","address":"上海重庆南路227号"},{"poiid":"B2094753D76AA5FC439A","title":"树洞咖啡","lon":"121.47134","lat":"31.21385","category":"65","category_name":"咖啡厅","address":"上海市卢湾区合肥路636号(近重庆南路)"},{"poiid":"B2094757D06BA4FF4299","title":"卢湾区第一中心小学","lon":"121.47419","lat":"31.21231","category":"56","category_name":"小学","address":"卢湾区淡水路416号(淡水路建国东路)"},{"poiid":"B2094654DA6FA3FE4793","title":"圣乐大酒店","lon":"121.47262","lat":"31.21314","category":"88","category_name":"海鲜酒楼","address":"卢湾区金陵西路38号(连云路口)"},{"poiid":"B2094654DA6DA5FE429B","title":"天主教上海教区圣伯多禄堂","lon":"121.46995","lat":"31.21339","category":"245","category_name":"教堂","address":"重庆南路270"},{"poiid":"B2094757D66DA1FD489E","title":"嘉定汽车公园","lon":"121.47260803","lat":"31.213414041","category":"196","category_name":"公园","address":"上海嘉定汽车博物馆"},{"poiid":"B2094751DA6FA6FA439B","title":"cafe espmark","lon":"121.472498","lat":"31.213737","category":"248","category_name":"生活娱乐","address":"上海市黄浦区合肥路588号"},{"poiid":"B2094757D06FA5FA4799","title":"原味坊(八号桥店)","lon":"121.47149658","lat":"31.210737228","category":"67","category_name":"甜品店","address":"上海卢湾区建国中路10号8号楼8101(近重庆南路)"},{"poiid":"B2094757D064A5FB469E","title":"黎云阁","lon":"121.47304678","lat":"31.215470918","category":"76","category_name":"上海菜","address":"卢湾区复兴中路470号(近淡水路)"},{"poiid":"B2094750D76CA3FF4098","title":"3Q脆皮鸡排","lon":"121.474","lat":"31.2144","category":"68","category_name":"快餐厅","address":"卢湾区合肥路297号(近淡水路)"},{"poiid":"B2094757D069A4F94393","title":"上海交通大学医学院合肥路学生公寓","lon":"121.47309764","lat":"31.213114581","category":"500","category_name":"未知分类","address":"卢湾区重庆南路227号交通大学医学院内(近合肥路)"},{"poiid":"B2094655D268A0FF449C","title":"上海交通大学医学院(北门)","lon":"121.4725","lat":"31.21357","category":"656","category_name":"大门","address":"合肥路381"},{"poiid":"B2094654DA6FA3FE469E","title":"韬奋纪念馆","lon":"121.47106","lat":"31.2141","category":"243","category_name":"纪念馆","address":"卢湾区重庆南路205弄53-54号(合肥路重庆南路)"},{"poiid":"B2094757D064A4FD429E","title":"香山路7号","lon":"121.47295173","lat":"31.213255938","category":"500","category_name":"未知分类","address":"上海香山路7号"},{"poiid":"B2094655D26BA0FB4493","title":"重庆南路杂粮煎饼摊","lon":"121.47213","lat":"31.21238","category":"68","category_name":"快餐厅","address":"卢湾区重庆南路227号二医大教育超市门口"},{"poiid":"B2094757D064ABFF459C","title":"海文商务楼","lon":"121.47376723","lat":"31.213863451","category":"252","category_name":"楼宇机构","address":"上海合肥路315号"},{"poiid":"B209475CD06BA7F9479B","title":"Small Spice","lon":"121.474174","lat":"31.213106","category":"75","category_name":"浙江菜","address":"淡水路250号"},{"poiid":"B2094654DA6FA3FF4492","title":"上海市兴业中学","lon":"121.47257","lat":"31.21138","category":"55","category_name":"中学","address":"卢湾区建国东路518号"},{"poiid":"B2094654DB6BA4FB479F","title":"二医大小区(合肥路)","lon":"121.47165","lat":"31.21362","category":"47","category_name":"住宅区","address":"合肥路381"},{"poiid":"B2094655D268A0F84899","title":"合肥小区(南门)","lon":"121.47216","lat":"31.21389","category":"47","category_name":"住宅区","address":"合肥路592弄16-31号"},{"poiid":"B2094655D268A6F44598","title":"体育馆","lon":"121.47292","lat":"31.21284","category":"224","category_name":"综合体育馆","address":""},{"poiid":"B2094654DB6BA4FB469D","title":"豪享来中西餐厅(马当路)","lon":"121.47533","lat":"31.21392","category":"94","category_name":"西餐厅","address":"卢湾区马当路428号(近合肥路)"},{"poiid":"B2094654DA6FA3FE4792","title":"花园理发店","lon":"121.47223","lat":"31.21387","category":"148","category_name":"美容美发店","address":""},{"poiid":"B2094654DA6FA3FE4299","title":"淡水公寓","lon":"121.47429","lat":"31.212645","category":"47","category_name":"住宅区","address":"上海市卢湾区淡水路361号"},{"poiid":"B2094655D268A6F4459F","title":"合肥小区","lon":"121.47216","lat":"31.21409","category":"47","category_name":"住宅区","address":"合肥路592弄16-31号"},{"poiid":"B2094757D06AA2FC409E","title":"瑞金医院干部病房","lon":"121.47264301","lat":"31.212139202","category":"162","category_name":"医院","address":"上海市卢湾区建德路9号瑞金医院一号门内九号楼"},{"poiid":"B2094752DB6CA5FA469D","title":"思南公館","lon":"121.473636","lat":"31.21627","category":"500","category_name":"未知分类","address":"上海市 上海市思南路"},{"poiid":"B209475CDA65ABFB4093","title":"Enight.C.Bar","lon":"121.472165","lat":"31.213828","category":"500","category_name":"未知分类","address":"黄浦区合肥路588号（近重庆南路）"},{"poiid":"B2094654DA6FA3FE499A","title":"淮海中路街道社区卫生服务中心","lon":"121.47365","lat":"31.21475","category":"162","category_name":"医院","address":"卢湾区淡水路285号(近合肥路)"},{"poiid":"B2094757D16AA6F9489C","title":"大桥一线","lon":"121.47371208","lat":"31.214056722","category":"38","category_name":"公交车站","address":"上海重庆南路建国中路"},{"poiid":"B2094757D66DA3FB429B","title":"肇嘉浜路地铁站","lon":"121.472531","lat":"31.210758","category":"36","category_name":"地铁站","address":"上海轨道交通7/9号线 肇嘉浜路站"},{"poiid":"B2094654DA6FA3FE4899","title":"上海交通大学医学院学生活动中心","lon":"121.47296","lat":"31.21361","category":"248","category_name":"生活娱乐","address":"合肥路365"},{"poiid":"B209475DD76EA1FB439E","title":"新天地","lon":"121.473968","lat":"31.213369","category":"249","category_name":"购物服务","address":"上海市 淮海路"},{"poiid":"B2094757D064A2FB439A","title":"思南公馆诗碧阁Specialty","lon":"121.47044173","lat":"31.214863972","category":"500","category_name":"未知分类","address":"上海市卢湾区南昌路"},{"poiid":"B2094757D464AAF44599","title":"交通大学医学院食堂","lon":"121.471829054","lat":"31.211296793","category":"76","category_name":"上海菜","address":"卢湾区重庆南路227号交通大学医学院内(近合肥路)"},{"poiid":"B2094654DB65A4FE4793","title":"上海交通大学医学院","lon":"121.47212","lat":"31.21238","category":"671","category_name":"高校中心点","address":"上海市重庆南路227号"},{"poiid":"B2094757D06FA2FD4399","title":"吉祥草","lon":"121.47559","lat":"31.21365","category":"89","category_name":"中式素餐馆","address":"卢湾区马当路428号2楼(近合肥路)"},{"poiid":"B2094757D16CA3FA409F","title":"上海谦刺青","lon":"121.471876238","lat":"31.2107683855","category":"260","category_name":"其他","address":"徐汇区永嘉路527弄4号"},{"poiid":"B2094753D76FAAFA449C","title":"上海滩国泰旗舰店","lon":"121.466011","lat":"31.216125","category":"249","category_name":"购物服务","address":"淮海中路868号"},{"poiid":"B209475CD564A7F84292","title":"上海滩新天地店","lon":"121.47463","lat":"31.22164","category":"119","category_name":"商场","address":"\"太仓路181弄新天地北里15号\r\n\""},{"poiid":"B209475CD564A7F8439E","title":"上海滩中信泰富店","lon":"121.45602","lat":"31.22851","category":"119","category_name":"商场","address":"\"南京西路1168号中信泰富广场，店铺号221.\r\n\""},{"poiid":"B2094757D06FA3F8449A","title":"COSTA COFFEE(思南公馆店)","lon":"121.46997364","lat":"31.21457859","category":"65","category_name":"咖啡厅","address":"卢湾区复兴中路507弄5号1楼103室(近重庆南路)"},{"poiid":"B2094751D56BA1F44893","title":"壹品饼家（新天地店）","lon":"121.47524","lat":"31.21418","category":"67","category_name":"甜品店","address":"卢湾区卢湾区马当路245号新天地时尚B1楼(近复兴中路)"},{"poiid":"B2094757D66EA7FC499F","title":"交通大学医学院","lon":"121.47045573","lat":"31.212595924","category":"253","category_name":"校园生活","address":"上海重庆南路280号"},{"poiid":"B2094757D06AA4FE439E","title":"交大医学院","lon":"121.47128583","lat":"31.211549299","category":"253","category_name":"校园生活","address":"上海重庆南路靠近建国路"},{"poiid":"B2094757D164A2FF449F","title":"南北高架","lon":"121.470309792","lat":"31.2140381135","category":"500","category_name":"未知分类","address":"上海卢湾"},{"poiid":"B2094757D069ABFA409C","title":"上海市基督教诸圣堂","lon":"121.473615","lat":"31.215621","category":"245","category_name":"教堂","address":"上海复兴中路425号(近淡水路)"},{"poiid":"B2094757D065ABF94893","title":"交大医学院懿德楼","lon":"121.472265","lat":"31.212037","category":"500","category_name":"未知分类","address":"上海重庆南路227号"},{"poiid":"B2094757D06FA2F4409F","title":"巴士大厦","lon":"121.47304474","lat":"31.210916296","category":"46","category_name":"楼宇","address":"上海卢湾区建国东路525号(近重庆南路)"},{"poiid":"B2094750D26EABFA499F","title":"吉祥草素食馆 Lucky  Zen&Veg  Restaurant","lon":"121.47517238998","lat":"31.213610898688","category":"89","category_name":"中式素餐馆","address":"马当路428号2楼近合肥路"},{"poiid":"B2094757D064A7FC479F","title":"上海第二医科大学","lon":"121.470434636","lat":"31.211727589","category":"671","category_name":"高校中心点","address":"上海重庆南路227号"},{"poiid":"B2094753D76AA5FC439A","title":"树洞咖啡","lon":"121.47134","lat":"31.21385","category":"65","category_name":"咖啡厅","address":"上海市卢湾区合肥路636号(近重庆南路)"},{"poiid":"B2094757D06BA4FF4299","title":"卢湾区第一中心小学","lon":"121.47419","lat":"31.21231","category":"56","category_name":"小学","address":"卢湾区淡水路416号(淡水路建国东路)"},{"poiid":"B2094654DA6FA3FE4793","title":"圣乐大酒店","lon":"121.47262","lat":"31.21314","category":"88","category_name":"海鲜酒楼","address":"卢湾区金陵西路38号(连云路口)"},{"poiid":"B2094654DA6DA5FE429B","title":"天主教上海教区圣伯多禄堂","lon":"121.46995","lat":"31.21339","category":"245","category_name":"教堂","address":"重庆南路270"},{"poiid":"B2094757D66DA1FD489E","title":"嘉定汽车公园","lon":"121.47260803","lat":"31.213414041","category":"196","category_name":"公园","address":"上海嘉定汽车博物馆"},{"poiid":"B2094751DA6FA6FA439B","title":"cafe espmark","lon":"121.472498","lat":"31.213737","category":"248","category_name":"生活娱乐","address":"上海市黄浦区合肥路588号"},{"poiid":"B2094757D06FA5FA4799","title":"原味坊(八号桥店)","lon":"121.47149658","lat":"31.210737228","category":"67","category_name":"甜品店","address":"上海卢湾区建国中路10号8号楼8101(近重庆南路)"},{"poiid":"B2094757D064A5FB469E","title":"黎云阁","lon":"121.47304678","lat":"31.215470918","category":"76","category_name":"上海菜","address":"卢湾区复兴中路470号(近淡水路)"},{"poiid":"B2094750D76CA3FF4098","title":"3Q脆皮鸡排","lon":"121.474","lat":"31.2144","category":"68","category_name":"快餐厅","address":"卢湾区合肥路297号(近淡水路)"},{"poiid":"B2094757D069A4F94393","title":"上海交通大学医学院合肥路学生公寓","lon":"121.47309764","lat":"31.213114581","category":"500","category_name":"未知分类","address":"卢湾区重庆南路227号交通大学医学院内(近合肥路)"},{"poiid":"B2094655D268A0FF449C","title":"上海交通大学医学院(北门)","lon":"121.4725","lat":"31.21357","category":"656","category_name":"大门","address":"合肥路381"},{"poiid":"B2094654DA6FA3FE469E","title":"韬奋纪念馆","lon":"121.47106","lat":"31.2141","category":"243","category_name":"纪念馆","address":"卢湾区重庆南路205弄53-54号(合肥路重庆南路)"},{"poiid":"B2094757D064A4FD429E","title":"香山路7号","lon":"121.47295173","lat":"31.213255938","category":"500","category_name":"未知分类","address":"上海香山路7号"},{"poiid":"B2094655D26BA0FB4493","title":"重庆南路杂粮煎饼摊","lon":"121.47213","lat":"31.21238","category":"68","category_name":"快餐厅","address":"卢湾区重庆南路227号二医大教育超市门口"},{"poiid":"B2094757D064ABFF459C","title":"海文商务楼","lon":"121.47376723","lat":"31.213863451","category":"252","category_name":"楼宇机构","address":"上海合肥路315号"},{"poiid":"B209475CD06BA7F9479B","title":"Small Spice","lon":"121.474174","lat":"31.213106","category":"75","category_name":"浙江菜","address":"淡水路250号"},{"poiid":"B2094654DA6FA3FF4492","title":"上海市兴业中学","lon":"121.47257","lat":"31.21138","category":"55","category_name":"中学","address":"卢湾区建国东路518号"},{"poiid":"B2094654DB6BA4FB479F","title":"二医大小区(合肥路)","lon":"121.47165","lat":"31.21362","category":"47","category_name":"住宅区","address":"合肥路381"},{"poiid":"B2094655D268A0F84899","title":"合肥小区(南门)","lon":"121.47216","lat":"31.21389","category":"47","category_name":"住宅区","address":"合肥路592弄16-31号"},{"poiid":"B2094655D268A6F44598","title":"体育馆","lon":"121.47292","lat":"31.21284","category":"224","category_name":"综合体育馆","address":""},{"poiid":"B2094654DB6BA4FB469D","title":"豪享来中西餐厅(马当路)","lon":"121.47533","lat":"31.21392","category":"94","category_name":"西餐厅","address":"卢湾区马当路428号(近合肥路)"},{"poiid":"B2094654DA6FA3FE4792","title":"花园理发店","lon":"121.47223","lat":"31.21387","category":"148","category_name":"美容美发店","address":""},{"poiid":"B2094654DA6FA3FE4299","title":"淡水公寓","lon":"121.47429","lat":"31.212645","category":"47","category_name":"住宅区","address":"上海市卢湾区淡水路361号"},{"poiid":"B2094655D268A6F4459F","title":"合肥小区","lon":"121.47216","lat":"31.21409","category":"47","category_name":"住宅区","address":"合肥路592弄16-31号"},{"poiid":"B2094757D06AA2FC409E","title":"瑞金医院干部病房","lon":"121.47264301","lat":"31.212139202","category":"162","category_name":"医院","address":"上海市卢湾区建德路9号瑞金医院一号门内九号楼"},{"poiid":"B2094752DB6CA5FA469D","title":"思南公館","lon":"121.473636","lat":"31.21627","category":"500","category_name":"未知分类","address":"上海市 上海市思南路"},{"poiid":"B209475CDA65ABFB4093","title":"Enight.C.Bar","lon":"121.472165","lat":"31.213828","category":"500","category_name":"未知分类","address":"黄浦区合肥路588号（近重庆南路）"},{"poiid":"B2094654DA6FA3FE499A","title":"淮海中路街道社区卫生服务中心","lon":"121.47365","lat":"31.21475","category":"162","category_name":"医院","address":"卢湾区淡水路285号(近合肥路)"},{"poiid":"B2094757D16AA6F9489C","title":"大桥一线","lon":"121.47371208","lat":"31.214056722","category":"38","category_name":"公交车站","address":"上海重庆南路建国中路"},{"poiid":"B2094757D66DA3FB429B","title":"肇嘉浜路地铁站","lon":"121.472531","lat":"31.210758","category":"36","category_name":"地铁站","address":"上海轨道交通7/9号线 肇嘉浜路站"},{"poiid":"B2094654DA6FA3FE4899","title":"上海交通大学医学院学生活动中心","lon":"121.47296","lat":"31.21361","category":"248","category_name":"生活娱乐","address":"合肥路365"},{"poiid":"B209475DD76EA1FB439E","title":"新天地","lon":"121.473968","lat":"31.213369","category":"249","category_name":"购物服务","address":"上海市 淮海路"},{"poiid":"B2094757D064A2FB439A","title":"思南公馆诗碧阁Specialty","lon":"121.47044173","lat":"31.214863972","category":"500","category_name":"未知分类","address":"上海市卢湾区南昌路"},{"poiid":"B2094757D464AAF44599","title":"交通大学医学院食堂","lon":"121.471829054","lat":"31.211296793","category":"76","category_name":"上海菜","address":"卢湾区重庆南路227号交通大学医学院内(近合肥路)"},{"poiid":"B2094654DB65A4FE4793","title":"上海交通大学医学院","lon":"121.47212","lat":"31.21238","category":"671","category_name":"高校中心点","address":"上海市重庆南路227号"},{"poiid":"B2094757D06FA2FD4399","title":"吉祥草","lon":"121.47559","lat":"31.21365","category":"89","category_name":"中式素餐馆","address":"卢湾区马当路428号2楼(近合肥路)"},{"poiid":"B2094757D16CA3FA409F","title":"上海谦刺青","lon":"121.471876238","lat":"31.2107683855","category":"260","category_name":"其他","address":"徐汇区永嘉路527弄4号"},{"poiid":"B2094753D76FAAFA449C","title":"上海滩国泰旗舰店","lon":"121.466011","lat":"31.216125","category":"249","category_name":"购物服务","address":"淮海中路868号"},{"poiid":"B209475CD564A7F84292","title":"上海滩新天地店","lon":"121.47463","lat":"31.22164","category":"119","category_name":"商场","address":"\"太仓路181弄新天地北里15号\r\n\""},{"poiid":"B209475CD564A7F8439E","title":"上海滩中信泰富店","lon":"121.45602","lat":"31.22851","category":"119","category_name":"商场","address":"\"南京西路1168号中信泰富广场，店铺号221.\r\n\""},{"poiid":"B2094757D06FA3F8449A","title":"COSTA COFFEE(思南公馆店)","lon":"121.46997364","lat":"31.21457859","category":"65","category_name":"咖啡厅","address":"卢湾区复兴中路507弄5号1楼103室(近重庆南路)"},{"poiid":"B2094751D56BA1F44893","title":"壹品饼家（新天地店）","lon":"121.47524","lat":"31.21418","category":"67","category_name":"甜品店","address":"卢湾区卢湾区马当路245号新天地时尚B1楼(近复兴中路)"},{"poiid":"B2094757D66EA7FC499F","title":"交通大学医学院","lon":"121.47045573","lat":"31.212595924","category":"253","category_name":"校园生活","address":"上海重庆南路280号"},{"poiid":"B2094757D06AA4FE439E","title":"交大医学院","lon":"121.47128583","lat":"31.211549299","category":"253","category_name":"校园生活","address":"上海重庆南路靠近建国路"},{"poiid":"B2094757D164A2FF449F","title":"南北高架","lon":"121.470309792","lat":"31.2140381135","category":"500","category_name":"未知分类","address":"上海卢湾"},{"poiid":"B2094757D069ABFA409C","title":"上海市基督教诸圣堂","lon":"121.473615","lat":"31.215621","category":"245","category_name":"教堂","address":"上海复兴中路425号(近淡水路)"},{"poiid":"B2094757D065ABF94893","title":"交大医学院懿德楼","lon":"121.472265","lat":"31.212037","category":"500","category_name":"未知分类","address":"上海重庆南路227号"},{"poiid":"B2094757D06FA2F4409F","title":"巴士大厦","lon":"121.47304474","lat":"31.210916296","category":"46","category_name":"楼宇","address":"上海卢湾区建国东路525号(近重庆南路)"},{"poiid":"B2094750D26EABFA499F","title":"吉祥草素食馆 Lucky  Zen&Veg  Restaurant","lon":"121.47517238998","lat":"31.213610898688","category":"89","category_name":"中式素餐馆","address":"马当路428号2楼近合肥路"},{"poiid":"B2094757D064A7FC479F","title":"上海第二医科大学","lon":"121.470434636","lat":"31.211727589","category":"671","category_name":"高校中心点","address":"上海重庆南路227号"},{"poiid":"B2094753D76AA5FC439A","title":"树洞咖啡","lon":"121.47134","lat":"31.21385","category":"65","category_name":"咖啡厅","address":"上海市卢湾区合肥路636号(近重庆南路)"},{"poiid":"B2094757D06BA4FF4299","title":"卢湾区第一中心小学","lon":"121.47419","lat":"31.21231","category":"56","category_name":"小学","address":"卢湾区淡水路416号(淡水路建国东路)"},{"poiid":"B2094654DA6FA3FE4793","title":"圣乐大酒店","lon":"121.47262","lat":"31.21314","category":"88","category_name":"海鲜酒楼","address":"卢湾区金陵西路38号(连云路口)"},{"poiid":"B2094654DA6DA5FE429B","title":"天主教上海教区圣伯多禄堂","lon":"121.46995","lat":"31.21339","category":"245","category_name":"教堂","address":"重庆南路270"},{"poiid":"B2094757D66DA1FD489E","title":"嘉定汽车公园","lon":"121.47260803","lat":"31.213414041","category":"196","category_name":"公园","address":"上海嘉定汽车博物馆"},{"poiid":"B2094751DA6FA6FA439B","title":"cafe espmark","lon":"121.472498","lat":"31.213737","category":"248","category_name":"生活娱乐","address":"上海市黄浦区合肥路588号"},{"poiid":"B2094757D06FA5FA4799","title":"原味坊(八号桥店)","lon":"121.47149658","lat":"31.210737228","category":"67","category_name":"甜品店","address":"上海卢湾区建国中路10号8号楼8101(近重庆南路)"},{"poiid":"B2094757D064A5FB469E","title":"黎云阁","lon":"121.47304678","lat":"31.215470918","category":"76","category_name":"上海菜","address":"卢湾区复兴中路470号(近淡水路)"},{"poiid":"B2094750D76CA3FF4098","title":"3Q脆皮鸡排","lon":"121.474","lat":"31.2144","category":"68","category_name":"快餐厅","address":"卢湾区合肥路297号(近淡水路)"},{"poiid":"B2094757D069A4F94393","title":"上海交通大学医学院合肥路学生公寓","lon":"121.47309764","lat":"31.213114581","category":"500","category_name":"未知分类","address":"卢湾区重庆南路227号交通大学医学院内(近合肥路)"},{"poiid":"B2094655D268A0FF449C","title":"上海交通大学医学院(北门)","lon":"121.4725","lat":"31.21357","category":"656","category_name":"大门","address":"合肥路381"},{"poiid":"B2094654DA6FA3FE469E","title":"韬奋纪念馆","lon":"121.47106","lat":"31.2141","category":"243","category_name":"纪念馆","address":"卢湾区重庆南路205弄53-54号(合肥路重庆南路)"},{"poiid":"B2094757D064A4FD429E","title":"香山路7号","lon":"121.47295173","lat":"31.213255938","category":"500","category_name":"未知分类","address":"上海香山路7号"},{"poiid":"B2094655D26BA0FB4493","title":"重庆南路杂粮煎饼摊","lon":"121.47213","lat":"31.21238","category":"68","category_name":"快餐厅","address":"卢湾区重庆南路227号二医大教育超市门口"},{"poiid":"B2094757D064ABFF459C","title":"海文商务楼","lon":"121.47376723","lat":"31.213863451","category":"252","category_name":"楼宇机构","address":"上海合肥路315号"},{"poiid":"B209475CD06BA7F9479B","title":"Small Spice","lon":"121.474174","lat":"31.213106","category":"75","category_name":"浙江菜","address":"淡水路250号"},{"poiid":"B2094654DA6FA3FF4492","title":"上海市兴业中学","lon":"121.47257","lat":"31.21138","category":"55","category_name":"中学","address":"卢湾区建国东路518号"},{"poiid":"B2094654DB6BA4FB479F","title":"二医大小区(合肥路)","lon":"121.47165","lat":"31.21362","category":"47","category_name":"住宅区","address":"合肥路381"},{"poiid":"B2094655D268A0F84899","title":"合肥小区(南门)","lon":"121.47216","lat":"31.21389","category":"47","category_name":"住宅区","address":"合肥路592弄16-31号"},{"poiid":"B2094655D268A6F44598","title":"体育馆","lon":"121.47292","lat":"31.21284","category":"224","category_name":"综合体育馆","address":""},{"poiid":"B2094654DB6BA4FB469D","title":"豪享来中西餐厅(马当路)","lon":"121.47533","lat":"31.21392","category":"94","category_name":"西餐厅","address":"卢湾区马当路428号(近合肥路)"},{"poiid":"B2094654DA6FA3FE4792","title":"花园理发店","lon":"121.47223","lat":"31.21387","category":"148","category_name":"美容美发店","address":""},{"poiid":"B2094654DA6FA3FE4299","title":"淡水公寓","lon":"121.47429","lat":"31.212645","category":"47","category_name":"住宅区","address":"上海市卢湾区淡水路361号"},{"poiid":"B2094655D268A6F4459F","title":"合肥小区","lon":"121.47216","lat":"31.21409","category":"47","category_name":"住宅区","address":"合肥路592弄16-31号"},{"poiid":"B2094757D06AA2FC409E","title":"瑞金医院干部病房","lon":"121.47264301","lat":"31.212139202","category":"162","category_name":"医院","address":"上海市卢湾区建德路9号瑞金医院一号门内九号楼"},{"poiid":"B2094752DB6CA5FA469D","title":"思南公館","lon":"121.473636","lat":"31.21627","category":"500","category_name":"未知分类","address":"上海市 上海市思南路"},{"poiid":"B209475CDA65ABFB4093","title":"Enight.C.Bar","lon":"121.472165","lat":"31.213828","category":"500","category_name":"未知分类","address":"黄浦区合肥路588号（近重庆南路）"},{"poiid":"B2094654DA6FA3FE499A","title":"淮海中路街道社区卫生服务中心","lon":"121.47365","lat":"31.21475","category":"162","category_name":"医院","address":"卢湾区淡水路285号(近合肥路)"},{"poiid":"B2094757D16AA6F9489C","title":"大桥一线","lon":"121.47371208","lat":"31.214056722","category":"38","category_name":"公交车站","address":"上海重庆南路建国中路"},{"poiid":"B2094757D66DA3FB429B","title":"肇嘉浜路地铁站","lon":"121.472531","lat":"31.210758","category":"36","category_name":"地铁站","address":"上海轨道交通7/9号线 肇嘉浜路站"},{"poiid":"B2094654DA6FA3FE4899","title":"上海交通大学医学院学生活动中心","lon":"121.47296","lat":"31.21361","category":"248","category_name":"生活娱乐","address":"合肥路365"},{"poiid":"B209475DD76EA1FB439E","title":"新天地","lon":"121.473968","lat":"31.213369","category":"249","category_name":"购物服务","address":"上海市 淮海路"},{"poiid":"B2094757D064A2FB439A","title":"思南公馆诗碧阁Specialty","lon":"121.47044173","lat":"31.214863972","category":"500","category_name":"未知分类","address":"上海市卢湾区南昌路"},{"poiid":"B2094757D464AAF44599","title":"交通大学医学院食堂","lon":"121.471829054","lat":"31.211296793","category":"76","category_name":"上海菜","address":"卢湾区重庆南路227号交通大学医学院内(近合肥路)"}]