[{"poiid":"B2094757D06EAAFB489A","title":"西藏南路地铁站","lon":"121.48955049","lat":"31.201815904","category":"36","category_name":"地铁站","address":"黄浦区西藏南路"},{"poiid":"B2094757D06FA2FA449D","title":"上海世博会博物馆 - 上海世博会纪念展","lon":"121.48130635","lat":"31.1936099525","category":"182","category_name":"博物馆","address":"卢湾区局门路原世博会城市足迹馆内(近龙华东路)"},{"poiid":"B2094751D564A0FF429F","title":"王鼎铁板烧精致店","lon":"121.48745","lat":"31.190852","category":"500","category_name":"未知分类","address":"世博大道1368号1LM0304"},{"poiid":"B2094757D068A3FF4999","title":"上海第九人民医院一号楼(牙科)","lon":"121.4861226","lat":"31.201654541","category":"162","category_name":"医院","address":"上海市黄浦区制造局路639号"},{"poiid":"B2094655D36DA1FB4193","title":"西藏南路","lon":"121.48925","lat":"31.20238","category":"38","category_name":"公交车站","address":"上海八号线西藏南路站"},{"poiid":"B2094757D16CA2FF439C","title":"新富港中心I座","lon":"121.482165824","lat":"31.1968062719","category":"46","category_name":"楼宇","address":"上海市卢湾区蒙自路763号"},{"poiid":"B2094654DA68A0FC489F","title":"耀江花园","lon":"121.49187","lat":"31.199152","category":"47","category_name":"住宅区","address":"上海西藏南路1739弄"},{"poiid":"B2094757D06FA4FB409F","title":"世博园二号门","lon":"121.49101012","lat":"31.200848717","category":"260","category_name":"其他","address":"上海世博园二号门西藏南路出入口"},{"poiid":"B2094655D268A5FB499B","title":"上海交通大学口腔医学院九院临床医学院","lon":"121.4868","lat":"31.1995","category":"52","category_name":"高等院校","address":""},{"poiid":"B2094654DA68A7FB489D","title":"上海市公安局卢湾分局(中山南一路)","lon":"121.482","lat":"31.19939","category":"248","category_name":"生活娱乐","address":"中山南一路599"},{"poiid":"B2094654DA68A7F4499B","title":"卢湾都市花园","lon":"121.4851008675","lat":"31.200123503758","category":"47","category_name":"住宅区","address":"上海市卢湾区鲁班路509号"},{"poiid":"B2094757D16CABF9469B","title":"黄浦江江面","lon":"121.493064","lat":"31.197621","category":"247","category_name":"餐饮美食","address":"上海黄浦江江面"},{"poiid":"B2094757D068ABF84899","title":"世博庆典广场","lon":"121.49148323","lat":"31.188546226","category":"201","category_name":"城市广场","address":"原上海世博会世博园世博轴北面(近黄浦江畔)"},{"poiid":"B2094750D56DA6FF439B","title":"x先生密室","lon":"121.486541","lat":"31.200435","category":"500","category_name":"未知分类","address":"卢湾区局门路550号八号桥三期1号楼"},{"poiid":"B2094751DA6BA0F44893","title":"斗牛士（世博轴店）","lon":"121.487263","lat":"31.189611","category":"247","category_name":"餐饮美食","address":"浦东新区世博大道1368号世博源B1楼G09-10号铺(近上南路)"},{"poiid":"B2094654DA68A7FE429A","title":"五爱高级中学","lon":"121.48476","lat":"31.20134","category":"55","category_name":"中学","address":"卢湾区制造局路666号(近瞿溪路)"},{"poiid":"B2094757D068A4FE4799","title":"蔡先生苏州汤包馆(制造局路店)","lon":"121.48496","lat":"31.20279","category":"68","category_name":"快餐厅","address":"卢湾区制造局路592号(近第九人民医院)"},{"poiid":"B2094757D06AA4F94292","title":"coffee bean","lon":"121.48605346","lat":"31.199184417","category":"65","category_name":"咖啡厅","address":"上海8号桥三期"},{"poiid":"B2094751DA64A2FE439C","title":"North北纬30度创意料理店","lon":"121.487203","lat":"31.190138","category":"247","category_name":"餐饮美食","address":"浦东新区世博大道"},{"poiid":"B2094751DA6BA0FA419D","title":"世博源巴国布衣","lon":"121.486386","lat":"31.198458","category":"247","category_name":"餐饮美食","address":"世博大道1368号世博源"},{"poiid":"B2094757D06FABFD4999","title":"全家便利店(西藏南路店)","lon":"121.48975","lat":"31.20234","category":"117","category_name":"便民商店/便利店","address":"黄浦区西藏南路1521号(近中山南一路)"},{"poiid":"B2094757D069A3F4489A","title":"世博会可口可乐馆","lon":"121.48672","lat":"31.19594","category":"183","category_name":"展览馆","address":"上海世博会D片区"},{"poiid":"B2094753D665AAF84998","title":"上海儿童艺术剧场","lon":"121.494537","lat":"31.19647","category":"500","category_name":"未知分类","address":"上海市 苗江路800号"},{"poiid":"B2094655D36DA7F84792","title":"中山南一路西藏南路","lon":"121.48866","lat":"31.20129","category":"38","category_name":"公交车站","address":""},{"poiid":"B2094654DA68A7F94699","title":"黄金岛大酒店","lon":"121.48628","lat":"31.19932","category":"250","category_name":"公园户外","address":"卢湾区制造局路833弄口(近市第九人民医院)"},{"poiid":"B2094752D265A6FB429E","title":"世博源","lon":"121.487263","lat":"31.189585","category":"247","category_name":"餐饮美食","address":"世博大道1368号"},{"poiid":"B2094757D16CA0F5439A","title":"香港新世界花园一期","lon":"121.48666023","lat":"31.197706047","category":"47","category_name":"住宅区","address":"上海市卢湾区中山南一路500弄"},{"poiid":"B2094757D068ABFE4499","title":"上海卢工邮币卡交易市场","lon":"121.482825715","lat":"31.2002586785","category":"134","category_name":"古玩字画店","address":"卢湾区局门路600号(局门路中山南一路)"},{"poiid":"B2094757D06FA4F94099","title":"世博会城市足迹馆","lon":"121.48432","lat":"31.19455","category":"260","category_name":"其他","address":"上海世博会D片区"},{"poiid":"B2094757D66DA3F44493","title":"来福仕和平影都","lon":"121.483822738","lat":"31.1938715257","category":"500","category_name":"未知分类","address":"上海市黄浦区南京西路"},{"poiid":"B2094757D069A3FD409E","title":"世博会上海企业联合馆","lon":"121.48818","lat":"31.19584","category":"500","category_name":"未知分类","address":"上海世博会D片区"},{"poiid":"B2094757DB6DABFA4793","title":"莫泰168（上海西藏南路店）—原千岛湖酒店","lon":"121.4901403","lat":"31.19946134","category":"215","category_name":"三星级宾馆","address":"上海市黄浦区西藏南路1735号（近中山南路路口）"},{"poiid":"B2094757D569A7FE439D","title":"绿地广场","lon":"121.49047092","lat":"31.19454102","category":"201","category_name":"城市广场","address":"上海世博园区"},{"poiid":"B2094757D068A6FA4499","title":"世博会中国船舶馆","lon":"121.49313","lat":"31.19636","category":"260","category_name":"其他","address":"上海世博会E片区"},{"poiid":"B2094654DA68A7FE459B","title":"瞿四小区(瞿溪路)","lon":"121.48677","lat":"31.20107","category":"47","category_name":"住宅区","address":"中山南一路247弄1-24号"},{"poiid":"B2094655D268A4F84098","title":"上海交通大学口腔医学院九院临床医学院(南门)","lon":"121.48694","lat":"31.19947","category":"52","category_name":"高等院校","address":""},{"poiid":"B2094757D06AA6F9419C","title":"世博会中国铁路馆","lon":"121.488929749","lat":"31.1957511902","category":"500","category_name":"未知分类","address":"上海世博会D片区"},{"poiid":"B2094752D26AAAFC489D","title":"上海政法学院","lon":"121.486179","lat":"31.196277","category":"253","category_name":"校园生活","address":null},{"poiid":"B2094655D26FA5FC4799","title":"望江苑","lon":"121.4892","lat":"31.198946","category":"47","category_name":"住宅区","address":"高雄路185,189"},{"poiid":"B2094757D66CA2FF409B","title":"可口可乐博物馆","lon":"121.486735","lat":"31.195781","category":"500","category_name":"未知分类","address":"北京荣京东街9号"},{"poiid":"B2094654DA68A0FC489B","title":"白玉兰家园","lon":"121.49213","lat":"31.200241","category":"47","category_name":"住宅区","address":"白玉兰家园位于黄浦西藏南路1717号(近高雄路口)"},{"poiid":"B2094654DA68A7F9469E","title":"黄金岛食府","lon":"121.4861","lat":"31.19926","category":"76","category_name":"上海菜","address":"黄浦区制造局路789号(近中山南一路口)"},{"poiid":"B2094757D069ABFB409F","title":"吴越人家面馆(制造局路店)","lon":"121.4855","lat":"31.20157","category":"68","category_name":"快餐厅","address":"卢湾区制造局路640号(近中山南一路)"},{"poiid":"B2094654DA68A7FA409E","title":"晟光商务","lon":"121.48671","lat":"31.19829","category":"46","category_name":"楼宇","address":"制造局路893"},{"poiid":"B2094655D265A1F9429C","title":"百胜","lon":"121.48444","lat":"31.19537","category":"247","category_name":"餐饮美食","address":"上海世博园区"},{"poiid":"B2094752D36DABFE479D","title":"太平洋咖啡（世博源店）","lon":"121.487679","lat":"31.189617","category":"247","category_name":"餐饮美食","address":"世博大道1368号L2层1-L2-03场地"},{"poiid":"B2094757D069A5FF4999","title":"世博会太空家园馆","lon":"121.4861","lat":"31.19577","category":"500","category_name":"未知分类","address":"上海世博会D片区"},{"poiid":"B2094757D068A0F54993","title":"世博会国家电网馆","lon":"121.48542","lat":"31.19565","category":"500","category_name":"未知分类","address":"上海世博会D片区"},{"poiid":"B2094757D66CA1F54899","title":"敬业中学篮球场","lon":"121.486119438","lat":"31.1940905303","category":"220","category_name":"运动场所","address":"黄浦区蓬莱路345号敬业中学内(文庙后面)"},{"poiid":"B2094757D069ABF5489C","title":"上海市荷花池幼儿园","lon":"121.488098145","lat":"31.2027244568","category":"500","category_name":"未知分类","address":"黄浦区瞿溪路468号(瞿溪路西藏南路)"},{"poiid":"B2094757D06EAAFB489A","title":"西藏南路地铁站","lon":"121.48955049","lat":"31.201815904","category":"36","category_name":"地铁站","address":"黄浦区西藏南路"},{"poiid":"B2094757D06FA2FA449D","title":"上海世博会博物馆 - 上海世博会纪念展","lon":"121.48130635","lat":"31.1936099525","category":"182","category_name":"博物馆","address":"卢湾区局门路原世博会城市足迹馆内(近龙华东路)"},{"poiid":"B2094751D564A0FF429F","title":"王鼎铁板烧精致店","lon":"121.48745","lat":"31.190852","category":"500","category_name":"未知分类","address":"世博大道1368号1LM0304"},{"poiid":"B2094757D068A3FF4999","title":"上海第九人民医院一号楼(牙科)","lon":"121.4861226","lat":"31.201654541","category":"162","category_name":"医院","address":"上海市黄浦区制造局路639号"},{"poiid":"B2094655D36DA1FB4193","title":"西藏南路","lon":"121.48925","lat":"31.20238","category":"38","category_name":"公交车站","address":"上海八号线西藏南路站"},{"poiid":"B2094757D16CA2FF439C","title":"新富港中心I座","lon":"121.482165824","lat":"31.1968062719","category":"46","category_name":"楼宇","address":"上海市卢湾区蒙自路763号"},{"poiid":"B2094654DA68A0FC489F","title":"耀江花园","lon":"121.49187","lat":"31.199152","category":"47","category_name":"住宅区","address":"上海西藏南路1739弄"},{"poiid":"B2094757D06FA4FB409F","title":"世博园二号门","lon":"121.49101012","lat":"31.200848717","category":"260","category_name":"其他","address":"上海世博园二号门西藏南路出入口"},{"poiid":"B2094655D268A5FB499B","title":"上海交通大学口腔医学院九院临床医学院","lon":"121.4868","lat":"31.1995","category":"52","category_name":"高等院校","address":""},{"poiid":"B2094654DA68A7FB489D","title":"上海市公安局卢湾分局(中山南一路)","lon":"121.482","lat":"31.19939","category":"248","category_name":"生活娱乐","address":"中山南一路599"},{"poiid":"B2094654DA68A7F4499B","title":"卢湾都市花园","lon":"121.4851008675","lat":"31.200123503758","category":"47","category_name":"住宅区","address":"上海市卢湾区鲁班路509号"},{"poiid":"B2094757D16CABF9469B","title":"黄浦江江面","lon":"121.493064","lat":"31.197621","category":"247","category_name":"餐饮美食","address":"上海黄浦江江面"},{"poiid":"B2094757D068ABF84899","title":"世博庆典广场","lon":"121.49148323","lat":"31.188546226","category":"201","category_name":"城市广场","address":"原上海世博会世博园世博轴北面(近黄浦江畔)"},{"poiid":"B2094750D56DA6FF439B","title":"x先生密室","lon":"121.486541","lat":"31.200435","category":"500","category_name":"未知分类","address":"卢湾区局门路550号八号桥三期1号楼"},{"poiid":"B2094751DA6BA0F44893","title":"斗牛士（世博轴店）","lon":"121.487263","lat":"31.189611","category":"247","category_name":"餐饮美食","address":"浦东新区世博大道1368号世博源B1楼G09-10号铺(近上南路)"},{"poiid":"B2094654DA68A7FE429A","title":"五爱高级中学","lon":"121.48476","lat":"31.20134","category":"55","category_name":"中学","address":"卢湾区制造局路666号(近瞿溪路)"},{"poiid":"B2094757D068A4FE4799","title":"蔡先生苏州汤包馆(制造局路店)","lon":"121.48496","lat":"31.20279","category":"68","category_name":"快餐厅","address":"卢湾区制造局路592号(近第九人民医院)"},{"poiid":"B2094757D06AA4F94292","title":"coffee bean","lon":"121.48605346","lat":"31.199184417","category":"65","category_name":"咖啡厅","address":"上海8号桥三期"},{"poiid":"B2094751DA64A2FE439C","title":"North北纬30度创意料理店","lon":"121.487203","lat":"31.190138","category":"247","category_name":"餐饮美食","address":"浦东新区世博大道"},{"poiid":"B2094751DA6BA0FA419D","title":"世博源巴国布衣","lon":"121.486386","lat":"31.198458","category":"247","category_name":"餐饮美食","address":"世博大道1368号世博源"},{"poiid":"B2094757D06FABFD4999","title":"全家便利店(西藏南路店)","lon":"121.48975","lat":"31.20234","category":"117","category_name":"便民商店/便利店","address":"黄浦区西藏南路1521号(近中山南一路)"},{"poiid":"B2094757D069A3F4489A","title":"世博会可口可乐馆","lon":"121.48672","lat":"31.19594","category":"183","category_name":"展览馆","address":"上海世博会D片区"},{"poiid":"B2094753D665AAF84998","title":"上海儿童艺术剧场","lon":"121.494537","lat":"31.19647","category":"500","category_name":"未知分类","address":"上海市 苗江路800号"},{"poiid":"B2094655D36DA7F84792","title":"中山南一路西藏南路","lon":"121.48866","lat":"31.20129","category":"38","category_name":"公交车站","address":""},{"poiid":"B2094654DA68A7F94699","title":"黄金岛大酒店","lon":"121.48628","lat":"31.19932","category":"250","category_name":"公园户外","address":"卢湾区制造局路833弄口(近市第九人民医院)"},{"poiid":"B2094752D265A6FB429E","title":"世博源","lon":"121.487263","lat":"31.189585","category":"247","category_name":"餐饮美食","address":"世博大道1368号"},{"poiid":"B2094757D16CA0F5439A","title":"香港新世界花园一期","lon":"121.48666023","lat":"31.197706047","category":"47","category_name":"住宅区","address":"上海市卢湾区中山南一路500弄"},{"poiid":"B2094757D068ABFE4499","title":"上海卢工邮币卡交易市场","lon":"121.482825715","lat":"31.2002586785","category":"134","category_name":"古玩字画店","address":"卢湾区局门路600号(局门路中山南一路)"},{"poiid":"B2094757D06FA4F94099","title":"世博会城市足迹馆","lon":"121.48432","lat":"31.19455","category":"260","category_name":"其他","address":"上海世博会D片区"},{"poiid":"B2094757D66DA3F44493","title":"来福仕和平影都","lon":"121.483822738","lat":"31.1938715257","category":"500","category_name":"未知分类","address":"上海市黄浦区南京西路"},{"poiid":"B2094757D069A3FD409E","title":"世博会上海企业联合馆","lon":"121.48818","lat":"31.19584","category":"500","category_name":"未知分类","address":"上海世博会D片区"},{"poiid":"B2094757DB6DABFA4793","title":"莫泰168（上海西藏南路店）—原千岛湖酒店","lon":"121.4901403","lat":"31.19946134","category":"215","category_name":"三星级宾馆","address":"上海市黄浦区西藏南路1735号（近中山南路路口）"},{"poiid":"B2094757D569A7FE439D","title":"绿地广场","lon":"121.49047092","lat":"31.19454102","category":"201","category_name":"城市广场","address":"上海世博园区"},{"poiid":"B2094757D068A6FA4499","title":"世博会中国船舶馆","lon":"121.49313","lat":"31.19636","category":"260","category_name":"其他","address":"上海世博会E片区"},{"poiid":"B2094654DA68A7FE459B","title":"瞿四小区(瞿溪路)","lon":"121.48677","lat":"31.20107","category":"47","category_name":"住宅区","address":"中山南一路247弄1-24号"},{"poiid":"B2094655D268A4F84098","title":"上海交通大学口腔医学院九院临床医学院(南门)","lon":"121.48694","lat":"31.19947","category":"52","category_name":"高等院校","address":""},{"poiid":"B2094757D06AA6F9419C","title":"世博会中国铁路馆","lon":"121.488929749","lat":"31.1957511902","category":"500","category_name":"未知分类","address":"上海世博会D片区"},{"poiid":"B2094752D26AAAFC489D","title":"上海政法学院","lon":"121.486179","lat":"31.196277","category":"253","category_name":"校园生活","address":null},{"poiid":"B2094655D26FA5FC4799","title":"望江苑","lon":"121.4892","lat":"31.198946","category":"47","category_name":"住宅区","address":"高雄路185,189"},{"poiid":"B2094757D66CA2FF409B","title":"可口可乐博物馆","lon":"121.486735","lat":"31.195781","category":"500","category_name":"未知分类","address":"北京荣京东街9号"},{"poiid":"B2094654DA68A0FC489B","title":"白玉兰家园","lon":"121.49213","lat":"31.200241","category":"47","category_name":"住宅区","address":"白玉兰家园位于黄浦西藏南路1717号(近高雄路口)"},{"poiid":"B2094654DA68A7F9469E","title":"黄金岛食府","lon":"121.4861","lat":"31.19926","category":"76","category_name":"上海菜","address":"黄浦区制造局路789号(近中山南一路口)"},{"poiid":"B2094757D069ABFB409F","title":"吴越人家面馆(制造局路店)","lon":"121.4855","lat":"31.20157","category":"68","category_name":"快餐厅","address":"卢湾区制造局路640号(近中山南一路)"},{"poiid":"B2094654DA68A7FA409E","title":"晟光商务","lon":"121.48671","lat":"31.19829","category":"46","category_name":"楼宇","address":"制造局路893"},{"poiid":"B2094655D265A1F9429C","title":"百胜","lon":"121.48444","lat":"31.19537","category":"247","category_name":"餐饮美食","address":"上海世博园区"},{"poiid":"B2094752D36DABFE479D","title":"太平洋咖啡（世博源店）","lon":"121.487679","lat":"31.189617","category":"247","category_name":"餐饮美食","address":"世博大道1368号L2层1-L2-03场地"},{"poiid":"B2094757D069A5FF4999","title":"世博会太空家园馆","lon":"121.4861","lat":"31.19577","category":"500","category_name":"未知分类","address":"上海世博会D片区"},{"poiid":"B2094757D068A0F54993","title":"世博会国家电网馆","lon":"121.48542","lat":"31.19565","category":"500","category_name":"未知分类","address":"上海世博会D片区"},{"poiid":"B2094757D66CA1F54899","title":"敬业中学篮球场","lon":"121.486119438","lat":"31.1940905303","category":"220","category_name":"运动场所","address":"黄浦区蓬莱路345号敬业中学内(文庙后面)"},{"poiid":"B2094757D069ABF5489C","title":"上海市荷花池幼儿园","lon":"121.488098145","lat":"31.2027244568","category":"500","category_name":"未知分类","address":"黄浦区瞿溪路468号(瞿溪路西藏南路)"},{"poiid":"B2094757D06EAAFB489A","title":"西藏南路地铁站","lon":"121.48955049","lat":"31.201815904","category":"36","category_name":"地铁站","address":"黄浦区西藏南路"},{"poiid":"B2094757D06FA2FA449D","title":"上海世博会博物馆 - 上海世博会纪念展","lon":"121.48130635","lat":"31.1936099525","category":"182","category_name":"博物馆","address":"卢湾区局门路原世博会城市足迹馆内(近龙华东路)"},{"poiid":"B2094751D564A0FF429F","title":"王鼎铁板烧精致店","lon":"121.48745","lat":"31.190852","category":"500","category_name":"未知分类","address":"世博大道1368号1LM0304"},{"poiid":"B2094757D068A3FF4999","title":"上海第九人民医院一号楼(牙科)","lon":"121.4861226","lat":"31.201654541","category":"162","category_name":"医院","address":"上海市黄浦区制造局路639号"},{"poiid":"B2094655D36DA1FB4193","title":"西藏南路","lon":"121.48925","lat":"31.20238","category":"38","category_name":"公交车站","address":"上海八号线西藏南路站"},{"poiid":"B2094757D16CA2FF439C","title":"新富港中心I座","lon":"121.482165824","lat":"31.1968062719","category":"46","category_name":"楼宇","address":"上海市卢湾区蒙自路763号"},{"poiid":"B2094654DA68A0FC489F","title":"耀江花园","lon":"121.49187","lat":"31.199152","category":"47","category_name":"住宅区","address":"上海西藏南路1739弄"},{"poiid":"B2094757D06FA4FB409F","title":"世博园二号门","lon":"121.49101012","lat":"31.200848717","category":"260","category_name":"其他","address":"上海世博园二号门西藏南路出入口"},{"poiid":"B2094655D268A5FB499B","title":"上海交通大学口腔医学院九院临床医学院","lon":"121.4868","lat":"31.1995","category":"52","category_name":"高等院校","address":""},{"poiid":"B2094654DA68A7FB489D","title":"上海市公安局卢湾分局(中山南一路)","lon":"121.482","lat":"31.19939","category":"248","category_name":"生活娱乐","address":"中山南一路599"},{"poiid":"B2094654DA68A7F4499B","title":"卢湾都市花园","lon":"121.4851008675","lat":"31.200123503758","category":"47","category_name":"住宅区","address":"上海市卢湾区鲁班路509号"},{"poiid":"B2094757D16CABF9469B","title":"黄浦江江面","lon":"121.493064","lat":"31.197621","category":"247","category_name":"餐饮美食","address":"上海黄浦江江面"},{"poiid":"B2094757D068ABF84899","title":"世博庆典广场","lon":"121.49148323","lat":"31.188546226","category":"201","category_name":"城市广场","address":"原上海世博会世博园世博轴北面(近黄浦江畔)"},{"poiid":"B2094750D56DA6FF439B","title":"x先生密室","lon":"121.486541","lat":"31.200435","category":"500","category_name":"未知分类","address":"卢湾区局门路550号八号桥三期1号楼"},{"poiid":"B2094751DA6BA0F44893","title":"斗牛士（世博轴店）","lon":"121.487263","lat":"31.189611","category":"247","category_name":"餐饮美食","address":"浦东新区世博大道1368号世博源B1楼G09-10号铺(近上南路)"},{"poiid":"B2094654DA68A7FE429A","title":"五爱高级中学","lon":"121.48476","lat":"31.20134","category":"55","category_name":"中学","address":"卢湾区制造局路666号(近瞿溪路)"},{"poiid":"B2094757D068A4FE4799","title":"蔡先生苏州汤包馆(制造局路店)","lon":"121.48496","lat":"31.20279","category":"68","category_name":"快餐厅","address":"卢湾区制造局路592号(近第九人民医院)"},{"poiid":"B2094757D06AA4F94292","title":"coffee bean","lon":"121.48605346","lat":"31.199184417","category":"65","category_name":"咖啡厅","address":"上海8号桥三期"},{"poiid":"B2094751DA64A2FE439C","title":"North北纬30度创意料理店","lon":"121.487203","lat":"31.190138","category":"247","category_name":"餐饮美食","address":"浦东新区世博大道"},{"poiid":"B2094751DA6BA0FA419D","title":"世博源巴国布衣","lon":"121.486386","lat":"31.198458","category":"247","category_name":"餐饮美食","address":"世博大道1368号世博源"},{"poiid":"B2094757D06FABFD4999","title":"全家便利店(西藏南路店)","lon":"121.48975","lat":"31.20234","category":"117","category_name":"便民商店/便利店","address":"黄浦区西藏南路1521号(近中山南一路)"},{"poiid":"B2094757D069A3F4489A","title":"世博会可口可乐馆","lon":"121.48672","lat":"31.19594","category":"183","category_name":"展览馆","address":"上海世博会D片区"},{"poiid":"B2094753D665AAF84998","title":"上海儿童艺术剧场","lon":"121.494537","lat":"31.19647","category":"500","category_name":"未知分类","address":"上海市 苗江路800号"},{"poiid":"B2094655D36DA7F84792","title":"中山南一路西藏南路","lon":"121.48866","lat":"31.20129","category":"38","category_name":"公交车站","address":""},{"poiid":"B2094654DA68A7F94699","title":"黄金岛大酒店","lon":"121.48628","lat":"31.19932","category":"250","category_name":"公园户外","address":"卢湾区制造局路833弄口(近市第九人民医院)"},{"poiid":"B2094752D265A6FB429E","title":"世博源","lon":"121.487263","lat":"31.189585","category":"247","category_name":"餐饮美食","address":"世博大道1368号"},{"poiid":"B2094757D16CA0F5439A","title":"香港新世界花园一期","lon":"121.48666023","lat":"31.197706047","category":"47","category_name":"住宅区","address":"上海市卢湾区中山南一路500弄"},{"poiid":"B2094757D068ABFE4499","title":"上海卢工邮币卡交易市场","lon":"121.482825715","lat":"31.2002586785","category":"134","category_name":"古玩字画店","address":"卢湾区局门路600号(局门路中山南一路)"},{"poiid":"B2094757D06FA4F94099","title":"世博会城市足迹馆","lon":"121.48432","lat":"31.19455","category":"260","category_name":"其他","address":"上海世博会D片区"},{"poiid":"B2094757D66DA3F44493","title":"来福仕和平影都","lon":"121.483822738","lat":"31.1938715257","category":"500","category_name":"未知分类","address":"上海市黄浦区南京西路"},{"poiid":"B2094757D069A3FD409E","title":"世博会上海企业联合馆","lon":"121.48818","lat":"31.19584","category":"500","category_name":"未知分类","address":"上海世博会D片区"},{"poiid":"B2094757DB6DABFA4793","title":"莫泰168（上海西藏南路店）—原千岛湖酒店","lon":"121.4901403","lat":"31.19946134","category":"215","category_name":"三星级宾馆","address":"上海市黄浦区西藏南路1735号（近中山南路路口）"},{"poiid":"B2094757D569A7FE439D","title":"绿地广场","lon":"121.49047092","lat":"31.19454102","category":"201","category_name":"城市广场","address":"上海世博园区"},{"poiid":"B2094757D068A6FA4499","title":"世博会中国船舶馆","lon":"121.49313","lat":"31.19636","category":"260","category_name":"其他","address":"上海世博会E片区"},{"poiid":"B2094654DA68A7FE459B","title":"瞿四小区(瞿溪路)","lon":"121.48677","lat":"31.20107","category":"47","category_name":"住宅区","address":"中山南一路247弄1-24号"},{"poiid":"B2094655D268A4F84098","title":"上海交通大学口腔医学院九院临床医学院(南门)","lon":"121.48694","lat":"31.19947","category":"52","category_name":"高等院校","address":""},{"poiid":"B2094757D06AA6F9419C","title":"世博会中国铁路馆","lon":"121.488929749","lat":"31.1957511902","category":"500","category_name":"未知分类","address":"上海世博会D片区"},{"poiid":"B2094752D26AAAFC489D","title":"上海政法学院","lon":"121.486179","lat":"31.196277","category":"253","category_name":"校园生活","address":null},{"poiid":"B2094655D26FA5FC4799","title":"望江苑","lon":"121.4892","lat":"31.198946","category":"47","category_name":"住宅区","address":"高雄路185,189"},{"poiid":"B2094757D66CA2FF409B","title":"可口可乐博物馆","lon":"121.486735","lat":"31.195781","category":"500","category_name":"未知分类","address":"北京荣京东街9号"},{"poiid":"B2094654DA68A0FC489B","title":"白玉兰家园","lon":"121.49213","lat":"31.200241","category":"47","category_name":"住宅区","address":"白玉兰家园位于黄浦西藏南路1717号(近高雄路口)"},{"poiid":"B2094654DA68A7F9469E","title":"黄金岛食府","lon":"121.4861","lat":"31.19926","category":"76","category_name":"上海菜","address":"黄浦区制造局路789号(近中山南一路口)"},{"poiid":"B2094757D069ABFB409F","title":"吴越人家面馆(制造局路店)","lon":"121.4855","lat":"31.20157","category":"68","category_name":"快餐厅","address":"卢湾区制造局路640号(近中山南一路)"},{"poiid":"B2094654DA68A7FA409E","title":"晟光商务","lon":"121.48671","lat":"31.19829","category":"46","category_name":"楼宇","address":"制造局路893"},{"poiid":"B2094655D265A1F9429C","title":"百胜","lon":"121.48444","lat":"31.19537","category":"247","category_name":"餐饮美食","address":"上海世博园区"},{"poiid":"B2094752D36DABFE479D","title":"太平洋咖啡（世博源店）","lon":"121.487679","lat":"31.189617","category":"247","category_name":"餐饮美食","address":"世博大道1368号L2层1-L2-03场地"},{"poiid":"B2094757D069A5FF4999","title":"世博会太空家园馆","lon":"121.4861","lat":"31.19577","category":"500","category_name":"未知分类","address":"上海世博会D片区"},{"poiid":"B2094757D068A0F54993","title":"世博会国家电网馆","lon":"121.48542","lat":"31.19565","category":"500","category_name":"未知分类","address":"上海世博会D片区"},{"poiid":"B2094757D66CA1F54899","title":"敬业中学篮球场","lon":"121.486119438","lat":"31.1940905303","category":"220","category_name":"运动场所","address":"黄浦区蓬莱路345号敬业中学内(文庙后面)"},{"poiid":"B2094757D069ABF5489C","title":"上海市荷花池幼儿园","lon":"121.488098145","lat":"31.2027244568","category":"500","category_name":"未知分类","address":"黄浦区瞿溪路468号(瞿溪路西藏南路)"},{"poiid":"B2094757D06EAAFB489A","title":"西藏南路地铁站","lon":"121.48955049","lat":"31.201815904","category":"36","category_name":"地铁站","address":"黄浦区西藏南路"},{"poiid":"B2094757D06FA2FA449D","title":"上海世博会博物馆 - 上海世博会纪念展","lon":"121.48130635","lat":"31.1936099525","category":"182","category_name":"博物馆","address":"卢湾区局门路原世博会城市足迹馆内(近龙华东路)"},{"poiid":"B2094751D564A0FF429F","title":"王鼎铁板烧精致店","lon":"121.48745","lat":"31.190852","category":"500","category_name":"未知分类","address":"世博大道1368号1LM0304"},{"poiid":"B2094757D068A3FF4999","title":"上海第九人民医院一号楼(牙科)","lon":"121.4861226","lat":"31.201654541","category":"162","category_name":"医院","address":"上海市黄浦区制造局路639号"},{"poiid":"B2094655D36DA1FB4193","title":"西藏南路","lon":"121.48925","lat":"31.20238","category":"38","category_name":"公交车站","address":"上海八号线西藏南路站"},{"poiid":"B2094757D16CA2FF439C","title":"新富港中心I座","lon":"121.482165824","lat":"31.1968062719","category":"46","category_name":"楼宇","address":"上海市卢湾区蒙自路763号"},{"poiid":"B2094654DA68A0FC489F","title":"耀江花园","lon":"121.49187","lat":"31.199152","category":"47","category_name":"住宅区","address":"上海西藏南路1739弄"},{"poiid":"B2094757D06FA4FB409F","title":"世博园二号门","lon":"121.49101012","lat":"31.200848717","category":"260","category_name":"其他","address":"上海世博园二号门西藏南路出入口"},{"poiid":"B2094655D268A5FB499B","title":"上海交通大学口腔医学院九院临床医学院","lon":"121.4868","lat":"31.1995","category":"52","category_name":"高等院校","address":""},{"poiid":"B2094654DA68A7FB489D","title":"上海市公安局卢湾分局(中山南一路)","lon":"121.482","lat":"31.19939","category":"248","category_name":"生活娱乐","address":"中山南一路599"},{"poiid":"B2094654DA68A7F4499B","title":"卢湾都市花园","lon":"121.4851008675","lat":"31.200123503758","category":"47","category_name":"住宅区","address":"上海市卢湾区鲁班路509号"},{"poiid":"B2094757D16CABF9469B","title":"黄浦江江面","lon":"121.493064","lat":"31.197621","category":"247","category_name":"餐饮美食","address":"上海黄浦江江面"},{"poiid":"B2094757D068ABF84899","title":"世博庆典广场","lon":"121.49148323","lat":"31.188546226","category":"201","category_name":"城市广场","address":"原上海世博会世博园世博轴北面(近黄浦江畔)"},{"poiid":"B2094750D56DA6FF439B","title":"x先生密室","lon":"121.486541","lat":"31.200435","category":"500","category_name":"未知分类","address":"卢湾区局门路550号八号桥三期1号楼"},{"poiid":"B2094751DA6BA0F44893","title":"斗牛士（世博轴店）","lon":"121.487263","lat":"31.189611","category":"247","category_name":"餐饮美食","address":"浦东新区世博大道1368号世博源B1楼G09-10号铺(近上南路)"},{"poiid":"B2094654DA68A7FE429A","title":"五爱高级中学","lon":"121.48476","lat":"31.20134","category":"55","category_name":"中学","address":"卢湾区制造局路666号(近瞿溪路)"},{"poiid":"B2094757D068A4FE4799","title":"蔡先生苏州汤包馆(制造局路店)","lon":"121.48496","lat":"31.20279","category":"68","category_name":"快餐厅","address":"卢湾区制造局路592号(近第九人民医院)"},{"poiid":"B2094757D06AA4F94292","title":"coffee bean","lon":"121.48605346","lat":"31.199184417","category":"65","category_name":"咖啡厅","address":"上海8号桥三期"},{"poiid":"B2094751DA64A2FE439C","title":"North北纬30度创意料理店","lon":"121.487203","lat":"31.190138","category":"247","category_name":"餐饮美食","address":"浦东新区世博大道"},{"poiid":"B2094751DA6BA0FA419D","title":"世博源巴国布衣","lon":"121.486386","lat":"31.198458","category":"247","category_name":"餐饮美食","address":"世博大道1368号世博源"},{"poiid":"B2094757D06FABFD4999","title":"全家便利店(西藏南路店)","lon":"121.48975","lat":"31.20234","category":"117","category_name":"便民商店/便利店","address":"黄浦区西藏南路1521号(近中山南一路)"},{"poiid":"B2094757D069A3F4489A","title":"世博会可口可乐馆","lon":"121.48672","lat":"31.19594","category":"183","category_name":"展览馆","address":"上海世博会D片区"},{"poiid":"B2094753D665AAF84998","title":"上海儿童艺术剧场","lon":"121.494537","lat":"31.19647","category":"500","category_name":"未知分类","address":"上海市 苗江路800号"},{"poiid":"B2094655D36DA7F84792","title":"中山南一路西藏南路","lon":"121.48866","lat":"31.20129","category":"38","category_name":"公交车站","address":""},{"poiid":"B2094654DA68A7F94699","title":"黄金岛大酒店","lon":"121.48628","lat":"31.19932","category":"250","category_name":"公园户外","address":"卢湾区制造局路833弄口(近市第九人民医院)"},{"poiid":"B2094752D265A6FB429E","title":"世博源","lon":"121.487263","lat":"31.189585","category":"247","category_name":"餐饮美食","address":"世博大道1368号"},{"poiid":"B2094757D16CA0F5439A","title":"香港新世界花园一期","lon":"121.48666023","lat":"31.197706047","category":"47","category_name":"住宅区","address":"上海市卢湾区中山南一路500弄"},{"poiid":"B2094757D068ABFE4499","title":"上海卢工邮币卡交易市场","lon":"121.482825715","lat":"31.2002586785","category":"134","category_name":"古玩字画店","address":"卢湾区局门路600号(局门路中山南一路)"},{"poiid":"B2094757D06FA4F94099","title":"世博会城市足迹馆","lon":"121.48432","lat":"31.19455","category":"260","category_name":"其他","address":"上海世博会D片区"},{"poiid":"B2094757D66DA3F44493","title":"来福仕和平影都","lon":"121.483822738","lat":"31.1938715257","category":"500","category_name":"未知分类","address":"上海市黄浦区南京西路"},{"poiid":"B2094757D069A3FD409E","title":"世博会上海企业联合馆","lon":"121.48818","lat":"31.19584","category":"500","category_name":"未知分类","address":"上海世博会D片区"},{"poiid":"B2094757DB6DABFA4793","title":"莫泰168（上海西藏南路店）—原千岛湖酒店","lon":"121.4901403","lat":"31.19946134","category":"215","category_name":"三星级宾馆","address":"上海市黄浦区西藏南路1735号（近中山南路路口）"},{"poiid":"B2094757D569A7FE439D","title":"绿地广场","lon":"121.49047092","lat":"31.19454102","category":"201","category_name":"城市广场","address":"上海世博园区"},{"poiid":"B2094757D068A6FA4499","title":"世博会中国船舶馆","lon":"121.49313","lat":"31.19636","category":"260","category_name":"其他","address":"上海世博会E片区"},{"poiid":"B2094654DA68A7FE459B","title":"瞿四小区(瞿溪路)","lon":"121.48677","lat":"31.20107","category":"47","category_name":"住宅区","address":"中山南一路247弄1-24号"},{"poiid":"B2094655D268A4F84098","title":"上海交通大学口腔医学院九院临床医学院(南门)","lon":"121.48694","lat":"31.19947","category":"52","category_name":"高等院校","address":""},{"poiid":"B2094757D06AA6F9419C","title":"世博会中国铁路馆","lon":"121.488929749","lat":"31.1957511902","category":"500","category_name":"未知分类","address":"上海世博会D片区"},{"poiid":"B2094752D26AAAFC489D","title":"上海政法学院","lon":"121.486179","lat":"31.196277","category":"253","category_name":"校园生活","address":null},{"poiid":"B2094655D26FA5FC4799","title":"望江苑","lon":"121.4892","lat":"31.198946","category":"47","category_name":"住宅区","address":"高雄路185,189"},{"poiid":"B2094757D66CA2FF409B","title":"可口可乐博物馆","lon":"121.486735","lat":"31.195781","category":"500","category_name":"未知分类","address":"北京荣京东街9号"},{"poiid":"B2094654DA68A0FC489B","title":"白玉兰家园","lon":"121.49213","lat":"31.200241","category":"47","category_name":"住宅区","address":"白玉兰家园位于黄浦西藏南路1717号(近高雄路口)"},{"poiid":"B2094654DA68A7F9469E","title":"黄金岛食府","lon":"121.4861","lat":"31.19926","category":"76","category_name":"上海菜","address":"黄浦区制造局路789号(近中山南一路口)"},{"poiid":"B2094757D069ABFB409F","title":"吴越人家面馆(制造局路店)","lon":"121.4855","lat":"31.20157","category":"68","category_name":"快餐厅","address":"卢湾区制造局路640号(近中山南一路)"},{"poiid":"B2094654DA68A7FA409E","title":"晟光商务","lon":"121.48671","lat":"31.19829","category":"46","category_name":"楼宇","address":"制造局路893"},{"poiid":"B2094655D265A1F9429C","title":"百胜","lon":"121.48444","lat":"31.19537","category":"247","category_name":"餐饮美食","address":"上海世博园区"},{"poiid":"B2094752D36DABFE479D","title":"太平洋咖啡（世博源店）","lon":"121.487679","lat":"31.189617","category":"247","category_name":"餐饮美食","address":"世博大道1368号L2层1-L2-03场地"},{"poiid":"B2094757D069A5FF4999","title":"世博会太空家园馆","lon":"121.4861","lat":"31.19577","category":"500","category_name":"未知分类","address":"上海世博会D片区"},{"poiid":"B2094757D068A0F54993","title":"世博会国家电网馆","lon":"121.48542","lat":"31.19565","category":"500","category_name":"未知分类","address":"上海世博会D片区"},{"poiid":"B2094757D66CA1F54899","title":"敬业中学篮球场","lon":"121.486119438","lat":"31.1940905303","category":"220","category_name":"运动场所","address":"黄浦区蓬莱路345号敬业中学内(文庙后面)"},{"poiid":"B2094757D069ABF5489C","title":"上海市荷花池幼儿园","lon":"121.488098145","lat":"31.2027244568","category":"500","category_name":"未知分类","address":"黄浦区瞿溪路468号(瞿溪路西藏南路)"}]