[{"poiid":"B2094757D06EAAFC479B","title":"国权路地铁站","lon":"121.510234","lat":"31.289649","category":"36","category_name":"地铁站","address":"上海轨道交通 十号线 轨交国权路站 10"},{"poiid":"B2094757D069A3FF409F","title":"上海国际设计中心","lon":"121.508","lat":"31.2925","category":"46","category_name":"楼宇","address":"上海市杨浦区国康路100号"},{"poiid":"B2094757D06FA0F8469D","title":"复旦大学继续教育学院","lon":"121.51036071","lat":"31.290260314","category":"671","category_name":"高校中心点","address":"上海四平路1931号"},{"poiid":"B2094654D56EAAFB419C","title":"复旦大学附属中学","lon":"121.5061","lat":"31.29085","category":"55","category_name":"中学","address":"杨浦区国权路383号"},{"poiid":"B2094757D66FA7FE4392","title":"复旦第六教学楼","lon":"121.5085111","lat":"31.293017894","category":"500","category_name":"未知分类","address":"上海市国权路"},{"poiid":"B2094757D06FA6FB449A","title":"四平路国权路","lon":"121.510942","lat":"31.290713","category":"260","category_name":"其他","address":"上海四平路国权路"},{"poiid":"B2094655D26FA0FE4199","title":"复旦科技园大厦","lon":"121.50793","lat":"31.2879","category":"46","category_name":"楼宇","address":"上海市杨浦区国泰路11号"},{"poiid":"B2094750D26AABF9409D","title":"糊涂家宠物咖啡店","lon":"121.511199","lat":"31.289052","category":"248","category_name":"生活娱乐","address":"国权路619号"},{"poiid":"B2094655D26EA2F4459A","title":"同济科技大厦","lon":"121.509","lat":"31.2933","category":"46","category_name":"楼宇","address":"上海市浦东新区金桥路983号"},{"poiid":"B2094757D06FABF4429B","title":"上海新东方学校(四平路总部)","lon":"121.50995","lat":"31.2891","category":"253","category_name":"校园生活","address":"杨浦区四平路1805号(近国权路)"},{"poiid":"B2094757D068A1FD4598","title":"复旦步行街","lon":"121.5070936","lat":"31.2927131","category":"260","category_name":"其他","address":"上海国年路"},{"poiid":"B2094757D065A6FD469D","title":"五角场文化中心","lon":"121.510253","lat":"31.29333","category":"500","category_name":"未知分类","address":"杨浦区政化路(近国定路)"},{"poiid":"B2094751D26DA7F8489D","title":"台北纯K","lon":"121.509208","lat":"31.290533","category":"500","category_name":"未知分类","address":null},{"poiid":"B2094751DA65A0F44598","title":"又一城新世纪食品城","lon":"121.507217","lat":"31.290207","category":"247","category_name":"餐饮美食","address":"五角场百联又一城地下一层"},{"poiid":"B2094655D26BA2FB4999","title":"四平路","lon":"121.51027","lat":"31.29238","category":"38","category_name":"公交车站","address":""},{"poiid":"B2094757D56CA2F8469A","title":"吉祥馄饨 国权路","lon":"121.50879593373","lat":"31.29059449174","category":"247","category_name":"餐饮美食","address":"杨浦区四平路1900号(近国权路)"},{"poiid":"B2094654DB6BA2FC419E","title":"锦江之星(上海国权路店)","lon":"121.51139","lat":"31.28955","category":"216","category_name":"经济型连锁酒店","address":"上海杨浦区国权路236号(近四平路)  "},{"poiid":"B2094757D16CA1F5479D","title":"维罗纳意式私房菜","lon":"121.509830869","lat":"31.2891654708","category":"94","category_name":"西餐厅","address":"杨浦区国权路309号(近四平路)"},{"poiid":"B2094655D26AAAFB4999","title":"圣富法式铁板烧景观餐厅","lon":"121.50973","lat":"31.28946","category":"97","category_name":"法式菜品餐厅","address":"杨浦区四平路1805号天益宾馆16楼(近国权路)"},{"poiid":"B2094454D36DA2FB4792","title":"RYU瑠","lon":"121.509628","lat":"31.290969","category":"247","category_name":"餐饮美食","address":"上海市 外滩5号"},{"poiid":"B2094751DB6CA4F9459B","title":"武汉热干面","lon":"121.50779","lat":"31.29072","category":"247","category_name":"餐饮美食","address":"杨浦区国权路338号(近复旦大学)"},{"poiid":"B2094654D56EAAFA409D","title":"杨浦公安分局交通警察支队四中队","lon":"121.50801","lat":"31.29129","category":"250","category_name":"公园户外","address":"政熙路90"},{"poiid":"B2094654D56EAAFB429E","title":"重庆麻辣烫 国权路店","lon":"121.50714","lat":"31.29066","category":"68","category_name":"快餐厅","address":"杨浦区国权路351号(国权路政熙路)"},{"poiid":"B2094757D064ABFB449C","title":"江原基自助餐厅","lon":"121.506848303","lat":"31.2908794499","category":"96","category_name":"韩国料理","address":"上海杨浦区国权路317号"},{"poiid":"B2094654D56EAAFA419D","title":"国年路65弄小区","lon":"121.50927","lat":"31.29141","category":"47","category_name":"住宅区","address":"国年路65弄"},{"poiid":"B2094655D26EA1FB4893","title":"金宝贝(五角场中心店)","lon":"121.50787","lat":"31.28801","category":"57","category_name":"幼儿园","address":"杨浦区四平路1779号复旦科技园大厦B楼3楼(近国权路)"},{"poiid":"B2094753D46AA0F4459D","title":"七巧板咖啡 7 PUZZLE","lon":"121.507858","lat":"31.291967","category":"247","category_name":"餐饮美食","address":"上海市杨浦区国权路525号"},{"poiid":"B2094757D16CA6FE419C","title":"铁村小区","lon":"121.510625103","lat":"31.2935569059","category":"47","category_name":"住宅区","address":"上海市杨浦区国定路277弄"},{"poiid":"B2094752D56BA0FC4493","title":"上海南京东路外滩","lon":"121.506176","lat":"31.290436","category":"500","category_name":"未知分类","address":null},{"poiid":"B2094654D56EAAF9449F","title":"上海五角场大学生创业基地","lon":"121.51049","lat":"31.29069","category":"46","category_name":"楼宇","address":"四平路1945"},{"poiid":"B2094757D069A6FF4892","title":"用纯手工巧克力讲述爱的故事(杨浦店)","lon":"121.50844","lat":"31.29033","category":"500","category_name":"未知分类","address":"杨浦区国权路328号1楼(近四平路)"},{"poiid":"B2094654DB6BA2FD4393","title":"国年路99弄小区(北门)","lon":"121.5088","lat":"31.29186","category":"47","category_name":"住宅区","address":"国年路99弄"},{"poiid":"B2094654D56EAAF94893","title":"快客No.6056","lon":"121.50798","lat":"31.29068","category":"117","category_name":"便民商店/便利店","address":"国权路332"},{"poiid":"B2094654D56EAAFB4192","title":"复旦大学附属中学国际部","lon":"121.50646","lat":"31.29178","category":"55","category_name":"中学","address":"国权路384号"},{"poiid":"B2094655D36CA7FB4793","title":"国权路","lon":"121.50998","lat":"31.289","category":"38","category_name":"公交车站","address":"399弄"},{"poiid":"B2094654DB6BA2FD419D","title":"国顺路395弄住宅小区(南门)","lon":"121.50903","lat":"31.2921","category":"47","category_name":"住宅区","address":"国顺路395弄"},{"poiid":"B2094753D76AA6FF4893","title":"百宫烧烤","lon":"121.50876","lat":"31.29005","category":"96","category_name":"韩国料理","address":"上海市杨浦区国权路307号(近10号地铁国权路站)"},{"poiid":"B2094757D065A1F8449D","title":"鹿鸣书店","lon":"121.50841","lat":"31.29048","category":"125","category_name":"书店","address":"杨浦区国权路334号(近政熙路)"},{"poiid":"B2094654D56EAAF9489B","title":"上海申东外语书店","lon":"121.50905","lat":"31.28994","category":"125","category_name":"书店","address":"杨浦区国权路311号(近四平路)"},{"poiid":"B2094655D26FA0FE4092","title":"国远小区(南门)","lon":"121.5084","lat":"31.29051","category":"47","category_name":"住宅区","address":"国权路322弄1-6"},{"poiid":"B2094655D26DABFE499D","title":"国权路300弄、320弄住宅小区","lon":"121.50868","lat":"31.29048","category":"47","category_name":"住宅区","address":"国权路300弄、320弄"},{"poiid":"B2094654D56EAAF8489F","title":"邻里川菜馆","lon":"121.507890054","lat":"31.293480793","category":"71","category_name":"四川菜","address":"杨浦区国顺路402号(近政修路)"},{"poiid":"B2094654D56EAAFA4193","title":"国顺路395弄、389弄住宅小区","lon":"121.50941","lat":"31.29223","category":"47","category_name":"住宅区","address":"国顺路395弄、389弄"},{"poiid":"B2094655D26CA5FF419C","title":"齐鲁人家","lon":"121.509172054","lat":"31.288170793","category":"73","category_name":"山东菜","address":"杨浦区国泰路48号(近四平路)"},{"poiid":"B2094654DB6BA2FD419F","title":"伟萍杂货店(国年路)","lon":"121.50938","lat":"31.29164","category":"117","category_name":"便民商店/便利店","address":""},{"poiid":"B2094655D26DA4FF489E","title":"国权路300弄、320弄住宅小区(南门)","lon":"121.5089","lat":"31.29032","category":"47","category_name":"住宅区","address":"国权路300弄、320弄"},{"poiid":"B2094757D768A4F8409C","title":"东北大馅水饺 国顺路店","lon":"121.51167","lat":"31.2918","category":"82","category_name":"东北菜","address":"杨浦区国顺路(近国年路菜市场)"},{"poiid":"B2094655D26CA5F84693","title":"国权路333弄小区(北门)","lon":"121.50792","lat":"31.29032","category":"47","category_name":"住宅区","address":"国权路333弄1-17号"},{"poiid":"B2094757D568A5F54793","title":"晨光文具飞凡店","lon":"121.50814","lat":"31.290603","category":"139","category_name":"文化用品店","address":"中国上海市杨浦区国权路"},{"poiid":"B2094654D56EAAFA4292","title":"复旦第一宿舍","lon":"121.50773","lat":"31.29293","category":"47","category_name":"住宅区","address":"国年路102弄"},{"poiid":"B2094757D06EAAFC479B","title":"国权路地铁站","lon":"121.510234","lat":"31.289649","category":"36","category_name":"地铁站","address":"上海轨道交通 十号线 轨交国权路站 10"},{"poiid":"B2094757D069A3FF409F","title":"上海国际设计中心","lon":"121.508","lat":"31.2925","category":"46","category_name":"楼宇","address":"上海市杨浦区国康路100号"},{"poiid":"B2094757D06FA0F8469D","title":"复旦大学继续教育学院","lon":"121.51036071","lat":"31.290260314","category":"671","category_name":"高校中心点","address":"上海四平路1931号"},{"poiid":"B2094654D56EAAFB419C","title":"复旦大学附属中学","lon":"121.5061","lat":"31.29085","category":"55","category_name":"中学","address":"杨浦区国权路383号"},{"poiid":"B2094757D66FA7FE4392","title":"复旦第六教学楼","lon":"121.5085111","lat":"31.293017894","category":"500","category_name":"未知分类","address":"上海市国权路"},{"poiid":"B2094757D06FA6FB449A","title":"四平路国权路","lon":"121.510942","lat":"31.290713","category":"260","category_name":"其他","address":"上海四平路国权路"},{"poiid":"B2094655D26FA0FE4199","title":"复旦科技园大厦","lon":"121.50793","lat":"31.2879","category":"46","category_name":"楼宇","address":"上海市杨浦区国泰路11号"},{"poiid":"B2094750D26AABF9409D","title":"糊涂家宠物咖啡店","lon":"121.511199","lat":"31.289052","category":"248","category_name":"生活娱乐","address":"国权路619号"},{"poiid":"B2094655D26EA2F4459A","title":"同济科技大厦","lon":"121.509","lat":"31.2933","category":"46","category_name":"楼宇","address":"上海市浦东新区金桥路983号"},{"poiid":"B2094757D06FABF4429B","title":"上海新东方学校(四平路总部)","lon":"121.50995","lat":"31.2891","category":"253","category_name":"校园生活","address":"杨浦区四平路1805号(近国权路)"},{"poiid":"B2094757D068A1FD4598","title":"复旦步行街","lon":"121.5070936","lat":"31.2927131","category":"260","category_name":"其他","address":"上海国年路"},{"poiid":"B2094757D065A6FD469D","title":"五角场文化中心","lon":"121.510253","lat":"31.29333","category":"500","category_name":"未知分类","address":"杨浦区政化路(近国定路)"},{"poiid":"B2094751D26DA7F8489D","title":"台北纯K","lon":"121.509208","lat":"31.290533","category":"500","category_name":"未知分类","address":null},{"poiid":"B2094751DA65A0F44598","title":"又一城新世纪食品城","lon":"121.507217","lat":"31.290207","category":"247","category_name":"餐饮美食","address":"五角场百联又一城地下一层"},{"poiid":"B2094655D26BA2FB4999","title":"四平路","lon":"121.51027","lat":"31.29238","category":"38","category_name":"公交车站","address":""},{"poiid":"B2094757D56CA2F8469A","title":"吉祥馄饨 国权路","lon":"121.50879593373","lat":"31.29059449174","category":"247","category_name":"餐饮美食","address":"杨浦区四平路1900号(近国权路)"},{"poiid":"B2094654DB6BA2FC419E","title":"锦江之星(上海国权路店)","lon":"121.51139","lat":"31.28955","category":"216","category_name":"经济型连锁酒店","address":"上海杨浦区国权路236号(近四平路)  "},{"poiid":"B2094757D16CA1F5479D","title":"维罗纳意式私房菜","lon":"121.509830869","lat":"31.2891654708","category":"94","category_name":"西餐厅","address":"杨浦区国权路309号(近四平路)"},{"poiid":"B2094655D26AAAFB4999","title":"圣富法式铁板烧景观餐厅","lon":"121.50973","lat":"31.28946","category":"97","category_name":"法式菜品餐厅","address":"杨浦区四平路1805号天益宾馆16楼(近国权路)"},{"poiid":"B2094454D36DA2FB4792","title":"RYU瑠","lon":"121.509628","lat":"31.290969","category":"247","category_name":"餐饮美食","address":"上海市 外滩5号"},{"poiid":"B2094751DB6CA4F9459B","title":"武汉热干面","lon":"121.50779","lat":"31.29072","category":"247","category_name":"餐饮美食","address":"杨浦区国权路338号(近复旦大学)"},{"poiid":"B2094654D56EAAFA409D","title":"杨浦公安分局交通警察支队四中队","lon":"121.50801","lat":"31.29129","category":"250","category_name":"公园户外","address":"政熙路90"},{"poiid":"B2094654D56EAAFB429E","title":"重庆麻辣烫 国权路店","lon":"121.50714","lat":"31.29066","category":"68","category_name":"快餐厅","address":"杨浦区国权路351号(国权路政熙路)"},{"poiid":"B2094757D064ABFB449C","title":"江原基自助餐厅","lon":"121.506848303","lat":"31.2908794499","category":"96","category_name":"韩国料理","address":"上海杨浦区国权路317号"},{"poiid":"B2094654D56EAAFA419D","title":"国年路65弄小区","lon":"121.50927","lat":"31.29141","category":"47","category_name":"住宅区","address":"国年路65弄"},{"poiid":"B2094655D26EA1FB4893","title":"金宝贝(五角场中心店)","lon":"121.50787","lat":"31.28801","category":"57","category_name":"幼儿园","address":"杨浦区四平路1779号复旦科技园大厦B楼3楼(近国权路)"},{"poiid":"B2094753D46AA0F4459D","title":"七巧板咖啡 7 PUZZLE","lon":"121.507858","lat":"31.291967","category":"247","category_name":"餐饮美食","address":"上海市杨浦区国权路525号"},{"poiid":"B2094757D16CA6FE419C","title":"铁村小区","lon":"121.510625103","lat":"31.2935569059","category":"47","category_name":"住宅区","address":"上海市杨浦区国定路277弄"},{"poiid":"B2094752D56BA0FC4493","title":"上海南京东路外滩","lon":"121.506176","lat":"31.290436","category":"500","category_name":"未知分类","address":null},{"poiid":"B2094654D56EAAF9449F","title":"上海五角场大学生创业基地","lon":"121.51049","lat":"31.29069","category":"46","category_name":"楼宇","address":"四平路1945"},{"poiid":"B2094757D069A6FF4892","title":"用纯手工巧克力讲述爱的故事(杨浦店)","lon":"121.50844","lat":"31.29033","category":"500","category_name":"未知分类","address":"杨浦区国权路328号1楼(近四平路)"},{"poiid":"B2094654DB6BA2FD4393","title":"国年路99弄小区(北门)","lon":"121.5088","lat":"31.29186","category":"47","category_name":"住宅区","address":"国年路99弄"},{"poiid":"B2094654D56EAAF94893","title":"快客No.6056","lon":"121.50798","lat":"31.29068","category":"117","category_name":"便民商店/便利店","address":"国权路332"},{"poiid":"B2094654D56EAAFB4192","title":"复旦大学附属中学国际部","lon":"121.50646","lat":"31.29178","category":"55","category_name":"中学","address":"国权路384号"},{"poiid":"B2094655D36CA7FB4793","title":"国权路","lon":"121.50998","lat":"31.289","category":"38","category_name":"公交车站","address":"399弄"},{"poiid":"B2094654DB6BA2FD419D","title":"国顺路395弄住宅小区(南门)","lon":"121.50903","lat":"31.2921","category":"47","category_name":"住宅区","address":"国顺路395弄"},{"poiid":"B2094753D76AA6FF4893","title":"百宫烧烤","lon":"121.50876","lat":"31.29005","category":"96","category_name":"韩国料理","address":"上海市杨浦区国权路307号(近10号地铁国权路站)"},{"poiid":"B2094757D065A1F8449D","title":"鹿鸣书店","lon":"121.50841","lat":"31.29048","category":"125","category_name":"书店","address":"杨浦区国权路334号(近政熙路)"},{"poiid":"B2094654D56EAAF9489B","title":"上海申东外语书店","lon":"121.50905","lat":"31.28994","category":"125","category_name":"书店","address":"杨浦区国权路311号(近四平路)"},{"poiid":"B2094655D26FA0FE4092","title":"国远小区(南门)","lon":"121.5084","lat":"31.29051","category":"47","category_name":"住宅区","address":"国权路322弄1-6"},{"poiid":"B2094655D26DABFE499D","title":"国权路300弄、320弄住宅小区","lon":"121.50868","lat":"31.29048","category":"47","category_name":"住宅区","address":"国权路300弄、320弄"},{"poiid":"B2094654D56EAAF8489F","title":"邻里川菜馆","lon":"121.507890054","lat":"31.293480793","category":"71","category_name":"四川菜","address":"杨浦区国顺路402号(近政修路)"},{"poiid":"B2094654D56EAAFA4193","title":"国顺路395弄、389弄住宅小区","lon":"121.50941","lat":"31.29223","category":"47","category_name":"住宅区","address":"国顺路395弄、389弄"},{"poiid":"B2094655D26CA5FF419C","title":"齐鲁人家","lon":"121.509172054","lat":"31.288170793","category":"73","category_name":"山东菜","address":"杨浦区国泰路48号(近四平路)"},{"poiid":"B2094654DB6BA2FD419F","title":"伟萍杂货店(国年路)","lon":"121.50938","lat":"31.29164","category":"117","category_name":"便民商店/便利店","address":""},{"poiid":"B2094655D26DA4FF489E","title":"国权路300弄、320弄住宅小区(南门)","lon":"121.5089","lat":"31.29032","category":"47","category_name":"住宅区","address":"国权路300弄、320弄"},{"poiid":"B2094757D768A4F8409C","title":"东北大馅水饺 国顺路店","lon":"121.51167","lat":"31.2918","category":"82","category_name":"东北菜","address":"杨浦区国顺路(近国年路菜市场)"},{"poiid":"B2094655D26CA5F84693","title":"国权路333弄小区(北门)","lon":"121.50792","lat":"31.29032","category":"47","category_name":"住宅区","address":"国权路333弄1-17号"},{"poiid":"B2094757D568A5F54793","title":"晨光文具飞凡店","lon":"121.50814","lat":"31.290603","category":"139","category_name":"文化用品店","address":"中国上海市杨浦区国权路"},{"poiid":"B2094654D56EAAFA4292","title":"复旦第一宿舍","lon":"121.50773","lat":"31.29293","category":"47","category_name":"住宅区","address":"国年路102弄"},{"poiid":"B2094757D06EAAFC479B","title":"国权路地铁站","lon":"121.510234","lat":"31.289649","category":"36","category_name":"地铁站","address":"上海轨道交通 十号线 轨交国权路站 10"},{"poiid":"B2094757D069A3FF409F","title":"上海国际设计中心","lon":"121.508","lat":"31.2925","category":"46","category_name":"楼宇","address":"上海市杨浦区国康路100号"},{"poiid":"B2094757D06FA0F8469D","title":"复旦大学继续教育学院","lon":"121.51036071","lat":"31.290260314","category":"671","category_name":"高校中心点","address":"上海四平路1931号"},{"poiid":"B2094654D56EAAFB419C","title":"复旦大学附属中学","lon":"121.5061","lat":"31.29085","category":"55","category_name":"中学","address":"杨浦区国权路383号"},{"poiid":"B2094757D66FA7FE4392","title":"复旦第六教学楼","lon":"121.5085111","lat":"31.293017894","category":"500","category_name":"未知分类","address":"上海市国权路"},{"poiid":"B2094757D06FA6FB449A","title":"四平路国权路","lon":"121.510942","lat":"31.290713","category":"260","category_name":"其他","address":"上海四平路国权路"},{"poiid":"B2094655D26FA0FE4199","title":"复旦科技园大厦","lon":"121.50793","lat":"31.2879","category":"46","category_name":"楼宇","address":"上海市杨浦区国泰路11号"},{"poiid":"B2094750D26AABF9409D","title":"糊涂家宠物咖啡店","lon":"121.511199","lat":"31.289052","category":"248","category_name":"生活娱乐","address":"国权路619号"},{"poiid":"B2094655D26EA2F4459A","title":"同济科技大厦","lon":"121.509","lat":"31.2933","category":"46","category_name":"楼宇","address":"上海市浦东新区金桥路983号"},{"poiid":"B2094757D06FABF4429B","title":"上海新东方学校(四平路总部)","lon":"121.50995","lat":"31.2891","category":"253","category_name":"校园生活","address":"杨浦区四平路1805号(近国权路)"},{"poiid":"B2094757D068A1FD4598","title":"复旦步行街","lon":"121.5070936","lat":"31.2927131","category":"260","category_name":"其他","address":"上海国年路"},{"poiid":"B2094757D065A6FD469D","title":"五角场文化中心","lon":"121.510253","lat":"31.29333","category":"500","category_name":"未知分类","address":"杨浦区政化路(近国定路)"},{"poiid":"B2094751D26DA7F8489D","title":"台北纯K","lon":"121.509208","lat":"31.290533","category":"500","category_name":"未知分类","address":null},{"poiid":"B2094751DA65A0F44598","title":"又一城新世纪食品城","lon":"121.507217","lat":"31.290207","category":"247","category_name":"餐饮美食","address":"五角场百联又一城地下一层"},{"poiid":"B2094655D26BA2FB4999","title":"四平路","lon":"121.51027","lat":"31.29238","category":"38","category_name":"公交车站","address":""},{"poiid":"B2094757D56CA2F8469A","title":"吉祥馄饨 国权路","lon":"121.50879593373","lat":"31.29059449174","category":"247","category_name":"餐饮美食","address":"杨浦区四平路1900号(近国权路)"},{"poiid":"B2094654DB6BA2FC419E","title":"锦江之星(上海国权路店)","lon":"121.51139","lat":"31.28955","category":"216","category_name":"经济型连锁酒店","address":"上海杨浦区国权路236号(近四平路)  "},{"poiid":"B2094757D16CA1F5479D","title":"维罗纳意式私房菜","lon":"121.509830869","lat":"31.2891654708","category":"94","category_name":"西餐厅","address":"杨浦区国权路309号(近四平路)"},{"poiid":"B2094655D26AAAFB4999","title":"圣富法式铁板烧景观餐厅","lon":"121.50973","lat":"31.28946","category":"97","category_name":"法式菜品餐厅","address":"杨浦区四平路1805号天益宾馆16楼(近国权路)"},{"poiid":"B2094454D36DA2FB4792","title":"RYU瑠","lon":"121.509628","lat":"31.290969","category":"247","category_name":"餐饮美食","address":"上海市 外滩5号"},{"poiid":"B2094751DB6CA4F9459B","title":"武汉热干面","lon":"121.50779","lat":"31.29072","category":"247","category_name":"餐饮美食","address":"杨浦区国权路338号(近复旦大学)"},{"poiid":"B2094654D56EAAFA409D","title":"杨浦公安分局交通警察支队四中队","lon":"121.50801","lat":"31.29129","category":"250","category_name":"公园户外","address":"政熙路90"},{"poiid":"B2094654D56EAAFB429E","title":"重庆麻辣烫 国权路店","lon":"121.50714","lat":"31.29066","category":"68","category_name":"快餐厅","address":"杨浦区国权路351号(国权路政熙路)"},{"poiid":"B2094757D064ABFB449C","title":"江原基自助餐厅","lon":"121.506848303","lat":"31.2908794499","category":"96","category_name":"韩国料理","address":"上海杨浦区国权路317号"},{"poiid":"B2094654D56EAAFA419D","title":"国年路65弄小区","lon":"121.50927","lat":"31.29141","category":"47","category_name":"住宅区","address":"国年路65弄"},{"poiid":"B2094655D26EA1FB4893","title":"金宝贝(五角场中心店)","lon":"121.50787","lat":"31.28801","category":"57","category_name":"幼儿园","address":"杨浦区四平路1779号复旦科技园大厦B楼3楼(近国权路)"},{"poiid":"B2094753D46AA0F4459D","title":"七巧板咖啡 7 PUZZLE","lon":"121.507858","lat":"31.291967","category":"247","category_name":"餐饮美食","address":"上海市杨浦区国权路525号"},{"poiid":"B2094757D16CA6FE419C","title":"铁村小区","lon":"121.510625103","lat":"31.2935569059","category":"47","category_name":"住宅区","address":"上海市杨浦区国定路277弄"},{"poiid":"B2094752D56BA0FC4493","title":"上海南京东路外滩","lon":"121.506176","lat":"31.290436","category":"500","category_name":"未知分类","address":null},{"poiid":"B2094654D56EAAF9449F","title":"上海五角场大学生创业基地","lon":"121.51049","lat":"31.29069","category":"46","category_name":"楼宇","address":"四平路1945"},{"poiid":"B2094757D069A6FF4892","title":"用纯手工巧克力讲述爱的故事(杨浦店)","lon":"121.50844","lat":"31.29033","category":"500","category_name":"未知分类","address":"杨浦区国权路328号1楼(近四平路)"},{"poiid":"B2094654DB6BA2FD4393","title":"国年路99弄小区(北门)","lon":"121.5088","lat":"31.29186","category":"47","category_name":"住宅区","address":"国年路99弄"},{"poiid":"B2094654D56EAAF94893","title":"快客No.6056","lon":"121.50798","lat":"31.29068","category":"117","category_name":"便民商店/便利店","address":"国权路332"},{"poiid":"B2094654D56EAAFB4192","title":"复旦大学附属中学国际部","lon":"121.50646","lat":"31.29178","category":"55","category_name":"中学","address":"国权路384号"},{"poiid":"B2094655D36CA7FB4793","title":"国权路","lon":"121.50998","lat":"31.289","category":"38","category_name":"公交车站","address":"399弄"},{"poiid":"B2094654DB6BA2FD419D","title":"国顺路395弄住宅小区(南门)","lon":"121.50903","lat":"31.2921","category":"47","category_name":"住宅区","address":"国顺路395弄"},{"poiid":"B2094753D76AA6FF4893","title":"百宫烧烤","lon":"121.50876","lat":"31.29005","category":"96","category_name":"韩国料理","address":"上海市杨浦区国权路307号(近10号地铁国权路站)"},{"poiid":"B2094757D065A1F8449D","title":"鹿鸣书店","lon":"121.50841","lat":"31.29048","category":"125","category_name":"书店","address":"杨浦区国权路334号(近政熙路)"},{"poiid":"B2094654D56EAAF9489B","title":"上海申东外语书店","lon":"121.50905","lat":"31.28994","category":"125","category_name":"书店","address":"杨浦区国权路311号(近四平路)"},{"poiid":"B2094655D26FA0FE4092","title":"国远小区(南门)","lon":"121.5084","lat":"31.29051","category":"47","category_name":"住宅区","address":"国权路322弄1-6"},{"poiid":"B2094655D26DABFE499D","title":"国权路300弄、320弄住宅小区","lon":"121.50868","lat":"31.29048","category":"47","category_name":"住宅区","address":"国权路300弄、320弄"},{"poiid":"B2094654D56EAAF8489F","title":"邻里川菜馆","lon":"121.507890054","lat":"31.293480793","category":"71","category_name":"四川菜","address":"杨浦区国顺路402号(近政修路)"},{"poiid":"B2094654D56EAAFA4193","title":"国顺路395弄、389弄住宅小区","lon":"121.50941","lat":"31.29223","category":"47","category_name":"住宅区","address":"国顺路395弄、389弄"},{"poiid":"B2094655D26CA5FF419C","title":"齐鲁人家","lon":"121.509172054","lat":"31.288170793","category":"73","category_name":"山东菜","address":"杨浦区国泰路48号(近四平路)"},{"poiid":"B2094654DB6BA2FD419F","title":"伟萍杂货店(国年路)","lon":"121.50938","lat":"31.29164","category":"117","category_name":"便民商店/便利店","address":""},{"poiid":"B2094655D26DA4FF489E","title":"国权路300弄、320弄住宅小区(南门)","lon":"121.5089","lat":"31.29032","category":"47","category_name":"住宅区","address":"国权路300弄、320弄"},{"poiid":"B2094757D768A4F8409C","title":"东北大馅水饺 国顺路店","lon":"121.51167","lat":"31.2918","category":"82","category_name":"东北菜","address":"杨浦区国顺路(近国年路菜市场)"},{"poiid":"B2094655D26CA5F84693","title":"国权路333弄小区(北门)","lon":"121.50792","lat":"31.29032","category":"47","category_name":"住宅区","address":"国权路333弄1-17号"},{"poiid":"B2094757D568A5F54793","title":"晨光文具飞凡店","lon":"121.50814","lat":"31.290603","category":"139","category_name":"文化用品店","address":"中国上海市杨浦区国权路"},{"poiid":"B2094654D56EAAFA4292","title":"复旦第一宿舍","lon":"121.50773","lat":"31.29293","category":"47","category_name":"住宅区","address":"国年路102弄"}]