[{"poiid":"B2094654DB65A6FD479F","title":"上海海洋大学临港新校区","lon":"121.89657","lat":"30.8837","category":"52","category_name":"高等院校","address":"浦东新区临港新城沪城环路999号"},{"poiid":"B2094757D06FA6FA4492","title":"上海电机学院(临港校区)","lon":"121.88798904","lat":"30.886849223","category":"52","category_name":"高等院校","address":"浦东新区临港新城橄榄路1350号(近南汇党校)"},{"poiid":"B2094654DB68ABF44493","title":"洋山保税港区","lon":"121.88819","lat":"30.87725","category":"45","category_name":"产业园区","address":""},{"poiid":"B2094757D06FAAFF429B","title":"上海海洋大学图文信息中心","lon":"121.89948981","lat":"30.881426301","category":"500","category_name":"未知分类","address":"上海海洋大学内"},{"poiid":"B2094757D06FA1FB469B","title":"深水港商务广场","lon":"121.88806915","lat":"30.877120971","category":"46","category_name":"楼宇","address":"上海浦东新区芦潮港镇顺通路9号"},{"poiid":"B2094757D06FA0F4499C","title":"上海海洋大学第一教学楼","lon":"121.896582","lat":"30.8837","category":"253","category_name":"校园生活","address":"上海临港新城沪城环路999号"},{"poiid":"B2094757D16DABF54098","title":"上海电机学院(临港校区)图书馆","lon":"121.888338458","lat":"30.8774607127","category":"181","category_name":"图书馆","address":"上海浦东新区临港新城橄榄路1350号"},{"poiid":"B2094751D369ABF4409C","title":"韶梦酒店(深水港店)","lon":"121.8853","lat":"30.87714","category":"76","category_name":"上海菜","address":"浦东新区顺通路5号深水港商务广场1楼"},{"poiid":"B2094757D66EA1FF4299","title":"上海电机学院(临港校区)A楼","lon":"121.884833758","lat":"30.8881474777","category":"253","category_name":"校园生活","address":"上海橄榄路水华路"},{"poiid":"B2094757D069A2FC459F","title":"上海海洋大学第二教学楼","lon":"121.900772","lat":"30.880862","category":"253","category_name":"校园生活","address":"浦东新区临港新城沪城环路999号上海海洋大学内"},{"poiid":"B2094655D36DA0F9459B","title":"洋山公安分局","lon":"121.87884","lat":"30.87554","category":"38","category_name":"公交车站","address":""},{"poiid":"B2094757D064A1F54193","title":"上海海洋大学第八小区","lon":"121.89609559","lat":"30.879217446","category":"500","category_name":"未知分类","address":"上海沪城环路999号"},{"poiid":"B2094757D06AA0FE4992","title":"上海深水港物流有限公司","lon":"121.881998","lat":"30.875382","category":"263","category_name":"公司","address":"上海同汇路1号"},{"poiid":"B2094655D265A6F44998","title":"书院1号公寓","lon":"121.878","lat":"30.875","category":"47","category_name":"住宅区","address":"浦东新区老芦公路855号"},{"poiid":"B2094757D16CA4F4469D","title":"洋山海关查验科","lon":"121.885709035","lat":"30.8799332018","category":"500","category_name":"未知分类","address":"上海浦东新区顺通路8号"},{"poiid":"B2094757D16AA5FF499A","title":"洋山海关查验楼","lon":"121.88937495","lat":"30.872777196","category":"500","category_name":"未知分类","address":"上海南汇顺通路8号"},{"poiid":"B2094654DB64ABFE449F","title":"中国农业银行(顺翔路)","lon":"121.87998","lat":"30.87822","category":"150","category_name":"银行","address":""},{"poiid":"B2094757D164A3FC4593","title":"麦盛莉(顺通路店)","lon":"121.8834","lat":"30.87713","category":"249","category_name":"购物服务","address":"上海近郊南汇区顺通路9号深水港商务广场B座1楼(近芦潮港)  "},{"poiid":"B2094757DB6CA5FA429F","title":"临港新城","lon":"121.885616","lat":"30.881313","category":"47","category_name":"住宅区","address":"临港新城"},{"poiid":"B2094654DB68ABFA4999","title":"卡特彼勒物流","lon":"121.87802","lat":"30.87511","category":"248","category_name":"生活娱乐","address":""},{"poiid":"B2094757DA64A5FC429C","title":"上海海洋大学第六小区","lon":"121.892622","lat":"30.880606","category":"253","category_name":"校园生活","address":"上海海洋大学沪城环路999号"},{"poiid":"B2094757D16BA5FE459C","title":"上海海洋大学第五小区","lon":"121.89729785","lat":"30.879183955","category":"500","category_name":"未知分类","address":"上海浦东新区临港新城沪城环路999号"},{"poiid":"B2094757D168AAFA499E","title":"上海海洋大学 图书馆","lon":"121.89720504","lat":"30.882000115","category":"181","category_name":"图书馆","address":"浦东新区临港新城护城环路999号"},{"poiid":"B2094757D168A2FC429A","title":"重庆鸡公堡(海洋大学店)","lon":"121.88831175","lat":"30.877464812","category":"247","category_name":"餐饮美食","address":"上海海洋大学第二食堂2楼"},{"poiid":"B2094655D268ABF8429A","title":"东海大桥收费站","lon":"121.89234","lat":"30.87393","category":"267","category_name":"收费站","address":""},{"poiid":"B2094654DB68ABFA499F","title":"临港普洛斯国际物流园区","lon":"121.87456","lat":"30.87625","category":"248","category_name":"生活娱乐","address":"同顺大道555号"},{"poiid":"B2094757D16EAAFA4892","title":"东海大桥票务监控室","lon":"121.89061695","lat":"30.879036351","category":"46","category_name":"楼宇","address":"上海市浦东新区S2沪芦高速路"},{"poiid":"B2094757D06BA7F4419B","title":"Panalpina﹣EDC","lon":"121.87856195","lat":"30.868712095","category":"500","category_name":"未知分类","address":"上海市浦东新区同顺大道333号洋山保税区"},{"poiid":"B2094757D16EA1FF409A","title":"上海海洋大学体育馆","lon":"121.900365958","lat":"30.8819844249","category":"500","category_name":"未知分类","address":"上海市浦东新区沪城环路"},{"poiid":"B2094757D068A4FE4898","title":"上海海洋大学第十小区","lon":"121.896567","lat":"30.883692","category":"500","category_name":"未知分类","address":"上海沪城环路999号"},{"poiid":"B2094757D66DA5F4469A","title":"上海电机学院15宿","lon":"121.887052558","lat":"30.882716643","category":"500","category_name":"未知分类","address":null},{"poiid":"B2094757D16EA1F84699","title":"中共上海市浦东新区区委党校(银莲路南校区)","lon":"121.89073895","lat":"30.882171429","category":"190","category_name":"培训机构","address":"浦东新区银莲路2号(近顺翔路)"},{"poiid":"B2094654DB68ABFA489B","title":"芦潮港站进口","lon":"121.86778","lat":"30.87506","category":"34","category_name":"港口码头","address":""},{"poiid":"B2094757D569A3FF479B","title":"海事大学临港新校区学生公寓小区","lon":"121.89234","lat":"30.88553","category":"47","category_name":"住宅区","address":"海港大道1550号"},{"poiid":"B2094654DB64A4FE469D","title":"洋山保税港区1/2库","lon":"121.87987","lat":"30.86905","category":"263","category_name":"公司","address":"同顺大道333号"},{"poiid":"B2094757D168A5F44899","title":"文明寝室610","lon":"121.889751548","lat":"30.873198257","category":"249","category_name":"购物服务","address":"上海海事大学北苑54号楼"},{"poiid":"B2094757D06BA1FE459C","title":"上海海洋大学学生活动中心","lon":"121.89658355","lat":"30.883699417","category":"500","category_name":"未知分类","address":"上海沪城环路999号"},{"poiid":"B2094757D66FA3FA4898","title":"上海海洋大学第十一小区","lon":"121.89492135","lat":"30.878032826","category":"500","category_name":"未知分类","address":"上海市浦东新区临港新城沪城环路999号"},{"poiid":"B2094757D165AAFD469B","title":"上海电机学院(临港校区)学生事务中心","lon":"121.884803558","lat":"30.8865319377","category":"500","category_name":"未知分类","address":"上海河洲路"},{"poiid":"B2094757D66DA4F9409D","title":"橄榄路水华路站(公交龙港快线,龙临线,龙芦线,芦杜线,三港线)","lon":"121.890493207","lat":"30.8854479111","category":"38","category_name":"公交车站","address":"上海浦东新区橄榄路"},{"poiid":"B2094655D36DA3F8499A","title":"人民塘隋塘河","lon":"121.87772","lat":"30.88658","category":"250","category_name":"公园户外","address":""},{"poiid":"B2094757D66FA0F5409C","title":"上海电机学院临港语言教学中心","lon":"121.882011658","lat":"30.8880336749","category":"500","category_name":"未知分类","address":"上海市浦东新区橄榄路1350号"},{"poiid":"B2094757D165A7FA499A","title":"上海电机学院(临港校区)16宿","lon":"121.87156825","lat":"30.883208955","category":"500","category_name":"未知分类","address":"上海春早路"},{"poiid":"B2094750D66AA5FB499D","title":"上海海洋大学第九小区","lon":"121.895088","lat":"30.878404","category":"253","category_name":"校园生活","address":"浦东新区临港新城沪城环路999号上海海洋大学"},{"poiid":"B2094654DB64ABFD409D","title":"洋山保税港区3/4库","lon":"121.87522","lat":"30.86871","category":"263","category_name":"公司","address":""},{"poiid":"B2094757D16DA6FD479F","title":"克莱斯勒仓库","lon":"121.887047858","lat":"30.8827116429","category":"260","category_name":"其他","address":"上海业盛路66号"},{"poiid":"B2094757D169ABFA459A","title":"芦潮港火车站","lon":"121.864791298","lat":"30.8732604453","category":"22","category_name":"火车站","address":"浦东新区老芦公路(近两港大道)"},{"poiid":"B2094757D568A5F8489A","title":"海事大学行政楼","lon":"121.89253","lat":"30.88536","category":"52","category_name":"高等院校","address":"海事大学临港校区"},{"poiid":"B2094752DB6BA5F5489C","title":"上海电机学院图书馆","lon":"121.8853","lat":"30.887238","category":"500","category_name":"未知分类","address":"上海市 上海市浦东新区临港新城橄榄路1350号"},{"poiid":"B2094757D168ABF84592","title":"上海海洋大学第一小区宿舍","lon":"121.896742006","lat":"30.883528992","category":"253","category_name":"校园生活","address":"上海市浦东新区沪城环路999号"},{"poiid":"B2094654DB65A6FD479F","title":"上海海洋大学临港新校区","lon":"121.89657","lat":"30.8837","category":"52","category_name":"高等院校","address":"浦东新区临港新城沪城环路999号"},{"poiid":"B2094757D06FA6FA4492","title":"上海电机学院(临港校区)","lon":"121.88798904","lat":"30.886849223","category":"52","category_name":"高等院校","address":"浦东新区临港新城橄榄路1350号(近南汇党校)"},{"poiid":"B2094654DB68ABF44493","title":"洋山保税港区","lon":"121.88819","lat":"30.87725","category":"45","category_name":"产业园区","address":""},{"poiid":"B2094757D06FAAFF429B","title":"上海海洋大学图文信息中心","lon":"121.89948981","lat":"30.881426301","category":"500","category_name":"未知分类","address":"上海海洋大学内"},{"poiid":"B2094757D06FA1FB469B","title":"深水港商务广场","lon":"121.88806915","lat":"30.877120971","category":"46","category_name":"楼宇","address":"上海浦东新区芦潮港镇顺通路9号"},{"poiid":"B2094757D06FA0F4499C","title":"上海海洋大学第一教学楼","lon":"121.896582","lat":"30.8837","category":"253","category_name":"校园生活","address":"上海临港新城沪城环路999号"},{"poiid":"B2094757D16DABF54098","title":"上海电机学院(临港校区)图书馆","lon":"121.888338458","lat":"30.8774607127","category":"181","category_name":"图书馆","address":"上海浦东新区临港新城橄榄路1350号"},{"poiid":"B2094751D369ABF4409C","title":"韶梦酒店(深水港店)","lon":"121.8853","lat":"30.87714","category":"76","category_name":"上海菜","address":"浦东新区顺通路5号深水港商务广场1楼"},{"poiid":"B2094757D66EA1FF4299","title":"上海电机学院(临港校区)A楼","lon":"121.884833758","lat":"30.8881474777","category":"253","category_name":"校园生活","address":"上海橄榄路水华路"},{"poiid":"B2094757D069A2FC459F","title":"上海海洋大学第二教学楼","lon":"121.900772","lat":"30.880862","category":"253","category_name":"校园生活","address":"浦东新区临港新城沪城环路999号上海海洋大学内"},{"poiid":"B2094655D36DA0F9459B","title":"洋山公安分局","lon":"121.87884","lat":"30.87554","category":"38","category_name":"公交车站","address":""},{"poiid":"B2094757D064A1F54193","title":"上海海洋大学第八小区","lon":"121.89609559","lat":"30.879217446","category":"500","category_name":"未知分类","address":"上海沪城环路999号"},{"poiid":"B2094757D06AA0FE4992","title":"上海深水港物流有限公司","lon":"121.881998","lat":"30.875382","category":"263","category_name":"公司","address":"上海同汇路1号"},{"poiid":"B2094655D265A6F44998","title":"书院1号公寓","lon":"121.878","lat":"30.875","category":"47","category_name":"住宅区","address":"浦东新区老芦公路855号"},{"poiid":"B2094757D16CA4F4469D","title":"洋山海关查验科","lon":"121.885709035","lat":"30.8799332018","category":"500","category_name":"未知分类","address":"上海浦东新区顺通路8号"},{"poiid":"B2094757D16AA5FF499A","title":"洋山海关查验楼","lon":"121.88937495","lat":"30.872777196","category":"500","category_name":"未知分类","address":"上海南汇顺通路8号"},{"poiid":"B2094654DB64ABFE449F","title":"中国农业银行(顺翔路)","lon":"121.87998","lat":"30.87822","category":"150","category_name":"银行","address":""},{"poiid":"B2094757D164A3FC4593","title":"麦盛莉(顺通路店)","lon":"121.8834","lat":"30.87713","category":"249","category_name":"购物服务","address":"上海近郊南汇区顺通路9号深水港商务广场B座1楼(近芦潮港)  "},{"poiid":"B2094757DB6CA5FA429F","title":"临港新城","lon":"121.885616","lat":"30.881313","category":"47","category_name":"住宅区","address":"临港新城"},{"poiid":"B2094654DB68ABFA4999","title":"卡特彼勒物流","lon":"121.87802","lat":"30.87511","category":"248","category_name":"生活娱乐","address":""},{"poiid":"B2094757DA64A5FC429C","title":"上海海洋大学第六小区","lon":"121.892622","lat":"30.880606","category":"253","category_name":"校园生活","address":"上海海洋大学沪城环路999号"},{"poiid":"B2094757D16BA5FE459C","title":"上海海洋大学第五小区","lon":"121.89729785","lat":"30.879183955","category":"500","category_name":"未知分类","address":"上海浦东新区临港新城沪城环路999号"},{"poiid":"B2094757D168AAFA499E","title":"上海海洋大学 图书馆","lon":"121.89720504","lat":"30.882000115","category":"181","category_name":"图书馆","address":"浦东新区临港新城护城环路999号"},{"poiid":"B2094757D168A2FC429A","title":"重庆鸡公堡(海洋大学店)","lon":"121.88831175","lat":"30.877464812","category":"247","category_name":"餐饮美食","address":"上海海洋大学第二食堂2楼"},{"poiid":"B2094655D268ABF8429A","title":"东海大桥收费站","lon":"121.89234","lat":"30.87393","category":"267","category_name":"收费站","address":""},{"poiid":"B2094654DB68ABFA499F","title":"临港普洛斯国际物流园区","lon":"121.87456","lat":"30.87625","category":"248","category_name":"生活娱乐","address":"同顺大道555号"},{"poiid":"B2094757D16EAAFA4892","title":"东海大桥票务监控室","lon":"121.89061695","lat":"30.879036351","category":"46","category_name":"楼宇","address":"上海市浦东新区S2沪芦高速路"},{"poiid":"B2094757D06BA7F4419B","title":"Panalpina﹣EDC","lon":"121.87856195","lat":"30.868712095","category":"500","category_name":"未知分类","address":"上海市浦东新区同顺大道333号洋山保税区"},{"poiid":"B2094757D16EA1FF409A","title":"上海海洋大学体育馆","lon":"121.900365958","lat":"30.8819844249","category":"500","category_name":"未知分类","address":"上海市浦东新区沪城环路"},{"poiid":"B2094757D068A4FE4898","title":"上海海洋大学第十小区","lon":"121.896567","lat":"30.883692","category":"500","category_name":"未知分类","address":"上海沪城环路999号"},{"poiid":"B2094757D66DA5F4469A","title":"上海电机学院15宿","lon":"121.887052558","lat":"30.882716643","category":"500","category_name":"未知分类","address":null},{"poiid":"B2094757D16EA1F84699","title":"中共上海市浦东新区区委党校(银莲路南校区)","lon":"121.89073895","lat":"30.882171429","category":"190","category_name":"培训机构","address":"浦东新区银莲路2号(近顺翔路)"},{"poiid":"B2094654DB68ABFA489B","title":"芦潮港站进口","lon":"121.86778","lat":"30.87506","category":"34","category_name":"港口码头","address":""},{"poiid":"B2094757D569A3FF479B","title":"海事大学临港新校区学生公寓小区","lon":"121.89234","lat":"30.88553","category":"47","category_name":"住宅区","address":"海港大道1550号"},{"poiid":"B2094654DB64A4FE469D","title":"洋山保税港区1/2库","lon":"121.87987","lat":"30.86905","category":"263","category_name":"公司","address":"同顺大道333号"},{"poiid":"B2094757D168A5F44899","title":"文明寝室610","lon":"121.889751548","lat":"30.873198257","category":"249","category_name":"购物服务","address":"上海海事大学北苑54号楼"},{"poiid":"B2094757D06BA1FE459C","title":"上海海洋大学学生活动中心","lon":"121.89658355","lat":"30.883699417","category":"500","category_name":"未知分类","address":"上海沪城环路999号"},{"poiid":"B2094757D66FA3FA4898","title":"上海海洋大学第十一小区","lon":"121.89492135","lat":"30.878032826","category":"500","category_name":"未知分类","address":"上海市浦东新区临港新城沪城环路999号"},{"poiid":"B2094757D165AAFD469B","title":"上海电机学院(临港校区)学生事务中心","lon":"121.884803558","lat":"30.8865319377","category":"500","category_name":"未知分类","address":"上海河洲路"},{"poiid":"B2094757D66DA4F9409D","title":"橄榄路水华路站(公交龙港快线,龙临线,龙芦线,芦杜线,三港线)","lon":"121.890493207","lat":"30.8854479111","category":"38","category_name":"公交车站","address":"上海浦东新区橄榄路"},{"poiid":"B2094655D36DA3F8499A","title":"人民塘隋塘河","lon":"121.87772","lat":"30.88658","category":"250","category_name":"公园户外","address":""},{"poiid":"B2094757D66FA0F5409C","title":"上海电机学院临港语言教学中心","lon":"121.882011658","lat":"30.8880336749","category":"500","category_name":"未知分类","address":"上海市浦东新区橄榄路1350号"},{"poiid":"B2094757D165A7FA499A","title":"上海电机学院(临港校区)16宿","lon":"121.87156825","lat":"30.883208955","category":"500","category_name":"未知分类","address":"上海春早路"},{"poiid":"B2094750D66AA5FB499D","title":"上海海洋大学第九小区","lon":"121.895088","lat":"30.878404","category":"253","category_name":"校园生活","address":"浦东新区临港新城沪城环路999号上海海洋大学"},{"poiid":"B2094654DB64ABFD409D","title":"洋山保税港区3/4库","lon":"121.87522","lat":"30.86871","category":"263","category_name":"公司","address":""},{"poiid":"B2094757D16DA6FD479F","title":"克莱斯勒仓库","lon":"121.887047858","lat":"30.8827116429","category":"260","category_name":"其他","address":"上海业盛路66号"},{"poiid":"B2094757D169ABFA459A","title":"芦潮港火车站","lon":"121.864791298","lat":"30.8732604453","category":"22","category_name":"火车站","address":"浦东新区老芦公路(近两港大道)"},{"poiid":"B2094757D568A5F8489A","title":"海事大学行政楼","lon":"121.89253","lat":"30.88536","category":"52","category_name":"高等院校","address":"海事大学临港校区"},{"poiid":"B2094752DB6BA5F5489C","title":"上海电机学院图书馆","lon":"121.8853","lat":"30.887238","category":"500","category_name":"未知分类","address":"上海市 上海市浦东新区临港新城橄榄路1350号"},{"poiid":"B2094757D168ABF84592","title":"上海海洋大学第一小区宿舍","lon":"121.896742006","lat":"30.883528992","category":"253","category_name":"校园生活","address":"上海市浦东新区沪城环路999号"}]