[{"poiid":"B2094655D26FABFB479E","title":"开元地中海","lon":"121.226","lat":"31.0447","category":"119","category_name":"商场","address":"上海松江区新松江路925号(人民北路口)"},{"poiid":"B2094654DB64A0FC4993","title":"上海市第一人民医院（南部分院）","lon":"121.22572","lat":"31.04036","category":"162","category_name":"医院","address":"近郊新松江路650号(近人民北路)"},{"poiid":"B2094655D26BA2FB439E","title":"松江新城地铁站","lon":"121.23194","lat":"31.02848","category":"36","category_name":"地铁站","address":"上海轨道交通 九号线 轨交松江新城站 9"},{"poiid":"B2094757D06FA4F5469B","title":"阳光绿洲生态酒店","lon":"121.240118","lat":"31.0294","category":"76","category_name":"上海菜","address":"松江区通波路50号(近思贤路)"},{"poiid":"B2094757D069A2FA429B","title":"中央公园","lon":"121.227502823","lat":"31.0360280584","category":"196","category_name":"公园","address":"上海松江新城翠湖路"},{"poiid":"B2094757D068ABFE4099","title":"榕港海鲜大酒楼(松江店)","lon":"121.23506","lat":"31.03308","category":"88","category_name":"海鲜酒楼","address":"松江区谷阳北路1425弄88号(谷阳北路南青路)"},{"poiid":"B2094655D26AA0FA4592","title":"地铁松江新城站","lon":"121.23099","lat":"31.03072","category":"36","category_name":"地铁站","address":""},{"poiid":"B2094757DB6DA5F84793","title":"上海锦丰国际大酒店","lon":"121.246227622","lat":"31.035910179","category":"76","category_name":"上海菜","address":"松江区茸梅路237号锦丰国际大酒店内(近茸平路)"},{"poiid":"B2094757D164A2FC429A","title":"上海外国语大学西外外国语学校","lon":"121.23489246","lat":"31.042756779","category":"500","category_name":"未知分类","address":"松江区文翔路1100号"},{"poiid":"B2094655D26FAAFA4592","title":"上外小别墅","lon":"121.22942","lat":"31.04522","category":"47","category_name":"住宅区","address":"松江区文翔路1550号上海外国语大学松江校区内(文翔路西林北路)"},{"poiid":"B2094655D268A1FE439C","title":"上海市第一人民医院(南部)急诊部","lon":"121.22573","lat":"31.04159","category":"162","category_name":"医院","address":"文翔路1485"},{"poiid":"B2094757D069A0FF4993","title":"松江区政府行政一中心","lon":"121.227747","lat":"31.032243","category":"500","category_name":"未知分类","address":"上海松江区园中路1号"},{"poiid":"B2094757D16CA3FD469C","title":"友福咖啡","lon":"121.2347618","lat":"31.0387261","category":"260","category_name":"其他","address":"松江区新松江路265号(近开元地中海)"},{"poiid":"B2094655D26DA6FD459B","title":"文景苑","lon":"121.2337","lat":"31.040943","category":"47","category_name":"住宅区","address":"上海市松江区文翔路1099弄"},{"poiid":"B2094757D569A2F8419D","title":"御上海","lon":"121.23415","lat":"31.049538","category":"47","category_name":"住宅区","address":"上海松江区谷阳北路2399弄"},{"poiid":"B2094654DB6DA4F4489C","title":"松云水苑","lon":"121.23747","lat":"31.044041","category":"47","category_name":"住宅区","address":"文翔路928弄"},{"poiid":"B2094654DB6EA2F4449B","title":"名庭花苑","lon":"121.24","lat":"31.0444","category":"47","category_name":"住宅区","address":"上海市松江区新松江路259弄"},{"poiid":"B2094655D264A5FA469E","title":"恒杰商务广场","lon":"121.23822","lat":"31.03877","category":"46","category_name":"楼宇","address":"新松江路100号"},{"poiid":"B2094757D169A1FE409D","title":"安琪花苑","lon":"121.23703","lat":"31.040705","category":"252","category_name":"楼宇机构","address":"上海通波路725号"},{"poiid":"B2094654DB6EA2F4439E","title":"东其昌酒家","lon":"121.23316","lat":"31.03389","category":"76","category_name":"上海菜","address":"松江区松江谷阳北路371弄100号(南青路通跃路)"},{"poiid":"B2094757D068A3F5489C","title":"肯德基 KFC (松江新城店)","lon":"121.231486524","lat":"31.0362641114","category":"68","category_name":"快餐厅","address":"上海新松江路935号"},{"poiid":"B2094654DB6EA2F8469A","title":"嘉和休闲广场","lon":"121.22469730537","lat":"31.038981603495","category":"201","category_name":"城市广场","address":"崇文区前门大街东打磨厂"},{"poiid":"B2094655D36CA7F5499F","title":"谷阳北路新松江路","lon":"121.23493","lat":"31.03973","category":"38","category_name":"公交车站","address":""},{"poiid":"B2094655D26FA4FB419E","title":"皇骐爱丽苑","lon":"121.237765","lat":"31.0375","category":"47","category_name":"住宅区","address":""},{"poiid":"B2094753D56FABF44693","title":"玛雅水上乐园","lon":"121.235481","lat":"31.040431","category":"500","category_name":"未知分类","address":"上海市 松江佘山"},{"poiid":"B2094757D16DABF9469D","title":"外门山足浴城","lon":"121.236618042","lat":"31.0363769531","category":"148","category_name":"美容美发店","address":"松江区西林北路(近北翠路)"},{"poiid":"B2094655D36CA5F54499","title":"北翠路","lon":"121.23497","lat":"31.03668","category":"38","category_name":"公交车站","address":""},{"poiid":"B2094752D465A0F4499F","title":"上海话剧艺术中心","lon":"121.238739","lat":"31.036697","category":"248","category_name":"生活娱乐","address":"安福路288号"},{"poiid":"B2094757D16AA1FA4699","title":"蜀娱养生香辣馆","lon":"121.239880767","lat":"31.0381982788","category":"247","category_name":"餐饮美食","address":"上海新松江路开元地中海广场1-096a号"},{"poiid":"B2094757D569A1F8459B","title":"新城九号商业广场","lon":"121.23714705121","lat":"31.037684677675","category":"249","category_name":"购物服务","address":"松江区嘉松南路思贤路口"},{"poiid":"B2094654DB6EA2FB469C","title":"松江商业广场","lon":"121.241","lat":"31.0384","category":"119","category_name":"商场","address":"翔峰路371弄"},{"poiid":"B2094654DB6EA2F4459B","title":"华东师范大学松江实验中学","lon":"121.23752","lat":"31.03525","category":"55","category_name":"中学","address":"南青路100"},{"poiid":"B2094654DB6EA2F4449A","title":"永翔大厦","lon":"121.242","lat":"31.0398","category":"46","category_name":"楼宇","address":"谷阳北路1500"},{"poiid":"B2094654DB6EA2F4459A","title":"华东师范大学松江实验中学2号门","lon":"121.23905","lat":"31.03637","category":"55","category_name":"中学","address":""},{"poiid":"B2094757D168ABFB4098","title":"华亭绿景苑","lon":"121.23682","lat":"31.035601","category":"47","category_name":"住宅区","address":"上海市长宁区虹桥路1165弄"},{"poiid":"B2094654DB6EA2F44593","title":"永翔商业","lon":"121.2357","lat":"31.03316","category":"119","category_name":"商场","address":"松江区谷阳北路1470弄1号"},{"poiid":"B2094654DB6DA4FE4398","title":"茸平苑","lon":"121.24386","lat":"31.037045","category":"47","category_name":"住宅区","address":"茸平路288弄"},{"poiid":"B2094655D26BA2FF489D","title":"通波路茸平路","lon":"121.23978","lat":"31.03642","category":"38","category_name":"公交车站","address":""},{"poiid":"B2094655D268A5F9469D","title":"快客No.5127","lon":"121.23363","lat":"31.04212","category":"117","category_name":"便民商店/便利店","address":"文翔路1105"},{"poiid":"B2094655D268A3F5409E","title":"松江区气象科普馆","lon":"121.23834","lat":"31.03495","category":"186","category_name":"科技馆","address":"南青路8"},{"poiid":"B2094655D26FAAFC4198","title":"安琪花苑(东门)","lon":"121.23841","lat":"31.04103","category":"656","category_name":"大门","address":""},{"poiid":"B2094757D06FA5FD419E","title":"上海外国语大学法学院","lon":"121.226377","lat":"31.045086","category":"253","category_name":"校园生活","address":"松江区文翔路1550号上海外国语大学四教楼(法学院)"},{"poiid":"B2094655D36CA7F5499E","title":"谷阳北路文翔路","lon":"121.23525","lat":"31.045","category":"38","category_name":"公交车站","address":""},{"poiid":"B2094654DB6EA2F4469A","title":"裕盛豪园","lon":"121.244305","lat":"31.038462","category":"47","category_name":"住宅区","address":"上海市松江区谷阳北路166号"},{"poiid":"B2094654DB6DA4FE469A","title":"科邦工业园(茸北路)","lon":"121.24421","lat":"31.03952","category":"45","category_name":"产业园区","address":"茸北路333弄1-10号"},{"poiid":"B2094655D36CA3FD469A","title":"水岸华庭","lon":"121.23968","lat":"31.03407","category":"47","category_name":"住宅区","address":"上海市松江区通波路"},{"poiid":"B2094655D36CA7F54993","title":"谷阳北路南青路","lon":"121.23502","lat":"31.03392","category":"38","category_name":"公交车站","address":""},{"poiid":"B2094757D66DA7FD4199","title":"H3club","lon":"121.23237358","lat":"31.034370424","category":"500","category_name":"未知分类","address":"松江区南清路248号锦桂服饰商场1-4楼(近轻轨9号线松江新城站)"},{"poiid":"B2094753D465A1FD419E","title":"新疆味道","lon":"121.232521","lat":"31.036258","category":"247","category_name":"餐饮美食","address":"上海市 松江区通跃路"},{"poiid":"B2094654DB64ABFD479A","title":"上岛咖啡(谷阳北路店)","lon":"121.23209","lat":"31.03312","category":"65","category_name":"咖啡厅","address":""},{"poiid":"B2094655D26FABFB479E","title":"开元地中海","lon":"121.226","lat":"31.0447","category":"119","category_name":"商场","address":"上海松江区新松江路925号(人民北路口)"},{"poiid":"B2094654DB64A0FC4993","title":"上海市第一人民医院（南部分院）","lon":"121.22572","lat":"31.04036","category":"162","category_name":"医院","address":"近郊新松江路650号(近人民北路)"},{"poiid":"B2094655D26BA2FB439E","title":"松江新城地铁站","lon":"121.23194","lat":"31.02848","category":"36","category_name":"地铁站","address":"上海轨道交通 九号线 轨交松江新城站 9"},{"poiid":"B2094757D06FA4F5469B","title":"阳光绿洲生态酒店","lon":"121.240118","lat":"31.0294","category":"76","category_name":"上海菜","address":"松江区通波路50号(近思贤路)"},{"poiid":"B2094757D069A2FA429B","title":"中央公园","lon":"121.227502823","lat":"31.0360280584","category":"196","category_name":"公园","address":"上海松江新城翠湖路"},{"poiid":"B2094757D068ABFE4099","title":"榕港海鲜大酒楼(松江店)","lon":"121.23506","lat":"31.03308","category":"88","category_name":"海鲜酒楼","address":"松江区谷阳北路1425弄88号(谷阳北路南青路)"},{"poiid":"B2094655D26AA0FA4592","title":"地铁松江新城站","lon":"121.23099","lat":"31.03072","category":"36","category_name":"地铁站","address":""},{"poiid":"B2094757DB6DA5F84793","title":"上海锦丰国际大酒店","lon":"121.246227622","lat":"31.035910179","category":"76","category_name":"上海菜","address":"松江区茸梅路237号锦丰国际大酒店内(近茸平路)"},{"poiid":"B2094757D164A2FC429A","title":"上海外国语大学西外外国语学校","lon":"121.23489246","lat":"31.042756779","category":"500","category_name":"未知分类","address":"松江区文翔路1100号"},{"poiid":"B2094655D26FAAFA4592","title":"上外小别墅","lon":"121.22942","lat":"31.04522","category":"47","category_name":"住宅区","address":"松江区文翔路1550号上海外国语大学松江校区内(文翔路西林北路)"},{"poiid":"B2094655D268A1FE439C","title":"上海市第一人民医院(南部)急诊部","lon":"121.22573","lat":"31.04159","category":"162","category_name":"医院","address":"文翔路1485"},{"poiid":"B2094757D069A0FF4993","title":"松江区政府行政一中心","lon":"121.227747","lat":"31.032243","category":"500","category_name":"未知分类","address":"上海松江区园中路1号"},{"poiid":"B2094757D16CA3FD469C","title":"友福咖啡","lon":"121.2347618","lat":"31.0387261","category":"260","category_name":"其他","address":"松江区新松江路265号(近开元地中海)"},{"poiid":"B2094655D26DA6FD459B","title":"文景苑","lon":"121.2337","lat":"31.040943","category":"47","category_name":"住宅区","address":"上海市松江区文翔路1099弄"},{"poiid":"B2094757D569A2F8419D","title":"御上海","lon":"121.23415","lat":"31.049538","category":"47","category_name":"住宅区","address":"上海松江区谷阳北路2399弄"},{"poiid":"B2094654DB6DA4F4489C","title":"松云水苑","lon":"121.23747","lat":"31.044041","category":"47","category_name":"住宅区","address":"文翔路928弄"},{"poiid":"B2094654DB6EA2F4449B","title":"名庭花苑","lon":"121.24","lat":"31.0444","category":"47","category_name":"住宅区","address":"上海市松江区新松江路259弄"},{"poiid":"B2094655D264A5FA469E","title":"恒杰商务广场","lon":"121.23822","lat":"31.03877","category":"46","category_name":"楼宇","address":"新松江路100号"},{"poiid":"B2094757D169A1FE409D","title":"安琪花苑","lon":"121.23703","lat":"31.040705","category":"252","category_name":"楼宇机构","address":"上海通波路725号"},{"poiid":"B2094654DB6EA2F4439E","title":"东其昌酒家","lon":"121.23316","lat":"31.03389","category":"76","category_name":"上海菜","address":"松江区松江谷阳北路371弄100号(南青路通跃路)"},{"poiid":"B2094757D068A3F5489C","title":"肯德基 KFC (松江新城店)","lon":"121.231486524","lat":"31.0362641114","category":"68","category_name":"快餐厅","address":"上海新松江路935号"},{"poiid":"B2094654DB6EA2F8469A","title":"嘉和休闲广场","lon":"121.22469730537","lat":"31.038981603495","category":"201","category_name":"城市广场","address":"崇文区前门大街东打磨厂"},{"poiid":"B2094655D36CA7F5499F","title":"谷阳北路新松江路","lon":"121.23493","lat":"31.03973","category":"38","category_name":"公交车站","address":""},{"poiid":"B2094655D26FA4FB419E","title":"皇骐爱丽苑","lon":"121.237765","lat":"31.0375","category":"47","category_name":"住宅区","address":""},{"poiid":"B2094753D56FABF44693","title":"玛雅水上乐园","lon":"121.235481","lat":"31.040431","category":"500","category_name":"未知分类","address":"上海市 松江佘山"},{"poiid":"B2094757D16DABF9469D","title":"外门山足浴城","lon":"121.236618042","lat":"31.0363769531","category":"148","category_name":"美容美发店","address":"松江区西林北路(近北翠路)"},{"poiid":"B2094655D36CA5F54499","title":"北翠路","lon":"121.23497","lat":"31.03668","category":"38","category_name":"公交车站","address":""},{"poiid":"B2094752D465A0F4499F","title":"上海话剧艺术中心","lon":"121.238739","lat":"31.036697","category":"248","category_name":"生活娱乐","address":"安福路288号"},{"poiid":"B2094757D16AA1FA4699","title":"蜀娱养生香辣馆","lon":"121.239880767","lat":"31.0381982788","category":"247","category_name":"餐饮美食","address":"上海新松江路开元地中海广场1-096a号"},{"poiid":"B2094757D569A1F8459B","title":"新城九号商业广场","lon":"121.23714705121","lat":"31.037684677675","category":"249","category_name":"购物服务","address":"松江区嘉松南路思贤路口"},{"poiid":"B2094654DB6EA2FB469C","title":"松江商业广场","lon":"121.241","lat":"31.0384","category":"119","category_name":"商场","address":"翔峰路371弄"},{"poiid":"B2094654DB6EA2F4459B","title":"华东师范大学松江实验中学","lon":"121.23752","lat":"31.03525","category":"55","category_name":"中学","address":"南青路100"},{"poiid":"B2094654DB6EA2F4449A","title":"永翔大厦","lon":"121.242","lat":"31.0398","category":"46","category_name":"楼宇","address":"谷阳北路1500"},{"poiid":"B2094654DB6EA2F4459A","title":"华东师范大学松江实验中学2号门","lon":"121.23905","lat":"31.03637","category":"55","category_name":"中学","address":""},{"poiid":"B2094757D168ABFB4098","title":"华亭绿景苑","lon":"121.23682","lat":"31.035601","category":"47","category_name":"住宅区","address":"上海市长宁区虹桥路1165弄"},{"poiid":"B2094654DB6EA2F44593","title":"永翔商业","lon":"121.2357","lat":"31.03316","category":"119","category_name":"商场","address":"松江区谷阳北路1470弄1号"},{"poiid":"B2094654DB6DA4FE4398","title":"茸平苑","lon":"121.24386","lat":"31.037045","category":"47","category_name":"住宅区","address":"茸平路288弄"},{"poiid":"B2094655D26BA2FF489D","title":"通波路茸平路","lon":"121.23978","lat":"31.03642","category":"38","category_name":"公交车站","address":""},{"poiid":"B2094655D268A5F9469D","title":"快客No.5127","lon":"121.23363","lat":"31.04212","category":"117","category_name":"便民商店/便利店","address":"文翔路1105"},{"poiid":"B2094655D268A3F5409E","title":"松江区气象科普馆","lon":"121.23834","lat":"31.03495","category":"186","category_name":"科技馆","address":"南青路8"},{"poiid":"B2094655D26FAAFC4198","title":"安琪花苑(东门)","lon":"121.23841","lat":"31.04103","category":"656","category_name":"大门","address":""},{"poiid":"B2094757D06FA5FD419E","title":"上海外国语大学法学院","lon":"121.226377","lat":"31.045086","category":"253","category_name":"校园生活","address":"松江区文翔路1550号上海外国语大学四教楼(法学院)"},{"poiid":"B2094655D36CA7F5499E","title":"谷阳北路文翔路","lon":"121.23525","lat":"31.045","category":"38","category_name":"公交车站","address":""},{"poiid":"B2094654DB6EA2F4469A","title":"裕盛豪园","lon":"121.244305","lat":"31.038462","category":"47","category_name":"住宅区","address":"上海市松江区谷阳北路166号"},{"poiid":"B2094654DB6DA4FE469A","title":"科邦工业园(茸北路)","lon":"121.24421","lat":"31.03952","category":"45","category_name":"产业园区","address":"茸北路333弄1-10号"},{"poiid":"B2094655D36CA3FD469A","title":"水岸华庭","lon":"121.23968","lat":"31.03407","category":"47","category_name":"住宅区","address":"上海市松江区通波路"},{"poiid":"B2094655D36CA7F54993","title":"谷阳北路南青路","lon":"121.23502","lat":"31.03392","category":"38","category_name":"公交车站","address":""},{"poiid":"B2094757D66DA7FD4199","title":"H3club","lon":"121.23237358","lat":"31.034370424","category":"500","category_name":"未知分类","address":"松江区南清路248号锦桂服饰商场1-4楼(近轻轨9号线松江新城站)"},{"poiid":"B2094753D465A1FD419E","title":"新疆味道","lon":"121.232521","lat":"31.036258","category":"247","category_name":"餐饮美食","address":"上海市 松江区通跃路"},{"poiid":"B2094654DB64ABFD479A","title":"上岛咖啡(谷阳北路店)","lon":"121.23209","lat":"31.03312","category":"65","category_name":"咖啡厅","address":""},{"poiid":"B2094655D26FABFB479E","title":"开元地中海","lon":"121.226","lat":"31.0447","category":"119","category_name":"商场","address":"上海松江区新松江路925号(人民北路口)"},{"poiid":"B2094654DB64A0FC4993","title":"上海市第一人民医院（南部分院）","lon":"121.22572","lat":"31.04036","category":"162","category_name":"医院","address":"近郊新松江路650号(近人民北路)"},{"poiid":"B2094655D26BA2FB439E","title":"松江新城地铁站","lon":"121.23194","lat":"31.02848","category":"36","category_name":"地铁站","address":"上海轨道交通 九号线 轨交松江新城站 9"},{"poiid":"B2094757D06FA4F5469B","title":"阳光绿洲生态酒店","lon":"121.240118","lat":"31.0294","category":"76","category_name":"上海菜","address":"松江区通波路50号(近思贤路)"},{"poiid":"B2094757D069A2FA429B","title":"中央公园","lon":"121.227502823","lat":"31.0360280584","category":"196","category_name":"公园","address":"上海松江新城翠湖路"},{"poiid":"B2094757D068ABFE4099","title":"榕港海鲜大酒楼(松江店)","lon":"121.23506","lat":"31.03308","category":"88","category_name":"海鲜酒楼","address":"松江区谷阳北路1425弄88号(谷阳北路南青路)"},{"poiid":"B2094655D26AA0FA4592","title":"地铁松江新城站","lon":"121.23099","lat":"31.03072","category":"36","category_name":"地铁站","address":""},{"poiid":"B2094757DB6DA5F84793","title":"上海锦丰国际大酒店","lon":"121.246227622","lat":"31.035910179","category":"76","category_name":"上海菜","address":"松江区茸梅路237号锦丰国际大酒店内(近茸平路)"},{"poiid":"B2094757D164A2FC429A","title":"上海外国语大学西外外国语学校","lon":"121.23489246","lat":"31.042756779","category":"500","category_name":"未知分类","address":"松江区文翔路1100号"},{"poiid":"B2094655D26FAAFA4592","title":"上外小别墅","lon":"121.22942","lat":"31.04522","category":"47","category_name":"住宅区","address":"松江区文翔路1550号上海外国语大学松江校区内(文翔路西林北路)"},{"poiid":"B2094655D268A1FE439C","title":"上海市第一人民医院(南部)急诊部","lon":"121.22573","lat":"31.04159","category":"162","category_name":"医院","address":"文翔路1485"},{"poiid":"B2094757D069A0FF4993","title":"松江区政府行政一中心","lon":"121.227747","lat":"31.032243","category":"500","category_name":"未知分类","address":"上海松江区园中路1号"},{"poiid":"B2094757D16CA3FD469C","title":"友福咖啡","lon":"121.2347618","lat":"31.0387261","category":"260","category_name":"其他","address":"松江区新松江路265号(近开元地中海)"},{"poiid":"B2094655D26DA6FD459B","title":"文景苑","lon":"121.2337","lat":"31.040943","category":"47","category_name":"住宅区","address":"上海市松江区文翔路1099弄"},{"poiid":"B2094757D569A2F8419D","title":"御上海","lon":"121.23415","lat":"31.049538","category":"47","category_name":"住宅区","address":"上海松江区谷阳北路2399弄"},{"poiid":"B2094654DB6DA4F4489C","title":"松云水苑","lon":"121.23747","lat":"31.044041","category":"47","category_name":"住宅区","address":"文翔路928弄"},{"poiid":"B2094654DB6EA2F4449B","title":"名庭花苑","lon":"121.24","lat":"31.0444","category":"47","category_name":"住宅区","address":"上海市松江区新松江路259弄"},{"poiid":"B2094655D264A5FA469E","title":"恒杰商务广场","lon":"121.23822","lat":"31.03877","category":"46","category_name":"楼宇","address":"新松江路100号"},{"poiid":"B2094757D169A1FE409D","title":"安琪花苑","lon":"121.23703","lat":"31.040705","category":"252","category_name":"楼宇机构","address":"上海通波路725号"},{"poiid":"B2094654DB6EA2F4439E","title":"东其昌酒家","lon":"121.23316","lat":"31.03389","category":"76","category_name":"上海菜","address":"松江区松江谷阳北路371弄100号(南青路通跃路)"},{"poiid":"B2094757D068A3F5489C","title":"肯德基 KFC (松江新城店)","lon":"121.231486524","lat":"31.0362641114","category":"68","category_name":"快餐厅","address":"上海新松江路935号"},{"poiid":"B2094654DB6EA2F8469A","title":"嘉和休闲广场","lon":"121.22469730537","lat":"31.038981603495","category":"201","category_name":"城市广场","address":"崇文区前门大街东打磨厂"},{"poiid":"B2094655D36CA7F5499F","title":"谷阳北路新松江路","lon":"121.23493","lat":"31.03973","category":"38","category_name":"公交车站","address":""},{"poiid":"B2094655D26FA4FB419E","title":"皇骐爱丽苑","lon":"121.237765","lat":"31.0375","category":"47","category_name":"住宅区","address":""},{"poiid":"B2094753D56FABF44693","title":"玛雅水上乐园","lon":"121.235481","lat":"31.040431","category":"500","category_name":"未知分类","address":"上海市 松江佘山"},{"poiid":"B2094757D16DABF9469D","title":"外门山足浴城","lon":"121.236618042","lat":"31.0363769531","category":"148","category_name":"美容美发店","address":"松江区西林北路(近北翠路)"},{"poiid":"B2094655D36CA5F54499","title":"北翠路","lon":"121.23497","lat":"31.03668","category":"38","category_name":"公交车站","address":""},{"poiid":"B2094752D465A0F4499F","title":"上海话剧艺术中心","lon":"121.238739","lat":"31.036697","category":"248","category_name":"生活娱乐","address":"安福路288号"},{"poiid":"B2094757D16AA1FA4699","title":"蜀娱养生香辣馆","lon":"121.239880767","lat":"31.0381982788","category":"247","category_name":"餐饮美食","address":"上海新松江路开元地中海广场1-096a号"},{"poiid":"B2094757D569A1F8459B","title":"新城九号商业广场","lon":"121.23714705121","lat":"31.037684677675","category":"249","category_name":"购物服务","address":"松江区嘉松南路思贤路口"},{"poiid":"B2094654DB6EA2FB469C","title":"松江商业广场","lon":"121.241","lat":"31.0384","category":"119","category_name":"商场","address":"翔峰路371弄"},{"poiid":"B2094654DB6EA2F4459B","title":"华东师范大学松江实验中学","lon":"121.23752","lat":"31.03525","category":"55","category_name":"中学","address":"南青路100"},{"poiid":"B2094654DB6EA2F4449A","title":"永翔大厦","lon":"121.242","lat":"31.0398","category":"46","category_name":"楼宇","address":"谷阳北路1500"},{"poiid":"B2094654DB6EA2F4459A","title":"华东师范大学松江实验中学2号门","lon":"121.23905","lat":"31.03637","category":"55","category_name":"中学","address":""},{"poiid":"B2094757D168ABFB4098","title":"华亭绿景苑","lon":"121.23682","lat":"31.035601","category":"47","category_name":"住宅区","address":"上海市长宁区虹桥路1165弄"},{"poiid":"B2094654DB6EA2F44593","title":"永翔商业","lon":"121.2357","lat":"31.03316","category":"119","category_name":"商场","address":"松江区谷阳北路1470弄1号"},{"poiid":"B2094654DB6DA4FE4398","title":"茸平苑","lon":"121.24386","lat":"31.037045","category":"47","category_name":"住宅区","address":"茸平路288弄"},{"poiid":"B2094655D26BA2FF489D","title":"通波路茸平路","lon":"121.23978","lat":"31.03642","category":"38","category_name":"公交车站","address":""},{"poiid":"B2094655D268A5F9469D","title":"快客No.5127","lon":"121.23363","lat":"31.04212","category":"117","category_name":"便民商店/便利店","address":"文翔路1105"},{"poiid":"B2094655D268A3F5409E","title":"松江区气象科普馆","lon":"121.23834","lat":"31.03495","category":"186","category_name":"科技馆","address":"南青路8"},{"poiid":"B2094655D26FAAFC4198","title":"安琪花苑(东门)","lon":"121.23841","lat":"31.04103","category":"656","category_name":"大门","address":""},{"poiid":"B2094757D06FA5FD419E","title":"上海外国语大学法学院","lon":"121.226377","lat":"31.045086","category":"253","category_name":"校园生活","address":"松江区文翔路1550号上海外国语大学四教楼(法学院)"},{"poiid":"B2094655D36CA7F5499E","title":"谷阳北路文翔路","lon":"121.23525","lat":"31.045","category":"38","category_name":"公交车站","address":""},{"poiid":"B2094654DB6EA2F4469A","title":"裕盛豪园","lon":"121.244305","lat":"31.038462","category":"47","category_name":"住宅区","address":"上海市松江区谷阳北路166号"},{"poiid":"B2094654DB6DA4FE469A","title":"科邦工业园(茸北路)","lon":"121.24421","lat":"31.03952","category":"45","category_name":"产业园区","address":"茸北路333弄1-10号"},{"poiid":"B2094655D36CA3FD469A","title":"水岸华庭","lon":"121.23968","lat":"31.03407","category":"47","category_name":"住宅区","address":"上海市松江区通波路"},{"poiid":"B2094655D36CA7F54993","title":"谷阳北路南青路","lon":"121.23502","lat":"31.03392","category":"38","category_name":"公交车站","address":""},{"poiid":"B2094757D66DA7FD4199","title":"H3club","lon":"121.23237358","lat":"31.034370424","category":"500","category_name":"未知分类","address":"松江区南清路248号锦桂服饰商场1-4楼(近轻轨9号线松江新城站)"},{"poiid":"B2094753D465A1FD419E","title":"新疆味道","lon":"121.232521","lat":"31.036258","category":"247","category_name":"餐饮美食","address":"上海市 松江区通跃路"},{"poiid":"B2094654DB64ABFD479A","title":"上岛咖啡(谷阳北路店)","lon":"121.23209","lat":"31.03312","category":"65","category_name":"咖啡厅","address":""},{"poiid":"B2094655D26FABFB479E","title":"开元地中海","lon":"121.226","lat":"31.0447","category":"119","category_name":"商场","address":"上海松江区新松江路925号(人民北路口)"},{"poiid":"B2094654DB64A0FC4993","title":"上海市第一人民医院（南部分院）","lon":"121.22572","lat":"31.04036","category":"162","category_name":"医院","address":"近郊新松江路650号(近人民北路)"},{"poiid":"B2094655D26BA2FB439E","title":"松江新城地铁站","lon":"121.23194","lat":"31.02848","category":"36","category_name":"地铁站","address":"上海轨道交通 九号线 轨交松江新城站 9"},{"poiid":"B2094757D06FA4F5469B","title":"阳光绿洲生态酒店","lon":"121.240118","lat":"31.0294","category":"76","category_name":"上海菜","address":"松江区通波路50号(近思贤路)"},{"poiid":"B2094757D069A2FA429B","title":"中央公园","lon":"121.227502823","lat":"31.0360280584","category":"196","category_name":"公园","address":"上海松江新城翠湖路"},{"poiid":"B2094757D068ABFE4099","title":"榕港海鲜大酒楼(松江店)","lon":"121.23506","lat":"31.03308","category":"88","category_name":"海鲜酒楼","address":"松江区谷阳北路1425弄88号(谷阳北路南青路)"},{"poiid":"B2094655D26AA0FA4592","title":"地铁松江新城站","lon":"121.23099","lat":"31.03072","category":"36","category_name":"地铁站","address":""},{"poiid":"B2094757DB6DA5F84793","title":"上海锦丰国际大酒店","lon":"121.246227622","lat":"31.035910179","category":"76","category_name":"上海菜","address":"松江区茸梅路237号锦丰国际大酒店内(近茸平路)"},{"poiid":"B2094757D164A2FC429A","title":"上海外国语大学西外外国语学校","lon":"121.23489246","lat":"31.042756779","category":"500","category_name":"未知分类","address":"松江区文翔路1100号"},{"poiid":"B2094655D26FAAFA4592","title":"上外小别墅","lon":"121.22942","lat":"31.04522","category":"47","category_name":"住宅区","address":"松江区文翔路1550号上海外国语大学松江校区内(文翔路西林北路)"},{"poiid":"B2094655D268A1FE439C","title":"上海市第一人民医院(南部)急诊部","lon":"121.22573","lat":"31.04159","category":"162","category_name":"医院","address":"文翔路1485"},{"poiid":"B2094757D069A0FF4993","title":"松江区政府行政一中心","lon":"121.227747","lat":"31.032243","category":"500","category_name":"未知分类","address":"上海松江区园中路1号"},{"poiid":"B2094757D16CA3FD469C","title":"友福咖啡","lon":"121.2347618","lat":"31.0387261","category":"260","category_name":"其他","address":"松江区新松江路265号(近开元地中海)"},{"poiid":"B2094655D26DA6FD459B","title":"文景苑","lon":"121.2337","lat":"31.040943","category":"47","category_name":"住宅区","address":"上海市松江区文翔路1099弄"},{"poiid":"B2094757D569A2F8419D","title":"御上海","lon":"121.23415","lat":"31.049538","category":"47","category_name":"住宅区","address":"上海松江区谷阳北路2399弄"},{"poiid":"B2094654DB6DA4F4489C","title":"松云水苑","lon":"121.23747","lat":"31.044041","category":"47","category_name":"住宅区","address":"文翔路928弄"},{"poiid":"B2094654DB6EA2F4449B","title":"名庭花苑","lon":"121.24","lat":"31.0444","category":"47","category_name":"住宅区","address":"上海市松江区新松江路259弄"},{"poiid":"B2094655D264A5FA469E","title":"恒杰商务广场","lon":"121.23822","lat":"31.03877","category":"46","category_name":"楼宇","address":"新松江路100号"},{"poiid":"B2094757D169A1FE409D","title":"安琪花苑","lon":"121.23703","lat":"31.040705","category":"252","category_name":"楼宇机构","address":"上海通波路725号"},{"poiid":"B2094654DB6EA2F4439E","title":"东其昌酒家","lon":"121.23316","lat":"31.03389","category":"76","category_name":"上海菜","address":"松江区松江谷阳北路371弄100号(南青路通跃路)"},{"poiid":"B2094757D068A3F5489C","title":"肯德基 KFC (松江新城店)","lon":"121.231486524","lat":"31.0362641114","category":"68","category_name":"快餐厅","address":"上海新松江路935号"},{"poiid":"B2094654DB6EA2F8469A","title":"嘉和休闲广场","lon":"121.22469730537","lat":"31.038981603495","category":"201","category_name":"城市广场","address":"崇文区前门大街东打磨厂"},{"poiid":"B2094655D36CA7F5499F","title":"谷阳北路新松江路","lon":"121.23493","lat":"31.03973","category":"38","category_name":"公交车站","address":""},{"poiid":"B2094655D26FA4FB419E","title":"皇骐爱丽苑","lon":"121.237765","lat":"31.0375","category":"47","category_name":"住宅区","address":""},{"poiid":"B2094753D56FABF44693","title":"玛雅水上乐园","lon":"121.235481","lat":"31.040431","category":"500","category_name":"未知分类","address":"上海市 松江佘山"},{"poiid":"B2094757D16DABF9469D","title":"外门山足浴城","lon":"121.236618042","lat":"31.0363769531","category":"148","category_name":"美容美发店","address":"松江区西林北路(近北翠路)"},{"poiid":"B2094655D36CA5F54499","title":"北翠路","lon":"121.23497","lat":"31.03668","category":"38","category_name":"公交车站","address":""},{"poiid":"B2094752D465A0F4499F","title":"上海话剧艺术中心","lon":"121.238739","lat":"31.036697","category":"248","category_name":"生活娱乐","address":"安福路288号"},{"poiid":"B2094757D16AA1FA4699","title":"蜀娱养生香辣馆","lon":"121.239880767","lat":"31.0381982788","category":"247","category_name":"餐饮美食","address":"上海新松江路开元地中海广场1-096a号"},{"poiid":"B2094757D569A1F8459B","title":"新城九号商业广场","lon":"121.23714705121","lat":"31.037684677675","category":"249","category_name":"购物服务","address":"松江区嘉松南路思贤路口"},{"poiid":"B2094654DB6EA2FB469C","title":"松江商业广场","lon":"121.241","lat":"31.0384","category":"119","category_name":"商场","address":"翔峰路371弄"},{"poiid":"B2094654DB6EA2F4459B","title":"华东师范大学松江实验中学","lon":"121.23752","lat":"31.03525","category":"55","category_name":"中学","address":"南青路100"},{"poiid":"B2094654DB6EA2F4449A","title":"永翔大厦","lon":"121.242","lat":"31.0398","category":"46","category_name":"楼宇","address":"谷阳北路1500"},{"poiid":"B2094654DB6EA2F4459A","title":"华东师范大学松江实验中学2号门","lon":"121.23905","lat":"31.03637","category":"55","category_name":"中学","address":""},{"poiid":"B2094757D168ABFB4098","title":"华亭绿景苑","lon":"121.23682","lat":"31.035601","category":"47","category_name":"住宅区","address":"上海市长宁区虹桥路1165弄"},{"poiid":"B2094654DB6EA2F44593","title":"永翔商业","lon":"121.2357","lat":"31.03316","category":"119","category_name":"商场","address":"松江区谷阳北路1470弄1号"},{"poiid":"B2094654DB6DA4FE4398","title":"茸平苑","lon":"121.24386","lat":"31.037045","category":"47","category_name":"住宅区","address":"茸平路288弄"},{"poiid":"B2094655D26BA2FF489D","title":"通波路茸平路","lon":"121.23978","lat":"31.03642","category":"38","category_name":"公交车站","address":""},{"poiid":"B2094655D268A5F9469D","title":"快客No.5127","lon":"121.23363","lat":"31.04212","category":"117","category_name":"便民商店/便利店","address":"文翔路1105"},{"poiid":"B2094655D268A3F5409E","title":"松江区气象科普馆","lon":"121.23834","lat":"31.03495","category":"186","category_name":"科技馆","address":"南青路8"},{"poiid":"B2094655D26FAAFC4198","title":"安琪花苑(东门)","lon":"121.23841","lat":"31.04103","category":"656","category_name":"大门","address":""},{"poiid":"B2094757D06FA5FD419E","title":"上海外国语大学法学院","lon":"121.226377","lat":"31.045086","category":"253","category_name":"校园生活","address":"松江区文翔路1550号上海外国语大学四教楼(法学院)"},{"poiid":"B2094655D36CA7F5499E","title":"谷阳北路文翔路","lon":"121.23525","lat":"31.045","category":"38","category_name":"公交车站","address":""},{"poiid":"B2094654DB6EA2F4469A","title":"裕盛豪园","lon":"121.244305","lat":"31.038462","category":"47","category_name":"住宅区","address":"上海市松江区谷阳北路166号"},{"poiid":"B2094654DB6DA4FE469A","title":"科邦工业园(茸北路)","lon":"121.24421","lat":"31.03952","category":"45","category_name":"产业园区","address":"茸北路333弄1-10号"},{"poiid":"B2094655D36CA3FD469A","title":"水岸华庭","lon":"121.23968","lat":"31.03407","category":"47","category_name":"住宅区","address":"上海市松江区通波路"},{"poiid":"B2094655D36CA7F54993","title":"谷阳北路南青路","lon":"121.23502","lat":"31.03392","category":"38","category_name":"公交车站","address":""},{"poiid":"B2094757D66DA7FD4199","title":"H3club","lon":"121.23237358","lat":"31.034370424","category":"500","category_name":"未知分类","address":"松江区南清路248号锦桂服饰商场1-4楼(近轻轨9号线松江新城站)"},{"poiid":"B2094753D465A1FD419E","title":"新疆味道","lon":"121.232521","lat":"31.036258","category":"247","category_name":"餐饮美食","address":"上海市 松江区通跃路"},{"poiid":"B2094654DB64ABFD479A","title":"上岛咖啡(谷阳北路店)","lon":"121.23209","lat":"31.03312","category":"65","category_name":"咖啡厅","address":""}]