[{"poiid":"B2094757D06FA3FB4592","title":"利群医院","lon":"121.38526081","lat":"31.260695438","category":"162","category_name":"医院","address":"普陀区桃浦路910号(近利群医院)"},{"poiid":"B2094757D06FAAF9429B","title":"曹杨职业技术学校","lon":"121.384861254","lat":"31.2628673316","category":"52","category_name":"高等院校","address":"上海普陀区清涧路240号(近高陵路)"},{"poiid":"B2094757D06FA2FC4793","title":"家乐福(真北店)","lon":"121.39413","lat":"31.25947","category":"118","category_name":"超级市场","address":"普陀区桃浦路328号(近大渡河路)"},{"poiid":"B2094757D06FA4F54193","title":"桃浦路真北路","lon":"121.39279721","lat":"31.261585202","category":"500","category_name":"未知分类","address":"上海桃浦路真北路"},{"poiid":"B2094757D06FA2FB409F","title":"中鼎豪园","lon":"121.38978","lat":"31.263821","category":"47","category_name":"住宅区","address":"上海市普陀区清涧路68弄"},{"poiid":"B2094757D068A1F9439E","title":"上海桐柏高级中学","lon":"121.38734","lat":"31.25839","category":"55","category_name":"中学","address":"上海普陀区真光路2125号  "},{"poiid":"B2094757D468A4FB4298","title":"春季海鲜港","lon":"121.3946693","lat":"31.2598593","category":"76","category_name":"上海菜","address":"桃浦路318号近真北路"},{"poiid":"B2094757D068A2F84992","title":"上海曹安花卉市场","lon":"121.38817596","lat":"31.256004333","category":"119","category_name":"商场","address":"上海子州路355号"},{"poiid":"B2094655D264A6F54498","title":"肯德基KFC(真北家乐福店)","lon":"121.39488","lat":"31.2599","category":"68","category_name":"快餐厅","address":"普陀区桃浦路328号家乐福(近大渡河路)"},{"poiid":"B2094654DB6AABF94092","title":"清涧小区清竹坊","lon":"121.38932","lat":"31.26117","category":"47","category_name":"住宅区","address":"清涧路39弄1-105号"},{"poiid":"B2094757D068A6F5459A","title":"清涧新村第三小区","lon":"121.385987042","lat":"31.2621984083","category":"47","category_name":"住宅区","address":"上海清涧路187弄"},{"poiid":"B2094757D068A3F9429A","title":"上海家园","lon":"121.39114","lat":"31.258083","category":"47","category_name":"住宅区","address":"上海市普陀区桃浦路742弄"},{"poiid":"B2094654D465A3FA4293","title":"明丰世纪苑(南门)","lon":"121.39123","lat":"31.2601","category":"656","category_name":"大门","address":"子洲路680弄"},{"poiid":"B2094655D26BA5FE4599","title":"MINI公馆","lon":"121.39038","lat":"31.26126","category":"47","category_name":"住宅区","address":"松江区松汇中路518号"},{"poiid":"B2094655D26DA5F44592","title":"星河世纪城星月蓝湾西区","lon":"121.39389","lat":"31.26205","category":"47","category_name":"住宅区","address":"桃浦路300弄单号"},{"poiid":"B2094757D065ABF8489F","title":"桃浦路真光路路口","lon":"121.38832995","lat":"31.2600848706","category":"500","category_name":"未知分类","address":"上海市普陀区清涧路"},{"poiid":"B2094654D464AAF94098","title":"星河世纪城樱树芳庭","lon":"121.39402","lat":"31.25939","category":"47","category_name":"住宅区","address":"上海市普陀区桃浦路321弄"},{"poiid":"B2094757D168A6FF4299","title":"澳门豆捞","lon":"121.39399","lat":"31.2597","category":"86","category_name":"火锅店","address":"普陀区桃浦路328号家乐福旁(近真北路)"},{"poiid":"B2094757D068A1FE499F","title":"真光八街坊","lon":"121.386","lat":"31.257","category":"47","category_name":"住宅区","address":"上海市金汤路353弄"},{"poiid":"B2094757D069A1FF499B","title":"萨莉亚(桃浦路店)","lon":"121.39411","lat":"31.25966","category":"94","category_name":"西餐厅","address":"普陀区桃浦路328号家乐福内118A室(近大渡河路)"},{"poiid":"B2094757D068A3FD4498","title":"明丰世纪苑","lon":"121.39108","lat":"31.261827","category":"47","category_name":"住宅区","address":"上海市普陀区桃浦路650号"},{"poiid":"B2094757D06AA3F5499C","title":"白玉兰小吃(桃浦路店)","lon":"121.38752449","lat":"31.259593621","category":"68","category_name":"快餐厅","address":"普陀区桃浦路(近真光路)"},{"poiid":"B2094654D465A3FD449C","title":"清涧新村第七小区","lon":"121.38554","lat":"31.25907","category":"47","category_name":"住宅区","address":"上海桃浦路873弄"},{"poiid":"B2094757D16CA2F84393","title":"老盛昌蘇州湯包館","lon":"121.38964395","lat":"31.260735883","category":"247","category_name":"餐饮美食","address":"上海市普陀區真光路1658號"},{"poiid":"B2094654D465A3FB4298","title":"清涧新村第二小区","lon":"121.38259","lat":"31.261492","category":"47","category_name":"住宅区","address":"上海普陀区桃浦路1028弄"},{"poiid":"B2094757D06FA4F44592","title":"嘉德坊","lon":"121.384","lat":"31.2599","category":"47","category_name":"住宅区","address":"上海嘉定区万镇路1177弄"},{"poiid":"B2094655D36DA7FE4799","title":"真光路","lon":"121.38795","lat":"31.25983","category":"38","category_name":"公交车站","address":"上海市普陀区真光路1877号(近铜川路)"},{"poiid":"B2094654D465A3FA489A","title":"光明乳业铜川配送站","lon":"121.38998","lat":"31.26204","category":"117","category_name":"便民商店/便利店","address":"子洲路"},{"poiid":"B2094654D464AAFE4798","title":"星河世纪城星月蓝湾","lon":"121.39632","lat":"31.26153","category":"47","category_name":"住宅区","address":"上海市普陀区桃浦路368号"},{"poiid":"B2094757D46CA7F9479A","title":"白玉兰聚香阁 桃浦店","lon":"121.38723980574","lat":"31.260063795478","category":"68","category_name":"快餐厅","address":"普陀区桃浦路755号(近利群医院)"},{"poiid":"B2094750D26FA0FD409D","title":"新招鲜本地鸡窝 桃浦路店","lon":"121.38781070709","lat":"31.259348108487","category":"86","category_name":"火锅店","address":"普陀区桃浦路755号(近立群医院)"},{"poiid":"B2094757D06FAAF4449C","title":"清涧六街坊","lon":"121.389451","lat":"31.266068","category":"252","category_name":"楼宇机构","address":"上海市普陀区桃浦路1023弄"},{"poiid":"B2094757D06FA7F44292","title":"真光七街坊","lon":"121.392926","lat":"31.257911","category":"252","category_name":"楼宇机构","address":"铜川路1781弄"},{"poiid":"B2094757D06FA6F44493","title":"西瓜妹的家","lon":"121.38958471","lat":"31.260484778","category":"247","category_name":"餐饮美食","address":null},{"poiid":"B2094752D46AA1FC429C","title":"真光加油站(普陀第一加油站)","lon":"121.392347","lat":"31.259917","category":"153","category_name":"加油站","address":"上海市普陀区真光路1877号(近铜川路)"},{"poiid":"B2094757D06AA2F8449B","title":"Qbake原味坊","lon":"121.38959495","lat":"31.2603828763","category":"247","category_name":"餐饮美食","address":"上海卢湾区淮海中路138号无限度广场1楼"},{"poiid":"B2094757D065AAF4459C","title":"129(真光路站)","lon":"121.388991","lat":"31.259936","category":"38","category_name":"公交车站","address":"上海真光路桃浦路"},{"poiid":"B2094757D164A1F44998","title":"老地方烧烤","lon":"121.38842895","lat":"31.2599688684","category":"257","category_name":"中餐厅","address":"上海市普陀区清涧路"},{"poiid":"B2094655D26BA2F94598","title":"桃浦路真光路","lon":"121.38798","lat":"31.25983","category":"38","category_name":"公交车站","address":""},{"poiid":"B2094655D26FA0FE4999","title":"清涧小区清竹坊(北门)","lon":"121.38943","lat":"31.26233","category":"47","category_name":"住宅区","address":"清涧路39弄1-105号"},{"poiid":"B2094654D465A3FB4098","title":"快客No.6234","lon":"121.38942","lat":"31.25999","category":"117","category_name":"便民商店/便利店","address":"桃浦路700"},{"poiid":"B2094655D26CA1FA449D","title":"好德No.671","lon":"121.38854","lat":"31.2628","category":"117","category_name":"便民商店/便利店","address":""},{"poiid":"B2094757D164ABF5469B","title":"粤龙食街(港式卤味)","lon":"121.38825","lat":"31.25989","category":"72","category_name":"广东菜","address":"普陀区桃浦路762号8号门面(真光路口)"},{"poiid":"B2094757D16CA5FD409C","title":"利群医院门口路边摊","lon":"121.385","lat":"31.26009","category":"68","category_name":"快餐厅","address":"普陀区桃浦路高陵路路口红绿灯下(高陵路桃浦路)"},{"poiid":"B2094654D465A3FB4093","title":"清涧小区(南门)","lon":"121.38854","lat":"31.26","category":"47","category_name":"住宅区","address":"清涧路39弄1-105号"},{"poiid":"B2094757D568A5F5459D","title":"一饰难忘","lon":"121.389625","lat":"31.26000389","category":"170","category_name":"KTV","address":"桃浦路678号D"},{"poiid":"B2094654D464ABF5409D","title":"金月亮幼儿园","lon":"121.38872","lat":"31.25958","category":"57","category_name":"幼儿园","address":"普陀区桃浦路743弄清涧八村41号(近真光路)"},{"poiid":"B2094757D66EA5F8419A","title":"清涧路子洲路","lon":"121.38942595","lat":"31.263288931","category":"47","category_name":"住宅区","address":"上海清涧路子洲路"},{"poiid":"B2094654D465A3FB419F","title":"永琪美容美发(清涧新村第三小区东)","lon":"121.38708","lat":"31.26016","category":"148","category_name":"美容美发店","address":""},{"poiid":"B2094654DB6AABF9409E","title":"中鼎豪园(南门)","lon":"121.38874","lat":"31.26277","category":"48","category_name":"楼宇大门","address":"清涧路68弄1-88"},{"poiid":"B2094757D06FA3FB4592","title":"利群医院","lon":"121.38526081","lat":"31.260695438","category":"162","category_name":"医院","address":"普陀区桃浦路910号(近利群医院)"},{"poiid":"B2094757D06FAAF9429B","title":"曹杨职业技术学校","lon":"121.384861254","lat":"31.2628673316","category":"52","category_name":"高等院校","address":"上海普陀区清涧路240号(近高陵路)"},{"poiid":"B2094757D06FA2FC4793","title":"家乐福(真北店)","lon":"121.39413","lat":"31.25947","category":"118","category_name":"超级市场","address":"普陀区桃浦路328号(近大渡河路)"},{"poiid":"B2094757D06FA4F54193","title":"桃浦路真北路","lon":"121.39279721","lat":"31.261585202","category":"500","category_name":"未知分类","address":"上海桃浦路真北路"},{"poiid":"B2094757D06FA2FB409F","title":"中鼎豪园","lon":"121.38978","lat":"31.263821","category":"47","category_name":"住宅区","address":"上海市普陀区清涧路68弄"},{"poiid":"B2094757D068A1F9439E","title":"上海桐柏高级中学","lon":"121.38734","lat":"31.25839","category":"55","category_name":"中学","address":"上海普陀区真光路2125号  "},{"poiid":"B2094757D468A4FB4298","title":"春季海鲜港","lon":"121.3946693","lat":"31.2598593","category":"76","category_name":"上海菜","address":"桃浦路318号近真北路"},{"poiid":"B2094757D068A2F84992","title":"上海曹安花卉市场","lon":"121.38817596","lat":"31.256004333","category":"119","category_name":"商场","address":"上海子州路355号"},{"poiid":"B2094655D264A6F54498","title":"肯德基KFC(真北家乐福店)","lon":"121.39488","lat":"31.2599","category":"68","category_name":"快餐厅","address":"普陀区桃浦路328号家乐福(近大渡河路)"},{"poiid":"B2094654DB6AABF94092","title":"清涧小区清竹坊","lon":"121.38932","lat":"31.26117","category":"47","category_name":"住宅区","address":"清涧路39弄1-105号"},{"poiid":"B2094757D068A6F5459A","title":"清涧新村第三小区","lon":"121.385987042","lat":"31.2621984083","category":"47","category_name":"住宅区","address":"上海清涧路187弄"},{"poiid":"B2094757D068A3F9429A","title":"上海家园","lon":"121.39114","lat":"31.258083","category":"47","category_name":"住宅区","address":"上海市普陀区桃浦路742弄"},{"poiid":"B2094654D465A3FA4293","title":"明丰世纪苑(南门)","lon":"121.39123","lat":"31.2601","category":"656","category_name":"大门","address":"子洲路680弄"},{"poiid":"B2094655D26BA5FE4599","title":"MINI公馆","lon":"121.39038","lat":"31.26126","category":"47","category_name":"住宅区","address":"松江区松汇中路518号"},{"poiid":"B2094655D26DA5F44592","title":"星河世纪城星月蓝湾西区","lon":"121.39389","lat":"31.26205","category":"47","category_name":"住宅区","address":"桃浦路300弄单号"},{"poiid":"B2094757D065ABF8489F","title":"桃浦路真光路路口","lon":"121.38832995","lat":"31.2600848706","category":"500","category_name":"未知分类","address":"上海市普陀区清涧路"},{"poiid":"B2094654D464AAF94098","title":"星河世纪城樱树芳庭","lon":"121.39402","lat":"31.25939","category":"47","category_name":"住宅区","address":"上海市普陀区桃浦路321弄"},{"poiid":"B2094757D168A6FF4299","title":"澳门豆捞","lon":"121.39399","lat":"31.2597","category":"86","category_name":"火锅店","address":"普陀区桃浦路328号家乐福旁(近真北路)"},{"poiid":"B2094757D068A1FE499F","title":"真光八街坊","lon":"121.386","lat":"31.257","category":"47","category_name":"住宅区","address":"上海市金汤路353弄"},{"poiid":"B2094757D069A1FF499B","title":"萨莉亚(桃浦路店)","lon":"121.39411","lat":"31.25966","category":"94","category_name":"西餐厅","address":"普陀区桃浦路328号家乐福内118A室(近大渡河路)"},{"poiid":"B2094757D068A3FD4498","title":"明丰世纪苑","lon":"121.39108","lat":"31.261827","category":"47","category_name":"住宅区","address":"上海市普陀区桃浦路650号"},{"poiid":"B2094757D06AA3F5499C","title":"白玉兰小吃(桃浦路店)","lon":"121.38752449","lat":"31.259593621","category":"68","category_name":"快餐厅","address":"普陀区桃浦路(近真光路)"},{"poiid":"B2094654D465A3FD449C","title":"清涧新村第七小区","lon":"121.38554","lat":"31.25907","category":"47","category_name":"住宅区","address":"上海桃浦路873弄"},{"poiid":"B2094757D16CA2F84393","title":"老盛昌蘇州湯包館","lon":"121.38964395","lat":"31.260735883","category":"247","category_name":"餐饮美食","address":"上海市普陀區真光路1658號"},{"poiid":"B2094654D465A3FB4298","title":"清涧新村第二小区","lon":"121.38259","lat":"31.261492","category":"47","category_name":"住宅区","address":"上海普陀区桃浦路1028弄"},{"poiid":"B2094757D06FA4F44592","title":"嘉德坊","lon":"121.384","lat":"31.2599","category":"47","category_name":"住宅区","address":"上海嘉定区万镇路1177弄"},{"poiid":"B2094655D36DA7FE4799","title":"真光路","lon":"121.38795","lat":"31.25983","category":"38","category_name":"公交车站","address":"上海市普陀区真光路1877号(近铜川路)"},{"poiid":"B2094654D465A3FA489A","title":"光明乳业铜川配送站","lon":"121.38998","lat":"31.26204","category":"117","category_name":"便民商店/便利店","address":"子洲路"},{"poiid":"B2094654D464AAFE4798","title":"星河世纪城星月蓝湾","lon":"121.39632","lat":"31.26153","category":"47","category_name":"住宅区","address":"上海市普陀区桃浦路368号"},{"poiid":"B2094757D46CA7F9479A","title":"白玉兰聚香阁 桃浦店","lon":"121.38723980574","lat":"31.260063795478","category":"68","category_name":"快餐厅","address":"普陀区桃浦路755号(近利群医院)"},{"poiid":"B2094750D26FA0FD409D","title":"新招鲜本地鸡窝 桃浦路店","lon":"121.38781070709","lat":"31.259348108487","category":"86","category_name":"火锅店","address":"普陀区桃浦路755号(近立群医院)"},{"poiid":"B2094757D06FAAF4449C","title":"清涧六街坊","lon":"121.389451","lat":"31.266068","category":"252","category_name":"楼宇机构","address":"上海市普陀区桃浦路1023弄"},{"poiid":"B2094757D06FA7F44292","title":"真光七街坊","lon":"121.392926","lat":"31.257911","category":"252","category_name":"楼宇机构","address":"铜川路1781弄"},{"poiid":"B2094757D06FA6F44493","title":"西瓜妹的家","lon":"121.38958471","lat":"31.260484778","category":"247","category_name":"餐饮美食","address":null},{"poiid":"B2094752D46AA1FC429C","title":"真光加油站(普陀第一加油站)","lon":"121.392347","lat":"31.259917","category":"153","category_name":"加油站","address":"上海市普陀区真光路1877号(近铜川路)"},{"poiid":"B2094757D06AA2F8449B","title":"Qbake原味坊","lon":"121.38959495","lat":"31.2603828763","category":"247","category_name":"餐饮美食","address":"上海卢湾区淮海中路138号无限度广场1楼"},{"poiid":"B2094757D065AAF4459C","title":"129(真光路站)","lon":"121.388991","lat":"31.259936","category":"38","category_name":"公交车站","address":"上海真光路桃浦路"},{"poiid":"B2094757D164A1F44998","title":"老地方烧烤","lon":"121.38842895","lat":"31.2599688684","category":"257","category_name":"中餐厅","address":"上海市普陀区清涧路"},{"poiid":"B2094655D26BA2F94598","title":"桃浦路真光路","lon":"121.38798","lat":"31.25983","category":"38","category_name":"公交车站","address":""},{"poiid":"B2094655D26FA0FE4999","title":"清涧小区清竹坊(北门)","lon":"121.38943","lat":"31.26233","category":"47","category_name":"住宅区","address":"清涧路39弄1-105号"},{"poiid":"B2094654D465A3FB4098","title":"快客No.6234","lon":"121.38942","lat":"31.25999","category":"117","category_name":"便民商店/便利店","address":"桃浦路700"},{"poiid":"B2094655D26CA1FA449D","title":"好德No.671","lon":"121.38854","lat":"31.2628","category":"117","category_name":"便民商店/便利店","address":""},{"poiid":"B2094757D164ABF5469B","title":"粤龙食街(港式卤味)","lon":"121.38825","lat":"31.25989","category":"72","category_name":"广东菜","address":"普陀区桃浦路762号8号门面(真光路口)"},{"poiid":"B2094757D16CA5FD409C","title":"利群医院门口路边摊","lon":"121.385","lat":"31.26009","category":"68","category_name":"快餐厅","address":"普陀区桃浦路高陵路路口红绿灯下(高陵路桃浦路)"},{"poiid":"B2094654D465A3FB4093","title":"清涧小区(南门)","lon":"121.38854","lat":"31.26","category":"47","category_name":"住宅区","address":"清涧路39弄1-105号"},{"poiid":"B2094757D568A5F5459D","title":"一饰难忘","lon":"121.389625","lat":"31.26000389","category":"170","category_name":"KTV","address":"桃浦路678号D"},{"poiid":"B2094654D464ABF5409D","title":"金月亮幼儿园","lon":"121.38872","lat":"31.25958","category":"57","category_name":"幼儿园","address":"普陀区桃浦路743弄清涧八村41号(近真光路)"},{"poiid":"B2094757D66EA5F8419A","title":"清涧路子洲路","lon":"121.38942595","lat":"31.263288931","category":"47","category_name":"住宅区","address":"上海清涧路子洲路"},{"poiid":"B2094654D465A3FB419F","title":"永琪美容美发(清涧新村第三小区东)","lon":"121.38708","lat":"31.26016","category":"148","category_name":"美容美发店","address":""},{"poiid":"B2094654DB6AABF9409E","title":"中鼎豪园(南门)","lon":"121.38874","lat":"31.26277","category":"48","category_name":"楼宇大门","address":"清涧路68弄1-88"},{"poiid":"B2094757D06FA3FB4592","title":"利群医院","lon":"121.38526081","lat":"31.260695438","category":"162","category_name":"医院","address":"普陀区桃浦路910号(近利群医院)"},{"poiid":"B2094757D06FAAF9429B","title":"曹杨职业技术学校","lon":"121.384861254","lat":"31.2628673316","category":"52","category_name":"高等院校","address":"上海普陀区清涧路240号(近高陵路)"},{"poiid":"B2094757D06FA2FC4793","title":"家乐福(真北店)","lon":"121.39413","lat":"31.25947","category":"118","category_name":"超级市场","address":"普陀区桃浦路328号(近大渡河路)"},{"poiid":"B2094757D06FA4F54193","title":"桃浦路真北路","lon":"121.39279721","lat":"31.261585202","category":"500","category_name":"未知分类","address":"上海桃浦路真北路"},{"poiid":"B2094757D06FA2FB409F","title":"中鼎豪园","lon":"121.38978","lat":"31.263821","category":"47","category_name":"住宅区","address":"上海市普陀区清涧路68弄"},{"poiid":"B2094757D068A1F9439E","title":"上海桐柏高级中学","lon":"121.38734","lat":"31.25839","category":"55","category_name":"中学","address":"上海普陀区真光路2125号  "},{"poiid":"B2094757D468A4FB4298","title":"春季海鲜港","lon":"121.3946693","lat":"31.2598593","category":"76","category_name":"上海菜","address":"桃浦路318号近真北路"},{"poiid":"B2094757D068A2F84992","title":"上海曹安花卉市场","lon":"121.38817596","lat":"31.256004333","category":"119","category_name":"商场","address":"上海子州路355号"},{"poiid":"B2094655D264A6F54498","title":"肯德基KFC(真北家乐福店)","lon":"121.39488","lat":"31.2599","category":"68","category_name":"快餐厅","address":"普陀区桃浦路328号家乐福(近大渡河路)"},{"poiid":"B2094654DB6AABF94092","title":"清涧小区清竹坊","lon":"121.38932","lat":"31.26117","category":"47","category_name":"住宅区","address":"清涧路39弄1-105号"},{"poiid":"B2094757D068A6F5459A","title":"清涧新村第三小区","lon":"121.385987042","lat":"31.2621984083","category":"47","category_name":"住宅区","address":"上海清涧路187弄"},{"poiid":"B2094757D068A3F9429A","title":"上海家园","lon":"121.39114","lat":"31.258083","category":"47","category_name":"住宅区","address":"上海市普陀区桃浦路742弄"},{"poiid":"B2094654D465A3FA4293","title":"明丰世纪苑(南门)","lon":"121.39123","lat":"31.2601","category":"656","category_name":"大门","address":"子洲路680弄"},{"poiid":"B2094655D26BA5FE4599","title":"MINI公馆","lon":"121.39038","lat":"31.26126","category":"47","category_name":"住宅区","address":"松江区松汇中路518号"},{"poiid":"B2094655D26DA5F44592","title":"星河世纪城星月蓝湾西区","lon":"121.39389","lat":"31.26205","category":"47","category_name":"住宅区","address":"桃浦路300弄单号"},{"poiid":"B2094757D065ABF8489F","title":"桃浦路真光路路口","lon":"121.38832995","lat":"31.2600848706","category":"500","category_name":"未知分类","address":"上海市普陀区清涧路"},{"poiid":"B2094654D464AAF94098","title":"星河世纪城樱树芳庭","lon":"121.39402","lat":"31.25939","category":"47","category_name":"住宅区","address":"上海市普陀区桃浦路321弄"},{"poiid":"B2094757D168A6FF4299","title":"澳门豆捞","lon":"121.39399","lat":"31.2597","category":"86","category_name":"火锅店","address":"普陀区桃浦路328号家乐福旁(近真北路)"},{"poiid":"B2094757D068A1FE499F","title":"真光八街坊","lon":"121.386","lat":"31.257","category":"47","category_name":"住宅区","address":"上海市金汤路353弄"},{"poiid":"B2094757D069A1FF499B","title":"萨莉亚(桃浦路店)","lon":"121.39411","lat":"31.25966","category":"94","category_name":"西餐厅","address":"普陀区桃浦路328号家乐福内118A室(近大渡河路)"},{"poiid":"B2094757D068A3FD4498","title":"明丰世纪苑","lon":"121.39108","lat":"31.261827","category":"47","category_name":"住宅区","address":"上海市普陀区桃浦路650号"},{"poiid":"B2094757D06AA3F5499C","title":"白玉兰小吃(桃浦路店)","lon":"121.38752449","lat":"31.259593621","category":"68","category_name":"快餐厅","address":"普陀区桃浦路(近真光路)"},{"poiid":"B2094654D465A3FD449C","title":"清涧新村第七小区","lon":"121.38554","lat":"31.25907","category":"47","category_name":"住宅区","address":"上海桃浦路873弄"},{"poiid":"B2094757D16CA2F84393","title":"老盛昌蘇州湯包館","lon":"121.38964395","lat":"31.260735883","category":"247","category_name":"餐饮美食","address":"上海市普陀區真光路1658號"},{"poiid":"B2094654D465A3FB4298","title":"清涧新村第二小区","lon":"121.38259","lat":"31.261492","category":"47","category_name":"住宅区","address":"上海普陀区桃浦路1028弄"},{"poiid":"B2094757D06FA4F44592","title":"嘉德坊","lon":"121.384","lat":"31.2599","category":"47","category_name":"住宅区","address":"上海嘉定区万镇路1177弄"},{"poiid":"B2094655D36DA7FE4799","title":"真光路","lon":"121.38795","lat":"31.25983","category":"38","category_name":"公交车站","address":"上海市普陀区真光路1877号(近铜川路)"},{"poiid":"B2094654D465A3FA489A","title":"光明乳业铜川配送站","lon":"121.38998","lat":"31.26204","category":"117","category_name":"便民商店/便利店","address":"子洲路"},{"poiid":"B2094654D464AAFE4798","title":"星河世纪城星月蓝湾","lon":"121.39632","lat":"31.26153","category":"47","category_name":"住宅区","address":"上海市普陀区桃浦路368号"},{"poiid":"B2094757D46CA7F9479A","title":"白玉兰聚香阁 桃浦店","lon":"121.38723980574","lat":"31.260063795478","category":"68","category_name":"快餐厅","address":"普陀区桃浦路755号(近利群医院)"},{"poiid":"B2094750D26FA0FD409D","title":"新招鲜本地鸡窝 桃浦路店","lon":"121.38781070709","lat":"31.259348108487","category":"86","category_name":"火锅店","address":"普陀区桃浦路755号(近立群医院)"},{"poiid":"B2094757D06FAAF4449C","title":"清涧六街坊","lon":"121.389451","lat":"31.266068","category":"252","category_name":"楼宇机构","address":"上海市普陀区桃浦路1023弄"},{"poiid":"B2094757D06FA7F44292","title":"真光七街坊","lon":"121.392926","lat":"31.257911","category":"252","category_name":"楼宇机构","address":"铜川路1781弄"},{"poiid":"B2094757D06FA6F44493","title":"西瓜妹的家","lon":"121.38958471","lat":"31.260484778","category":"247","category_name":"餐饮美食","address":null},{"poiid":"B2094752D46AA1FC429C","title":"真光加油站(普陀第一加油站)","lon":"121.392347","lat":"31.259917","category":"153","category_name":"加油站","address":"上海市普陀区真光路1877号(近铜川路)"},{"poiid":"B2094757D06AA2F8449B","title":"Qbake原味坊","lon":"121.38959495","lat":"31.2603828763","category":"247","category_name":"餐饮美食","address":"上海卢湾区淮海中路138号无限度广场1楼"},{"poiid":"B2094757D065AAF4459C","title":"129(真光路站)","lon":"121.388991","lat":"31.259936","category":"38","category_name":"公交车站","address":"上海真光路桃浦路"},{"poiid":"B2094757D164A1F44998","title":"老地方烧烤","lon":"121.38842895","lat":"31.2599688684","category":"257","category_name":"中餐厅","address":"上海市普陀区清涧路"},{"poiid":"B2094655D26BA2F94598","title":"桃浦路真光路","lon":"121.38798","lat":"31.25983","category":"38","category_name":"公交车站","address":""},{"poiid":"B2094655D26FA0FE4999","title":"清涧小区清竹坊(北门)","lon":"121.38943","lat":"31.26233","category":"47","category_name":"住宅区","address":"清涧路39弄1-105号"},{"poiid":"B2094654D465A3FB4098","title":"快客No.6234","lon":"121.38942","lat":"31.25999","category":"117","category_name":"便民商店/便利店","address":"桃浦路700"},{"poiid":"B2094655D26CA1FA449D","title":"好德No.671","lon":"121.38854","lat":"31.2628","category":"117","category_name":"便民商店/便利店","address":""},{"poiid":"B2094757D164ABF5469B","title":"粤龙食街(港式卤味)","lon":"121.38825","lat":"31.25989","category":"72","category_name":"广东菜","address":"普陀区桃浦路762号8号门面(真光路口)"},{"poiid":"B2094757D16CA5FD409C","title":"利群医院门口路边摊","lon":"121.385","lat":"31.26009","category":"68","category_name":"快餐厅","address":"普陀区桃浦路高陵路路口红绿灯下(高陵路桃浦路)"},{"poiid":"B2094654D465A3FB4093","title":"清涧小区(南门)","lon":"121.38854","lat":"31.26","category":"47","category_name":"住宅区","address":"清涧路39弄1-105号"},{"poiid":"B2094757D568A5F5459D","title":"一饰难忘","lon":"121.389625","lat":"31.26000389","category":"170","category_name":"KTV","address":"桃浦路678号D"},{"poiid":"B2094654D464ABF5409D","title":"金月亮幼儿园","lon":"121.38872","lat":"31.25958","category":"57","category_name":"幼儿园","address":"普陀区桃浦路743弄清涧八村41号(近真光路)"},{"poiid":"B2094757D66EA5F8419A","title":"清涧路子洲路","lon":"121.38942595","lat":"31.263288931","category":"47","category_name":"住宅区","address":"上海清涧路子洲路"},{"poiid":"B2094654D465A3FB419F","title":"永琪美容美发(清涧新村第三小区东)","lon":"121.38708","lat":"31.26016","category":"148","category_name":"美容美发店","address":""},{"poiid":"B2094654DB6AABF9409E","title":"中鼎豪园(南门)","lon":"121.38874","lat":"31.26277","category":"48","category_name":"楼宇大门","address":"清涧路68弄1-88"},{"poiid":"B2094757D06FA3FB4592","title":"利群医院","lon":"121.38526081","lat":"31.260695438","category":"162","category_name":"医院","address":"普陀区桃浦路910号(近利群医院)"},{"poiid":"B2094757D06FAAF9429B","title":"曹杨职业技术学校","lon":"121.384861254","lat":"31.2628673316","category":"52","category_name":"高等院校","address":"上海普陀区清涧路240号(近高陵路)"},{"poiid":"B2094757D06FA2FC4793","title":"家乐福(真北店)","lon":"121.39413","lat":"31.25947","category":"118","category_name":"超级市场","address":"普陀区桃浦路328号(近大渡河路)"},{"poiid":"B2094757D06FA4F54193","title":"桃浦路真北路","lon":"121.39279721","lat":"31.261585202","category":"500","category_name":"未知分类","address":"上海桃浦路真北路"},{"poiid":"B2094757D06FA2FB409F","title":"中鼎豪园","lon":"121.38978","lat":"31.263821","category":"47","category_name":"住宅区","address":"上海市普陀区清涧路68弄"},{"poiid":"B2094757D068A1F9439E","title":"上海桐柏高级中学","lon":"121.38734","lat":"31.25839","category":"55","category_name":"中学","address":"上海普陀区真光路2125号  "},{"poiid":"B2094757D468A4FB4298","title":"春季海鲜港","lon":"121.3946693","lat":"31.2598593","category":"76","category_name":"上海菜","address":"桃浦路318号近真北路"},{"poiid":"B2094757D068A2F84992","title":"上海曹安花卉市场","lon":"121.38817596","lat":"31.256004333","category":"119","category_name":"商场","address":"上海子州路355号"},{"poiid":"B2094655D264A6F54498","title":"肯德基KFC(真北家乐福店)","lon":"121.39488","lat":"31.2599","category":"68","category_name":"快餐厅","address":"普陀区桃浦路328号家乐福(近大渡河路)"},{"poiid":"B2094654DB6AABF94092","title":"清涧小区清竹坊","lon":"121.38932","lat":"31.26117","category":"47","category_name":"住宅区","address":"清涧路39弄1-105号"},{"poiid":"B2094757D068A6F5459A","title":"清涧新村第三小区","lon":"121.385987042","lat":"31.2621984083","category":"47","category_name":"住宅区","address":"上海清涧路187弄"},{"poiid":"B2094757D068A3F9429A","title":"上海家园","lon":"121.39114","lat":"31.258083","category":"47","category_name":"住宅区","address":"上海市普陀区桃浦路742弄"},{"poiid":"B2094654D465A3FA4293","title":"明丰世纪苑(南门)","lon":"121.39123","lat":"31.2601","category":"656","category_name":"大门","address":"子洲路680弄"},{"poiid":"B2094655D26BA5FE4599","title":"MINI公馆","lon":"121.39038","lat":"31.26126","category":"47","category_name":"住宅区","address":"松江区松汇中路518号"},{"poiid":"B2094655D26DA5F44592","title":"星河世纪城星月蓝湾西区","lon":"121.39389","lat":"31.26205","category":"47","category_name":"住宅区","address":"桃浦路300弄单号"},{"poiid":"B2094757D065ABF8489F","title":"桃浦路真光路路口","lon":"121.38832995","lat":"31.2600848706","category":"500","category_name":"未知分类","address":"上海市普陀区清涧路"},{"poiid":"B2094654D464AAF94098","title":"星河世纪城樱树芳庭","lon":"121.39402","lat":"31.25939","category":"47","category_name":"住宅区","address":"上海市普陀区桃浦路321弄"},{"poiid":"B2094757D168A6FF4299","title":"澳门豆捞","lon":"121.39399","lat":"31.2597","category":"86","category_name":"火锅店","address":"普陀区桃浦路328号家乐福旁(近真北路)"},{"poiid":"B2094757D068A1FE499F","title":"真光八街坊","lon":"121.386","lat":"31.257","category":"47","category_name":"住宅区","address":"上海市金汤路353弄"},{"poiid":"B2094757D069A1FF499B","title":"萨莉亚(桃浦路店)","lon":"121.39411","lat":"31.25966","category":"94","category_name":"西餐厅","address":"普陀区桃浦路328号家乐福内118A室(近大渡河路)"},{"poiid":"B2094757D068A3FD4498","title":"明丰世纪苑","lon":"121.39108","lat":"31.261827","category":"47","category_name":"住宅区","address":"上海市普陀区桃浦路650号"},{"poiid":"B2094757D06AA3F5499C","title":"白玉兰小吃(桃浦路店)","lon":"121.38752449","lat":"31.259593621","category":"68","category_name":"快餐厅","address":"普陀区桃浦路(近真光路)"},{"poiid":"B2094654D465A3FD449C","title":"清涧新村第七小区","lon":"121.38554","lat":"31.25907","category":"47","category_name":"住宅区","address":"上海桃浦路873弄"},{"poiid":"B2094757D16CA2F84393","title":"老盛昌蘇州湯包館","lon":"121.38964395","lat":"31.260735883","category":"247","category_name":"餐饮美食","address":"上海市普陀區真光路1658號"},{"poiid":"B2094654D465A3FB4298","title":"清涧新村第二小区","lon":"121.38259","lat":"31.261492","category":"47","category_name":"住宅区","address":"上海普陀区桃浦路1028弄"},{"poiid":"B2094757D06FA4F44592","title":"嘉德坊","lon":"121.384","lat":"31.2599","category":"47","category_name":"住宅区","address":"上海嘉定区万镇路1177弄"},{"poiid":"B2094655D36DA7FE4799","title":"真光路","lon":"121.38795","lat":"31.25983","category":"38","category_name":"公交车站","address":"上海市普陀区真光路1877号(近铜川路)"},{"poiid":"B2094654D465A3FA489A","title":"光明乳业铜川配送站","lon":"121.38998","lat":"31.26204","category":"117","category_name":"便民商店/便利店","address":"子洲路"},{"poiid":"B2094654D464AAFE4798","title":"星河世纪城星月蓝湾","lon":"121.39632","lat":"31.26153","category":"47","category_name":"住宅区","address":"上海市普陀区桃浦路368号"},{"poiid":"B2094757D46CA7F9479A","title":"白玉兰聚香阁 桃浦店","lon":"121.38723980574","lat":"31.260063795478","category":"68","category_name":"快餐厅","address":"普陀区桃浦路755号(近利群医院)"},{"poiid":"B2094750D26FA0FD409D","title":"新招鲜本地鸡窝 桃浦路店","lon":"121.38781070709","lat":"31.259348108487","category":"86","category_name":"火锅店","address":"普陀区桃浦路755号(近立群医院)"},{"poiid":"B2094757D06FAAF4449C","title":"清涧六街坊","lon":"121.389451","lat":"31.266068","category":"252","category_name":"楼宇机构","address":"上海市普陀区桃浦路1023弄"},{"poiid":"B2094757D06FA7F44292","title":"真光七街坊","lon":"121.392926","lat":"31.257911","category":"252","category_name":"楼宇机构","address":"铜川路1781弄"},{"poiid":"B2094757D06FA6F44493","title":"西瓜妹的家","lon":"121.38958471","lat":"31.260484778","category":"247","category_name":"餐饮美食","address":null},{"poiid":"B2094752D46AA1FC429C","title":"真光加油站(普陀第一加油站)","lon":"121.392347","lat":"31.259917","category":"153","category_name":"加油站","address":"上海市普陀区真光路1877号(近铜川路)"},{"poiid":"B2094757D06AA2F8449B","title":"Qbake原味坊","lon":"121.38959495","lat":"31.2603828763","category":"247","category_name":"餐饮美食","address":"上海卢湾区淮海中路138号无限度广场1楼"},{"poiid":"B2094757D065AAF4459C","title":"129(真光路站)","lon":"121.388991","lat":"31.259936","category":"38","category_name":"公交车站","address":"上海真光路桃浦路"},{"poiid":"B2094757D164A1F44998","title":"老地方烧烤","lon":"121.38842895","lat":"31.2599688684","category":"257","category_name":"中餐厅","address":"上海市普陀区清涧路"},{"poiid":"B2094655D26BA2F94598","title":"桃浦路真光路","lon":"121.38798","lat":"31.25983","category":"38","category_name":"公交车站","address":""},{"poiid":"B2094655D26FA0FE4999","title":"清涧小区清竹坊(北门)","lon":"121.38943","lat":"31.26233","category":"47","category_name":"住宅区","address":"清涧路39弄1-105号"},{"poiid":"B2094654D465A3FB4098","title":"快客No.6234","lon":"121.38942","lat":"31.25999","category":"117","category_name":"便民商店/便利店","address":"桃浦路700"},{"poiid":"B2094655D26CA1FA449D","title":"好德No.671","lon":"121.38854","lat":"31.2628","category":"117","category_name":"便民商店/便利店","address":""},{"poiid":"B2094757D164ABF5469B","title":"粤龙食街(港式卤味)","lon":"121.38825","lat":"31.25989","category":"72","category_name":"广东菜","address":"普陀区桃浦路762号8号门面(真光路口)"},{"poiid":"B2094757D16CA5FD409C","title":"利群医院门口路边摊","lon":"121.385","lat":"31.26009","category":"68","category_name":"快餐厅","address":"普陀区桃浦路高陵路路口红绿灯下(高陵路桃浦路)"},{"poiid":"B2094654D465A3FB4093","title":"清涧小区(南门)","lon":"121.38854","lat":"31.26","category":"47","category_name":"住宅区","address":"清涧路39弄1-105号"},{"poiid":"B2094757D568A5F5459D","title":"一饰难忘","lon":"121.389625","lat":"31.26000389","category":"170","category_name":"KTV","address":"桃浦路678号D"},{"poiid":"B2094654D464ABF5409D","title":"金月亮幼儿园","lon":"121.38872","lat":"31.25958","category":"57","category_name":"幼儿园","address":"普陀区桃浦路743弄清涧八村41号(近真光路)"},{"poiid":"B2094757D66EA5F8419A","title":"清涧路子洲路","lon":"121.38942595","lat":"31.263288931","category":"47","category_name":"住宅区","address":"上海清涧路子洲路"},{"poiid":"B2094654D465A3FB419F","title":"永琪美容美发(清涧新村第三小区东)","lon":"121.38708","lat":"31.26016","category":"148","category_name":"美容美发店","address":""},{"poiid":"B2094654DB6AABF9409E","title":"中鼎豪园(南门)","lon":"121.38874","lat":"31.26277","category":"48","category_name":"楼宇大门","address":"清涧路68弄1-88"}]