[{"poiid":"B2094654D56BABFE469E","title":"初花","lon":"121.40198","lat":"31.19915","category":"95","category_name":"日本料理","address":"长宁区虹桥路1446号古北湾大酒店3楼(近古北路)"},{"poiid":"B2094751D56AA3FE439E","title":"高岛屋百货（古北财富中心）","lon":"121.402954","lat":"31.19838","category":"249","category_name":"购物服务","address":null},{"poiid":"B2094654D56BABFE449D","title":"广播大厦","lon":"121.40747","lat":"31.19681","category":"46","category_name":"楼宇","address":"虹桥路1376"},{"poiid":"B2094757D06FA2FB4192","title":"新虹桥中心花园","lon":"121.40578139","lat":"31.200359502","category":"196","category_name":"公园","address":"长宁区延安西路2238号(近伊犁路)"},{"poiid":"B2094654D564A3FD469D","title":"上海市血液中心","lon":"121.40718","lat":"31.19831","category":"162","category_name":"医院","address":"长宁区虹桥路1191号(近伊犁路)"},{"poiid":"B2094757D068A4F44493","title":"大风车私家菜馆","lon":"121.40352","lat":"31.19843","category":"76","category_name":"上海菜","address":"长宁区虹桥路1440号申康宾馆内(近延安西路)"},{"poiid":"B2094757D06FAAF8409F","title":"古北湾大酒店","lon":"121.40236","lat":"31.19913","category":"217","category_name":"旅馆招待所","address":"长宁区虹桥路1446号(近古北路)"},{"poiid":"B2094757D06EAAF94299","title":"伊犁路地铁站","lon":"121.403289","lat":"31.199036","category":"36","category_name":"地铁站","address":"上海轨道交通 十号线 轨交伊犁路站  10"},{"poiid":"B2094751D46BABFF499D","title":"鼎王无老养生锅","lon":"121.40132","lat":"31.1951","category":"86","category_name":"火锅店","address":"长宁区黄金城道677号(近银珠路)"},{"poiid":"B2094752D268AAF44193","title":"半山小馆","lon":"121.403583","lat":"31.196899","category":"247","category_name":"餐饮美食","address":"长宁区虹桥路1438号高岛屋百货7楼(近红宝石路)"},{"poiid":"B2094757D069A2F8459E","title":"上海民航医院","lon":"121.40160399","lat":"31.19858697","category":"162","category_name":"医院","address":"上海虹桥路1448号"},{"poiid":"B2094751D565A5FB4093","title":"亞坤咖啡","lon":"121.403691","lat":"31.197657","category":"247","category_name":"餐饮美食","address":"上海高岛屋B1"},{"poiid":"B2094654D56BABFE4692","title":"颐丰花园","lon":"121.40232","lat":"31.19886","category":"47","category_name":"住宅区","address":"长宁区虹桥路1442号(近延安高架)"},{"poiid":"B2094655D268A1FC499D","title":"彩色盘","lon":"121.4002","lat":"31.1977","category":"65","category_name":"咖啡厅","address":""},{"poiid":"B2094655D36DA0FA4292","title":"伊犁南路黄金城道","lon":"121.40471","lat":"31.19399","category":"38","category_name":"公交车站","address":""},{"poiid":"B2094757D06AA3F94193","title":"温故知新","lon":"121.40317508","lat":"31.197864798","category":"94","category_name":"西餐厅","address":"长宁区虹桥路1440号申康宾馆内1号别墅(近古北湾大酒店)"},{"poiid":"B2094655D26EA7FE489C","title":"古北购物休闲广场","lon":"121.4043","lat":"31.19857","category":"119","category_name":"商场","address":"虹桥路1398号(红宝石路66号古北路口)"},{"poiid":"B2094757D065ABF8499B","title":"文广大厦","lon":"121.40500574","lat":"31.196861038","category":"500","category_name":"未知分类","address":"上海虹桥路1380号"},{"poiid":"B2094654DB64AAFB479F","title":"古北国际花园","lon":"121.40244","lat":"31.195948","category":"47","category_name":"住宅区","address":"上海市长宁区黄金城道600弄"},{"poiid":"B2094757D06EAAFA4798","title":"爱心献血点(上海市血液中心)","lon":"121.406994","lat":"31.198091","category":"162","category_name":"医院","address":"上海长宁区虹桥路1191号(近伊犁路)"},{"poiid":"B2094751DA6EA7FD4599","title":"高岛屋","lon":"121.402434","lat":"31.197546","category":"249","category_name":"购物服务","address":"古北"},{"poiid":"B2094655D268A1F9469B","title":"巴黎贝甜 黄金城道店 Paris Baguette","lon":"121.399289054","lat":"31.195061793","category":"67","category_name":"甜品店","address":"长宁区黄金城道604号(近银珠路)"},{"poiid":"B2094757D069A2F94098","title":"墨啡","lon":"121.402719054","lat":"31.195093793","category":"260","category_name":"其他","address":"长宁区黄金城道598号(近玛瑙路)"},{"poiid":"B2094757D16AAAF9489B","title":"白公馆","lon":"121.40624258","lat":"31.198760815","category":"74","category_name":"江苏菜","address":"徐汇区汾阳路150号(桃江路岳阳路)"},{"poiid":"B2094752D66AA4FA419F","title":"八盛酒藏","lon":"121.403091","lat":"31.197479","category":"247","category_name":"餐饮美食","address":"上海高岛屋7楼"},{"poiid":"B2094750D76DA2FC489C","title":"秋之港日本料理","lon":"121.40653","lat":"31.19791","category":"95","category_name":"日本料理","address":"徐汇区虹桥路1386号文广大厦1楼"},{"poiid":"B2094752D265ABFC429A","title":"Green & Safe (Gubei)","lon":"121.402979","lat":"31.198136","category":"247","category_name":"餐饮美食","address":null},{"poiid":"B2094655D26FA5FD489F","title":"古北瑞仕花园","lon":"121.40418","lat":"31.195473","category":"47","category_name":"住宅区","address":"上海市长宁区黄金城道500弄"},{"poiid":"B2094751DB6BABF4469A","title":"无敌家","lon":"121.40287","lat":"31.19714","category":"95","category_name":"日本料理","address":"长宁区虹桥路1438号古北国际财富中心二期7楼(近玛瑙路)"},{"poiid":"B2094751DA6DAAF94592","title":"名藏","lon":"121.403017","lat":"31.198071","category":"247","category_name":"餐饮美食","address":"高岛屋百货7楼"},{"poiid":"B2094753D36FA2F8419D","title":"70后饭吧","lon":"121.400135","lat":"31.196805","category":"247","category_name":"餐饮美食","address":"上海市 天山路900号汇金百货B1 F"},{"poiid":"B2094752D765A6F44593","title":"藏珑泰厨","lon":"121.403486","lat":"31.196885","category":"247","category_name":"餐饮美食","address":"虹桥路1438号高岛屋百货7楼(近红宝石路)"},{"poiid":"B2094757D069A5FD499C","title":"金桥大厦","lon":"121.40275654157","lat":"31.199388542672","category":"46","category_name":"楼宇","address":"上海延安西路2077号"},{"poiid":"B2094655D36DA0FA429D","title":"伊犁南路","lon":"121.40406","lat":"31.19666","category":"38","category_name":"公交车站","address":""},{"poiid":"B209475CD065A1FD4792","title":"上海会馆 高岛屋店","lon":"121.40318","lat":"31.19742","category":"76","category_name":"上海菜","address":"虹桥路1438号高岛屋百货7楼"},{"poiid":"B2094757D06BA3F44593","title":"荷兰王国驻沪总领事馆","lon":"121.40496063","lat":"31.198251724","category":"500","category_name":"未知分类","address":"红宝石路500号东银中心10层"},{"poiid":"B2094752D568A5FE4493","title":"糖朝","lon":"121.403181","lat":"31.198243","category":"247","category_name":"餐饮美食","address":"高岛屋店"},{"poiid":"B2094752D46BA0F44498","title":"上海齐民市集","lon":"121.403471","lat":"31.196837","category":"500","category_name":"未知分类","address":null},{"poiid":"B2094752D768A4F9469B","title":"高岛屋百货","lon":"121.403298","lat":"31.196796","category":"119","category_name":"商场","address":"虹桥路1438号高岛屋百货7楼(近红宝石路)"},{"poiid":"B2094751DA64A4F9409B","title":"古北国际财富中心2期 上海高岛屋百货","lon":"121.402954","lat":"31.198013","category":"249","category_name":"购物服务","address":"上海市长宁区红宝石路"},{"poiid":"B209475CD76BA5FD439E","title":"Hello Kitty Today","lon":"121.407722","lat":"31.196411","category":"500","category_name":"未知分类","address":"上海市 高岛屋"},{"poiid":"B2094752D16AA3F5439E","title":"YAKUN KAYA TOAST","lon":"121.403152","lat":"31.198044","category":"247","category_name":"餐饮美食","address":null},{"poiid":"B2094751D265A5F5499D","title":"小仓寿司","lon":"121.40425","lat":"31.19438","category":"95","category_name":"日本料理","address":"长宁区黄金城道549号(近伊犁南路)"},{"poiid":"B2094752D664A6F4429F","title":"徐家汇","lon":"121.403198","lat":"31.197052","category":"500","category_name":"未知分类","address":null},{"poiid":"B2094757D164A5F9499D","title":"AN NGON 安宫越南美食","lon":"121.40501358","lat":"31.193916721","category":"247","category_name":"餐饮美食","address":"上海古羊路300-10 1F(姚虹路口)"},{"poiid":"B2094753D265A1FC489A","title":"鼎王无老锅(黄金城道店)","lon":"121.401106","lat":"31.195058","category":"86","category_name":"火锅店","address":"黄金城道677号(近银珠路)"},{"poiid":"B2094750D268ABFF419A","title":"阿拉厨道","lon":"121.400965","lat":"31.199215","category":"86","category_name":"火锅店","address":"长宁区虹桥路1452号古北大厦1楼(近金珠路)"},{"poiid":"B2094753D66EA2F5449E","title":"Camellia Garden","lon":"121.403141","lat":"31.198225","category":"247","category_name":"餐饮美食","address":"长宁区虹桥路1438号古北财富中心B 1"},{"poiid":"B2094757D069A5FE459F","title":"广播大厦食堂","lon":"121.406812386","lat":"31.1964209199","category":"76","category_name":"上海菜","address":"长宁区虹桥路1376号(近伊犁路)"},{"poiid":"B2094655D26FA5FD489B","title":"古北中央花园","lon":"121.40627","lat":"31.19534","category":"47","category_name":"住宅区","address":"上海伊犁南路500号(近红宝石路)"},{"poiid":"B2094654D56BABFE469E","title":"初花","lon":"121.40198","lat":"31.19915","category":"95","category_name":"日本料理","address":"长宁区虹桥路1446号古北湾大酒店3楼(近古北路)"},{"poiid":"B2094751D56AA3FE439E","title":"高岛屋百货（古北财富中心）","lon":"121.402954","lat":"31.19838","category":"249","category_name":"购物服务","address":null},{"poiid":"B2094654D56BABFE449D","title":"广播大厦","lon":"121.40747","lat":"31.19681","category":"46","category_name":"楼宇","address":"虹桥路1376"},{"poiid":"B2094757D06FA2FB4192","title":"新虹桥中心花园","lon":"121.40578139","lat":"31.200359502","category":"196","category_name":"公园","address":"长宁区延安西路2238号(近伊犁路)"},{"poiid":"B2094654D564A3FD469D","title":"上海市血液中心","lon":"121.40718","lat":"31.19831","category":"162","category_name":"医院","address":"长宁区虹桥路1191号(近伊犁路)"},{"poiid":"B2094757D068A4F44493","title":"大风车私家菜馆","lon":"121.40352","lat":"31.19843","category":"76","category_name":"上海菜","address":"长宁区虹桥路1440号申康宾馆内(近延安西路)"},{"poiid":"B2094757D06FAAF8409F","title":"古北湾大酒店","lon":"121.40236","lat":"31.19913","category":"217","category_name":"旅馆招待所","address":"长宁区虹桥路1446号(近古北路)"},{"poiid":"B2094757D06EAAF94299","title":"伊犁路地铁站","lon":"121.403289","lat":"31.199036","category":"36","category_name":"地铁站","address":"上海轨道交通 十号线 轨交伊犁路站  10"},{"poiid":"B2094751D46BABFF499D","title":"鼎王无老养生锅","lon":"121.40132","lat":"31.1951","category":"86","category_name":"火锅店","address":"长宁区黄金城道677号(近银珠路)"},{"poiid":"B2094752D268AAF44193","title":"半山小馆","lon":"121.403583","lat":"31.196899","category":"247","category_name":"餐饮美食","address":"长宁区虹桥路1438号高岛屋百货7楼(近红宝石路)"},{"poiid":"B2094757D069A2F8459E","title":"上海民航医院","lon":"121.40160399","lat":"31.19858697","category":"162","category_name":"医院","address":"上海虹桥路1448号"},{"poiid":"B2094751D565A5FB4093","title":"亞坤咖啡","lon":"121.403691","lat":"31.197657","category":"247","category_name":"餐饮美食","address":"上海高岛屋B1"},{"poiid":"B2094654D56BABFE4692","title":"颐丰花园","lon":"121.40232","lat":"31.19886","category":"47","category_name":"住宅区","address":"长宁区虹桥路1442号(近延安高架)"},{"poiid":"B2094655D268A1FC499D","title":"彩色盘","lon":"121.4002","lat":"31.1977","category":"65","category_name":"咖啡厅","address":""},{"poiid":"B2094655D36DA0FA4292","title":"伊犁南路黄金城道","lon":"121.40471","lat":"31.19399","category":"38","category_name":"公交车站","address":""},{"poiid":"B2094757D06AA3F94193","title":"温故知新","lon":"121.40317508","lat":"31.197864798","category":"94","category_name":"西餐厅","address":"长宁区虹桥路1440号申康宾馆内1号别墅(近古北湾大酒店)"},{"poiid":"B2094655D26EA7FE489C","title":"古北购物休闲广场","lon":"121.4043","lat":"31.19857","category":"119","category_name":"商场","address":"虹桥路1398号(红宝石路66号古北路口)"},{"poiid":"B2094757D065ABF8499B","title":"文广大厦","lon":"121.40500574","lat":"31.196861038","category":"500","category_name":"未知分类","address":"上海虹桥路1380号"},{"poiid":"B2094654DB64AAFB479F","title":"古北国际花园","lon":"121.40244","lat":"31.195948","category":"47","category_name":"住宅区","address":"上海市长宁区黄金城道600弄"},{"poiid":"B2094757D06EAAFA4798","title":"爱心献血点(上海市血液中心)","lon":"121.406994","lat":"31.198091","category":"162","category_name":"医院","address":"上海长宁区虹桥路1191号(近伊犁路)"},{"poiid":"B2094751DA6EA7FD4599","title":"高岛屋","lon":"121.402434","lat":"31.197546","category":"249","category_name":"购物服务","address":"古北"},{"poiid":"B2094655D268A1F9469B","title":"巴黎贝甜 黄金城道店 Paris Baguette","lon":"121.399289054","lat":"31.195061793","category":"67","category_name":"甜品店","address":"长宁区黄金城道604号(近银珠路)"},{"poiid":"B2094757D069A2F94098","title":"墨啡","lon":"121.402719054","lat":"31.195093793","category":"260","category_name":"其他","address":"长宁区黄金城道598号(近玛瑙路)"},{"poiid":"B2094757D16AAAF9489B","title":"白公馆","lon":"121.40624258","lat":"31.198760815","category":"74","category_name":"江苏菜","address":"徐汇区汾阳路150号(桃江路岳阳路)"},{"poiid":"B2094752D66AA4FA419F","title":"八盛酒藏","lon":"121.403091","lat":"31.197479","category":"247","category_name":"餐饮美食","address":"上海高岛屋7楼"},{"poiid":"B2094750D76DA2FC489C","title":"秋之港日本料理","lon":"121.40653","lat":"31.19791","category":"95","category_name":"日本料理","address":"徐汇区虹桥路1386号文广大厦1楼"},{"poiid":"B2094752D265ABFC429A","title":"Green & Safe (Gubei)","lon":"121.402979","lat":"31.198136","category":"247","category_name":"餐饮美食","address":null},{"poiid":"B2094655D26FA5FD489F","title":"古北瑞仕花园","lon":"121.40418","lat":"31.195473","category":"47","category_name":"住宅区","address":"上海市长宁区黄金城道500弄"},{"poiid":"B2094751DB6BABF4469A","title":"无敌家","lon":"121.40287","lat":"31.19714","category":"95","category_name":"日本料理","address":"长宁区虹桥路1438号古北国际财富中心二期7楼(近玛瑙路)"},{"poiid":"B2094751DA6DAAF94592","title":"名藏","lon":"121.403017","lat":"31.198071","category":"247","category_name":"餐饮美食","address":"高岛屋百货7楼"},{"poiid":"B2094753D36FA2F8419D","title":"70后饭吧","lon":"121.400135","lat":"31.196805","category":"247","category_name":"餐饮美食","address":"上海市 天山路900号汇金百货B1 F"},{"poiid":"B2094752D765A6F44593","title":"藏珑泰厨","lon":"121.403486","lat":"31.196885","category":"247","category_name":"餐饮美食","address":"虹桥路1438号高岛屋百货7楼(近红宝石路)"},{"poiid":"B2094757D069A5FD499C","title":"金桥大厦","lon":"121.40275654157","lat":"31.199388542672","category":"46","category_name":"楼宇","address":"上海延安西路2077号"},{"poiid":"B2094655D36DA0FA429D","title":"伊犁南路","lon":"121.40406","lat":"31.19666","category":"38","category_name":"公交车站","address":""},{"poiid":"B209475CD065A1FD4792","title":"上海会馆 高岛屋店","lon":"121.40318","lat":"31.19742","category":"76","category_name":"上海菜","address":"虹桥路1438号高岛屋百货7楼"},{"poiid":"B2094757D06BA3F44593","title":"荷兰王国驻沪总领事馆","lon":"121.40496063","lat":"31.198251724","category":"500","category_name":"未知分类","address":"红宝石路500号东银中心10层"},{"poiid":"B2094752D568A5FE4493","title":"糖朝","lon":"121.403181","lat":"31.198243","category":"247","category_name":"餐饮美食","address":"高岛屋店"},{"poiid":"B2094752D46BA0F44498","title":"上海齐民市集","lon":"121.403471","lat":"31.196837","category":"500","category_name":"未知分类","address":null},{"poiid":"B2094752D768A4F9469B","title":"高岛屋百货","lon":"121.403298","lat":"31.196796","category":"119","category_name":"商场","address":"虹桥路1438号高岛屋百货7楼(近红宝石路)"},{"poiid":"B2094751DA64A4F9409B","title":"古北国际财富中心2期 上海高岛屋百货","lon":"121.402954","lat":"31.198013","category":"249","category_name":"购物服务","address":"上海市长宁区红宝石路"},{"poiid":"B209475CD76BA5FD439E","title":"Hello Kitty Today","lon":"121.407722","lat":"31.196411","category":"500","category_name":"未知分类","address":"上海市 高岛屋"},{"poiid":"B2094752D16AA3F5439E","title":"YAKUN KAYA TOAST","lon":"121.403152","lat":"31.198044","category":"247","category_name":"餐饮美食","address":null},{"poiid":"B2094751D265A5F5499D","title":"小仓寿司","lon":"121.40425","lat":"31.19438","category":"95","category_name":"日本料理","address":"长宁区黄金城道549号(近伊犁南路)"},{"poiid":"B2094752D664A6F4429F","title":"徐家汇","lon":"121.403198","lat":"31.197052","category":"500","category_name":"未知分类","address":null},{"poiid":"B2094757D164A5F9499D","title":"AN NGON 安宫越南美食","lon":"121.40501358","lat":"31.193916721","category":"247","category_name":"餐饮美食","address":"上海古羊路300-10 1F(姚虹路口)"},{"poiid":"B2094753D265A1FC489A","title":"鼎王无老锅(黄金城道店)","lon":"121.401106","lat":"31.195058","category":"86","category_name":"火锅店","address":"黄金城道677号(近银珠路)"},{"poiid":"B2094750D268ABFF419A","title":"阿拉厨道","lon":"121.400965","lat":"31.199215","category":"86","category_name":"火锅店","address":"长宁区虹桥路1452号古北大厦1楼(近金珠路)"},{"poiid":"B2094753D66EA2F5449E","title":"Camellia Garden","lon":"121.403141","lat":"31.198225","category":"247","category_name":"餐饮美食","address":"长宁区虹桥路1438号古北财富中心B 1"},{"poiid":"B2094757D069A5FE459F","title":"广播大厦食堂","lon":"121.406812386","lat":"31.1964209199","category":"76","category_name":"上海菜","address":"长宁区虹桥路1376号(近伊犁路)"},{"poiid":"B2094655D26FA5FD489B","title":"古北中央花园","lon":"121.40627","lat":"31.19534","category":"47","category_name":"住宅区","address":"上海伊犁南路500号(近红宝石路)"},{"poiid":"B2094654D56BABFE469E","title":"初花","lon":"121.40198","lat":"31.19915","category":"95","category_name":"日本料理","address":"长宁区虹桥路1446号古北湾大酒店3楼(近古北路)"},{"poiid":"B2094751D56AA3FE439E","title":"高岛屋百货（古北财富中心）","lon":"121.402954","lat":"31.19838","category":"249","category_name":"购物服务","address":null},{"poiid":"B2094654D56BABFE449D","title":"广播大厦","lon":"121.40747","lat":"31.19681","category":"46","category_name":"楼宇","address":"虹桥路1376"},{"poiid":"B2094757D06FA2FB4192","title":"新虹桥中心花园","lon":"121.40578139","lat":"31.200359502","category":"196","category_name":"公园","address":"长宁区延安西路2238号(近伊犁路)"},{"poiid":"B2094654D564A3FD469D","title":"上海市血液中心","lon":"121.40718","lat":"31.19831","category":"162","category_name":"医院","address":"长宁区虹桥路1191号(近伊犁路)"},{"poiid":"B2094757D068A4F44493","title":"大风车私家菜馆","lon":"121.40352","lat":"31.19843","category":"76","category_name":"上海菜","address":"长宁区虹桥路1440号申康宾馆内(近延安西路)"},{"poiid":"B2094757D06FAAF8409F","title":"古北湾大酒店","lon":"121.40236","lat":"31.19913","category":"217","category_name":"旅馆招待所","address":"长宁区虹桥路1446号(近古北路)"},{"poiid":"B2094757D06EAAF94299","title":"伊犁路地铁站","lon":"121.403289","lat":"31.199036","category":"36","category_name":"地铁站","address":"上海轨道交通 十号线 轨交伊犁路站  10"},{"poiid":"B2094751D46BABFF499D","title":"鼎王无老养生锅","lon":"121.40132","lat":"31.1951","category":"86","category_name":"火锅店","address":"长宁区黄金城道677号(近银珠路)"},{"poiid":"B2094752D268AAF44193","title":"半山小馆","lon":"121.403583","lat":"31.196899","category":"247","category_name":"餐饮美食","address":"长宁区虹桥路1438号高岛屋百货7楼(近红宝石路)"},{"poiid":"B2094757D069A2F8459E","title":"上海民航医院","lon":"121.40160399","lat":"31.19858697","category":"162","category_name":"医院","address":"上海虹桥路1448号"},{"poiid":"B2094751D565A5FB4093","title":"亞坤咖啡","lon":"121.403691","lat":"31.197657","category":"247","category_name":"餐饮美食","address":"上海高岛屋B1"},{"poiid":"B2094654D56BABFE4692","title":"颐丰花园","lon":"121.40232","lat":"31.19886","category":"47","category_name":"住宅区","address":"长宁区虹桥路1442号(近延安高架)"},{"poiid":"B2094655D268A1FC499D","title":"彩色盘","lon":"121.4002","lat":"31.1977","category":"65","category_name":"咖啡厅","address":""},{"poiid":"B2094655D36DA0FA4292","title":"伊犁南路黄金城道","lon":"121.40471","lat":"31.19399","category":"38","category_name":"公交车站","address":""},{"poiid":"B2094757D06AA3F94193","title":"温故知新","lon":"121.40317508","lat":"31.197864798","category":"94","category_name":"西餐厅","address":"长宁区虹桥路1440号申康宾馆内1号别墅(近古北湾大酒店)"},{"poiid":"B2094655D26EA7FE489C","title":"古北购物休闲广场","lon":"121.4043","lat":"31.19857","category":"119","category_name":"商场","address":"虹桥路1398号(红宝石路66号古北路口)"},{"poiid":"B2094757D065ABF8499B","title":"文广大厦","lon":"121.40500574","lat":"31.196861038","category":"500","category_name":"未知分类","address":"上海虹桥路1380号"},{"poiid":"B2094654DB64AAFB479F","title":"古北国际花园","lon":"121.40244","lat":"31.195948","category":"47","category_name":"住宅区","address":"上海市长宁区黄金城道600弄"},{"poiid":"B2094757D06EAAFA4798","title":"爱心献血点(上海市血液中心)","lon":"121.406994","lat":"31.198091","category":"162","category_name":"医院","address":"上海长宁区虹桥路1191号(近伊犁路)"},{"poiid":"B2094751DA6EA7FD4599","title":"高岛屋","lon":"121.402434","lat":"31.197546","category":"249","category_name":"购物服务","address":"古北"},{"poiid":"B2094655D268A1F9469B","title":"巴黎贝甜 黄金城道店 Paris Baguette","lon":"121.399289054","lat":"31.195061793","category":"67","category_name":"甜品店","address":"长宁区黄金城道604号(近银珠路)"},{"poiid":"B2094757D069A2F94098","title":"墨啡","lon":"121.402719054","lat":"31.195093793","category":"260","category_name":"其他","address":"长宁区黄金城道598号(近玛瑙路)"},{"poiid":"B2094757D16AAAF9489B","title":"白公馆","lon":"121.40624258","lat":"31.198760815","category":"74","category_name":"江苏菜","address":"徐汇区汾阳路150号(桃江路岳阳路)"},{"poiid":"B2094752D66AA4FA419F","title":"八盛酒藏","lon":"121.403091","lat":"31.197479","category":"247","category_name":"餐饮美食","address":"上海高岛屋7楼"},{"poiid":"B2094750D76DA2FC489C","title":"秋之港日本料理","lon":"121.40653","lat":"31.19791","category":"95","category_name":"日本料理","address":"徐汇区虹桥路1386号文广大厦1楼"},{"poiid":"B2094752D265ABFC429A","title":"Green & Safe (Gubei)","lon":"121.402979","lat":"31.198136","category":"247","category_name":"餐饮美食","address":null},{"poiid":"B2094655D26FA5FD489F","title":"古北瑞仕花园","lon":"121.40418","lat":"31.195473","category":"47","category_name":"住宅区","address":"上海市长宁区黄金城道500弄"},{"poiid":"B2094751DB6BABF4469A","title":"无敌家","lon":"121.40287","lat":"31.19714","category":"95","category_name":"日本料理","address":"长宁区虹桥路1438号古北国际财富中心二期7楼(近玛瑙路)"},{"poiid":"B2094751DA6DAAF94592","title":"名藏","lon":"121.403017","lat":"31.198071","category":"247","category_name":"餐饮美食","address":"高岛屋百货7楼"},{"poiid":"B2094753D36FA2F8419D","title":"70后饭吧","lon":"121.400135","lat":"31.196805","category":"247","category_name":"餐饮美食","address":"上海市 天山路900号汇金百货B1 F"},{"poiid":"B2094752D765A6F44593","title":"藏珑泰厨","lon":"121.403486","lat":"31.196885","category":"247","category_name":"餐饮美食","address":"虹桥路1438号高岛屋百货7楼(近红宝石路)"},{"poiid":"B2094757D069A5FD499C","title":"金桥大厦","lon":"121.40275654157","lat":"31.199388542672","category":"46","category_name":"楼宇","address":"上海延安西路2077号"},{"poiid":"B2094655D36DA0FA429D","title":"伊犁南路","lon":"121.40406","lat":"31.19666","category":"38","category_name":"公交车站","address":""},{"poiid":"B209475CD065A1FD4792","title":"上海会馆 高岛屋店","lon":"121.40318","lat":"31.19742","category":"76","category_name":"上海菜","address":"虹桥路1438号高岛屋百货7楼"},{"poiid":"B2094757D06BA3F44593","title":"荷兰王国驻沪总领事馆","lon":"121.40496063","lat":"31.198251724","category":"500","category_name":"未知分类","address":"红宝石路500号东银中心10层"},{"poiid":"B2094752D568A5FE4493","title":"糖朝","lon":"121.403181","lat":"31.198243","category":"247","category_name":"餐饮美食","address":"高岛屋店"},{"poiid":"B2094752D46BA0F44498","title":"上海齐民市集","lon":"121.403471","lat":"31.196837","category":"500","category_name":"未知分类","address":null},{"poiid":"B2094752D768A4F9469B","title":"高岛屋百货","lon":"121.403298","lat":"31.196796","category":"119","category_name":"商场","address":"虹桥路1438号高岛屋百货7楼(近红宝石路)"},{"poiid":"B2094751DA64A4F9409B","title":"古北国际财富中心2期 上海高岛屋百货","lon":"121.402954","lat":"31.198013","category":"249","category_name":"购物服务","address":"上海市长宁区红宝石路"},{"poiid":"B209475CD76BA5FD439E","title":"Hello Kitty Today","lon":"121.407722","lat":"31.196411","category":"500","category_name":"未知分类","address":"上海市 高岛屋"},{"poiid":"B2094752D16AA3F5439E","title":"YAKUN KAYA TOAST","lon":"121.403152","lat":"31.198044","category":"247","category_name":"餐饮美食","address":null},{"poiid":"B2094751D265A5F5499D","title":"小仓寿司","lon":"121.40425","lat":"31.19438","category":"95","category_name":"日本料理","address":"长宁区黄金城道549号(近伊犁南路)"},{"poiid":"B2094752D664A6F4429F","title":"徐家汇","lon":"121.403198","lat":"31.197052","category":"500","category_name":"未知分类","address":null},{"poiid":"B2094757D164A5F9499D","title":"AN NGON 安宫越南美食","lon":"121.40501358","lat":"31.193916721","category":"247","category_name":"餐饮美食","address":"上海古羊路300-10 1F(姚虹路口)"},{"poiid":"B2094753D265A1FC489A","title":"鼎王无老锅(黄金城道店)","lon":"121.401106","lat":"31.195058","category":"86","category_name":"火锅店","address":"黄金城道677号(近银珠路)"},{"poiid":"B2094750D268ABFF419A","title":"阿拉厨道","lon":"121.400965","lat":"31.199215","category":"86","category_name":"火锅店","address":"长宁区虹桥路1452号古北大厦1楼(近金珠路)"},{"poiid":"B2094753D66EA2F5449E","title":"Camellia Garden","lon":"121.403141","lat":"31.198225","category":"247","category_name":"餐饮美食","address":"长宁区虹桥路1438号古北财富中心B 1"},{"poiid":"B2094757D069A5FE459F","title":"广播大厦食堂","lon":"121.406812386","lat":"31.1964209199","category":"76","category_name":"上海菜","address":"长宁区虹桥路1376号(近伊犁路)"},{"poiid":"B2094655D26FA5FD489B","title":"古北中央花园","lon":"121.40627","lat":"31.19534","category":"47","category_name":"住宅区","address":"上海伊犁南路500号(近红宝石路)"},{"poiid":"B2094654D56BABFE469E","title":"初花","lon":"121.40198","lat":"31.19915","category":"95","category_name":"日本料理","address":"长宁区虹桥路1446号古北湾大酒店3楼(近古北路)"},{"poiid":"B2094751D56AA3FE439E","title":"高岛屋百货（古北财富中心）","lon":"121.402954","lat":"31.19838","category":"249","category_name":"购物服务","address":null},{"poiid":"B2094654D56BABFE449D","title":"广播大厦","lon":"121.40747","lat":"31.19681","category":"46","category_name":"楼宇","address":"虹桥路1376"},{"poiid":"B2094757D06FA2FB4192","title":"新虹桥中心花园","lon":"121.40578139","lat":"31.200359502","category":"196","category_name":"公园","address":"长宁区延安西路2238号(近伊犁路)"},{"poiid":"B2094654D564A3FD469D","title":"上海市血液中心","lon":"121.40718","lat":"31.19831","category":"162","category_name":"医院","address":"长宁区虹桥路1191号(近伊犁路)"},{"poiid":"B2094757D068A4F44493","title":"大风车私家菜馆","lon":"121.40352","lat":"31.19843","category":"76","category_name":"上海菜","address":"长宁区虹桥路1440号申康宾馆内(近延安西路)"},{"poiid":"B2094757D06FAAF8409F","title":"古北湾大酒店","lon":"121.40236","lat":"31.19913","category":"217","category_name":"旅馆招待所","address":"长宁区虹桥路1446号(近古北路)"},{"poiid":"B2094757D06EAAF94299","title":"伊犁路地铁站","lon":"121.403289","lat":"31.199036","category":"36","category_name":"地铁站","address":"上海轨道交通 十号线 轨交伊犁路站  10"},{"poiid":"B2094751D46BABFF499D","title":"鼎王无老养生锅","lon":"121.40132","lat":"31.1951","category":"86","category_name":"火锅店","address":"长宁区黄金城道677号(近银珠路)"},{"poiid":"B2094752D268AAF44193","title":"半山小馆","lon":"121.403583","lat":"31.196899","category":"247","category_name":"餐饮美食","address":"长宁区虹桥路1438号高岛屋百货7楼(近红宝石路)"},{"poiid":"B2094757D069A2F8459E","title":"上海民航医院","lon":"121.40160399","lat":"31.19858697","category":"162","category_name":"医院","address":"上海虹桥路1448号"},{"poiid":"B2094751D565A5FB4093","title":"亞坤咖啡","lon":"121.403691","lat":"31.197657","category":"247","category_name":"餐饮美食","address":"上海高岛屋B1"},{"poiid":"B2094654D56BABFE4692","title":"颐丰花园","lon":"121.40232","lat":"31.19886","category":"47","category_name":"住宅区","address":"长宁区虹桥路1442号(近延安高架)"},{"poiid":"B2094655D268A1FC499D","title":"彩色盘","lon":"121.4002","lat":"31.1977","category":"65","category_name":"咖啡厅","address":""},{"poiid":"B2094655D36DA0FA4292","title":"伊犁南路黄金城道","lon":"121.40471","lat":"31.19399","category":"38","category_name":"公交车站","address":""},{"poiid":"B2094757D06AA3F94193","title":"温故知新","lon":"121.40317508","lat":"31.197864798","category":"94","category_name":"西餐厅","address":"长宁区虹桥路1440号申康宾馆内1号别墅(近古北湾大酒店)"},{"poiid":"B2094655D26EA7FE489C","title":"古北购物休闲广场","lon":"121.4043","lat":"31.19857","category":"119","category_name":"商场","address":"虹桥路1398号(红宝石路66号古北路口)"},{"poiid":"B2094757D065ABF8499B","title":"文广大厦","lon":"121.40500574","lat":"31.196861038","category":"500","category_name":"未知分类","address":"上海虹桥路1380号"},{"poiid":"B2094654DB64AAFB479F","title":"古北国际花园","lon":"121.40244","lat":"31.195948","category":"47","category_name":"住宅区","address":"上海市长宁区黄金城道600弄"},{"poiid":"B2094757D06EAAFA4798","title":"爱心献血点(上海市血液中心)","lon":"121.406994","lat":"31.198091","category":"162","category_name":"医院","address":"上海长宁区虹桥路1191号(近伊犁路)"},{"poiid":"B2094751DA6EA7FD4599","title":"高岛屋","lon":"121.402434","lat":"31.197546","category":"249","category_name":"购物服务","address":"古北"},{"poiid":"B2094655D268A1F9469B","title":"巴黎贝甜 黄金城道店 Paris Baguette","lon":"121.399289054","lat":"31.195061793","category":"67","category_name":"甜品店","address":"长宁区黄金城道604号(近银珠路)"},{"poiid":"B2094757D069A2F94098","title":"墨啡","lon":"121.402719054","lat":"31.195093793","category":"260","category_name":"其他","address":"长宁区黄金城道598号(近玛瑙路)"},{"poiid":"B2094757D16AAAF9489B","title":"白公馆","lon":"121.40624258","lat":"31.198760815","category":"74","category_name":"江苏菜","address":"徐汇区汾阳路150号(桃江路岳阳路)"},{"poiid":"B2094752D66AA4FA419F","title":"八盛酒藏","lon":"121.403091","lat":"31.197479","category":"247","category_name":"餐饮美食","address":"上海高岛屋7楼"},{"poiid":"B2094750D76DA2FC489C","title":"秋之港日本料理","lon":"121.40653","lat":"31.19791","category":"95","category_name":"日本料理","address":"徐汇区虹桥路1386号文广大厦1楼"},{"poiid":"B2094752D265ABFC429A","title":"Green & Safe (Gubei)","lon":"121.402979","lat":"31.198136","category":"247","category_name":"餐饮美食","address":null},{"poiid":"B2094655D26FA5FD489F","title":"古北瑞仕花园","lon":"121.40418","lat":"31.195473","category":"47","category_name":"住宅区","address":"上海市长宁区黄金城道500弄"},{"poiid":"B2094751DB6BABF4469A","title":"无敌家","lon":"121.40287","lat":"31.19714","category":"95","category_name":"日本料理","address":"长宁区虹桥路1438号古北国际财富中心二期7楼(近玛瑙路)"},{"poiid":"B2094751DA6DAAF94592","title":"名藏","lon":"121.403017","lat":"31.198071","category":"247","category_name":"餐饮美食","address":"高岛屋百货7楼"},{"poiid":"B2094753D36FA2F8419D","title":"70后饭吧","lon":"121.400135","lat":"31.196805","category":"247","category_name":"餐饮美食","address":"上海市 天山路900号汇金百货B1 F"},{"poiid":"B2094752D765A6F44593","title":"藏珑泰厨","lon":"121.403486","lat":"31.196885","category":"247","category_name":"餐饮美食","address":"虹桥路1438号高岛屋百货7楼(近红宝石路)"},{"poiid":"B2094757D069A5FD499C","title":"金桥大厦","lon":"121.40275654157","lat":"31.199388542672","category":"46","category_name":"楼宇","address":"上海延安西路2077号"},{"poiid":"B2094655D36DA0FA429D","title":"伊犁南路","lon":"121.40406","lat":"31.19666","category":"38","category_name":"公交车站","address":""},{"poiid":"B209475CD065A1FD4792","title":"上海会馆 高岛屋店","lon":"121.40318","lat":"31.19742","category":"76","category_name":"上海菜","address":"虹桥路1438号高岛屋百货7楼"},{"poiid":"B2094757D06BA3F44593","title":"荷兰王国驻沪总领事馆","lon":"121.40496063","lat":"31.198251724","category":"500","category_name":"未知分类","address":"红宝石路500号东银中心10层"},{"poiid":"B2094752D568A5FE4493","title":"糖朝","lon":"121.403181","lat":"31.198243","category":"247","category_name":"餐饮美食","address":"高岛屋店"},{"poiid":"B2094752D46BA0F44498","title":"上海齐民市集","lon":"121.403471","lat":"31.196837","category":"500","category_name":"未知分类","address":null},{"poiid":"B2094752D768A4F9469B","title":"高岛屋百货","lon":"121.403298","lat":"31.196796","category":"119","category_name":"商场","address":"虹桥路1438号高岛屋百货7楼(近红宝石路)"},{"poiid":"B2094751DA64A4F9409B","title":"古北国际财富中心2期 上海高岛屋百货","lon":"121.402954","lat":"31.198013","category":"249","category_name":"购物服务","address":"上海市长宁区红宝石路"},{"poiid":"B209475CD76BA5FD439E","title":"Hello Kitty Today","lon":"121.407722","lat":"31.196411","category":"500","category_name":"未知分类","address":"上海市 高岛屋"},{"poiid":"B2094752D16AA3F5439E","title":"YAKUN KAYA TOAST","lon":"121.403152","lat":"31.198044","category":"247","category_name":"餐饮美食","address":null},{"poiid":"B2094751D265A5F5499D","title":"小仓寿司","lon":"121.40425","lat":"31.19438","category":"95","category_name":"日本料理","address":"长宁区黄金城道549号(近伊犁南路)"},{"poiid":"B2094752D664A6F4429F","title":"徐家汇","lon":"121.403198","lat":"31.197052","category":"500","category_name":"未知分类","address":null},{"poiid":"B2094757D164A5F9499D","title":"AN NGON 安宫越南美食","lon":"121.40501358","lat":"31.193916721","category":"247","category_name":"餐饮美食","address":"上海古羊路300-10 1F(姚虹路口)"},{"poiid":"B2094753D265A1FC489A","title":"鼎王无老锅(黄金城道店)","lon":"121.401106","lat":"31.195058","category":"86","category_name":"火锅店","address":"黄金城道677号(近银珠路)"},{"poiid":"B2094750D268ABFF419A","title":"阿拉厨道","lon":"121.400965","lat":"31.199215","category":"86","category_name":"火锅店","address":"长宁区虹桥路1452号古北大厦1楼(近金珠路)"},{"poiid":"B2094753D66EA2F5449E","title":"Camellia Garden","lon":"121.403141","lat":"31.198225","category":"247","category_name":"餐饮美食","address":"长宁区虹桥路1438号古北财富中心B 1"},{"poiid":"B2094757D069A5FE459F","title":"广播大厦食堂","lon":"121.406812386","lat":"31.1964209199","category":"76","category_name":"上海菜","address":"长宁区虹桥路1376号(近伊犁路)"},{"poiid":"B2094655D26FA5FD489B","title":"古北中央花园","lon":"121.40627","lat":"31.19534","category":"47","category_name":"住宅区","address":"上海伊犁南路500号(近红宝石路)"}]