[{"poiid":"B2094655D26BA7F84499","title":"上海杉达学院","lon":"121.6587244618845","lat":"31.266664708677787","category":"253","category_name":"校园生活","address":"浦东新区金海路2727号"},{"poiid":"B2094757D06FA0F94692","title":"上海金融学院","lon":"121.6536383","lat":"31.2764308","category":"671","category_name":"高校中心点","address":"上海上川路995号"},{"poiid":"B2094757D068A1F84599","title":"曹路","lon":"121.668468","lat":"31.278657","category":"500","category_name":"未知分类","address":"上海上川路川沙路"},{"poiid":"B2094654D569A2F9449E","title":"上海金融学院学生公寓","lon":"121.65841","lat":"31.27462","category":"47","category_name":"住宅区","address":"上海浦东新区民雪路108号"},{"poiid":"B2094752D56CA6F9459A","title":"宝龙城市广场","lon":"121.659509","lat":"31.272171","category":"47","category_name":"住宅区","address":"金海路2505弄近民耀路"},{"poiid":"B2094757D06AA1FE419B","title":"杉达学院女生寝室","lon":"121.6590271","lat":"31.267677307","category":"500","category_name":"未知分类","address":null},{"poiid":"B2094757D069A0F4419B","title":"梦奇园海鲜大酒店","lon":"121.66341","lat":"31.2742","category":"260","category_name":"其他","address":"浦东新区曹路镇民雨路390号(民春路)"},{"poiid":"B2094757D069AAF94393","title":"万科蓝山别墅","lon":"121.6731491","lat":"31.269880294","category":"47","category_name":"住宅区","address":"中国上海市浦东新区金海路3333弄"},{"poiid":"B2094757D16EABF9479D","title":"阳光苑","lon":"121.65295731","lat":"31.272371545","category":"47","category_name":"住宅区","address":"上海浦东新区民耀路268弄"},{"poiid":"B2094654D569A3FF419E","title":"杉达大学(金海路)","lon":"121.66515","lat":"31.26829","category":"671","category_name":"高校中心点","address":"浦东新区金海路2727号"},{"poiid":"B2094757D068A4FB489E","title":"上海金融学院图书馆","lon":"121.65375","lat":"31.27627","category":"253","category_name":"校园生活","address":"浦东新区上川路995号"},{"poiid":"B2094655D36CA0FD4792","title":"金钻路海松路","lon":"121.67915","lat":"31.27706","category":"38","category_name":"公交车站","address":""},{"poiid":"B2094757D064A7F44298","title":"盛世春晓苑","lon":"121.66705","lat":"31.275658","category":"47","category_name":"住宅区","address":"上海市浦东新区民春路"},{"poiid":"B2094757D168A2FD449F","title":"上海金融学院文博楼","lon":"121.65687445","lat":"31.275942651","category":"500","category_name":"未知分类","address":"上海上川路995号"},{"poiid":"B2094757D16DAAFF429D","title":"中虹家园","lon":"121.66749805","lat":"31.2785678078","category":"500","category_name":"未知分类","address":"上海海鸣路98号"},{"poiid":"B2094654D569A3FB4598","title":"丰舍东苑","lon":"121.66759","lat":"31.275471","category":"47","category_name":"住宅区","address":"上海市嘉定区真南路4233号"},{"poiid":"B2094757D16DA3F5419C","title":"爵鼎鸡 曹路店","lon":"121.66967","lat":"31.27519","category":"87","category_name":"特色／地方风味餐厅","address":"浦东新区曹路镇川沙路562-572号(近民春路)"},{"poiid":"B2094757D164A1F44298","title":"上海金融学院新苑二号","lon":"121.65838545","lat":"31.2812884666","category":"500","category_name":"未知分类","address":"上海市浦东新区民雪路"},{"poiid":"B2094757D169A4FB4992","title":"曹路镇","lon":"121.66704745","lat":"31.278432404","category":"500","category_name":"未知分类","address":"上海市浦东新区上川路1639号"},{"poiid":"B2094654D569A3FB459F","title":"庙港文化公园","lon":"121.67013","lat":"31.27462","category":"196","category_name":"公园","address":"川沙路582号"},{"poiid":"B2094654D569A2F84998","title":"梦都酒店","lon":"121.66891","lat":"31.27705","category":"250","category_name":"公园户外","address":"浦东新区川沙路1588号(近曹路镇)"},{"poiid":"B2094757D568A0FE4498","title":"Q & T Cafe(民雨路店)","lon":"121.6631","lat":"31.27535","category":"112","category_name":"糕饼店","address":"浦东新区民雨路380号(近上川路)"},{"poiid":"B2094757D06AA6F44798","title":"杉达黑暗料理街","lon":"121.65786","lat":"31.26612","category":"111","category_name":"休闲餐饮场所","address":"浦东新区金海路2727号杉达学院附近(近民耀路)"},{"poiid":"B2094655D36CA5FD479D","title":"川沙路上川路","lon":"121.66743","lat":"31.27842","category":"38","category_name":"公交车站","address":""},{"poiid":"B2094654D569A2FE4792","title":"东田羊肉馆","lon":"121.66904","lat":"31.27897","category":"76","category_name":"上海菜","address":"浦东新区上川路1728号(近川沙路)"},{"poiid":"B2094750D76CA2F4489B","title":"苏拿咖啡","lon":"121.67","lat":"31.2749","category":"260","category_name":"其他","address":"浦东新区曹路镇川沙路572号3楼"},{"poiid":"B2094654D569A3FB4493","title":"民春苑","lon":"121.66501","lat":"31.275042","category":"47","category_name":"住宅区","address":"民春路399弄"},{"poiid":"B2094757D16FA5FE409E","title":"溢佳香","lon":"121.66238272","lat":"31.275625904","category":"68","category_name":"快餐厅","address":"浦东新区民雨路327-331号(近民雪路)"},{"poiid":"B2094753D16BABF84398","title":"超歌量贩KTV","lon":"121.66945","lat":"31.27943","category":"170","category_name":"KTV","address":"浦东新区曹路镇上川路1774号东田市场内(近曹路政府)"},{"poiid":"B2094757D16AA5FB469F","title":"银峰苑","lon":"121.668695","lat":"31.277505","category":"500","category_name":"未知分类","address":"上海银峰路549弄"},{"poiid":"B2094655D36CA0FF469B","title":"金海路民雷路","lon":"121.66657","lat":"31.26815","category":"38","category_name":"公交车站","address":""},{"poiid":"B2094757D065A3F5439E","title":"品悦酒店(川沙店)","lon":"121.66854778","lat":"31.277513748","category":"217","category_name":"旅馆招待所","address":"上海浦东新区曹路镇川沙路420号(近上川路)"},{"poiid":"B2094757D164AAF5479A","title":"丰舍西苑","lon":"121.66266","lat":"31.2757","category":"47","category_name":"住宅区","address":"上海市浦东新区民雨路336弄"},{"poiid":"B2094655D36CA5FD499A","title":"川沙路金海路","lon":"121.6733","lat":"31.27036","category":"38","category_name":"公交车站","address":""},{"poiid":"B2094750D569AAFF4599","title":"万科深蓝(蓝山小城)","lon":"121.665641","lat":"31.268846","category":"47","category_name":"住宅区","address":"上海市浦东新区曹路镇金海路3333号"},{"poiid":"B2094757D16CA3FC429F","title":"赵记麻辣烫","lon":"121.65879","lat":"31.27452","category":"68","category_name":"快餐厅","address":"浦东新区民雪路(金融学院宿舍对面)"},{"poiid":"B2094654D569A3FB4699","title":"好时光幼儿园","lon":"121.66795","lat":"31.27017","category":"57","category_name":"幼儿园","address":"浦东新区曹路镇民雷路689号"},{"poiid":"B2094655D264A5FA419D","title":"上海金融学院6号7号8号9号楼","lon":"121.66251","lat":"31.2766","category":"46","category_name":"楼宇","address":"曹路镇民雪路108号"},{"poiid":"B2094757D168AAFD429B","title":"爱法花园二期","lon":"121.661","lat":"31.2763","category":"47","category_name":"住宅区","address":"民耀路423弄"},{"poiid":"B2094757D66DA7F4459A","title":"长兴岛摆渡口","lon":"121.67334965","lat":"31.27496113","category":"500","category_name":"未知分类","address":"上海崇明长兴岛"},{"poiid":"B2094654DB6BA1FA439E","title":"中国农业银行","lon":"121.66719","lat":"31.27844","category":"150","category_name":"银行","address":"上川路1639号"},{"poiid":"B2094757D069A4FE479C","title":"蜀膳传火锅传奇 民耀路店","lon":"121.65199069654","lat":"31.27541289843","category":"86","category_name":"火锅店","address":"浦东新区民耀路217-219号(民区路民耀路)"},{"poiid":"B2094655D26BAAFF439F","title":"上海金融学院12号13号16号楼","lon":"121.66251","lat":"31.2766","category":"46","category_name":"楼宇","address":"曹路镇民雪路108号"},{"poiid":"B2094655D26BA1F5439B","title":"上海金融学院17号18号19号楼","lon":"121.66251","lat":"31.2766","category":"46","category_name":"楼宇","address":"曹路镇民雪路108号"},{"poiid":"B209475CD564A7FF499E","title":"魅指美甲","lon":"121.662841","lat":"31.274673","category":"148","category_name":"美容美发店","address":"上海市 上海市浦东新区民雪路53号"},{"poiid":"B2094655D36CA0FD489A","title":"金钻路上川路","lon":"121.6756","lat":"31.2823","category":"38","category_name":"公交车站","address":""},{"poiid":"B2094654DB69A6FD4592","title":"创联金海花苑学园绿洲","lon":"121.6727","lat":"31.27818","category":"47","category_name":"住宅区","address":"浦东新区曹路镇名名路318号"},{"poiid":"B2094654D569A3FF4292","title":"中国建设银行上海市曹路支行","lon":"121.66781","lat":"31.27891","category":"150","category_name":"银行","address":"浦东新区上川路1685号(川沙路上川路)"},{"poiid":"B2094655D265A6FA409E","title":"上海金融学院3号5号宿舍楼","lon":"121.66251","lat":"31.2766","category":"47","category_name":"住宅区","address":"曹路镇民雪路108号"},{"poiid":"B2094654D569A3FF4293","title":"上海金属高专学生公寓","lon":"121.6625","lat":"31.27659","category":"47","category_name":"住宅区","address":"民雪路108号"},{"poiid":"B2094655D26BA7F84499","title":"上海杉达学院","lon":"121.6587244618845","lat":"31.266664708677787","category":"253","category_name":"校园生活","address":"浦东新区金海路2727号"},{"poiid":"B2094757D06FA0F94692","title":"上海金融学院","lon":"121.6536383","lat":"31.2764308","category":"671","category_name":"高校中心点","address":"上海上川路995号"},{"poiid":"B2094757D068A1F84599","title":"曹路","lon":"121.668468","lat":"31.278657","category":"500","category_name":"未知分类","address":"上海上川路川沙路"},{"poiid":"B2094654D569A2F9449E","title":"上海金融学院学生公寓","lon":"121.65841","lat":"31.27462","category":"47","category_name":"住宅区","address":"上海浦东新区民雪路108号"},{"poiid":"B2094752D56CA6F9459A","title":"宝龙城市广场","lon":"121.659509","lat":"31.272171","category":"47","category_name":"住宅区","address":"金海路2505弄近民耀路"},{"poiid":"B2094757D06AA1FE419B","title":"杉达学院女生寝室","lon":"121.6590271","lat":"31.267677307","category":"500","category_name":"未知分类","address":null},{"poiid":"B2094757D069A0F4419B","title":"梦奇园海鲜大酒店","lon":"121.66341","lat":"31.2742","category":"260","category_name":"其他","address":"浦东新区曹路镇民雨路390号(民春路)"},{"poiid":"B2094757D069AAF94393","title":"万科蓝山别墅","lon":"121.6731491","lat":"31.269880294","category":"47","category_name":"住宅区","address":"中国上海市浦东新区金海路3333弄"},{"poiid":"B2094757D16EABF9479D","title":"阳光苑","lon":"121.65295731","lat":"31.272371545","category":"47","category_name":"住宅区","address":"上海浦东新区民耀路268弄"},{"poiid":"B2094654D569A3FF419E","title":"杉达大学(金海路)","lon":"121.66515","lat":"31.26829","category":"671","category_name":"高校中心点","address":"浦东新区金海路2727号"},{"poiid":"B2094757D068A4FB489E","title":"上海金融学院图书馆","lon":"121.65375","lat":"31.27627","category":"253","category_name":"校园生活","address":"浦东新区上川路995号"},{"poiid":"B2094655D36CA0FD4792","title":"金钻路海松路","lon":"121.67915","lat":"31.27706","category":"38","category_name":"公交车站","address":""},{"poiid":"B2094757D064A7F44298","title":"盛世春晓苑","lon":"121.66705","lat":"31.275658","category":"47","category_name":"住宅区","address":"上海市浦东新区民春路"},{"poiid":"B2094757D168A2FD449F","title":"上海金融学院文博楼","lon":"121.65687445","lat":"31.275942651","category":"500","category_name":"未知分类","address":"上海上川路995号"},{"poiid":"B2094757D16DAAFF429D","title":"中虹家园","lon":"121.66749805","lat":"31.2785678078","category":"500","category_name":"未知分类","address":"上海海鸣路98号"},{"poiid":"B2094654D569A3FB4598","title":"丰舍东苑","lon":"121.66759","lat":"31.275471","category":"47","category_name":"住宅区","address":"上海市嘉定区真南路4233号"},{"poiid":"B2094757D16DA3F5419C","title":"爵鼎鸡 曹路店","lon":"121.66967","lat":"31.27519","category":"87","category_name":"特色／地方风味餐厅","address":"浦东新区曹路镇川沙路562-572号(近民春路)"},{"poiid":"B2094757D164A1F44298","title":"上海金融学院新苑二号","lon":"121.65838545","lat":"31.2812884666","category":"500","category_name":"未知分类","address":"上海市浦东新区民雪路"},{"poiid":"B2094757D169A4FB4992","title":"曹路镇","lon":"121.66704745","lat":"31.278432404","category":"500","category_name":"未知分类","address":"上海市浦东新区上川路1639号"},{"poiid":"B2094654D569A3FB459F","title":"庙港文化公园","lon":"121.67013","lat":"31.27462","category":"196","category_name":"公园","address":"川沙路582号"},{"poiid":"B2094654D569A2F84998","title":"梦都酒店","lon":"121.66891","lat":"31.27705","category":"250","category_name":"公园户外","address":"浦东新区川沙路1588号(近曹路镇)"},{"poiid":"B2094757D568A0FE4498","title":"Q & T Cafe(民雨路店)","lon":"121.6631","lat":"31.27535","category":"112","category_name":"糕饼店","address":"浦东新区民雨路380号(近上川路)"},{"poiid":"B2094757D06AA6F44798","title":"杉达黑暗料理街","lon":"121.65786","lat":"31.26612","category":"111","category_name":"休闲餐饮场所","address":"浦东新区金海路2727号杉达学院附近(近民耀路)"},{"poiid":"B2094655D36CA5FD479D","title":"川沙路上川路","lon":"121.66743","lat":"31.27842","category":"38","category_name":"公交车站","address":""},{"poiid":"B2094654D569A2FE4792","title":"东田羊肉馆","lon":"121.66904","lat":"31.27897","category":"76","category_name":"上海菜","address":"浦东新区上川路1728号(近川沙路)"},{"poiid":"B2094750D76CA2F4489B","title":"苏拿咖啡","lon":"121.67","lat":"31.2749","category":"260","category_name":"其他","address":"浦东新区曹路镇川沙路572号3楼"},{"poiid":"B2094654D569A3FB4493","title":"民春苑","lon":"121.66501","lat":"31.275042","category":"47","category_name":"住宅区","address":"民春路399弄"},{"poiid":"B2094757D16FA5FE409E","title":"溢佳香","lon":"121.66238272","lat":"31.275625904","category":"68","category_name":"快餐厅","address":"浦东新区民雨路327-331号(近民雪路)"},{"poiid":"B2094753D16BABF84398","title":"超歌量贩KTV","lon":"121.66945","lat":"31.27943","category":"170","category_name":"KTV","address":"浦东新区曹路镇上川路1774号东田市场内(近曹路政府)"},{"poiid":"B2094757D16AA5FB469F","title":"银峰苑","lon":"121.668695","lat":"31.277505","category":"500","category_name":"未知分类","address":"上海银峰路549弄"},{"poiid":"B2094655D36CA0FF469B","title":"金海路民雷路","lon":"121.66657","lat":"31.26815","category":"38","category_name":"公交车站","address":""},{"poiid":"B2094757D065A3F5439E","title":"品悦酒店(川沙店)","lon":"121.66854778","lat":"31.277513748","category":"217","category_name":"旅馆招待所","address":"上海浦东新区曹路镇川沙路420号(近上川路)"},{"poiid":"B2094757D164AAF5479A","title":"丰舍西苑","lon":"121.66266","lat":"31.2757","category":"47","category_name":"住宅区","address":"上海市浦东新区民雨路336弄"},{"poiid":"B2094655D36CA5FD499A","title":"川沙路金海路","lon":"121.6733","lat":"31.27036","category":"38","category_name":"公交车站","address":""},{"poiid":"B2094750D569AAFF4599","title":"万科深蓝(蓝山小城)","lon":"121.665641","lat":"31.268846","category":"47","category_name":"住宅区","address":"上海市浦东新区曹路镇金海路3333号"},{"poiid":"B2094757D16CA3FC429F","title":"赵记麻辣烫","lon":"121.65879","lat":"31.27452","category":"68","category_name":"快餐厅","address":"浦东新区民雪路(金融学院宿舍对面)"},{"poiid":"B2094654D569A3FB4699","title":"好时光幼儿园","lon":"121.66795","lat":"31.27017","category":"57","category_name":"幼儿园","address":"浦东新区曹路镇民雷路689号"},{"poiid":"B2094655D264A5FA419D","title":"上海金融学院6号7号8号9号楼","lon":"121.66251","lat":"31.2766","category":"46","category_name":"楼宇","address":"曹路镇民雪路108号"},{"poiid":"B2094757D168AAFD429B","title":"爱法花园二期","lon":"121.661","lat":"31.2763","category":"47","category_name":"住宅区","address":"民耀路423弄"},{"poiid":"B2094757D66DA7F4459A","title":"长兴岛摆渡口","lon":"121.67334965","lat":"31.27496113","category":"500","category_name":"未知分类","address":"上海崇明长兴岛"},{"poiid":"B2094654DB6BA1FA439E","title":"中国农业银行","lon":"121.66719","lat":"31.27844","category":"150","category_name":"银行","address":"上川路1639号"},{"poiid":"B2094757D069A4FE479C","title":"蜀膳传火锅传奇 民耀路店","lon":"121.65199069654","lat":"31.27541289843","category":"86","category_name":"火锅店","address":"浦东新区民耀路217-219号(民区路民耀路)"},{"poiid":"B2094655D26BAAFF439F","title":"上海金融学院12号13号16号楼","lon":"121.66251","lat":"31.2766","category":"46","category_name":"楼宇","address":"曹路镇民雪路108号"},{"poiid":"B2094655D26BA1F5439B","title":"上海金融学院17号18号19号楼","lon":"121.66251","lat":"31.2766","category":"46","category_name":"楼宇","address":"曹路镇民雪路108号"},{"poiid":"B209475CD564A7FF499E","title":"魅指美甲","lon":"121.662841","lat":"31.274673","category":"148","category_name":"美容美发店","address":"上海市 上海市浦东新区民雪路53号"},{"poiid":"B2094655D36CA0FD489A","title":"金钻路上川路","lon":"121.6756","lat":"31.2823","category":"38","category_name":"公交车站","address":""},{"poiid":"B2094654DB69A6FD4592","title":"创联金海花苑学园绿洲","lon":"121.6727","lat":"31.27818","category":"47","category_name":"住宅区","address":"浦东新区曹路镇名名路318号"},{"poiid":"B2094654D569A3FF4292","title":"中国建设银行上海市曹路支行","lon":"121.66781","lat":"31.27891","category":"150","category_name":"银行","address":"浦东新区上川路1685号(川沙路上川路)"},{"poiid":"B2094655D265A6FA409E","title":"上海金融学院3号5号宿舍楼","lon":"121.66251","lat":"31.2766","category":"47","category_name":"住宅区","address":"曹路镇民雪路108号"},{"poiid":"B2094654D569A3FF4293","title":"上海金属高专学生公寓","lon":"121.6625","lat":"31.27659","category":"47","category_name":"住宅区","address":"民雪路108号"},{"poiid":"B2094655D26BA7F84499","title":"上海杉达学院","lon":"121.6587244618845","lat":"31.266664708677787","category":"253","category_name":"校园生活","address":"浦东新区金海路2727号"},{"poiid":"B2094757D06FA0F94692","title":"上海金融学院","lon":"121.6536383","lat":"31.2764308","category":"671","category_name":"高校中心点","address":"上海上川路995号"},{"poiid":"B2094757D068A1F84599","title":"曹路","lon":"121.668468","lat":"31.278657","category":"500","category_name":"未知分类","address":"上海上川路川沙路"},{"poiid":"B2094654D569A2F9449E","title":"上海金融学院学生公寓","lon":"121.65841","lat":"31.27462","category":"47","category_name":"住宅区","address":"上海浦东新区民雪路108号"},{"poiid":"B2094752D56CA6F9459A","title":"宝龙城市广场","lon":"121.659509","lat":"31.272171","category":"47","category_name":"住宅区","address":"金海路2505弄近民耀路"},{"poiid":"B2094757D06AA1FE419B","title":"杉达学院女生寝室","lon":"121.6590271","lat":"31.267677307","category":"500","category_name":"未知分类","address":null},{"poiid":"B2094757D069A0F4419B","title":"梦奇园海鲜大酒店","lon":"121.66341","lat":"31.2742","category":"260","category_name":"其他","address":"浦东新区曹路镇民雨路390号(民春路)"},{"poiid":"B2094757D069AAF94393","title":"万科蓝山别墅","lon":"121.6731491","lat":"31.269880294","category":"47","category_name":"住宅区","address":"中国上海市浦东新区金海路3333弄"},{"poiid":"B2094757D16EABF9479D","title":"阳光苑","lon":"121.65295731","lat":"31.272371545","category":"47","category_name":"住宅区","address":"上海浦东新区民耀路268弄"},{"poiid":"B2094654D569A3FF419E","title":"杉达大学(金海路)","lon":"121.66515","lat":"31.26829","category":"671","category_name":"高校中心点","address":"浦东新区金海路2727号"},{"poiid":"B2094757D068A4FB489E","title":"上海金融学院图书馆","lon":"121.65375","lat":"31.27627","category":"253","category_name":"校园生活","address":"浦东新区上川路995号"},{"poiid":"B2094655D36CA0FD4792","title":"金钻路海松路","lon":"121.67915","lat":"31.27706","category":"38","category_name":"公交车站","address":""},{"poiid":"B2094757D064A7F44298","title":"盛世春晓苑","lon":"121.66705","lat":"31.275658","category":"47","category_name":"住宅区","address":"上海市浦东新区民春路"},{"poiid":"B2094757D168A2FD449F","title":"上海金融学院文博楼","lon":"121.65687445","lat":"31.275942651","category":"500","category_name":"未知分类","address":"上海上川路995号"},{"poiid":"B2094757D16DAAFF429D","title":"中虹家园","lon":"121.66749805","lat":"31.2785678078","category":"500","category_name":"未知分类","address":"上海海鸣路98号"},{"poiid":"B2094654D569A3FB4598","title":"丰舍东苑","lon":"121.66759","lat":"31.275471","category":"47","category_name":"住宅区","address":"上海市嘉定区真南路4233号"},{"poiid":"B2094757D16DA3F5419C","title":"爵鼎鸡 曹路店","lon":"121.66967","lat":"31.27519","category":"87","category_name":"特色／地方风味餐厅","address":"浦东新区曹路镇川沙路562-572号(近民春路)"},{"poiid":"B2094757D164A1F44298","title":"上海金融学院新苑二号","lon":"121.65838545","lat":"31.2812884666","category":"500","category_name":"未知分类","address":"上海市浦东新区民雪路"},{"poiid":"B2094757D169A4FB4992","title":"曹路镇","lon":"121.66704745","lat":"31.278432404","category":"500","category_name":"未知分类","address":"上海市浦东新区上川路1639号"},{"poiid":"B2094654D569A3FB459F","title":"庙港文化公园","lon":"121.67013","lat":"31.27462","category":"196","category_name":"公园","address":"川沙路582号"},{"poiid":"B2094654D569A2F84998","title":"梦都酒店","lon":"121.66891","lat":"31.27705","category":"250","category_name":"公园户外","address":"浦东新区川沙路1588号(近曹路镇)"},{"poiid":"B2094757D568A0FE4498","title":"Q & T Cafe(民雨路店)","lon":"121.6631","lat":"31.27535","category":"112","category_name":"糕饼店","address":"浦东新区民雨路380号(近上川路)"},{"poiid":"B2094757D06AA6F44798","title":"杉达黑暗料理街","lon":"121.65786","lat":"31.26612","category":"111","category_name":"休闲餐饮场所","address":"浦东新区金海路2727号杉达学院附近(近民耀路)"},{"poiid":"B2094655D36CA5FD479D","title":"川沙路上川路","lon":"121.66743","lat":"31.27842","category":"38","category_name":"公交车站","address":""},{"poiid":"B2094654D569A2FE4792","title":"东田羊肉馆","lon":"121.66904","lat":"31.27897","category":"76","category_name":"上海菜","address":"浦东新区上川路1728号(近川沙路)"},{"poiid":"B2094750D76CA2F4489B","title":"苏拿咖啡","lon":"121.67","lat":"31.2749","category":"260","category_name":"其他","address":"浦东新区曹路镇川沙路572号3楼"},{"poiid":"B2094654D569A3FB4493","title":"民春苑","lon":"121.66501","lat":"31.275042","category":"47","category_name":"住宅区","address":"民春路399弄"},{"poiid":"B2094757D16FA5FE409E","title":"溢佳香","lon":"121.66238272","lat":"31.275625904","category":"68","category_name":"快餐厅","address":"浦东新区民雨路327-331号(近民雪路)"},{"poiid":"B2094753D16BABF84398","title":"超歌量贩KTV","lon":"121.66945","lat":"31.27943","category":"170","category_name":"KTV","address":"浦东新区曹路镇上川路1774号东田市场内(近曹路政府)"},{"poiid":"B2094757D16AA5FB469F","title":"银峰苑","lon":"121.668695","lat":"31.277505","category":"500","category_name":"未知分类","address":"上海银峰路549弄"},{"poiid":"B2094655D36CA0FF469B","title":"金海路民雷路","lon":"121.66657","lat":"31.26815","category":"38","category_name":"公交车站","address":""},{"poiid":"B2094757D065A3F5439E","title":"品悦酒店(川沙店)","lon":"121.66854778","lat":"31.277513748","category":"217","category_name":"旅馆招待所","address":"上海浦东新区曹路镇川沙路420号(近上川路)"},{"poiid":"B2094757D164AAF5479A","title":"丰舍西苑","lon":"121.66266","lat":"31.2757","category":"47","category_name":"住宅区","address":"上海市浦东新区民雨路336弄"},{"poiid":"B2094655D36CA5FD499A","title":"川沙路金海路","lon":"121.6733","lat":"31.27036","category":"38","category_name":"公交车站","address":""},{"poiid":"B2094750D569AAFF4599","title":"万科深蓝(蓝山小城)","lon":"121.665641","lat":"31.268846","category":"47","category_name":"住宅区","address":"上海市浦东新区曹路镇金海路3333号"},{"poiid":"B2094757D16CA3FC429F","title":"赵记麻辣烫","lon":"121.65879","lat":"31.27452","category":"68","category_name":"快餐厅","address":"浦东新区民雪路(金融学院宿舍对面)"},{"poiid":"B2094654D569A3FB4699","title":"好时光幼儿园","lon":"121.66795","lat":"31.27017","category":"57","category_name":"幼儿园","address":"浦东新区曹路镇民雷路689号"},{"poiid":"B2094655D264A5FA419D","title":"上海金融学院6号7号8号9号楼","lon":"121.66251","lat":"31.2766","category":"46","category_name":"楼宇","address":"曹路镇民雪路108号"},{"poiid":"B2094757D168AAFD429B","title":"爱法花园二期","lon":"121.661","lat":"31.2763","category":"47","category_name":"住宅区","address":"民耀路423弄"},{"poiid":"B2094757D66DA7F4459A","title":"长兴岛摆渡口","lon":"121.67334965","lat":"31.27496113","category":"500","category_name":"未知分类","address":"上海崇明长兴岛"},{"poiid":"B2094654DB6BA1FA439E","title":"中国农业银行","lon":"121.66719","lat":"31.27844","category":"150","category_name":"银行","address":"上川路1639号"},{"poiid":"B2094757D069A4FE479C","title":"蜀膳传火锅传奇 民耀路店","lon":"121.65199069654","lat":"31.27541289843","category":"86","category_name":"火锅店","address":"浦东新区民耀路217-219号(民区路民耀路)"},{"poiid":"B2094655D26BAAFF439F","title":"上海金融学院12号13号16号楼","lon":"121.66251","lat":"31.2766","category":"46","category_name":"楼宇","address":"曹路镇民雪路108号"},{"poiid":"B2094655D26BA1F5439B","title":"上海金融学院17号18号19号楼","lon":"121.66251","lat":"31.2766","category":"46","category_name":"楼宇","address":"曹路镇民雪路108号"},{"poiid":"B209475CD564A7FF499E","title":"魅指美甲","lon":"121.662841","lat":"31.274673","category":"148","category_name":"美容美发店","address":"上海市 上海市浦东新区民雪路53号"},{"poiid":"B2094655D36CA0FD489A","title":"金钻路上川路","lon":"121.6756","lat":"31.2823","category":"38","category_name":"公交车站","address":""},{"poiid":"B2094654DB69A6FD4592","title":"创联金海花苑学园绿洲","lon":"121.6727","lat":"31.27818","category":"47","category_name":"住宅区","address":"浦东新区曹路镇名名路318号"},{"poiid":"B2094654D569A3FF4292","title":"中国建设银行上海市曹路支行","lon":"121.66781","lat":"31.27891","category":"150","category_name":"银行","address":"浦东新区上川路1685号(川沙路上川路)"},{"poiid":"B2094655D265A6FA409E","title":"上海金融学院3号5号宿舍楼","lon":"121.66251","lat":"31.2766","category":"47","category_name":"住宅区","address":"曹路镇民雪路108号"},{"poiid":"B2094654D569A3FF4293","title":"上海金属高专学生公寓","lon":"121.6625","lat":"31.27659","category":"47","category_name":"住宅区","address":"民雪路108号"},{"poiid":"B2094655D26BA7F84499","title":"上海杉达学院","lon":"121.6587244618845","lat":"31.266664708677787","category":"253","category_name":"校园生活","address":"浦东新区金海路2727号"},{"poiid":"B2094757D06FA0F94692","title":"上海金融学院","lon":"121.6536383","lat":"31.2764308","category":"671","category_name":"高校中心点","address":"上海上川路995号"},{"poiid":"B2094757D068A1F84599","title":"曹路","lon":"121.668468","lat":"31.278657","category":"500","category_name":"未知分类","address":"上海上川路川沙路"},{"poiid":"B2094654D569A2F9449E","title":"上海金融学院学生公寓","lon":"121.65841","lat":"31.27462","category":"47","category_name":"住宅区","address":"上海浦东新区民雪路108号"},{"poiid":"B2094752D56CA6F9459A","title":"宝龙城市广场","lon":"121.659509","lat":"31.272171","category":"47","category_name":"住宅区","address":"金海路2505弄近民耀路"},{"poiid":"B2094757D06AA1FE419B","title":"杉达学院女生寝室","lon":"121.6590271","lat":"31.267677307","category":"500","category_name":"未知分类","address":null},{"poiid":"B2094757D069A0F4419B","title":"梦奇园海鲜大酒店","lon":"121.66341","lat":"31.2742","category":"260","category_name":"其他","address":"浦东新区曹路镇民雨路390号(民春路)"},{"poiid":"B2094757D069AAF94393","title":"万科蓝山别墅","lon":"121.6731491","lat":"31.269880294","category":"47","category_name":"住宅区","address":"中国上海市浦东新区金海路3333弄"},{"poiid":"B2094757D16EABF9479D","title":"阳光苑","lon":"121.65295731","lat":"31.272371545","category":"47","category_name":"住宅区","address":"上海浦东新区民耀路268弄"},{"poiid":"B2094654D569A3FF419E","title":"杉达大学(金海路)","lon":"121.66515","lat":"31.26829","category":"671","category_name":"高校中心点","address":"浦东新区金海路2727号"},{"poiid":"B2094757D068A4FB489E","title":"上海金融学院图书馆","lon":"121.65375","lat":"31.27627","category":"253","category_name":"校园生活","address":"浦东新区上川路995号"},{"poiid":"B2094655D36CA0FD4792","title":"金钻路海松路","lon":"121.67915","lat":"31.27706","category":"38","category_name":"公交车站","address":""},{"poiid":"B2094757D064A7F44298","title":"盛世春晓苑","lon":"121.66705","lat":"31.275658","category":"47","category_name":"住宅区","address":"上海市浦东新区民春路"},{"poiid":"B2094757D168A2FD449F","title":"上海金融学院文博楼","lon":"121.65687445","lat":"31.275942651","category":"500","category_name":"未知分类","address":"上海上川路995号"},{"poiid":"B2094757D16DAAFF429D","title":"中虹家园","lon":"121.66749805","lat":"31.2785678078","category":"500","category_name":"未知分类","address":"上海海鸣路98号"},{"poiid":"B2094654D569A3FB4598","title":"丰舍东苑","lon":"121.66759","lat":"31.275471","category":"47","category_name":"住宅区","address":"上海市嘉定区真南路4233号"},{"poiid":"B2094757D16DA3F5419C","title":"爵鼎鸡 曹路店","lon":"121.66967","lat":"31.27519","category":"87","category_name":"特色／地方风味餐厅","address":"浦东新区曹路镇川沙路562-572号(近民春路)"},{"poiid":"B2094757D164A1F44298","title":"上海金融学院新苑二号","lon":"121.65838545","lat":"31.2812884666","category":"500","category_name":"未知分类","address":"上海市浦东新区民雪路"},{"poiid":"B2094757D169A4FB4992","title":"曹路镇","lon":"121.66704745","lat":"31.278432404","category":"500","category_name":"未知分类","address":"上海市浦东新区上川路1639号"},{"poiid":"B2094654D569A3FB459F","title":"庙港文化公园","lon":"121.67013","lat":"31.27462","category":"196","category_name":"公园","address":"川沙路582号"},{"poiid":"B2094654D569A2F84998","title":"梦都酒店","lon":"121.66891","lat":"31.27705","category":"250","category_name":"公园户外","address":"浦东新区川沙路1588号(近曹路镇)"},{"poiid":"B2094757D568A0FE4498","title":"Q & T Cafe(民雨路店)","lon":"121.6631","lat":"31.27535","category":"112","category_name":"糕饼店","address":"浦东新区民雨路380号(近上川路)"},{"poiid":"B2094757D06AA6F44798","title":"杉达黑暗料理街","lon":"121.65786","lat":"31.26612","category":"111","category_name":"休闲餐饮场所","address":"浦东新区金海路2727号杉达学院附近(近民耀路)"},{"poiid":"B2094655D36CA5FD479D","title":"川沙路上川路","lon":"121.66743","lat":"31.27842","category":"38","category_name":"公交车站","address":""},{"poiid":"B2094654D569A2FE4792","title":"东田羊肉馆","lon":"121.66904","lat":"31.27897","category":"76","category_name":"上海菜","address":"浦东新区上川路1728号(近川沙路)"},{"poiid":"B2094750D76CA2F4489B","title":"苏拿咖啡","lon":"121.67","lat":"31.2749","category":"260","category_name":"其他","address":"浦东新区曹路镇川沙路572号3楼"},{"poiid":"B2094654D569A3FB4493","title":"民春苑","lon":"121.66501","lat":"31.275042","category":"47","category_name":"住宅区","address":"民春路399弄"},{"poiid":"B2094757D16FA5FE409E","title":"溢佳香","lon":"121.66238272","lat":"31.275625904","category":"68","category_name":"快餐厅","address":"浦东新区民雨路327-331号(近民雪路)"},{"poiid":"B2094753D16BABF84398","title":"超歌量贩KTV","lon":"121.66945","lat":"31.27943","category":"170","category_name":"KTV","address":"浦东新区曹路镇上川路1774号东田市场内(近曹路政府)"},{"poiid":"B2094757D16AA5FB469F","title":"银峰苑","lon":"121.668695","lat":"31.277505","category":"500","category_name":"未知分类","address":"上海银峰路549弄"},{"poiid":"B2094655D36CA0FF469B","title":"金海路民雷路","lon":"121.66657","lat":"31.26815","category":"38","category_name":"公交车站","address":""},{"poiid":"B2094757D065A3F5439E","title":"品悦酒店(川沙店)","lon":"121.66854778","lat":"31.277513748","category":"217","category_name":"旅馆招待所","address":"上海浦东新区曹路镇川沙路420号(近上川路)"},{"poiid":"B2094757D164AAF5479A","title":"丰舍西苑","lon":"121.66266","lat":"31.2757","category":"47","category_name":"住宅区","address":"上海市浦东新区民雨路336弄"},{"poiid":"B2094655D36CA5FD499A","title":"川沙路金海路","lon":"121.6733","lat":"31.27036","category":"38","category_name":"公交车站","address":""},{"poiid":"B2094750D569AAFF4599","title":"万科深蓝(蓝山小城)","lon":"121.665641","lat":"31.268846","category":"47","category_name":"住宅区","address":"上海市浦东新区曹路镇金海路3333号"},{"poiid":"B2094757D16CA3FC429F","title":"赵记麻辣烫","lon":"121.65879","lat":"31.27452","category":"68","category_name":"快餐厅","address":"浦东新区民雪路(金融学院宿舍对面)"},{"poiid":"B2094654D569A3FB4699","title":"好时光幼儿园","lon":"121.66795","lat":"31.27017","category":"57","category_name":"幼儿园","address":"浦东新区曹路镇民雷路689号"},{"poiid":"B2094655D264A5FA419D","title":"上海金融学院6号7号8号9号楼","lon":"121.66251","lat":"31.2766","category":"46","category_name":"楼宇","address":"曹路镇民雪路108号"},{"poiid":"B2094757D168AAFD429B","title":"爱法花园二期","lon":"121.661","lat":"31.2763","category":"47","category_name":"住宅区","address":"民耀路423弄"},{"poiid":"B2094757D66DA7F4459A","title":"长兴岛摆渡口","lon":"121.67334965","lat":"31.27496113","category":"500","category_name":"未知分类","address":"上海崇明长兴岛"},{"poiid":"B2094654DB6BA1FA439E","title":"中国农业银行","lon":"121.66719","lat":"31.27844","category":"150","category_name":"银行","address":"上川路1639号"},{"poiid":"B2094757D069A4FE479C","title":"蜀膳传火锅传奇 民耀路店","lon":"121.65199069654","lat":"31.27541289843","category":"86","category_name":"火锅店","address":"浦东新区民耀路217-219号(民区路民耀路)"},{"poiid":"B2094655D26BAAFF439F","title":"上海金融学院12号13号16号楼","lon":"121.66251","lat":"31.2766","category":"46","category_name":"楼宇","address":"曹路镇民雪路108号"},{"poiid":"B2094655D26BA1F5439B","title":"上海金融学院17号18号19号楼","lon":"121.66251","lat":"31.2766","category":"46","category_name":"楼宇","address":"曹路镇民雪路108号"},{"poiid":"B209475CD564A7FF499E","title":"魅指美甲","lon":"121.662841","lat":"31.274673","category":"148","category_name":"美容美发店","address":"上海市 上海市浦东新区民雪路53号"},{"poiid":"B2094655D36CA0FD489A","title":"金钻路上川路","lon":"121.6756","lat":"31.2823","category":"38","category_name":"公交车站","address":""},{"poiid":"B2094654DB69A6FD4592","title":"创联金海花苑学园绿洲","lon":"121.6727","lat":"31.27818","category":"47","category_name":"住宅区","address":"浦东新区曹路镇名名路318号"},{"poiid":"B2094654D569A3FF4292","title":"中国建设银行上海市曹路支行","lon":"121.66781","lat":"31.27891","category":"150","category_name":"银行","address":"浦东新区上川路1685号(川沙路上川路)"},{"poiid":"B2094655D265A6FA409E","title":"上海金融学院3号5号宿舍楼","lon":"121.66251","lat":"31.2766","category":"47","category_name":"住宅区","address":"曹路镇民雪路108号"},{"poiid":"B2094654D569A3FF4293","title":"上海金属高专学生公寓","lon":"121.6625","lat":"31.27659","category":"47","category_name":"住宅区","address":"民雪路108号"}]