[{"poiid":"B2094654DB6CA3FE4492","title":"锦江乐园","lon":"121.41085","lat":"31.14076","category":"195","category_name":"游乐场","address":"锦江乐园位于虹梅路201号"},{"poiid":"B2094654DB6CA7FD449A","title":"百联南方购物中心","lon":"121.407554","lat":"31.137312","category":"119","category_name":"商场","address":"闵行区沪闵路7388号南方商城内(近莲花路)"},{"poiid":"B2094655D26AA0FA4798","title":"锦江乐园地铁站","lon":"121.41382","lat":"31.14208","category":"36","category_name":"地铁站","address":""},{"poiid":"B2094654DB6CA7FF479D","title":"南方休闲广场","lon":"121.408","lat":"31.1393","category":"119","category_name":"商场","address":"闵行区古方路18号(近莲花路地铁站)"},{"poiid":"B2094757DB68AAFE459D","title":"江南美景大酒店","lon":"121.41044855118","lat":"31.140413260083","category":"75","category_name":"浙江菜","address":"闵行区沪闵路7966号(近锦江乐园)"},{"poiid":"B2094757D06FA1F84698","title":"西南汽车站","lon":"121.41305191","lat":"31.141330196","category":"35","category_name":"长途汽车站","address":"上海沪闵路 虹梅南路"},{"poiid":"B2094757D66DA6FA459C","title":"虹桥机场A9候机室","lon":"121.40823785","lat":"31.137688117","category":"21","category_name":"飞机场","address":"上海虹桥机场A9候机室"},{"poiid":"B2094757D06FA2FC449A","title":"麦当劳(锦江乐园店)","lon":"121.41367242","lat":"31.141626759","category":"68","category_name":"快餐厅","address":"上海闵行区锦江乐园地铁站"},{"poiid":"B2094757D06FA6FB4299","title":"西班牙名园","lon":"121.41094538994","lat":"31.135033552514","category":"47","category_name":"住宅区","address":"朝阳双桥东路温泉东里京通快速会村出口向南1700米"},{"poiid":"B2094757D068A0FA4599","title":"小食堂","lon":"121.41547","lat":"31.13859","category":"76","category_name":"上海菜","address":"徐汇区虹梅南路126弄323号(近梅陇路)"},{"poiid":"B2094757D16EA0FB4198","title":"梅陇","lon":"121.414322857","lat":"31.1362010872","category":"500","category_name":"未知分类","address":"上海市闵行区320,National,Rd"},{"poiid":"B2094757D66EA0FE469D","title":"锦江乐园皇家溜溜船","lon":"121.40895285","lat":"31.139227147","category":"500","category_name":"未知分类","address":"上海锦江乐园皇家溜溜船"},{"poiid":"B2094757D068AAFF4493","title":"沪闵高架","lon":"121.40802985","lat":"31.133900041","category":"260","category_name":"其他","address":"上海市沪闵高架上"},{"poiid":"B2094757D068A2F84498","title":"肯德基 KFC (虹梅地铁店)","lon":"121.414185","lat":"31.142398","category":"68","category_name":"快餐厅","address":"徐汇区沪闵路8073号(近锦江乐园地铁站)"},{"poiid":"B2094751D26FA1FB4092","title":"上海南站","lon":"121.40731","lat":"31.136091","category":"500","category_name":"未知分类","address":"石龙路1000号"},{"poiid":"B2094757D068A1FD419D","title":"唱享量贩式KTV(锦江乐园店)","lon":"121.4143","lat":"31.13971","category":"170","category_name":"KTV","address":"上海闵行区沪闵路8079号锦江乐园地铁站3楼"},{"poiid":"B2094757D068A7F94393","title":"虹梅商务大厦","lon":"121.414548746","lat":"31.1425100958","category":"46","category_name":"楼宇","address":"上海徐汇区沪闵路8075号"},{"poiid":"B2094757D065A7FA419A","title":"锦江之星(锦江乐园店)","lon":"121.410824297","lat":"31.1418860411","category":"500","category_name":"未知分类","address":"上海市闵行区虹梅路227号(近沪闵路)"},{"poiid":"B2094655D26EA7F9449D","title":"锦鸿公寓","lon":"121.41071","lat":"31.136948","category":"47","category_name":"住宅区","address":"上海闵行区益文路101弄"},{"poiid":"B2094655D26DA0F8429B","title":"梅陇二村(益文路)","lon":"121.41194","lat":"31.13552","category":"47","category_name":"住宅区","address":""},{"poiid":"B2094655D26BA1FA429E","title":"梅陇路虹梅南路","lon":"121.41504","lat":"31.13702","category":"38","category_name":"公交车站","address":""},{"poiid":"B2094757D068AAFD419C","title":"柏原家休闲吧","lon":"121.408143","lat":"31.139671","category":"113","category_name":"冷饮店","address":"闵行区古方路76号南方休闲广场3楼329-330号(近沪闵路)"},{"poiid":"B2094757D16BA5F8429F","title":"爱茜茜里(锦江乐园店)","lon":"121.40878485","lat":"31.138935142","category":"247","category_name":"餐饮美食","address":"上海闵行区虹梅路201号(沪闵路)"},{"poiid":"B2094654DA65AAFD489E","title":"上海西南汽车站","lon":"121.41304","lat":"31.14132","category":"35","category_name":"长途汽车站","address":"沪闵路8071号"},{"poiid":"B2094757D165ABF4409B","title":"锦江大厨(锦江乐园店)","lon":"121.410633424","lat":"31.1410307684","category":"76","category_name":"上海菜","address":"上海市闵行区虹梅路227号锦江乐园旁"},{"poiid":"B2094654DA65AAFE4592","title":"上海第22车辆检测站","lon":"121.41409","lat":"31.13803","category":"250","category_name":"公园户外","address":"虹梅南路128"},{"poiid":"B2094757D16CA4FF429F","title":"上海航宇科普中心","lon":"121.40623618","lat":"31.13695302","category":"500","category_name":"未知分类","address":"上海沪闵路7900号"},{"poiid":"B2094757D769A7F44298","title":"炫锅坊麻辣香锅","lon":"121.41362","lat":"31.13782","category":"77","category_name":"湖南菜","address":"闵行区虹梅南路128弄11号(近梅陇路)"},{"poiid":"B2094757D16BA3FF4192","title":"梅陇城世纪苑","lon":"121.412","lat":"31.1374","category":"47","category_name":"住宅区","address":"上海市闵行区莲花南路155弄"},{"poiid":"B2094757D065A2FA409D","title":"杨甲烧烤","lon":"121.41294","lat":"31.13785","category":"68","category_name":"快餐厅","address":"闵行区梅陇一村103号(农工商超市旁)"},{"poiid":"B2094757D66EA6FB429A","title":"上岛咖啡(锦江店)","lon":"121.410270857","lat":"31.1431802271","category":"260","category_name":"其他","address":"上海虹梅路245号二楼(沪闽路口近锦江乐园大门)"},{"poiid":"B2094757D664A5F54492","title":"第五次烧烤","lon":"121.41398","lat":"31.14","category":"68","category_name":"快餐厅","address":"徐汇区虹梅南路96弄凌云新村317号(近梅陇路)"},{"poiid":"B2094753D76FA7F9479E","title":"锦江乐园摩天轮","lon":"121.408103","lat":"31.138429","category":"500","category_name":"未知分类","address":"上海市 沪闵路高架"},{"poiid":"B2094655D26AA6F8429D","title":"集集小镇 锦江乐园店 Jijitown","lon":"121.414676054","lat":"31.144456793","category":"68","category_name":"快餐厅","address":"徐汇区沪闵路8075号虹梅商务大厦内(近锦江乐园)"},{"poiid":"B2094752D568A3FB4092","title":"上海浦东机场","lon":"121.411227","lat":"31.138002","category":"500","category_name":"未知分类","address":null},{"poiid":"B2094750DB6EA6FD409D","title":"上海华山医院","lon":"121.410873","lat":"31.137125","category":"162","category_name":"医院","address":null},{"poiid":"B2094655D268A1FB4698","title":"梅陇一村西四门(益文路)","lon":"121.41143","lat":"31.13787","category":"47","category_name":"住宅区","address":""},{"poiid":"B2094757D06BA5F4449E","title":"大娘水饺 沪闵路店","lon":"121.414277054","lat":"31.142391793","category":"68","category_name":"快餐厅","address":"徐汇区沪闵路8075号虹梅商务大厦内(近锦江乐园)"},{"poiid":"B2094655D26FA6FF439A","title":"古美七村","lon":"121.40853","lat":"31.144094","category":"47","category_name":"住宅区","address":"平阳路50弄"},{"poiid":"B2094654DB6CA3FC409E","title":"好德便利No.297","lon":"121.41247","lat":"31.13826","category":"117","category_name":"便民商店/便利店","address":"梅陇一村25号"},{"poiid":"B2094757D168AAFE489A","title":"牛奶棚(锦江乐园店)","lon":"121.413909427","lat":"31.1418927586","category":"67","category_name":"甜品店","address":"闵行区地铁一号线锦江乐园站(沪闵路虹梅路)"},{"poiid":"B2094750DB6EA6FD4098","title":"华山医院","lon":"121.410881","lat":"31.137128","category":"162","category_name":"医院","address":null},{"poiid":"B2094654DB6CA3FE459B","title":"蜀一蜀二","lon":"121.41007","lat":"31.14272","category":"71","category_name":"四川菜","address":"闵行区虹梅路241号(近平阳路)"},{"poiid":"B2094757D16BA5FA469E","title":"老北京饺子馆","lon":"121.41368321","lat":"31.137822849","category":"257","category_name":"中餐厅","address":"闵行区虹梅南路128号(近锦江乐园)"},{"poiid":"B2094655D265AAFA419A","title":"香歌丽园","lon":"121.412","lat":"31.1405","category":"47","category_name":"住宅区","address":"金色家园二期位于黄浦黄河路345号"},{"poiid":"B2094655D26EABF8469F","title":"西北郎烧烤锦江乐园店","lon":"121.41191","lat":"31.14025","category":"87","category_name":"特色／地方风味餐厅","address":"沪闵路8041之2-3识别"},{"poiid":"B2094654DB6CA3FE459A","title":"快客(虹梅路)","lon":"121.41056","lat":"31.1412","category":"117","category_name":"便民商店/便利店","address":"虹梅路227"},{"poiid":"B2094655D26FA6FF4293","title":"金领华庭","lon":"121.40717","lat":"31.141602","category":"47","category_name":"住宅区","address":"上海市闵行区古美路350弄"},{"poiid":"B2094757D16FA3FB429A","title":"可口香川湘菜馆","lon":"121.413762057","lat":"31.1409153816","category":"77","category_name":"湖南菜","address":"徐汇区虹梅南路126弄377号"},{"poiid":"B2094757D168A3F8429B","title":"中环线 沪闵路出口","lon":"121.410664","lat":"31.142214","category":"500","category_name":"未知分类","address":"上海虹梅路沪闵路"},{"poiid":"B2094654DB6CA3FE4492","title":"锦江乐园","lon":"121.41085","lat":"31.14076","category":"195","category_name":"游乐场","address":"锦江乐园位于虹梅路201号"},{"poiid":"B2094654DB6CA7FD449A","title":"百联南方购物中心","lon":"121.407554","lat":"31.137312","category":"119","category_name":"商场","address":"闵行区沪闵路7388号南方商城内(近莲花路)"},{"poiid":"B2094655D26AA0FA4798","title":"锦江乐园地铁站","lon":"121.41382","lat":"31.14208","category":"36","category_name":"地铁站","address":""},{"poiid":"B2094654DB6CA7FF479D","title":"南方休闲广场","lon":"121.408","lat":"31.1393","category":"119","category_name":"商场","address":"闵行区古方路18号(近莲花路地铁站)"},{"poiid":"B2094757DB68AAFE459D","title":"江南美景大酒店","lon":"121.41044855118","lat":"31.140413260083","category":"75","category_name":"浙江菜","address":"闵行区沪闵路7966号(近锦江乐园)"},{"poiid":"B2094757D06FA1F84698","title":"西南汽车站","lon":"121.41305191","lat":"31.141330196","category":"35","category_name":"长途汽车站","address":"上海沪闵路 虹梅南路"},{"poiid":"B2094757D66DA6FA459C","title":"虹桥机场A9候机室","lon":"121.40823785","lat":"31.137688117","category":"21","category_name":"飞机场","address":"上海虹桥机场A9候机室"},{"poiid":"B2094757D06FA2FC449A","title":"麦当劳(锦江乐园店)","lon":"121.41367242","lat":"31.141626759","category":"68","category_name":"快餐厅","address":"上海闵行区锦江乐园地铁站"},{"poiid":"B2094757D06FA6FB4299","title":"西班牙名园","lon":"121.41094538994","lat":"31.135033552514","category":"47","category_name":"住宅区","address":"朝阳双桥东路温泉东里京通快速会村出口向南1700米"},{"poiid":"B2094757D068A0FA4599","title":"小食堂","lon":"121.41547","lat":"31.13859","category":"76","category_name":"上海菜","address":"徐汇区虹梅南路126弄323号(近梅陇路)"},{"poiid":"B2094757D16EA0FB4198","title":"梅陇","lon":"121.414322857","lat":"31.1362010872","category":"500","category_name":"未知分类","address":"上海市闵行区320,National,Rd"},{"poiid":"B2094757D66EA0FE469D","title":"锦江乐园皇家溜溜船","lon":"121.40895285","lat":"31.139227147","category":"500","category_name":"未知分类","address":"上海锦江乐园皇家溜溜船"},{"poiid":"B2094757D068AAFF4493","title":"沪闵高架","lon":"121.40802985","lat":"31.133900041","category":"260","category_name":"其他","address":"上海市沪闵高架上"},{"poiid":"B2094757D068A2F84498","title":"肯德基 KFC (虹梅地铁店)","lon":"121.414185","lat":"31.142398","category":"68","category_name":"快餐厅","address":"徐汇区沪闵路8073号(近锦江乐园地铁站)"},{"poiid":"B2094751D26FA1FB4092","title":"上海南站","lon":"121.40731","lat":"31.136091","category":"500","category_name":"未知分类","address":"石龙路1000号"},{"poiid":"B2094757D068A1FD419D","title":"唱享量贩式KTV(锦江乐园店)","lon":"121.4143","lat":"31.13971","category":"170","category_name":"KTV","address":"上海闵行区沪闵路8079号锦江乐园地铁站3楼"},{"poiid":"B2094757D068A7F94393","title":"虹梅商务大厦","lon":"121.414548746","lat":"31.1425100958","category":"46","category_name":"楼宇","address":"上海徐汇区沪闵路8075号"},{"poiid":"B2094757D065A7FA419A","title":"锦江之星(锦江乐园店)","lon":"121.410824297","lat":"31.1418860411","category":"500","category_name":"未知分类","address":"上海市闵行区虹梅路227号(近沪闵路)"},{"poiid":"B2094655D26EA7F9449D","title":"锦鸿公寓","lon":"121.41071","lat":"31.136948","category":"47","category_name":"住宅区","address":"上海闵行区益文路101弄"},{"poiid":"B2094655D26DA0F8429B","title":"梅陇二村(益文路)","lon":"121.41194","lat":"31.13552","category":"47","category_name":"住宅区","address":""},{"poiid":"B2094655D26BA1FA429E","title":"梅陇路虹梅南路","lon":"121.41504","lat":"31.13702","category":"38","category_name":"公交车站","address":""},{"poiid":"B2094757D068AAFD419C","title":"柏原家休闲吧","lon":"121.408143","lat":"31.139671","category":"113","category_name":"冷饮店","address":"闵行区古方路76号南方休闲广场3楼329-330号(近沪闵路)"},{"poiid":"B2094757D16BA5F8429F","title":"爱茜茜里(锦江乐园店)","lon":"121.40878485","lat":"31.138935142","category":"247","category_name":"餐饮美食","address":"上海闵行区虹梅路201号(沪闵路)"},{"poiid":"B2094654DA65AAFD489E","title":"上海西南汽车站","lon":"121.41304","lat":"31.14132","category":"35","category_name":"长途汽车站","address":"沪闵路8071号"},{"poiid":"B2094757D165ABF4409B","title":"锦江大厨(锦江乐园店)","lon":"121.410633424","lat":"31.1410307684","category":"76","category_name":"上海菜","address":"上海市闵行区虹梅路227号锦江乐园旁"},{"poiid":"B2094654DA65AAFE4592","title":"上海第22车辆检测站","lon":"121.41409","lat":"31.13803","category":"250","category_name":"公园户外","address":"虹梅南路128"},{"poiid":"B2094757D16CA4FF429F","title":"上海航宇科普中心","lon":"121.40623618","lat":"31.13695302","category":"500","category_name":"未知分类","address":"上海沪闵路7900号"},{"poiid":"B2094757D769A7F44298","title":"炫锅坊麻辣香锅","lon":"121.41362","lat":"31.13782","category":"77","category_name":"湖南菜","address":"闵行区虹梅南路128弄11号(近梅陇路)"},{"poiid":"B2094757D16BA3FF4192","title":"梅陇城世纪苑","lon":"121.412","lat":"31.1374","category":"47","category_name":"住宅区","address":"上海市闵行区莲花南路155弄"},{"poiid":"B2094757D065A2FA409D","title":"杨甲烧烤","lon":"121.41294","lat":"31.13785","category":"68","category_name":"快餐厅","address":"闵行区梅陇一村103号(农工商超市旁)"},{"poiid":"B2094757D66EA6FB429A","title":"上岛咖啡(锦江店)","lon":"121.410270857","lat":"31.1431802271","category":"260","category_name":"其他","address":"上海虹梅路245号二楼(沪闽路口近锦江乐园大门)"},{"poiid":"B2094757D664A5F54492","title":"第五次烧烤","lon":"121.41398","lat":"31.14","category":"68","category_name":"快餐厅","address":"徐汇区虹梅南路96弄凌云新村317号(近梅陇路)"},{"poiid":"B2094753D76FA7F9479E","title":"锦江乐园摩天轮","lon":"121.408103","lat":"31.138429","category":"500","category_name":"未知分类","address":"上海市 沪闵路高架"},{"poiid":"B2094655D26AA6F8429D","title":"集集小镇 锦江乐园店 Jijitown","lon":"121.414676054","lat":"31.144456793","category":"68","category_name":"快餐厅","address":"徐汇区沪闵路8075号虹梅商务大厦内(近锦江乐园)"},{"poiid":"B2094752D568A3FB4092","title":"上海浦东机场","lon":"121.411227","lat":"31.138002","category":"500","category_name":"未知分类","address":null},{"poiid":"B2094750DB6EA6FD409D","title":"上海华山医院","lon":"121.410873","lat":"31.137125","category":"162","category_name":"医院","address":null},{"poiid":"B2094655D268A1FB4698","title":"梅陇一村西四门(益文路)","lon":"121.41143","lat":"31.13787","category":"47","category_name":"住宅区","address":""},{"poiid":"B2094757D06BA5F4449E","title":"大娘水饺 沪闵路店","lon":"121.414277054","lat":"31.142391793","category":"68","category_name":"快餐厅","address":"徐汇区沪闵路8075号虹梅商务大厦内(近锦江乐园)"},{"poiid":"B2094655D26FA6FF439A","title":"古美七村","lon":"121.40853","lat":"31.144094","category":"47","category_name":"住宅区","address":"平阳路50弄"},{"poiid":"B2094654DB6CA3FC409E","title":"好德便利No.297","lon":"121.41247","lat":"31.13826","category":"117","category_name":"便民商店/便利店","address":"梅陇一村25号"},{"poiid":"B2094757D168AAFE489A","title":"牛奶棚(锦江乐园店)","lon":"121.413909427","lat":"31.1418927586","category":"67","category_name":"甜品店","address":"闵行区地铁一号线锦江乐园站(沪闵路虹梅路)"},{"poiid":"B2094750DB6EA6FD4098","title":"华山医院","lon":"121.410881","lat":"31.137128","category":"162","category_name":"医院","address":null},{"poiid":"B2094654DB6CA3FE459B","title":"蜀一蜀二","lon":"121.41007","lat":"31.14272","category":"71","category_name":"四川菜","address":"闵行区虹梅路241号(近平阳路)"},{"poiid":"B2094757D16BA5FA469E","title":"老北京饺子馆","lon":"121.41368321","lat":"31.137822849","category":"257","category_name":"中餐厅","address":"闵行区虹梅南路128号(近锦江乐园)"},{"poiid":"B2094655D265AAFA419A","title":"香歌丽园","lon":"121.412","lat":"31.1405","category":"47","category_name":"住宅区","address":"金色家园二期位于黄浦黄河路345号"},{"poiid":"B2094655D26EABF8469F","title":"西北郎烧烤锦江乐园店","lon":"121.41191","lat":"31.14025","category":"87","category_name":"特色／地方风味餐厅","address":"沪闵路8041之2-3识别"},{"poiid":"B2094654DB6CA3FE459A","title":"快客(虹梅路)","lon":"121.41056","lat":"31.1412","category":"117","category_name":"便民商店/便利店","address":"虹梅路227"},{"poiid":"B2094655D26FA6FF4293","title":"金领华庭","lon":"121.40717","lat":"31.141602","category":"47","category_name":"住宅区","address":"上海市闵行区古美路350弄"},{"poiid":"B2094757D16FA3FB429A","title":"可口香川湘菜馆","lon":"121.413762057","lat":"31.1409153816","category":"77","category_name":"湖南菜","address":"徐汇区虹梅南路126弄377号"},{"poiid":"B2094757D168A3F8429B","title":"中环线 沪闵路出口","lon":"121.410664","lat":"31.142214","category":"500","category_name":"未知分类","address":"上海虹梅路沪闵路"},{"poiid":"B2094654DB6CA3FE4492","title":"锦江乐园","lon":"121.41085","lat":"31.14076","category":"195","category_name":"游乐场","address":"锦江乐园位于虹梅路201号"},{"poiid":"B2094654DB6CA7FD449A","title":"百联南方购物中心","lon":"121.407554","lat":"31.137312","category":"119","category_name":"商场","address":"闵行区沪闵路7388号南方商城内(近莲花路)"},{"poiid":"B2094655D26AA0FA4798","title":"锦江乐园地铁站","lon":"121.41382","lat":"31.14208","category":"36","category_name":"地铁站","address":""},{"poiid":"B2094654DB6CA7FF479D","title":"南方休闲广场","lon":"121.408","lat":"31.1393","category":"119","category_name":"商场","address":"闵行区古方路18号(近莲花路地铁站)"},{"poiid":"B2094757DB68AAFE459D","title":"江南美景大酒店","lon":"121.41044855118","lat":"31.140413260083","category":"75","category_name":"浙江菜","address":"闵行区沪闵路7966号(近锦江乐园)"},{"poiid":"B2094757D06FA1F84698","title":"西南汽车站","lon":"121.41305191","lat":"31.141330196","category":"35","category_name":"长途汽车站","address":"上海沪闵路 虹梅南路"},{"poiid":"B2094757D66DA6FA459C","title":"虹桥机场A9候机室","lon":"121.40823785","lat":"31.137688117","category":"21","category_name":"飞机场","address":"上海虹桥机场A9候机室"},{"poiid":"B2094757D06FA2FC449A","title":"麦当劳(锦江乐园店)","lon":"121.41367242","lat":"31.141626759","category":"68","category_name":"快餐厅","address":"上海闵行区锦江乐园地铁站"},{"poiid":"B2094757D06FA6FB4299","title":"西班牙名园","lon":"121.41094538994","lat":"31.135033552514","category":"47","category_name":"住宅区","address":"朝阳双桥东路温泉东里京通快速会村出口向南1700米"},{"poiid":"B2094757D068A0FA4599","title":"小食堂","lon":"121.41547","lat":"31.13859","category":"76","category_name":"上海菜","address":"徐汇区虹梅南路126弄323号(近梅陇路)"},{"poiid":"B2094757D16EA0FB4198","title":"梅陇","lon":"121.414322857","lat":"31.1362010872","category":"500","category_name":"未知分类","address":"上海市闵行区320,National,Rd"},{"poiid":"B2094757D66EA0FE469D","title":"锦江乐园皇家溜溜船","lon":"121.40895285","lat":"31.139227147","category":"500","category_name":"未知分类","address":"上海锦江乐园皇家溜溜船"},{"poiid":"B2094757D068AAFF4493","title":"沪闵高架","lon":"121.40802985","lat":"31.133900041","category":"260","category_name":"其他","address":"上海市沪闵高架上"},{"poiid":"B2094757D068A2F84498","title":"肯德基 KFC (虹梅地铁店)","lon":"121.414185","lat":"31.142398","category":"68","category_name":"快餐厅","address":"徐汇区沪闵路8073号(近锦江乐园地铁站)"},{"poiid":"B2094751D26FA1FB4092","title":"上海南站","lon":"121.40731","lat":"31.136091","category":"500","category_name":"未知分类","address":"石龙路1000号"},{"poiid":"B2094757D068A1FD419D","title":"唱享量贩式KTV(锦江乐园店)","lon":"121.4143","lat":"31.13971","category":"170","category_name":"KTV","address":"上海闵行区沪闵路8079号锦江乐园地铁站3楼"},{"poiid":"B2094757D068A7F94393","title":"虹梅商务大厦","lon":"121.414548746","lat":"31.1425100958","category":"46","category_name":"楼宇","address":"上海徐汇区沪闵路8075号"},{"poiid":"B2094757D065A7FA419A","title":"锦江之星(锦江乐园店)","lon":"121.410824297","lat":"31.1418860411","category":"500","category_name":"未知分类","address":"上海市闵行区虹梅路227号(近沪闵路)"},{"poiid":"B2094655D26EA7F9449D","title":"锦鸿公寓","lon":"121.41071","lat":"31.136948","category":"47","category_name":"住宅区","address":"上海闵行区益文路101弄"},{"poiid":"B2094655D26DA0F8429B","title":"梅陇二村(益文路)","lon":"121.41194","lat":"31.13552","category":"47","category_name":"住宅区","address":""},{"poiid":"B2094655D26BA1FA429E","title":"梅陇路虹梅南路","lon":"121.41504","lat":"31.13702","category":"38","category_name":"公交车站","address":""},{"poiid":"B2094757D068AAFD419C","title":"柏原家休闲吧","lon":"121.408143","lat":"31.139671","category":"113","category_name":"冷饮店","address":"闵行区古方路76号南方休闲广场3楼329-330号(近沪闵路)"},{"poiid":"B2094757D16BA5F8429F","title":"爱茜茜里(锦江乐园店)","lon":"121.40878485","lat":"31.138935142","category":"247","category_name":"餐饮美食","address":"上海闵行区虹梅路201号(沪闵路)"},{"poiid":"B2094654DA65AAFD489E","title":"上海西南汽车站","lon":"121.41304","lat":"31.14132","category":"35","category_name":"长途汽车站","address":"沪闵路8071号"},{"poiid":"B2094757D165ABF4409B","title":"锦江大厨(锦江乐园店)","lon":"121.410633424","lat":"31.1410307684","category":"76","category_name":"上海菜","address":"上海市闵行区虹梅路227号锦江乐园旁"},{"poiid":"B2094654DA65AAFE4592","title":"上海第22车辆检测站","lon":"121.41409","lat":"31.13803","category":"250","category_name":"公园户外","address":"虹梅南路128"},{"poiid":"B2094757D16CA4FF429F","title":"上海航宇科普中心","lon":"121.40623618","lat":"31.13695302","category":"500","category_name":"未知分类","address":"上海沪闵路7900号"},{"poiid":"B2094757D769A7F44298","title":"炫锅坊麻辣香锅","lon":"121.41362","lat":"31.13782","category":"77","category_name":"湖南菜","address":"闵行区虹梅南路128弄11号(近梅陇路)"},{"poiid":"B2094757D16BA3FF4192","title":"梅陇城世纪苑","lon":"121.412","lat":"31.1374","category":"47","category_name":"住宅区","address":"上海市闵行区莲花南路155弄"},{"poiid":"B2094757D065A2FA409D","title":"杨甲烧烤","lon":"121.41294","lat":"31.13785","category":"68","category_name":"快餐厅","address":"闵行区梅陇一村103号(农工商超市旁)"},{"poiid":"B2094757D66EA6FB429A","title":"上岛咖啡(锦江店)","lon":"121.410270857","lat":"31.1431802271","category":"260","category_name":"其他","address":"上海虹梅路245号二楼(沪闽路口近锦江乐园大门)"},{"poiid":"B2094757D664A5F54492","title":"第五次烧烤","lon":"121.41398","lat":"31.14","category":"68","category_name":"快餐厅","address":"徐汇区虹梅南路96弄凌云新村317号(近梅陇路)"},{"poiid":"B2094753D76FA7F9479E","title":"锦江乐园摩天轮","lon":"121.408103","lat":"31.138429","category":"500","category_name":"未知分类","address":"上海市 沪闵路高架"},{"poiid":"B2094655D26AA6F8429D","title":"集集小镇 锦江乐园店 Jijitown","lon":"121.414676054","lat":"31.144456793","category":"68","category_name":"快餐厅","address":"徐汇区沪闵路8075号虹梅商务大厦内(近锦江乐园)"},{"poiid":"B2094752D568A3FB4092","title":"上海浦东机场","lon":"121.411227","lat":"31.138002","category":"500","category_name":"未知分类","address":null},{"poiid":"B2094750DB6EA6FD409D","title":"上海华山医院","lon":"121.410873","lat":"31.137125","category":"162","category_name":"医院","address":null},{"poiid":"B2094655D268A1FB4698","title":"梅陇一村西四门(益文路)","lon":"121.41143","lat":"31.13787","category":"47","category_name":"住宅区","address":""},{"poiid":"B2094757D06BA5F4449E","title":"大娘水饺 沪闵路店","lon":"121.414277054","lat":"31.142391793","category":"68","category_name":"快餐厅","address":"徐汇区沪闵路8075号虹梅商务大厦内(近锦江乐园)"},{"poiid":"B2094655D26FA6FF439A","title":"古美七村","lon":"121.40853","lat":"31.144094","category":"47","category_name":"住宅区","address":"平阳路50弄"},{"poiid":"B2094654DB6CA3FC409E","title":"好德便利No.297","lon":"121.41247","lat":"31.13826","category":"117","category_name":"便民商店/便利店","address":"梅陇一村25号"},{"poiid":"B2094757D168AAFE489A","title":"牛奶棚(锦江乐园店)","lon":"121.413909427","lat":"31.1418927586","category":"67","category_name":"甜品店","address":"闵行区地铁一号线锦江乐园站(沪闵路虹梅路)"},{"poiid":"B2094750DB6EA6FD4098","title":"华山医院","lon":"121.410881","lat":"31.137128","category":"162","category_name":"医院","address":null},{"poiid":"B2094654DB6CA3FE459B","title":"蜀一蜀二","lon":"121.41007","lat":"31.14272","category":"71","category_name":"四川菜","address":"闵行区虹梅路241号(近平阳路)"},{"poiid":"B2094757D16BA5FA469E","title":"老北京饺子馆","lon":"121.41368321","lat":"31.137822849","category":"257","category_name":"中餐厅","address":"闵行区虹梅南路128号(近锦江乐园)"},{"poiid":"B2094655D265AAFA419A","title":"香歌丽园","lon":"121.412","lat":"31.1405","category":"47","category_name":"住宅区","address":"金色家园二期位于黄浦黄河路345号"},{"poiid":"B2094655D26EABF8469F","title":"西北郎烧烤锦江乐园店","lon":"121.41191","lat":"31.14025","category":"87","category_name":"特色／地方风味餐厅","address":"沪闵路8041之2-3识别"},{"poiid":"B2094654DB6CA3FE459A","title":"快客(虹梅路)","lon":"121.41056","lat":"31.1412","category":"117","category_name":"便民商店/便利店","address":"虹梅路227"},{"poiid":"B2094655D26FA6FF4293","title":"金领华庭","lon":"121.40717","lat":"31.141602","category":"47","category_name":"住宅区","address":"上海市闵行区古美路350弄"},{"poiid":"B2094757D16FA3FB429A","title":"可口香川湘菜馆","lon":"121.413762057","lat":"31.1409153816","category":"77","category_name":"湖南菜","address":"徐汇区虹梅南路126弄377号"},{"poiid":"B2094757D168A3F8429B","title":"中环线 沪闵路出口","lon":"121.410664","lat":"31.142214","category":"500","category_name":"未知分类","address":"上海虹梅路沪闵路"},{"poiid":"B2094654DB6CA3FE4492","title":"锦江乐园","lon":"121.41085","lat":"31.14076","category":"195","category_name":"游乐场","address":"锦江乐园位于虹梅路201号"},{"poiid":"B2094654DB6CA7FD449A","title":"百联南方购物中心","lon":"121.407554","lat":"31.137312","category":"119","category_name":"商场","address":"闵行区沪闵路7388号南方商城内(近莲花路)"},{"poiid":"B2094655D26AA0FA4798","title":"锦江乐园地铁站","lon":"121.41382","lat":"31.14208","category":"36","category_name":"地铁站","address":""},{"poiid":"B2094654DB6CA7FF479D","title":"南方休闲广场","lon":"121.408","lat":"31.1393","category":"119","category_name":"商场","address":"闵行区古方路18号(近莲花路地铁站)"},{"poiid":"B2094757DB68AAFE459D","title":"江南美景大酒店","lon":"121.41044855118","lat":"31.140413260083","category":"75","category_name":"浙江菜","address":"闵行区沪闵路7966号(近锦江乐园)"},{"poiid":"B2094757D06FA1F84698","title":"西南汽车站","lon":"121.41305191","lat":"31.141330196","category":"35","category_name":"长途汽车站","address":"上海沪闵路 虹梅南路"},{"poiid":"B2094757D66DA6FA459C","title":"虹桥机场A9候机室","lon":"121.40823785","lat":"31.137688117","category":"21","category_name":"飞机场","address":"上海虹桥机场A9候机室"},{"poiid":"B2094757D06FA2FC449A","title":"麦当劳(锦江乐园店)","lon":"121.41367242","lat":"31.141626759","category":"68","category_name":"快餐厅","address":"上海闵行区锦江乐园地铁站"},{"poiid":"B2094757D06FA6FB4299","title":"西班牙名园","lon":"121.41094538994","lat":"31.135033552514","category":"47","category_name":"住宅区","address":"朝阳双桥东路温泉东里京通快速会村出口向南1700米"},{"poiid":"B2094757D068A0FA4599","title":"小食堂","lon":"121.41547","lat":"31.13859","category":"76","category_name":"上海菜","address":"徐汇区虹梅南路126弄323号(近梅陇路)"},{"poiid":"B2094757D16EA0FB4198","title":"梅陇","lon":"121.414322857","lat":"31.1362010872","category":"500","category_name":"未知分类","address":"上海市闵行区320,National,Rd"},{"poiid":"B2094757D66EA0FE469D","title":"锦江乐园皇家溜溜船","lon":"121.40895285","lat":"31.139227147","category":"500","category_name":"未知分类","address":"上海锦江乐园皇家溜溜船"},{"poiid":"B2094757D068AAFF4493","title":"沪闵高架","lon":"121.40802985","lat":"31.133900041","category":"260","category_name":"其他","address":"上海市沪闵高架上"},{"poiid":"B2094757D068A2F84498","title":"肯德基 KFC (虹梅地铁店)","lon":"121.414185","lat":"31.142398","category":"68","category_name":"快餐厅","address":"徐汇区沪闵路8073号(近锦江乐园地铁站)"},{"poiid":"B2094751D26FA1FB4092","title":"上海南站","lon":"121.40731","lat":"31.136091","category":"500","category_name":"未知分类","address":"石龙路1000号"},{"poiid":"B2094757D068A1FD419D","title":"唱享量贩式KTV(锦江乐园店)","lon":"121.4143","lat":"31.13971","category":"170","category_name":"KTV","address":"上海闵行区沪闵路8079号锦江乐园地铁站3楼"},{"poiid":"B2094757D068A7F94393","title":"虹梅商务大厦","lon":"121.414548746","lat":"31.1425100958","category":"46","category_name":"楼宇","address":"上海徐汇区沪闵路8075号"},{"poiid":"B2094757D065A7FA419A","title":"锦江之星(锦江乐园店)","lon":"121.410824297","lat":"31.1418860411","category":"500","category_name":"未知分类","address":"上海市闵行区虹梅路227号(近沪闵路)"},{"poiid":"B2094655D26EA7F9449D","title":"锦鸿公寓","lon":"121.41071","lat":"31.136948","category":"47","category_name":"住宅区","address":"上海闵行区益文路101弄"},{"poiid":"B2094655D26DA0F8429B","title":"梅陇二村(益文路)","lon":"121.41194","lat":"31.13552","category":"47","category_name":"住宅区","address":""},{"poiid":"B2094655D26BA1FA429E","title":"梅陇路虹梅南路","lon":"121.41504","lat":"31.13702","category":"38","category_name":"公交车站","address":""},{"poiid":"B2094757D068AAFD419C","title":"柏原家休闲吧","lon":"121.408143","lat":"31.139671","category":"113","category_name":"冷饮店","address":"闵行区古方路76号南方休闲广场3楼329-330号(近沪闵路)"},{"poiid":"B2094757D16BA5F8429F","title":"爱茜茜里(锦江乐园店)","lon":"121.40878485","lat":"31.138935142","category":"247","category_name":"餐饮美食","address":"上海闵行区虹梅路201号(沪闵路)"},{"poiid":"B2094654DA65AAFD489E","title":"上海西南汽车站","lon":"121.41304","lat":"31.14132","category":"35","category_name":"长途汽车站","address":"沪闵路8071号"},{"poiid":"B2094757D165ABF4409B","title":"锦江大厨(锦江乐园店)","lon":"121.410633424","lat":"31.1410307684","category":"76","category_name":"上海菜","address":"上海市闵行区虹梅路227号锦江乐园旁"},{"poiid":"B2094654DA65AAFE4592","title":"上海第22车辆检测站","lon":"121.41409","lat":"31.13803","category":"250","category_name":"公园户外","address":"虹梅南路128"},{"poiid":"B2094757D16CA4FF429F","title":"上海航宇科普中心","lon":"121.40623618","lat":"31.13695302","category":"500","category_name":"未知分类","address":"上海沪闵路7900号"},{"poiid":"B2094757D769A7F44298","title":"炫锅坊麻辣香锅","lon":"121.41362","lat":"31.13782","category":"77","category_name":"湖南菜","address":"闵行区虹梅南路128弄11号(近梅陇路)"},{"poiid":"B2094757D16BA3FF4192","title":"梅陇城世纪苑","lon":"121.412","lat":"31.1374","category":"47","category_name":"住宅区","address":"上海市闵行区莲花南路155弄"},{"poiid":"B2094757D065A2FA409D","title":"杨甲烧烤","lon":"121.41294","lat":"31.13785","category":"68","category_name":"快餐厅","address":"闵行区梅陇一村103号(农工商超市旁)"},{"poiid":"B2094757D66EA6FB429A","title":"上岛咖啡(锦江店)","lon":"121.410270857","lat":"31.1431802271","category":"260","category_name":"其他","address":"上海虹梅路245号二楼(沪闽路口近锦江乐园大门)"},{"poiid":"B2094757D664A5F54492","title":"第五次烧烤","lon":"121.41398","lat":"31.14","category":"68","category_name":"快餐厅","address":"徐汇区虹梅南路96弄凌云新村317号(近梅陇路)"},{"poiid":"B2094753D76FA7F9479E","title":"锦江乐园摩天轮","lon":"121.408103","lat":"31.138429","category":"500","category_name":"未知分类","address":"上海市 沪闵路高架"},{"poiid":"B2094655D26AA6F8429D","title":"集集小镇 锦江乐园店 Jijitown","lon":"121.414676054","lat":"31.144456793","category":"68","category_name":"快餐厅","address":"徐汇区沪闵路8075号虹梅商务大厦内(近锦江乐园)"},{"poiid":"B2094752D568A3FB4092","title":"上海浦东机场","lon":"121.411227","lat":"31.138002","category":"500","category_name":"未知分类","address":null},{"poiid":"B2094750DB6EA6FD409D","title":"上海华山医院","lon":"121.410873","lat":"31.137125","category":"162","category_name":"医院","address":null},{"poiid":"B2094655D268A1FB4698","title":"梅陇一村西四门(益文路)","lon":"121.41143","lat":"31.13787","category":"47","category_name":"住宅区","address":""},{"poiid":"B2094757D06BA5F4449E","title":"大娘水饺 沪闵路店","lon":"121.414277054","lat":"31.142391793","category":"68","category_name":"快餐厅","address":"徐汇区沪闵路8075号虹梅商务大厦内(近锦江乐园)"},{"poiid":"B2094655D26FA6FF439A","title":"古美七村","lon":"121.40853","lat":"31.144094","category":"47","category_name":"住宅区","address":"平阳路50弄"},{"poiid":"B2094654DB6CA3FC409E","title":"好德便利No.297","lon":"121.41247","lat":"31.13826","category":"117","category_name":"便民商店/便利店","address":"梅陇一村25号"},{"poiid":"B2094757D168AAFE489A","title":"牛奶棚(锦江乐园店)","lon":"121.413909427","lat":"31.1418927586","category":"67","category_name":"甜品店","address":"闵行区地铁一号线锦江乐园站(沪闵路虹梅路)"},{"poiid":"B2094750DB6EA6FD4098","title":"华山医院","lon":"121.410881","lat":"31.137128","category":"162","category_name":"医院","address":null},{"poiid":"B2094654DB6CA3FE459B","title":"蜀一蜀二","lon":"121.41007","lat":"31.14272","category":"71","category_name":"四川菜","address":"闵行区虹梅路241号(近平阳路)"},{"poiid":"B2094757D16BA5FA469E","title":"老北京饺子馆","lon":"121.41368321","lat":"31.137822849","category":"257","category_name":"中餐厅","address":"闵行区虹梅南路128号(近锦江乐园)"},{"poiid":"B2094655D265AAFA419A","title":"香歌丽园","lon":"121.412","lat":"31.1405","category":"47","category_name":"住宅区","address":"金色家园二期位于黄浦黄河路345号"},{"poiid":"B2094655D26EABF8469F","title":"西北郎烧烤锦江乐园店","lon":"121.41191","lat":"31.14025","category":"87","category_name":"特色／地方风味餐厅","address":"沪闵路8041之2-3识别"},{"poiid":"B2094654DB6CA3FE459A","title":"快客(虹梅路)","lon":"121.41056","lat":"31.1412","category":"117","category_name":"便民商店/便利店","address":"虹梅路227"},{"poiid":"B2094655D26FA6FF4293","title":"金领华庭","lon":"121.40717","lat":"31.141602","category":"47","category_name":"住宅区","address":"上海市闵行区古美路350弄"},{"poiid":"B2094757D16FA3FB429A","title":"可口香川湘菜馆","lon":"121.413762057","lat":"31.1409153816","category":"77","category_name":"湖南菜","address":"徐汇区虹梅南路126弄377号"},{"poiid":"B2094757D168A3F8429B","title":"中环线 沪闵路出口","lon":"121.410664","lat":"31.142214","category":"500","category_name":"未知分类","address":"上海虹梅路沪闵路"}]