[{"poiid":"B2094757D064A3FC449C","title":"欢歌KTV","lon":"121.768805588","lat":"31.0484797909","category":"170","category_name":"KTV","address":"上海人民东路"},{"poiid":"B2094757D068A1F4409A","title":"避风塘(南汇店)","lon":"121.76907","lat":"31.04929","category":"72","category_name":"广东菜","address":"浦东新区惠南镇人民东路2635号富客斯豪布斯卡名品村1楼(靖海路人民东路)"},{"poiid":"B2094757D06FABFA4699","title":"惠南镇","lon":"121.761358","lat":"31.041516","category":"260","category_name":"其他","address":"上海市浦东新区惠南镇"},{"poiid":"B2094757D06BA3FC419F","title":"南汇东门车站","lon":"121.763233899","lat":"31.046604734","category":"500","category_name":"未知分类","address":"上海南汇东门车站"},{"poiid":"B2094757D06AA1FE449B","title":"清风人家(惠南店)","lon":"121.765126356","lat":"31.049164942","category":"260","category_name":"其他","address":"浦东新区惠南镇人民东路2815号(近南祝路)"},{"poiid":"B2094654DB64A0FB4392","title":"光明中医医院","lon":"121.76241","lat":"31.04623","category":"162","category_name":"医院","address":"浦东新区南汇县东门大街339号"},{"poiid":"B2094757D069A4F84093","title":"浦东商场(南汇店)","lon":"121.76029","lat":"31.04643","category":"119","category_name":"商场","address":"浦东新区东门大街200号(近川南奉公路)"},{"poiid":"B2094757D16EABF54499","title":"莎海国际酒店","lon":"121.764924899","lat":"31.0416936221","category":"500","category_name":"未知分类","address":"浦东新区惠南镇城南路630号"},{"poiid":"B2094757D069A3FE4799","title":"麦当劳 城东路店 McDonald's","lon":"121.7640120153","lat":"31.053221981636","category":"68","category_name":"快餐厅","address":"浦东新区惠南镇城东路378-392号(川南奉公路拱极路)"},{"poiid":"B2094757DB6DA5F8409A","title":"上海景悦国际航空酒店","lon":"121.763918102","lat":"31.053370571","category":"214","category_name":"四星级宾馆","address":"浦东新区惠南镇拱极路2875-2883号"},{"poiid":"B2094757D469A0FB439E","title":"肯德基 人民东路店 KFC","lon":"121.768935054","lat":"31.049392793","category":"68","category_name":"快餐厅","address":"浦东新区惠南镇人民东路2635弄152-158号(富客斯豪布斯卡名品村外街)"},{"poiid":"B2094757D068ABF8409D","title":"世纪联华(南汇店)","lon":"121.76421","lat":"31.05314","category":"118","category_name":"超级市场","address":"上海近郊南汇区惠南镇环城东路388号  "},{"poiid":"B2094757D069A7FD4398","title":"古钟园","lon":"121.7631","lat":"31.05383","category":"196","category_name":"公园","address":"卫星西路11号"},{"poiid":"B2094757D16FA1F8479D","title":"Jepson Bread(人民东路店)","lon":"121.76240236","lat":"31.04960435","category":"67","category_name":"甜品店","address":"浦东新区人民东路2970-2974号(川南奉公路人民东路)"},{"poiid":"B2094757D069A5F54899","title":"南汇汽车站","lon":"121.76306149","lat":"31.047051894","category":"35","category_name":"长途汽车站","address":"上海浦东新区惠南镇(近东门大街)"},{"poiid":"B2094757D16DAAFA4493","title":"DQ冰雪皇后(惠南店)","lon":"121.7598114","lat":"31.045957565","category":"113","category_name":"冷饮店","address":"浦东新区惠南镇东门大街200号浦东商场"},{"poiid":"B2094757D66BABF54692","title":"周记烤吧","lon":"121.764265054","lat":"31.049648793","category":"68","category_name":"快餐厅","address":"浦东新区惠南镇人民东路(近川南奉公路)"},{"poiid":"B2094757D064ABF4409B","title":"爵鼎鸡(人民东路店)","lon":"121.76209021","lat":"31.049771779","category":"68","category_name":"快餐厅","address":"浦东新区惠南镇人民东路2831-2855号"},{"poiid":"B2094751D26BA0FE449A","title":"侬好蛙","lon":"121.769089","lat":"31.049286","category":"500","category_name":"未知分类","address":null},{"poiid":"B2094757D064ABFA4893","title":"欢歌量贩式KTV","lon":"121.75849029","lat":"31.045838816","category":"170","category_name":"KTV","address":"浦东新区人民东路2635弄115号(近靖海路)"},{"poiid":"B2094757D06BA4F44798","title":"重庆德庄火锅(惠南店)","lon":"121.77014126","lat":"31.049291943","category":"86","category_name":"火锅店","address":"浦东新区人民东路2657-2659号(靖海路人民东路)"},{"poiid":"B2094757D16EA7FB4892","title":"四海游龙(南汇店)","lon":"121.76300048","lat":"31.049600601","category":"68","category_name":"快餐厅","address":"上海近郊南汇区惠南镇城东路745号(隆顺堂大药房对面)  "},{"poiid":"B2094757D16CA0FC429E","title":"向南阁(惠南镇店)","lon":"121.76949395","lat":"31.049798215","category":"76","category_name":"上海菜","address":"浦东新区惠南镇人民东路2645-2647号(近靖海路)"},{"poiid":"B2094757D065A3FD429D","title":"迪亚士(惠南店)","lon":"121.767226899","lat":"31.0425406414","category":"247","category_name":"餐饮美食","address":"浦东新区南汇区惠南镇东门大街200号(近南汇步行街)"},{"poiid":"B2094752D76CABFA439C","title":"海上歌友","lon":"121.7616057","lat":"31.04935","category":"170","category_name":"KTV","address":"惠南镇南祝路252号"},{"poiid":"B2094654DB6FA5F9479C","title":"上海市浦东新区国家税务局稽查局","lon":"121.76492","lat":"31.04982","category":"250","category_name":"公园户外","address":"人民东路2686"},{"poiid":"B2094654DB6FA6F44693","title":"苏宁电器(东门大街)","lon":"121.76293","lat":"31.04663","category":"138","category_name":"家电电子卖场","address":"浦东新区惠南东门大街12弄1-2楼(近城东路)"},{"poiid":"B2094757DA6BAAFE4798","title":"鼎城丽景苑","lon":"121.76364","lat":"31.047981","category":"47","category_name":"住宅区","address":"浦东新区城南路555弄"},{"poiid":"B2094655D26FA2FA409B","title":"茶风暴(城东路店)","lon":"121.763","lat":"31.04691","category":"113","category_name":"冷饮店","address":"浦东新区惠南镇城东路609号(南汇汽车站对面)"},{"poiid":"B2094757D168A4F9409C","title":"屈臣氏(南汇店)","lon":"121.762938399","lat":"31.047260349","category":"117","category_name":"便民商店/便利店","address":"浦东新区人民路步行街(近南汇汽车站)"},{"poiid":"B2094655D26BA1FF4998","title":"南汇东门","lon":"121.76324","lat":"31.04698","category":"38","category_name":"公交车站","address":""},{"poiid":"B2094757D064AAFC4599","title":"四平路新港路","lon":"121.763476","lat":"31.047207","category":"38","category_name":"公交车站","address":"上海14路车站"},{"poiid":"B2094654DB6FA5FA4098","title":"爵鼎火锅城南汇店","lon":"121.76424","lat":"31.04919","category":"86","category_name":"火锅店","address":"浦东新区惠南镇人民东路2854号"},{"poiid":"B2094757D065AAFB429F","title":"元子韩国料理","lon":"121.76894","lat":"31.04865","category":"96","category_name":"韩国料理","address":"浦东新区人民东路2635弄富客斯豪布斯卡名品村150号"},{"poiid":"B2094655D36CA5FE4398","title":"川南奉公路人民路","lon":"121.76285","lat":"31.05016","category":"38","category_name":"公交车站","address":""},{"poiid":"B2094654DB6FA5F8469E","title":"避风塘(城东路)","lon":"121.76358","lat":"31.04655","category":"111","category_name":"休闲餐饮场所","address":"城东路"},{"poiid":"B2094655D268A0F4419A","title":"永和豆浆(观海小区东南)","lon":"121.76244","lat":"31.04667","category":"68","category_name":"快餐厅","address":""},{"poiid":"B2094654DB6FA6F4489A","title":"观海商场","lon":"121.76208","lat":"31.04682","category":"119","category_name":"商场","address":"惠南镇"},{"poiid":"B2094757D16BA6F8419D","title":"永和豆浆(三角路店)","lon":"121.76141626","lat":"31.049261443","category":"247","category_name":"餐饮美食","address":"上海近郊南汇区惠南镇三角街88号  "},{"poiid":"B2094757D16AA7F5429D","title":"人民东路城东路(川南奉公路)站(公交沪南线,龙临线,龙芦线,南南线,南闵线,三港线,张南线)","lon":"121.76467","lat":"31.049528","category":"38","category_name":"公交车站","address":"上海市浦东新区人民东路城东路(川南奉公路)"},{"poiid":"B2094752D768A1FD439D","title":"歌友KTV","lon":"121.763118","lat":"31.048838","category":"170","category_name":"KTV","address":null},{"poiid":"B2094655D265A1FB489D","title":"多普达苏宁","lon":"121.7628","lat":"31.04671","category":"138","category_name":"家电电子卖场","address":"惠南镇东门大街12号"},{"poiid":"B2094655D26BA1FF499C","title":"南汇","lon":"121.76326","lat":"31.0451","category":"38","category_name":"公交车站","address":""},{"poiid":"B2094655D268A6FE4099","title":"日月伴鸡面馆东门店","lon":"121.76404","lat":"31.04553","category":"257","category_name":"中餐厅","address":""},{"poiid":"B2094757DA65A5F5489A","title":"汉庭快捷酒店（上海惠南中心店）","lon":"121.768898964","lat":"31.048418653","category":"216","category_name":"经济型连锁酒店","address":"惠南镇人民东路2635弄105号(近靖海路路口)"},{"poiid":"B2094654DB6FA6F5449A","title":"重庆鸡公煲连锁店南汇店","lon":"121.76271","lat":"31.04872","category":"71","category_name":"四川菜","address":"城东路705"},{"poiid":"B2094655D268A1F4449E","title":"观海小区(东门)","lon":"121.76241","lat":"31.04685","category":"47","category_name":"住宅区","address":"三角街82弄1-2号"},{"poiid":"B2094757D568A7FA4692","title":"全家便利店(人民东路)","lon":"121.76272488","lat":"31.04914741","category":"117","category_name":"便民商店/便利店","address":"浦东新区人民东路2981-2983号"},{"poiid":"B2094654DB6FA5F8409B","title":"荡湾新村(荡湾新村)","lon":"121.76465","lat":"31.04383","category":"47","category_name":"住宅区","address":"荡湾新村48号"},{"poiid":"B2094757D16EAAFD449B","title":"牛哥火锅","lon":"121.76344","lat":"31.04272","category":"86","category_name":"火锅店","address":"浦东新区惠南镇城东路23号(川南奉公路卫星东路)"},{"poiid":"B2094757D064A3FC449C","title":"欢歌KTV","lon":"121.768805588","lat":"31.0484797909","category":"170","category_name":"KTV","address":"上海人民东路"},{"poiid":"B2094757D068A1F4409A","title":"避风塘(南汇店)","lon":"121.76907","lat":"31.04929","category":"72","category_name":"广东菜","address":"浦东新区惠南镇人民东路2635号富客斯豪布斯卡名品村1楼(靖海路人民东路)"},{"poiid":"B2094757D06FABFA4699","title":"惠南镇","lon":"121.761358","lat":"31.041516","category":"260","category_name":"其他","address":"上海市浦东新区惠南镇"},{"poiid":"B2094757D06BA3FC419F","title":"南汇东门车站","lon":"121.763233899","lat":"31.046604734","category":"500","category_name":"未知分类","address":"上海南汇东门车站"},{"poiid":"B2094757D06AA1FE449B","title":"清风人家(惠南店)","lon":"121.765126356","lat":"31.049164942","category":"260","category_name":"其他","address":"浦东新区惠南镇人民东路2815号(近南祝路)"},{"poiid":"B2094654DB64A0FB4392","title":"光明中医医院","lon":"121.76241","lat":"31.04623","category":"162","category_name":"医院","address":"浦东新区南汇县东门大街339号"},{"poiid":"B2094757D069A4F84093","title":"浦东商场(南汇店)","lon":"121.76029","lat":"31.04643","category":"119","category_name":"商场","address":"浦东新区东门大街200号(近川南奉公路)"},{"poiid":"B2094757D16EABF54499","title":"莎海国际酒店","lon":"121.764924899","lat":"31.0416936221","category":"500","category_name":"未知分类","address":"浦东新区惠南镇城南路630号"},{"poiid":"B2094757D069A3FE4799","title":"麦当劳 城东路店 McDonald's","lon":"121.7640120153","lat":"31.053221981636","category":"68","category_name":"快餐厅","address":"浦东新区惠南镇城东路378-392号(川南奉公路拱极路)"},{"poiid":"B2094757DB6DA5F8409A","title":"上海景悦国际航空酒店","lon":"121.763918102","lat":"31.053370571","category":"214","category_name":"四星级宾馆","address":"浦东新区惠南镇拱极路2875-2883号"},{"poiid":"B2094757D469A0FB439E","title":"肯德基 人民东路店 KFC","lon":"121.768935054","lat":"31.049392793","category":"68","category_name":"快餐厅","address":"浦东新区惠南镇人民东路2635弄152-158号(富客斯豪布斯卡名品村外街)"},{"poiid":"B2094757D068ABF8409D","title":"世纪联华(南汇店)","lon":"121.76421","lat":"31.05314","category":"118","category_name":"超级市场","address":"上海近郊南汇区惠南镇环城东路388号  "},{"poiid":"B2094757D069A7FD4398","title":"古钟园","lon":"121.7631","lat":"31.05383","category":"196","category_name":"公园","address":"卫星西路11号"},{"poiid":"B2094757D16FA1F8479D","title":"Jepson Bread(人民东路店)","lon":"121.76240236","lat":"31.04960435","category":"67","category_name":"甜品店","address":"浦东新区人民东路2970-2974号(川南奉公路人民东路)"},{"poiid":"B2094757D069A5F54899","title":"南汇汽车站","lon":"121.76306149","lat":"31.047051894","category":"35","category_name":"长途汽车站","address":"上海浦东新区惠南镇(近东门大街)"},{"poiid":"B2094757D16DAAFA4493","title":"DQ冰雪皇后(惠南店)","lon":"121.7598114","lat":"31.045957565","category":"113","category_name":"冷饮店","address":"浦东新区惠南镇东门大街200号浦东商场"},{"poiid":"B2094757D66BABF54692","title":"周记烤吧","lon":"121.764265054","lat":"31.049648793","category":"68","category_name":"快餐厅","address":"浦东新区惠南镇人民东路(近川南奉公路)"},{"poiid":"B2094757D064ABF4409B","title":"爵鼎鸡(人民东路店)","lon":"121.76209021","lat":"31.049771779","category":"68","category_name":"快餐厅","address":"浦东新区惠南镇人民东路2831-2855号"},{"poiid":"B2094751D26BA0FE449A","title":"侬好蛙","lon":"121.769089","lat":"31.049286","category":"500","category_name":"未知分类","address":null},{"poiid":"B2094757D064ABFA4893","title":"欢歌量贩式KTV","lon":"121.75849029","lat":"31.045838816","category":"170","category_name":"KTV","address":"浦东新区人民东路2635弄115号(近靖海路)"},{"poiid":"B2094757D06BA4F44798","title":"重庆德庄火锅(惠南店)","lon":"121.77014126","lat":"31.049291943","category":"86","category_name":"火锅店","address":"浦东新区人民东路2657-2659号(靖海路人民东路)"},{"poiid":"B2094757D16EA7FB4892","title":"四海游龙(南汇店)","lon":"121.76300048","lat":"31.049600601","category":"68","category_name":"快餐厅","address":"上海近郊南汇区惠南镇城东路745号(隆顺堂大药房对面)  "},{"poiid":"B2094757D16CA0FC429E","title":"向南阁(惠南镇店)","lon":"121.76949395","lat":"31.049798215","category":"76","category_name":"上海菜","address":"浦东新区惠南镇人民东路2645-2647号(近靖海路)"},{"poiid":"B2094757D065A3FD429D","title":"迪亚士(惠南店)","lon":"121.767226899","lat":"31.0425406414","category":"247","category_name":"餐饮美食","address":"浦东新区南汇区惠南镇东门大街200号(近南汇步行街)"},{"poiid":"B2094752D76CABFA439C","title":"海上歌友","lon":"121.7616057","lat":"31.04935","category":"170","category_name":"KTV","address":"惠南镇南祝路252号"},{"poiid":"B2094654DB6FA5F9479C","title":"上海市浦东新区国家税务局稽查局","lon":"121.76492","lat":"31.04982","category":"250","category_name":"公园户外","address":"人民东路2686"},{"poiid":"B2094654DB6FA6F44693","title":"苏宁电器(东门大街)","lon":"121.76293","lat":"31.04663","category":"138","category_name":"家电电子卖场","address":"浦东新区惠南东门大街12弄1-2楼(近城东路)"},{"poiid":"B2094757DA6BAAFE4798","title":"鼎城丽景苑","lon":"121.76364","lat":"31.047981","category":"47","category_name":"住宅区","address":"浦东新区城南路555弄"},{"poiid":"B2094655D26FA2FA409B","title":"茶风暴(城东路店)","lon":"121.763","lat":"31.04691","category":"113","category_name":"冷饮店","address":"浦东新区惠南镇城东路609号(南汇汽车站对面)"},{"poiid":"B2094757D168A4F9409C","title":"屈臣氏(南汇店)","lon":"121.762938399","lat":"31.047260349","category":"117","category_name":"便民商店/便利店","address":"浦东新区人民路步行街(近南汇汽车站)"},{"poiid":"B2094655D26BA1FF4998","title":"南汇东门","lon":"121.76324","lat":"31.04698","category":"38","category_name":"公交车站","address":""},{"poiid":"B2094757D064AAFC4599","title":"四平路新港路","lon":"121.763476","lat":"31.047207","category":"38","category_name":"公交车站","address":"上海14路车站"},{"poiid":"B2094654DB6FA5FA4098","title":"爵鼎火锅城南汇店","lon":"121.76424","lat":"31.04919","category":"86","category_name":"火锅店","address":"浦东新区惠南镇人民东路2854号"},{"poiid":"B2094757D065AAFB429F","title":"元子韩国料理","lon":"121.76894","lat":"31.04865","category":"96","category_name":"韩国料理","address":"浦东新区人民东路2635弄富客斯豪布斯卡名品村150号"},{"poiid":"B2094655D36CA5FE4398","title":"川南奉公路人民路","lon":"121.76285","lat":"31.05016","category":"38","category_name":"公交车站","address":""},{"poiid":"B2094654DB6FA5F8469E","title":"避风塘(城东路)","lon":"121.76358","lat":"31.04655","category":"111","category_name":"休闲餐饮场所","address":"城东路"},{"poiid":"B2094655D268A0F4419A","title":"永和豆浆(观海小区东南)","lon":"121.76244","lat":"31.04667","category":"68","category_name":"快餐厅","address":""},{"poiid":"B2094654DB6FA6F4489A","title":"观海商场","lon":"121.76208","lat":"31.04682","category":"119","category_name":"商场","address":"惠南镇"},{"poiid":"B2094757D16BA6F8419D","title":"永和豆浆(三角路店)","lon":"121.76141626","lat":"31.049261443","category":"247","category_name":"餐饮美食","address":"上海近郊南汇区惠南镇三角街88号  "},{"poiid":"B2094757D16AA7F5429D","title":"人民东路城东路(川南奉公路)站(公交沪南线,龙临线,龙芦线,南南线,南闵线,三港线,张南线)","lon":"121.76467","lat":"31.049528","category":"38","category_name":"公交车站","address":"上海市浦东新区人民东路城东路(川南奉公路)"},{"poiid":"B2094752D768A1FD439D","title":"歌友KTV","lon":"121.763118","lat":"31.048838","category":"170","category_name":"KTV","address":null},{"poiid":"B2094655D265A1FB489D","title":"多普达苏宁","lon":"121.7628","lat":"31.04671","category":"138","category_name":"家电电子卖场","address":"惠南镇东门大街12号"},{"poiid":"B2094655D26BA1FF499C","title":"南汇","lon":"121.76326","lat":"31.0451","category":"38","category_name":"公交车站","address":""},{"poiid":"B2094655D268A6FE4099","title":"日月伴鸡面馆东门店","lon":"121.76404","lat":"31.04553","category":"257","category_name":"中餐厅","address":""},{"poiid":"B2094757DA65A5F5489A","title":"汉庭快捷酒店（上海惠南中心店）","lon":"121.768898964","lat":"31.048418653","category":"216","category_name":"经济型连锁酒店","address":"惠南镇人民东路2635弄105号(近靖海路路口)"},{"poiid":"B2094654DB6FA6F5449A","title":"重庆鸡公煲连锁店南汇店","lon":"121.76271","lat":"31.04872","category":"71","category_name":"四川菜","address":"城东路705"},{"poiid":"B2094655D268A1F4449E","title":"观海小区(东门)","lon":"121.76241","lat":"31.04685","category":"47","category_name":"住宅区","address":"三角街82弄1-2号"},{"poiid":"B2094757D568A7FA4692","title":"全家便利店(人民东路)","lon":"121.76272488","lat":"31.04914741","category":"117","category_name":"便民商店/便利店","address":"浦东新区人民东路2981-2983号"},{"poiid":"B2094654DB6FA5F8409B","title":"荡湾新村(荡湾新村)","lon":"121.76465","lat":"31.04383","category":"47","category_name":"住宅区","address":"荡湾新村48号"},{"poiid":"B2094757D16EAAFD449B","title":"牛哥火锅","lon":"121.76344","lat":"31.04272","category":"86","category_name":"火锅店","address":"浦东新区惠南镇城东路23号(川南奉公路卫星东路)"},{"poiid":"B2094757D064A3FC449C","title":"欢歌KTV","lon":"121.768805588","lat":"31.0484797909","category":"170","category_name":"KTV","address":"上海人民东路"},{"poiid":"B2094757D068A1F4409A","title":"避风塘(南汇店)","lon":"121.76907","lat":"31.04929","category":"72","category_name":"广东菜","address":"浦东新区惠南镇人民东路2635号富客斯豪布斯卡名品村1楼(靖海路人民东路)"},{"poiid":"B2094757D06FABFA4699","title":"惠南镇","lon":"121.761358","lat":"31.041516","category":"260","category_name":"其他","address":"上海市浦东新区惠南镇"},{"poiid":"B2094757D06BA3FC419F","title":"南汇东门车站","lon":"121.763233899","lat":"31.046604734","category":"500","category_name":"未知分类","address":"上海南汇东门车站"},{"poiid":"B2094757D06AA1FE449B","title":"清风人家(惠南店)","lon":"121.765126356","lat":"31.049164942","category":"260","category_name":"其他","address":"浦东新区惠南镇人民东路2815号(近南祝路)"},{"poiid":"B2094654DB64A0FB4392","title":"光明中医医院","lon":"121.76241","lat":"31.04623","category":"162","category_name":"医院","address":"浦东新区南汇县东门大街339号"},{"poiid":"B2094757D069A4F84093","title":"浦东商场(南汇店)","lon":"121.76029","lat":"31.04643","category":"119","category_name":"商场","address":"浦东新区东门大街200号(近川南奉公路)"},{"poiid":"B2094757D16EABF54499","title":"莎海国际酒店","lon":"121.764924899","lat":"31.0416936221","category":"500","category_name":"未知分类","address":"浦东新区惠南镇城南路630号"},{"poiid":"B2094757D069A3FE4799","title":"麦当劳 城东路店 McDonald's","lon":"121.7640120153","lat":"31.053221981636","category":"68","category_name":"快餐厅","address":"浦东新区惠南镇城东路378-392号(川南奉公路拱极路)"},{"poiid":"B2094757DB6DA5F8409A","title":"上海景悦国际航空酒店","lon":"121.763918102","lat":"31.053370571","category":"214","category_name":"四星级宾馆","address":"浦东新区惠南镇拱极路2875-2883号"},{"poiid":"B2094757D469A0FB439E","title":"肯德基 人民东路店 KFC","lon":"121.768935054","lat":"31.049392793","category":"68","category_name":"快餐厅","address":"浦东新区惠南镇人民东路2635弄152-158号(富客斯豪布斯卡名品村外街)"},{"poiid":"B2094757D068ABF8409D","title":"世纪联华(南汇店)","lon":"121.76421","lat":"31.05314","category":"118","category_name":"超级市场","address":"上海近郊南汇区惠南镇环城东路388号  "},{"poiid":"B2094757D069A7FD4398","title":"古钟园","lon":"121.7631","lat":"31.05383","category":"196","category_name":"公园","address":"卫星西路11号"},{"poiid":"B2094757D16FA1F8479D","title":"Jepson Bread(人民东路店)","lon":"121.76240236","lat":"31.04960435","category":"67","category_name":"甜品店","address":"浦东新区人民东路2970-2974号(川南奉公路人民东路)"},{"poiid":"B2094757D069A5F54899","title":"南汇汽车站","lon":"121.76306149","lat":"31.047051894","category":"35","category_name":"长途汽车站","address":"上海浦东新区惠南镇(近东门大街)"},{"poiid":"B2094757D16DAAFA4493","title":"DQ冰雪皇后(惠南店)","lon":"121.7598114","lat":"31.045957565","category":"113","category_name":"冷饮店","address":"浦东新区惠南镇东门大街200号浦东商场"},{"poiid":"B2094757D66BABF54692","title":"周记烤吧","lon":"121.764265054","lat":"31.049648793","category":"68","category_name":"快餐厅","address":"浦东新区惠南镇人民东路(近川南奉公路)"},{"poiid":"B2094757D064ABF4409B","title":"爵鼎鸡(人民东路店)","lon":"121.76209021","lat":"31.049771779","category":"68","category_name":"快餐厅","address":"浦东新区惠南镇人民东路2831-2855号"},{"poiid":"B2094751D26BA0FE449A","title":"侬好蛙","lon":"121.769089","lat":"31.049286","category":"500","category_name":"未知分类","address":null},{"poiid":"B2094757D064ABFA4893","title":"欢歌量贩式KTV","lon":"121.75849029","lat":"31.045838816","category":"170","category_name":"KTV","address":"浦东新区人民东路2635弄115号(近靖海路)"},{"poiid":"B2094757D06BA4F44798","title":"重庆德庄火锅(惠南店)","lon":"121.77014126","lat":"31.049291943","category":"86","category_name":"火锅店","address":"浦东新区人民东路2657-2659号(靖海路人民东路)"},{"poiid":"B2094757D16EA7FB4892","title":"四海游龙(南汇店)","lon":"121.76300048","lat":"31.049600601","category":"68","category_name":"快餐厅","address":"上海近郊南汇区惠南镇城东路745号(隆顺堂大药房对面)  "},{"poiid":"B2094757D16CA0FC429E","title":"向南阁(惠南镇店)","lon":"121.76949395","lat":"31.049798215","category":"76","category_name":"上海菜","address":"浦东新区惠南镇人民东路2645-2647号(近靖海路)"},{"poiid":"B2094757D065A3FD429D","title":"迪亚士(惠南店)","lon":"121.767226899","lat":"31.0425406414","category":"247","category_name":"餐饮美食","address":"浦东新区南汇区惠南镇东门大街200号(近南汇步行街)"},{"poiid":"B2094752D76CABFA439C","title":"海上歌友","lon":"121.7616057","lat":"31.04935","category":"170","category_name":"KTV","address":"惠南镇南祝路252号"},{"poiid":"B2094654DB6FA5F9479C","title":"上海市浦东新区国家税务局稽查局","lon":"121.76492","lat":"31.04982","category":"250","category_name":"公园户外","address":"人民东路2686"},{"poiid":"B2094654DB6FA6F44693","title":"苏宁电器(东门大街)","lon":"121.76293","lat":"31.04663","category":"138","category_name":"家电电子卖场","address":"浦东新区惠南东门大街12弄1-2楼(近城东路)"},{"poiid":"B2094757DA6BAAFE4798","title":"鼎城丽景苑","lon":"121.76364","lat":"31.047981","category":"47","category_name":"住宅区","address":"浦东新区城南路555弄"},{"poiid":"B2094655D26FA2FA409B","title":"茶风暴(城东路店)","lon":"121.763","lat":"31.04691","category":"113","category_name":"冷饮店","address":"浦东新区惠南镇城东路609号(南汇汽车站对面)"},{"poiid":"B2094757D168A4F9409C","title":"屈臣氏(南汇店)","lon":"121.762938399","lat":"31.047260349","category":"117","category_name":"便民商店/便利店","address":"浦东新区人民路步行街(近南汇汽车站)"},{"poiid":"B2094655D26BA1FF4998","title":"南汇东门","lon":"121.76324","lat":"31.04698","category":"38","category_name":"公交车站","address":""},{"poiid":"B2094757D064AAFC4599","title":"四平路新港路","lon":"121.763476","lat":"31.047207","category":"38","category_name":"公交车站","address":"上海14路车站"},{"poiid":"B2094654DB6FA5FA4098","title":"爵鼎火锅城南汇店","lon":"121.76424","lat":"31.04919","category":"86","category_name":"火锅店","address":"浦东新区惠南镇人民东路2854号"},{"poiid":"B2094757D065AAFB429F","title":"元子韩国料理","lon":"121.76894","lat":"31.04865","category":"96","category_name":"韩国料理","address":"浦东新区人民东路2635弄富客斯豪布斯卡名品村150号"},{"poiid":"B2094655D36CA5FE4398","title":"川南奉公路人民路","lon":"121.76285","lat":"31.05016","category":"38","category_name":"公交车站","address":""},{"poiid":"B2094654DB6FA5F8469E","title":"避风塘(城东路)","lon":"121.76358","lat":"31.04655","category":"111","category_name":"休闲餐饮场所","address":"城东路"},{"poiid":"B2094655D268A0F4419A","title":"永和豆浆(观海小区东南)","lon":"121.76244","lat":"31.04667","category":"68","category_name":"快餐厅","address":""},{"poiid":"B2094654DB6FA6F4489A","title":"观海商场","lon":"121.76208","lat":"31.04682","category":"119","category_name":"商场","address":"惠南镇"},{"poiid":"B2094757D16BA6F8419D","title":"永和豆浆(三角路店)","lon":"121.76141626","lat":"31.049261443","category":"247","category_name":"餐饮美食","address":"上海近郊南汇区惠南镇三角街88号  "},{"poiid":"B2094757D16AA7F5429D","title":"人民东路城东路(川南奉公路)站(公交沪南线,龙临线,龙芦线,南南线,南闵线,三港线,张南线)","lon":"121.76467","lat":"31.049528","category":"38","category_name":"公交车站","address":"上海市浦东新区人民东路城东路(川南奉公路)"},{"poiid":"B2094752D768A1FD439D","title":"歌友KTV","lon":"121.763118","lat":"31.048838","category":"170","category_name":"KTV","address":null},{"poiid":"B2094655D265A1FB489D","title":"多普达苏宁","lon":"121.7628","lat":"31.04671","category":"138","category_name":"家电电子卖场","address":"惠南镇东门大街12号"},{"poiid":"B2094655D26BA1FF499C","title":"南汇","lon":"121.76326","lat":"31.0451","category":"38","category_name":"公交车站","address":""},{"poiid":"B2094655D268A6FE4099","title":"日月伴鸡面馆东门店","lon":"121.76404","lat":"31.04553","category":"257","category_name":"中餐厅","address":""},{"poiid":"B2094757DA65A5F5489A","title":"汉庭快捷酒店（上海惠南中心店）","lon":"121.768898964","lat":"31.048418653","category":"216","category_name":"经济型连锁酒店","address":"惠南镇人民东路2635弄105号(近靖海路路口)"},{"poiid":"B2094654DB6FA6F5449A","title":"重庆鸡公煲连锁店南汇店","lon":"121.76271","lat":"31.04872","category":"71","category_name":"四川菜","address":"城东路705"},{"poiid":"B2094655D268A1F4449E","title":"观海小区(东门)","lon":"121.76241","lat":"31.04685","category":"47","category_name":"住宅区","address":"三角街82弄1-2号"},{"poiid":"B2094757D568A7FA4692","title":"全家便利店(人民东路)","lon":"121.76272488","lat":"31.04914741","category":"117","category_name":"便民商店/便利店","address":"浦东新区人民东路2981-2983号"},{"poiid":"B2094654DB6FA5F8409B","title":"荡湾新村(荡湾新村)","lon":"121.76465","lat":"31.04383","category":"47","category_name":"住宅区","address":"荡湾新村48号"},{"poiid":"B2094757D16EAAFD449B","title":"牛哥火锅","lon":"121.76344","lat":"31.04272","category":"86","category_name":"火锅店","address":"浦东新区惠南镇城东路23号(川南奉公路卫星东路)"},{"poiid":"B2094757D064A3FC449C","title":"欢歌KTV","lon":"121.768805588","lat":"31.0484797909","category":"170","category_name":"KTV","address":"上海人民东路"},{"poiid":"B2094757D068A1F4409A","title":"避风塘(南汇店)","lon":"121.76907","lat":"31.04929","category":"72","category_name":"广东菜","address":"浦东新区惠南镇人民东路2635号富客斯豪布斯卡名品村1楼(靖海路人民东路)"},{"poiid":"B2094757D06FABFA4699","title":"惠南镇","lon":"121.761358","lat":"31.041516","category":"260","category_name":"其他","address":"上海市浦东新区惠南镇"},{"poiid":"B2094757D06BA3FC419F","title":"南汇东门车站","lon":"121.763233899","lat":"31.046604734","category":"500","category_name":"未知分类","address":"上海南汇东门车站"},{"poiid":"B2094757D06AA1FE449B","title":"清风人家(惠南店)","lon":"121.765126356","lat":"31.049164942","category":"260","category_name":"其他","address":"浦东新区惠南镇人民东路2815号(近南祝路)"},{"poiid":"B2094654DB64A0FB4392","title":"光明中医医院","lon":"121.76241","lat":"31.04623","category":"162","category_name":"医院","address":"浦东新区南汇县东门大街339号"},{"poiid":"B2094757D069A4F84093","title":"浦东商场(南汇店)","lon":"121.76029","lat":"31.04643","category":"119","category_name":"商场","address":"浦东新区东门大街200号(近川南奉公路)"},{"poiid":"B2094757D16EABF54499","title":"莎海国际酒店","lon":"121.764924899","lat":"31.0416936221","category":"500","category_name":"未知分类","address":"浦东新区惠南镇城南路630号"},{"poiid":"B2094757D069A3FE4799","title":"麦当劳 城东路店 McDonald's","lon":"121.7640120153","lat":"31.053221981636","category":"68","category_name":"快餐厅","address":"浦东新区惠南镇城东路378-392号(川南奉公路拱极路)"},{"poiid":"B2094757DB6DA5F8409A","title":"上海景悦国际航空酒店","lon":"121.763918102","lat":"31.053370571","category":"214","category_name":"四星级宾馆","address":"浦东新区惠南镇拱极路2875-2883号"},{"poiid":"B2094757D469A0FB439E","title":"肯德基 人民东路店 KFC","lon":"121.768935054","lat":"31.049392793","category":"68","category_name":"快餐厅","address":"浦东新区惠南镇人民东路2635弄152-158号(富客斯豪布斯卡名品村外街)"},{"poiid":"B2094757D068ABF8409D","title":"世纪联华(南汇店)","lon":"121.76421","lat":"31.05314","category":"118","category_name":"超级市场","address":"上海近郊南汇区惠南镇环城东路388号  "},{"poiid":"B2094757D069A7FD4398","title":"古钟园","lon":"121.7631","lat":"31.05383","category":"196","category_name":"公园","address":"卫星西路11号"},{"poiid":"B2094757D16FA1F8479D","title":"Jepson Bread(人民东路店)","lon":"121.76240236","lat":"31.04960435","category":"67","category_name":"甜品店","address":"浦东新区人民东路2970-2974号(川南奉公路人民东路)"},{"poiid":"B2094757D069A5F54899","title":"南汇汽车站","lon":"121.76306149","lat":"31.047051894","category":"35","category_name":"长途汽车站","address":"上海浦东新区惠南镇(近东门大街)"},{"poiid":"B2094757D16DAAFA4493","title":"DQ冰雪皇后(惠南店)","lon":"121.7598114","lat":"31.045957565","category":"113","category_name":"冷饮店","address":"浦东新区惠南镇东门大街200号浦东商场"},{"poiid":"B2094757D66BABF54692","title":"周记烤吧","lon":"121.764265054","lat":"31.049648793","category":"68","category_name":"快餐厅","address":"浦东新区惠南镇人民东路(近川南奉公路)"},{"poiid":"B2094757D064ABF4409B","title":"爵鼎鸡(人民东路店)","lon":"121.76209021","lat":"31.049771779","category":"68","category_name":"快餐厅","address":"浦东新区惠南镇人民东路2831-2855号"},{"poiid":"B2094751D26BA0FE449A","title":"侬好蛙","lon":"121.769089","lat":"31.049286","category":"500","category_name":"未知分类","address":null},{"poiid":"B2094757D064ABFA4893","title":"欢歌量贩式KTV","lon":"121.75849029","lat":"31.045838816","category":"170","category_name":"KTV","address":"浦东新区人民东路2635弄115号(近靖海路)"},{"poiid":"B2094757D06BA4F44798","title":"重庆德庄火锅(惠南店)","lon":"121.77014126","lat":"31.049291943","category":"86","category_name":"火锅店","address":"浦东新区人民东路2657-2659号(靖海路人民东路)"},{"poiid":"B2094757D16EA7FB4892","title":"四海游龙(南汇店)","lon":"121.76300048","lat":"31.049600601","category":"68","category_name":"快餐厅","address":"上海近郊南汇区惠南镇城东路745号(隆顺堂大药房对面)  "},{"poiid":"B2094757D16CA0FC429E","title":"向南阁(惠南镇店)","lon":"121.76949395","lat":"31.049798215","category":"76","category_name":"上海菜","address":"浦东新区惠南镇人民东路2645-2647号(近靖海路)"},{"poiid":"B2094757D065A3FD429D","title":"迪亚士(惠南店)","lon":"121.767226899","lat":"31.0425406414","category":"247","category_name":"餐饮美食","address":"浦东新区南汇区惠南镇东门大街200号(近南汇步行街)"},{"poiid":"B2094752D76CABFA439C","title":"海上歌友","lon":"121.7616057","lat":"31.04935","category":"170","category_name":"KTV","address":"惠南镇南祝路252号"},{"poiid":"B2094654DB6FA5F9479C","title":"上海市浦东新区国家税务局稽查局","lon":"121.76492","lat":"31.04982","category":"250","category_name":"公园户外","address":"人民东路2686"},{"poiid":"B2094654DB6FA6F44693","title":"苏宁电器(东门大街)","lon":"121.76293","lat":"31.04663","category":"138","category_name":"家电电子卖场","address":"浦东新区惠南东门大街12弄1-2楼(近城东路)"},{"poiid":"B2094757DA6BAAFE4798","title":"鼎城丽景苑","lon":"121.76364","lat":"31.047981","category":"47","category_name":"住宅区","address":"浦东新区城南路555弄"},{"poiid":"B2094655D26FA2FA409B","title":"茶风暴(城东路店)","lon":"121.763","lat":"31.04691","category":"113","category_name":"冷饮店","address":"浦东新区惠南镇城东路609号(南汇汽车站对面)"},{"poiid":"B2094757D168A4F9409C","title":"屈臣氏(南汇店)","lon":"121.762938399","lat":"31.047260349","category":"117","category_name":"便民商店/便利店","address":"浦东新区人民路步行街(近南汇汽车站)"},{"poiid":"B2094655D26BA1FF4998","title":"南汇东门","lon":"121.76324","lat":"31.04698","category":"38","category_name":"公交车站","address":""},{"poiid":"B2094757D064AAFC4599","title":"四平路新港路","lon":"121.763476","lat":"31.047207","category":"38","category_name":"公交车站","address":"上海14路车站"},{"poiid":"B2094654DB6FA5FA4098","title":"爵鼎火锅城南汇店","lon":"121.76424","lat":"31.04919","category":"86","category_name":"火锅店","address":"浦东新区惠南镇人民东路2854号"},{"poiid":"B2094757D065AAFB429F","title":"元子韩国料理","lon":"121.76894","lat":"31.04865","category":"96","category_name":"韩国料理","address":"浦东新区人民东路2635弄富客斯豪布斯卡名品村150号"},{"poiid":"B2094655D36CA5FE4398","title":"川南奉公路人民路","lon":"121.76285","lat":"31.05016","category":"38","category_name":"公交车站","address":""},{"poiid":"B2094654DB6FA5F8469E","title":"避风塘(城东路)","lon":"121.76358","lat":"31.04655","category":"111","category_name":"休闲餐饮场所","address":"城东路"},{"poiid":"B2094655D268A0F4419A","title":"永和豆浆(观海小区东南)","lon":"121.76244","lat":"31.04667","category":"68","category_name":"快餐厅","address":""},{"poiid":"B2094654DB6FA6F4489A","title":"观海商场","lon":"121.76208","lat":"31.04682","category":"119","category_name":"商场","address":"惠南镇"},{"poiid":"B2094757D16BA6F8419D","title":"永和豆浆(三角路店)","lon":"121.76141626","lat":"31.049261443","category":"247","category_name":"餐饮美食","address":"上海近郊南汇区惠南镇三角街88号  "},{"poiid":"B2094757D16AA7F5429D","title":"人民东路城东路(川南奉公路)站(公交沪南线,龙临线,龙芦线,南南线,南闵线,三港线,张南线)","lon":"121.76467","lat":"31.049528","category":"38","category_name":"公交车站","address":"上海市浦东新区人民东路城东路(川南奉公路)"},{"poiid":"B2094752D768A1FD439D","title":"歌友KTV","lon":"121.763118","lat":"31.048838","category":"170","category_name":"KTV","address":null},{"poiid":"B2094655D265A1FB489D","title":"多普达苏宁","lon":"121.7628","lat":"31.04671","category":"138","category_name":"家电电子卖场","address":"惠南镇东门大街12号"},{"poiid":"B2094655D26BA1FF499C","title":"南汇","lon":"121.76326","lat":"31.0451","category":"38","category_name":"公交车站","address":""},{"poiid":"B2094655D268A6FE4099","title":"日月伴鸡面馆东门店","lon":"121.76404","lat":"31.04553","category":"257","category_name":"中餐厅","address":""},{"poiid":"B2094757DA65A5F5489A","title":"汉庭快捷酒店（上海惠南中心店）","lon":"121.768898964","lat":"31.048418653","category":"216","category_name":"经济型连锁酒店","address":"惠南镇人民东路2635弄105号(近靖海路路口)"},{"poiid":"B2094654DB6FA6F5449A","title":"重庆鸡公煲连锁店南汇店","lon":"121.76271","lat":"31.04872","category":"71","category_name":"四川菜","address":"城东路705"},{"poiid":"B2094655D268A1F4449E","title":"观海小区(东门)","lon":"121.76241","lat":"31.04685","category":"47","category_name":"住宅区","address":"三角街82弄1-2号"},{"poiid":"B2094757D568A7FA4692","title":"全家便利店(人民东路)","lon":"121.76272488","lat":"31.04914741","category":"117","category_name":"便民商店/便利店","address":"浦东新区人民东路2981-2983号"},{"poiid":"B2094654DB6FA5F8409B","title":"荡湾新村(荡湾新村)","lon":"121.76465","lat":"31.04383","category":"47","category_name":"住宅区","address":"荡湾新村48号"},{"poiid":"B2094757D16EAAFD449B","title":"牛哥火锅","lon":"121.76344","lat":"31.04272","category":"86","category_name":"火锅店","address":"浦东新区惠南镇城东路23号(川南奉公路卫星东路)"}]