[{"poiid":"B2094654D56DA7FD499F","title":"岳阳医院(总院)","lon":"121.48828","lat":"31.28916","category":"162","category_name":"医院","address":"虹口区甘河路110号"},{"poiid":"B2094655D26AABFF4298","title":"辛香汇 大柏树店 Spicy-Joint","lon":"121.491127054","lat":"31.291924793","category":"71","category_name":"四川菜","address":"虹口区曲阳路930号大柏树930创意园4楼(近腾克路)"},{"poiid":"B2094654DB6AA6FF4992","title":"上海兰生大酒店","lon":"121.49095","lat":"31.2924","category":"214","category_name":"四星级宾馆","address":"上海市虹口区曲阳路1000号(近邯郸路)"},{"poiid":"B2094654DB6BA3FE449A","title":"岳阳医院(三号门)","lon":"121.48986","lat":"31.28835","category":"162","category_name":"医院","address":"虹口区甘河路110号"},{"poiid":"B2094757D06FA6FE479B","title":"绍兴饭店(柏树店)","lon":"121.48863","lat":"31.29095","category":"75","category_name":"浙江菜","address":"虹口区中山北一路1230号柏树大厦1-2楼(近曲阳路)"},{"poiid":"B2094757D06FA5FE4792","title":"逸仙高架路","lon":"121.48964807","lat":"31.293019455","category":"38","category_name":"公交车站","address":"上海逸仙路纪念路"},{"poiid":"B2094757D06FA1FB459F","title":"85度C(曲阳店)","lon":"121.49135","lat":"31.29053","category":"67","category_name":"甜品店","address":"虹口区曲阳路930号大柏树930创意园A幢101-201室(近腾克路)"},{"poiid":"B2094757D068A4FE4199","title":"君芝莱大酒店(虹口店)","lon":"121.48802484","lat":"31.292613215","category":"76","category_name":"上海菜","address":"虹口区汶水东路29号榕辉大厦3-4楼(近逸仙路)"},{"poiid":"B2094757D068A2FD419A","title":"艾尼巴亿","lon":"121.49073","lat":"31.28714","category":"90","category_name":"清真餐馆","address":"虹口区曲阳路759号天山宾馆1楼(近中山北二路)"},{"poiid":"B2094757D068A7F4449D","title":"竹家庄避风塘","lon":"121.49183672","lat":"31.290959271","category":"72","category_name":"广东菜","address":"虹口区曲阳路930号(近腾克路)"},{"poiid":"B2094655D26AA2FA459B","title":"金海轩城市餐厅","lon":"121.49107","lat":"31.29111","category":"260","category_name":"其他","address":"虹口区曲阳路930号大柏树930创意园1幢2-3楼(近腾克路)"},{"poiid":"B2094757D068A7F44092","title":"味千拉面(大柏树店)","lon":"121.49148","lat":"31.2905","category":"95","category_name":"日本料理","address":"虹口区曲阳路930号大柏树930创意园内(近腾克路)"},{"poiid":"B2094655D269AAF44092","title":"丝绸之路大饭店","lon":"121.49057","lat":"31.28855","category":"247","category_name":"餐饮美食","address":"虹口区曲阳路777号(近中山北二路)"},{"poiid":"B2094750D56FABF4449E","title":"鼎中鼎澳门豆捞(大柏树店)","lon":"121.491","lat":"31.2911","category":"86","category_name":"火锅店","address":"虹口区曲阳路930号大柏树930创意园3楼(近五角场)"},{"poiid":"B2094757D66AABFC4392","title":"阿凡提餐厅 虹口店","lon":"121.49020998538","lat":"31.28792419407","category":"84","category_name":"西北菜","address":"虹口区曲阳路775号天山宾馆B1楼(近中山北二路)"},{"poiid":"B2094757D069A7FD449B","title":"阿拉对面炭烤鱼","lon":"121.492078403","lat":"31.2886284028","category":"257","category_name":"中餐厅","address":"虹口区曲阳路789号(近腾克路)"},{"poiid":"B2094654D56DA7FD4999","title":"上海中医药大学岳阳临床医学院(甘河路)","lon":"121.48828","lat":"31.28916","category":"52","category_name":"高等院校","address":"甘河路110"},{"poiid":"B2094757D068A2F5459B","title":"930创意园","lon":"121.491078","lat":"31.291119","category":"46","category_name":"楼宇","address":"虹口区曲阳路930号大柏树930创意园内"},{"poiid":"B2094757D068A2FF429A","title":"EZ time女仆执事咖啡店","lon":"121.49119459","lat":"31.288734891","category":"65","category_name":"咖啡厅","address":"上海曲阳路838号-3"},{"poiid":"B2094654D56DA6F84793","title":"海建大楼","lon":"121.49","lat":"31.2903","category":"46","category_name":"楼宇","address":"浦东区丁香路716号"},{"poiid":"B2094757DA65A5F44999","title":"汉庭快捷酒店（上海大柏树店）","lon":"121.490356922","lat":"31.290328262","category":"216","category_name":"经济型连锁酒店","address":"虹口区曲阳路930号大柏树930创意园"},{"poiid":"B2094757D065A7F5499A","title":"岳阳医院补液室","lon":"121.487331","lat":"31.28998","category":"162","category_name":"医院","address":"上海虹口区甘河路"},{"poiid":"B2094750D364A3F4489F","title":"盛武肥牛虹口旗舰店微博","lon":"121.4905","lat":"31.29011","category":"86","category_name":"火锅店","address":"虹口区曲阳路789号(近腾克路)"},{"poiid":"B2094654DB6BA3FF409D","title":"805公安大楼","lon":"121.49","lat":"31.2923","category":"47","category_name":"住宅区","address":"中山北一路805号"},{"poiid":"B2094655D36CA5FC4999","title":"大柏树曲阳路","lon":"121.49054","lat":"31.29164","category":"38","category_name":"公交车站","address":""},{"poiid":"B2094757D569A7FC4193","title":"华夏良子","lon":"121.491783","lat":"31.290985","category":"149","category_name":"洗浴推拿场所","address":"虹口区腾克路100号大柏树930创意园2楼(近腾克路)"},{"poiid":"B2094654D56DA7FE4792","title":"巴山蜀水川菜馆","lon":"121.48732","lat":"31.29044","category":"71","category_name":"四川菜","address":"虹口区中山北一路1204号(近甘河路)"},{"poiid":"B2094655D264AAFA4399","title":"桐庐外婆人家","lon":"121.490866054","lat":"31.290082793","category":"76","category_name":"上海菜","address":"虹口区曲阳路789号(近东体育会路)"},{"poiid":"B2094655D26EA5F54493","title":"尧耀沈家门海鲜(大柏树店)","lon":"121.4905","lat":"31.29011","category":"75","category_name":"浙江菜","address":"虹口区曲阳路789号(近中山北二路)"},{"poiid":"B2094751D56BA2FC429D","title":"上海市虹口区民政局婚姻登记处","lon":"121.490429","lat":"31.290217","category":"252","category_name":"楼宇机构","address":"巴林路76号"},{"poiid":"B2094757DB6DA5F9419B","title":"如家快捷酒店（上海大柏树地铁站店）","lon":"121.487017572","lat":"31.289636054","category":"216","category_name":"经济型连锁酒店","address":"上海市虹口区中山北一路1106号"},{"poiid":"B2094757D16EA2F4459B","title":"市局刑侦总队","lon":"121.486758603","lat":"31.2910497535","category":"500","category_name":"未知分类","address":"上海中山北一路803号"},{"poiid":"B2094654DB65A7FB4099","title":"7天连锁酒店(曲阳路店)","lon":"121.49023","lat":"31.289","category":"216","category_name":"经济型连锁酒店","address":"虹口区东体育会路1130号(近曲阳路)"},{"poiid":"B2094757D76CA7F5409A","title":"一碗香拉面馆","lon":"121.48873","lat":"31.29119","category":"68","category_name":"快餐厅","address":"虹口区中山北一路1108号(近大柏树)"},{"poiid":"B2094757D568A4FD449D","title":"岳阳医院食堂","lon":"121.4882811","lat":"31.289165","category":"68","category_name":"快餐厅","address":"虹口区甘河路110号(近岳阳医院)"},{"poiid":"B2094757D06BABFD4193","title":"谷田稻香 曲阳路店 GOODTIME","lon":"121.491066","lat":"31.29198","category":"68","category_name":"快餐厅","address":"虹口区曲阳路930号大柏树930创意园内(近腾克路)"},{"poiid":"B2094654DB6BA3FE4298","title":"岳阳医院(二号门)","lon":"121.48847","lat":"31.28841","category":"162","category_name":"医院","address":"虹口区甘河路110号"},{"poiid":"B2094655D26AABF5449C","title":"上海莫泰168连锁酒店大柏树店","lon":"121.48739","lat":"31.29216","category":"250","category_name":"公园户外","address":"虹口区汶水东路85号(近逸仙路)"},{"poiid":"B2094757D46EABFC4598","title":"85度C 甘河店","lon":"121.48799","lat":"31.28836","category":"112","category_name":"糕饼店","address":"虹口区中山北一路1100弄72号(近甘河路)"},{"poiid":"B2094757DB6DA5FF4392","title":"云顶之星（上海虹口店）","lon":"121.486172676","lat":"31.289356418","category":"216","category_name":"经济型连锁酒店","address":"上海市虹口区中山北一路1102号(近甘河路)"},{"poiid":"B2094757D16DAAF5459C","title":"侬家阿婆","lon":"121.4886961","lat":"31.287113771","category":"76","category_name":"上海菜","address":"虹口区东体育会路1000号(近岳阳医院)"},{"poiid":"B2094751DB6BAAF4419A","title":"仁宇海鲜火锅料理","lon":"121.49144","lat":"31.2898","category":"86","category_name":"火锅店","address":"虹口区曲阳路888号(近大柏树)"},{"poiid":"B2094750D76DA4F44398","title":"第三空间","lon":"121.491","lat":"31.2897","category":"76","category_name":"上海菜","address":"虹口区曲阳路789号(近中山北二路)"},{"poiid":"B2094752D16BA2F4429C","title":"K11极食","lon":"121.487923","lat":"31.290446","category":"247","category_name":"餐饮美食","address":"淮海中路300号K11购物艺术中心303号"},{"poiid":"B2094654DB6AA7F5489C","title":"运光大厦","lon":"121.49048","lat":"31.29174","category":"46","category_name":"楼宇","address":"虹口区曲阳路990弄1-2号"},{"poiid":"B2094757D16EA7FB409C","title":"大柏树(曲阳路)站","lon":"121.4910365","lat":"31.290021732","category":"38","category_name":"公交车站","address":"上海虹口区曲阳路近腾克路北侧(134/528/751路)"},{"poiid":"B2094654D56DA7F4419A","title":"永乐家电生活电器卖场曲阳店","lon":"121.49026","lat":"31.28905","category":"138","category_name":"家电电子卖场","address":"上海市虹口区东体育会路1130号"},{"poiid":"B2094654DB6BA3FE429F","title":"中国银行大柏树支行","lon":"121.48866","lat":"31.2906","category":"150","category_name":"银行","address":"虹口区中山北一路1230号B区二楼"},{"poiid":"B2094654D56DA7FA439A","title":"新沪办钢材交易市场","lon":"121.4904","lat":"31.29097","category":"46","category_name":"楼宇","address":"曲阳路851弄9号楼新沪办钢材交易市场2层"},{"poiid":"B2094654D56DA7FE459B","title":"西上海商业城","lon":"121.4878","lat":"31.29008","category":"119","category_name":"商场","address":"中山北一路1200号上海新光电讯厂2号楼4层东"},{"poiid":"B2094654D56DA7FD499F","title":"岳阳医院(总院)","lon":"121.48828","lat":"31.28916","category":"162","category_name":"医院","address":"虹口区甘河路110号"},{"poiid":"B2094655D26AABFF4298","title":"辛香汇 大柏树店 Spicy-Joint","lon":"121.491127054","lat":"31.291924793","category":"71","category_name":"四川菜","address":"虹口区曲阳路930号大柏树930创意园4楼(近腾克路)"},{"poiid":"B2094654DB6AA6FF4992","title":"上海兰生大酒店","lon":"121.49095","lat":"31.2924","category":"214","category_name":"四星级宾馆","address":"上海市虹口区曲阳路1000号(近邯郸路)"},{"poiid":"B2094654DB6BA3FE449A","title":"岳阳医院(三号门)","lon":"121.48986","lat":"31.28835","category":"162","category_name":"医院","address":"虹口区甘河路110号"},{"poiid":"B2094757D06FA6FE479B","title":"绍兴饭店(柏树店)","lon":"121.48863","lat":"31.29095","category":"75","category_name":"浙江菜","address":"虹口区中山北一路1230号柏树大厦1-2楼(近曲阳路)"},{"poiid":"B2094757D06FA5FE4792","title":"逸仙高架路","lon":"121.48964807","lat":"31.293019455","category":"38","category_name":"公交车站","address":"上海逸仙路纪念路"},{"poiid":"B2094757D06FA1FB459F","title":"85度C(曲阳店)","lon":"121.49135","lat":"31.29053","category":"67","category_name":"甜品店","address":"虹口区曲阳路930号大柏树930创意园A幢101-201室(近腾克路)"},{"poiid":"B2094757D068A4FE4199","title":"君芝莱大酒店(虹口店)","lon":"121.48802484","lat":"31.292613215","category":"76","category_name":"上海菜","address":"虹口区汶水东路29号榕辉大厦3-4楼(近逸仙路)"},{"poiid":"B2094757D068A2FD419A","title":"艾尼巴亿","lon":"121.49073","lat":"31.28714","category":"90","category_name":"清真餐馆","address":"虹口区曲阳路759号天山宾馆1楼(近中山北二路)"},{"poiid":"B2094757D068A7F4449D","title":"竹家庄避风塘","lon":"121.49183672","lat":"31.290959271","category":"72","category_name":"广东菜","address":"虹口区曲阳路930号(近腾克路)"},{"poiid":"B2094655D26AA2FA459B","title":"金海轩城市餐厅","lon":"121.49107","lat":"31.29111","category":"260","category_name":"其他","address":"虹口区曲阳路930号大柏树930创意园1幢2-3楼(近腾克路)"},{"poiid":"B2094757D068A7F44092","title":"味千拉面(大柏树店)","lon":"121.49148","lat":"31.2905","category":"95","category_name":"日本料理","address":"虹口区曲阳路930号大柏树930创意园内(近腾克路)"},{"poiid":"B2094655D269AAF44092","title":"丝绸之路大饭店","lon":"121.49057","lat":"31.28855","category":"247","category_name":"餐饮美食","address":"虹口区曲阳路777号(近中山北二路)"},{"poiid":"B2094750D56FABF4449E","title":"鼎中鼎澳门豆捞(大柏树店)","lon":"121.491","lat":"31.2911","category":"86","category_name":"火锅店","address":"虹口区曲阳路930号大柏树930创意园3楼(近五角场)"},{"poiid":"B2094757D66AABFC4392","title":"阿凡提餐厅 虹口店","lon":"121.49020998538","lat":"31.28792419407","category":"84","category_name":"西北菜","address":"虹口区曲阳路775号天山宾馆B1楼(近中山北二路)"},{"poiid":"B2094757D069A7FD449B","title":"阿拉对面炭烤鱼","lon":"121.492078403","lat":"31.2886284028","category":"257","category_name":"中餐厅","address":"虹口区曲阳路789号(近腾克路)"},{"poiid":"B2094654D56DA7FD4999","title":"上海中医药大学岳阳临床医学院(甘河路)","lon":"121.48828","lat":"31.28916","category":"52","category_name":"高等院校","address":"甘河路110"},{"poiid":"B2094757D068A2F5459B","title":"930创意园","lon":"121.491078","lat":"31.291119","category":"46","category_name":"楼宇","address":"虹口区曲阳路930号大柏树930创意园内"},{"poiid":"B2094757D068A2FF429A","title":"EZ time女仆执事咖啡店","lon":"121.49119459","lat":"31.288734891","category":"65","category_name":"咖啡厅","address":"上海曲阳路838号-3"},{"poiid":"B2094654D56DA6F84793","title":"海建大楼","lon":"121.49","lat":"31.2903","category":"46","category_name":"楼宇","address":"浦东区丁香路716号"},{"poiid":"B2094757DA65A5F44999","title":"汉庭快捷酒店（上海大柏树店）","lon":"121.490356922","lat":"31.290328262","category":"216","category_name":"经济型连锁酒店","address":"虹口区曲阳路930号大柏树930创意园"},{"poiid":"B2094757D065A7F5499A","title":"岳阳医院补液室","lon":"121.487331","lat":"31.28998","category":"162","category_name":"医院","address":"上海虹口区甘河路"},{"poiid":"B2094750D364A3F4489F","title":"盛武肥牛虹口旗舰店微博","lon":"121.4905","lat":"31.29011","category":"86","category_name":"火锅店","address":"虹口区曲阳路789号(近腾克路)"},{"poiid":"B2094654DB6BA3FF409D","title":"805公安大楼","lon":"121.49","lat":"31.2923","category":"47","category_name":"住宅区","address":"中山北一路805号"},{"poiid":"B2094655D36CA5FC4999","title":"大柏树曲阳路","lon":"121.49054","lat":"31.29164","category":"38","category_name":"公交车站","address":""},{"poiid":"B2094757D569A7FC4193","title":"华夏良子","lon":"121.491783","lat":"31.290985","category":"149","category_name":"洗浴推拿场所","address":"虹口区腾克路100号大柏树930创意园2楼(近腾克路)"},{"poiid":"B2094654D56DA7FE4792","title":"巴山蜀水川菜馆","lon":"121.48732","lat":"31.29044","category":"71","category_name":"四川菜","address":"虹口区中山北一路1204号(近甘河路)"},{"poiid":"B2094655D264AAFA4399","title":"桐庐外婆人家","lon":"121.490866054","lat":"31.290082793","category":"76","category_name":"上海菜","address":"虹口区曲阳路789号(近东体育会路)"},{"poiid":"B2094655D26EA5F54493","title":"尧耀沈家门海鲜(大柏树店)","lon":"121.4905","lat":"31.29011","category":"75","category_name":"浙江菜","address":"虹口区曲阳路789号(近中山北二路)"},{"poiid":"B2094751D56BA2FC429D","title":"上海市虹口区民政局婚姻登记处","lon":"121.490429","lat":"31.290217","category":"252","category_name":"楼宇机构","address":"巴林路76号"},{"poiid":"B2094757DB6DA5F9419B","title":"如家快捷酒店（上海大柏树地铁站店）","lon":"121.487017572","lat":"31.289636054","category":"216","category_name":"经济型连锁酒店","address":"上海市虹口区中山北一路1106号"},{"poiid":"B2094757D16EA2F4459B","title":"市局刑侦总队","lon":"121.486758603","lat":"31.2910497535","category":"500","category_name":"未知分类","address":"上海中山北一路803号"},{"poiid":"B2094654DB65A7FB4099","title":"7天连锁酒店(曲阳路店)","lon":"121.49023","lat":"31.289","category":"216","category_name":"经济型连锁酒店","address":"虹口区东体育会路1130号(近曲阳路)"},{"poiid":"B2094757D76CA7F5409A","title":"一碗香拉面馆","lon":"121.48873","lat":"31.29119","category":"68","category_name":"快餐厅","address":"虹口区中山北一路1108号(近大柏树)"},{"poiid":"B2094757D568A4FD449D","title":"岳阳医院食堂","lon":"121.4882811","lat":"31.289165","category":"68","category_name":"快餐厅","address":"虹口区甘河路110号(近岳阳医院)"},{"poiid":"B2094757D06BABFD4193","title":"谷田稻香 曲阳路店 GOODTIME","lon":"121.491066","lat":"31.29198","category":"68","category_name":"快餐厅","address":"虹口区曲阳路930号大柏树930创意园内(近腾克路)"},{"poiid":"B2094654DB6BA3FE4298","title":"岳阳医院(二号门)","lon":"121.48847","lat":"31.28841","category":"162","category_name":"医院","address":"虹口区甘河路110号"},{"poiid":"B2094655D26AABF5449C","title":"上海莫泰168连锁酒店大柏树店","lon":"121.48739","lat":"31.29216","category":"250","category_name":"公园户外","address":"虹口区汶水东路85号(近逸仙路)"},{"poiid":"B2094757D46EABFC4598","title":"85度C 甘河店","lon":"121.48799","lat":"31.28836","category":"112","category_name":"糕饼店","address":"虹口区中山北一路1100弄72号(近甘河路)"},{"poiid":"B2094757DB6DA5FF4392","title":"云顶之星（上海虹口店）","lon":"121.486172676","lat":"31.289356418","category":"216","category_name":"经济型连锁酒店","address":"上海市虹口区中山北一路1102号(近甘河路)"},{"poiid":"B2094757D16DAAF5459C","title":"侬家阿婆","lon":"121.4886961","lat":"31.287113771","category":"76","category_name":"上海菜","address":"虹口区东体育会路1000号(近岳阳医院)"},{"poiid":"B2094751DB6BAAF4419A","title":"仁宇海鲜火锅料理","lon":"121.49144","lat":"31.2898","category":"86","category_name":"火锅店","address":"虹口区曲阳路888号(近大柏树)"},{"poiid":"B2094750D76DA4F44398","title":"第三空间","lon":"121.491","lat":"31.2897","category":"76","category_name":"上海菜","address":"虹口区曲阳路789号(近中山北二路)"},{"poiid":"B2094752D16BA2F4429C","title":"K11极食","lon":"121.487923","lat":"31.290446","category":"247","category_name":"餐饮美食","address":"淮海中路300号K11购物艺术中心303号"},{"poiid":"B2094654DB6AA7F5489C","title":"运光大厦","lon":"121.49048","lat":"31.29174","category":"46","category_name":"楼宇","address":"虹口区曲阳路990弄1-2号"},{"poiid":"B2094757D16EA7FB409C","title":"大柏树(曲阳路)站","lon":"121.4910365","lat":"31.290021732","category":"38","category_name":"公交车站","address":"上海虹口区曲阳路近腾克路北侧(134/528/751路)"},{"poiid":"B2094654D56DA7F4419A","title":"永乐家电生活电器卖场曲阳店","lon":"121.49026","lat":"31.28905","category":"138","category_name":"家电电子卖场","address":"上海市虹口区东体育会路1130号"},{"poiid":"B2094654DB6BA3FE429F","title":"中国银行大柏树支行","lon":"121.48866","lat":"31.2906","category":"150","category_name":"银行","address":"虹口区中山北一路1230号B区二楼"},{"poiid":"B2094654D56DA7FA439A","title":"新沪办钢材交易市场","lon":"121.4904","lat":"31.29097","category":"46","category_name":"楼宇","address":"曲阳路851弄9号楼新沪办钢材交易市场2层"},{"poiid":"B2094654D56DA7FE459B","title":"西上海商业城","lon":"121.4878","lat":"31.29008","category":"119","category_name":"商场","address":"中山北一路1200号上海新光电讯厂2号楼4层东"},{"poiid":"B2094654D56DA7FD499F","title":"岳阳医院(总院)","lon":"121.48828","lat":"31.28916","category":"162","category_name":"医院","address":"虹口区甘河路110号"},{"poiid":"B2094655D26AABFF4298","title":"辛香汇 大柏树店 Spicy-Joint","lon":"121.491127054","lat":"31.291924793","category":"71","category_name":"四川菜","address":"虹口区曲阳路930号大柏树930创意园4楼(近腾克路)"},{"poiid":"B2094654DB6AA6FF4992","title":"上海兰生大酒店","lon":"121.49095","lat":"31.2924","category":"214","category_name":"四星级宾馆","address":"上海市虹口区曲阳路1000号(近邯郸路)"},{"poiid":"B2094654DB6BA3FE449A","title":"岳阳医院(三号门)","lon":"121.48986","lat":"31.28835","category":"162","category_name":"医院","address":"虹口区甘河路110号"},{"poiid":"B2094757D06FA6FE479B","title":"绍兴饭店(柏树店)","lon":"121.48863","lat":"31.29095","category":"75","category_name":"浙江菜","address":"虹口区中山北一路1230号柏树大厦1-2楼(近曲阳路)"},{"poiid":"B2094757D06FA5FE4792","title":"逸仙高架路","lon":"121.48964807","lat":"31.293019455","category":"38","category_name":"公交车站","address":"上海逸仙路纪念路"},{"poiid":"B2094757D06FA1FB459F","title":"85度C(曲阳店)","lon":"121.49135","lat":"31.29053","category":"67","category_name":"甜品店","address":"虹口区曲阳路930号大柏树930创意园A幢101-201室(近腾克路)"},{"poiid":"B2094757D068A4FE4199","title":"君芝莱大酒店(虹口店)","lon":"121.48802484","lat":"31.292613215","category":"76","category_name":"上海菜","address":"虹口区汶水东路29号榕辉大厦3-4楼(近逸仙路)"},{"poiid":"B2094757D068A2FD419A","title":"艾尼巴亿","lon":"121.49073","lat":"31.28714","category":"90","category_name":"清真餐馆","address":"虹口区曲阳路759号天山宾馆1楼(近中山北二路)"},{"poiid":"B2094757D068A7F4449D","title":"竹家庄避风塘","lon":"121.49183672","lat":"31.290959271","category":"72","category_name":"广东菜","address":"虹口区曲阳路930号(近腾克路)"},{"poiid":"B2094655D26AA2FA459B","title":"金海轩城市餐厅","lon":"121.49107","lat":"31.29111","category":"260","category_name":"其他","address":"虹口区曲阳路930号大柏树930创意园1幢2-3楼(近腾克路)"},{"poiid":"B2094757D068A7F44092","title":"味千拉面(大柏树店)","lon":"121.49148","lat":"31.2905","category":"95","category_name":"日本料理","address":"虹口区曲阳路930号大柏树930创意园内(近腾克路)"},{"poiid":"B2094655D269AAF44092","title":"丝绸之路大饭店","lon":"121.49057","lat":"31.28855","category":"247","category_name":"餐饮美食","address":"虹口区曲阳路777号(近中山北二路)"},{"poiid":"B2094750D56FABF4449E","title":"鼎中鼎澳门豆捞(大柏树店)","lon":"121.491","lat":"31.2911","category":"86","category_name":"火锅店","address":"虹口区曲阳路930号大柏树930创意园3楼(近五角场)"},{"poiid":"B2094757D66AABFC4392","title":"阿凡提餐厅 虹口店","lon":"121.49020998538","lat":"31.28792419407","category":"84","category_name":"西北菜","address":"虹口区曲阳路775号天山宾馆B1楼(近中山北二路)"},{"poiid":"B2094757D069A7FD449B","title":"阿拉对面炭烤鱼","lon":"121.492078403","lat":"31.2886284028","category":"257","category_name":"中餐厅","address":"虹口区曲阳路789号(近腾克路)"},{"poiid":"B2094654D56DA7FD4999","title":"上海中医药大学岳阳临床医学院(甘河路)","lon":"121.48828","lat":"31.28916","category":"52","category_name":"高等院校","address":"甘河路110"},{"poiid":"B2094757D068A2F5459B","title":"930创意园","lon":"121.491078","lat":"31.291119","category":"46","category_name":"楼宇","address":"虹口区曲阳路930号大柏树930创意园内"},{"poiid":"B2094757D068A2FF429A","title":"EZ time女仆执事咖啡店","lon":"121.49119459","lat":"31.288734891","category":"65","category_name":"咖啡厅","address":"上海曲阳路838号-3"},{"poiid":"B2094654D56DA6F84793","title":"海建大楼","lon":"121.49","lat":"31.2903","category":"46","category_name":"楼宇","address":"浦东区丁香路716号"},{"poiid":"B2094757DA65A5F44999","title":"汉庭快捷酒店（上海大柏树店）","lon":"121.490356922","lat":"31.290328262","category":"216","category_name":"经济型连锁酒店","address":"虹口区曲阳路930号大柏树930创意园"},{"poiid":"B2094757D065A7F5499A","title":"岳阳医院补液室","lon":"121.487331","lat":"31.28998","category":"162","category_name":"医院","address":"上海虹口区甘河路"},{"poiid":"B2094750D364A3F4489F","title":"盛武肥牛虹口旗舰店微博","lon":"121.4905","lat":"31.29011","category":"86","category_name":"火锅店","address":"虹口区曲阳路789号(近腾克路)"},{"poiid":"B2094654DB6BA3FF409D","title":"805公安大楼","lon":"121.49","lat":"31.2923","category":"47","category_name":"住宅区","address":"中山北一路805号"},{"poiid":"B2094655D36CA5FC4999","title":"大柏树曲阳路","lon":"121.49054","lat":"31.29164","category":"38","category_name":"公交车站","address":""},{"poiid":"B2094757D569A7FC4193","title":"华夏良子","lon":"121.491783","lat":"31.290985","category":"149","category_name":"洗浴推拿场所","address":"虹口区腾克路100号大柏树930创意园2楼(近腾克路)"},{"poiid":"B2094654D56DA7FE4792","title":"巴山蜀水川菜馆","lon":"121.48732","lat":"31.29044","category":"71","category_name":"四川菜","address":"虹口区中山北一路1204号(近甘河路)"},{"poiid":"B2094655D264AAFA4399","title":"桐庐外婆人家","lon":"121.490866054","lat":"31.290082793","category":"76","category_name":"上海菜","address":"虹口区曲阳路789号(近东体育会路)"},{"poiid":"B2094655D26EA5F54493","title":"尧耀沈家门海鲜(大柏树店)","lon":"121.4905","lat":"31.29011","category":"75","category_name":"浙江菜","address":"虹口区曲阳路789号(近中山北二路)"},{"poiid":"B2094751D56BA2FC429D","title":"上海市虹口区民政局婚姻登记处","lon":"121.490429","lat":"31.290217","category":"252","category_name":"楼宇机构","address":"巴林路76号"},{"poiid":"B2094757DB6DA5F9419B","title":"如家快捷酒店（上海大柏树地铁站店）","lon":"121.487017572","lat":"31.289636054","category":"216","category_name":"经济型连锁酒店","address":"上海市虹口区中山北一路1106号"},{"poiid":"B2094757D16EA2F4459B","title":"市局刑侦总队","lon":"121.486758603","lat":"31.2910497535","category":"500","category_name":"未知分类","address":"上海中山北一路803号"},{"poiid":"B2094654DB65A7FB4099","title":"7天连锁酒店(曲阳路店)","lon":"121.49023","lat":"31.289","category":"216","category_name":"经济型连锁酒店","address":"虹口区东体育会路1130号(近曲阳路)"},{"poiid":"B2094757D76CA7F5409A","title":"一碗香拉面馆","lon":"121.48873","lat":"31.29119","category":"68","category_name":"快餐厅","address":"虹口区中山北一路1108号(近大柏树)"},{"poiid":"B2094757D568A4FD449D","title":"岳阳医院食堂","lon":"121.4882811","lat":"31.289165","category":"68","category_name":"快餐厅","address":"虹口区甘河路110号(近岳阳医院)"},{"poiid":"B2094757D06BABFD4193","title":"谷田稻香 曲阳路店 GOODTIME","lon":"121.491066","lat":"31.29198","category":"68","category_name":"快餐厅","address":"虹口区曲阳路930号大柏树930创意园内(近腾克路)"},{"poiid":"B2094654DB6BA3FE4298","title":"岳阳医院(二号门)","lon":"121.48847","lat":"31.28841","category":"162","category_name":"医院","address":"虹口区甘河路110号"},{"poiid":"B2094655D26AABF5449C","title":"上海莫泰168连锁酒店大柏树店","lon":"121.48739","lat":"31.29216","category":"250","category_name":"公园户外","address":"虹口区汶水东路85号(近逸仙路)"},{"poiid":"B2094757D46EABFC4598","title":"85度C 甘河店","lon":"121.48799","lat":"31.28836","category":"112","category_name":"糕饼店","address":"虹口区中山北一路1100弄72号(近甘河路)"},{"poiid":"B2094757DB6DA5FF4392","title":"云顶之星（上海虹口店）","lon":"121.486172676","lat":"31.289356418","category":"216","category_name":"经济型连锁酒店","address":"上海市虹口区中山北一路1102号(近甘河路)"},{"poiid":"B2094757D16DAAF5459C","title":"侬家阿婆","lon":"121.4886961","lat":"31.287113771","category":"76","category_name":"上海菜","address":"虹口区东体育会路1000号(近岳阳医院)"},{"poiid":"B2094751DB6BAAF4419A","title":"仁宇海鲜火锅料理","lon":"121.49144","lat":"31.2898","category":"86","category_name":"火锅店","address":"虹口区曲阳路888号(近大柏树)"},{"poiid":"B2094750D76DA4F44398","title":"第三空间","lon":"121.491","lat":"31.2897","category":"76","category_name":"上海菜","address":"虹口区曲阳路789号(近中山北二路)"},{"poiid":"B2094752D16BA2F4429C","title":"K11极食","lon":"121.487923","lat":"31.290446","category":"247","category_name":"餐饮美食","address":"淮海中路300号K11购物艺术中心303号"},{"poiid":"B2094654DB6AA7F5489C","title":"运光大厦","lon":"121.49048","lat":"31.29174","category":"46","category_name":"楼宇","address":"虹口区曲阳路990弄1-2号"},{"poiid":"B2094757D16EA7FB409C","title":"大柏树(曲阳路)站","lon":"121.4910365","lat":"31.290021732","category":"38","category_name":"公交车站","address":"上海虹口区曲阳路近腾克路北侧(134/528/751路)"},{"poiid":"B2094654D56DA7F4419A","title":"永乐家电生活电器卖场曲阳店","lon":"121.49026","lat":"31.28905","category":"138","category_name":"家电电子卖场","address":"上海市虹口区东体育会路1130号"},{"poiid":"B2094654DB6BA3FE429F","title":"中国银行大柏树支行","lon":"121.48866","lat":"31.2906","category":"150","category_name":"银行","address":"虹口区中山北一路1230号B区二楼"},{"poiid":"B2094654D56DA7FA439A","title":"新沪办钢材交易市场","lon":"121.4904","lat":"31.29097","category":"46","category_name":"楼宇","address":"曲阳路851弄9号楼新沪办钢材交易市场2层"},{"poiid":"B2094654D56DA7FE459B","title":"西上海商业城","lon":"121.4878","lat":"31.29008","category":"119","category_name":"商场","address":"中山北一路1200号上海新光电讯厂2号楼4层东"},{"poiid":"B2094654D56DA7FD499F","title":"岳阳医院(总院)","lon":"121.48828","lat":"31.28916","category":"162","category_name":"医院","address":"虹口区甘河路110号"},{"poiid":"B2094655D26AABFF4298","title":"辛香汇 大柏树店 Spicy-Joint","lon":"121.491127054","lat":"31.291924793","category":"71","category_name":"四川菜","address":"虹口区曲阳路930号大柏树930创意园4楼(近腾克路)"},{"poiid":"B2094654DB6AA6FF4992","title":"上海兰生大酒店","lon":"121.49095","lat":"31.2924","category":"214","category_name":"四星级宾馆","address":"上海市虹口区曲阳路1000号(近邯郸路)"},{"poiid":"B2094654DB6BA3FE449A","title":"岳阳医院(三号门)","lon":"121.48986","lat":"31.28835","category":"162","category_name":"医院","address":"虹口区甘河路110号"},{"poiid":"B2094757D06FA6FE479B","title":"绍兴饭店(柏树店)","lon":"121.48863","lat":"31.29095","category":"75","category_name":"浙江菜","address":"虹口区中山北一路1230号柏树大厦1-2楼(近曲阳路)"},{"poiid":"B2094757D06FA5FE4792","title":"逸仙高架路","lon":"121.48964807","lat":"31.293019455","category":"38","category_name":"公交车站","address":"上海逸仙路纪念路"},{"poiid":"B2094757D06FA1FB459F","title":"85度C(曲阳店)","lon":"121.49135","lat":"31.29053","category":"67","category_name":"甜品店","address":"虹口区曲阳路930号大柏树930创意园A幢101-201室(近腾克路)"},{"poiid":"B2094757D068A4FE4199","title":"君芝莱大酒店(虹口店)","lon":"121.48802484","lat":"31.292613215","category":"76","category_name":"上海菜","address":"虹口区汶水东路29号榕辉大厦3-4楼(近逸仙路)"},{"poiid":"B2094757D068A2FD419A","title":"艾尼巴亿","lon":"121.49073","lat":"31.28714","category":"90","category_name":"清真餐馆","address":"虹口区曲阳路759号天山宾馆1楼(近中山北二路)"},{"poiid":"B2094757D068A7F4449D","title":"竹家庄避风塘","lon":"121.49183672","lat":"31.290959271","category":"72","category_name":"广东菜","address":"虹口区曲阳路930号(近腾克路)"},{"poiid":"B2094655D26AA2FA459B","title":"金海轩城市餐厅","lon":"121.49107","lat":"31.29111","category":"260","category_name":"其他","address":"虹口区曲阳路930号大柏树930创意园1幢2-3楼(近腾克路)"},{"poiid":"B2094757D068A7F44092","title":"味千拉面(大柏树店)","lon":"121.49148","lat":"31.2905","category":"95","category_name":"日本料理","address":"虹口区曲阳路930号大柏树930创意园内(近腾克路)"},{"poiid":"B2094655D269AAF44092","title":"丝绸之路大饭店","lon":"121.49057","lat":"31.28855","category":"247","category_name":"餐饮美食","address":"虹口区曲阳路777号(近中山北二路)"},{"poiid":"B2094750D56FABF4449E","title":"鼎中鼎澳门豆捞(大柏树店)","lon":"121.491","lat":"31.2911","category":"86","category_name":"火锅店","address":"虹口区曲阳路930号大柏树930创意园3楼(近五角场)"},{"poiid":"B2094757D66AABFC4392","title":"阿凡提餐厅 虹口店","lon":"121.49020998538","lat":"31.28792419407","category":"84","category_name":"西北菜","address":"虹口区曲阳路775号天山宾馆B1楼(近中山北二路)"},{"poiid":"B2094757D069A7FD449B","title":"阿拉对面炭烤鱼","lon":"121.492078403","lat":"31.2886284028","category":"257","category_name":"中餐厅","address":"虹口区曲阳路789号(近腾克路)"},{"poiid":"B2094654D56DA7FD4999","title":"上海中医药大学岳阳临床医学院(甘河路)","lon":"121.48828","lat":"31.28916","category":"52","category_name":"高等院校","address":"甘河路110"},{"poiid":"B2094757D068A2F5459B","title":"930创意园","lon":"121.491078","lat":"31.291119","category":"46","category_name":"楼宇","address":"虹口区曲阳路930号大柏树930创意园内"},{"poiid":"B2094757D068A2FF429A","title":"EZ time女仆执事咖啡店","lon":"121.49119459","lat":"31.288734891","category":"65","category_name":"咖啡厅","address":"上海曲阳路838号-3"},{"poiid":"B2094654D56DA6F84793","title":"海建大楼","lon":"121.49","lat":"31.2903","category":"46","category_name":"楼宇","address":"浦东区丁香路716号"},{"poiid":"B2094757DA65A5F44999","title":"汉庭快捷酒店（上海大柏树店）","lon":"121.490356922","lat":"31.290328262","category":"216","category_name":"经济型连锁酒店","address":"虹口区曲阳路930号大柏树930创意园"},{"poiid":"B2094757D065A7F5499A","title":"岳阳医院补液室","lon":"121.487331","lat":"31.28998","category":"162","category_name":"医院","address":"上海虹口区甘河路"},{"poiid":"B2094750D364A3F4489F","title":"盛武肥牛虹口旗舰店微博","lon":"121.4905","lat":"31.29011","category":"86","category_name":"火锅店","address":"虹口区曲阳路789号(近腾克路)"},{"poiid":"B2094654DB6BA3FF409D","title":"805公安大楼","lon":"121.49","lat":"31.2923","category":"47","category_name":"住宅区","address":"中山北一路805号"},{"poiid":"B2094655D36CA5FC4999","title":"大柏树曲阳路","lon":"121.49054","lat":"31.29164","category":"38","category_name":"公交车站","address":""},{"poiid":"B2094757D569A7FC4193","title":"华夏良子","lon":"121.491783","lat":"31.290985","category":"149","category_name":"洗浴推拿场所","address":"虹口区腾克路100号大柏树930创意园2楼(近腾克路)"},{"poiid":"B2094654D56DA7FE4792","title":"巴山蜀水川菜馆","lon":"121.48732","lat":"31.29044","category":"71","category_name":"四川菜","address":"虹口区中山北一路1204号(近甘河路)"},{"poiid":"B2094655D264AAFA4399","title":"桐庐外婆人家","lon":"121.490866054","lat":"31.290082793","category":"76","category_name":"上海菜","address":"虹口区曲阳路789号(近东体育会路)"},{"poiid":"B2094655D26EA5F54493","title":"尧耀沈家门海鲜(大柏树店)","lon":"121.4905","lat":"31.29011","category":"75","category_name":"浙江菜","address":"虹口区曲阳路789号(近中山北二路)"},{"poiid":"B2094751D56BA2FC429D","title":"上海市虹口区民政局婚姻登记处","lon":"121.490429","lat":"31.290217","category":"252","category_name":"楼宇机构","address":"巴林路76号"},{"poiid":"B2094757DB6DA5F9419B","title":"如家快捷酒店（上海大柏树地铁站店）","lon":"121.487017572","lat":"31.289636054","category":"216","category_name":"经济型连锁酒店","address":"上海市虹口区中山北一路1106号"},{"poiid":"B2094757D16EA2F4459B","title":"市局刑侦总队","lon":"121.486758603","lat":"31.2910497535","category":"500","category_name":"未知分类","address":"上海中山北一路803号"},{"poiid":"B2094654DB65A7FB4099","title":"7天连锁酒店(曲阳路店)","lon":"121.49023","lat":"31.289","category":"216","category_name":"经济型连锁酒店","address":"虹口区东体育会路1130号(近曲阳路)"},{"poiid":"B2094757D76CA7F5409A","title":"一碗香拉面馆","lon":"121.48873","lat":"31.29119","category":"68","category_name":"快餐厅","address":"虹口区中山北一路1108号(近大柏树)"},{"poiid":"B2094757D568A4FD449D","title":"岳阳医院食堂","lon":"121.4882811","lat":"31.289165","category":"68","category_name":"快餐厅","address":"虹口区甘河路110号(近岳阳医院)"},{"poiid":"B2094757D06BABFD4193","title":"谷田稻香 曲阳路店 GOODTIME","lon":"121.491066","lat":"31.29198","category":"68","category_name":"快餐厅","address":"虹口区曲阳路930号大柏树930创意园内(近腾克路)"},{"poiid":"B2094654DB6BA3FE4298","title":"岳阳医院(二号门)","lon":"121.48847","lat":"31.28841","category":"162","category_name":"医院","address":"虹口区甘河路110号"},{"poiid":"B2094655D26AABF5449C","title":"上海莫泰168连锁酒店大柏树店","lon":"121.48739","lat":"31.29216","category":"250","category_name":"公园户外","address":"虹口区汶水东路85号(近逸仙路)"},{"poiid":"B2094757D46EABFC4598","title":"85度C 甘河店","lon":"121.48799","lat":"31.28836","category":"112","category_name":"糕饼店","address":"虹口区中山北一路1100弄72号(近甘河路)"},{"poiid":"B2094757DB6DA5FF4392","title":"云顶之星（上海虹口店）","lon":"121.486172676","lat":"31.289356418","category":"216","category_name":"经济型连锁酒店","address":"上海市虹口区中山北一路1102号(近甘河路)"},{"poiid":"B2094757D16DAAF5459C","title":"侬家阿婆","lon":"121.4886961","lat":"31.287113771","category":"76","category_name":"上海菜","address":"虹口区东体育会路1000号(近岳阳医院)"},{"poiid":"B2094751DB6BAAF4419A","title":"仁宇海鲜火锅料理","lon":"121.49144","lat":"31.2898","category":"86","category_name":"火锅店","address":"虹口区曲阳路888号(近大柏树)"},{"poiid":"B2094750D76DA4F44398","title":"第三空间","lon":"121.491","lat":"31.2897","category":"76","category_name":"上海菜","address":"虹口区曲阳路789号(近中山北二路)"},{"poiid":"B2094752D16BA2F4429C","title":"K11极食","lon":"121.487923","lat":"31.290446","category":"247","category_name":"餐饮美食","address":"淮海中路300号K11购物艺术中心303号"},{"poiid":"B2094654DB6AA7F5489C","title":"运光大厦","lon":"121.49048","lat":"31.29174","category":"46","category_name":"楼宇","address":"虹口区曲阳路990弄1-2号"},{"poiid":"B2094757D16EA7FB409C","title":"大柏树(曲阳路)站","lon":"121.4910365","lat":"31.290021732","category":"38","category_name":"公交车站","address":"上海虹口区曲阳路近腾克路北侧(134/528/751路)"},{"poiid":"B2094654D56DA7F4419A","title":"永乐家电生活电器卖场曲阳店","lon":"121.49026","lat":"31.28905","category":"138","category_name":"家电电子卖场","address":"上海市虹口区东体育会路1130号"},{"poiid":"B2094654DB6BA3FE429F","title":"中国银行大柏树支行","lon":"121.48866","lat":"31.2906","category":"150","category_name":"银行","address":"虹口区中山北一路1230号B区二楼"},{"poiid":"B2094654D56DA7FA439A","title":"新沪办钢材交易市场","lon":"121.4904","lat":"31.29097","category":"46","category_name":"楼宇","address":"曲阳路851弄9号楼新沪办钢材交易市场2层"},{"poiid":"B2094654D56DA7FE459B","title":"西上海商业城","lon":"121.4878","lat":"31.29008","category":"119","category_name":"商场","address":"中山北一路1200号上海新光电讯厂2号楼4层东"}]