[{"poiid":"B2094655D26AAAFE4992","title":"818广场","lon":"121.46094","lat":"31.23094","category":"119","category_name":"商场","address":"静安区南京西路818号(近石门一路)"},{"poiid":"B2094757D168A7F5429B","title":"江边城外巫山烤全鱼(南京西路店)","lon":"121.460719078","lat":"31.2302828712","category":"71","category_name":"四川菜","address":"静安区南京西路819号中创大厦5楼(近地铁2号线南京西路站)"},{"poiid":"B2094757DA6EA6F5469B","title":"外婆家(818广场店)","lon":"121.460788249969","lat":"31.230931141954","category":"75","category_name":"浙江菜","address":"静安区南京西路818号818广场701室(近石门一路)"},{"poiid":"B2094753D76FAAFA449C","title":"上海滩国泰旗舰店","lon":"121.466011","lat":"31.216125","category":"249","category_name":"购物服务","address":"淮海中路868号"},{"poiid":"B209475CD564A7F84292","title":"上海滩新天地店","lon":"121.47463","lat":"31.22164","category":"119","category_name":"商场","address":"\"太仓路181弄新天地北里15号\r\n\""},{"poiid":"B209475CD564A7F8439E","title":"上海滩中信泰富店","lon":"121.45602","lat":"31.22851","category":"119","category_name":"商场","address":"\"南京西路1168号中信泰富广场，店铺号221.\r\n\""},{"poiid":"B2094655D268ABFC4792","title":"吴江路休闲街","lon":"121.46067","lat":"31.22994","category":"116","category_name":"特色商业街","address":"上海吴江路休闲街"},{"poiid":"B2094654DB69A4F84299","title":"星巴克(吴江路店)","lon":"121.461502","lat":"31.230398","category":"65","category_name":"咖啡厅","address":"静安区吴江路128号(近石门一路)"},{"poiid":"B2094654DA6CA1F5459E","title":"满记甜品 吴江路店","lon":"121.4610946","lat":"31.2301023","category":"67","category_name":"甜品店","address":"静安区吴江路169号四季坊商场1楼102号单元(近南京西路)"},{"poiid":"B2094757D06FA1F9489A","title":"藏珑泰厨","lon":"121.46120173","lat":"31.230886314","category":"99","category_name":"泰国／越南菜品餐厅","address":"静安区南京西路818号818广场6楼(近石门一路)"},{"poiid":"B2094750D66CABF94899","title":"幸福131","lon":"121.4608","lat":"31.230554","category":"71","category_name":"四川菜","address":"静安区南京西路819号中创大厦4楼(近吴江路)"},{"poiid":"B2094654DA6CA1F84292","title":"王家沙(南京西路)","lon":"121.46122","lat":"31.23063","category":"257","category_name":"中餐厅","address":"静安区南京西路805号(近石门一路)"},{"poiid":"B2094655D26AAAF8449C","title":"香港狮子山下","lon":"121.46094","lat":"31.23094","category":"72","category_name":"广东菜","address":"静安区南京西路818号818广场5楼(近石门二路)"},{"poiid":"B2094757D06FABFD4793","title":"wagas","lon":"121.460855738","lat":"31.2299632944","category":"500","category_name":"未知分类","address":"上海吴江路"},{"poiid":"B2094757D06FA0FB4998","title":"半山小馆","lon":"121.46059521","lat":"31.230252198","category":"91","category_name":"台湾菜","address":"静安区南京西路818号818广场6楼(石门一路口)"},{"poiid":"B2094757D06EAAF44799","title":"马莎百货(南京西路店)","lon":"121.46058","lat":"31.23005","category":"119","category_name":"商场","address":"静安区南京西路863号(近石门一路)"},{"poiid":"B2094757DB68A5F5449E","title":"古丽仙西域情餐厅 GULIXIAN RESTAURANT","lon":"121.460917","lat":"31.231043","category":"90","category_name":"清真餐馆","address":"静安区南京西路818号818广场5楼(近石门一路)"},{"poiid":"B2094757D06FA6FC4093","title":"藏珑云海","lon":"121.46067198","lat":"31.230039417","category":"260","category_name":"其他","address":"静安区南京西路818号818广场6楼(石门一路口)"},{"poiid":"B2094757DA6EA6FB419A","title":"合点寿司(南京西路店)","lon":"121.461213999998","lat":"31.2304790000002","category":"95","category_name":"日本料理","address":"静安区南京西路818号818广场B1楼(近石门一路)"},{"poiid":"B2094757D06FA3F9429F","title":"权味 吴江路店","lon":"121.461074","lat":"31.230026","category":"96","category_name":"韩国料理","address":"静安区吴江路169号四季坊商场2楼(近石门一路)"},{"poiid":"B2094757D06AA5F4459D","title":"Awfully Chocolate","lon":"121.461541738","lat":"31.2302323001","category":"500","category_name":"未知分类","address":"上海市静安区泰兴路"},{"poiid":"B2094757D06FAAF94793","title":"乡音书苑","lon":"121.460323154","lat":"31.2307423837","category":"260","category_name":"其他","address":"静安区南京西路860弄1号(近石门一路)"},{"poiid":"B2094655D26FA5FC489A","title":"四季坊","lon":"121.46162","lat":"31.22993","category":"119","category_name":"商场","address":"静安区吴江路169号2楼(近南京西路)"},{"poiid":"B2094757D06FA6FF429B","title":"泰意Lapis Cafe","lon":"121.460911738","lat":"31.2306823097","category":"94","category_name":"西餐厅","address":"静安区南京西路818号818广场6楼(近石门一路)"},{"poiid":"B2094757D06FA3FF419F","title":"Wagas沃歌斯(吴江路店)","lon":"121.46191406","lat":"31.230632782","category":"94","category_name":"西餐厅","address":"静安区吴江路169号四季坊116室(近泰兴路)"},{"poiid":"B2094757D76AA1FF469F","title":"拉面玩家 四季坊店","lon":"121.461104","lat":"31.229991","category":"68","category_name":"快餐厅","address":"静安区吴江路153号四季坊242单位(近石门一路)"},{"poiid":"B2094655D26AABFD4592","title":"佰家仟味","lon":"121.46094","lat":"31.23094","category":"260","category_name":"其他","address":"静安区南京西路818号818广场5楼(近石门一路)"},{"poiid":"B2094757D06FA0F9409A","title":"悦蓉香锅牛蛙馆","lon":"121.461138","lat":"31.230666","category":"247","category_name":"餐饮美食","address":"上海南京西路818号(818广场)B1"},{"poiid":"B2094757D065A7F94698","title":"大渔铁板烧","lon":"121.460854738","lat":"31.2307773117","category":"247","category_name":"餐饮美食","address":"上海静安区南京西路818号6楼"},{"poiid":"B2094750DA68A2F54792","title":"LA PASTA 義面屋","lon":"121.460853","lat":"31.230667","category":"247","category_name":"餐饮美食","address":null},{"poiid":"B2094757D46EA5F54798","title":"金必多茶餐厅","lon":"121.4609876","lat":"31.2307105","category":"72","category_name":"广东菜","address":"静安区南京西路819号开欣商厦410室(近石门一路)"},{"poiid":"B2094757D66FA6FA469F","title":"GAP(南京西路店)","lon":"121.46075169","lat":"31.230473985","category":"141","category_name":"服装鞋帽皮具店","address":"静安区南京西路819号中创大厦1-2楼(石门一路口)"},{"poiid":"B2094757D06FA3F4499D","title":"DQ冰雪皇后(吴江店)","lon":"121.46162","lat":"31.229935","category":"113","category_name":"冷饮店","address":"静安区吴江路169号四季坊1楼(近石门一路)"},{"poiid":"B2094757D069A2F9429D","title":"玛莎百货咖啡厅","lon":"121.460338054","lat":"31.230278793","category":"65","category_name":"咖啡厅","address":"南京西路863号玛莎百货4楼近石门一路"},{"poiid":"B2094654DA6CA1F5469A","title":"香啡缤 吴江路店 Coffee Bean&Tea Leaf","lon":"121.461022054","lat":"31.229906793","category":"65","category_name":"咖啡厅","address":"静安区吴江路169号静安四季坊145-146单元(近石门一路)"},{"poiid":"B2094757D06AA4FB499C","title":"Noz Michio Nozawa Hair Produce","lon":"121.46091669","lat":"31.230796314","category":"500","category_name":"未知分类","address":"上海静安区南京西路832号"},{"poiid":"B2094757D06BA3FA489A","title":"HM","lon":"121.461163338","lat":"31.2305978079","category":"141","category_name":"服装鞋帽皮具店","address":"上海南京西路865号"},{"poiid":"B2094752D16BA6F94192","title":"许留山（吴江路店）","lon":"121.460549","lat":"31.230808","category":"247","category_name":"餐饮美食","address":"静安区吴江路269号湟普汇商场1楼C单元"},{"poiid":"B2094757D56CABFB409A","title":"芋贵人甜品店 南京西路店","lon":"121.4609876","lat":"31.2307105","category":"67","category_name":"甜品店","address":"静安区南京西路819号开欣商场412室"},{"poiid":"B2094750D565A1FA489A","title":"花の舞","lon":"121.460815","lat":"31.230707","category":"95","category_name":"日本料理","address":"静安区南京西路819号中创大厦5楼(近吴江路)"},{"poiid":"B2094654DB6BA6F4449B","title":"振鼎鸡(静安店)","lon":"121.46159","lat":"31.23197","category":"68","category_name":"快餐厅","address":"静安区石门二路61号(近北京西路)"},{"poiid":"B2094757D468AAF9459C","title":"GCX","lon":"121.461331","lat":"31.230426","category":"94","category_name":"西餐厅","address":"静安区吴江路休闲步行街138号2楼(近石门一路)"},{"poiid":"B2094750DB68A2F44098","title":"品欢相声会馆","lon":"121.460662","lat":"31.231037","category":"500","category_name":"未知分类","address":"南京西路860号"},{"poiid":"B2094757D16CAAF9419C","title":"虹橋國際機場t2航站樓b5-m3-b16","lon":"121.46053223","lat":"31.231014816","category":"500","category_name":"未知分类","address":"上海虹橋國際機場t2航站樓b5-m3-b16"},{"poiid":"B2094757D76DA0F4429F","title":"越旺法式越南菜 PHO 26","lon":"121.460315054","lat":"31.230335793","category":"99","category_name":"泰国／越南菜品餐厅","address":"静安区吴江路178号2楼(玛莎商场对面)"},{"poiid":"B2094757D465A6F8469C","title":"味千拉面 818广场店","lon":"121.461623054","lat":"31.231004793","category":"95","category_name":"日本料理","address":"静安区南京西路818号818广场B1楼104B(近石门一路)"},{"poiid":"B2094757D068A7F8459B","title":"南京美发店(南京西路店)","lon":"121.46209","lat":"31.23075","category":"148","category_name":"美容美发店","address":"静安区南京西路784号(近石门一路)"},{"poiid":"B2094757DA6FA2FD449B","title":"神户明味家七轮烧肉","lon":"121.460747999999","lat":"31.2304259999998","category":"269","category_name":"烧烤","address":"静安区南京西路819号中创大厦5楼(近吴江路)"},{"poiid":"B2094655D26DA3FE469B","title":"MARKS & SPENCER","lon":"121.46036","lat":"31.23035","category":"141","category_name":"服装鞋帽皮具店","address":"卢湾区淮海中路112号(近龙门路)"},{"poiid":"B2094654DA6CA2F8499B","title":"吴江路东段小吃街","lon":"121.46176","lat":"31.23032","category":"116","category_name":"特色商业街","address":"吴江路"},{"poiid":"B2094655D26AAAFE4992","title":"818广场","lon":"121.46094","lat":"31.23094","category":"119","category_name":"商场","address":"静安区南京西路818号(近石门一路)"},{"poiid":"B2094757D168A7F5429B","title":"江边城外巫山烤全鱼(南京西路店)","lon":"121.460719078","lat":"31.2302828712","category":"71","category_name":"四川菜","address":"静安区南京西路819号中创大厦5楼(近地铁2号线南京西路站)"},{"poiid":"B2094757DA6EA6F5469B","title":"外婆家(818广场店)","lon":"121.460788249969","lat":"31.230931141954","category":"75","category_name":"浙江菜","address":"静安区南京西路818号818广场701室(近石门一路)"},{"poiid":"B2094753D76FAAFA449C","title":"上海滩国泰旗舰店","lon":"121.466011","lat":"31.216125","category":"249","category_name":"购物服务","address":"淮海中路868号"},{"poiid":"B209475CD564A7F84292","title":"上海滩新天地店","lon":"121.47463","lat":"31.22164","category":"119","category_name":"商场","address":"\"太仓路181弄新天地北里15号\r\n\""},{"poiid":"B209475CD564A7F8439E","title":"上海滩中信泰富店","lon":"121.45602","lat":"31.22851","category":"119","category_name":"商场","address":"\"南京西路1168号中信泰富广场，店铺号221.\r\n\""},{"poiid":"B2094655D268ABFC4792","title":"吴江路休闲街","lon":"121.46067","lat":"31.22994","category":"116","category_name":"特色商业街","address":"上海吴江路休闲街"},{"poiid":"B2094654DB69A4F84299","title":"星巴克(吴江路店)","lon":"121.461502","lat":"31.230398","category":"65","category_name":"咖啡厅","address":"静安区吴江路128号(近石门一路)"},{"poiid":"B2094654DA6CA1F5459E","title":"满记甜品 吴江路店","lon":"121.4610946","lat":"31.2301023","category":"67","category_name":"甜品店","address":"静安区吴江路169号四季坊商场1楼102号单元(近南京西路)"},{"poiid":"B2094757D06FA1F9489A","title":"藏珑泰厨","lon":"121.46120173","lat":"31.230886314","category":"99","category_name":"泰国／越南菜品餐厅","address":"静安区南京西路818号818广场6楼(近石门一路)"},{"poiid":"B2094750D66CABF94899","title":"幸福131","lon":"121.4608","lat":"31.230554","category":"71","category_name":"四川菜","address":"静安区南京西路819号中创大厦4楼(近吴江路)"},{"poiid":"B2094654DA6CA1F84292","title":"王家沙(南京西路)","lon":"121.46122","lat":"31.23063","category":"257","category_name":"中餐厅","address":"静安区南京西路805号(近石门一路)"},{"poiid":"B2094655D26AAAF8449C","title":"香港狮子山下","lon":"121.46094","lat":"31.23094","category":"72","category_name":"广东菜","address":"静安区南京西路818号818广场5楼(近石门二路)"},{"poiid":"B2094757D06FABFD4793","title":"wagas","lon":"121.460855738","lat":"31.2299632944","category":"500","category_name":"未知分类","address":"上海吴江路"},{"poiid":"B2094757D06FA0FB4998","title":"半山小馆","lon":"121.46059521","lat":"31.230252198","category":"91","category_name":"台湾菜","address":"静安区南京西路818号818广场6楼(石门一路口)"},{"poiid":"B2094757D06EAAF44799","title":"马莎百货(南京西路店)","lon":"121.46058","lat":"31.23005","category":"119","category_name":"商场","address":"静安区南京西路863号(近石门一路)"},{"poiid":"B2094757DB68A5F5449E","title":"古丽仙西域情餐厅 GULIXIAN RESTAURANT","lon":"121.460917","lat":"31.231043","category":"90","category_name":"清真餐馆","address":"静安区南京西路818号818广场5楼(近石门一路)"},{"poiid":"B2094757D06FA6FC4093","title":"藏珑云海","lon":"121.46067198","lat":"31.230039417","category":"260","category_name":"其他","address":"静安区南京西路818号818广场6楼(石门一路口)"},{"poiid":"B2094757DA6EA6FB419A","title":"合点寿司(南京西路店)","lon":"121.461213999998","lat":"31.2304790000002","category":"95","category_name":"日本料理","address":"静安区南京西路818号818广场B1楼(近石门一路)"},{"poiid":"B2094757D06FA3F9429F","title":"权味 吴江路店","lon":"121.461074","lat":"31.230026","category":"96","category_name":"韩国料理","address":"静安区吴江路169号四季坊商场2楼(近石门一路)"},{"poiid":"B2094757D06AA5F4459D","title":"Awfully Chocolate","lon":"121.461541738","lat":"31.2302323001","category":"500","category_name":"未知分类","address":"上海市静安区泰兴路"},{"poiid":"B2094757D06FAAF94793","title":"乡音书苑","lon":"121.460323154","lat":"31.2307423837","category":"260","category_name":"其他","address":"静安区南京西路860弄1号(近石门一路)"},{"poiid":"B2094655D26FA5FC489A","title":"四季坊","lon":"121.46162","lat":"31.22993","category":"119","category_name":"商场","address":"静安区吴江路169号2楼(近南京西路)"},{"poiid":"B2094757D06FA6FF429B","title":"泰意Lapis Cafe","lon":"121.460911738","lat":"31.2306823097","category":"94","category_name":"西餐厅","address":"静安区南京西路818号818广场6楼(近石门一路)"},{"poiid":"B2094757D06FA3FF419F","title":"Wagas沃歌斯(吴江路店)","lon":"121.46191406","lat":"31.230632782","category":"94","category_name":"西餐厅","address":"静安区吴江路169号四季坊116室(近泰兴路)"},{"poiid":"B2094757D76AA1FF469F","title":"拉面玩家 四季坊店","lon":"121.461104","lat":"31.229991","category":"68","category_name":"快餐厅","address":"静安区吴江路153号四季坊242单位(近石门一路)"},{"poiid":"B2094655D26AABFD4592","title":"佰家仟味","lon":"121.46094","lat":"31.23094","category":"260","category_name":"其他","address":"静安区南京西路818号818广场5楼(近石门一路)"},{"poiid":"B2094757D06FA0F9409A","title":"悦蓉香锅牛蛙馆","lon":"121.461138","lat":"31.230666","category":"247","category_name":"餐饮美食","address":"上海南京西路818号(818广场)B1"},{"poiid":"B2094757D065A7F94698","title":"大渔铁板烧","lon":"121.460854738","lat":"31.2307773117","category":"247","category_name":"餐饮美食","address":"上海静安区南京西路818号6楼"},{"poiid":"B2094750DA68A2F54792","title":"LA PASTA 義面屋","lon":"121.460853","lat":"31.230667","category":"247","category_name":"餐饮美食","address":null},{"poiid":"B2094757D46EA5F54798","title":"金必多茶餐厅","lon":"121.4609876","lat":"31.2307105","category":"72","category_name":"广东菜","address":"静安区南京西路819号开欣商厦410室(近石门一路)"},{"poiid":"B2094757D66FA6FA469F","title":"GAP(南京西路店)","lon":"121.46075169","lat":"31.230473985","category":"141","category_name":"服装鞋帽皮具店","address":"静安区南京西路819号中创大厦1-2楼(石门一路口)"},{"poiid":"B2094757D06FA3F4499D","title":"DQ冰雪皇后(吴江店)","lon":"121.46162","lat":"31.229935","category":"113","category_name":"冷饮店","address":"静安区吴江路169号四季坊1楼(近石门一路)"},{"poiid":"B2094757D069A2F9429D","title":"玛莎百货咖啡厅","lon":"121.460338054","lat":"31.230278793","category":"65","category_name":"咖啡厅","address":"南京西路863号玛莎百货4楼近石门一路"},{"poiid":"B2094654DA6CA1F5469A","title":"香啡缤 吴江路店 Coffee Bean&Tea Leaf","lon":"121.461022054","lat":"31.229906793","category":"65","category_name":"咖啡厅","address":"静安区吴江路169号静安四季坊145-146单元(近石门一路)"},{"poiid":"B2094757D06AA4FB499C","title":"Noz Michio Nozawa Hair Produce","lon":"121.46091669","lat":"31.230796314","category":"500","category_name":"未知分类","address":"上海静安区南京西路832号"},{"poiid":"B2094757D06BA3FA489A","title":"HM","lon":"121.461163338","lat":"31.2305978079","category":"141","category_name":"服装鞋帽皮具店","address":"上海南京西路865号"},{"poiid":"B2094752D16BA6F94192","title":"许留山（吴江路店）","lon":"121.460549","lat":"31.230808","category":"247","category_name":"餐饮美食","address":"静安区吴江路269号湟普汇商场1楼C单元"},{"poiid":"B2094757D56CABFB409A","title":"芋贵人甜品店 南京西路店","lon":"121.4609876","lat":"31.2307105","category":"67","category_name":"甜品店","address":"静安区南京西路819号开欣商场412室"},{"poiid":"B2094750D565A1FA489A","title":"花の舞","lon":"121.460815","lat":"31.230707","category":"95","category_name":"日本料理","address":"静安区南京西路819号中创大厦5楼(近吴江路)"},{"poiid":"B2094654DB6BA6F4449B","title":"振鼎鸡(静安店)","lon":"121.46159","lat":"31.23197","category":"68","category_name":"快餐厅","address":"静安区石门二路61号(近北京西路)"},{"poiid":"B2094757D468AAF9459C","title":"GCX","lon":"121.461331","lat":"31.230426","category":"94","category_name":"西餐厅","address":"静安区吴江路休闲步行街138号2楼(近石门一路)"},{"poiid":"B2094750DB68A2F44098","title":"品欢相声会馆","lon":"121.460662","lat":"31.231037","category":"500","category_name":"未知分类","address":"南京西路860号"},{"poiid":"B2094757D16CAAF9419C","title":"虹橋國際機場t2航站樓b5-m3-b16","lon":"121.46053223","lat":"31.231014816","category":"500","category_name":"未知分类","address":"上海虹橋國際機場t2航站樓b5-m3-b16"},{"poiid":"B2094757D76DA0F4429F","title":"越旺法式越南菜 PHO 26","lon":"121.460315054","lat":"31.230335793","category":"99","category_name":"泰国／越南菜品餐厅","address":"静安区吴江路178号2楼(玛莎商场对面)"},{"poiid":"B2094757D465A6F8469C","title":"味千拉面 818广场店","lon":"121.461623054","lat":"31.231004793","category":"95","category_name":"日本料理","address":"静安区南京西路818号818广场B1楼104B(近石门一路)"},{"poiid":"B2094757D068A7F8459B","title":"南京美发店(南京西路店)","lon":"121.46209","lat":"31.23075","category":"148","category_name":"美容美发店","address":"静安区南京西路784号(近石门一路)"},{"poiid":"B2094757DA6FA2FD449B","title":"神户明味家七轮烧肉","lon":"121.460747999999","lat":"31.2304259999998","category":"269","category_name":"烧烤","address":"静安区南京西路819号中创大厦5楼(近吴江路)"},{"poiid":"B2094655D26DA3FE469B","title":"MARKS & SPENCER","lon":"121.46036","lat":"31.23035","category":"141","category_name":"服装鞋帽皮具店","address":"卢湾区淮海中路112号(近龙门路)"},{"poiid":"B2094654DA6CA2F8499B","title":"吴江路东段小吃街","lon":"121.46176","lat":"31.23032","category":"116","category_name":"特色商业街","address":"吴江路"},{"poiid":"B2094655D26AAAFE4992","title":"818广场","lon":"121.46094","lat":"31.23094","category":"119","category_name":"商场","address":"静安区南京西路818号(近石门一路)"},{"poiid":"B2094757D168A7F5429B","title":"江边城外巫山烤全鱼(南京西路店)","lon":"121.460719078","lat":"31.2302828712","category":"71","category_name":"四川菜","address":"静安区南京西路819号中创大厦5楼(近地铁2号线南京西路站)"},{"poiid":"B2094757DA6EA6F5469B","title":"外婆家(818广场店)","lon":"121.460788249969","lat":"31.230931141954","category":"75","category_name":"浙江菜","address":"静安区南京西路818号818广场701室(近石门一路)"},{"poiid":"B2094753D76FAAFA449C","title":"上海滩国泰旗舰店","lon":"121.466011","lat":"31.216125","category":"249","category_name":"购物服务","address":"淮海中路868号"},{"poiid":"B209475CD564A7F84292","title":"上海滩新天地店","lon":"121.47463","lat":"31.22164","category":"119","category_name":"商场","address":"\"太仓路181弄新天地北里15号\r\n\""},{"poiid":"B209475CD564A7F8439E","title":"上海滩中信泰富店","lon":"121.45602","lat":"31.22851","category":"119","category_name":"商场","address":"\"南京西路1168号中信泰富广场，店铺号221.\r\n\""},{"poiid":"B2094655D268ABFC4792","title":"吴江路休闲街","lon":"121.46067","lat":"31.22994","category":"116","category_name":"特色商业街","address":"上海吴江路休闲街"},{"poiid":"B2094654DB69A4F84299","title":"星巴克(吴江路店)","lon":"121.461502","lat":"31.230398","category":"65","category_name":"咖啡厅","address":"静安区吴江路128号(近石门一路)"},{"poiid":"B2094654DA6CA1F5459E","title":"满记甜品 吴江路店","lon":"121.4610946","lat":"31.2301023","category":"67","category_name":"甜品店","address":"静安区吴江路169号四季坊商场1楼102号单元(近南京西路)"},{"poiid":"B2094757D06FA1F9489A","title":"藏珑泰厨","lon":"121.46120173","lat":"31.230886314","category":"99","category_name":"泰国／越南菜品餐厅","address":"静安区南京西路818号818广场6楼(近石门一路)"},{"poiid":"B2094750D66CABF94899","title":"幸福131","lon":"121.4608","lat":"31.230554","category":"71","category_name":"四川菜","address":"静安区南京西路819号中创大厦4楼(近吴江路)"},{"poiid":"B2094654DA6CA1F84292","title":"王家沙(南京西路)","lon":"121.46122","lat":"31.23063","category":"257","category_name":"中餐厅","address":"静安区南京西路805号(近石门一路)"},{"poiid":"B2094655D26AAAF8449C","title":"香港狮子山下","lon":"121.46094","lat":"31.23094","category":"72","category_name":"广东菜","address":"静安区南京西路818号818广场5楼(近石门二路)"},{"poiid":"B2094757D06FABFD4793","title":"wagas","lon":"121.460855738","lat":"31.2299632944","category":"500","category_name":"未知分类","address":"上海吴江路"},{"poiid":"B2094757D06FA0FB4998","title":"半山小馆","lon":"121.46059521","lat":"31.230252198","category":"91","category_name":"台湾菜","address":"静安区南京西路818号818广场6楼(石门一路口)"},{"poiid":"B2094757D06EAAF44799","title":"马莎百货(南京西路店)","lon":"121.46058","lat":"31.23005","category":"119","category_name":"商场","address":"静安区南京西路863号(近石门一路)"},{"poiid":"B2094757DB68A5F5449E","title":"古丽仙西域情餐厅 GULIXIAN RESTAURANT","lon":"121.460917","lat":"31.231043","category":"90","category_name":"清真餐馆","address":"静安区南京西路818号818广场5楼(近石门一路)"},{"poiid":"B2094757D06FA6FC4093","title":"藏珑云海","lon":"121.46067198","lat":"31.230039417","category":"260","category_name":"其他","address":"静安区南京西路818号818广场6楼(石门一路口)"},{"poiid":"B2094757DA6EA6FB419A","title":"合点寿司(南京西路店)","lon":"121.461213999998","lat":"31.2304790000002","category":"95","category_name":"日本料理","address":"静安区南京西路818号818广场B1楼(近石门一路)"},{"poiid":"B2094757D06FA3F9429F","title":"权味 吴江路店","lon":"121.461074","lat":"31.230026","category":"96","category_name":"韩国料理","address":"静安区吴江路169号四季坊商场2楼(近石门一路)"},{"poiid":"B2094757D06AA5F4459D","title":"Awfully Chocolate","lon":"121.461541738","lat":"31.2302323001","category":"500","category_name":"未知分类","address":"上海市静安区泰兴路"},{"poiid":"B2094757D06FAAF94793","title":"乡音书苑","lon":"121.460323154","lat":"31.2307423837","category":"260","category_name":"其他","address":"静安区南京西路860弄1号(近石门一路)"},{"poiid":"B2094655D26FA5FC489A","title":"四季坊","lon":"121.46162","lat":"31.22993","category":"119","category_name":"商场","address":"静安区吴江路169号2楼(近南京西路)"},{"poiid":"B2094757D06FA6FF429B","title":"泰意Lapis Cafe","lon":"121.460911738","lat":"31.2306823097","category":"94","category_name":"西餐厅","address":"静安区南京西路818号818广场6楼(近石门一路)"},{"poiid":"B2094757D06FA3FF419F","title":"Wagas沃歌斯(吴江路店)","lon":"121.46191406","lat":"31.230632782","category":"94","category_name":"西餐厅","address":"静安区吴江路169号四季坊116室(近泰兴路)"},{"poiid":"B2094757D76AA1FF469F","title":"拉面玩家 四季坊店","lon":"121.461104","lat":"31.229991","category":"68","category_name":"快餐厅","address":"静安区吴江路153号四季坊242单位(近石门一路)"},{"poiid":"B2094655D26AABFD4592","title":"佰家仟味","lon":"121.46094","lat":"31.23094","category":"260","category_name":"其他","address":"静安区南京西路818号818广场5楼(近石门一路)"},{"poiid":"B2094757D06FA0F9409A","title":"悦蓉香锅牛蛙馆","lon":"121.461138","lat":"31.230666","category":"247","category_name":"餐饮美食","address":"上海南京西路818号(818广场)B1"},{"poiid":"B2094757D065A7F94698","title":"大渔铁板烧","lon":"121.460854738","lat":"31.2307773117","category":"247","category_name":"餐饮美食","address":"上海静安区南京西路818号6楼"},{"poiid":"B2094750DA68A2F54792","title":"LA PASTA 義面屋","lon":"121.460853","lat":"31.230667","category":"247","category_name":"餐饮美食","address":null},{"poiid":"B2094757D46EA5F54798","title":"金必多茶餐厅","lon":"121.4609876","lat":"31.2307105","category":"72","category_name":"广东菜","address":"静安区南京西路819号开欣商厦410室(近石门一路)"},{"poiid":"B2094757D66FA6FA469F","title":"GAP(南京西路店)","lon":"121.46075169","lat":"31.230473985","category":"141","category_name":"服装鞋帽皮具店","address":"静安区南京西路819号中创大厦1-2楼(石门一路口)"},{"poiid":"B2094757D06FA3F4499D","title":"DQ冰雪皇后(吴江店)","lon":"121.46162","lat":"31.229935","category":"113","category_name":"冷饮店","address":"静安区吴江路169号四季坊1楼(近石门一路)"},{"poiid":"B2094757D069A2F9429D","title":"玛莎百货咖啡厅","lon":"121.460338054","lat":"31.230278793","category":"65","category_name":"咖啡厅","address":"南京西路863号玛莎百货4楼近石门一路"},{"poiid":"B2094654DA6CA1F5469A","title":"香啡缤 吴江路店 Coffee Bean&Tea Leaf","lon":"121.461022054","lat":"31.229906793","category":"65","category_name":"咖啡厅","address":"静安区吴江路169号静安四季坊145-146单元(近石门一路)"},{"poiid":"B2094757D06AA4FB499C","title":"Noz Michio Nozawa Hair Produce","lon":"121.46091669","lat":"31.230796314","category":"500","category_name":"未知分类","address":"上海静安区南京西路832号"},{"poiid":"B2094757D06BA3FA489A","title":"HM","lon":"121.461163338","lat":"31.2305978079","category":"141","category_name":"服装鞋帽皮具店","address":"上海南京西路865号"},{"poiid":"B2094752D16BA6F94192","title":"许留山（吴江路店）","lon":"121.460549","lat":"31.230808","category":"247","category_name":"餐饮美食","address":"静安区吴江路269号湟普汇商场1楼C单元"},{"poiid":"B2094757D56CABFB409A","title":"芋贵人甜品店 南京西路店","lon":"121.4609876","lat":"31.2307105","category":"67","category_name":"甜品店","address":"静安区南京西路819号开欣商场412室"},{"poiid":"B2094750D565A1FA489A","title":"花の舞","lon":"121.460815","lat":"31.230707","category":"95","category_name":"日本料理","address":"静安区南京西路819号中创大厦5楼(近吴江路)"},{"poiid":"B2094654DB6BA6F4449B","title":"振鼎鸡(静安店)","lon":"121.46159","lat":"31.23197","category":"68","category_name":"快餐厅","address":"静安区石门二路61号(近北京西路)"},{"poiid":"B2094757D468AAF9459C","title":"GCX","lon":"121.461331","lat":"31.230426","category":"94","category_name":"西餐厅","address":"静安区吴江路休闲步行街138号2楼(近石门一路)"},{"poiid":"B2094750DB68A2F44098","title":"品欢相声会馆","lon":"121.460662","lat":"31.231037","category":"500","category_name":"未知分类","address":"南京西路860号"},{"poiid":"B2094757D16CAAF9419C","title":"虹橋國際機場t2航站樓b5-m3-b16","lon":"121.46053223","lat":"31.231014816","category":"500","category_name":"未知分类","address":"上海虹橋國際機場t2航站樓b5-m3-b16"},{"poiid":"B2094757D76DA0F4429F","title":"越旺法式越南菜 PHO 26","lon":"121.460315054","lat":"31.230335793","category":"99","category_name":"泰国／越南菜品餐厅","address":"静安区吴江路178号2楼(玛莎商场对面)"},{"poiid":"B2094757D465A6F8469C","title":"味千拉面 818广场店","lon":"121.461623054","lat":"31.231004793","category":"95","category_name":"日本料理","address":"静安区南京西路818号818广场B1楼104B(近石门一路)"},{"poiid":"B2094757D068A7F8459B","title":"南京美发店(南京西路店)","lon":"121.46209","lat":"31.23075","category":"148","category_name":"美容美发店","address":"静安区南京西路784号(近石门一路)"},{"poiid":"B2094757DA6FA2FD449B","title":"神户明味家七轮烧肉","lon":"121.460747999999","lat":"31.2304259999998","category":"269","category_name":"烧烤","address":"静安区南京西路819号中创大厦5楼(近吴江路)"},{"poiid":"B2094655D26DA3FE469B","title":"MARKS & SPENCER","lon":"121.46036","lat":"31.23035","category":"141","category_name":"服装鞋帽皮具店","address":"卢湾区淮海中路112号(近龙门路)"},{"poiid":"B2094654DA6CA2F8499B","title":"吴江路东段小吃街","lon":"121.46176","lat":"31.23032","category":"116","category_name":"特色商业街","address":"吴江路"},{"poiid":"B2094655D26AAAFE4992","title":"818广场","lon":"121.46094","lat":"31.23094","category":"119","category_name":"商场","address":"静安区南京西路818号(近石门一路)"},{"poiid":"B2094757D168A7F5429B","title":"江边城外巫山烤全鱼(南京西路店)","lon":"121.460719078","lat":"31.2302828712","category":"71","category_name":"四川菜","address":"静安区南京西路819号中创大厦5楼(近地铁2号线南京西路站)"},{"poiid":"B2094757DA6EA6F5469B","title":"外婆家(818广场店)","lon":"121.460788249969","lat":"31.230931141954","category":"75","category_name":"浙江菜","address":"静安区南京西路818号818广场701室(近石门一路)"},{"poiid":"B2094753D76FAAFA449C","title":"上海滩国泰旗舰店","lon":"121.466011","lat":"31.216125","category":"249","category_name":"购物服务","address":"淮海中路868号"},{"poiid":"B209475CD564A7F84292","title":"上海滩新天地店","lon":"121.47463","lat":"31.22164","category":"119","category_name":"商场","address":"\"太仓路181弄新天地北里15号\r\n\""},{"poiid":"B209475CD564A7F8439E","title":"上海滩中信泰富店","lon":"121.45602","lat":"31.22851","category":"119","category_name":"商场","address":"\"南京西路1168号中信泰富广场，店铺号221.\r\n\""},{"poiid":"B2094655D268ABFC4792","title":"吴江路休闲街","lon":"121.46067","lat":"31.22994","category":"116","category_name":"特色商业街","address":"上海吴江路休闲街"},{"poiid":"B2094654DB69A4F84299","title":"星巴克(吴江路店)","lon":"121.461502","lat":"31.230398","category":"65","category_name":"咖啡厅","address":"静安区吴江路128号(近石门一路)"},{"poiid":"B2094654DA6CA1F5459E","title":"满记甜品 吴江路店","lon":"121.4610946","lat":"31.2301023","category":"67","category_name":"甜品店","address":"静安区吴江路169号四季坊商场1楼102号单元(近南京西路)"},{"poiid":"B2094757D06FA1F9489A","title":"藏珑泰厨","lon":"121.46120173","lat":"31.230886314","category":"99","category_name":"泰国／越南菜品餐厅","address":"静安区南京西路818号818广场6楼(近石门一路)"},{"poiid":"B2094750D66CABF94899","title":"幸福131","lon":"121.4608","lat":"31.230554","category":"71","category_name":"四川菜","address":"静安区南京西路819号中创大厦4楼(近吴江路)"},{"poiid":"B2094654DA6CA1F84292","title":"王家沙(南京西路)","lon":"121.46122","lat":"31.23063","category":"257","category_name":"中餐厅","address":"静安区南京西路805号(近石门一路)"},{"poiid":"B2094655D26AAAF8449C","title":"香港狮子山下","lon":"121.46094","lat":"31.23094","category":"72","category_name":"广东菜","address":"静安区南京西路818号818广场5楼(近石门二路)"},{"poiid":"B2094757D06FABFD4793","title":"wagas","lon":"121.460855738","lat":"31.2299632944","category":"500","category_name":"未知分类","address":"上海吴江路"},{"poiid":"B2094757D06FA0FB4998","title":"半山小馆","lon":"121.46059521","lat":"31.230252198","category":"91","category_name":"台湾菜","address":"静安区南京西路818号818广场6楼(石门一路口)"},{"poiid":"B2094757D06EAAF44799","title":"马莎百货(南京西路店)","lon":"121.46058","lat":"31.23005","category":"119","category_name":"商场","address":"静安区南京西路863号(近石门一路)"},{"poiid":"B2094757DB68A5F5449E","title":"古丽仙西域情餐厅 GULIXIAN RESTAURANT","lon":"121.460917","lat":"31.231043","category":"90","category_name":"清真餐馆","address":"静安区南京西路818号818广场5楼(近石门一路)"},{"poiid":"B2094757D06FA6FC4093","title":"藏珑云海","lon":"121.46067198","lat":"31.230039417","category":"260","category_name":"其他","address":"静安区南京西路818号818广场6楼(石门一路口)"},{"poiid":"B2094757DA6EA6FB419A","title":"合点寿司(南京西路店)","lon":"121.461213999998","lat":"31.2304790000002","category":"95","category_name":"日本料理","address":"静安区南京西路818号818广场B1楼(近石门一路)"},{"poiid":"B2094757D06FA3F9429F","title":"权味 吴江路店","lon":"121.461074","lat":"31.230026","category":"96","category_name":"韩国料理","address":"静安区吴江路169号四季坊商场2楼(近石门一路)"},{"poiid":"B2094757D06AA5F4459D","title":"Awfully Chocolate","lon":"121.461541738","lat":"31.2302323001","category":"500","category_name":"未知分类","address":"上海市静安区泰兴路"},{"poiid":"B2094757D06FAAF94793","title":"乡音书苑","lon":"121.460323154","lat":"31.2307423837","category":"260","category_name":"其他","address":"静安区南京西路860弄1号(近石门一路)"},{"poiid":"B2094655D26FA5FC489A","title":"四季坊","lon":"121.46162","lat":"31.22993","category":"119","category_name":"商场","address":"静安区吴江路169号2楼(近南京西路)"},{"poiid":"B2094757D06FA6FF429B","title":"泰意Lapis Cafe","lon":"121.460911738","lat":"31.2306823097","category":"94","category_name":"西餐厅","address":"静安区南京西路818号818广场6楼(近石门一路)"},{"poiid":"B2094757D06FA3FF419F","title":"Wagas沃歌斯(吴江路店)","lon":"121.46191406","lat":"31.230632782","category":"94","category_name":"西餐厅","address":"静安区吴江路169号四季坊116室(近泰兴路)"},{"poiid":"B2094757D76AA1FF469F","title":"拉面玩家 四季坊店","lon":"121.461104","lat":"31.229991","category":"68","category_name":"快餐厅","address":"静安区吴江路153号四季坊242单位(近石门一路)"},{"poiid":"B2094655D26AABFD4592","title":"佰家仟味","lon":"121.46094","lat":"31.23094","category":"260","category_name":"其他","address":"静安区南京西路818号818广场5楼(近石门一路)"},{"poiid":"B2094757D06FA0F9409A","title":"悦蓉香锅牛蛙馆","lon":"121.461138","lat":"31.230666","category":"247","category_name":"餐饮美食","address":"上海南京西路818号(818广场)B1"},{"poiid":"B2094757D065A7F94698","title":"大渔铁板烧","lon":"121.460854738","lat":"31.2307773117","category":"247","category_name":"餐饮美食","address":"上海静安区南京西路818号6楼"},{"poiid":"B2094750DA68A2F54792","title":"LA PASTA 義面屋","lon":"121.460853","lat":"31.230667","category":"247","category_name":"餐饮美食","address":null},{"poiid":"B2094757D46EA5F54798","title":"金必多茶餐厅","lon":"121.4609876","lat":"31.2307105","category":"72","category_name":"广东菜","address":"静安区南京西路819号开欣商厦410室(近石门一路)"},{"poiid":"B2094757D66FA6FA469F","title":"GAP(南京西路店)","lon":"121.46075169","lat":"31.230473985","category":"141","category_name":"服装鞋帽皮具店","address":"静安区南京西路819号中创大厦1-2楼(石门一路口)"},{"poiid":"B2094757D06FA3F4499D","title":"DQ冰雪皇后(吴江店)","lon":"121.46162","lat":"31.229935","category":"113","category_name":"冷饮店","address":"静安区吴江路169号四季坊1楼(近石门一路)"},{"poiid":"B2094757D069A2F9429D","title":"玛莎百货咖啡厅","lon":"121.460338054","lat":"31.230278793","category":"65","category_name":"咖啡厅","address":"南京西路863号玛莎百货4楼近石门一路"},{"poiid":"B2094654DA6CA1F5469A","title":"香啡缤 吴江路店 Coffee Bean&Tea Leaf","lon":"121.461022054","lat":"31.229906793","category":"65","category_name":"咖啡厅","address":"静安区吴江路169号静安四季坊145-146单元(近石门一路)"},{"poiid":"B2094757D06AA4FB499C","title":"Noz Michio Nozawa Hair Produce","lon":"121.46091669","lat":"31.230796314","category":"500","category_name":"未知分类","address":"上海静安区南京西路832号"},{"poiid":"B2094757D06BA3FA489A","title":"HM","lon":"121.461163338","lat":"31.2305978079","category":"141","category_name":"服装鞋帽皮具店","address":"上海南京西路865号"},{"poiid":"B2094752D16BA6F94192","title":"许留山（吴江路店）","lon":"121.460549","lat":"31.230808","category":"247","category_name":"餐饮美食","address":"静安区吴江路269号湟普汇商场1楼C单元"},{"poiid":"B2094757D56CABFB409A","title":"芋贵人甜品店 南京西路店","lon":"121.4609876","lat":"31.2307105","category":"67","category_name":"甜品店","address":"静安区南京西路819号开欣商场412室"},{"poiid":"B2094750D565A1FA489A","title":"花の舞","lon":"121.460815","lat":"31.230707","category":"95","category_name":"日本料理","address":"静安区南京西路819号中创大厦5楼(近吴江路)"},{"poiid":"B2094654DB6BA6F4449B","title":"振鼎鸡(静安店)","lon":"121.46159","lat":"31.23197","category":"68","category_name":"快餐厅","address":"静安区石门二路61号(近北京西路)"},{"poiid":"B2094757D468AAF9459C","title":"GCX","lon":"121.461331","lat":"31.230426","category":"94","category_name":"西餐厅","address":"静安区吴江路休闲步行街138号2楼(近石门一路)"},{"poiid":"B2094750DB68A2F44098","title":"品欢相声会馆","lon":"121.460662","lat":"31.231037","category":"500","category_name":"未知分类","address":"南京西路860号"},{"poiid":"B2094757D16CAAF9419C","title":"虹橋國際機場t2航站樓b5-m3-b16","lon":"121.46053223","lat":"31.231014816","category":"500","category_name":"未知分类","address":"上海虹橋國際機場t2航站樓b5-m3-b16"},{"poiid":"B2094757D76DA0F4429F","title":"越旺法式越南菜 PHO 26","lon":"121.460315054","lat":"31.230335793","category":"99","category_name":"泰国／越南菜品餐厅","address":"静安区吴江路178号2楼(玛莎商场对面)"},{"poiid":"B2094757D465A6F8469C","title":"味千拉面 818广场店","lon":"121.461623054","lat":"31.231004793","category":"95","category_name":"日本料理","address":"静安区南京西路818号818广场B1楼104B(近石门一路)"},{"poiid":"B2094757D068A7F8459B","title":"南京美发店(南京西路店)","lon":"121.46209","lat":"31.23075","category":"148","category_name":"美容美发店","address":"静安区南京西路784号(近石门一路)"},{"poiid":"B2094757DA6FA2FD449B","title":"神户明味家七轮烧肉","lon":"121.460747999999","lat":"31.2304259999998","category":"269","category_name":"烧烤","address":"静安区南京西路819号中创大厦5楼(近吴江路)"},{"poiid":"B2094655D26DA3FE469B","title":"MARKS & SPENCER","lon":"121.46036","lat":"31.23035","category":"141","category_name":"服装鞋帽皮具店","address":"卢湾区淮海中路112号(近龙门路)"},{"poiid":"B2094654DA6CA2F8499B","title":"吴江路东段小吃街","lon":"121.46176","lat":"31.23032","category":"116","category_name":"特色商业街","address":"吴江路"},{"poiid":"B2094655D26AAAFE4992","title":"818广场","lon":"121.46094","lat":"31.23094","category":"119","category_name":"商场","address":"静安区南京西路818号(近石门一路)"},{"poiid":"B2094757D168A7F5429B","title":"江边城外巫山烤全鱼(南京西路店)","lon":"121.460719078","lat":"31.2302828712","category":"71","category_name":"四川菜","address":"静安区南京西路819号中创大厦5楼(近地铁2号线南京西路站)"},{"poiid":"B2094757DA6EA6F5469B","title":"外婆家(818广场店)","lon":"121.460788249969","lat":"31.230931141954","category":"75","category_name":"浙江菜","address":"静安区南京西路818号818广场701室(近石门一路)"},{"poiid":"B2094753D76FAAFA449C","title":"上海滩国泰旗舰店","lon":"121.466011","lat":"31.216125","category":"249","category_name":"购物服务","address":"淮海中路868号"},{"poiid":"B209475CD564A7F84292","title":"上海滩新天地店","lon":"121.47463","lat":"31.22164","category":"119","category_name":"商场","address":"\"太仓路181弄新天地北里15号\r\n\""},{"poiid":"B209475CD564A7F8439E","title":"上海滩中信泰富店","lon":"121.45602","lat":"31.22851","category":"119","category_name":"商场","address":"\"南京西路1168号中信泰富广场，店铺号221.\r\n\""},{"poiid":"B2094655D268ABFC4792","title":"吴江路休闲街","lon":"121.46067","lat":"31.22994","category":"116","category_name":"特色商业街","address":"上海吴江路休闲街"},{"poiid":"B2094654DB69A4F84299","title":"星巴克(吴江路店)","lon":"121.461502","lat":"31.230398","category":"65","category_name":"咖啡厅","address":"静安区吴江路128号(近石门一路)"},{"poiid":"B2094654DA6CA1F5459E","title":"满记甜品 吴江路店","lon":"121.4610946","lat":"31.2301023","category":"67","category_name":"甜品店","address":"静安区吴江路169号四季坊商场1楼102号单元(近南京西路)"},{"poiid":"B2094757D06FA1F9489A","title":"藏珑泰厨","lon":"121.46120173","lat":"31.230886314","category":"99","category_name":"泰国／越南菜品餐厅","address":"静安区南京西路818号818广场6楼(近石门一路)"},{"poiid":"B2094750D66CABF94899","title":"幸福131","lon":"121.4608","lat":"31.230554","category":"71","category_name":"四川菜","address":"静安区南京西路819号中创大厦4楼(近吴江路)"},{"poiid":"B2094654DA6CA1F84292","title":"王家沙(南京西路)","lon":"121.46122","lat":"31.23063","category":"257","category_name":"中餐厅","address":"静安区南京西路805号(近石门一路)"},{"poiid":"B2094655D26AAAF8449C","title":"香港狮子山下","lon":"121.46094","lat":"31.23094","category":"72","category_name":"广东菜","address":"静安区南京西路818号818广场5楼(近石门二路)"},{"poiid":"B2094757D06FABFD4793","title":"wagas","lon":"121.460855738","lat":"31.2299632944","category":"500","category_name":"未知分类","address":"上海吴江路"},{"poiid":"B2094757D06FA0FB4998","title":"半山小馆","lon":"121.46059521","lat":"31.230252198","category":"91","category_name":"台湾菜","address":"静安区南京西路818号818广场6楼(石门一路口)"},{"poiid":"B2094757D06EAAF44799","title":"马莎百货(南京西路店)","lon":"121.46058","lat":"31.23005","category":"119","category_name":"商场","address":"静安区南京西路863号(近石门一路)"},{"poiid":"B2094757DB68A5F5449E","title":"古丽仙西域情餐厅 GULIXIAN RESTAURANT","lon":"121.460917","lat":"31.231043","category":"90","category_name":"清真餐馆","address":"静安区南京西路818号818广场5楼(近石门一路)"},{"poiid":"B2094757D06FA6FC4093","title":"藏珑云海","lon":"121.46067198","lat":"31.230039417","category":"260","category_name":"其他","address":"静安区南京西路818号818广场6楼(石门一路口)"},{"poiid":"B2094757DA6EA6FB419A","title":"合点寿司(南京西路店)","lon":"121.461213999998","lat":"31.2304790000002","category":"95","category_name":"日本料理","address":"静安区南京西路818号818广场B1楼(近石门一路)"},{"poiid":"B2094757D06FA3F9429F","title":"权味 吴江路店","lon":"121.461074","lat":"31.230026","category":"96","category_name":"韩国料理","address":"静安区吴江路169号四季坊商场2楼(近石门一路)"},{"poiid":"B2094757D06AA5F4459D","title":"Awfully Chocolate","lon":"121.461541738","lat":"31.2302323001","category":"500","category_name":"未知分类","address":"上海市静安区泰兴路"},{"poiid":"B2094757D06FAAF94793","title":"乡音书苑","lon":"121.460323154","lat":"31.2307423837","category":"260","category_name":"其他","address":"静安区南京西路860弄1号(近石门一路)"},{"poiid":"B2094655D26FA5FC489A","title":"四季坊","lon":"121.46162","lat":"31.22993","category":"119","category_name":"商场","address":"静安区吴江路169号2楼(近南京西路)"},{"poiid":"B2094757D06FA6FF429B","title":"泰意Lapis Cafe","lon":"121.460911738","lat":"31.2306823097","category":"94","category_name":"西餐厅","address":"静安区南京西路818号818广场6楼(近石门一路)"},{"poiid":"B2094757D06FA3FF419F","title":"Wagas沃歌斯(吴江路店)","lon":"121.46191406","lat":"31.230632782","category":"94","category_name":"西餐厅","address":"静安区吴江路169号四季坊116室(近泰兴路)"},{"poiid":"B2094757D76AA1FF469F","title":"拉面玩家 四季坊店","lon":"121.461104","lat":"31.229991","category":"68","category_name":"快餐厅","address":"静安区吴江路153号四季坊242单位(近石门一路)"},{"poiid":"B2094655D26AABFD4592","title":"佰家仟味","lon":"121.46094","lat":"31.23094","category":"260","category_name":"其他","address":"静安区南京西路818号818广场5楼(近石门一路)"},{"poiid":"B2094757D06FA0F9409A","title":"悦蓉香锅牛蛙馆","lon":"121.461138","lat":"31.230666","category":"247","category_name":"餐饮美食","address":"上海南京西路818号(818广场)B1"},{"poiid":"B2094757D065A7F94698","title":"大渔铁板烧","lon":"121.460854738","lat":"31.2307773117","category":"247","category_name":"餐饮美食","address":"上海静安区南京西路818号6楼"},{"poiid":"B2094750DA68A2F54792","title":"LA PASTA 義面屋","lon":"121.460853","lat":"31.230667","category":"247","category_name":"餐饮美食","address":null},{"poiid":"B2094757D46EA5F54798","title":"金必多茶餐厅","lon":"121.4609876","lat":"31.2307105","category":"72","category_name":"广东菜","address":"静安区南京西路819号开欣商厦410室(近石门一路)"},{"poiid":"B2094757D66FA6FA469F","title":"GAP(南京西路店)","lon":"121.46075169","lat":"31.230473985","category":"141","category_name":"服装鞋帽皮具店","address":"静安区南京西路819号中创大厦1-2楼(石门一路口)"},{"poiid":"B2094757D06FA3F4499D","title":"DQ冰雪皇后(吴江店)","lon":"121.46162","lat":"31.229935","category":"113","category_name":"冷饮店","address":"静安区吴江路169号四季坊1楼(近石门一路)"},{"poiid":"B2094757D069A2F9429D","title":"玛莎百货咖啡厅","lon":"121.460338054","lat":"31.230278793","category":"65","category_name":"咖啡厅","address":"南京西路863号玛莎百货4楼近石门一路"},{"poiid":"B2094654DA6CA1F5469A","title":"香啡缤 吴江路店 Coffee Bean&Tea Leaf","lon":"121.461022054","lat":"31.229906793","category":"65","category_name":"咖啡厅","address":"静安区吴江路169号静安四季坊145-146单元(近石门一路)"},{"poiid":"B2094757D06AA4FB499C","title":"Noz Michio Nozawa Hair Produce","lon":"121.46091669","lat":"31.230796314","category":"500","category_name":"未知分类","address":"上海静安区南京西路832号"},{"poiid":"B2094757D06BA3FA489A","title":"HM","lon":"121.461163338","lat":"31.2305978079","category":"141","category_name":"服装鞋帽皮具店","address":"上海南京西路865号"},{"poiid":"B2094752D16BA6F94192","title":"许留山（吴江路店）","lon":"121.460549","lat":"31.230808","category":"247","category_name":"餐饮美食","address":"静安区吴江路269号湟普汇商场1楼C单元"},{"poiid":"B2094757D56CABFB409A","title":"芋贵人甜品店 南京西路店","lon":"121.4609876","lat":"31.2307105","category":"67","category_name":"甜品店","address":"静安区南京西路819号开欣商场412室"},{"poiid":"B2094750D565A1FA489A","title":"花の舞","lon":"121.460815","lat":"31.230707","category":"95","category_name":"日本料理","address":"静安区南京西路819号中创大厦5楼(近吴江路)"},{"poiid":"B2094654DB6BA6F4449B","title":"振鼎鸡(静安店)","lon":"121.46159","lat":"31.23197","category":"68","category_name":"快餐厅","address":"静安区石门二路61号(近北京西路)"},{"poiid":"B2094757D468AAF9459C","title":"GCX","lon":"121.461331","lat":"31.230426","category":"94","category_name":"西餐厅","address":"静安区吴江路休闲步行街138号2楼(近石门一路)"},{"poiid":"B2094750DB68A2F44098","title":"品欢相声会馆","lon":"121.460662","lat":"31.231037","category":"500","category_name":"未知分类","address":"南京西路860号"},{"poiid":"B2094757D16CAAF9419C","title":"虹橋國際機場t2航站樓b5-m3-b16","lon":"121.46053223","lat":"31.231014816","category":"500","category_name":"未知分类","address":"上海虹橋國際機場t2航站樓b5-m3-b16"},{"poiid":"B2094757D76DA0F4429F","title":"越旺法式越南菜 PHO 26","lon":"121.460315054","lat":"31.230335793","category":"99","category_name":"泰国／越南菜品餐厅","address":"静安区吴江路178号2楼(玛莎商场对面)"},{"poiid":"B2094757D465A6F8469C","title":"味千拉面 818广场店","lon":"121.461623054","lat":"31.231004793","category":"95","category_name":"日本料理","address":"静安区南京西路818号818广场B1楼104B(近石门一路)"},{"poiid":"B2094757D068A7F8459B","title":"南京美发店(南京西路店)","lon":"121.46209","lat":"31.23075","category":"148","category_name":"美容美发店","address":"静安区南京西路784号(近石门一路)"},{"poiid":"B2094757DA6FA2FD449B","title":"神户明味家七轮烧肉","lon":"121.460747999999","lat":"31.2304259999998","category":"269","category_name":"烧烤","address":"静安区南京西路819号中创大厦5楼(近吴江路)"},{"poiid":"B2094655D26DA3FE469B","title":"MARKS & SPENCER","lon":"121.46036","lat":"31.23035","category":"141","category_name":"服装鞋帽皮具店","address":"卢湾区淮海中路112号(近龙门路)"},{"poiid":"B2094654DA6CA2F8499B","title":"吴江路东段小吃街","lon":"121.46176","lat":"31.23032","category":"116","category_name":"特色商业街","address":"吴江路"}]