[{"poiid":"B2094654DA68A3FD479F","title":"上海杜莎夫人蜡像馆(南京西路)","lon":"121.47367","lat":"31.23468","category":"183","category_name":"展览馆","address":"南京西路2-68号新世界城10楼"},{"poiid":"B2094757D06FA3FF469E","title":"国际饭店","lon":"121.47188","lat":"31.23312","category":"214","category_name":"四星级宾馆","address":"黄浦区南京西路170号(近黄河路)"},{"poiid":"B2094757D06FA7F4449C","title":"麻辣诱惑(新世界店)","lon":"121.473465838","lat":"31.2345230916","category":"71","category_name":"四川菜","address":"黄浦区南京西路2-68号新世界城9楼"},{"poiid":"B2094753D76FAAFA449C","title":"上海滩国泰旗舰店","lon":"121.466011","lat":"31.216125","category":"249","category_name":"购物服务","address":"淮海中路868号"},{"poiid":"B209475CD564A7F84292","title":"上海滩新天地店","lon":"121.47463","lat":"31.22164","category":"119","category_name":"商场","address":"\"太仓路181弄新天地北里15号\r\n\""},{"poiid":"B209475CD564A7F8439E","title":"上海滩中信泰富店","lon":"121.45602","lat":"31.22851","category":"119","category_name":"商场","address":"\"南京西路1168号中信泰富广场，店铺号221.\r\n\""},{"poiid":"B209475CD564A7F84392","title":"上海滩浦东香格里拉店","lon":"121.50058","lat":"31.23634","category":"119","category_name":"商场","address":"浦东富成路33号香格里拉酒店内大堂层"},{"poiid":"B2094751DA6DA1F5439F","title":"上海年代秀主题餐厅","lon":"121.473342","lat":"31.235938","category":"76","category_name":"上海菜","address":"黄浦区西藏中路525号雅居乐广场3楼308商铺(近凤阳路预计11月开业)"},{"poiid":"B2094757D06FA1F94499","title":"韩膳宫(新世界店)","lon":"121.473514938","lat":"31.2346033933","category":"96","category_name":"韩国料理","address":"黄浦区南京西路2号新世界城9楼9A(近西藏中路)"},{"poiid":"B2094654DA68A3FD419B","title":"佳家汤包 黄河店","lon":"121.47105017344","lat":"31.233958297842","category":"68","category_name":"快餐厅","address":"黄浦区黄河路90号(近凤阳路)"},{"poiid":"B2094757D06FA1FD489C","title":"新世界丽笙大酒店","lon":"121.47377","lat":"31.23436","category":"217","category_name":"旅馆招待所","address":"上海黄浦区南京西路88号(近西藏中路)  "},{"poiid":"B2094655D36CA2FC439A","title":"雅居乐国际广场","lon":"121.47251","lat":"31.23629","category":"46","category_name":"楼宇","address":"黄浦区西藏中路525号(近凤阳路)"},{"poiid":"B2094750D26AA6FA4193","title":"人民广场地铁站","lon":"121.473411","lat":"31.234584","category":"36","category_name":"地铁站","address":null},{"poiid":"B2094757D06FA3F5439B","title":"香港仔码头茶餐厅(凤阳店)","lon":"121.47068","lat":"31.23366","category":"72","category_name":"广东菜","address":"黄浦区凤阳路280号(近黄河路)"},{"poiid":"B2094757D06FA3F94293","title":"悦来酒家","lon":"121.47086","lat":"31.23386","category":"76","category_name":"上海菜","address":"黄浦区黄河路81号(近凤阳路)"},{"poiid":"B2094654DA6FAAF54499","title":"苔圣园(黄浦店)","lon":"121.47105","lat":"31.23409","category":"76","category_name":"上海菜","address":"黄浦区黄河路50号(近凤阳路)"},{"poiid":"B2094757D06BA1F84698","title":"杏花楼","lon":"121.471473738","lat":"31.2333003655","category":"72","category_name":"广东菜","address":"黄浦区黄河路21号鸿祥大厦3-4楼(近南京西路)"},{"poiid":"B2094655D269AAFC429C","title":"金门大酒店","lon":"121.47235","lat":"31.23405","category":"247","category_name":"餐饮美食","address":"南京西路108号金门大酒店8楼近西藏中路西北角"},{"poiid":"B2094757D06FA1F4489F","title":"黄河路美食街","lon":"121.47142","lat":"31.23348","category":"68","category_name":"快餐厅","address":"黄浦区黄河路(近新闸路)"},{"poiid":"B2094757D068A0F5459E","title":"K5","lon":"121.47298645","lat":"31.234065891","category":"500","category_name":"未知分类","address":"南京西路上海美术馆五楼"},{"poiid":"B2094757D06FA5FF4098","title":"金八仙","lon":"121.47112","lat":"31.23428","category":"76","category_name":"上海菜","address":"上海黄浦区黄河路96-98号(近凤阳路)"},{"poiid":"B2094757D06FA1F9479C","title":"国际饭店西饼屋(黄河路店)","lon":"121.471436532","lat":"31.233682045","category":"112","category_name":"糕饼店","address":"黄浦区黄河路28号国际饭店内"},{"poiid":"B2094757D069A1F94098","title":"上影华威电影城","lon":"121.473907","lat":"31.23492","category":"178","category_name":"电影院","address":"黄浦区南京西路2-68号新世界城11-12楼(近西藏中路)"},{"poiid":"B2094751D56FA7FC4393","title":"吉朝 寿喜锅","lon":"121.47175","lat":"31.23349","category":"268","category_name":"自助","address":"黄浦区黄河路82号(近国际饭店)"},{"poiid":"B2094757D165A0FA499A","title":"千彩休闲小火锅","lon":"121.473519738","lat":"31.2350994039","category":"247","category_name":"餐饮美食","address":"上海市黄浦区黄河路"},{"poiid":"B2094757D06FA4F84298","title":"许留山(新世界店)","lon":"121.47317173","lat":"31.235074403","category":"67","category_name":"甜品店","address":"黄浦区南京西路2-68号新世纪城12楼(近西藏中路)"},{"poiid":"B2094654DA68A3FD409C","title":"乾隆美食","lon":"121.4711458394","lat":"31.234298079704","category":"76","category_name":"上海菜","address":"黄浦区黄河路72-76号(凤阳路口)"},{"poiid":"B2094757D06EAAFB499D","title":"麦当劳(新世界店)","lon":"121.47294998","lat":"31.234666089","category":"68","category_name":"快餐厅","address":"黄浦区南京西路2-68号新世纪城B1楼(近西藏中路)"},{"poiid":"B2094757D068A5FA469A","title":"Moca Art Lab","lon":"121.47222903","lat":"31.23352867","category":"184","category_name":"美术馆","address":"上海黄浦区南京西路231号人民公园当代艺术馆3楼(近黄陂北路)"},{"poiid":"B2094655D26DA6FE419B","title":"上海华盛街","lon":"121.47183","lat":"31.23295","category":"116","category_name":"特色商业街","address":"南京西路 19~169 号"},{"poiid":"B2094757D06FA1FB439D","title":"85度C(南京西店)","lon":"121.471330475","lat":"31.2330760642","category":"112","category_name":"糕饼店","address":"黄浦区南京西路226号(近黄河路)"},{"poiid":"B2094757D664A6F9459E","title":"沪上一家辣肉面馆 黄河路店","lon":"121.470459054","lat":"31.235120793","category":"68","category_name":"快餐厅","address":"黄浦区黄河路142号(近牯岭路)"},{"poiid":"B2094757D069A2FC409E","title":"新世界冰上乐园","lon":"121.47375573","lat":"31.234568392","category":"222","category_name":"溜冰场","address":"上海南京西路2-68号新世界6L"},{"poiid":"B2094757D069AAF94292","title":"大上海国际影城","lon":"121.47379873","lat":"31.235044402","category":"500","category_name":"未知分类","address":"上海市黄浦区黄河路"},{"poiid":"B2094654DA68A3FD4593","title":"半岛酒楼(黄河路)","lon":"121.47071","lat":"31.23435","category":"76","category_name":"上海菜","address":"黄浦区黄河路95号(近凤阳路)"},{"poiid":"B2094757D06BA4FD499D","title":"東方既白","lon":"121.473004928","lat":"31.2341802743","category":"68","category_name":"快餐厅","address":"上海靠近新世界 黃河路"},{"poiid":"B2094757D16EA7F84192","title":"顺丰大酒店","lon":"121.473771738","lat":"31.2350434027","category":"75","category_name":"浙江菜","address":"上海南京东路830号"},{"poiid":"B2094750D664ABFD409A","title":"功德林素食餐厅","lon":"121.471","lat":"31.2335","category":"89","category_name":"中式素餐馆","address":"黄浦区黄河路21号鸿祥大厦1楼"},{"poiid":"B2094750DB65A7F84993","title":"几分甜黄河店","lon":"121.472358","lat":"31.234579","category":"112","category_name":"糕饼店","address":"黄浦区黄河路37号(近凤阳路)"},{"poiid":"B2094757D069A6F4429F","title":"华安美发美容(南西店)","lon":"121.47255","lat":"31.23375","category":"148","category_name":"美容美发店","address":"上海黄浦区南京西路110号(近西藏中路)  "},{"poiid":"B2094654DA6FAAF5429E","title":"上海市格致初级中学","lon":"121.47212","lat":"31.23566","category":"55","category_name":"中学","address":"黄浦区长沙路35号(近北京西路)"},{"poiid":"B2094750D565A6F9489E","title":"雅乐居万豪","lon":"121.471992","lat":"31.234666","category":"247","category_name":"餐饮美食","address":"西藏中路555号"},{"poiid":"B2094750D665A0FB499A","title":"天天来鸡腿","lon":"121.472","lat":"31.2335","category":"68","category_name":"快餐厅","address":"黄浦区黄河路28号国际饭店内(近凤阳路)"},{"poiid":"B2094757D569A2FE409E","title":"国际饭店国际厅","lon":"121.4716939","lat":"31.23343611","category":"247","category_name":"餐饮美食","address":"南京西路170号国际饭店9层"},{"poiid":"B2094757D66DA6F94798","title":"瑞美体检","lon":"121.471805738","lat":"31.2343413877","category":"500","category_name":"未知分类","address":"黄浦区新昌路80号智富广场5楼(近南京西路)"},{"poiid":"B2094750DA69AAFB449E","title":"两号线人民广场地铁站","lon":"121.472892","lat":"31.233589","category":"36","category_name":"地铁站","address":null},{"poiid":"B2094757D16CA5FE419F","title":"幸河日本料理","lon":"121.471678","lat":"31.233433","category":"268","category_name":"自助","address":"黄浦区南京西路170国际饭店1楼(近黄河路)"},{"poiid":"B2094654DB6AA7FD4399","title":"名轩(丽笙店)","lon":"121.47363","lat":"31.23461","category":"72","category_name":"广东菜","address":"黄浦区南京西路88号新世界丽笙大酒店3楼(近西藏中路)"},{"poiid":"B2094655D265A0F8459D","title":"老克勒","lon":"121.471","lat":"31.23423","category":"86","category_name":"火锅店","address":"黄河路82"},{"poiid":"B2094750DA6FA0FE469C","title":"外灘","lon":"121.471649","lat":"31.234191","category":"500","category_name":"未知分类","address":"外灘"},{"poiid":"B2094654DA68A3FD479F","title":"上海杜莎夫人蜡像馆(南京西路)","lon":"121.47367","lat":"31.23468","category":"183","category_name":"展览馆","address":"南京西路2-68号新世界城10楼"},{"poiid":"B2094757D06FA3FF469E","title":"国际饭店","lon":"121.47188","lat":"31.23312","category":"214","category_name":"四星级宾馆","address":"黄浦区南京西路170号(近黄河路)"},{"poiid":"B2094757D06FA7F4449C","title":"麻辣诱惑(新世界店)","lon":"121.473465838","lat":"31.2345230916","category":"71","category_name":"四川菜","address":"黄浦区南京西路2-68号新世界城9楼"},{"poiid":"B2094753D76FAAFA449C","title":"上海滩国泰旗舰店","lon":"121.466011","lat":"31.216125","category":"249","category_name":"购物服务","address":"淮海中路868号"},{"poiid":"B209475CD564A7F84292","title":"上海滩新天地店","lon":"121.47463","lat":"31.22164","category":"119","category_name":"商场","address":"\"太仓路181弄新天地北里15号\r\n\""},{"poiid":"B209475CD564A7F8439E","title":"上海滩中信泰富店","lon":"121.45602","lat":"31.22851","category":"119","category_name":"商场","address":"\"南京西路1168号中信泰富广场，店铺号221.\r\n\""},{"poiid":"B209475CD564A7F84392","title":"上海滩浦东香格里拉店","lon":"121.50058","lat":"31.23634","category":"119","category_name":"商场","address":"浦东富成路33号香格里拉酒店内大堂层"},{"poiid":"B2094751DA6DA1F5439F","title":"上海年代秀主题餐厅","lon":"121.473342","lat":"31.235938","category":"76","category_name":"上海菜","address":"黄浦区西藏中路525号雅居乐广场3楼308商铺(近凤阳路预计11月开业)"},{"poiid":"B2094757D06FA1F94499","title":"韩膳宫(新世界店)","lon":"121.473514938","lat":"31.2346033933","category":"96","category_name":"韩国料理","address":"黄浦区南京西路2号新世界城9楼9A(近西藏中路)"},{"poiid":"B2094654DA68A3FD419B","title":"佳家汤包 黄河店","lon":"121.47105017344","lat":"31.233958297842","category":"68","category_name":"快餐厅","address":"黄浦区黄河路90号(近凤阳路)"},{"poiid":"B2094757D06FA1FD489C","title":"新世界丽笙大酒店","lon":"121.47377","lat":"31.23436","category":"217","category_name":"旅馆招待所","address":"上海黄浦区南京西路88号(近西藏中路)  "},{"poiid":"B2094655D36CA2FC439A","title":"雅居乐国际广场","lon":"121.47251","lat":"31.23629","category":"46","category_name":"楼宇","address":"黄浦区西藏中路525号(近凤阳路)"},{"poiid":"B2094750D26AA6FA4193","title":"人民广场地铁站","lon":"121.473411","lat":"31.234584","category":"36","category_name":"地铁站","address":null},{"poiid":"B2094757D06FA3F5439B","title":"香港仔码头茶餐厅(凤阳店)","lon":"121.47068","lat":"31.23366","category":"72","category_name":"广东菜","address":"黄浦区凤阳路280号(近黄河路)"},{"poiid":"B2094757D06FA3F94293","title":"悦来酒家","lon":"121.47086","lat":"31.23386","category":"76","category_name":"上海菜","address":"黄浦区黄河路81号(近凤阳路)"},{"poiid":"B2094654DA6FAAF54499","title":"苔圣园(黄浦店)","lon":"121.47105","lat":"31.23409","category":"76","category_name":"上海菜","address":"黄浦区黄河路50号(近凤阳路)"},{"poiid":"B2094757D06BA1F84698","title":"杏花楼","lon":"121.471473738","lat":"31.2333003655","category":"72","category_name":"广东菜","address":"黄浦区黄河路21号鸿祥大厦3-4楼(近南京西路)"},{"poiid":"B2094655D269AAFC429C","title":"金门大酒店","lon":"121.47235","lat":"31.23405","category":"247","category_name":"餐饮美食","address":"南京西路108号金门大酒店8楼近西藏中路西北角"},{"poiid":"B2094757D06FA1F4489F","title":"黄河路美食街","lon":"121.47142","lat":"31.23348","category":"68","category_name":"快餐厅","address":"黄浦区黄河路(近新闸路)"},{"poiid":"B2094757D068A0F5459E","title":"K5","lon":"121.47298645","lat":"31.234065891","category":"500","category_name":"未知分类","address":"南京西路上海美术馆五楼"},{"poiid":"B2094757D06FA5FF4098","title":"金八仙","lon":"121.47112","lat":"31.23428","category":"76","category_name":"上海菜","address":"上海黄浦区黄河路96-98号(近凤阳路)"},{"poiid":"B2094757D06FA1F9479C","title":"国际饭店西饼屋(黄河路店)","lon":"121.471436532","lat":"31.233682045","category":"112","category_name":"糕饼店","address":"黄浦区黄河路28号国际饭店内"},{"poiid":"B2094757D069A1F94098","title":"上影华威电影城","lon":"121.473907","lat":"31.23492","category":"178","category_name":"电影院","address":"黄浦区南京西路2-68号新世界城11-12楼(近西藏中路)"},{"poiid":"B2094751D56FA7FC4393","title":"吉朝 寿喜锅","lon":"121.47175","lat":"31.23349","category":"268","category_name":"自助","address":"黄浦区黄河路82号(近国际饭店)"},{"poiid":"B2094757D165A0FA499A","title":"千彩休闲小火锅","lon":"121.473519738","lat":"31.2350994039","category":"247","category_name":"餐饮美食","address":"上海市黄浦区黄河路"},{"poiid":"B2094757D06FA4F84298","title":"许留山(新世界店)","lon":"121.47317173","lat":"31.235074403","category":"67","category_name":"甜品店","address":"黄浦区南京西路2-68号新世纪城12楼(近西藏中路)"},{"poiid":"B2094654DA68A3FD409C","title":"乾隆美食","lon":"121.4711458394","lat":"31.234298079704","category":"76","category_name":"上海菜","address":"黄浦区黄河路72-76号(凤阳路口)"},{"poiid":"B2094757D06EAAFB499D","title":"麦当劳(新世界店)","lon":"121.47294998","lat":"31.234666089","category":"68","category_name":"快餐厅","address":"黄浦区南京西路2-68号新世纪城B1楼(近西藏中路)"},{"poiid":"B2094757D068A5FA469A","title":"Moca Art Lab","lon":"121.47222903","lat":"31.23352867","category":"184","category_name":"美术馆","address":"上海黄浦区南京西路231号人民公园当代艺术馆3楼(近黄陂北路)"},{"poiid":"B2094655D26DA6FE419B","title":"上海华盛街","lon":"121.47183","lat":"31.23295","category":"116","category_name":"特色商业街","address":"南京西路 19~169 号"},{"poiid":"B2094757D06FA1FB439D","title":"85度C(南京西店)","lon":"121.471330475","lat":"31.2330760642","category":"112","category_name":"糕饼店","address":"黄浦区南京西路226号(近黄河路)"},{"poiid":"B2094757D664A6F9459E","title":"沪上一家辣肉面馆 黄河路店","lon":"121.470459054","lat":"31.235120793","category":"68","category_name":"快餐厅","address":"黄浦区黄河路142号(近牯岭路)"},{"poiid":"B2094757D069A2FC409E","title":"新世界冰上乐园","lon":"121.47375573","lat":"31.234568392","category":"222","category_name":"溜冰场","address":"上海南京西路2-68号新世界6L"},{"poiid":"B2094757D069AAF94292","title":"大上海国际影城","lon":"121.47379873","lat":"31.235044402","category":"500","category_name":"未知分类","address":"上海市黄浦区黄河路"},{"poiid":"B2094654DA68A3FD4593","title":"半岛酒楼(黄河路)","lon":"121.47071","lat":"31.23435","category":"76","category_name":"上海菜","address":"黄浦区黄河路95号(近凤阳路)"},{"poiid":"B2094757D06BA4FD499D","title":"東方既白","lon":"121.473004928","lat":"31.2341802743","category":"68","category_name":"快餐厅","address":"上海靠近新世界 黃河路"},{"poiid":"B2094757D16EA7F84192","title":"顺丰大酒店","lon":"121.473771738","lat":"31.2350434027","category":"75","category_name":"浙江菜","address":"上海南京东路830号"},{"poiid":"B2094750D664ABFD409A","title":"功德林素食餐厅","lon":"121.471","lat":"31.2335","category":"89","category_name":"中式素餐馆","address":"黄浦区黄河路21号鸿祥大厦1楼"},{"poiid":"B2094750DB65A7F84993","title":"几分甜黄河店","lon":"121.472358","lat":"31.234579","category":"112","category_name":"糕饼店","address":"黄浦区黄河路37号(近凤阳路)"},{"poiid":"B2094757D069A6F4429F","title":"华安美发美容(南西店)","lon":"121.47255","lat":"31.23375","category":"148","category_name":"美容美发店","address":"上海黄浦区南京西路110号(近西藏中路)  "},{"poiid":"B2094654DA6FAAF5429E","title":"上海市格致初级中学","lon":"121.47212","lat":"31.23566","category":"55","category_name":"中学","address":"黄浦区长沙路35号(近北京西路)"},{"poiid":"B2094750D565A6F9489E","title":"雅乐居万豪","lon":"121.471992","lat":"31.234666","category":"247","category_name":"餐饮美食","address":"西藏中路555号"},{"poiid":"B2094750D665A0FB499A","title":"天天来鸡腿","lon":"121.472","lat":"31.2335","category":"68","category_name":"快餐厅","address":"黄浦区黄河路28号国际饭店内(近凤阳路)"},{"poiid":"B2094757D569A2FE409E","title":"国际饭店国际厅","lon":"121.4716939","lat":"31.23343611","category":"247","category_name":"餐饮美食","address":"南京西路170号国际饭店9层"},{"poiid":"B2094757D66DA6F94798","title":"瑞美体检","lon":"121.471805738","lat":"31.2343413877","category":"500","category_name":"未知分类","address":"黄浦区新昌路80号智富广场5楼(近南京西路)"},{"poiid":"B2094750DA69AAFB449E","title":"两号线人民广场地铁站","lon":"121.472892","lat":"31.233589","category":"36","category_name":"地铁站","address":null},{"poiid":"B2094757D16CA5FE419F","title":"幸河日本料理","lon":"121.471678","lat":"31.233433","category":"268","category_name":"自助","address":"黄浦区南京西路170国际饭店1楼(近黄河路)"},{"poiid":"B2094654DB6AA7FD4399","title":"名轩(丽笙店)","lon":"121.47363","lat":"31.23461","category":"72","category_name":"广东菜","address":"黄浦区南京西路88号新世界丽笙大酒店3楼(近西藏中路)"},{"poiid":"B2094655D265A0F8459D","title":"老克勒","lon":"121.471","lat":"31.23423","category":"86","category_name":"火锅店","address":"黄河路82"},{"poiid":"B2094750DA6FA0FE469C","title":"外灘","lon":"121.471649","lat":"31.234191","category":"500","category_name":"未知分类","address":"外灘"},{"poiid":"B2094654DA68A3FD479F","title":"上海杜莎夫人蜡像馆(南京西路)","lon":"121.47367","lat":"31.23468","category":"183","category_name":"展览馆","address":"南京西路2-68号新世界城10楼"},{"poiid":"B2094757D06FA3FF469E","title":"国际饭店","lon":"121.47188","lat":"31.23312","category":"214","category_name":"四星级宾馆","address":"黄浦区南京西路170号(近黄河路)"},{"poiid":"B2094757D06FA7F4449C","title":"麻辣诱惑(新世界店)","lon":"121.473465838","lat":"31.2345230916","category":"71","category_name":"四川菜","address":"黄浦区南京西路2-68号新世界城9楼"},{"poiid":"B2094753D76FAAFA449C","title":"上海滩国泰旗舰店","lon":"121.466011","lat":"31.216125","category":"249","category_name":"购物服务","address":"淮海中路868号"},{"poiid":"B209475CD564A7F84292","title":"上海滩新天地店","lon":"121.47463","lat":"31.22164","category":"119","category_name":"商场","address":"\"太仓路181弄新天地北里15号\r\n\""},{"poiid":"B209475CD564A7F8439E","title":"上海滩中信泰富店","lon":"121.45602","lat":"31.22851","category":"119","category_name":"商场","address":"\"南京西路1168号中信泰富广场，店铺号221.\r\n\""},{"poiid":"B209475CD564A7F84392","title":"上海滩浦东香格里拉店","lon":"121.50058","lat":"31.23634","category":"119","category_name":"商场","address":"浦东富成路33号香格里拉酒店内大堂层"},{"poiid":"B2094751DA6DA1F5439F","title":"上海年代秀主题餐厅","lon":"121.473342","lat":"31.235938","category":"76","category_name":"上海菜","address":"黄浦区西藏中路525号雅居乐广场3楼308商铺(近凤阳路预计11月开业)"},{"poiid":"B2094757D06FA1F94499","title":"韩膳宫(新世界店)","lon":"121.473514938","lat":"31.2346033933","category":"96","category_name":"韩国料理","address":"黄浦区南京西路2号新世界城9楼9A(近西藏中路)"},{"poiid":"B2094654DA68A3FD419B","title":"佳家汤包 黄河店","lon":"121.47105017344","lat":"31.233958297842","category":"68","category_name":"快餐厅","address":"黄浦区黄河路90号(近凤阳路)"},{"poiid":"B2094757D06FA1FD489C","title":"新世界丽笙大酒店","lon":"121.47377","lat":"31.23436","category":"217","category_name":"旅馆招待所","address":"上海黄浦区南京西路88号(近西藏中路)  "},{"poiid":"B2094655D36CA2FC439A","title":"雅居乐国际广场","lon":"121.47251","lat":"31.23629","category":"46","category_name":"楼宇","address":"黄浦区西藏中路525号(近凤阳路)"},{"poiid":"B2094750D26AA6FA4193","title":"人民广场地铁站","lon":"121.473411","lat":"31.234584","category":"36","category_name":"地铁站","address":null},{"poiid":"B2094757D06FA3F5439B","title":"香港仔码头茶餐厅(凤阳店)","lon":"121.47068","lat":"31.23366","category":"72","category_name":"广东菜","address":"黄浦区凤阳路280号(近黄河路)"},{"poiid":"B2094757D06FA3F94293","title":"悦来酒家","lon":"121.47086","lat":"31.23386","category":"76","category_name":"上海菜","address":"黄浦区黄河路81号(近凤阳路)"},{"poiid":"B2094654DA6FAAF54499","title":"苔圣园(黄浦店)","lon":"121.47105","lat":"31.23409","category":"76","category_name":"上海菜","address":"黄浦区黄河路50号(近凤阳路)"},{"poiid":"B2094757D06BA1F84698","title":"杏花楼","lon":"121.471473738","lat":"31.2333003655","category":"72","category_name":"广东菜","address":"黄浦区黄河路21号鸿祥大厦3-4楼(近南京西路)"},{"poiid":"B2094655D269AAFC429C","title":"金门大酒店","lon":"121.47235","lat":"31.23405","category":"247","category_name":"餐饮美食","address":"南京西路108号金门大酒店8楼近西藏中路西北角"},{"poiid":"B2094757D06FA1F4489F","title":"黄河路美食街","lon":"121.47142","lat":"31.23348","category":"68","category_name":"快餐厅","address":"黄浦区黄河路(近新闸路)"},{"poiid":"B2094757D068A0F5459E","title":"K5","lon":"121.47298645","lat":"31.234065891","category":"500","category_name":"未知分类","address":"南京西路上海美术馆五楼"},{"poiid":"B2094757D06FA5FF4098","title":"金八仙","lon":"121.47112","lat":"31.23428","category":"76","category_name":"上海菜","address":"上海黄浦区黄河路96-98号(近凤阳路)"},{"poiid":"B2094757D06FA1F9479C","title":"国际饭店西饼屋(黄河路店)","lon":"121.471436532","lat":"31.233682045","category":"112","category_name":"糕饼店","address":"黄浦区黄河路28号国际饭店内"},{"poiid":"B2094757D069A1F94098","title":"上影华威电影城","lon":"121.473907","lat":"31.23492","category":"178","category_name":"电影院","address":"黄浦区南京西路2-68号新世界城11-12楼(近西藏中路)"},{"poiid":"B2094751D56FA7FC4393","title":"吉朝 寿喜锅","lon":"121.47175","lat":"31.23349","category":"268","category_name":"自助","address":"黄浦区黄河路82号(近国际饭店)"},{"poiid":"B2094757D165A0FA499A","title":"千彩休闲小火锅","lon":"121.473519738","lat":"31.2350994039","category":"247","category_name":"餐饮美食","address":"上海市黄浦区黄河路"},{"poiid":"B2094757D06FA4F84298","title":"许留山(新世界店)","lon":"121.47317173","lat":"31.235074403","category":"67","category_name":"甜品店","address":"黄浦区南京西路2-68号新世纪城12楼(近西藏中路)"},{"poiid":"B2094654DA68A3FD409C","title":"乾隆美食","lon":"121.4711458394","lat":"31.234298079704","category":"76","category_name":"上海菜","address":"黄浦区黄河路72-76号(凤阳路口)"},{"poiid":"B2094757D06EAAFB499D","title":"麦当劳(新世界店)","lon":"121.47294998","lat":"31.234666089","category":"68","category_name":"快餐厅","address":"黄浦区南京西路2-68号新世纪城B1楼(近西藏中路)"},{"poiid":"B2094757D068A5FA469A","title":"Moca Art Lab","lon":"121.47222903","lat":"31.23352867","category":"184","category_name":"美术馆","address":"上海黄浦区南京西路231号人民公园当代艺术馆3楼(近黄陂北路)"},{"poiid":"B2094655D26DA6FE419B","title":"上海华盛街","lon":"121.47183","lat":"31.23295","category":"116","category_name":"特色商业街","address":"南京西路 19~169 号"},{"poiid":"B2094757D06FA1FB439D","title":"85度C(南京西店)","lon":"121.471330475","lat":"31.2330760642","category":"112","category_name":"糕饼店","address":"黄浦区南京西路226号(近黄河路)"},{"poiid":"B2094757D664A6F9459E","title":"沪上一家辣肉面馆 黄河路店","lon":"121.470459054","lat":"31.235120793","category":"68","category_name":"快餐厅","address":"黄浦区黄河路142号(近牯岭路)"},{"poiid":"B2094757D069A2FC409E","title":"新世界冰上乐园","lon":"121.47375573","lat":"31.234568392","category":"222","category_name":"溜冰场","address":"上海南京西路2-68号新世界6L"},{"poiid":"B2094757D069AAF94292","title":"大上海国际影城","lon":"121.47379873","lat":"31.235044402","category":"500","category_name":"未知分类","address":"上海市黄浦区黄河路"},{"poiid":"B2094654DA68A3FD4593","title":"半岛酒楼(黄河路)","lon":"121.47071","lat":"31.23435","category":"76","category_name":"上海菜","address":"黄浦区黄河路95号(近凤阳路)"},{"poiid":"B2094757D06BA4FD499D","title":"東方既白","lon":"121.473004928","lat":"31.2341802743","category":"68","category_name":"快餐厅","address":"上海靠近新世界 黃河路"},{"poiid":"B2094757D16EA7F84192","title":"顺丰大酒店","lon":"121.473771738","lat":"31.2350434027","category":"75","category_name":"浙江菜","address":"上海南京东路830号"},{"poiid":"B2094750D664ABFD409A","title":"功德林素食餐厅","lon":"121.471","lat":"31.2335","category":"89","category_name":"中式素餐馆","address":"黄浦区黄河路21号鸿祥大厦1楼"},{"poiid":"B2094750DB65A7F84993","title":"几分甜黄河店","lon":"121.472358","lat":"31.234579","category":"112","category_name":"糕饼店","address":"黄浦区黄河路37号(近凤阳路)"},{"poiid":"B2094757D069A6F4429F","title":"华安美发美容(南西店)","lon":"121.47255","lat":"31.23375","category":"148","category_name":"美容美发店","address":"上海黄浦区南京西路110号(近西藏中路)  "},{"poiid":"B2094654DA6FAAF5429E","title":"上海市格致初级中学","lon":"121.47212","lat":"31.23566","category":"55","category_name":"中学","address":"黄浦区长沙路35号(近北京西路)"},{"poiid":"B2094750D565A6F9489E","title":"雅乐居万豪","lon":"121.471992","lat":"31.234666","category":"247","category_name":"餐饮美食","address":"西藏中路555号"},{"poiid":"B2094750D665A0FB499A","title":"天天来鸡腿","lon":"121.472","lat":"31.2335","category":"68","category_name":"快餐厅","address":"黄浦区黄河路28号国际饭店内(近凤阳路)"},{"poiid":"B2094757D569A2FE409E","title":"国际饭店国际厅","lon":"121.4716939","lat":"31.23343611","category":"247","category_name":"餐饮美食","address":"南京西路170号国际饭店9层"},{"poiid":"B2094757D66DA6F94798","title":"瑞美体检","lon":"121.471805738","lat":"31.2343413877","category":"500","category_name":"未知分类","address":"黄浦区新昌路80号智富广场5楼(近南京西路)"},{"poiid":"B2094750DA69AAFB449E","title":"两号线人民广场地铁站","lon":"121.472892","lat":"31.233589","category":"36","category_name":"地铁站","address":null},{"poiid":"B2094757D16CA5FE419F","title":"幸河日本料理","lon":"121.471678","lat":"31.233433","category":"268","category_name":"自助","address":"黄浦区南京西路170国际饭店1楼(近黄河路)"},{"poiid":"B2094654DB6AA7FD4399","title":"名轩(丽笙店)","lon":"121.47363","lat":"31.23461","category":"72","category_name":"广东菜","address":"黄浦区南京西路88号新世界丽笙大酒店3楼(近西藏中路)"},{"poiid":"B2094655D265A0F8459D","title":"老克勒","lon":"121.471","lat":"31.23423","category":"86","category_name":"火锅店","address":"黄河路82"},{"poiid":"B2094750DA6FA0FE469C","title":"外灘","lon":"121.471649","lat":"31.234191","category":"500","category_name":"未知分类","address":"外灘"},{"poiid":"B2094654DA68A3FD479F","title":"上海杜莎夫人蜡像馆(南京西路)","lon":"121.47367","lat":"31.23468","category":"183","category_name":"展览馆","address":"南京西路2-68号新世界城10楼"},{"poiid":"B2094757D06FA3FF469E","title":"国际饭店","lon":"121.47188","lat":"31.23312","category":"214","category_name":"四星级宾馆","address":"黄浦区南京西路170号(近黄河路)"},{"poiid":"B2094757D06FA7F4449C","title":"麻辣诱惑(新世界店)","lon":"121.473465838","lat":"31.2345230916","category":"71","category_name":"四川菜","address":"黄浦区南京西路2-68号新世界城9楼"},{"poiid":"B2094753D76FAAFA449C","title":"上海滩国泰旗舰店","lon":"121.466011","lat":"31.216125","category":"249","category_name":"购物服务","address":"淮海中路868号"},{"poiid":"B209475CD564A7F84292","title":"上海滩新天地店","lon":"121.47463","lat":"31.22164","category":"119","category_name":"商场","address":"\"太仓路181弄新天地北里15号\r\n\""},{"poiid":"B209475CD564A7F8439E","title":"上海滩中信泰富店","lon":"121.45602","lat":"31.22851","category":"119","category_name":"商场","address":"\"南京西路1168号中信泰富广场，店铺号221.\r\n\""},{"poiid":"B209475CD564A7F84392","title":"上海滩浦东香格里拉店","lon":"121.50058","lat":"31.23634","category":"119","category_name":"商场","address":"浦东富成路33号香格里拉酒店内大堂层"},{"poiid":"B2094751DA6DA1F5439F","title":"上海年代秀主题餐厅","lon":"121.473342","lat":"31.235938","category":"76","category_name":"上海菜","address":"黄浦区西藏中路525号雅居乐广场3楼308商铺(近凤阳路预计11月开业)"},{"poiid":"B2094757D06FA1F94499","title":"韩膳宫(新世界店)","lon":"121.473514938","lat":"31.2346033933","category":"96","category_name":"韩国料理","address":"黄浦区南京西路2号新世界城9楼9A(近西藏中路)"},{"poiid":"B2094654DA68A3FD419B","title":"佳家汤包 黄河店","lon":"121.47105017344","lat":"31.233958297842","category":"68","category_name":"快餐厅","address":"黄浦区黄河路90号(近凤阳路)"},{"poiid":"B2094757D06FA1FD489C","title":"新世界丽笙大酒店","lon":"121.47377","lat":"31.23436","category":"217","category_name":"旅馆招待所","address":"上海黄浦区南京西路88号(近西藏中路)  "},{"poiid":"B2094655D36CA2FC439A","title":"雅居乐国际广场","lon":"121.47251","lat":"31.23629","category":"46","category_name":"楼宇","address":"黄浦区西藏中路525号(近凤阳路)"},{"poiid":"B2094750D26AA6FA4193","title":"人民广场地铁站","lon":"121.473411","lat":"31.234584","category":"36","category_name":"地铁站","address":null},{"poiid":"B2094757D06FA3F5439B","title":"香港仔码头茶餐厅(凤阳店)","lon":"121.47068","lat":"31.23366","category":"72","category_name":"广东菜","address":"黄浦区凤阳路280号(近黄河路)"},{"poiid":"B2094757D06FA3F94293","title":"悦来酒家","lon":"121.47086","lat":"31.23386","category":"76","category_name":"上海菜","address":"黄浦区黄河路81号(近凤阳路)"},{"poiid":"B2094654DA6FAAF54499","title":"苔圣园(黄浦店)","lon":"121.47105","lat":"31.23409","category":"76","category_name":"上海菜","address":"黄浦区黄河路50号(近凤阳路)"},{"poiid":"B2094757D06BA1F84698","title":"杏花楼","lon":"121.471473738","lat":"31.2333003655","category":"72","category_name":"广东菜","address":"黄浦区黄河路21号鸿祥大厦3-4楼(近南京西路)"},{"poiid":"B2094655D269AAFC429C","title":"金门大酒店","lon":"121.47235","lat":"31.23405","category":"247","category_name":"餐饮美食","address":"南京西路108号金门大酒店8楼近西藏中路西北角"},{"poiid":"B2094757D06FA1F4489F","title":"黄河路美食街","lon":"121.47142","lat":"31.23348","category":"68","category_name":"快餐厅","address":"黄浦区黄河路(近新闸路)"},{"poiid":"B2094757D068A0F5459E","title":"K5","lon":"121.47298645","lat":"31.234065891","category":"500","category_name":"未知分类","address":"南京西路上海美术馆五楼"},{"poiid":"B2094757D06FA5FF4098","title":"金八仙","lon":"121.47112","lat":"31.23428","category":"76","category_name":"上海菜","address":"上海黄浦区黄河路96-98号(近凤阳路)"},{"poiid":"B2094757D06FA1F9479C","title":"国际饭店西饼屋(黄河路店)","lon":"121.471436532","lat":"31.233682045","category":"112","category_name":"糕饼店","address":"黄浦区黄河路28号国际饭店内"},{"poiid":"B2094757D069A1F94098","title":"上影华威电影城","lon":"121.473907","lat":"31.23492","category":"178","category_name":"电影院","address":"黄浦区南京西路2-68号新世界城11-12楼(近西藏中路)"},{"poiid":"B2094751D56FA7FC4393","title":"吉朝 寿喜锅","lon":"121.47175","lat":"31.23349","category":"268","category_name":"自助","address":"黄浦区黄河路82号(近国际饭店)"},{"poiid":"B2094757D165A0FA499A","title":"千彩休闲小火锅","lon":"121.473519738","lat":"31.2350994039","category":"247","category_name":"餐饮美食","address":"上海市黄浦区黄河路"},{"poiid":"B2094757D06FA4F84298","title":"许留山(新世界店)","lon":"121.47317173","lat":"31.235074403","category":"67","category_name":"甜品店","address":"黄浦区南京西路2-68号新世纪城12楼(近西藏中路)"},{"poiid":"B2094654DA68A3FD409C","title":"乾隆美食","lon":"121.4711458394","lat":"31.234298079704","category":"76","category_name":"上海菜","address":"黄浦区黄河路72-76号(凤阳路口)"},{"poiid":"B2094757D06EAAFB499D","title":"麦当劳(新世界店)","lon":"121.47294998","lat":"31.234666089","category":"68","category_name":"快餐厅","address":"黄浦区南京西路2-68号新世纪城B1楼(近西藏中路)"},{"poiid":"B2094757D068A5FA469A","title":"Moca Art Lab","lon":"121.47222903","lat":"31.23352867","category":"184","category_name":"美术馆","address":"上海黄浦区南京西路231号人民公园当代艺术馆3楼(近黄陂北路)"},{"poiid":"B2094655D26DA6FE419B","title":"上海华盛街","lon":"121.47183","lat":"31.23295","category":"116","category_name":"特色商业街","address":"南京西路 19~169 号"},{"poiid":"B2094757D06FA1FB439D","title":"85度C(南京西店)","lon":"121.471330475","lat":"31.2330760642","category":"112","category_name":"糕饼店","address":"黄浦区南京西路226号(近黄河路)"},{"poiid":"B2094757D664A6F9459E","title":"沪上一家辣肉面馆 黄河路店","lon":"121.470459054","lat":"31.235120793","category":"68","category_name":"快餐厅","address":"黄浦区黄河路142号(近牯岭路)"},{"poiid":"B2094757D069A2FC409E","title":"新世界冰上乐园","lon":"121.47375573","lat":"31.234568392","category":"222","category_name":"溜冰场","address":"上海南京西路2-68号新世界6L"},{"poiid":"B2094757D069AAF94292","title":"大上海国际影城","lon":"121.47379873","lat":"31.235044402","category":"500","category_name":"未知分类","address":"上海市黄浦区黄河路"},{"poiid":"B2094654DA68A3FD4593","title":"半岛酒楼(黄河路)","lon":"121.47071","lat":"31.23435","category":"76","category_name":"上海菜","address":"黄浦区黄河路95号(近凤阳路)"},{"poiid":"B2094757D06BA4FD499D","title":"東方既白","lon":"121.473004928","lat":"31.2341802743","category":"68","category_name":"快餐厅","address":"上海靠近新世界 黃河路"},{"poiid":"B2094757D16EA7F84192","title":"顺丰大酒店","lon":"121.473771738","lat":"31.2350434027","category":"75","category_name":"浙江菜","address":"上海南京东路830号"},{"poiid":"B2094750D664ABFD409A","title":"功德林素食餐厅","lon":"121.471","lat":"31.2335","category":"89","category_name":"中式素餐馆","address":"黄浦区黄河路21号鸿祥大厦1楼"},{"poiid":"B2094750DB65A7F84993","title":"几分甜黄河店","lon":"121.472358","lat":"31.234579","category":"112","category_name":"糕饼店","address":"黄浦区黄河路37号(近凤阳路)"},{"poiid":"B2094757D069A6F4429F","title":"华安美发美容(南西店)","lon":"121.47255","lat":"31.23375","category":"148","category_name":"美容美发店","address":"上海黄浦区南京西路110号(近西藏中路)  "},{"poiid":"B2094654DA6FAAF5429E","title":"上海市格致初级中学","lon":"121.47212","lat":"31.23566","category":"55","category_name":"中学","address":"黄浦区长沙路35号(近北京西路)"},{"poiid":"B2094750D565A6F9489E","title":"雅乐居万豪","lon":"121.471992","lat":"31.234666","category":"247","category_name":"餐饮美食","address":"西藏中路555号"},{"poiid":"B2094750D665A0FB499A","title":"天天来鸡腿","lon":"121.472","lat":"31.2335","category":"68","category_name":"快餐厅","address":"黄浦区黄河路28号国际饭店内(近凤阳路)"},{"poiid":"B2094757D569A2FE409E","title":"国际饭店国际厅","lon":"121.4716939","lat":"31.23343611","category":"247","category_name":"餐饮美食","address":"南京西路170号国际饭店9层"},{"poiid":"B2094757D66DA6F94798","title":"瑞美体检","lon":"121.471805738","lat":"31.2343413877","category":"500","category_name":"未知分类","address":"黄浦区新昌路80号智富广场5楼(近南京西路)"},{"poiid":"B2094750DA69AAFB449E","title":"两号线人民广场地铁站","lon":"121.472892","lat":"31.233589","category":"36","category_name":"地铁站","address":null},{"poiid":"B2094757D16CA5FE419F","title":"幸河日本料理","lon":"121.471678","lat":"31.233433","category":"268","category_name":"自助","address":"黄浦区南京西路170国际饭店1楼(近黄河路)"},{"poiid":"B2094654DB6AA7FD4399","title":"名轩(丽笙店)","lon":"121.47363","lat":"31.23461","category":"72","category_name":"广东菜","address":"黄浦区南京西路88号新世界丽笙大酒店3楼(近西藏中路)"},{"poiid":"B2094655D265A0F8459D","title":"老克勒","lon":"121.471","lat":"31.23423","category":"86","category_name":"火锅店","address":"黄河路82"},{"poiid":"B2094750DA6FA0FE469C","title":"外灘","lon":"121.471649","lat":"31.234191","category":"500","category_name":"未知分类","address":"外灘"},{"poiid":"B2094654DA68A3FD479F","title":"上海杜莎夫人蜡像馆(南京西路)","lon":"121.47367","lat":"31.23468","category":"183","category_name":"展览馆","address":"南京西路2-68号新世界城10楼"},{"poiid":"B2094757D06FA3FF469E","title":"国际饭店","lon":"121.47188","lat":"31.23312","category":"214","category_name":"四星级宾馆","address":"黄浦区南京西路170号(近黄河路)"},{"poiid":"B2094757D06FA7F4449C","title":"麻辣诱惑(新世界店)","lon":"121.473465838","lat":"31.2345230916","category":"71","category_name":"四川菜","address":"黄浦区南京西路2-68号新世界城9楼"},{"poiid":"B2094753D76FAAFA449C","title":"上海滩国泰旗舰店","lon":"121.466011","lat":"31.216125","category":"249","category_name":"购物服务","address":"淮海中路868号"},{"poiid":"B209475CD564A7F84292","title":"上海滩新天地店","lon":"121.47463","lat":"31.22164","category":"119","category_name":"商场","address":"\"太仓路181弄新天地北里15号\r\n\""},{"poiid":"B209475CD564A7F8439E","title":"上海滩中信泰富店","lon":"121.45602","lat":"31.22851","category":"119","category_name":"商场","address":"\"南京西路1168号中信泰富广场，店铺号221.\r\n\""},{"poiid":"B209475CD564A7F84392","title":"上海滩浦东香格里拉店","lon":"121.50058","lat":"31.23634","category":"119","category_name":"商场","address":"浦东富成路33号香格里拉酒店内大堂层"},{"poiid":"B2094751DA6DA1F5439F","title":"上海年代秀主题餐厅","lon":"121.473342","lat":"31.235938","category":"76","category_name":"上海菜","address":"黄浦区西藏中路525号雅居乐广场3楼308商铺(近凤阳路预计11月开业)"},{"poiid":"B2094757D06FA1F94499","title":"韩膳宫(新世界店)","lon":"121.473514938","lat":"31.2346033933","category":"96","category_name":"韩国料理","address":"黄浦区南京西路2号新世界城9楼9A(近西藏中路)"},{"poiid":"B2094654DA68A3FD419B","title":"佳家汤包 黄河店","lon":"121.47105017344","lat":"31.233958297842","category":"68","category_name":"快餐厅","address":"黄浦区黄河路90号(近凤阳路)"},{"poiid":"B2094757D06FA1FD489C","title":"新世界丽笙大酒店","lon":"121.47377","lat":"31.23436","category":"217","category_name":"旅馆招待所","address":"上海黄浦区南京西路88号(近西藏中路)  "},{"poiid":"B2094655D36CA2FC439A","title":"雅居乐国际广场","lon":"121.47251","lat":"31.23629","category":"46","category_name":"楼宇","address":"黄浦区西藏中路525号(近凤阳路)"},{"poiid":"B2094750D26AA6FA4193","title":"人民广场地铁站","lon":"121.473411","lat":"31.234584","category":"36","category_name":"地铁站","address":null},{"poiid":"B2094757D06FA3F5439B","title":"香港仔码头茶餐厅(凤阳店)","lon":"121.47068","lat":"31.23366","category":"72","category_name":"广东菜","address":"黄浦区凤阳路280号(近黄河路)"},{"poiid":"B2094757D06FA3F94293","title":"悦来酒家","lon":"121.47086","lat":"31.23386","category":"76","category_name":"上海菜","address":"黄浦区黄河路81号(近凤阳路)"},{"poiid":"B2094654DA6FAAF54499","title":"苔圣园(黄浦店)","lon":"121.47105","lat":"31.23409","category":"76","category_name":"上海菜","address":"黄浦区黄河路50号(近凤阳路)"},{"poiid":"B2094757D06BA1F84698","title":"杏花楼","lon":"121.471473738","lat":"31.2333003655","category":"72","category_name":"广东菜","address":"黄浦区黄河路21号鸿祥大厦3-4楼(近南京西路)"},{"poiid":"B2094655D269AAFC429C","title":"金门大酒店","lon":"121.47235","lat":"31.23405","category":"247","category_name":"餐饮美食","address":"南京西路108号金门大酒店8楼近西藏中路西北角"},{"poiid":"B2094757D06FA1F4489F","title":"黄河路美食街","lon":"121.47142","lat":"31.23348","category":"68","category_name":"快餐厅","address":"黄浦区黄河路(近新闸路)"},{"poiid":"B2094757D068A0F5459E","title":"K5","lon":"121.47298645","lat":"31.234065891","category":"500","category_name":"未知分类","address":"南京西路上海美术馆五楼"},{"poiid":"B2094757D06FA5FF4098","title":"金八仙","lon":"121.47112","lat":"31.23428","category":"76","category_name":"上海菜","address":"上海黄浦区黄河路96-98号(近凤阳路)"},{"poiid":"B2094757D06FA1F9479C","title":"国际饭店西饼屋(黄河路店)","lon":"121.471436532","lat":"31.233682045","category":"112","category_name":"糕饼店","address":"黄浦区黄河路28号国际饭店内"},{"poiid":"B2094757D069A1F94098","title":"上影华威电影城","lon":"121.473907","lat":"31.23492","category":"178","category_name":"电影院","address":"黄浦区南京西路2-68号新世界城11-12楼(近西藏中路)"},{"poiid":"B2094751D56FA7FC4393","title":"吉朝 寿喜锅","lon":"121.47175","lat":"31.23349","category":"268","category_name":"自助","address":"黄浦区黄河路82号(近国际饭店)"},{"poiid":"B2094757D165A0FA499A","title":"千彩休闲小火锅","lon":"121.473519738","lat":"31.2350994039","category":"247","category_name":"餐饮美食","address":"上海市黄浦区黄河路"},{"poiid":"B2094757D06FA4F84298","title":"许留山(新世界店)","lon":"121.47317173","lat":"31.235074403","category":"67","category_name":"甜品店","address":"黄浦区南京西路2-68号新世纪城12楼(近西藏中路)"},{"poiid":"B2094654DA68A3FD409C","title":"乾隆美食","lon":"121.4711458394","lat":"31.234298079704","category":"76","category_name":"上海菜","address":"黄浦区黄河路72-76号(凤阳路口)"},{"poiid":"B2094757D06EAAFB499D","title":"麦当劳(新世界店)","lon":"121.47294998","lat":"31.234666089","category":"68","category_name":"快餐厅","address":"黄浦区南京西路2-68号新世纪城B1楼(近西藏中路)"},{"poiid":"B2094757D068A5FA469A","title":"Moca Art Lab","lon":"121.47222903","lat":"31.23352867","category":"184","category_name":"美术馆","address":"上海黄浦区南京西路231号人民公园当代艺术馆3楼(近黄陂北路)"},{"poiid":"B2094655D26DA6FE419B","title":"上海华盛街","lon":"121.47183","lat":"31.23295","category":"116","category_name":"特色商业街","address":"南京西路 19~169 号"},{"poiid":"B2094757D06FA1FB439D","title":"85度C(南京西店)","lon":"121.471330475","lat":"31.2330760642","category":"112","category_name":"糕饼店","address":"黄浦区南京西路226号(近黄河路)"},{"poiid":"B2094757D664A6F9459E","title":"沪上一家辣肉面馆 黄河路店","lon":"121.470459054","lat":"31.235120793","category":"68","category_name":"快餐厅","address":"黄浦区黄河路142号(近牯岭路)"},{"poiid":"B2094757D069A2FC409E","title":"新世界冰上乐园","lon":"121.47375573","lat":"31.234568392","category":"222","category_name":"溜冰场","address":"上海南京西路2-68号新世界6L"},{"poiid":"B2094757D069AAF94292","title":"大上海国际影城","lon":"121.47379873","lat":"31.235044402","category":"500","category_name":"未知分类","address":"上海市黄浦区黄河路"},{"poiid":"B2094654DA68A3FD4593","title":"半岛酒楼(黄河路)","lon":"121.47071","lat":"31.23435","category":"76","category_name":"上海菜","address":"黄浦区黄河路95号(近凤阳路)"},{"poiid":"B2094757D06BA4FD499D","title":"東方既白","lon":"121.473004928","lat":"31.2341802743","category":"68","category_name":"快餐厅","address":"上海靠近新世界 黃河路"},{"poiid":"B2094757D16EA7F84192","title":"顺丰大酒店","lon":"121.473771738","lat":"31.2350434027","category":"75","category_name":"浙江菜","address":"上海南京东路830号"},{"poiid":"B2094750D664ABFD409A","title":"功德林素食餐厅","lon":"121.471","lat":"31.2335","category":"89","category_name":"中式素餐馆","address":"黄浦区黄河路21号鸿祥大厦1楼"},{"poiid":"B2094750DB65A7F84993","title":"几分甜黄河店","lon":"121.472358","lat":"31.234579","category":"112","category_name":"糕饼店","address":"黄浦区黄河路37号(近凤阳路)"},{"poiid":"B2094757D069A6F4429F","title":"华安美发美容(南西店)","lon":"121.47255","lat":"31.23375","category":"148","category_name":"美容美发店","address":"上海黄浦区南京西路110号(近西藏中路)  "},{"poiid":"B2094654DA6FAAF5429E","title":"上海市格致初级中学","lon":"121.47212","lat":"31.23566","category":"55","category_name":"中学","address":"黄浦区长沙路35号(近北京西路)"},{"poiid":"B2094750D565A6F9489E","title":"雅乐居万豪","lon":"121.471992","lat":"31.234666","category":"247","category_name":"餐饮美食","address":"西藏中路555号"},{"poiid":"B2094750D665A0FB499A","title":"天天来鸡腿","lon":"121.472","lat":"31.2335","category":"68","category_name":"快餐厅","address":"黄浦区黄河路28号国际饭店内(近凤阳路)"},{"poiid":"B2094757D569A2FE409E","title":"国际饭店国际厅","lon":"121.4716939","lat":"31.23343611","category":"247","category_name":"餐饮美食","address":"南京西路170号国际饭店9层"},{"poiid":"B2094757D66DA6F94798","title":"瑞美体检","lon":"121.471805738","lat":"31.2343413877","category":"500","category_name":"未知分类","address":"黄浦区新昌路80号智富广场5楼(近南京西路)"},{"poiid":"B2094750DA69AAFB449E","title":"两号线人民广场地铁站","lon":"121.472892","lat":"31.233589","category":"36","category_name":"地铁站","address":null},{"poiid":"B2094757D16CA5FE419F","title":"幸河日本料理","lon":"121.471678","lat":"31.233433","category":"268","category_name":"自助","address":"黄浦区南京西路170国际饭店1楼(近黄河路)"},{"poiid":"B2094654DB6AA7FD4399","title":"名轩(丽笙店)","lon":"121.47363","lat":"31.23461","category":"72","category_name":"广东菜","address":"黄浦区南京西路88号新世界丽笙大酒店3楼(近西藏中路)"},{"poiid":"B2094655D265A0F8459D","title":"老克勒","lon":"121.471","lat":"31.23423","category":"86","category_name":"火锅店","address":"黄河路82"},{"poiid":"B2094750DA6FA0FE469C","title":"外灘","lon":"121.471649","lat":"31.234191","category":"500","category_name":"未知分类","address":"外灘"}]