[{"poiid":"B2094757DB6BA4F44893","title":"唐宫海鲜舫 白玉兰店","lon":"121.5075302124","lat":"31.285158157349","category":"72","category_name":"广东菜","address":"杨浦区四平路1251号白玉兰宾馆2楼"},{"poiid":"B2094757D06FA3FF4693","title":"上海电视大学(国顺校区)","lon":"121.51313","lat":"31.29115","category":"671","category_name":"高校中心点","address":"杨浦区国顺路288号(近四平路)"},{"poiid":"B2094757D06EAAFC479B","title":"国权路地铁站","lon":"121.510234","lat":"31.289649","category":"36","category_name":"地铁站","address":"上海轨道交通 十号线 轨交国权路站 10"},{"poiid":"B2094757D06FA0FA409F","title":"同济联合广场","lon":"121.514","lat":"31.2875","category":"119","category_name":"商场","address":"丰台学城海鹰路1号,3号"},{"poiid":"B2094655D26AA7FD479D","title":"锦江白玉兰宾馆","lon":"121.50635","lat":"31.28221","category":"76","category_name":"上海菜","address":"杨浦区四平路1251号(近国康路)"},{"poiid":"B2094757D06FA0F8469D","title":"复旦大学继续教育学院","lon":"121.51036071","lat":"31.290260314","category":"671","category_name":"高校中心点","address":"上海四平路1931号"},{"poiid":"B2094750D26AABF9409D","title":"糊涂家宠物咖啡店","lon":"121.511199","lat":"31.289052","category":"248","category_name":"生活娱乐","address":"国权路619号"},{"poiid":"B2094655D26FA0FE4199","title":"复旦科技园大厦","lon":"121.50793","lat":"31.2879","category":"46","category_name":"楼宇","address":"上海市杨浦区国泰路11号"},{"poiid":"B2094757D06FA6FB449A","title":"四平路国权路","lon":"121.510942","lat":"31.290713","category":"260","category_name":"其他","address":"上海四平路国权路"},{"poiid":"B2094757D168A6FD4398","title":"同济大学中芬中心","lon":"121.514669103","lat":"31.2831076874","category":"500","category_name":"未知分类","address":"上海彰武路100号"},{"poiid":"B2094757D06FABF4429B","title":"上海新东方学校(四平路总部)","lon":"121.50995","lat":"31.2891","category":"253","category_name":"校园生活","address":"杨浦区四平路1805号(近国权路)"},{"poiid":"B2094757D06BA7F4479A","title":"CCDI悉地国际 总部","lon":"121.50929686","lat":"31.2862824724","category":"46","category_name":"楼宇","address":"上海市四平路1758号"},{"poiid":"B2094757D065A7F8479F","title":"同济大学 留德预备部","lon":"121.51239013","lat":"31.282131195","category":"52","category_name":"高等院校","address":"上海杨浦区彰武路100号"},{"poiid":"B2094654DB69A4FD489F","title":".锦江都城上海白玉兰酒店","lon":"121.50722","lat":"31.28563","category":"216","category_name":"经济型连锁酒店","address":"上海市虹口区四平路1251号（近中山北二路）"},{"poiid":"B2094757D06FABFD429B","title":"林绿家园","lon":"121.51253","lat":"31.290365","category":"47","category_name":"住宅区","address":"上海市杨浦区四平路1950弄"},{"poiid":"B2094654D56EA4FB4292","title":"法善庵","lon":"121.5152","lat":"31.28554","category":"244","category_name":"寺庙道观","address":"杨浦区政本路338号(国科路政本路)"},{"poiid":"B2094757D66FA0FB439A","title":"糊塗家貓咪世界","lon":"121.515820103","lat":"31.2869437676","category":"500","category_name":"未知分类","address":"上海市杨浦区国权路"},{"poiid":"B2094757D06EAAF8469B","title":"蜂蜜四叶草 Honey Clover","lon":"121.51274","lat":"31.28864","category":"260","category_name":"其他","address":"杨浦区国权路201号(近四平路)"},{"poiid":"B2094757D06AA7FF439F","title":"八号线四平路站","lon":"121.511265103","lat":"31.2891078129","category":"500","category_name":"未知分类","address":"上海四平路大连路"},{"poiid":"B2094654DB6BA2FC419E","title":"锦江之星(上海国权路店)","lon":"121.51139","lat":"31.28955","category":"216","category_name":"经济型连锁酒店","address":"上海杨浦区国权路236号(近四平路)  "},{"poiid":"B2094757D06FA6FC489A","title":"上海市政工程设计研究总院(集团)有限公司","lon":"121.50660272","lat":"31.2856493126","category":"46","category_name":"楼宇","address":"上海市杨浦区中山北二路901号"},{"poiid":"B2094757D16FABF4419F","title":"上海空军政治学院 军区大院","lon":"121.51033486","lat":"31.286804469","category":"500","category_name":"未知分类","address":"上海国权路121弄"},{"poiid":"B2094757D16CA1F5479D","title":"维罗纳意式私房菜","lon":"121.509830869","lat":"31.2891654708","category":"94","category_name":"西餐厅","address":"杨浦区国权路309号(近四平路)"},{"poiid":"B2094655D26EA1FB4893","title":"金宝贝(五角场中心店)","lon":"121.50787","lat":"31.28801","category":"57","category_name":"幼儿园","address":"杨浦区四平路1779号复旦科技园大厦B楼3楼(近国权路)"},{"poiid":"B2094751D26EA2F4439D","title":"糊涂家宠物咖啡馆","lon":"121.51137","lat":"31.28918","category":"260","category_name":"其他","address":"杨浦区国权路219号2-3楼(近四平路)"},{"poiid":"B2094655D36CA7FB4793","title":"国权路","lon":"121.50998","lat":"31.289","category":"38","category_name":"公交车站","address":"399弄"},{"poiid":"B2094757D065A3F54293","title":"四平科技公园","lon":"121.5094","lat":"31.28787","category":"196","category_name":"公园","address":"杨浦区四平路1777号"},{"poiid":"B2094757D168A6FB4299","title":"老北京涮羊肉","lon":"121.512619","lat":"31.288427","category":"86","category_name":"火锅店","address":"杨浦区国权路177号"},{"poiid":"B2094655D26AAAFB4999","title":"圣富法式铁板烧景观餐厅","lon":"121.50973","lat":"31.28946","category":"97","category_name":"法式菜品餐厅","address":"杨浦区四平路1805号天益宾馆16楼(近国权路)"},{"poiid":"B2094655D26CA5FF419C","title":"齐鲁人家","lon":"121.509172054","lat":"31.288170793","category":"73","category_name":"山东菜","address":"杨浦区国泰路48号(近四平路)"},{"poiid":"B2094655D36DA7F84198","title":"中山北二路四平路","lon":"121.511","lat":"31.28494","category":"38","category_name":"公交车站","address":""},{"poiid":"B2094654D56EA7FC469A","title":"通华大楼","lon":"121.512","lat":"31.2843","category":"46","category_name":"楼宇","address":"四平路1230号"},{"poiid":"B2094751D265A4FC419F","title":"贵州苗寨酸汤鱼","lon":"121.51129","lat":"31.28911","category":"83","category_name":"云贵菜","address":"杨浦区国权路217号(近四平路)"},{"poiid":"B2094757D064A1F94398","title":"天益宾馆","lon":"121.50948","lat":"31.288708","category":"217","category_name":"旅馆招待所","address":"杨浦区四平路1805号(近国权路)"},{"poiid":"B2094757D468A4FA4092","title":"老村庄野生鱼馆","lon":"121.5125927","lat":"31.2884382","category":"87","category_name":"特色／地方风味餐厅","address":"杨浦区国权路179号(近四平路)"},{"poiid":"B2094752D165A3FB499A","title":"城隍庙","lon":"121.512335","lat":"31.286516","category":"248","category_name":"生活娱乐","address":null},{"poiid":"B2094757D66CA5FB4999","title":"重庆鸡公煲 国权店","lon":"121.511308054","lat":"31.289598793","category":"71","category_name":"四川菜","address":"杨浦区国权路207号(近四平路)"},{"poiid":"B2094655D36CA7FB479B","title":"国泰路","lon":"121.50942","lat":"31.2882","category":"38","category_name":"公交车站","address":""},{"poiid":"B2094757D16EAAF5459F","title":"二毛湘菜馆","lon":"121.51203","lat":"31.28866","category":"77","category_name":"湖南菜","address":"杨浦区国权路211号(近四平路)"},{"poiid":"B2094655D26EABFB4599","title":"湖南湘宏土菜","lon":"121.51244","lat":"31.2885","category":"247","category_name":"餐饮美食","address":"杨浦区国权路189号"},{"poiid":"B2094751D26DA7F8489D","title":"台北纯K","lon":"121.509208","lat":"31.290533","category":"500","category_name":"未知分类","address":null},{"poiid":"B2094757D66DABFC499F","title":"哈尔滨东北小吃","lon":"121.51087","lat":"31.28963","category":"247","category_name":"餐饮美食","address":"上海杨浦区四平路1874号(近国权路)  "},{"poiid":"B209475CD469A1F5429A","title":"哈尔滨风味小吃","lon":"121.511711","lat":"31.289148","category":"247","category_name":"餐饮美食","address":"上海市 国权路187号"},{"poiid":"B2094654D56EA0F54793","title":"同济迎宾馆","lon":"121.51093","lat":"31.28172","category":"250","category_name":"公园户外","address":"杨浦区彰武路69号(近四平路)"},{"poiid":"B209475DD46EAAFD4899","title":"同济大学樱花大道","lon":"121.509353","lat":"31.287561","category":"253","category_name":"校园生活","address":"上海市 赤峰路"},{"poiid":"B209475CD165ABFE4192","title":"五角场","lon":"121.50914","lat":"31.285364","category":"500","category_name":"未知分类","address":"上海市 邯郸路600号"},{"poiid":"B2094654D56EAAF9449F","title":"上海五角场大学生创业基地","lon":"121.51049","lat":"31.29069","category":"46","category_name":"楼宇","address":"四平路1945"},{"poiid":"B209475CD76FA0F8449F","title":"同济大学地铁站","lon":"121.510009","lat":"31.288702","category":"500","category_name":"未知分类","address":"上海市 同济大学四平路校区"},{"poiid":"B2094655D26EA6FF469D","title":"天益宾馆餐厅","lon":"121.510075054","lat":"31.289389793","category":"76","category_name":"上海菜","address":"杨浦区四平路1805号(近国权路)"},{"poiid":"B2094655D26EA5FB4799","title":"川香馆 四平路","lon":"121.51019854651","lat":"31.289472043183","category":"71","category_name":"四川菜","address":"四平路1805号"},{"poiid":"B2094757DB6BA4F44893","title":"唐宫海鲜舫 白玉兰店","lon":"121.5075302124","lat":"31.285158157349","category":"72","category_name":"广东菜","address":"杨浦区四平路1251号白玉兰宾馆2楼"},{"poiid":"B2094757D06FA3FF4693","title":"上海电视大学(国顺校区)","lon":"121.51313","lat":"31.29115","category":"671","category_name":"高校中心点","address":"杨浦区国顺路288号(近四平路)"},{"poiid":"B2094757D06EAAFC479B","title":"国权路地铁站","lon":"121.510234","lat":"31.289649","category":"36","category_name":"地铁站","address":"上海轨道交通 十号线 轨交国权路站 10"},{"poiid":"B2094757D06FA0FA409F","title":"同济联合广场","lon":"121.514","lat":"31.2875","category":"119","category_name":"商场","address":"丰台学城海鹰路1号,3号"},{"poiid":"B2094655D26AA7FD479D","title":"锦江白玉兰宾馆","lon":"121.50635","lat":"31.28221","category":"76","category_name":"上海菜","address":"杨浦区四平路1251号(近国康路)"},{"poiid":"B2094757D06FA0F8469D","title":"复旦大学继续教育学院","lon":"121.51036071","lat":"31.290260314","category":"671","category_name":"高校中心点","address":"上海四平路1931号"},{"poiid":"B2094750D26AABF9409D","title":"糊涂家宠物咖啡店","lon":"121.511199","lat":"31.289052","category":"248","category_name":"生活娱乐","address":"国权路619号"},{"poiid":"B2094655D26FA0FE4199","title":"复旦科技园大厦","lon":"121.50793","lat":"31.2879","category":"46","category_name":"楼宇","address":"上海市杨浦区国泰路11号"},{"poiid":"B2094757D06FA6FB449A","title":"四平路国权路","lon":"121.510942","lat":"31.290713","category":"260","category_name":"其他","address":"上海四平路国权路"},{"poiid":"B2094757D168A6FD4398","title":"同济大学中芬中心","lon":"121.514669103","lat":"31.2831076874","category":"500","category_name":"未知分类","address":"上海彰武路100号"},{"poiid":"B2094757D06FABF4429B","title":"上海新东方学校(四平路总部)","lon":"121.50995","lat":"31.2891","category":"253","category_name":"校园生活","address":"杨浦区四平路1805号(近国权路)"},{"poiid":"B2094757D06BA7F4479A","title":"CCDI悉地国际 总部","lon":"121.50929686","lat":"31.2862824724","category":"46","category_name":"楼宇","address":"上海市四平路1758号"},{"poiid":"B2094757D065A7F8479F","title":"同济大学 留德预备部","lon":"121.51239013","lat":"31.282131195","category":"52","category_name":"高等院校","address":"上海杨浦区彰武路100号"},{"poiid":"B2094654DB69A4FD489F","title":".锦江都城上海白玉兰酒店","lon":"121.50722","lat":"31.28563","category":"216","category_name":"经济型连锁酒店","address":"上海市虹口区四平路1251号（近中山北二路）"},{"poiid":"B2094757D06FABFD429B","title":"林绿家园","lon":"121.51253","lat":"31.290365","category":"47","category_name":"住宅区","address":"上海市杨浦区四平路1950弄"},{"poiid":"B2094654D56EA4FB4292","title":"法善庵","lon":"121.5152","lat":"31.28554","category":"244","category_name":"寺庙道观","address":"杨浦区政本路338号(国科路政本路)"},{"poiid":"B2094757D66FA0FB439A","title":"糊塗家貓咪世界","lon":"121.515820103","lat":"31.2869437676","category":"500","category_name":"未知分类","address":"上海市杨浦区国权路"},{"poiid":"B2094757D06EAAF8469B","title":"蜂蜜四叶草 Honey Clover","lon":"121.51274","lat":"31.28864","category":"260","category_name":"其他","address":"杨浦区国权路201号(近四平路)"},{"poiid":"B2094757D06AA7FF439F","title":"八号线四平路站","lon":"121.511265103","lat":"31.2891078129","category":"500","category_name":"未知分类","address":"上海四平路大连路"},{"poiid":"B2094654DB6BA2FC419E","title":"锦江之星(上海国权路店)","lon":"121.51139","lat":"31.28955","category":"216","category_name":"经济型连锁酒店","address":"上海杨浦区国权路236号(近四平路)  "},{"poiid":"B2094757D06FA6FC489A","title":"上海市政工程设计研究总院(集团)有限公司","lon":"121.50660272","lat":"31.2856493126","category":"46","category_name":"楼宇","address":"上海市杨浦区中山北二路901号"},{"poiid":"B2094757D16FABF4419F","title":"上海空军政治学院 军区大院","lon":"121.51033486","lat":"31.286804469","category":"500","category_name":"未知分类","address":"上海国权路121弄"},{"poiid":"B2094757D16CA1F5479D","title":"维罗纳意式私房菜","lon":"121.509830869","lat":"31.2891654708","category":"94","category_name":"西餐厅","address":"杨浦区国权路309号(近四平路)"},{"poiid":"B2094655D26EA1FB4893","title":"金宝贝(五角场中心店)","lon":"121.50787","lat":"31.28801","category":"57","category_name":"幼儿园","address":"杨浦区四平路1779号复旦科技园大厦B楼3楼(近国权路)"},{"poiid":"B2094751D26EA2F4439D","title":"糊涂家宠物咖啡馆","lon":"121.51137","lat":"31.28918","category":"260","category_name":"其他","address":"杨浦区国权路219号2-3楼(近四平路)"},{"poiid":"B2094655D36CA7FB4793","title":"国权路","lon":"121.50998","lat":"31.289","category":"38","category_name":"公交车站","address":"399弄"},{"poiid":"B2094757D065A3F54293","title":"四平科技公园","lon":"121.5094","lat":"31.28787","category":"196","category_name":"公园","address":"杨浦区四平路1777号"},{"poiid":"B2094757D168A6FB4299","title":"老北京涮羊肉","lon":"121.512619","lat":"31.288427","category":"86","category_name":"火锅店","address":"杨浦区国权路177号"},{"poiid":"B2094655D26AAAFB4999","title":"圣富法式铁板烧景观餐厅","lon":"121.50973","lat":"31.28946","category":"97","category_name":"法式菜品餐厅","address":"杨浦区四平路1805号天益宾馆16楼(近国权路)"},{"poiid":"B2094655D26CA5FF419C","title":"齐鲁人家","lon":"121.509172054","lat":"31.288170793","category":"73","category_name":"山东菜","address":"杨浦区国泰路48号(近四平路)"},{"poiid":"B2094655D36DA7F84198","title":"中山北二路四平路","lon":"121.511","lat":"31.28494","category":"38","category_name":"公交车站","address":""},{"poiid":"B2094654D56EA7FC469A","title":"通华大楼","lon":"121.512","lat":"31.2843","category":"46","category_name":"楼宇","address":"四平路1230号"},{"poiid":"B2094751D265A4FC419F","title":"贵州苗寨酸汤鱼","lon":"121.51129","lat":"31.28911","category":"83","category_name":"云贵菜","address":"杨浦区国权路217号(近四平路)"},{"poiid":"B2094757D064A1F94398","title":"天益宾馆","lon":"121.50948","lat":"31.288708","category":"217","category_name":"旅馆招待所","address":"杨浦区四平路1805号(近国权路)"},{"poiid":"B2094757D468A4FA4092","title":"老村庄野生鱼馆","lon":"121.5125927","lat":"31.2884382","category":"87","category_name":"特色／地方风味餐厅","address":"杨浦区国权路179号(近四平路)"},{"poiid":"B2094752D165A3FB499A","title":"城隍庙","lon":"121.512335","lat":"31.286516","category":"248","category_name":"生活娱乐","address":null},{"poiid":"B2094757D66CA5FB4999","title":"重庆鸡公煲 国权店","lon":"121.511308054","lat":"31.289598793","category":"71","category_name":"四川菜","address":"杨浦区国权路207号(近四平路)"},{"poiid":"B2094655D36CA7FB479B","title":"国泰路","lon":"121.50942","lat":"31.2882","category":"38","category_name":"公交车站","address":""},{"poiid":"B2094757D16EAAF5459F","title":"二毛湘菜馆","lon":"121.51203","lat":"31.28866","category":"77","category_name":"湖南菜","address":"杨浦区国权路211号(近四平路)"},{"poiid":"B2094655D26EABFB4599","title":"湖南湘宏土菜","lon":"121.51244","lat":"31.2885","category":"247","category_name":"餐饮美食","address":"杨浦区国权路189号"},{"poiid":"B2094751D26DA7F8489D","title":"台北纯K","lon":"121.509208","lat":"31.290533","category":"500","category_name":"未知分类","address":null},{"poiid":"B2094757D66DABFC499F","title":"哈尔滨东北小吃","lon":"121.51087","lat":"31.28963","category":"247","category_name":"餐饮美食","address":"上海杨浦区四平路1874号(近国权路)  "},{"poiid":"B209475CD469A1F5429A","title":"哈尔滨风味小吃","lon":"121.511711","lat":"31.289148","category":"247","category_name":"餐饮美食","address":"上海市 国权路187号"},{"poiid":"B2094654D56EA0F54793","title":"同济迎宾馆","lon":"121.51093","lat":"31.28172","category":"250","category_name":"公园户外","address":"杨浦区彰武路69号(近四平路)"},{"poiid":"B209475DD46EAAFD4899","title":"同济大学樱花大道","lon":"121.509353","lat":"31.287561","category":"253","category_name":"校园生活","address":"上海市 赤峰路"},{"poiid":"B209475CD165ABFE4192","title":"五角场","lon":"121.50914","lat":"31.285364","category":"500","category_name":"未知分类","address":"上海市 邯郸路600号"},{"poiid":"B2094654D56EAAF9449F","title":"上海五角场大学生创业基地","lon":"121.51049","lat":"31.29069","category":"46","category_name":"楼宇","address":"四平路1945"},{"poiid":"B209475CD76FA0F8449F","title":"同济大学地铁站","lon":"121.510009","lat":"31.288702","category":"500","category_name":"未知分类","address":"上海市 同济大学四平路校区"},{"poiid":"B2094655D26EA6FF469D","title":"天益宾馆餐厅","lon":"121.510075054","lat":"31.289389793","category":"76","category_name":"上海菜","address":"杨浦区四平路1805号(近国权路)"},{"poiid":"B2094655D26EA5FB4799","title":"川香馆 四平路","lon":"121.51019854651","lat":"31.289472043183","category":"71","category_name":"四川菜","address":"四平路1805号"},{"poiid":"B2094757DB6BA4F44893","title":"唐宫海鲜舫 白玉兰店","lon":"121.5075302124","lat":"31.285158157349","category":"72","category_name":"广东菜","address":"杨浦区四平路1251号白玉兰宾馆2楼"},{"poiid":"B2094757D06FA3FF4693","title":"上海电视大学(国顺校区)","lon":"121.51313","lat":"31.29115","category":"671","category_name":"高校中心点","address":"杨浦区国顺路288号(近四平路)"},{"poiid":"B2094757D06EAAFC479B","title":"国权路地铁站","lon":"121.510234","lat":"31.289649","category":"36","category_name":"地铁站","address":"上海轨道交通 十号线 轨交国权路站 10"},{"poiid":"B2094757D06FA0FA409F","title":"同济联合广场","lon":"121.514","lat":"31.2875","category":"119","category_name":"商场","address":"丰台学城海鹰路1号,3号"},{"poiid":"B2094655D26AA7FD479D","title":"锦江白玉兰宾馆","lon":"121.50635","lat":"31.28221","category":"76","category_name":"上海菜","address":"杨浦区四平路1251号(近国康路)"},{"poiid":"B2094757D06FA0F8469D","title":"复旦大学继续教育学院","lon":"121.51036071","lat":"31.290260314","category":"671","category_name":"高校中心点","address":"上海四平路1931号"},{"poiid":"B2094750D26AABF9409D","title":"糊涂家宠物咖啡店","lon":"121.511199","lat":"31.289052","category":"248","category_name":"生活娱乐","address":"国权路619号"},{"poiid":"B2094655D26FA0FE4199","title":"复旦科技园大厦","lon":"121.50793","lat":"31.2879","category":"46","category_name":"楼宇","address":"上海市杨浦区国泰路11号"},{"poiid":"B2094757D06FA6FB449A","title":"四平路国权路","lon":"121.510942","lat":"31.290713","category":"260","category_name":"其他","address":"上海四平路国权路"},{"poiid":"B2094757D168A6FD4398","title":"同济大学中芬中心","lon":"121.514669103","lat":"31.2831076874","category":"500","category_name":"未知分类","address":"上海彰武路100号"},{"poiid":"B2094757D06FABF4429B","title":"上海新东方学校(四平路总部)","lon":"121.50995","lat":"31.2891","category":"253","category_name":"校园生活","address":"杨浦区四平路1805号(近国权路)"},{"poiid":"B2094757D06BA7F4479A","title":"CCDI悉地国际 总部","lon":"121.50929686","lat":"31.2862824724","category":"46","category_name":"楼宇","address":"上海市四平路1758号"},{"poiid":"B2094757D065A7F8479F","title":"同济大学 留德预备部","lon":"121.51239013","lat":"31.282131195","category":"52","category_name":"高等院校","address":"上海杨浦区彰武路100号"},{"poiid":"B2094654DB69A4FD489F","title":".锦江都城上海白玉兰酒店","lon":"121.50722","lat":"31.28563","category":"216","category_name":"经济型连锁酒店","address":"上海市虹口区四平路1251号（近中山北二路）"},{"poiid":"B2094757D06FABFD429B","title":"林绿家园","lon":"121.51253","lat":"31.290365","category":"47","category_name":"住宅区","address":"上海市杨浦区四平路1950弄"},{"poiid":"B2094654D56EA4FB4292","title":"法善庵","lon":"121.5152","lat":"31.28554","category":"244","category_name":"寺庙道观","address":"杨浦区政本路338号(国科路政本路)"},{"poiid":"B2094757D66FA0FB439A","title":"糊塗家貓咪世界","lon":"121.515820103","lat":"31.2869437676","category":"500","category_name":"未知分类","address":"上海市杨浦区国权路"},{"poiid":"B2094757D06EAAF8469B","title":"蜂蜜四叶草 Honey Clover","lon":"121.51274","lat":"31.28864","category":"260","category_name":"其他","address":"杨浦区国权路201号(近四平路)"},{"poiid":"B2094757D06AA7FF439F","title":"八号线四平路站","lon":"121.511265103","lat":"31.2891078129","category":"500","category_name":"未知分类","address":"上海四平路大连路"},{"poiid":"B2094654DB6BA2FC419E","title":"锦江之星(上海国权路店)","lon":"121.51139","lat":"31.28955","category":"216","category_name":"经济型连锁酒店","address":"上海杨浦区国权路236号(近四平路)  "},{"poiid":"B2094757D06FA6FC489A","title":"上海市政工程设计研究总院(集团)有限公司","lon":"121.50660272","lat":"31.2856493126","category":"46","category_name":"楼宇","address":"上海市杨浦区中山北二路901号"},{"poiid":"B2094757D16FABF4419F","title":"上海空军政治学院 军区大院","lon":"121.51033486","lat":"31.286804469","category":"500","category_name":"未知分类","address":"上海国权路121弄"},{"poiid":"B2094757D16CA1F5479D","title":"维罗纳意式私房菜","lon":"121.509830869","lat":"31.2891654708","category":"94","category_name":"西餐厅","address":"杨浦区国权路309号(近四平路)"},{"poiid":"B2094655D26EA1FB4893","title":"金宝贝(五角场中心店)","lon":"121.50787","lat":"31.28801","category":"57","category_name":"幼儿园","address":"杨浦区四平路1779号复旦科技园大厦B楼3楼(近国权路)"},{"poiid":"B2094751D26EA2F4439D","title":"糊涂家宠物咖啡馆","lon":"121.51137","lat":"31.28918","category":"260","category_name":"其他","address":"杨浦区国权路219号2-3楼(近四平路)"},{"poiid":"B2094655D36CA7FB4793","title":"国权路","lon":"121.50998","lat":"31.289","category":"38","category_name":"公交车站","address":"399弄"},{"poiid":"B2094757D065A3F54293","title":"四平科技公园","lon":"121.5094","lat":"31.28787","category":"196","category_name":"公园","address":"杨浦区四平路1777号"},{"poiid":"B2094757D168A6FB4299","title":"老北京涮羊肉","lon":"121.512619","lat":"31.288427","category":"86","category_name":"火锅店","address":"杨浦区国权路177号"},{"poiid":"B2094655D26AAAFB4999","title":"圣富法式铁板烧景观餐厅","lon":"121.50973","lat":"31.28946","category":"97","category_name":"法式菜品餐厅","address":"杨浦区四平路1805号天益宾馆16楼(近国权路)"},{"poiid":"B2094655D26CA5FF419C","title":"齐鲁人家","lon":"121.509172054","lat":"31.288170793","category":"73","category_name":"山东菜","address":"杨浦区国泰路48号(近四平路)"},{"poiid":"B2094655D36DA7F84198","title":"中山北二路四平路","lon":"121.511","lat":"31.28494","category":"38","category_name":"公交车站","address":""},{"poiid":"B2094654D56EA7FC469A","title":"通华大楼","lon":"121.512","lat":"31.2843","category":"46","category_name":"楼宇","address":"四平路1230号"},{"poiid":"B2094751D265A4FC419F","title":"贵州苗寨酸汤鱼","lon":"121.51129","lat":"31.28911","category":"83","category_name":"云贵菜","address":"杨浦区国权路217号(近四平路)"},{"poiid":"B2094757D064A1F94398","title":"天益宾馆","lon":"121.50948","lat":"31.288708","category":"217","category_name":"旅馆招待所","address":"杨浦区四平路1805号(近国权路)"},{"poiid":"B2094757D468A4FA4092","title":"老村庄野生鱼馆","lon":"121.5125927","lat":"31.2884382","category":"87","category_name":"特色／地方风味餐厅","address":"杨浦区国权路179号(近四平路)"},{"poiid":"B2094752D165A3FB499A","title":"城隍庙","lon":"121.512335","lat":"31.286516","category":"248","category_name":"生活娱乐","address":null},{"poiid":"B2094757D66CA5FB4999","title":"重庆鸡公煲 国权店","lon":"121.511308054","lat":"31.289598793","category":"71","category_name":"四川菜","address":"杨浦区国权路207号(近四平路)"},{"poiid":"B2094655D36CA7FB479B","title":"国泰路","lon":"121.50942","lat":"31.2882","category":"38","category_name":"公交车站","address":""},{"poiid":"B2094757D16EAAF5459F","title":"二毛湘菜馆","lon":"121.51203","lat":"31.28866","category":"77","category_name":"湖南菜","address":"杨浦区国权路211号(近四平路)"},{"poiid":"B2094655D26EABFB4599","title":"湖南湘宏土菜","lon":"121.51244","lat":"31.2885","category":"247","category_name":"餐饮美食","address":"杨浦区国权路189号"},{"poiid":"B2094751D26DA7F8489D","title":"台北纯K","lon":"121.509208","lat":"31.290533","category":"500","category_name":"未知分类","address":null},{"poiid":"B2094757D66DABFC499F","title":"哈尔滨东北小吃","lon":"121.51087","lat":"31.28963","category":"247","category_name":"餐饮美食","address":"上海杨浦区四平路1874号(近国权路)  "},{"poiid":"B209475CD469A1F5429A","title":"哈尔滨风味小吃","lon":"121.511711","lat":"31.289148","category":"247","category_name":"餐饮美食","address":"上海市 国权路187号"},{"poiid":"B2094654D56EA0F54793","title":"同济迎宾馆","lon":"121.51093","lat":"31.28172","category":"250","category_name":"公园户外","address":"杨浦区彰武路69号(近四平路)"},{"poiid":"B209475DD46EAAFD4899","title":"同济大学樱花大道","lon":"121.509353","lat":"31.287561","category":"253","category_name":"校园生活","address":"上海市 赤峰路"},{"poiid":"B209475CD165ABFE4192","title":"五角场","lon":"121.50914","lat":"31.285364","category":"500","category_name":"未知分类","address":"上海市 邯郸路600号"},{"poiid":"B2094654D56EAAF9449F","title":"上海五角场大学生创业基地","lon":"121.51049","lat":"31.29069","category":"46","category_name":"楼宇","address":"四平路1945"},{"poiid":"B209475CD76FA0F8449F","title":"同济大学地铁站","lon":"121.510009","lat":"31.288702","category":"500","category_name":"未知分类","address":"上海市 同济大学四平路校区"},{"poiid":"B2094655D26EA6FF469D","title":"天益宾馆餐厅","lon":"121.510075054","lat":"31.289389793","category":"76","category_name":"上海菜","address":"杨浦区四平路1805号(近国权路)"},{"poiid":"B2094655D26EA5FB4799","title":"川香馆 四平路","lon":"121.51019854651","lat":"31.289472043183","category":"71","category_name":"四川菜","address":"四平路1805号"}]