[{"poiid":"B2094757D06FA3FD449D","title":"同济大学(沪西校区)","lon":"121.39089202","lat":"31.269561767","category":"671","category_name":"高校中心点","address":"普陀区真南路500号(近真北路)"},{"poiid":"B2094757D06FA2FB4098","title":"晋元高级中学","lon":"121.3983","lat":"31.26996","category":"55","category_name":"中学","address":"普陀区新村路2169号(近大华万里城)"},{"poiid":"B2094757D06FA2FF429A","title":"星河世纪城","lon":"121.400814","lat":"31.265736","category":"47","category_name":"住宅区","address":"上海桃浦路300弄"},{"poiid":"B2094757D065AAF4439E","title":"小南国海之源日式温泉(万里店)","lon":"121.40134595","lat":"31.2694990504","category":"500","category_name":"未知分类","address":"上海普陀区真金路239号(近新村路)"},{"poiid":"B2094757D06EAAFD449E","title":"李子园地铁站","lon":"121.38968953","lat":"31.269055936","category":"36","category_name":"地铁站","address":"上海轨道交通 十一号线 轨交李子园站 11"},{"poiid":"B2094757D06FA3FA419B","title":"愉景华庭","lon":"121.40168195","lat":"31.271195067","category":"47","category_name":"住宅区","address":"上海新村路2003弄"},{"poiid":"B2094757D064A3F9489A","title":"佰金瀚宫","lon":"121.393459165","lat":"31.2690212227","category":"47","category_name":"住宅区","address":"上海普陀区真北路2980号(真南路口)"},{"poiid":"B2094757D069A0F9409E","title":"真南路真北路口","lon":"121.393213044","lat":"31.2690784635","category":"500","category_name":"未知分类","address":"上海真南路真北路口"},{"poiid":"B2094757D16CA7F5449A","title":"冠松大众","lon":"121.39540495","lat":"31.2721101003","category":"158","category_name":"汽车销售","address":"上海市普陀区真北路3045号"},{"poiid":"B2094757D06BA7FD499C","title":"晋元体育中心","lon":"121.39671","lat":"31.26905","category":"221","category_name":"健身中心","address":"普陀区新村路2199号(富水路新村路)"},{"poiid":"B2094757D064A7F9409E","title":"李园大酒店","lon":"121.3919392","lat":"31.2689156","category":"76","category_name":"上海菜","address":"普陀区真南路451号(同济大学沪西校区对面)"},{"poiid":"B2094757D069A1F54493","title":"一汽大众华星众捷","lon":"121.38895971","lat":"31.2686372739","category":"500","category_name":"未知分类","address":"上海真南路589号"},{"poiid":"B2094654D465A3F4419B","title":"同济大学第一教学楼","lon":"121.38958","lat":"31.2709","category":"52","category_name":"高等院校","address":"上海普陀区真南路500号同济大学沪西校区"},{"poiid":"B2094757D06AABFA409E","title":"冠松别克","lon":"121.39691995","lat":"31.274100138","category":"163","category_name":"4S店","address":"上海市普陀区真北路3045号"},{"poiid":"B2094654D465A3FB4898","title":"同济大学图书馆沪西分馆","lon":"121.3914","lat":"31.2704","category":"181","category_name":"图书馆","address":""},{"poiid":"B2094757D664AAFB419D","title":"老绍兴三黄鸡酒家 富水路店","lon":"121.40014","lat":"31.27246","category":"75","category_name":"浙江菜","address":"普陀区富水路517号(近万泉路)"},{"poiid":"B2094655D36DA7FF409E","title":"真南路真北路","lon":"121.3918","lat":"31.26891","category":"38","category_name":"公交车站","address":""},{"poiid":"B2094655D264A0FA499F","title":"晶品苑","lon":"121.39859","lat":"31.26922","category":"47","category_name":"住宅区","address":"上海新村路2080弄"},{"poiid":"B2094655D26BA5F9459C","title":"永兴长途汽车站","lon":"121.395","lat":"31.26949","category":"35","category_name":"长途汽车站","address":"真南路298"},{"poiid":"B2094654D465A3FF489A","title":"校外农家菜馆","lon":"121.39131","lat":"31.26812","category":"257","category_name":"中餐厅","address":""},{"poiid":"B2094757D065A2FB489A","title":"吉祥馄饨　 如意店","lon":"121.391448","lat":"31.269121","category":"87","category_name":"特色／地方风味餐厅","address":"普陀区真南路484号(近同济大学)"},{"poiid":"B2094757D06AA0FF499A","title":"晋元高级中学体育馆","lon":"121.398112066","lat":"31.2704873104","category":"253","category_name":"校园生活","address":"上海普陀区新村路2169号(近大华万里城)"},{"poiid":"B2094654D464ABF5439C","title":"大华·愉景华庭","lon":"121.40081","lat":"31.27091","category":"47","category_name":"住宅区","address":"上海市普陀区新村路2003号"},{"poiid":"B2094654D465A3F4429D","title":"上海诚信学院","lon":"121.39097","lat":"31.26963","category":"671","category_name":"高校中心点","address":"普陀区同济大学沪西校区行政办公楼"},{"poiid":"B2094757D16FA0FA449D","title":"Buick4S","lon":"121.394299","lat":"31.272542","category":"500","category_name":"未知分类","address":"上海冠松别克真北路店"},{"poiid":"B2094757D568ABFF4799","title":"清涧家园","lon":"121.396","lat":"31.2681","category":"47","category_name":"住宅区","address":"清涧家园位于嘉定清涧路39弄8号"},{"poiid":"B2094655D26EA2FE4999","title":"杨家桥小区(南门)","lon":"121.39433","lat":"31.26526","category":"47","category_name":"住宅区","address":"交通路4352号"},{"poiid":"B2094655D26CA2F4449B","title":"普陀公安分局交通警察支队五中队","lon":"121.39522","lat":"31.26946","category":"250","category_name":"公园户外","address":""},{"poiid":"B2094750D564A4F54892","title":"愉景华庭写字楼","lon":"121.400685","lat":"31.270903","category":"46","category_name":"楼宇","address":"宝山区富水路480号"},{"poiid":"B2094654D465A3FF4998","title":"兴华川菜馆","lon":"121.3913","lat":"31.26763","category":"71","category_name":"四川菜","address":"普陀区交通路真南路口(近同济大学沪西校区)"},{"poiid":"B2094654D465A3F9409A","title":"杨桥第一小区","lon":"121.3922","lat":"31.268253","category":"47","category_name":"住宅区","address":"真北路2977弄,2857弄"},{"poiid":"B2094654DB6AABF84898","title":"如意麻辣烫","lon":"121.39131","lat":"31.26847","category":"68","category_name":"快餐厅","address":"普陀区真南路501号(同济大学对面)"},{"poiid":"B2094757D16DA6F8469C","title":"亚珠海鲜大酒楼","lon":"121.395746","lat":"31.274186","category":"247","category_name":"餐饮美食","address":"上海市普陀区真北路3187号"},{"poiid":"B2094654DB6AA6F94098","title":"上海冠松别克4S店","lon":"121.3943","lat":"31.27255","category":"158","category_name":"汽车销售","address":"普陀区真北路3045号"},{"poiid":"B2094757D568A5F9489E","title":"万里晶品苑","lon":"121.39761","lat":"31.268551","category":"47","category_name":"住宅区","address":"普陀区新村路2080弄"},{"poiid":"B2094655D26CA7FF4599","title":"中铁佳苑小区(东门)","lon":"121.39585","lat":"31.26873","category":"47","category_name":"住宅区","address":"真南路209弄"},{"poiid":"B2094655D26BA7F9429E","title":"古竹里","lon":"121.39628","lat":"31.275","category":"47","category_name":"住宅区","address":"普陀区真北路3233号(近123吉曼酒店)"},{"poiid":"B2094757D06FAAF4449C","title":"清涧六街坊","lon":"121.389451","lat":"31.266068","category":"252","category_name":"楼宇机构","address":"上海市普陀区桃浦路1023弄"},{"poiid":"B2094757D065A7F9439A","title":"沪太路中环路","lon":"121.393478","lat":"31.268099","category":"500","category_name":"未知分类","address":"上海沪太路中环路"},{"poiid":"B2094654D464AAFE419D","title":"可的(真北路)","lon":"121.39348","lat":"31.2681","category":"117","category_name":"便民商店/便利店","address":""},{"poiid":"B2094654D465A3FB4799","title":"同济大学电子与信息工程学院信息与控制工程系","lon":"121.39225","lat":"31.2699","category":"52","category_name":"高等院校","address":"电信楼"},{"poiid":"B2094654D464AAFC4699","title":"普陀星云经济区","lon":"121.39546","lat":"31.27491","category":"45","category_name":"产业园区","address":"真北路3199、3370号"},{"poiid":"B2094757D068ABFB449A","title":"真北路","lon":"121.39625695","lat":"31.2741121385","category":"500","category_name":"未知分类","address":"上海真北路"},{"poiid":"B2094757D568AAFA4899","title":"万里晶品苑(北门)","lon":"121.39798069","lat":"31.26890842","category":"47","category_name":"住宅区","address":"新村路2080弄1-11号"},{"poiid":"B2094757D068A1FB489D","title":"万里112终点站","lon":"121.395833","lat":"31.270866","category":"500","category_name":"未知分类","address":"上海富水路"},{"poiid":"B2094654D465A3FB4893","title":"同济大学竹喧楼","lon":"121.3919","lat":"31.2716","category":"46","category_name":"楼宇","address":""},{"poiid":"B2094750DA6DA4FD409A","title":"李子园大厦","lon":"121.394058","lat":"31.270599","category":"252","category_name":"楼宇机构","address":"交通路4711号"},{"poiid":"B2094753D16DA2FB4099","title":"晋元高级中学游泳馆","lon":"121.39818","lat":"31.26947","category":"231","category_name":"游泳馆","address":"普陀区新村路2169号(近大华万里城)"},{"poiid":"B2094757D16AAAF9419C","title":"大渡河路桃浦路","lon":"121.39505545","lat":"31.271335385","category":"500","category_name":"未知分类","address":"上海大渡河路桃浦路,中亚公寓"},{"poiid":"B2094655D26FA7F5469B","title":"电信楼","lon":"121.39225","lat":"31.2699","category":"52","category_name":"高等院校","address":""},{"poiid":"B2094757D06FA3FD449D","title":"同济大学(沪西校区)","lon":"121.39089202","lat":"31.269561767","category":"671","category_name":"高校中心点","address":"普陀区真南路500号(近真北路)"},{"poiid":"B2094757D06FA2FB4098","title":"晋元高级中学","lon":"121.3983","lat":"31.26996","category":"55","category_name":"中学","address":"普陀区新村路2169号(近大华万里城)"},{"poiid":"B2094757D06FA2FF429A","title":"星河世纪城","lon":"121.400814","lat":"31.265736","category":"47","category_name":"住宅区","address":"上海桃浦路300弄"},{"poiid":"B2094757D065AAF4439E","title":"小南国海之源日式温泉(万里店)","lon":"121.40134595","lat":"31.2694990504","category":"500","category_name":"未知分类","address":"上海普陀区真金路239号(近新村路)"},{"poiid":"B2094757D06EAAFD449E","title":"李子园地铁站","lon":"121.38968953","lat":"31.269055936","category":"36","category_name":"地铁站","address":"上海轨道交通 十一号线 轨交李子园站 11"},{"poiid":"B2094757D06FA3FA419B","title":"愉景华庭","lon":"121.40168195","lat":"31.271195067","category":"47","category_name":"住宅区","address":"上海新村路2003弄"},{"poiid":"B2094757D064A3F9489A","title":"佰金瀚宫","lon":"121.393459165","lat":"31.2690212227","category":"47","category_name":"住宅区","address":"上海普陀区真北路2980号(真南路口)"},{"poiid":"B2094757D069A0F9409E","title":"真南路真北路口","lon":"121.393213044","lat":"31.2690784635","category":"500","category_name":"未知分类","address":"上海真南路真北路口"},{"poiid":"B2094757D16CA7F5449A","title":"冠松大众","lon":"121.39540495","lat":"31.2721101003","category":"158","category_name":"汽车销售","address":"上海市普陀区真北路3045号"},{"poiid":"B2094757D06BA7FD499C","title":"晋元体育中心","lon":"121.39671","lat":"31.26905","category":"221","category_name":"健身中心","address":"普陀区新村路2199号(富水路新村路)"},{"poiid":"B2094757D064A7F9409E","title":"李园大酒店","lon":"121.3919392","lat":"31.2689156","category":"76","category_name":"上海菜","address":"普陀区真南路451号(同济大学沪西校区对面)"},{"poiid":"B2094757D069A1F54493","title":"一汽大众华星众捷","lon":"121.38895971","lat":"31.2686372739","category":"500","category_name":"未知分类","address":"上海真南路589号"},{"poiid":"B2094654D465A3F4419B","title":"同济大学第一教学楼","lon":"121.38958","lat":"31.2709","category":"52","category_name":"高等院校","address":"上海普陀区真南路500号同济大学沪西校区"},{"poiid":"B2094757D06AABFA409E","title":"冠松别克","lon":"121.39691995","lat":"31.274100138","category":"163","category_name":"4S店","address":"上海市普陀区真北路3045号"},{"poiid":"B2094654D465A3FB4898","title":"同济大学图书馆沪西分馆","lon":"121.3914","lat":"31.2704","category":"181","category_name":"图书馆","address":""},{"poiid":"B2094757D664AAFB419D","title":"老绍兴三黄鸡酒家 富水路店","lon":"121.40014","lat":"31.27246","category":"75","category_name":"浙江菜","address":"普陀区富水路517号(近万泉路)"},{"poiid":"B2094655D36DA7FF409E","title":"真南路真北路","lon":"121.3918","lat":"31.26891","category":"38","category_name":"公交车站","address":""},{"poiid":"B2094655D264A0FA499F","title":"晶品苑","lon":"121.39859","lat":"31.26922","category":"47","category_name":"住宅区","address":"上海新村路2080弄"},{"poiid":"B2094655D26BA5F9459C","title":"永兴长途汽车站","lon":"121.395","lat":"31.26949","category":"35","category_name":"长途汽车站","address":"真南路298"},{"poiid":"B2094654D465A3FF489A","title":"校外农家菜馆","lon":"121.39131","lat":"31.26812","category":"257","category_name":"中餐厅","address":""},{"poiid":"B2094757D065A2FB489A","title":"吉祥馄饨　 如意店","lon":"121.391448","lat":"31.269121","category":"87","category_name":"特色／地方风味餐厅","address":"普陀区真南路484号(近同济大学)"},{"poiid":"B2094757D06AA0FF499A","title":"晋元高级中学体育馆","lon":"121.398112066","lat":"31.2704873104","category":"253","category_name":"校园生活","address":"上海普陀区新村路2169号(近大华万里城)"},{"poiid":"B2094654D464ABF5439C","title":"大华·愉景华庭","lon":"121.40081","lat":"31.27091","category":"47","category_name":"住宅区","address":"上海市普陀区新村路2003号"},{"poiid":"B2094654D465A3F4429D","title":"上海诚信学院","lon":"121.39097","lat":"31.26963","category":"671","category_name":"高校中心点","address":"普陀区同济大学沪西校区行政办公楼"},{"poiid":"B2094757D16FA0FA449D","title":"Buick4S","lon":"121.394299","lat":"31.272542","category":"500","category_name":"未知分类","address":"上海冠松别克真北路店"},{"poiid":"B2094757D568ABFF4799","title":"清涧家园","lon":"121.396","lat":"31.2681","category":"47","category_name":"住宅区","address":"清涧家园位于嘉定清涧路39弄8号"},{"poiid":"B2094655D26EA2FE4999","title":"杨家桥小区(南门)","lon":"121.39433","lat":"31.26526","category":"47","category_name":"住宅区","address":"交通路4352号"},{"poiid":"B2094655D26CA2F4449B","title":"普陀公安分局交通警察支队五中队","lon":"121.39522","lat":"31.26946","category":"250","category_name":"公园户外","address":""},{"poiid":"B2094750D564A4F54892","title":"愉景华庭写字楼","lon":"121.400685","lat":"31.270903","category":"46","category_name":"楼宇","address":"宝山区富水路480号"},{"poiid":"B2094654D465A3FF4998","title":"兴华川菜馆","lon":"121.3913","lat":"31.26763","category":"71","category_name":"四川菜","address":"普陀区交通路真南路口(近同济大学沪西校区)"},{"poiid":"B2094654D465A3F9409A","title":"杨桥第一小区","lon":"121.3922","lat":"31.268253","category":"47","category_name":"住宅区","address":"真北路2977弄,2857弄"},{"poiid":"B2094654DB6AABF84898","title":"如意麻辣烫","lon":"121.39131","lat":"31.26847","category":"68","category_name":"快餐厅","address":"普陀区真南路501号(同济大学对面)"},{"poiid":"B2094757D16DA6F8469C","title":"亚珠海鲜大酒楼","lon":"121.395746","lat":"31.274186","category":"247","category_name":"餐饮美食","address":"上海市普陀区真北路3187号"},{"poiid":"B2094654DB6AA6F94098","title":"上海冠松别克4S店","lon":"121.3943","lat":"31.27255","category":"158","category_name":"汽车销售","address":"普陀区真北路3045号"},{"poiid":"B2094757D568A5F9489E","title":"万里晶品苑","lon":"121.39761","lat":"31.268551","category":"47","category_name":"住宅区","address":"普陀区新村路2080弄"},{"poiid":"B2094655D26CA7FF4599","title":"中铁佳苑小区(东门)","lon":"121.39585","lat":"31.26873","category":"47","category_name":"住宅区","address":"真南路209弄"},{"poiid":"B2094655D26BA7F9429E","title":"古竹里","lon":"121.39628","lat":"31.275","category":"47","category_name":"住宅区","address":"普陀区真北路3233号(近123吉曼酒店)"},{"poiid":"B2094757D06FAAF4449C","title":"清涧六街坊","lon":"121.389451","lat":"31.266068","category":"252","category_name":"楼宇机构","address":"上海市普陀区桃浦路1023弄"},{"poiid":"B2094757D065A7F9439A","title":"沪太路中环路","lon":"121.393478","lat":"31.268099","category":"500","category_name":"未知分类","address":"上海沪太路中环路"},{"poiid":"B2094654D464AAFE419D","title":"可的(真北路)","lon":"121.39348","lat":"31.2681","category":"117","category_name":"便民商店/便利店","address":""},{"poiid":"B2094654D465A3FB4799","title":"同济大学电子与信息工程学院信息与控制工程系","lon":"121.39225","lat":"31.2699","category":"52","category_name":"高等院校","address":"电信楼"},{"poiid":"B2094654D464AAFC4699","title":"普陀星云经济区","lon":"121.39546","lat":"31.27491","category":"45","category_name":"产业园区","address":"真北路3199、3370号"},{"poiid":"B2094757D068ABFB449A","title":"真北路","lon":"121.39625695","lat":"31.2741121385","category":"500","category_name":"未知分类","address":"上海真北路"},{"poiid":"B2094757D568AAFA4899","title":"万里晶品苑(北门)","lon":"121.39798069","lat":"31.26890842","category":"47","category_name":"住宅区","address":"新村路2080弄1-11号"},{"poiid":"B2094757D068A1FB489D","title":"万里112终点站","lon":"121.395833","lat":"31.270866","category":"500","category_name":"未知分类","address":"上海富水路"},{"poiid":"B2094654D465A3FB4893","title":"同济大学竹喧楼","lon":"121.3919","lat":"31.2716","category":"46","category_name":"楼宇","address":""},{"poiid":"B2094750DA6DA4FD409A","title":"李子园大厦","lon":"121.394058","lat":"31.270599","category":"252","category_name":"楼宇机构","address":"交通路4711号"},{"poiid":"B2094753D16DA2FB4099","title":"晋元高级中学游泳馆","lon":"121.39818","lat":"31.26947","category":"231","category_name":"游泳馆","address":"普陀区新村路2169号(近大华万里城)"},{"poiid":"B2094757D16AAAF9419C","title":"大渡河路桃浦路","lon":"121.39505545","lat":"31.271335385","category":"500","category_name":"未知分类","address":"上海大渡河路桃浦路,中亚公寓"},{"poiid":"B2094655D26FA7F5469B","title":"电信楼","lon":"121.39225","lat":"31.2699","category":"52","category_name":"高等院校","address":""},{"poiid":"B2094757D06FA3FD449D","title":"同济大学(沪西校区)","lon":"121.39089202","lat":"31.269561767","category":"671","category_name":"高校中心点","address":"普陀区真南路500号(近真北路)"},{"poiid":"B2094757D06FA2FB4098","title":"晋元高级中学","lon":"121.3983","lat":"31.26996","category":"55","category_name":"中学","address":"普陀区新村路2169号(近大华万里城)"},{"poiid":"B2094757D06FA2FF429A","title":"星河世纪城","lon":"121.400814","lat":"31.265736","category":"47","category_name":"住宅区","address":"上海桃浦路300弄"},{"poiid":"B2094757D065AAF4439E","title":"小南国海之源日式温泉(万里店)","lon":"121.40134595","lat":"31.2694990504","category":"500","category_name":"未知分类","address":"上海普陀区真金路239号(近新村路)"},{"poiid":"B2094757D06EAAFD449E","title":"李子园地铁站","lon":"121.38968953","lat":"31.269055936","category":"36","category_name":"地铁站","address":"上海轨道交通 十一号线 轨交李子园站 11"},{"poiid":"B2094757D06FA3FA419B","title":"愉景华庭","lon":"121.40168195","lat":"31.271195067","category":"47","category_name":"住宅区","address":"上海新村路2003弄"},{"poiid":"B2094757D064A3F9489A","title":"佰金瀚宫","lon":"121.393459165","lat":"31.2690212227","category":"47","category_name":"住宅区","address":"上海普陀区真北路2980号(真南路口)"},{"poiid":"B2094757D069A0F9409E","title":"真南路真北路口","lon":"121.393213044","lat":"31.2690784635","category":"500","category_name":"未知分类","address":"上海真南路真北路口"},{"poiid":"B2094757D16CA7F5449A","title":"冠松大众","lon":"121.39540495","lat":"31.2721101003","category":"158","category_name":"汽车销售","address":"上海市普陀区真北路3045号"},{"poiid":"B2094757D06BA7FD499C","title":"晋元体育中心","lon":"121.39671","lat":"31.26905","category":"221","category_name":"健身中心","address":"普陀区新村路2199号(富水路新村路)"},{"poiid":"B2094757D064A7F9409E","title":"李园大酒店","lon":"121.3919392","lat":"31.2689156","category":"76","category_name":"上海菜","address":"普陀区真南路451号(同济大学沪西校区对面)"},{"poiid":"B2094757D069A1F54493","title":"一汽大众华星众捷","lon":"121.38895971","lat":"31.2686372739","category":"500","category_name":"未知分类","address":"上海真南路589号"},{"poiid":"B2094654D465A3F4419B","title":"同济大学第一教学楼","lon":"121.38958","lat":"31.2709","category":"52","category_name":"高等院校","address":"上海普陀区真南路500号同济大学沪西校区"},{"poiid":"B2094757D06AABFA409E","title":"冠松别克","lon":"121.39691995","lat":"31.274100138","category":"163","category_name":"4S店","address":"上海市普陀区真北路3045号"},{"poiid":"B2094654D465A3FB4898","title":"同济大学图书馆沪西分馆","lon":"121.3914","lat":"31.2704","category":"181","category_name":"图书馆","address":""},{"poiid":"B2094757D664AAFB419D","title":"老绍兴三黄鸡酒家 富水路店","lon":"121.40014","lat":"31.27246","category":"75","category_name":"浙江菜","address":"普陀区富水路517号(近万泉路)"},{"poiid":"B2094655D36DA7FF409E","title":"真南路真北路","lon":"121.3918","lat":"31.26891","category":"38","category_name":"公交车站","address":""},{"poiid":"B2094655D264A0FA499F","title":"晶品苑","lon":"121.39859","lat":"31.26922","category":"47","category_name":"住宅区","address":"上海新村路2080弄"},{"poiid":"B2094655D26BA5F9459C","title":"永兴长途汽车站","lon":"121.395","lat":"31.26949","category":"35","category_name":"长途汽车站","address":"真南路298"},{"poiid":"B2094654D465A3FF489A","title":"校外农家菜馆","lon":"121.39131","lat":"31.26812","category":"257","category_name":"中餐厅","address":""},{"poiid":"B2094757D065A2FB489A","title":"吉祥馄饨　 如意店","lon":"121.391448","lat":"31.269121","category":"87","category_name":"特色／地方风味餐厅","address":"普陀区真南路484号(近同济大学)"},{"poiid":"B2094757D06AA0FF499A","title":"晋元高级中学体育馆","lon":"121.398112066","lat":"31.2704873104","category":"253","category_name":"校园生活","address":"上海普陀区新村路2169号(近大华万里城)"},{"poiid":"B2094654D464ABF5439C","title":"大华·愉景华庭","lon":"121.40081","lat":"31.27091","category":"47","category_name":"住宅区","address":"上海市普陀区新村路2003号"},{"poiid":"B2094654D465A3F4429D","title":"上海诚信学院","lon":"121.39097","lat":"31.26963","category":"671","category_name":"高校中心点","address":"普陀区同济大学沪西校区行政办公楼"},{"poiid":"B2094757D16FA0FA449D","title":"Buick4S","lon":"121.394299","lat":"31.272542","category":"500","category_name":"未知分类","address":"上海冠松别克真北路店"},{"poiid":"B2094757D568ABFF4799","title":"清涧家园","lon":"121.396","lat":"31.2681","category":"47","category_name":"住宅区","address":"清涧家园位于嘉定清涧路39弄8号"},{"poiid":"B2094655D26EA2FE4999","title":"杨家桥小区(南门)","lon":"121.39433","lat":"31.26526","category":"47","category_name":"住宅区","address":"交通路4352号"},{"poiid":"B2094655D26CA2F4449B","title":"普陀公安分局交通警察支队五中队","lon":"121.39522","lat":"31.26946","category":"250","category_name":"公园户外","address":""},{"poiid":"B2094750D564A4F54892","title":"愉景华庭写字楼","lon":"121.400685","lat":"31.270903","category":"46","category_name":"楼宇","address":"宝山区富水路480号"},{"poiid":"B2094654D465A3FF4998","title":"兴华川菜馆","lon":"121.3913","lat":"31.26763","category":"71","category_name":"四川菜","address":"普陀区交通路真南路口(近同济大学沪西校区)"},{"poiid":"B2094654D465A3F9409A","title":"杨桥第一小区","lon":"121.3922","lat":"31.268253","category":"47","category_name":"住宅区","address":"真北路2977弄,2857弄"},{"poiid":"B2094654DB6AABF84898","title":"如意麻辣烫","lon":"121.39131","lat":"31.26847","category":"68","category_name":"快餐厅","address":"普陀区真南路501号(同济大学对面)"},{"poiid":"B2094757D16DA6F8469C","title":"亚珠海鲜大酒楼","lon":"121.395746","lat":"31.274186","category":"247","category_name":"餐饮美食","address":"上海市普陀区真北路3187号"},{"poiid":"B2094654DB6AA6F94098","title":"上海冠松别克4S店","lon":"121.3943","lat":"31.27255","category":"158","category_name":"汽车销售","address":"普陀区真北路3045号"},{"poiid":"B2094757D568A5F9489E","title":"万里晶品苑","lon":"121.39761","lat":"31.268551","category":"47","category_name":"住宅区","address":"普陀区新村路2080弄"},{"poiid":"B2094655D26CA7FF4599","title":"中铁佳苑小区(东门)","lon":"121.39585","lat":"31.26873","category":"47","category_name":"住宅区","address":"真南路209弄"},{"poiid":"B2094655D26BA7F9429E","title":"古竹里","lon":"121.39628","lat":"31.275","category":"47","category_name":"住宅区","address":"普陀区真北路3233号(近123吉曼酒店)"},{"poiid":"B2094757D06FAAF4449C","title":"清涧六街坊","lon":"121.389451","lat":"31.266068","category":"252","category_name":"楼宇机构","address":"上海市普陀区桃浦路1023弄"},{"poiid":"B2094757D065A7F9439A","title":"沪太路中环路","lon":"121.393478","lat":"31.268099","category":"500","category_name":"未知分类","address":"上海沪太路中环路"},{"poiid":"B2094654D464AAFE419D","title":"可的(真北路)","lon":"121.39348","lat":"31.2681","category":"117","category_name":"便民商店/便利店","address":""},{"poiid":"B2094654D465A3FB4799","title":"同济大学电子与信息工程学院信息与控制工程系","lon":"121.39225","lat":"31.2699","category":"52","category_name":"高等院校","address":"电信楼"},{"poiid":"B2094654D464AAFC4699","title":"普陀星云经济区","lon":"121.39546","lat":"31.27491","category":"45","category_name":"产业园区","address":"真北路3199、3370号"},{"poiid":"B2094757D068ABFB449A","title":"真北路","lon":"121.39625695","lat":"31.2741121385","category":"500","category_name":"未知分类","address":"上海真北路"},{"poiid":"B2094757D568AAFA4899","title":"万里晶品苑(北门)","lon":"121.39798069","lat":"31.26890842","category":"47","category_name":"住宅区","address":"新村路2080弄1-11号"},{"poiid":"B2094757D068A1FB489D","title":"万里112终点站","lon":"121.395833","lat":"31.270866","category":"500","category_name":"未知分类","address":"上海富水路"},{"poiid":"B2094654D465A3FB4893","title":"同济大学竹喧楼","lon":"121.3919","lat":"31.2716","category":"46","category_name":"楼宇","address":""},{"poiid":"B2094750DA6DA4FD409A","title":"李子园大厦","lon":"121.394058","lat":"31.270599","category":"252","category_name":"楼宇机构","address":"交通路4711号"},{"poiid":"B2094753D16DA2FB4099","title":"晋元高级中学游泳馆","lon":"121.39818","lat":"31.26947","category":"231","category_name":"游泳馆","address":"普陀区新村路2169号(近大华万里城)"},{"poiid":"B2094757D16AAAF9419C","title":"大渡河路桃浦路","lon":"121.39505545","lat":"31.271335385","category":"500","category_name":"未知分类","address":"上海大渡河路桃浦路,中亚公寓"},{"poiid":"B2094655D26FA7F5469B","title":"电信楼","lon":"121.39225","lat":"31.2699","category":"52","category_name":"高等院校","address":""},{"poiid":"B2094757D06FA3FD449D","title":"同济大学(沪西校区)","lon":"121.39089202","lat":"31.269561767","category":"671","category_name":"高校中心点","address":"普陀区真南路500号(近真北路)"},{"poiid":"B2094757D06FA2FB4098","title":"晋元高级中学","lon":"121.3983","lat":"31.26996","category":"55","category_name":"中学","address":"普陀区新村路2169号(近大华万里城)"},{"poiid":"B2094757D06FA2FF429A","title":"星河世纪城","lon":"121.400814","lat":"31.265736","category":"47","category_name":"住宅区","address":"上海桃浦路300弄"},{"poiid":"B2094757D065AAF4439E","title":"小南国海之源日式温泉(万里店)","lon":"121.40134595","lat":"31.2694990504","category":"500","category_name":"未知分类","address":"上海普陀区真金路239号(近新村路)"},{"poiid":"B2094757D06EAAFD449E","title":"李子园地铁站","lon":"121.38968953","lat":"31.269055936","category":"36","category_name":"地铁站","address":"上海轨道交通 十一号线 轨交李子园站 11"},{"poiid":"B2094757D06FA3FA419B","title":"愉景华庭","lon":"121.40168195","lat":"31.271195067","category":"47","category_name":"住宅区","address":"上海新村路2003弄"},{"poiid":"B2094757D064A3F9489A","title":"佰金瀚宫","lon":"121.393459165","lat":"31.2690212227","category":"47","category_name":"住宅区","address":"上海普陀区真北路2980号(真南路口)"},{"poiid":"B2094757D069A0F9409E","title":"真南路真北路口","lon":"121.393213044","lat":"31.2690784635","category":"500","category_name":"未知分类","address":"上海真南路真北路口"},{"poiid":"B2094757D16CA7F5449A","title":"冠松大众","lon":"121.39540495","lat":"31.2721101003","category":"158","category_name":"汽车销售","address":"上海市普陀区真北路3045号"},{"poiid":"B2094757D06BA7FD499C","title":"晋元体育中心","lon":"121.39671","lat":"31.26905","category":"221","category_name":"健身中心","address":"普陀区新村路2199号(富水路新村路)"},{"poiid":"B2094757D064A7F9409E","title":"李园大酒店","lon":"121.3919392","lat":"31.2689156","category":"76","category_name":"上海菜","address":"普陀区真南路451号(同济大学沪西校区对面)"},{"poiid":"B2094757D069A1F54493","title":"一汽大众华星众捷","lon":"121.38895971","lat":"31.2686372739","category":"500","category_name":"未知分类","address":"上海真南路589号"},{"poiid":"B2094654D465A3F4419B","title":"同济大学第一教学楼","lon":"121.38958","lat":"31.2709","category":"52","category_name":"高等院校","address":"上海普陀区真南路500号同济大学沪西校区"},{"poiid":"B2094757D06AABFA409E","title":"冠松别克","lon":"121.39691995","lat":"31.274100138","category":"163","category_name":"4S店","address":"上海市普陀区真北路3045号"},{"poiid":"B2094654D465A3FB4898","title":"同济大学图书馆沪西分馆","lon":"121.3914","lat":"31.2704","category":"181","category_name":"图书馆","address":""},{"poiid":"B2094757D664AAFB419D","title":"老绍兴三黄鸡酒家 富水路店","lon":"121.40014","lat":"31.27246","category":"75","category_name":"浙江菜","address":"普陀区富水路517号(近万泉路)"},{"poiid":"B2094655D36DA7FF409E","title":"真南路真北路","lon":"121.3918","lat":"31.26891","category":"38","category_name":"公交车站","address":""},{"poiid":"B2094655D264A0FA499F","title":"晶品苑","lon":"121.39859","lat":"31.26922","category":"47","category_name":"住宅区","address":"上海新村路2080弄"},{"poiid":"B2094655D26BA5F9459C","title":"永兴长途汽车站","lon":"121.395","lat":"31.26949","category":"35","category_name":"长途汽车站","address":"真南路298"},{"poiid":"B2094654D465A3FF489A","title":"校外农家菜馆","lon":"121.39131","lat":"31.26812","category":"257","category_name":"中餐厅","address":""},{"poiid":"B2094757D065A2FB489A","title":"吉祥馄饨　 如意店","lon":"121.391448","lat":"31.269121","category":"87","category_name":"特色／地方风味餐厅","address":"普陀区真南路484号(近同济大学)"},{"poiid":"B2094757D06AA0FF499A","title":"晋元高级中学体育馆","lon":"121.398112066","lat":"31.2704873104","category":"253","category_name":"校园生活","address":"上海普陀区新村路2169号(近大华万里城)"},{"poiid":"B2094654D464ABF5439C","title":"大华·愉景华庭","lon":"121.40081","lat":"31.27091","category":"47","category_name":"住宅区","address":"上海市普陀区新村路2003号"},{"poiid":"B2094654D465A3F4429D","title":"上海诚信学院","lon":"121.39097","lat":"31.26963","category":"671","category_name":"高校中心点","address":"普陀区同济大学沪西校区行政办公楼"},{"poiid":"B2094757D16FA0FA449D","title":"Buick4S","lon":"121.394299","lat":"31.272542","category":"500","category_name":"未知分类","address":"上海冠松别克真北路店"},{"poiid":"B2094757D568ABFF4799","title":"清涧家园","lon":"121.396","lat":"31.2681","category":"47","category_name":"住宅区","address":"清涧家园位于嘉定清涧路39弄8号"},{"poiid":"B2094655D26EA2FE4999","title":"杨家桥小区(南门)","lon":"121.39433","lat":"31.26526","category":"47","category_name":"住宅区","address":"交通路4352号"},{"poiid":"B2094655D26CA2F4449B","title":"普陀公安分局交通警察支队五中队","lon":"121.39522","lat":"31.26946","category":"250","category_name":"公园户外","address":""},{"poiid":"B2094750D564A4F54892","title":"愉景华庭写字楼","lon":"121.400685","lat":"31.270903","category":"46","category_name":"楼宇","address":"宝山区富水路480号"},{"poiid":"B2094654D465A3FF4998","title":"兴华川菜馆","lon":"121.3913","lat":"31.26763","category":"71","category_name":"四川菜","address":"普陀区交通路真南路口(近同济大学沪西校区)"},{"poiid":"B2094654D465A3F9409A","title":"杨桥第一小区","lon":"121.3922","lat":"31.268253","category":"47","category_name":"住宅区","address":"真北路2977弄,2857弄"},{"poiid":"B2094654DB6AABF84898","title":"如意麻辣烫","lon":"121.39131","lat":"31.26847","category":"68","category_name":"快餐厅","address":"普陀区真南路501号(同济大学对面)"},{"poiid":"B2094757D16DA6F8469C","title":"亚珠海鲜大酒楼","lon":"121.395746","lat":"31.274186","category":"247","category_name":"餐饮美食","address":"上海市普陀区真北路3187号"},{"poiid":"B2094654DB6AA6F94098","title":"上海冠松别克4S店","lon":"121.3943","lat":"31.27255","category":"158","category_name":"汽车销售","address":"普陀区真北路3045号"},{"poiid":"B2094757D568A5F9489E","title":"万里晶品苑","lon":"121.39761","lat":"31.268551","category":"47","category_name":"住宅区","address":"普陀区新村路2080弄"},{"poiid":"B2094655D26CA7FF4599","title":"中铁佳苑小区(东门)","lon":"121.39585","lat":"31.26873","category":"47","category_name":"住宅区","address":"真南路209弄"},{"poiid":"B2094655D26BA7F9429E","title":"古竹里","lon":"121.39628","lat":"31.275","category":"47","category_name":"住宅区","address":"普陀区真北路3233号(近123吉曼酒店)"},{"poiid":"B2094757D06FAAF4449C","title":"清涧六街坊","lon":"121.389451","lat":"31.266068","category":"252","category_name":"楼宇机构","address":"上海市普陀区桃浦路1023弄"},{"poiid":"B2094757D065A7F9439A","title":"沪太路中环路","lon":"121.393478","lat":"31.268099","category":"500","category_name":"未知分类","address":"上海沪太路中环路"},{"poiid":"B2094654D464AAFE419D","title":"可的(真北路)","lon":"121.39348","lat":"31.2681","category":"117","category_name":"便民商店/便利店","address":""},{"poiid":"B2094654D465A3FB4799","title":"同济大学电子与信息工程学院信息与控制工程系","lon":"121.39225","lat":"31.2699","category":"52","category_name":"高等院校","address":"电信楼"},{"poiid":"B2094654D464AAFC4699","title":"普陀星云经济区","lon":"121.39546","lat":"31.27491","category":"45","category_name":"产业园区","address":"真北路3199、3370号"},{"poiid":"B2094757D068ABFB449A","title":"真北路","lon":"121.39625695","lat":"31.2741121385","category":"500","category_name":"未知分类","address":"上海真北路"},{"poiid":"B2094757D568AAFA4899","title":"万里晶品苑(北门)","lon":"121.39798069","lat":"31.26890842","category":"47","category_name":"住宅区","address":"新村路2080弄1-11号"},{"poiid":"B2094757D068A1FB489D","title":"万里112终点站","lon":"121.395833","lat":"31.270866","category":"500","category_name":"未知分类","address":"上海富水路"},{"poiid":"B2094654D465A3FB4893","title":"同济大学竹喧楼","lon":"121.3919","lat":"31.2716","category":"46","category_name":"楼宇","address":""},{"poiid":"B2094750DA6DA4FD409A","title":"李子园大厦","lon":"121.394058","lat":"31.270599","category":"252","category_name":"楼宇机构","address":"交通路4711号"},{"poiid":"B2094753D16DA2FB4099","title":"晋元高级中学游泳馆","lon":"121.39818","lat":"31.26947","category":"231","category_name":"游泳馆","address":"普陀区新村路2169号(近大华万里城)"},{"poiid":"B2094757D16AAAF9419C","title":"大渡河路桃浦路","lon":"121.39505545","lat":"31.271335385","category":"500","category_name":"未知分类","address":"上海大渡河路桃浦路,中亚公寓"},{"poiid":"B2094655D26FA7F5469B","title":"电信楼","lon":"121.39225","lat":"31.2699","category":"52","category_name":"高等院校","address":""}]