[{"poiid":"B2094654DB6AA5F5489D","title":"同济大学(嘉定校区)","lon":"121.21611","lat":"31.28277","category":"671","category_name":"高校中心点","address":"嘉定区曹安公路4800号(近嘉松北路)"},{"poiid":"B2094757D06FA2FF429C","title":"同济大学图书馆(嘉定校区)","lon":"121.211915493","lat":"31.2864324993","category":"253","category_name":"校园生活","address":"上海嘉定区曹安公路4800号同济大学嘉定校区内"},{"poiid":"B2094757D16FA4F4499F","title":"黄渡镇","lon":"121.21343328","lat":"31.269848505","category":"500","category_name":"未知分类","address":"上海市嘉定区黄渡·绿苑路"},{"poiid":"B2094757D068A6FE489B","title":"天上人间〔同济大学嘉定校区店〕","lon":"121.216110229","lat":"31.2827682495","category":"149","category_name":"洗浴推拿场所","address":"上海曹安公路 同济大学嘉定校区附近"},{"poiid":"B2094654D46BA2F84498","title":"协通大酒店","lon":"121.21784","lat":"31.27638","category":"215","category_name":"三星级宾馆","address":"嘉定区曹安路4671号(近嘉松北路)"},{"poiid":"B2094757D068A1FC439B","title":"同济大学嘉定校区A楼","lon":"121.213692","lat":"31.285959","category":"500","category_name":"未知分类","address":"上海曹安公路4800号同济大学嘉定校区内"},{"poiid":"B2094757D66FA3FA479D","title":"莱英国际","lon":"121.2177178373","lat":"31.283711752928","category":"47","category_name":"住宅区","address":"嘉定区真南路4500号(紧邻11号线南翔站)"},{"poiid":"B2094750D26CA3F9409E","title":"黄渡理工大学","lon":"121.212158","lat":"31.283172","category":"52","category_name":"高等院校","address":"嘉定区曹安公路4800号"},{"poiid":"B2094757D168A5F44099","title":"同济大学电信学院","lon":"121.212649863","lat":"31.2874653623","category":"52","category_name":"高等院校","address":"上海曹安公路4800号"},{"poiid":"B2094757D068A1F9479D","title":"嘉宝•同济新天地","lon":"121.22280078","lat":"31.287134581","category":"260","category_name":"其他","address":"上海嘉定区曹安公路4800号同济大学内"},{"poiid":"B2094654D46BA1FB439A","title":"蕾枫大酒店","lon":"121.213608054","lat":"31.272270793","category":"76","category_name":"上海菜","address":"嘉定区黄渡镇绿苑路300号(嘉松北路口)"},{"poiid":"B2094757D66BA7FD479B","title":"小朵颐","lon":"121.217309","lat":"31.279839","category":"71","category_name":"四川菜","address":"嘉定区曹安公路4800号同济大学新天地内(近嘉松北路)"},{"poiid":"B2094757D06FA4F54792","title":"同济大学嘉定校区七号楼","lon":"121.21774578","lat":"31.285800308","category":"500","category_name":"未知分类","address":"上海曹安公路4800号内"},{"poiid":"B2094757D568A0FB419E","title":"莱英郡(莱茵小镇)","lon":"121.21108588","lat":"31.27667833","category":"47","category_name":"住宅区","address":"黄渡镇绿苑路388号"},{"poiid":"B2094757D069A7FC489D","title":"同济大学嘉定校区国际会议中心","lon":"121.21631","lat":"31.282811","category":"249","category_name":"购物服务","address":"上海同济大学嘉定校区内"},{"poiid":"B2094654D46BA2F94499","title":"同济大学新能源汽车工程中心","lon":"121.21411","lat":"31.28955","category":"52","category_name":"高等院校","address":""},{"poiid":"B2094655D26BA7F44792","title":"大众春盛苑","lon":"121.20785","lat":"31.271196","category":"47","category_name":"住宅区","address":"上海市嘉松北路7222弄"},{"poiid":"B2094757D064A4F44092","title":"同济大学汽车学院","lon":"121.210655212","lat":"31.2863349915","category":"253","category_name":"校园生活","address":"上海嘉定区曹安公路4800号"},{"poiid":"B2094757D168A2F94999","title":"同济大学马桶楼","lon":"121.214845857","lat":"31.2853813557","category":"253","category_name":"校园生活","address":"上海曹安公路4800号"},{"poiid":"B2094750D665A3FD4398","title":"肯德基(黄渡店)","lon":"121.218","lat":"31.2768","category":"68","category_name":"快餐厅","address":"嘉定区曹安路4671号(近玉麦路)"},{"poiid":"B2094757D169ABFA409C","title":"同济大学嘉定校区B楼","lon":"121.213862389","lat":"31.2863247444","category":"500","category_name":"未知分类","address":"上海曹安公路4800号同济大学内"},{"poiid":"B2094757D06AA2FB449B","title":"同济大学嘉定校区F楼","lon":"121.21611022","lat":"31.282768249","category":"500","category_name":"未知分类","address":"上海曹安公路4800号同济大学嘉定校区内"},{"poiid":"B2094757D16FA6F8439E","title":"中波海运研发中心","lon":"121.21632498","lat":"31.279989314","category":"500","category_name":"未知分类","address":"上海嘉定区黄渡镇绿苑路1101号"},{"poiid":"B2094655D36CA5FA4993","title":"曹安路嘉松公路","lon":"121.21646","lat":"31.27819","category":"38","category_name":"公交车站","address":""},{"poiid":"B2094655D36CA5FB409B","title":"曹安路嘉松北路","lon":"121.21637","lat":"31.27828","category":"38","category_name":"公交车站","address":""},{"poiid":"B2094655D36CA0FA4793","title":"嘉松北路曹安公路","lon":"121.21919","lat":"31.279","category":"38","category_name":"公交车站","address":""},{"poiid":"B2094654DB69AAF9449E","title":"协通宾馆餐厅","lon":"121.21784","lat":"31.27638","category":"76","category_name":"上海菜","address":"嘉定区曹安路4671号协通宾馆(近嘉定黄渡)"},{"poiid":"B2094757D06AA5F54798","title":"同济大学嘉定校区15号楼","lon":"121.214436","lat":"31.281059","category":"253","category_name":"校园生活","address":"上海曹安公路4800号"},{"poiid":"B2094655D36CA0F44492","title":"黄渡卫生院(招呼站)","lon":"121.2146","lat":"31.2796","category":"162","category_name":"医院","address":""},{"poiid":"B2094655D36CA5FB429B","title":"曹安公路","lon":"121.2194","lat":"31.27938","category":"38","category_name":"公交车站","address":""},{"poiid":"B2094757D16DA3FB4398","title":"同济大学传播与艺术学院","lon":"121.21443939","lat":"31.281059265","category":"253","category_name":"校园生活","address":"上海曹安公路4800号"},{"poiid":"B2094654D46BA0FE499C","title":"协通歌顿咖啡","lon":"121.21776","lat":"31.27671","category":"65","category_name":"咖啡厅","address":"嘉定区曹安路4671号(近嘉松公路)"},{"poiid":"B2094750DA65A6FF4093","title":"上海汽车城","lon":"121.215332","lat":"31.278177","category":"500","category_name":"未知分类","address":null},{"poiid":"B2094757D16CA4F54292","title":"北安跨线绿苑路同济大学站","lon":"121.21221984","lat":"31.281644363","category":"38","category_name":"公交车站","address":"上海曹安路4800号"},{"poiid":"B2094757D065AAF5449A","title":"同济大学嘉定校区十号楼","lon":"121.21411132","lat":"31.281934738","category":"500","category_name":"未知分类","address":"上海曹安公路4800号同济大学嘉定校区内新天地旁"},{"poiid":"B2094654D46BA0FE4992","title":"上海协通宾馆","lon":"121.21703","lat":"31.2756","category":"250","category_name":"公园户外","address":"上海市嘉定区曹安路4671号(协通大酒店后面)"},{"poiid":"B2094655D265A4FA4099","title":"嘉实上城名都","lon":"121.214","lat":"31.2761","category":"47","category_name":"住宅区","address":"嘉定区嘉松北路6130弄"},{"poiid":"B2094757D568A6F9499E","title":"学人书店(同济大学嘉定店)","lon":"121.214476","lat":"31.281237","category":"125","category_name":"书店","address":"曹安路4800号同济大学嘉定校区汽车学院新天地商铺S139号"},{"poiid":"B2094757D16EA4FA4498","title":"同济大学嘉定校区培训楼","lon":"121.21414317","lat":"31.281732331","category":"500","category_name":"未知分类","address":"上海市嘉定区曹安公路4800号同济大学校内"},{"poiid":"B2094654D46BA0FE4993","title":"协通商务楼","lon":"121.2173","lat":"31.27573","category":"46","category_name":"楼宇","address":"曹安公路4671"},{"poiid":"B2094655D264A0F94593","title":"财富公馆","lon":"121.21853","lat":"31.27769","category":"47","category_name":"住宅区","address":"曹安路1558号"},{"poiid":"B2094654D46BA0FE479B","title":"黄渡镇黄沈村","lon":"121.21909","lat":"31.27692","category":"47","category_name":"住宅区","address":""},{"poiid":"B2094751D365A7F5499C","title":"同济大学嘉定校区18号楼","lon":"121.21611","lat":"31.28277","category":"253","category_name":"校园生活","address":null},{"poiid":"B2094654D46BA2F9449B","title":"绿苑五村","lon":"121.20604","lat":"31.276707","category":"47","category_name":"住宅区","address":"上海市嘉定区杭桂路1155弄"},{"poiid":"B2094654DB69A6FE4292","title":"莱茵小镇","lon":"121.21126","lat":"31.28154","category":"47","category_name":"住宅区","address":"嘉定区黄渡镇绿苑路曹安路口"},{"poiid":"B2094757D06AA1F84998","title":"同济大学嘉定校区17号楼","lon":"121.2123299","lat":"31.2822186","category":"500","category_name":"未知分类","address":"上海曹安公路4800号同济大学嘉定校区内"},{"poiid":"B2094654D46BA1FB4292","title":"绿苑三邨","lon":"121.2198855609","lat":"31.276636342378","category":"47","category_name":"住宅区","address":"绿苑路218弄"},{"poiid":"B2094757D164AAFA479A","title":"同济大学嘉定校区B楼113","lon":"121.216308594","lat":"31.2828102112","category":"500","category_name":"未知分类","address":"上海同济大学嘉定校区内"},{"poiid":"B2094757D06FA5FF489C","title":"同济大学嘉定校区20号楼","lon":"121.22017935","lat":"31.290498444","category":"253","category_name":"校园生活","address":"上海市嘉定区曹安公路4800号同济大学嘉定校区内"},{"poiid":"B2094654D46BA0FE499D","title":"上海协通(集团)有限公司","lon":"121.21798","lat":"31.27687","category":"263","category_name":"公司","address":"曹安公路4671"},{"poiid":"B2094654DB6AA5F5489D","title":"同济大学(嘉定校区)","lon":"121.21611","lat":"31.28277","category":"671","category_name":"高校中心点","address":"嘉定区曹安公路4800号(近嘉松北路)"},{"poiid":"B2094757D06FA2FF429C","title":"同济大学图书馆(嘉定校区)","lon":"121.211915493","lat":"31.2864324993","category":"253","category_name":"校园生活","address":"上海嘉定区曹安公路4800号同济大学嘉定校区内"},{"poiid":"B2094757D16FA4F4499F","title":"黄渡镇","lon":"121.21343328","lat":"31.269848505","category":"500","category_name":"未知分类","address":"上海市嘉定区黄渡·绿苑路"},{"poiid":"B2094757D068A6FE489B","title":"天上人间〔同济大学嘉定校区店〕","lon":"121.216110229","lat":"31.2827682495","category":"149","category_name":"洗浴推拿场所","address":"上海曹安公路 同济大学嘉定校区附近"},{"poiid":"B2094654D46BA2F84498","title":"协通大酒店","lon":"121.21784","lat":"31.27638","category":"215","category_name":"三星级宾馆","address":"嘉定区曹安路4671号(近嘉松北路)"},{"poiid":"B2094757D068A1FC439B","title":"同济大学嘉定校区A楼","lon":"121.213692","lat":"31.285959","category":"500","category_name":"未知分类","address":"上海曹安公路4800号同济大学嘉定校区内"},{"poiid":"B2094757D66FA3FA479D","title":"莱英国际","lon":"121.2177178373","lat":"31.283711752928","category":"47","category_name":"住宅区","address":"嘉定区真南路4500号(紧邻11号线南翔站)"},{"poiid":"B2094750D26CA3F9409E","title":"黄渡理工大学","lon":"121.212158","lat":"31.283172","category":"52","category_name":"高等院校","address":"嘉定区曹安公路4800号"},{"poiid":"B2094757D168A5F44099","title":"同济大学电信学院","lon":"121.212649863","lat":"31.2874653623","category":"52","category_name":"高等院校","address":"上海曹安公路4800号"},{"poiid":"B2094757D068A1F9479D","title":"嘉宝•同济新天地","lon":"121.22280078","lat":"31.287134581","category":"260","category_name":"其他","address":"上海嘉定区曹安公路4800号同济大学内"},{"poiid":"B2094654D46BA1FB439A","title":"蕾枫大酒店","lon":"121.213608054","lat":"31.272270793","category":"76","category_name":"上海菜","address":"嘉定区黄渡镇绿苑路300号(嘉松北路口)"},{"poiid":"B2094757D66BA7FD479B","title":"小朵颐","lon":"121.217309","lat":"31.279839","category":"71","category_name":"四川菜","address":"嘉定区曹安公路4800号同济大学新天地内(近嘉松北路)"},{"poiid":"B2094757D06FA4F54792","title":"同济大学嘉定校区七号楼","lon":"121.21774578","lat":"31.285800308","category":"500","category_name":"未知分类","address":"上海曹安公路4800号内"},{"poiid":"B2094757D568A0FB419E","title":"莱英郡(莱茵小镇)","lon":"121.21108588","lat":"31.27667833","category":"47","category_name":"住宅区","address":"黄渡镇绿苑路388号"},{"poiid":"B2094757D069A7FC489D","title":"同济大学嘉定校区国际会议中心","lon":"121.21631","lat":"31.282811","category":"249","category_name":"购物服务","address":"上海同济大学嘉定校区内"},{"poiid":"B2094654D46BA2F94499","title":"同济大学新能源汽车工程中心","lon":"121.21411","lat":"31.28955","category":"52","category_name":"高等院校","address":""},{"poiid":"B2094655D26BA7F44792","title":"大众春盛苑","lon":"121.20785","lat":"31.271196","category":"47","category_name":"住宅区","address":"上海市嘉松北路7222弄"},{"poiid":"B2094757D064A4F44092","title":"同济大学汽车学院","lon":"121.210655212","lat":"31.2863349915","category":"253","category_name":"校园生活","address":"上海嘉定区曹安公路4800号"},{"poiid":"B2094757D168A2F94999","title":"同济大学马桶楼","lon":"121.214845857","lat":"31.2853813557","category":"253","category_name":"校园生活","address":"上海曹安公路4800号"},{"poiid":"B2094750D665A3FD4398","title":"肯德基(黄渡店)","lon":"121.218","lat":"31.2768","category":"68","category_name":"快餐厅","address":"嘉定区曹安路4671号(近玉麦路)"},{"poiid":"B2094757D169ABFA409C","title":"同济大学嘉定校区B楼","lon":"121.213862389","lat":"31.2863247444","category":"500","category_name":"未知分类","address":"上海曹安公路4800号同济大学内"},{"poiid":"B2094757D06AA2FB449B","title":"同济大学嘉定校区F楼","lon":"121.21611022","lat":"31.282768249","category":"500","category_name":"未知分类","address":"上海曹安公路4800号同济大学嘉定校区内"},{"poiid":"B2094757D16FA6F8439E","title":"中波海运研发中心","lon":"121.21632498","lat":"31.279989314","category":"500","category_name":"未知分类","address":"上海嘉定区黄渡镇绿苑路1101号"},{"poiid":"B2094655D36CA5FA4993","title":"曹安路嘉松公路","lon":"121.21646","lat":"31.27819","category":"38","category_name":"公交车站","address":""},{"poiid":"B2094655D36CA5FB409B","title":"曹安路嘉松北路","lon":"121.21637","lat":"31.27828","category":"38","category_name":"公交车站","address":""},{"poiid":"B2094655D36CA0FA4793","title":"嘉松北路曹安公路","lon":"121.21919","lat":"31.279","category":"38","category_name":"公交车站","address":""},{"poiid":"B2094654DB69AAF9449E","title":"协通宾馆餐厅","lon":"121.21784","lat":"31.27638","category":"76","category_name":"上海菜","address":"嘉定区曹安路4671号协通宾馆(近嘉定黄渡)"},{"poiid":"B2094757D06AA5F54798","title":"同济大学嘉定校区15号楼","lon":"121.214436","lat":"31.281059","category":"253","category_name":"校园生活","address":"上海曹安公路4800号"},{"poiid":"B2094655D36CA0F44492","title":"黄渡卫生院(招呼站)","lon":"121.2146","lat":"31.2796","category":"162","category_name":"医院","address":""},{"poiid":"B2094655D36CA5FB429B","title":"曹安公路","lon":"121.2194","lat":"31.27938","category":"38","category_name":"公交车站","address":""},{"poiid":"B2094757D16DA3FB4398","title":"同济大学传播与艺术学院","lon":"121.21443939","lat":"31.281059265","category":"253","category_name":"校园生活","address":"上海曹安公路4800号"},{"poiid":"B2094654D46BA0FE499C","title":"协通歌顿咖啡","lon":"121.21776","lat":"31.27671","category":"65","category_name":"咖啡厅","address":"嘉定区曹安路4671号(近嘉松公路)"},{"poiid":"B2094750DA65A6FF4093","title":"上海汽车城","lon":"121.215332","lat":"31.278177","category":"500","category_name":"未知分类","address":null},{"poiid":"B2094757D16CA4F54292","title":"北安跨线绿苑路同济大学站","lon":"121.21221984","lat":"31.281644363","category":"38","category_name":"公交车站","address":"上海曹安路4800号"},{"poiid":"B2094757D065AAF5449A","title":"同济大学嘉定校区十号楼","lon":"121.21411132","lat":"31.281934738","category":"500","category_name":"未知分类","address":"上海曹安公路4800号同济大学嘉定校区内新天地旁"},{"poiid":"B2094654D46BA0FE4992","title":"上海协通宾馆","lon":"121.21703","lat":"31.2756","category":"250","category_name":"公园户外","address":"上海市嘉定区曹安路4671号(协通大酒店后面)"},{"poiid":"B2094655D265A4FA4099","title":"嘉实上城名都","lon":"121.214","lat":"31.2761","category":"47","category_name":"住宅区","address":"嘉定区嘉松北路6130弄"},{"poiid":"B2094757D568A6F9499E","title":"学人书店(同济大学嘉定店)","lon":"121.214476","lat":"31.281237","category":"125","category_name":"书店","address":"曹安路4800号同济大学嘉定校区汽车学院新天地商铺S139号"},{"poiid":"B2094757D16EA4FA4498","title":"同济大学嘉定校区培训楼","lon":"121.21414317","lat":"31.281732331","category":"500","category_name":"未知分类","address":"上海市嘉定区曹安公路4800号同济大学校内"},{"poiid":"B2094654D46BA0FE4993","title":"协通商务楼","lon":"121.2173","lat":"31.27573","category":"46","category_name":"楼宇","address":"曹安公路4671"},{"poiid":"B2094655D264A0F94593","title":"财富公馆","lon":"121.21853","lat":"31.27769","category":"47","category_name":"住宅区","address":"曹安路1558号"},{"poiid":"B2094654D46BA0FE479B","title":"黄渡镇黄沈村","lon":"121.21909","lat":"31.27692","category":"47","category_name":"住宅区","address":""},{"poiid":"B2094751D365A7F5499C","title":"同济大学嘉定校区18号楼","lon":"121.21611","lat":"31.28277","category":"253","category_name":"校园生活","address":null},{"poiid":"B2094654D46BA2F9449B","title":"绿苑五村","lon":"121.20604","lat":"31.276707","category":"47","category_name":"住宅区","address":"上海市嘉定区杭桂路1155弄"},{"poiid":"B2094654DB69A6FE4292","title":"莱茵小镇","lon":"121.21126","lat":"31.28154","category":"47","category_name":"住宅区","address":"嘉定区黄渡镇绿苑路曹安路口"},{"poiid":"B2094757D06AA1F84998","title":"同济大学嘉定校区17号楼","lon":"121.2123299","lat":"31.2822186","category":"500","category_name":"未知分类","address":"上海曹安公路4800号同济大学嘉定校区内"},{"poiid":"B2094654D46BA1FB4292","title":"绿苑三邨","lon":"121.2198855609","lat":"31.276636342378","category":"47","category_name":"住宅区","address":"绿苑路218弄"},{"poiid":"B2094757D164AAFA479A","title":"同济大学嘉定校区B楼113","lon":"121.216308594","lat":"31.2828102112","category":"500","category_name":"未知分类","address":"上海同济大学嘉定校区内"},{"poiid":"B2094757D06FA5FF489C","title":"同济大学嘉定校区20号楼","lon":"121.22017935","lat":"31.290498444","category":"253","category_name":"校园生活","address":"上海市嘉定区曹安公路4800号同济大学嘉定校区内"},{"poiid":"B2094654D46BA0FE499D","title":"上海协通(集团)有限公司","lon":"121.21798","lat":"31.27687","category":"263","category_name":"公司","address":"曹安公路4671"},{"poiid":"B2094654DB6AA5F5489D","title":"同济大学(嘉定校区)","lon":"121.21611","lat":"31.28277","category":"671","category_name":"高校中心点","address":"嘉定区曹安公路4800号(近嘉松北路)"},{"poiid":"B2094757D06FA2FF429C","title":"同济大学图书馆(嘉定校区)","lon":"121.211915493","lat":"31.2864324993","category":"253","category_name":"校园生活","address":"上海嘉定区曹安公路4800号同济大学嘉定校区内"},{"poiid":"B2094757D16FA4F4499F","title":"黄渡镇","lon":"121.21343328","lat":"31.269848505","category":"500","category_name":"未知分类","address":"上海市嘉定区黄渡·绿苑路"},{"poiid":"B2094757D068A6FE489B","title":"天上人间〔同济大学嘉定校区店〕","lon":"121.216110229","lat":"31.2827682495","category":"149","category_name":"洗浴推拿场所","address":"上海曹安公路 同济大学嘉定校区附近"},{"poiid":"B2094654D46BA2F84498","title":"协通大酒店","lon":"121.21784","lat":"31.27638","category":"215","category_name":"三星级宾馆","address":"嘉定区曹安路4671号(近嘉松北路)"},{"poiid":"B2094757D068A1FC439B","title":"同济大学嘉定校区A楼","lon":"121.213692","lat":"31.285959","category":"500","category_name":"未知分类","address":"上海曹安公路4800号同济大学嘉定校区内"},{"poiid":"B2094757D66FA3FA479D","title":"莱英国际","lon":"121.2177178373","lat":"31.283711752928","category":"47","category_name":"住宅区","address":"嘉定区真南路4500号(紧邻11号线南翔站)"},{"poiid":"B2094750D26CA3F9409E","title":"黄渡理工大学","lon":"121.212158","lat":"31.283172","category":"52","category_name":"高等院校","address":"嘉定区曹安公路4800号"},{"poiid":"B2094757D168A5F44099","title":"同济大学电信学院","lon":"121.212649863","lat":"31.2874653623","category":"52","category_name":"高等院校","address":"上海曹安公路4800号"},{"poiid":"B2094757D068A1F9479D","title":"嘉宝•同济新天地","lon":"121.22280078","lat":"31.287134581","category":"260","category_name":"其他","address":"上海嘉定区曹安公路4800号同济大学内"},{"poiid":"B2094654D46BA1FB439A","title":"蕾枫大酒店","lon":"121.213608054","lat":"31.272270793","category":"76","category_name":"上海菜","address":"嘉定区黄渡镇绿苑路300号(嘉松北路口)"},{"poiid":"B2094757D66BA7FD479B","title":"小朵颐","lon":"121.217309","lat":"31.279839","category":"71","category_name":"四川菜","address":"嘉定区曹安公路4800号同济大学新天地内(近嘉松北路)"},{"poiid":"B2094757D06FA4F54792","title":"同济大学嘉定校区七号楼","lon":"121.21774578","lat":"31.285800308","category":"500","category_name":"未知分类","address":"上海曹安公路4800号内"},{"poiid":"B2094757D568A0FB419E","title":"莱英郡(莱茵小镇)","lon":"121.21108588","lat":"31.27667833","category":"47","category_name":"住宅区","address":"黄渡镇绿苑路388号"},{"poiid":"B2094757D069A7FC489D","title":"同济大学嘉定校区国际会议中心","lon":"121.21631","lat":"31.282811","category":"249","category_name":"购物服务","address":"上海同济大学嘉定校区内"},{"poiid":"B2094654D46BA2F94499","title":"同济大学新能源汽车工程中心","lon":"121.21411","lat":"31.28955","category":"52","category_name":"高等院校","address":""},{"poiid":"B2094655D26BA7F44792","title":"大众春盛苑","lon":"121.20785","lat":"31.271196","category":"47","category_name":"住宅区","address":"上海市嘉松北路7222弄"},{"poiid":"B2094757D064A4F44092","title":"同济大学汽车学院","lon":"121.210655212","lat":"31.2863349915","category":"253","category_name":"校园生活","address":"上海嘉定区曹安公路4800号"},{"poiid":"B2094757D168A2F94999","title":"同济大学马桶楼","lon":"121.214845857","lat":"31.2853813557","category":"253","category_name":"校园生活","address":"上海曹安公路4800号"},{"poiid":"B2094750D665A3FD4398","title":"肯德基(黄渡店)","lon":"121.218","lat":"31.2768","category":"68","category_name":"快餐厅","address":"嘉定区曹安路4671号(近玉麦路)"},{"poiid":"B2094757D169ABFA409C","title":"同济大学嘉定校区B楼","lon":"121.213862389","lat":"31.2863247444","category":"500","category_name":"未知分类","address":"上海曹安公路4800号同济大学内"},{"poiid":"B2094757D06AA2FB449B","title":"同济大学嘉定校区F楼","lon":"121.21611022","lat":"31.282768249","category":"500","category_name":"未知分类","address":"上海曹安公路4800号同济大学嘉定校区内"},{"poiid":"B2094757D16FA6F8439E","title":"中波海运研发中心","lon":"121.21632498","lat":"31.279989314","category":"500","category_name":"未知分类","address":"上海嘉定区黄渡镇绿苑路1101号"},{"poiid":"B2094655D36CA5FA4993","title":"曹安路嘉松公路","lon":"121.21646","lat":"31.27819","category":"38","category_name":"公交车站","address":""},{"poiid":"B2094655D36CA5FB409B","title":"曹安路嘉松北路","lon":"121.21637","lat":"31.27828","category":"38","category_name":"公交车站","address":""},{"poiid":"B2094655D36CA0FA4793","title":"嘉松北路曹安公路","lon":"121.21919","lat":"31.279","category":"38","category_name":"公交车站","address":""},{"poiid":"B2094654DB69AAF9449E","title":"协通宾馆餐厅","lon":"121.21784","lat":"31.27638","category":"76","category_name":"上海菜","address":"嘉定区曹安路4671号协通宾馆(近嘉定黄渡)"},{"poiid":"B2094757D06AA5F54798","title":"同济大学嘉定校区15号楼","lon":"121.214436","lat":"31.281059","category":"253","category_name":"校园生活","address":"上海曹安公路4800号"},{"poiid":"B2094655D36CA0F44492","title":"黄渡卫生院(招呼站)","lon":"121.2146","lat":"31.2796","category":"162","category_name":"医院","address":""},{"poiid":"B2094655D36CA5FB429B","title":"曹安公路","lon":"121.2194","lat":"31.27938","category":"38","category_name":"公交车站","address":""},{"poiid":"B2094757D16DA3FB4398","title":"同济大学传播与艺术学院","lon":"121.21443939","lat":"31.281059265","category":"253","category_name":"校园生活","address":"上海曹安公路4800号"},{"poiid":"B2094654D46BA0FE499C","title":"协通歌顿咖啡","lon":"121.21776","lat":"31.27671","category":"65","category_name":"咖啡厅","address":"嘉定区曹安路4671号(近嘉松公路)"},{"poiid":"B2094750DA65A6FF4093","title":"上海汽车城","lon":"121.215332","lat":"31.278177","category":"500","category_name":"未知分类","address":null},{"poiid":"B2094757D16CA4F54292","title":"北安跨线绿苑路同济大学站","lon":"121.21221984","lat":"31.281644363","category":"38","category_name":"公交车站","address":"上海曹安路4800号"},{"poiid":"B2094757D065AAF5449A","title":"同济大学嘉定校区十号楼","lon":"121.21411132","lat":"31.281934738","category":"500","category_name":"未知分类","address":"上海曹安公路4800号同济大学嘉定校区内新天地旁"},{"poiid":"B2094654D46BA0FE4992","title":"上海协通宾馆","lon":"121.21703","lat":"31.2756","category":"250","category_name":"公园户外","address":"上海市嘉定区曹安路4671号(协通大酒店后面)"},{"poiid":"B2094655D265A4FA4099","title":"嘉实上城名都","lon":"121.214","lat":"31.2761","category":"47","category_name":"住宅区","address":"嘉定区嘉松北路6130弄"},{"poiid":"B2094757D568A6F9499E","title":"学人书店(同济大学嘉定店)","lon":"121.214476","lat":"31.281237","category":"125","category_name":"书店","address":"曹安路4800号同济大学嘉定校区汽车学院新天地商铺S139号"},{"poiid":"B2094757D16EA4FA4498","title":"同济大学嘉定校区培训楼","lon":"121.21414317","lat":"31.281732331","category":"500","category_name":"未知分类","address":"上海市嘉定区曹安公路4800号同济大学校内"},{"poiid":"B2094654D46BA0FE4993","title":"协通商务楼","lon":"121.2173","lat":"31.27573","category":"46","category_name":"楼宇","address":"曹安公路4671"},{"poiid":"B2094655D264A0F94593","title":"财富公馆","lon":"121.21853","lat":"31.27769","category":"47","category_name":"住宅区","address":"曹安路1558号"},{"poiid":"B2094654D46BA0FE479B","title":"黄渡镇黄沈村","lon":"121.21909","lat":"31.27692","category":"47","category_name":"住宅区","address":""},{"poiid":"B2094751D365A7F5499C","title":"同济大学嘉定校区18号楼","lon":"121.21611","lat":"31.28277","category":"253","category_name":"校园生活","address":null},{"poiid":"B2094654D46BA2F9449B","title":"绿苑五村","lon":"121.20604","lat":"31.276707","category":"47","category_name":"住宅区","address":"上海市嘉定区杭桂路1155弄"},{"poiid":"B2094654DB69A6FE4292","title":"莱茵小镇","lon":"121.21126","lat":"31.28154","category":"47","category_name":"住宅区","address":"嘉定区黄渡镇绿苑路曹安路口"},{"poiid":"B2094757D06AA1F84998","title":"同济大学嘉定校区17号楼","lon":"121.2123299","lat":"31.2822186","category":"500","category_name":"未知分类","address":"上海曹安公路4800号同济大学嘉定校区内"},{"poiid":"B2094654D46BA1FB4292","title":"绿苑三邨","lon":"121.2198855609","lat":"31.276636342378","category":"47","category_name":"住宅区","address":"绿苑路218弄"},{"poiid":"B2094757D164AAFA479A","title":"同济大学嘉定校区B楼113","lon":"121.216308594","lat":"31.2828102112","category":"500","category_name":"未知分类","address":"上海同济大学嘉定校区内"},{"poiid":"B2094757D06FA5FF489C","title":"同济大学嘉定校区20号楼","lon":"121.22017935","lat":"31.290498444","category":"253","category_name":"校园生活","address":"上海市嘉定区曹安公路4800号同济大学嘉定校区内"},{"poiid":"B2094654D46BA0FE499D","title":"上海协通(集团)有限公司","lon":"121.21798","lat":"31.27687","category":"263","category_name":"公司","address":"曹安公路4671"},{"poiid":"B2094654DB6AA5F5489D","title":"同济大学(嘉定校区)","lon":"121.21611","lat":"31.28277","category":"671","category_name":"高校中心点","address":"嘉定区曹安公路4800号(近嘉松北路)"},{"poiid":"B2094757D06FA2FF429C","title":"同济大学图书馆(嘉定校区)","lon":"121.211915493","lat":"31.2864324993","category":"253","category_name":"校园生活","address":"上海嘉定区曹安公路4800号同济大学嘉定校区内"},{"poiid":"B2094757D16FA4F4499F","title":"黄渡镇","lon":"121.21343328","lat":"31.269848505","category":"500","category_name":"未知分类","address":"上海市嘉定区黄渡·绿苑路"},{"poiid":"B2094757D068A6FE489B","title":"天上人间〔同济大学嘉定校区店〕","lon":"121.216110229","lat":"31.2827682495","category":"149","category_name":"洗浴推拿场所","address":"上海曹安公路 同济大学嘉定校区附近"},{"poiid":"B2094654D46BA2F84498","title":"协通大酒店","lon":"121.21784","lat":"31.27638","category":"215","category_name":"三星级宾馆","address":"嘉定区曹安路4671号(近嘉松北路)"},{"poiid":"B2094757D068A1FC439B","title":"同济大学嘉定校区A楼","lon":"121.213692","lat":"31.285959","category":"500","category_name":"未知分类","address":"上海曹安公路4800号同济大学嘉定校区内"},{"poiid":"B2094757D66FA3FA479D","title":"莱英国际","lon":"121.2177178373","lat":"31.283711752928","category":"47","category_name":"住宅区","address":"嘉定区真南路4500号(紧邻11号线南翔站)"},{"poiid":"B2094750D26CA3F9409E","title":"黄渡理工大学","lon":"121.212158","lat":"31.283172","category":"52","category_name":"高等院校","address":"嘉定区曹安公路4800号"},{"poiid":"B2094757D168A5F44099","title":"同济大学电信学院","lon":"121.212649863","lat":"31.2874653623","category":"52","category_name":"高等院校","address":"上海曹安公路4800号"},{"poiid":"B2094757D068A1F9479D","title":"嘉宝•同济新天地","lon":"121.22280078","lat":"31.287134581","category":"260","category_name":"其他","address":"上海嘉定区曹安公路4800号同济大学内"},{"poiid":"B2094654D46BA1FB439A","title":"蕾枫大酒店","lon":"121.213608054","lat":"31.272270793","category":"76","category_name":"上海菜","address":"嘉定区黄渡镇绿苑路300号(嘉松北路口)"},{"poiid":"B2094757D66BA7FD479B","title":"小朵颐","lon":"121.217309","lat":"31.279839","category":"71","category_name":"四川菜","address":"嘉定区曹安公路4800号同济大学新天地内(近嘉松北路)"},{"poiid":"B2094757D06FA4F54792","title":"同济大学嘉定校区七号楼","lon":"121.21774578","lat":"31.285800308","category":"500","category_name":"未知分类","address":"上海曹安公路4800号内"},{"poiid":"B2094757D568A0FB419E","title":"莱英郡(莱茵小镇)","lon":"121.21108588","lat":"31.27667833","category":"47","category_name":"住宅区","address":"黄渡镇绿苑路388号"},{"poiid":"B2094757D069A7FC489D","title":"同济大学嘉定校区国际会议中心","lon":"121.21631","lat":"31.282811","category":"249","category_name":"购物服务","address":"上海同济大学嘉定校区内"},{"poiid":"B2094654D46BA2F94499","title":"同济大学新能源汽车工程中心","lon":"121.21411","lat":"31.28955","category":"52","category_name":"高等院校","address":""},{"poiid":"B2094655D26BA7F44792","title":"大众春盛苑","lon":"121.20785","lat":"31.271196","category":"47","category_name":"住宅区","address":"上海市嘉松北路7222弄"},{"poiid":"B2094757D064A4F44092","title":"同济大学汽车学院","lon":"121.210655212","lat":"31.2863349915","category":"253","category_name":"校园生活","address":"上海嘉定区曹安公路4800号"},{"poiid":"B2094757D168A2F94999","title":"同济大学马桶楼","lon":"121.214845857","lat":"31.2853813557","category":"253","category_name":"校园生活","address":"上海曹安公路4800号"},{"poiid":"B2094750D665A3FD4398","title":"肯德基(黄渡店)","lon":"121.218","lat":"31.2768","category":"68","category_name":"快餐厅","address":"嘉定区曹安路4671号(近玉麦路)"},{"poiid":"B2094757D169ABFA409C","title":"同济大学嘉定校区B楼","lon":"121.213862389","lat":"31.2863247444","category":"500","category_name":"未知分类","address":"上海曹安公路4800号同济大学内"},{"poiid":"B2094757D06AA2FB449B","title":"同济大学嘉定校区F楼","lon":"121.21611022","lat":"31.282768249","category":"500","category_name":"未知分类","address":"上海曹安公路4800号同济大学嘉定校区内"},{"poiid":"B2094757D16FA6F8439E","title":"中波海运研发中心","lon":"121.21632498","lat":"31.279989314","category":"500","category_name":"未知分类","address":"上海嘉定区黄渡镇绿苑路1101号"},{"poiid":"B2094655D36CA5FA4993","title":"曹安路嘉松公路","lon":"121.21646","lat":"31.27819","category":"38","category_name":"公交车站","address":""},{"poiid":"B2094655D36CA5FB409B","title":"曹安路嘉松北路","lon":"121.21637","lat":"31.27828","category":"38","category_name":"公交车站","address":""},{"poiid":"B2094655D36CA0FA4793","title":"嘉松北路曹安公路","lon":"121.21919","lat":"31.279","category":"38","category_name":"公交车站","address":""},{"poiid":"B2094654DB69AAF9449E","title":"协通宾馆餐厅","lon":"121.21784","lat":"31.27638","category":"76","category_name":"上海菜","address":"嘉定区曹安路4671号协通宾馆(近嘉定黄渡)"},{"poiid":"B2094757D06AA5F54798","title":"同济大学嘉定校区15号楼","lon":"121.214436","lat":"31.281059","category":"253","category_name":"校园生活","address":"上海曹安公路4800号"},{"poiid":"B2094655D36CA0F44492","title":"黄渡卫生院(招呼站)","lon":"121.2146","lat":"31.2796","category":"162","category_name":"医院","address":""},{"poiid":"B2094655D36CA5FB429B","title":"曹安公路","lon":"121.2194","lat":"31.27938","category":"38","category_name":"公交车站","address":""},{"poiid":"B2094757D16DA3FB4398","title":"同济大学传播与艺术学院","lon":"121.21443939","lat":"31.281059265","category":"253","category_name":"校园生活","address":"上海曹安公路4800号"},{"poiid":"B2094654D46BA0FE499C","title":"协通歌顿咖啡","lon":"121.21776","lat":"31.27671","category":"65","category_name":"咖啡厅","address":"嘉定区曹安路4671号(近嘉松公路)"},{"poiid":"B2094750DA65A6FF4093","title":"上海汽车城","lon":"121.215332","lat":"31.278177","category":"500","category_name":"未知分类","address":null},{"poiid":"B2094757D16CA4F54292","title":"北安跨线绿苑路同济大学站","lon":"121.21221984","lat":"31.281644363","category":"38","category_name":"公交车站","address":"上海曹安路4800号"},{"poiid":"B2094757D065AAF5449A","title":"同济大学嘉定校区十号楼","lon":"121.21411132","lat":"31.281934738","category":"500","category_name":"未知分类","address":"上海曹安公路4800号同济大学嘉定校区内新天地旁"},{"poiid":"B2094654D46BA0FE4992","title":"上海协通宾馆","lon":"121.21703","lat":"31.2756","category":"250","category_name":"公园户外","address":"上海市嘉定区曹安路4671号(协通大酒店后面)"},{"poiid":"B2094655D265A4FA4099","title":"嘉实上城名都","lon":"121.214","lat":"31.2761","category":"47","category_name":"住宅区","address":"嘉定区嘉松北路6130弄"},{"poiid":"B2094757D568A6F9499E","title":"学人书店(同济大学嘉定店)","lon":"121.214476","lat":"31.281237","category":"125","category_name":"书店","address":"曹安路4800号同济大学嘉定校区汽车学院新天地商铺S139号"},{"poiid":"B2094757D16EA4FA4498","title":"同济大学嘉定校区培训楼","lon":"121.21414317","lat":"31.281732331","category":"500","category_name":"未知分类","address":"上海市嘉定区曹安公路4800号同济大学校内"},{"poiid":"B2094654D46BA0FE4993","title":"协通商务楼","lon":"121.2173","lat":"31.27573","category":"46","category_name":"楼宇","address":"曹安公路4671"},{"poiid":"B2094655D264A0F94593","title":"财富公馆","lon":"121.21853","lat":"31.27769","category":"47","category_name":"住宅区","address":"曹安路1558号"},{"poiid":"B2094654D46BA0FE479B","title":"黄渡镇黄沈村","lon":"121.21909","lat":"31.27692","category":"47","category_name":"住宅区","address":""},{"poiid":"B2094751D365A7F5499C","title":"同济大学嘉定校区18号楼","lon":"121.21611","lat":"31.28277","category":"253","category_name":"校园生活","address":null},{"poiid":"B2094654D46BA2F9449B","title":"绿苑五村","lon":"121.20604","lat":"31.276707","category":"47","category_name":"住宅区","address":"上海市嘉定区杭桂路1155弄"},{"poiid":"B2094654DB69A6FE4292","title":"莱茵小镇","lon":"121.21126","lat":"31.28154","category":"47","category_name":"住宅区","address":"嘉定区黄渡镇绿苑路曹安路口"},{"poiid":"B2094757D06AA1F84998","title":"同济大学嘉定校区17号楼","lon":"121.2123299","lat":"31.2822186","category":"500","category_name":"未知分类","address":"上海曹安公路4800号同济大学嘉定校区内"},{"poiid":"B2094654D46BA1FB4292","title":"绿苑三邨","lon":"121.2198855609","lat":"31.276636342378","category":"47","category_name":"住宅区","address":"绿苑路218弄"},{"poiid":"B2094757D164AAFA479A","title":"同济大学嘉定校区B楼113","lon":"121.216308594","lat":"31.2828102112","category":"500","category_name":"未知分类","address":"上海同济大学嘉定校区内"},{"poiid":"B2094757D06FA5FF489C","title":"同济大学嘉定校区20号楼","lon":"121.22017935","lat":"31.290498444","category":"253","category_name":"校园生活","address":"上海市嘉定区曹安公路4800号同济大学嘉定校区内"},{"poiid":"B2094654D46BA0FE499D","title":"上海协通(集团)有限公司","lon":"121.21798","lat":"31.27687","category":"263","category_name":"公司","address":"曹安公路4671"}]