[{"poiid":"B2094757D06FA3FF4693","title":"上海电视大学(国顺校区)","lon":"121.51313","lat":"31.29115","category":"671","category_name":"高校中心点","address":"杨浦区国顺路288号(近四平路)"},{"poiid":"B2094757D06EAAFC479B","title":"国权路地铁站","lon":"121.510234","lat":"31.289649","category":"36","category_name":"地铁站","address":"上海轨道交通 十号线 轨交国权路站 10"},{"poiid":"B2094757D06FA0FA409F","title":"同济联合广场","lon":"121.514","lat":"31.2875","category":"119","category_name":"商场","address":"丰台学城海鹰路1号,3号"},{"poiid":"B2094757D06FA0F8469D","title":"复旦大学继续教育学院","lon":"121.51036071","lat":"31.290260314","category":"671","category_name":"高校中心点","address":"上海四平路1931号"},{"poiid":"B2094750D26AABF9409D","title":"糊涂家宠物咖啡店","lon":"121.511199","lat":"31.289052","category":"248","category_name":"生活娱乐","address":"国权路619号"},{"poiid":"B2094757D06FA6FB449A","title":"四平路国权路","lon":"121.510942","lat":"31.290713","category":"260","category_name":"其他","address":"上海四平路国权路"},{"poiid":"B2094655D26FA0FE4199","title":"复旦科技园大厦","lon":"121.50793","lat":"31.2879","category":"46","category_name":"楼宇","address":"上海市杨浦区国泰路11号"},{"poiid":"B2094757D06FABF4429B","title":"上海新东方学校(四平路总部)","lon":"121.50995","lat":"31.2891","category":"253","category_name":"校园生活","address":"杨浦区四平路1805号(近国权路)"},{"poiid":"B2094757D06BA7F4479A","title":"CCDI悉地国际 总部","lon":"121.50929686","lat":"31.2862824724","category":"46","category_name":"楼宇","address":"上海市四平路1758号"},{"poiid":"B2094757D06FABFD429B","title":"林绿家园","lon":"121.51253","lat":"31.290365","category":"47","category_name":"住宅区","address":"上海市杨浦区四平路1950弄"},{"poiid":"B2094757D06AA7FF439F","title":"八号线四平路站","lon":"121.511265103","lat":"31.2891078129","category":"500","category_name":"未知分类","address":"上海四平路大连路"},{"poiid":"B2094757D06EAAF8469B","title":"蜂蜜四叶草 Honey Clover","lon":"121.51274","lat":"31.28864","category":"260","category_name":"其他","address":"杨浦区国权路201号(近四平路)"},{"poiid":"B2094654DB6BA2FC419E","title":"锦江之星(上海国权路店)","lon":"121.51139","lat":"31.28955","category":"216","category_name":"经济型连锁酒店","address":"上海杨浦区国权路236号(近四平路)  "},{"poiid":"B2094757D16CA1F5479D","title":"维罗纳意式私房菜","lon":"121.509830869","lat":"31.2891654708","category":"94","category_name":"西餐厅","address":"杨浦区国权路309号(近四平路)"},{"poiid":"B2094751D26EA2F4439D","title":"糊涂家宠物咖啡馆","lon":"121.51137","lat":"31.28918","category":"260","category_name":"其他","address":"杨浦区国权路219号2-3楼(近四平路)"},{"poiid":"B2094655D36CA7FB4793","title":"国权路","lon":"121.50998","lat":"31.289","category":"38","category_name":"公交车站","address":"399弄"},{"poiid":"B2094655D26AAAFB4999","title":"圣富法式铁板烧景观餐厅","lon":"121.50973","lat":"31.28946","category":"97","category_name":"法式菜品餐厅","address":"杨浦区四平路1805号天益宾馆16楼(近国权路)"},{"poiid":"B2094757D168A6FB4299","title":"老北京涮羊肉","lon":"121.512619","lat":"31.288427","category":"86","category_name":"火锅店","address":"杨浦区国权路177号"},{"poiid":"B2094655D26EA1FB4893","title":"金宝贝(五角场中心店)","lon":"121.50787","lat":"31.28801","category":"57","category_name":"幼儿园","address":"杨浦区四平路1779号复旦科技园大厦B楼3楼(近国权路)"},{"poiid":"B2094751D265A4FC419F","title":"贵州苗寨酸汤鱼","lon":"121.51129","lat":"31.28911","category":"83","category_name":"云贵菜","address":"杨浦区国权路217号(近四平路)"},{"poiid":"B2094757D065A3F54293","title":"四平科技公园","lon":"121.5094","lat":"31.28787","category":"196","category_name":"公园","address":"杨浦区四平路1777号"},{"poiid":"B2094655D26CA5FF419C","title":"齐鲁人家","lon":"121.509172054","lat":"31.288170793","category":"73","category_name":"山东菜","address":"杨浦区国泰路48号(近四平路)"},{"poiid":"B2094757D16FABF4419F","title":"上海空军政治学院 军区大院","lon":"121.51033486","lat":"31.286804469","category":"500","category_name":"未知分类","address":"上海国权路121弄"},{"poiid":"B2094757D064A1F94398","title":"天益宾馆","lon":"121.50948","lat":"31.288708","category":"217","category_name":"旅馆招待所","address":"杨浦区四平路1805号(近国权路)"},{"poiid":"B2094757D16EAAF5459F","title":"二毛湘菜馆","lon":"121.51203","lat":"31.28866","category":"77","category_name":"湖南菜","address":"杨浦区国权路211号(近四平路)"},{"poiid":"B2094757D468A4FA4092","title":"老村庄野生鱼馆","lon":"121.5125927","lat":"31.2884382","category":"87","category_name":"特色／地方风味餐厅","address":"杨浦区国权路179号(近四平路)"},{"poiid":"B2094757D66DABFC499F","title":"哈尔滨东北小吃","lon":"121.51087","lat":"31.28963","category":"247","category_name":"餐饮美食","address":"上海杨浦区四平路1874号(近国权路)  "},{"poiid":"B209475CD469A1F5429A","title":"哈尔滨风味小吃","lon":"121.511711","lat":"31.289148","category":"247","category_name":"餐饮美食","address":"上海市 国权路187号"},{"poiid":"B2094757D66CA5FB4999","title":"重庆鸡公煲 国权店","lon":"121.511308054","lat":"31.289598793","category":"71","category_name":"四川菜","address":"杨浦区国权路207号(近四平路)"},{"poiid":"B2094751D26DA7F8489D","title":"台北纯K","lon":"121.509208","lat":"31.290533","category":"500","category_name":"未知分类","address":null},{"poiid":"B2094654D56EAAF9449F","title":"上海五角场大学生创业基地","lon":"121.51049","lat":"31.29069","category":"46","category_name":"楼宇","address":"四平路1945"},{"poiid":"B2094655D26EABFB4599","title":"湖南湘宏土菜","lon":"121.51244","lat":"31.2885","category":"247","category_name":"餐饮美食","address":"杨浦区国权路189号"},{"poiid":"B2094655D26CA5F8419E","title":"国权路230弄小区(南门)","lon":"121.51148","lat":"31.2893","category":"47","category_name":"住宅区","address":"国权路230弄"},{"poiid":"B2094757D065A7F44898","title":"十号线国权路","lon":"121.5103681","lat":"31.289912829","category":"500","category_name":"未知分类","address":"上海市杨浦区政修路"},{"poiid":"B2094655D26EA6FF469D","title":"天益宾馆餐厅","lon":"121.510075054","lat":"31.289389793","category":"76","category_name":"上海菜","address":"杨浦区四平路1805号(近国权路)"},{"poiid":"B2094655D36CA7FB479B","title":"国泰路","lon":"121.50942","lat":"31.2882","category":"38","category_name":"公交车站","address":""},{"poiid":"B2094655D26BA2FB4999","title":"四平路","lon":"121.51027","lat":"31.29238","category":"38","category_name":"公交车站","address":""},{"poiid":"B209475CD76FA0F8449F","title":"同济大学地铁站","lon":"121.510009","lat":"31.288702","category":"500","category_name":"未知分类","address":"上海市 同济大学四平路校区"},{"poiid":"B2094750D56EA6FA4799","title":"上海开放大学","lon":"121.51308088360588","lat":"31.29142221201052","category":"671","category_name":"高校中心点","address":"杨浦区国顺路288号"},{"poiid":"B2094757D06FA5FE4593","title":"凯瑟琳(catherine)","lon":"121.5108837","lat":"31.289445219","category":"123","category_name":"家具建材市场","address":"上海华亭路28号"},{"poiid":"B2094751DA65A0F44598","title":"又一城新世纪食品城","lon":"121.507217","lat":"31.290207","category":"247","category_name":"餐饮美食","address":"五角场百联又一城地下一层"},{"poiid":"B2094654D56EAAF4409F","title":"新光明便利店","lon":"121.50949","lat":"31.28918","category":"117","category_name":"便民商店/便利店","address":"四平路1805-19"},{"poiid":"B2094655D26EA5FB4799","title":"川香馆 四平路","lon":"121.51019854651","lat":"31.289472043183","category":"71","category_name":"四川菜","address":"四平路1805号"},{"poiid":"B2094654D56EAAF9489B","title":"上海申东外语书店","lon":"121.50905","lat":"31.28994","category":"125","category_name":"书店","address":"杨浦区国权路311号(近四平路)"},{"poiid":"B2094654D56EA4FA4398","title":"尔宝形象设计四平店","lon":"121.51113","lat":"31.29087","category":"148","category_name":"美容美发店","address":"上海杨浦区四平路1920号(近国顺路)  "},{"poiid":"B2094757D56CA2F8469A","title":"吉祥馄饨 国权路","lon":"121.50879593373","lat":"31.29059449174","category":"247","category_name":"餐饮美食","address":"杨浦区四平路1900号(近国权路)"},{"poiid":"B2094757D66BA7F54892","title":"侬要吃蛇肉捞","lon":"121.511402","lat":"31.289172","category":"260","category_name":"其他","address":"杨浦区国权路217号"},{"poiid":"B2094454D36DA2FB4792","title":"RYU瑠","lon":"121.509628","lat":"31.290969","category":"247","category_name":"餐饮美食","address":"上海市 外滩5号"},{"poiid":"B2094655D26FA0FD449A","title":"复旦大学继续教育学院(东门)","lon":"121.51021","lat":"31.29015","category":"678","category_name":"学校大门","address":"四平路1931"},{"poiid":"B2094751D365A3F8439F","title":"宿州学院","lon":"121.5127521","lat":"31.2902195","category":"671","category_name":"高校中心点","address":"安徽宿州学院东区"},{"poiid":"B2094757D06FA3FF4693","title":"上海电视大学(国顺校区)","lon":"121.51313","lat":"31.29115","category":"671","category_name":"高校中心点","address":"杨浦区国顺路288号(近四平路)"},{"poiid":"B2094757D06EAAFC479B","title":"国权路地铁站","lon":"121.510234","lat":"31.289649","category":"36","category_name":"地铁站","address":"上海轨道交通 十号线 轨交国权路站 10"},{"poiid":"B2094757D06FA0FA409F","title":"同济联合广场","lon":"121.514","lat":"31.2875","category":"119","category_name":"商场","address":"丰台学城海鹰路1号,3号"},{"poiid":"B2094757D06FA0F8469D","title":"复旦大学继续教育学院","lon":"121.51036071","lat":"31.290260314","category":"671","category_name":"高校中心点","address":"上海四平路1931号"},{"poiid":"B2094750D26AABF9409D","title":"糊涂家宠物咖啡店","lon":"121.511199","lat":"31.289052","category":"248","category_name":"生活娱乐","address":"国权路619号"},{"poiid":"B2094757D06FA6FB449A","title":"四平路国权路","lon":"121.510942","lat":"31.290713","category":"260","category_name":"其他","address":"上海四平路国权路"},{"poiid":"B2094655D26FA0FE4199","title":"复旦科技园大厦","lon":"121.50793","lat":"31.2879","category":"46","category_name":"楼宇","address":"上海市杨浦区国泰路11号"},{"poiid":"B2094757D06FABF4429B","title":"上海新东方学校(四平路总部)","lon":"121.50995","lat":"31.2891","category":"253","category_name":"校园生活","address":"杨浦区四平路1805号(近国权路)"},{"poiid":"B2094757D06BA7F4479A","title":"CCDI悉地国际 总部","lon":"121.50929686","lat":"31.2862824724","category":"46","category_name":"楼宇","address":"上海市四平路1758号"},{"poiid":"B2094757D06FABFD429B","title":"林绿家园","lon":"121.51253","lat":"31.290365","category":"47","category_name":"住宅区","address":"上海市杨浦区四平路1950弄"},{"poiid":"B2094757D06AA7FF439F","title":"八号线四平路站","lon":"121.511265103","lat":"31.2891078129","category":"500","category_name":"未知分类","address":"上海四平路大连路"},{"poiid":"B2094757D06EAAF8469B","title":"蜂蜜四叶草 Honey Clover","lon":"121.51274","lat":"31.28864","category":"260","category_name":"其他","address":"杨浦区国权路201号(近四平路)"},{"poiid":"B2094654DB6BA2FC419E","title":"锦江之星(上海国权路店)","lon":"121.51139","lat":"31.28955","category":"216","category_name":"经济型连锁酒店","address":"上海杨浦区国权路236号(近四平路)  "},{"poiid":"B2094757D16CA1F5479D","title":"维罗纳意式私房菜","lon":"121.509830869","lat":"31.2891654708","category":"94","category_name":"西餐厅","address":"杨浦区国权路309号(近四平路)"},{"poiid":"B2094751D26EA2F4439D","title":"糊涂家宠物咖啡馆","lon":"121.51137","lat":"31.28918","category":"260","category_name":"其他","address":"杨浦区国权路219号2-3楼(近四平路)"},{"poiid":"B2094655D36CA7FB4793","title":"国权路","lon":"121.50998","lat":"31.289","category":"38","category_name":"公交车站","address":"399弄"},{"poiid":"B2094655D26AAAFB4999","title":"圣富法式铁板烧景观餐厅","lon":"121.50973","lat":"31.28946","category":"97","category_name":"法式菜品餐厅","address":"杨浦区四平路1805号天益宾馆16楼(近国权路)"},{"poiid":"B2094757D168A6FB4299","title":"老北京涮羊肉","lon":"121.512619","lat":"31.288427","category":"86","category_name":"火锅店","address":"杨浦区国权路177号"},{"poiid":"B2094655D26EA1FB4893","title":"金宝贝(五角场中心店)","lon":"121.50787","lat":"31.28801","category":"57","category_name":"幼儿园","address":"杨浦区四平路1779号复旦科技园大厦B楼3楼(近国权路)"},{"poiid":"B2094751D265A4FC419F","title":"贵州苗寨酸汤鱼","lon":"121.51129","lat":"31.28911","category":"83","category_name":"云贵菜","address":"杨浦区国权路217号(近四平路)"},{"poiid":"B2094757D065A3F54293","title":"四平科技公园","lon":"121.5094","lat":"31.28787","category":"196","category_name":"公园","address":"杨浦区四平路1777号"},{"poiid":"B2094655D26CA5FF419C","title":"齐鲁人家","lon":"121.509172054","lat":"31.288170793","category":"73","category_name":"山东菜","address":"杨浦区国泰路48号(近四平路)"},{"poiid":"B2094757D16FABF4419F","title":"上海空军政治学院 军区大院","lon":"121.51033486","lat":"31.286804469","category":"500","category_name":"未知分类","address":"上海国权路121弄"},{"poiid":"B2094757D064A1F94398","title":"天益宾馆","lon":"121.50948","lat":"31.288708","category":"217","category_name":"旅馆招待所","address":"杨浦区四平路1805号(近国权路)"},{"poiid":"B2094757D16EAAF5459F","title":"二毛湘菜馆","lon":"121.51203","lat":"31.28866","category":"77","category_name":"湖南菜","address":"杨浦区国权路211号(近四平路)"},{"poiid":"B2094757D468A4FA4092","title":"老村庄野生鱼馆","lon":"121.5125927","lat":"31.2884382","category":"87","category_name":"特色／地方风味餐厅","address":"杨浦区国权路179号(近四平路)"},{"poiid":"B2094757D66DABFC499F","title":"哈尔滨东北小吃","lon":"121.51087","lat":"31.28963","category":"247","category_name":"餐饮美食","address":"上海杨浦区四平路1874号(近国权路)  "},{"poiid":"B209475CD469A1F5429A","title":"哈尔滨风味小吃","lon":"121.511711","lat":"31.289148","category":"247","category_name":"餐饮美食","address":"上海市 国权路187号"},{"poiid":"B2094757D66CA5FB4999","title":"重庆鸡公煲 国权店","lon":"121.511308054","lat":"31.289598793","category":"71","category_name":"四川菜","address":"杨浦区国权路207号(近四平路)"},{"poiid":"B2094751D26DA7F8489D","title":"台北纯K","lon":"121.509208","lat":"31.290533","category":"500","category_name":"未知分类","address":null},{"poiid":"B2094654D56EAAF9449F","title":"上海五角场大学生创业基地","lon":"121.51049","lat":"31.29069","category":"46","category_name":"楼宇","address":"四平路1945"},{"poiid":"B2094655D26EABFB4599","title":"湖南湘宏土菜","lon":"121.51244","lat":"31.2885","category":"247","category_name":"餐饮美食","address":"杨浦区国权路189号"},{"poiid":"B2094655D26CA5F8419E","title":"国权路230弄小区(南门)","lon":"121.51148","lat":"31.2893","category":"47","category_name":"住宅区","address":"国权路230弄"},{"poiid":"B2094757D065A7F44898","title":"十号线国权路","lon":"121.5103681","lat":"31.289912829","category":"500","category_name":"未知分类","address":"上海市杨浦区政修路"},{"poiid":"B2094655D26EA6FF469D","title":"天益宾馆餐厅","lon":"121.510075054","lat":"31.289389793","category":"76","category_name":"上海菜","address":"杨浦区四平路1805号(近国权路)"},{"poiid":"B2094655D36CA7FB479B","title":"国泰路","lon":"121.50942","lat":"31.2882","category":"38","category_name":"公交车站","address":""},{"poiid":"B2094655D26BA2FB4999","title":"四平路","lon":"121.51027","lat":"31.29238","category":"38","category_name":"公交车站","address":""},{"poiid":"B209475CD76FA0F8449F","title":"同济大学地铁站","lon":"121.510009","lat":"31.288702","category":"500","category_name":"未知分类","address":"上海市 同济大学四平路校区"},{"poiid":"B2094750D56EA6FA4799","title":"上海开放大学","lon":"121.51308088360588","lat":"31.29142221201052","category":"671","category_name":"高校中心点","address":"杨浦区国顺路288号"},{"poiid":"B2094757D06FA5FE4593","title":"凯瑟琳(catherine)","lon":"121.5108837","lat":"31.289445219","category":"123","category_name":"家具建材市场","address":"上海华亭路28号"},{"poiid":"B2094751DA65A0F44598","title":"又一城新世纪食品城","lon":"121.507217","lat":"31.290207","category":"247","category_name":"餐饮美食","address":"五角场百联又一城地下一层"},{"poiid":"B2094654D56EAAF4409F","title":"新光明便利店","lon":"121.50949","lat":"31.28918","category":"117","category_name":"便民商店/便利店","address":"四平路1805-19"},{"poiid":"B2094655D26EA5FB4799","title":"川香馆 四平路","lon":"121.51019854651","lat":"31.289472043183","category":"71","category_name":"四川菜","address":"四平路1805号"},{"poiid":"B2094654D56EAAF9489B","title":"上海申东外语书店","lon":"121.50905","lat":"31.28994","category":"125","category_name":"书店","address":"杨浦区国权路311号(近四平路)"},{"poiid":"B2094654D56EA4FA4398","title":"尔宝形象设计四平店","lon":"121.51113","lat":"31.29087","category":"148","category_name":"美容美发店","address":"上海杨浦区四平路1920号(近国顺路)  "},{"poiid":"B2094757D56CA2F8469A","title":"吉祥馄饨 国权路","lon":"121.50879593373","lat":"31.29059449174","category":"247","category_name":"餐饮美食","address":"杨浦区四平路1900号(近国权路)"},{"poiid":"B2094757D66BA7F54892","title":"侬要吃蛇肉捞","lon":"121.511402","lat":"31.289172","category":"260","category_name":"其他","address":"杨浦区国权路217号"},{"poiid":"B2094454D36DA2FB4792","title":"RYU瑠","lon":"121.509628","lat":"31.290969","category":"247","category_name":"餐饮美食","address":"上海市 外滩5号"},{"poiid":"B2094655D26FA0FD449A","title":"复旦大学继续教育学院(东门)","lon":"121.51021","lat":"31.29015","category":"678","category_name":"学校大门","address":"四平路1931"},{"poiid":"B2094751D365A3F8439F","title":"宿州学院","lon":"121.5127521","lat":"31.2902195","category":"671","category_name":"高校中心点","address":"安徽宿州学院东区"},{"poiid":"B2094757D06FA3FF4693","title":"上海电视大学(国顺校区)","lon":"121.51313","lat":"31.29115","category":"671","category_name":"高校中心点","address":"杨浦区国顺路288号(近四平路)"},{"poiid":"B2094757D06EAAFC479B","title":"国权路地铁站","lon":"121.510234","lat":"31.289649","category":"36","category_name":"地铁站","address":"上海轨道交通 十号线 轨交国权路站 10"},{"poiid":"B2094757D06FA0FA409F","title":"同济联合广场","lon":"121.514","lat":"31.2875","category":"119","category_name":"商场","address":"丰台学城海鹰路1号,3号"},{"poiid":"B2094757D06FA0F8469D","title":"复旦大学继续教育学院","lon":"121.51036071","lat":"31.290260314","category":"671","category_name":"高校中心点","address":"上海四平路1931号"},{"poiid":"B2094750D26AABF9409D","title":"糊涂家宠物咖啡店","lon":"121.511199","lat":"31.289052","category":"248","category_name":"生活娱乐","address":"国权路619号"},{"poiid":"B2094757D06FA6FB449A","title":"四平路国权路","lon":"121.510942","lat":"31.290713","category":"260","category_name":"其他","address":"上海四平路国权路"},{"poiid":"B2094655D26FA0FE4199","title":"复旦科技园大厦","lon":"121.50793","lat":"31.2879","category":"46","category_name":"楼宇","address":"上海市杨浦区国泰路11号"},{"poiid":"B2094757D06FABF4429B","title":"上海新东方学校(四平路总部)","lon":"121.50995","lat":"31.2891","category":"253","category_name":"校园生活","address":"杨浦区四平路1805号(近国权路)"},{"poiid":"B2094757D06BA7F4479A","title":"CCDI悉地国际 总部","lon":"121.50929686","lat":"31.2862824724","category":"46","category_name":"楼宇","address":"上海市四平路1758号"},{"poiid":"B2094757D06FABFD429B","title":"林绿家园","lon":"121.51253","lat":"31.290365","category":"47","category_name":"住宅区","address":"上海市杨浦区四平路1950弄"},{"poiid":"B2094757D06AA7FF439F","title":"八号线四平路站","lon":"121.511265103","lat":"31.2891078129","category":"500","category_name":"未知分类","address":"上海四平路大连路"},{"poiid":"B2094757D06EAAF8469B","title":"蜂蜜四叶草 Honey Clover","lon":"121.51274","lat":"31.28864","category":"260","category_name":"其他","address":"杨浦区国权路201号(近四平路)"},{"poiid":"B2094654DB6BA2FC419E","title":"锦江之星(上海国权路店)","lon":"121.51139","lat":"31.28955","category":"216","category_name":"经济型连锁酒店","address":"上海杨浦区国权路236号(近四平路)  "},{"poiid":"B2094757D16CA1F5479D","title":"维罗纳意式私房菜","lon":"121.509830869","lat":"31.2891654708","category":"94","category_name":"西餐厅","address":"杨浦区国权路309号(近四平路)"},{"poiid":"B2094751D26EA2F4439D","title":"糊涂家宠物咖啡馆","lon":"121.51137","lat":"31.28918","category":"260","category_name":"其他","address":"杨浦区国权路219号2-3楼(近四平路)"},{"poiid":"B2094655D36CA7FB4793","title":"国权路","lon":"121.50998","lat":"31.289","category":"38","category_name":"公交车站","address":"399弄"},{"poiid":"B2094655D26AAAFB4999","title":"圣富法式铁板烧景观餐厅","lon":"121.50973","lat":"31.28946","category":"97","category_name":"法式菜品餐厅","address":"杨浦区四平路1805号天益宾馆16楼(近国权路)"},{"poiid":"B2094757D168A6FB4299","title":"老北京涮羊肉","lon":"121.512619","lat":"31.288427","category":"86","category_name":"火锅店","address":"杨浦区国权路177号"},{"poiid":"B2094655D26EA1FB4893","title":"金宝贝(五角场中心店)","lon":"121.50787","lat":"31.28801","category":"57","category_name":"幼儿园","address":"杨浦区四平路1779号复旦科技园大厦B楼3楼(近国权路)"},{"poiid":"B2094751D265A4FC419F","title":"贵州苗寨酸汤鱼","lon":"121.51129","lat":"31.28911","category":"83","category_name":"云贵菜","address":"杨浦区国权路217号(近四平路)"},{"poiid":"B2094757D065A3F54293","title":"四平科技公园","lon":"121.5094","lat":"31.28787","category":"196","category_name":"公园","address":"杨浦区四平路1777号"},{"poiid":"B2094655D26CA5FF419C","title":"齐鲁人家","lon":"121.509172054","lat":"31.288170793","category":"73","category_name":"山东菜","address":"杨浦区国泰路48号(近四平路)"},{"poiid":"B2094757D16FABF4419F","title":"上海空军政治学院 军区大院","lon":"121.51033486","lat":"31.286804469","category":"500","category_name":"未知分类","address":"上海国权路121弄"},{"poiid":"B2094757D064A1F94398","title":"天益宾馆","lon":"121.50948","lat":"31.288708","category":"217","category_name":"旅馆招待所","address":"杨浦区四平路1805号(近国权路)"},{"poiid":"B2094757D16EAAF5459F","title":"二毛湘菜馆","lon":"121.51203","lat":"31.28866","category":"77","category_name":"湖南菜","address":"杨浦区国权路211号(近四平路)"},{"poiid":"B2094757D468A4FA4092","title":"老村庄野生鱼馆","lon":"121.5125927","lat":"31.2884382","category":"87","category_name":"特色／地方风味餐厅","address":"杨浦区国权路179号(近四平路)"},{"poiid":"B2094757D66DABFC499F","title":"哈尔滨东北小吃","lon":"121.51087","lat":"31.28963","category":"247","category_name":"餐饮美食","address":"上海杨浦区四平路1874号(近国权路)  "},{"poiid":"B209475CD469A1F5429A","title":"哈尔滨风味小吃","lon":"121.511711","lat":"31.289148","category":"247","category_name":"餐饮美食","address":"上海市 国权路187号"},{"poiid":"B2094757D66CA5FB4999","title":"重庆鸡公煲 国权店","lon":"121.511308054","lat":"31.289598793","category":"71","category_name":"四川菜","address":"杨浦区国权路207号(近四平路)"},{"poiid":"B2094751D26DA7F8489D","title":"台北纯K","lon":"121.509208","lat":"31.290533","category":"500","category_name":"未知分类","address":null},{"poiid":"B2094654D56EAAF9449F","title":"上海五角场大学生创业基地","lon":"121.51049","lat":"31.29069","category":"46","category_name":"楼宇","address":"四平路1945"},{"poiid":"B2094655D26EABFB4599","title":"湖南湘宏土菜","lon":"121.51244","lat":"31.2885","category":"247","category_name":"餐饮美食","address":"杨浦区国权路189号"},{"poiid":"B2094655D26CA5F8419E","title":"国权路230弄小区(南门)","lon":"121.51148","lat":"31.2893","category":"47","category_name":"住宅区","address":"国权路230弄"},{"poiid":"B2094757D065A7F44898","title":"十号线国权路","lon":"121.5103681","lat":"31.289912829","category":"500","category_name":"未知分类","address":"上海市杨浦区政修路"},{"poiid":"B2094655D26EA6FF469D","title":"天益宾馆餐厅","lon":"121.510075054","lat":"31.289389793","category":"76","category_name":"上海菜","address":"杨浦区四平路1805号(近国权路)"},{"poiid":"B2094655D36CA7FB479B","title":"国泰路","lon":"121.50942","lat":"31.2882","category":"38","category_name":"公交车站","address":""},{"poiid":"B2094655D26BA2FB4999","title":"四平路","lon":"121.51027","lat":"31.29238","category":"38","category_name":"公交车站","address":""},{"poiid":"B209475CD76FA0F8449F","title":"同济大学地铁站","lon":"121.510009","lat":"31.288702","category":"500","category_name":"未知分类","address":"上海市 同济大学四平路校区"},{"poiid":"B2094750D56EA6FA4799","title":"上海开放大学","lon":"121.51308088360588","lat":"31.29142221201052","category":"671","category_name":"高校中心点","address":"杨浦区国顺路288号"},{"poiid":"B2094757D06FA5FE4593","title":"凯瑟琳(catherine)","lon":"121.5108837","lat":"31.289445219","category":"123","category_name":"家具建材市场","address":"上海华亭路28号"},{"poiid":"B2094751DA65A0F44598","title":"又一城新世纪食品城","lon":"121.507217","lat":"31.290207","category":"247","category_name":"餐饮美食","address":"五角场百联又一城地下一层"},{"poiid":"B2094654D56EAAF4409F","title":"新光明便利店","lon":"121.50949","lat":"31.28918","category":"117","category_name":"便民商店/便利店","address":"四平路1805-19"},{"poiid":"B2094655D26EA5FB4799","title":"川香馆 四平路","lon":"121.51019854651","lat":"31.289472043183","category":"71","category_name":"四川菜","address":"四平路1805号"},{"poiid":"B2094654D56EAAF9489B","title":"上海申东外语书店","lon":"121.50905","lat":"31.28994","category":"125","category_name":"书店","address":"杨浦区国权路311号(近四平路)"},{"poiid":"B2094654D56EA4FA4398","title":"尔宝形象设计四平店","lon":"121.51113","lat":"31.29087","category":"148","category_name":"美容美发店","address":"上海杨浦区四平路1920号(近国顺路)  "},{"poiid":"B2094757D56CA2F8469A","title":"吉祥馄饨 国权路","lon":"121.50879593373","lat":"31.29059449174","category":"247","category_name":"餐饮美食","address":"杨浦区四平路1900号(近国权路)"},{"poiid":"B2094757D66BA7F54892","title":"侬要吃蛇肉捞","lon":"121.511402","lat":"31.289172","category":"260","category_name":"其他","address":"杨浦区国权路217号"},{"poiid":"B2094454D36DA2FB4792","title":"RYU瑠","lon":"121.509628","lat":"31.290969","category":"247","category_name":"餐饮美食","address":"上海市 外滩5号"},{"poiid":"B2094655D26FA0FD449A","title":"复旦大学继续教育学院(东门)","lon":"121.51021","lat":"31.29015","category":"678","category_name":"学校大门","address":"四平路1931"},{"poiid":"B2094751D365A3F8439F","title":"宿州学院","lon":"121.5127521","lat":"31.2902195","category":"671","category_name":"高校中心点","address":"安徽宿州学院东区"},{"poiid":"B2094757D06FA3FF4693","title":"上海电视大学(国顺校区)","lon":"121.51313","lat":"31.29115","category":"671","category_name":"高校中心点","address":"杨浦区国顺路288号(近四平路)"},{"poiid":"B2094757D06EAAFC479B","title":"国权路地铁站","lon":"121.510234","lat":"31.289649","category":"36","category_name":"地铁站","address":"上海轨道交通 十号线 轨交国权路站 10"},{"poiid":"B2094757D06FA0FA409F","title":"同济联合广场","lon":"121.514","lat":"31.2875","category":"119","category_name":"商场","address":"丰台学城海鹰路1号,3号"},{"poiid":"B2094757D06FA0F8469D","title":"复旦大学继续教育学院","lon":"121.51036071","lat":"31.290260314","category":"671","category_name":"高校中心点","address":"上海四平路1931号"},{"poiid":"B2094750D26AABF9409D","title":"糊涂家宠物咖啡店","lon":"121.511199","lat":"31.289052","category":"248","category_name":"生活娱乐","address":"国权路619号"},{"poiid":"B2094757D06FA6FB449A","title":"四平路国权路","lon":"121.510942","lat":"31.290713","category":"260","category_name":"其他","address":"上海四平路国权路"},{"poiid":"B2094655D26FA0FE4199","title":"复旦科技园大厦","lon":"121.50793","lat":"31.2879","category":"46","category_name":"楼宇","address":"上海市杨浦区国泰路11号"},{"poiid":"B2094757D06FABF4429B","title":"上海新东方学校(四平路总部)","lon":"121.50995","lat":"31.2891","category":"253","category_name":"校园生活","address":"杨浦区四平路1805号(近国权路)"},{"poiid":"B2094757D06BA7F4479A","title":"CCDI悉地国际 总部","lon":"121.50929686","lat":"31.2862824724","category":"46","category_name":"楼宇","address":"上海市四平路1758号"},{"poiid":"B2094757D06FABFD429B","title":"林绿家园","lon":"121.51253","lat":"31.290365","category":"47","category_name":"住宅区","address":"上海市杨浦区四平路1950弄"},{"poiid":"B2094757D06AA7FF439F","title":"八号线四平路站","lon":"121.511265103","lat":"31.2891078129","category":"500","category_name":"未知分类","address":"上海四平路大连路"},{"poiid":"B2094757D06EAAF8469B","title":"蜂蜜四叶草 Honey Clover","lon":"121.51274","lat":"31.28864","category":"260","category_name":"其他","address":"杨浦区国权路201号(近四平路)"},{"poiid":"B2094654DB6BA2FC419E","title":"锦江之星(上海国权路店)","lon":"121.51139","lat":"31.28955","category":"216","category_name":"经济型连锁酒店","address":"上海杨浦区国权路236号(近四平路)  "},{"poiid":"B2094757D16CA1F5479D","title":"维罗纳意式私房菜","lon":"121.509830869","lat":"31.2891654708","category":"94","category_name":"西餐厅","address":"杨浦区国权路309号(近四平路)"},{"poiid":"B2094751D26EA2F4439D","title":"糊涂家宠物咖啡馆","lon":"121.51137","lat":"31.28918","category":"260","category_name":"其他","address":"杨浦区国权路219号2-3楼(近四平路)"},{"poiid":"B2094655D36CA7FB4793","title":"国权路","lon":"121.50998","lat":"31.289","category":"38","category_name":"公交车站","address":"399弄"},{"poiid":"B2094655D26AAAFB4999","title":"圣富法式铁板烧景观餐厅","lon":"121.50973","lat":"31.28946","category":"97","category_name":"法式菜品餐厅","address":"杨浦区四平路1805号天益宾馆16楼(近国权路)"},{"poiid":"B2094757D168A6FB4299","title":"老北京涮羊肉","lon":"121.512619","lat":"31.288427","category":"86","category_name":"火锅店","address":"杨浦区国权路177号"},{"poiid":"B2094655D26EA1FB4893","title":"金宝贝(五角场中心店)","lon":"121.50787","lat":"31.28801","category":"57","category_name":"幼儿园","address":"杨浦区四平路1779号复旦科技园大厦B楼3楼(近国权路)"},{"poiid":"B2094751D265A4FC419F","title":"贵州苗寨酸汤鱼","lon":"121.51129","lat":"31.28911","category":"83","category_name":"云贵菜","address":"杨浦区国权路217号(近四平路)"},{"poiid":"B2094757D065A3F54293","title":"四平科技公园","lon":"121.5094","lat":"31.28787","category":"196","category_name":"公园","address":"杨浦区四平路1777号"},{"poiid":"B2094655D26CA5FF419C","title":"齐鲁人家","lon":"121.509172054","lat":"31.288170793","category":"73","category_name":"山东菜","address":"杨浦区国泰路48号(近四平路)"},{"poiid":"B2094757D16FABF4419F","title":"上海空军政治学院 军区大院","lon":"121.51033486","lat":"31.286804469","category":"500","category_name":"未知分类","address":"上海国权路121弄"},{"poiid":"B2094757D064A1F94398","title":"天益宾馆","lon":"121.50948","lat":"31.288708","category":"217","category_name":"旅馆招待所","address":"杨浦区四平路1805号(近国权路)"},{"poiid":"B2094757D16EAAF5459F","title":"二毛湘菜馆","lon":"121.51203","lat":"31.28866","category":"77","category_name":"湖南菜","address":"杨浦区国权路211号(近四平路)"},{"poiid":"B2094757D468A4FA4092","title":"老村庄野生鱼馆","lon":"121.5125927","lat":"31.2884382","category":"87","category_name":"特色／地方风味餐厅","address":"杨浦区国权路179号(近四平路)"},{"poiid":"B2094757D66DABFC499F","title":"哈尔滨东北小吃","lon":"121.51087","lat":"31.28963","category":"247","category_name":"餐饮美食","address":"上海杨浦区四平路1874号(近国权路)  "},{"poiid":"B209475CD469A1F5429A","title":"哈尔滨风味小吃","lon":"121.511711","lat":"31.289148","category":"247","category_name":"餐饮美食","address":"上海市 国权路187号"},{"poiid":"B2094757D66CA5FB4999","title":"重庆鸡公煲 国权店","lon":"121.511308054","lat":"31.289598793","category":"71","category_name":"四川菜","address":"杨浦区国权路207号(近四平路)"},{"poiid":"B2094751D26DA7F8489D","title":"台北纯K","lon":"121.509208","lat":"31.290533","category":"500","category_name":"未知分类","address":null},{"poiid":"B2094654D56EAAF9449F","title":"上海五角场大学生创业基地","lon":"121.51049","lat":"31.29069","category":"46","category_name":"楼宇","address":"四平路1945"},{"poiid":"B2094655D26EABFB4599","title":"湖南湘宏土菜","lon":"121.51244","lat":"31.2885","category":"247","category_name":"餐饮美食","address":"杨浦区国权路189号"},{"poiid":"B2094655D26CA5F8419E","title":"国权路230弄小区(南门)","lon":"121.51148","lat":"31.2893","category":"47","category_name":"住宅区","address":"国权路230弄"},{"poiid":"B2094757D065A7F44898","title":"十号线国权路","lon":"121.5103681","lat":"31.289912829","category":"500","category_name":"未知分类","address":"上海市杨浦区政修路"},{"poiid":"B2094655D26EA6FF469D","title":"天益宾馆餐厅","lon":"121.510075054","lat":"31.289389793","category":"76","category_name":"上海菜","address":"杨浦区四平路1805号(近国权路)"},{"poiid":"B2094655D36CA7FB479B","title":"国泰路","lon":"121.50942","lat":"31.2882","category":"38","category_name":"公交车站","address":""},{"poiid":"B2094655D26BA2FB4999","title":"四平路","lon":"121.51027","lat":"31.29238","category":"38","category_name":"公交车站","address":""},{"poiid":"B209475CD76FA0F8449F","title":"同济大学地铁站","lon":"121.510009","lat":"31.288702","category":"500","category_name":"未知分类","address":"上海市 同济大学四平路校区"},{"poiid":"B2094750D56EA6FA4799","title":"上海开放大学","lon":"121.51308088360588","lat":"31.29142221201052","category":"671","category_name":"高校中心点","address":"杨浦区国顺路288号"},{"poiid":"B2094757D06FA5FE4593","title":"凯瑟琳(catherine)","lon":"121.5108837","lat":"31.289445219","category":"123","category_name":"家具建材市场","address":"上海华亭路28号"},{"poiid":"B2094751DA65A0F44598","title":"又一城新世纪食品城","lon":"121.507217","lat":"31.290207","category":"247","category_name":"餐饮美食","address":"五角场百联又一城地下一层"},{"poiid":"B2094654D56EAAF4409F","title":"新光明便利店","lon":"121.50949","lat":"31.28918","category":"117","category_name":"便民商店/便利店","address":"四平路1805-19"},{"poiid":"B2094655D26EA5FB4799","title":"川香馆 四平路","lon":"121.51019854651","lat":"31.289472043183","category":"71","category_name":"四川菜","address":"四平路1805号"},{"poiid":"B2094654D56EAAF9489B","title":"上海申东外语书店","lon":"121.50905","lat":"31.28994","category":"125","category_name":"书店","address":"杨浦区国权路311号(近四平路)"},{"poiid":"B2094654D56EA4FA4398","title":"尔宝形象设计四平店","lon":"121.51113","lat":"31.29087","category":"148","category_name":"美容美发店","address":"上海杨浦区四平路1920号(近国顺路)  "},{"poiid":"B2094757D56CA2F8469A","title":"吉祥馄饨 国权路","lon":"121.50879593373","lat":"31.29059449174","category":"247","category_name":"餐饮美食","address":"杨浦区四平路1900号(近国权路)"},{"poiid":"B2094757D66BA7F54892","title":"侬要吃蛇肉捞","lon":"121.511402","lat":"31.289172","category":"260","category_name":"其他","address":"杨浦区国权路217号"},{"poiid":"B2094454D36DA2FB4792","title":"RYU瑠","lon":"121.509628","lat":"31.290969","category":"247","category_name":"餐饮美食","address":"上海市 外滩5号"},{"poiid":"B2094655D26FA0FD449A","title":"复旦大学继续教育学院(东门)","lon":"121.51021","lat":"31.29015","category":"678","category_name":"学校大门","address":"四平路1931"},{"poiid":"B2094751D365A3F8439F","title":"宿州学院","lon":"121.5127521","lat":"31.2902195","category":"671","category_name":"高校中心点","address":"安徽宿州学院东区"}]