[{"poiid":"B2094757D06EAAF4409D","title":"世博公园","lon":"121.48693171","lat":"31.18741865","category":"196","category_name":"公园","address":"浦东新区浦东世博园B片区世博大道北侧"},{"poiid":"B2094655D36DA6FF499E","title":"上海影城--世博国际影城","lon":"121.48736","lat":"31.18564","category":"178","category_name":"电影院","address":"上海市浦东新区世博大道1200号世博文化中心6楼(梅赛德斯-奔驰文化中心)"},{"poiid":"B2094750D36BA7FC409B","title":"梅赛德斯-奔驰文化中心 Mercedes-Benz Arena","lon":"121.493168","lat":"31.190006","category":"646","category_name":"文化体育类公司","address":"浦东新区世博大道1200号(近上南路)"},{"poiid":"B2094757D06FAAFE419F","title":"后滩公园","lon":"121.4758535","lat":"31.184998305","category":"196","category_name":"公园","address":"上海浦东新区世博会园B片区"},{"poiid":"B2094752D264A0FC479C","title":"巧克力开心乐园","lon":"121.475159","lat":"31.181213","category":"248","category_name":"生活娱乐","address":"博成路100号"},{"poiid":"B2094757D06FA3FE4493","title":"上海世博中心","lon":"121.489342559","lat":"31.1860505323","category":"260","category_name":"其他","address":"上海浦东新区世博大道1500号"},{"poiid":"B2094655D26EA7F84093","title":"卢浦大桥","lon":"121.48255","lat":"31.18603","category":"250","category_name":"公园户外","address":"卢湾区鲁班路909号"},{"poiid":"B2094757D06FA3F8479F","title":"世博会意大利馆","lon":"121.47576","lat":"31.1841","category":"260","category_name":"其他","address":"上海浦东新区世博大道上钢路口(原上海世博会C片区)"},{"poiid":"B2094757D06FA2FA449D","title":"上海世博会博物馆 - 上海世博会纪念展","lon":"121.48130635","lat":"31.1936099525","category":"182","category_name":"博物馆","address":"卢湾区局门路原世博会城市足迹馆内(近龙华东路)"},{"poiid":"B2094757D06EABF54893","title":"星巴克 STARBUCKS (世博演艺中心店)","lon":"121.4896985","lat":"31.1858498","category":"260","category_name":"其他","address":"浦东新区世博大道1200号世博演艺中心L111商铺"},{"poiid":"B2094757D06FA0FA499E","title":"世博会非洲联合馆","lon":"121.47401428","lat":"31.182336807","category":"260","category_name":"其他","address":"上海浦东新区博成路上钢路口(原上海世博会C片区)"},{"poiid":"B2094751D564A0FF429F","title":"王鼎铁板烧精致店","lon":"121.48745","lat":"31.190852","category":"500","category_name":"未知分类","address":"世博大道1368号1LM0304"},{"poiid":"B2094757D06FA5F8499C","title":"宝钢大舞台","lon":"121.484091043","lat":"31.1868936206","category":"260","category_name":"其他","address":"上海浦东新区世博公园"},{"poiid":"B2094757D06AA3F9449C","title":"江滨路观江平台～","lon":"121.47499573","lat":"31.192089987","category":"500","category_name":"未知分类","address":"上海卢湾区"},{"poiid":"B2094757D56DAAFD4998","title":"冰星飞扬（世博）羽毛球馆","lon":"121.47396326065063","lat":"31.180634737769793","category":"248","category_name":"生活娱乐","address":"浦东新区后滩路139号(近国展路)"},{"poiid":"B2094752D26EA5F8479E","title":"世博希腊馆","lon":"121.477208","lat":"31.185743","category":"500","category_name":"未知分类","address":null},{"poiid":"B2094751DA6BA0F44893","title":"斗牛士（世博轴店）","lon":"121.487263","lat":"31.189611","category":"247","category_name":"餐饮美食","address":"浦东新区世博大道1368号世博源B1楼G09-10号铺(近上南路)"},{"poiid":"B2094757D068A1FF4598","title":"红宝石(昌里路店)","lon":"121.48631391","lat":"31.177169422","category":"67","category_name":"甜品店","address":"浦东新区昌里路347号(近长清路)"},{"poiid":"B2094752D06DA3F9459D","title":"飞行家主题园","lon":"121.475925","lat":"31.180498","category":"250","category_name":"公园户外","address":"上海市浦东新区国展路311号"},{"poiid":"B2094654DA6DA4FA419D","title":"卢湾城市花园","lon":"121.4775","lat":"31.19385","category":"47","category_name":"住宅区","address":"上海市卢湾区鲁班路738弄"},{"poiid":"B2094752DA69A1F5449B","title":"博大汽车公园","lon":"121.472341","lat":"31.179505","category":"500","category_name":"未知分类","address":"上海市 国展路189号"},{"poiid":"B2094757D06FAAF4429D","title":"麦盛莉(耀华店)","lon":"121.4763831","lat":"31.176898854","category":"76","category_name":"上海菜","address":"浦东新区耀华路488号(西营路口)"},{"poiid":"B2094752D365A4FD4993","title":"2062新能源主题公园","lon":"121.480274","lat":"31.182386","category":"250","category_name":"公园户外","address":"世博园C片区"},{"poiid":"B2094753D768A2FF469F","title":"小辉哥火锅（乐城店）","lon":"121.47583","lat":"31.182259","category":"247","category_name":"餐饮美食","address":"上海市徐汇区中山南二路699号2栋304—305"},{"poiid":"B2094757D06FA4F54299","title":"世博园七号门","lon":"121.484425477","lat":"31.1802093305","category":"680","category_name":"楼宇机构","address":"上海世博园七号门长清北路出入口"},{"poiid":"B2094752DB6AA0FB469A","title":"上海海之宝体育运动中心","lon":"121.4775055492","lat":"31.179249091782","category":"230","category_name":"足球场","address":"上海浦东新区国展路410号（近上钢路）"},{"poiid":"B2094757D66BA3F54999","title":"伊诺咖啡 沙特馆店","lon":"121.486153","lat":"31.1839423","category":"260","category_name":"其他","address":"浦东新区博成路1221号沙特馆旁(近中国馆)"},{"poiid":"B2094654DA6DA4FA429B","title":"紫荆新苑","lon":"121.47836","lat":"31.192335","category":"47","category_name":"住宅区","address":"紫荆新苑位于卢湾鲁班路797号"},{"poiid":"B2094750D365A3FB489B","title":"上海意大利中心","lon":"121.47582388308","lat":"31.183763362212","category":"646","category_name":"文化体育类公司","address":"浦东新区世博大道2095号(近塘子泾路)"},{"poiid":"B2094757D069A3FE4292","title":"龙腾大道南滨江","lon":"121.47991373","lat":"31.180792247","category":"260","category_name":"其他","address":"上海市徐汇区龙腾大道"},{"poiid":"B2094757D16FABF84098","title":"新世纪花苑三期","lon":"121.48117573","lat":"31.175086125","category":"47","category_name":"住宅区","address":"上海市杨浦区杭州路66弄"},{"poiid":"B2094750DB64A5FE459B","title":"Rose Queen Coffee","lon":"121.47404","lat":"31.19128","category":"260","category_name":"其他","address":"卢湾区打浦路688号(近江滨路)"},{"poiid":"B2094655D26BA0FA409C","title":"中心广场(意大利馆东)","lon":"121.47659","lat":"31.18368","category":"201","category_name":"城市广场","address":"上海世博园区"},{"poiid":"B2094751DA64A2FE439C","title":"North北纬30度创意料理店","lon":"121.487203","lat":"31.190138","category":"247","category_name":"餐饮美食","address":"浦东新区世博大道"},{"poiid":"B2094752D265A6FB429E","title":"世博源","lon":"121.487263","lat":"31.189585","category":"247","category_name":"餐饮美食","address":"世博大道1368号"},{"poiid":"B2094655D265A1FF4699","title":"中心广场(波兰馆东)","lon":"121.48181","lat":"31.18467","category":"201","category_name":"城市广场","address":"上海世博园区"},{"poiid":"B2094750D26DA6FC4498","title":"历城路夜排档","lon":"121.483647","lat":"31.183592","category":"247","category_name":"餐饮美食","address":"历城路昌里路"},{"poiid":"B2094757D068A6FB459C","title":"世博会墨西哥馆","lon":"121.47791","lat":"31.17884","category":"260","category_name":"其他","address":"上海浦东新区国展路近上钢路(原上海世博会C片区)"},{"poiid":"B2094757DB6FA5FE489B","title":"地铁9号线徐家汇站","lon":"121.4773750945231","lat":"31.18166830842563","category":"500","category_name":"未知分类","address":"徐家汇"},{"poiid":"B2094655D265A1FF4793","title":"丰收日","lon":"121.47794","lat":"31.18171","category":"257","category_name":"中餐厅","address":"上海世博园区"},{"poiid":"B2094753D46AA7F84198","title":"上海虹桥火车站","lon":"121.481086","lat":"31.185646","category":"500","category_name":"未知分类","address":"上海市 上海虹桥火车站"},{"poiid":"B2094655D36DA2F94593","title":"打浦路隧道","lon":"121.47834","lat":"31.18261","category":"250","category_name":"公园户外","address":""},{"poiid":"B2094757D66DABF5419A","title":"世博大道长清北路","lon":"121.48126943","lat":"31.185527282","category":"500","category_name":"未知分类","address":"上海世博大道长清北路"},{"poiid":"B2094752D76CA3FE449F","title":"中国婚博会","lon":"121.483647","lat":"31.183592","category":"627","category_name":"一般地点标志","address":"上海世博展览馆"},{"poiid":"B2094757D06FA6FD4798","title":"Porterhouse爱尔兰酒吧","lon":"121.482203554","lat":"31.1844455537","category":"172","category_name":"酒吧","address":"上海世博园C区内"},{"poiid":"B2094655D26BAAFD469F","title":"德中同行之家","lon":"121.47682","lat":"31.18237","category":"183","category_name":"展览馆","address":"上海世博园区"},{"poiid":"B2094752D46AA7FA4592","title":"昌里路","lon":"121.483647","lat":"31.183592","category":"500","category_name":"未知分类","address":null},{"poiid":"B2094757D069A2F9429A","title":"786路公交","lon":"121.47825758","lat":"31.188280152","category":"38","category_name":"公交车站","address":"上海文化广场—南码头路昌里东路"},{"poiid":"B2094757D06FA3FE4693","title":"世博会法国馆","lon":"121.47908","lat":"31.18468","category":"260","category_name":"其他","address":"上海浦东新区世博大道塘子泾路口(原上海世博会C片区)"},{"poiid":"B2094753D46BAAFD4398","title":"海之宝足球场","lon":"121.478721","lat":"31.179347","category":"220","category_name":"运动场所","address":"上海市 国展路401号"},{"poiid":"B2094757D06EAAF4409D","title":"世博公园","lon":"121.48693171","lat":"31.18741865","category":"196","category_name":"公园","address":"浦东新区浦东世博园B片区世博大道北侧"},{"poiid":"B2094655D36DA6FF499E","title":"上海影城--世博国际影城","lon":"121.48736","lat":"31.18564","category":"178","category_name":"电影院","address":"上海市浦东新区世博大道1200号世博文化中心6楼(梅赛德斯-奔驰文化中心)"},{"poiid":"B2094750D36BA7FC409B","title":"梅赛德斯-奔驰文化中心 Mercedes-Benz Arena","lon":"121.493168","lat":"31.190006","category":"646","category_name":"文化体育类公司","address":"浦东新区世博大道1200号(近上南路)"},{"poiid":"B2094757D06FAAFE419F","title":"后滩公园","lon":"121.4758535","lat":"31.184998305","category":"196","category_name":"公园","address":"上海浦东新区世博会园B片区"},{"poiid":"B2094752D264A0FC479C","title":"巧克力开心乐园","lon":"121.475159","lat":"31.181213","category":"248","category_name":"生活娱乐","address":"博成路100号"},{"poiid":"B2094757D06FA3FE4493","title":"上海世博中心","lon":"121.489342559","lat":"31.1860505323","category":"260","category_name":"其他","address":"上海浦东新区世博大道1500号"},{"poiid":"B2094655D26EA7F84093","title":"卢浦大桥","lon":"121.48255","lat":"31.18603","category":"250","category_name":"公园户外","address":"卢湾区鲁班路909号"},{"poiid":"B2094757D06FA3F8479F","title":"世博会意大利馆","lon":"121.47576","lat":"31.1841","category":"260","category_name":"其他","address":"上海浦东新区世博大道上钢路口(原上海世博会C片区)"},{"poiid":"B2094757D06FA2FA449D","title":"上海世博会博物馆 - 上海世博会纪念展","lon":"121.48130635","lat":"31.1936099525","category":"182","category_name":"博物馆","address":"卢湾区局门路原世博会城市足迹馆内(近龙华东路)"},{"poiid":"B2094757D06EABF54893","title":"星巴克 STARBUCKS (世博演艺中心店)","lon":"121.4896985","lat":"31.1858498","category":"260","category_name":"其他","address":"浦东新区世博大道1200号世博演艺中心L111商铺"},{"poiid":"B2094757D06FA0FA499E","title":"世博会非洲联合馆","lon":"121.47401428","lat":"31.182336807","category":"260","category_name":"其他","address":"上海浦东新区博成路上钢路口(原上海世博会C片区)"},{"poiid":"B2094751D564A0FF429F","title":"王鼎铁板烧精致店","lon":"121.48745","lat":"31.190852","category":"500","category_name":"未知分类","address":"世博大道1368号1LM0304"},{"poiid":"B2094757D06FA5F8499C","title":"宝钢大舞台","lon":"121.484091043","lat":"31.1868936206","category":"260","category_name":"其他","address":"上海浦东新区世博公园"},{"poiid":"B2094757D06AA3F9449C","title":"江滨路观江平台～","lon":"121.47499573","lat":"31.192089987","category":"500","category_name":"未知分类","address":"上海卢湾区"},{"poiid":"B2094757D56DAAFD4998","title":"冰星飞扬（世博）羽毛球馆","lon":"121.47396326065063","lat":"31.180634737769793","category":"248","category_name":"生活娱乐","address":"浦东新区后滩路139号(近国展路)"},{"poiid":"B2094752D26EA5F8479E","title":"世博希腊馆","lon":"121.477208","lat":"31.185743","category":"500","category_name":"未知分类","address":null},{"poiid":"B2094751DA6BA0F44893","title":"斗牛士（世博轴店）","lon":"121.487263","lat":"31.189611","category":"247","category_name":"餐饮美食","address":"浦东新区世博大道1368号世博源B1楼G09-10号铺(近上南路)"},{"poiid":"B2094757D068A1FF4598","title":"红宝石(昌里路店)","lon":"121.48631391","lat":"31.177169422","category":"67","category_name":"甜品店","address":"浦东新区昌里路347号(近长清路)"},{"poiid":"B2094752D06DA3F9459D","title":"飞行家主题园","lon":"121.475925","lat":"31.180498","category":"250","category_name":"公园户外","address":"上海市浦东新区国展路311号"},{"poiid":"B2094654DA6DA4FA419D","title":"卢湾城市花园","lon":"121.4775","lat":"31.19385","category":"47","category_name":"住宅区","address":"上海市卢湾区鲁班路738弄"},{"poiid":"B2094752DA69A1F5449B","title":"博大汽车公园","lon":"121.472341","lat":"31.179505","category":"500","category_name":"未知分类","address":"上海市 国展路189号"},{"poiid":"B2094757D06FAAF4429D","title":"麦盛莉(耀华店)","lon":"121.4763831","lat":"31.176898854","category":"76","category_name":"上海菜","address":"浦东新区耀华路488号(西营路口)"},{"poiid":"B2094752D365A4FD4993","title":"2062新能源主题公园","lon":"121.480274","lat":"31.182386","category":"250","category_name":"公园户外","address":"世博园C片区"},{"poiid":"B2094753D768A2FF469F","title":"小辉哥火锅（乐城店）","lon":"121.47583","lat":"31.182259","category":"247","category_name":"餐饮美食","address":"上海市徐汇区中山南二路699号2栋304—305"},{"poiid":"B2094757D06FA4F54299","title":"世博园七号门","lon":"121.484425477","lat":"31.1802093305","category":"680","category_name":"楼宇机构","address":"上海世博园七号门长清北路出入口"},{"poiid":"B2094752DB6AA0FB469A","title":"上海海之宝体育运动中心","lon":"121.4775055492","lat":"31.179249091782","category":"230","category_name":"足球场","address":"上海浦东新区国展路410号（近上钢路）"},{"poiid":"B2094757D66BA3F54999","title":"伊诺咖啡 沙特馆店","lon":"121.486153","lat":"31.1839423","category":"260","category_name":"其他","address":"浦东新区博成路1221号沙特馆旁(近中国馆)"},{"poiid":"B2094654DA6DA4FA429B","title":"紫荆新苑","lon":"121.47836","lat":"31.192335","category":"47","category_name":"住宅区","address":"紫荆新苑位于卢湾鲁班路797号"},{"poiid":"B2094750D365A3FB489B","title":"上海意大利中心","lon":"121.47582388308","lat":"31.183763362212","category":"646","category_name":"文化体育类公司","address":"浦东新区世博大道2095号(近塘子泾路)"},{"poiid":"B2094757D069A3FE4292","title":"龙腾大道南滨江","lon":"121.47991373","lat":"31.180792247","category":"260","category_name":"其他","address":"上海市徐汇区龙腾大道"},{"poiid":"B2094757D16FABF84098","title":"新世纪花苑三期","lon":"121.48117573","lat":"31.175086125","category":"47","category_name":"住宅区","address":"上海市杨浦区杭州路66弄"},{"poiid":"B2094750DB64A5FE459B","title":"Rose Queen Coffee","lon":"121.47404","lat":"31.19128","category":"260","category_name":"其他","address":"卢湾区打浦路688号(近江滨路)"},{"poiid":"B2094655D26BA0FA409C","title":"中心广场(意大利馆东)","lon":"121.47659","lat":"31.18368","category":"201","category_name":"城市广场","address":"上海世博园区"},{"poiid":"B2094751DA64A2FE439C","title":"North北纬30度创意料理店","lon":"121.487203","lat":"31.190138","category":"247","category_name":"餐饮美食","address":"浦东新区世博大道"},{"poiid":"B2094752D265A6FB429E","title":"世博源","lon":"121.487263","lat":"31.189585","category":"247","category_name":"餐饮美食","address":"世博大道1368号"},{"poiid":"B2094655D265A1FF4699","title":"中心广场(波兰馆东)","lon":"121.48181","lat":"31.18467","category":"201","category_name":"城市广场","address":"上海世博园区"},{"poiid":"B2094750D26DA6FC4498","title":"历城路夜排档","lon":"121.483647","lat":"31.183592","category":"247","category_name":"餐饮美食","address":"历城路昌里路"},{"poiid":"B2094757D068A6FB459C","title":"世博会墨西哥馆","lon":"121.47791","lat":"31.17884","category":"260","category_name":"其他","address":"上海浦东新区国展路近上钢路(原上海世博会C片区)"},{"poiid":"B2094757DB6FA5FE489B","title":"地铁9号线徐家汇站","lon":"121.4773750945231","lat":"31.18166830842563","category":"500","category_name":"未知分类","address":"徐家汇"},{"poiid":"B2094655D265A1FF4793","title":"丰收日","lon":"121.47794","lat":"31.18171","category":"257","category_name":"中餐厅","address":"上海世博园区"},{"poiid":"B2094753D46AA7F84198","title":"上海虹桥火车站","lon":"121.481086","lat":"31.185646","category":"500","category_name":"未知分类","address":"上海市 上海虹桥火车站"},{"poiid":"B2094655D36DA2F94593","title":"打浦路隧道","lon":"121.47834","lat":"31.18261","category":"250","category_name":"公园户外","address":""},{"poiid":"B2094757D66DABF5419A","title":"世博大道长清北路","lon":"121.48126943","lat":"31.185527282","category":"500","category_name":"未知分类","address":"上海世博大道长清北路"},{"poiid":"B2094752D76CA3FE449F","title":"中国婚博会","lon":"121.483647","lat":"31.183592","category":"627","category_name":"一般地点标志","address":"上海世博展览馆"},{"poiid":"B2094757D06FA6FD4798","title":"Porterhouse爱尔兰酒吧","lon":"121.482203554","lat":"31.1844455537","category":"172","category_name":"酒吧","address":"上海世博园C区内"},{"poiid":"B2094655D26BAAFD469F","title":"德中同行之家","lon":"121.47682","lat":"31.18237","category":"183","category_name":"展览馆","address":"上海世博园区"},{"poiid":"B2094752D46AA7FA4592","title":"昌里路","lon":"121.483647","lat":"31.183592","category":"500","category_name":"未知分类","address":null},{"poiid":"B2094757D069A2F9429A","title":"786路公交","lon":"121.47825758","lat":"31.188280152","category":"38","category_name":"公交车站","address":"上海文化广场—南码头路昌里东路"},{"poiid":"B2094757D06FA3FE4693","title":"世博会法国馆","lon":"121.47908","lat":"31.18468","category":"260","category_name":"其他","address":"上海浦东新区世博大道塘子泾路口(原上海世博会C片区)"},{"poiid":"B2094753D46BAAFD4398","title":"海之宝足球场","lon":"121.478721","lat":"31.179347","category":"220","category_name":"运动场所","address":"上海市 国展路401号"},{"poiid":"B2094757D06EAAF4409D","title":"世博公园","lon":"121.48693171","lat":"31.18741865","category":"196","category_name":"公园","address":"浦东新区浦东世博园B片区世博大道北侧"},{"poiid":"B2094655D36DA6FF499E","title":"上海影城--世博国际影城","lon":"121.48736","lat":"31.18564","category":"178","category_name":"电影院","address":"上海市浦东新区世博大道1200号世博文化中心6楼(梅赛德斯-奔驰文化中心)"},{"poiid":"B2094750D36BA7FC409B","title":"梅赛德斯-奔驰文化中心 Mercedes-Benz Arena","lon":"121.493168","lat":"31.190006","category":"646","category_name":"文化体育类公司","address":"浦东新区世博大道1200号(近上南路)"},{"poiid":"B2094757D06FAAFE419F","title":"后滩公园","lon":"121.4758535","lat":"31.184998305","category":"196","category_name":"公园","address":"上海浦东新区世博会园B片区"},{"poiid":"B2094752D264A0FC479C","title":"巧克力开心乐园","lon":"121.475159","lat":"31.181213","category":"248","category_name":"生活娱乐","address":"博成路100号"},{"poiid":"B2094757D06FA3FE4493","title":"上海世博中心","lon":"121.489342559","lat":"31.1860505323","category":"260","category_name":"其他","address":"上海浦东新区世博大道1500号"},{"poiid":"B2094655D26EA7F84093","title":"卢浦大桥","lon":"121.48255","lat":"31.18603","category":"250","category_name":"公园户外","address":"卢湾区鲁班路909号"},{"poiid":"B2094757D06FA3F8479F","title":"世博会意大利馆","lon":"121.47576","lat":"31.1841","category":"260","category_name":"其他","address":"上海浦东新区世博大道上钢路口(原上海世博会C片区)"},{"poiid":"B2094757D06FA2FA449D","title":"上海世博会博物馆 - 上海世博会纪念展","lon":"121.48130635","lat":"31.1936099525","category":"182","category_name":"博物馆","address":"卢湾区局门路原世博会城市足迹馆内(近龙华东路)"},{"poiid":"B2094757D06EABF54893","title":"星巴克 STARBUCKS (世博演艺中心店)","lon":"121.4896985","lat":"31.1858498","category":"260","category_name":"其他","address":"浦东新区世博大道1200号世博演艺中心L111商铺"},{"poiid":"B2094757D06FA0FA499E","title":"世博会非洲联合馆","lon":"121.47401428","lat":"31.182336807","category":"260","category_name":"其他","address":"上海浦东新区博成路上钢路口(原上海世博会C片区)"},{"poiid":"B2094751D564A0FF429F","title":"王鼎铁板烧精致店","lon":"121.48745","lat":"31.190852","category":"500","category_name":"未知分类","address":"世博大道1368号1LM0304"},{"poiid":"B2094757D06FA5F8499C","title":"宝钢大舞台","lon":"121.484091043","lat":"31.1868936206","category":"260","category_name":"其他","address":"上海浦东新区世博公园"},{"poiid":"B2094757D06AA3F9449C","title":"江滨路观江平台～","lon":"121.47499573","lat":"31.192089987","category":"500","category_name":"未知分类","address":"上海卢湾区"},{"poiid":"B2094757D56DAAFD4998","title":"冰星飞扬（世博）羽毛球馆","lon":"121.47396326065063","lat":"31.180634737769793","category":"248","category_name":"生活娱乐","address":"浦东新区后滩路139号(近国展路)"},{"poiid":"B2094752D26EA5F8479E","title":"世博希腊馆","lon":"121.477208","lat":"31.185743","category":"500","category_name":"未知分类","address":null},{"poiid":"B2094751DA6BA0F44893","title":"斗牛士（世博轴店）","lon":"121.487263","lat":"31.189611","category":"247","category_name":"餐饮美食","address":"浦东新区世博大道1368号世博源B1楼G09-10号铺(近上南路)"},{"poiid":"B2094757D068A1FF4598","title":"红宝石(昌里路店)","lon":"121.48631391","lat":"31.177169422","category":"67","category_name":"甜品店","address":"浦东新区昌里路347号(近长清路)"},{"poiid":"B2094752D06DA3F9459D","title":"飞行家主题园","lon":"121.475925","lat":"31.180498","category":"250","category_name":"公园户外","address":"上海市浦东新区国展路311号"},{"poiid":"B2094654DA6DA4FA419D","title":"卢湾城市花园","lon":"121.4775","lat":"31.19385","category":"47","category_name":"住宅区","address":"上海市卢湾区鲁班路738弄"},{"poiid":"B2094752DA69A1F5449B","title":"博大汽车公园","lon":"121.472341","lat":"31.179505","category":"500","category_name":"未知分类","address":"上海市 国展路189号"},{"poiid":"B2094757D06FAAF4429D","title":"麦盛莉(耀华店)","lon":"121.4763831","lat":"31.176898854","category":"76","category_name":"上海菜","address":"浦东新区耀华路488号(西营路口)"},{"poiid":"B2094752D365A4FD4993","title":"2062新能源主题公园","lon":"121.480274","lat":"31.182386","category":"250","category_name":"公园户外","address":"世博园C片区"},{"poiid":"B2094753D768A2FF469F","title":"小辉哥火锅（乐城店）","lon":"121.47583","lat":"31.182259","category":"247","category_name":"餐饮美食","address":"上海市徐汇区中山南二路699号2栋304—305"},{"poiid":"B2094757D06FA4F54299","title":"世博园七号门","lon":"121.484425477","lat":"31.1802093305","category":"680","category_name":"楼宇机构","address":"上海世博园七号门长清北路出入口"},{"poiid":"B2094752DB6AA0FB469A","title":"上海海之宝体育运动中心","lon":"121.4775055492","lat":"31.179249091782","category":"230","category_name":"足球场","address":"上海浦东新区国展路410号（近上钢路）"},{"poiid":"B2094757D66BA3F54999","title":"伊诺咖啡 沙特馆店","lon":"121.486153","lat":"31.1839423","category":"260","category_name":"其他","address":"浦东新区博成路1221号沙特馆旁(近中国馆)"},{"poiid":"B2094654DA6DA4FA429B","title":"紫荆新苑","lon":"121.47836","lat":"31.192335","category":"47","category_name":"住宅区","address":"紫荆新苑位于卢湾鲁班路797号"},{"poiid":"B2094750D365A3FB489B","title":"上海意大利中心","lon":"121.47582388308","lat":"31.183763362212","category":"646","category_name":"文化体育类公司","address":"浦东新区世博大道2095号(近塘子泾路)"},{"poiid":"B2094757D069A3FE4292","title":"龙腾大道南滨江","lon":"121.47991373","lat":"31.180792247","category":"260","category_name":"其他","address":"上海市徐汇区龙腾大道"},{"poiid":"B2094757D16FABF84098","title":"新世纪花苑三期","lon":"121.48117573","lat":"31.175086125","category":"47","category_name":"住宅区","address":"上海市杨浦区杭州路66弄"},{"poiid":"B2094750DB64A5FE459B","title":"Rose Queen Coffee","lon":"121.47404","lat":"31.19128","category":"260","category_name":"其他","address":"卢湾区打浦路688号(近江滨路)"},{"poiid":"B2094655D26BA0FA409C","title":"中心广场(意大利馆东)","lon":"121.47659","lat":"31.18368","category":"201","category_name":"城市广场","address":"上海世博园区"},{"poiid":"B2094751DA64A2FE439C","title":"North北纬30度创意料理店","lon":"121.487203","lat":"31.190138","category":"247","category_name":"餐饮美食","address":"浦东新区世博大道"},{"poiid":"B2094752D265A6FB429E","title":"世博源","lon":"121.487263","lat":"31.189585","category":"247","category_name":"餐饮美食","address":"世博大道1368号"},{"poiid":"B2094655D265A1FF4699","title":"中心广场(波兰馆东)","lon":"121.48181","lat":"31.18467","category":"201","category_name":"城市广场","address":"上海世博园区"},{"poiid":"B2094750D26DA6FC4498","title":"历城路夜排档","lon":"121.483647","lat":"31.183592","category":"247","category_name":"餐饮美食","address":"历城路昌里路"},{"poiid":"B2094757D068A6FB459C","title":"世博会墨西哥馆","lon":"121.47791","lat":"31.17884","category":"260","category_name":"其他","address":"上海浦东新区国展路近上钢路(原上海世博会C片区)"},{"poiid":"B2094757DB6FA5FE489B","title":"地铁9号线徐家汇站","lon":"121.4773750945231","lat":"31.18166830842563","category":"500","category_name":"未知分类","address":"徐家汇"},{"poiid":"B2094655D265A1FF4793","title":"丰收日","lon":"121.47794","lat":"31.18171","category":"257","category_name":"中餐厅","address":"上海世博园区"},{"poiid":"B2094753D46AA7F84198","title":"上海虹桥火车站","lon":"121.481086","lat":"31.185646","category":"500","category_name":"未知分类","address":"上海市 上海虹桥火车站"},{"poiid":"B2094655D36DA2F94593","title":"打浦路隧道","lon":"121.47834","lat":"31.18261","category":"250","category_name":"公园户外","address":""},{"poiid":"B2094757D66DABF5419A","title":"世博大道长清北路","lon":"121.48126943","lat":"31.185527282","category":"500","category_name":"未知分类","address":"上海世博大道长清北路"},{"poiid":"B2094752D76CA3FE449F","title":"中国婚博会","lon":"121.483647","lat":"31.183592","category":"627","category_name":"一般地点标志","address":"上海世博展览馆"},{"poiid":"B2094757D06FA6FD4798","title":"Porterhouse爱尔兰酒吧","lon":"121.482203554","lat":"31.1844455537","category":"172","category_name":"酒吧","address":"上海世博园C区内"},{"poiid":"B2094655D26BAAFD469F","title":"德中同行之家","lon":"121.47682","lat":"31.18237","category":"183","category_name":"展览馆","address":"上海世博园区"},{"poiid":"B2094752D46AA7FA4592","title":"昌里路","lon":"121.483647","lat":"31.183592","category":"500","category_name":"未知分类","address":null},{"poiid":"B2094757D069A2F9429A","title":"786路公交","lon":"121.47825758","lat":"31.188280152","category":"38","category_name":"公交车站","address":"上海文化广场—南码头路昌里东路"},{"poiid":"B2094757D06FA3FE4693","title":"世博会法国馆","lon":"121.47908","lat":"31.18468","category":"260","category_name":"其他","address":"上海浦东新区世博大道塘子泾路口(原上海世博会C片区)"},{"poiid":"B2094753D46BAAFD4398","title":"海之宝足球场","lon":"121.478721","lat":"31.179347","category":"220","category_name":"运动场所","address":"上海市 国展路401号"},{"poiid":"B2094757D06EAAF4409D","title":"世博公园","lon":"121.48693171","lat":"31.18741865","category":"196","category_name":"公园","address":"浦东新区浦东世博园B片区世博大道北侧"},{"poiid":"B2094655D36DA6FF499E","title":"上海影城--世博国际影城","lon":"121.48736","lat":"31.18564","category":"178","category_name":"电影院","address":"上海市浦东新区世博大道1200号世博文化中心6楼(梅赛德斯-奔驰文化中心)"},{"poiid":"B2094750D36BA7FC409B","title":"梅赛德斯-奔驰文化中心 Mercedes-Benz Arena","lon":"121.493168","lat":"31.190006","category":"646","category_name":"文化体育类公司","address":"浦东新区世博大道1200号(近上南路)"},{"poiid":"B2094757D06FAAFE419F","title":"后滩公园","lon":"121.4758535","lat":"31.184998305","category":"196","category_name":"公园","address":"上海浦东新区世博会园B片区"},{"poiid":"B2094752D264A0FC479C","title":"巧克力开心乐园","lon":"121.475159","lat":"31.181213","category":"248","category_name":"生活娱乐","address":"博成路100号"},{"poiid":"B2094757D06FA3FE4493","title":"上海世博中心","lon":"121.489342559","lat":"31.1860505323","category":"260","category_name":"其他","address":"上海浦东新区世博大道1500号"},{"poiid":"B2094655D26EA7F84093","title":"卢浦大桥","lon":"121.48255","lat":"31.18603","category":"250","category_name":"公园户外","address":"卢湾区鲁班路909号"},{"poiid":"B2094757D06FA3F8479F","title":"世博会意大利馆","lon":"121.47576","lat":"31.1841","category":"260","category_name":"其他","address":"上海浦东新区世博大道上钢路口(原上海世博会C片区)"},{"poiid":"B2094757D06FA2FA449D","title":"上海世博会博物馆 - 上海世博会纪念展","lon":"121.48130635","lat":"31.1936099525","category":"182","category_name":"博物馆","address":"卢湾区局门路原世博会城市足迹馆内(近龙华东路)"},{"poiid":"B2094757D06EABF54893","title":"星巴克 STARBUCKS (世博演艺中心店)","lon":"121.4896985","lat":"31.1858498","category":"260","category_name":"其他","address":"浦东新区世博大道1200号世博演艺中心L111商铺"},{"poiid":"B2094757D06FA0FA499E","title":"世博会非洲联合馆","lon":"121.47401428","lat":"31.182336807","category":"260","category_name":"其他","address":"上海浦东新区博成路上钢路口(原上海世博会C片区)"},{"poiid":"B2094751D564A0FF429F","title":"王鼎铁板烧精致店","lon":"121.48745","lat":"31.190852","category":"500","category_name":"未知分类","address":"世博大道1368号1LM0304"},{"poiid":"B2094757D06FA5F8499C","title":"宝钢大舞台","lon":"121.484091043","lat":"31.1868936206","category":"260","category_name":"其他","address":"上海浦东新区世博公园"},{"poiid":"B2094757D06AA3F9449C","title":"江滨路观江平台～","lon":"121.47499573","lat":"31.192089987","category":"500","category_name":"未知分类","address":"上海卢湾区"},{"poiid":"B2094757D56DAAFD4998","title":"冰星飞扬（世博）羽毛球馆","lon":"121.47396326065063","lat":"31.180634737769793","category":"248","category_name":"生活娱乐","address":"浦东新区后滩路139号(近国展路)"},{"poiid":"B2094752D26EA5F8479E","title":"世博希腊馆","lon":"121.477208","lat":"31.185743","category":"500","category_name":"未知分类","address":null},{"poiid":"B2094751DA6BA0F44893","title":"斗牛士（世博轴店）","lon":"121.487263","lat":"31.189611","category":"247","category_name":"餐饮美食","address":"浦东新区世博大道1368号世博源B1楼G09-10号铺(近上南路)"},{"poiid":"B2094757D068A1FF4598","title":"红宝石(昌里路店)","lon":"121.48631391","lat":"31.177169422","category":"67","category_name":"甜品店","address":"浦东新区昌里路347号(近长清路)"},{"poiid":"B2094752D06DA3F9459D","title":"飞行家主题园","lon":"121.475925","lat":"31.180498","category":"250","category_name":"公园户外","address":"上海市浦东新区国展路311号"},{"poiid":"B2094654DA6DA4FA419D","title":"卢湾城市花园","lon":"121.4775","lat":"31.19385","category":"47","category_name":"住宅区","address":"上海市卢湾区鲁班路738弄"},{"poiid":"B2094752DA69A1F5449B","title":"博大汽车公园","lon":"121.472341","lat":"31.179505","category":"500","category_name":"未知分类","address":"上海市 国展路189号"},{"poiid":"B2094757D06FAAF4429D","title":"麦盛莉(耀华店)","lon":"121.4763831","lat":"31.176898854","category":"76","category_name":"上海菜","address":"浦东新区耀华路488号(西营路口)"},{"poiid":"B2094752D365A4FD4993","title":"2062新能源主题公园","lon":"121.480274","lat":"31.182386","category":"250","category_name":"公园户外","address":"世博园C片区"},{"poiid":"B2094753D768A2FF469F","title":"小辉哥火锅（乐城店）","lon":"121.47583","lat":"31.182259","category":"247","category_name":"餐饮美食","address":"上海市徐汇区中山南二路699号2栋304—305"},{"poiid":"B2094757D06FA4F54299","title":"世博园七号门","lon":"121.484425477","lat":"31.1802093305","category":"680","category_name":"楼宇机构","address":"上海世博园七号门长清北路出入口"},{"poiid":"B2094752DB6AA0FB469A","title":"上海海之宝体育运动中心","lon":"121.4775055492","lat":"31.179249091782","category":"230","category_name":"足球场","address":"上海浦东新区国展路410号（近上钢路）"},{"poiid":"B2094757D66BA3F54999","title":"伊诺咖啡 沙特馆店","lon":"121.486153","lat":"31.1839423","category":"260","category_name":"其他","address":"浦东新区博成路1221号沙特馆旁(近中国馆)"},{"poiid":"B2094654DA6DA4FA429B","title":"紫荆新苑","lon":"121.47836","lat":"31.192335","category":"47","category_name":"住宅区","address":"紫荆新苑位于卢湾鲁班路797号"},{"poiid":"B2094750D365A3FB489B","title":"上海意大利中心","lon":"121.47582388308","lat":"31.183763362212","category":"646","category_name":"文化体育类公司","address":"浦东新区世博大道2095号(近塘子泾路)"},{"poiid":"B2094757D069A3FE4292","title":"龙腾大道南滨江","lon":"121.47991373","lat":"31.180792247","category":"260","category_name":"其他","address":"上海市徐汇区龙腾大道"},{"poiid":"B2094757D16FABF84098","title":"新世纪花苑三期","lon":"121.48117573","lat":"31.175086125","category":"47","category_name":"住宅区","address":"上海市杨浦区杭州路66弄"},{"poiid":"B2094750DB64A5FE459B","title":"Rose Queen Coffee","lon":"121.47404","lat":"31.19128","category":"260","category_name":"其他","address":"卢湾区打浦路688号(近江滨路)"},{"poiid":"B2094655D26BA0FA409C","title":"中心广场(意大利馆东)","lon":"121.47659","lat":"31.18368","category":"201","category_name":"城市广场","address":"上海世博园区"},{"poiid":"B2094751DA64A2FE439C","title":"North北纬30度创意料理店","lon":"121.487203","lat":"31.190138","category":"247","category_name":"餐饮美食","address":"浦东新区世博大道"},{"poiid":"B2094752D265A6FB429E","title":"世博源","lon":"121.487263","lat":"31.189585","category":"247","category_name":"餐饮美食","address":"世博大道1368号"},{"poiid":"B2094655D265A1FF4699","title":"中心广场(波兰馆东)","lon":"121.48181","lat":"31.18467","category":"201","category_name":"城市广场","address":"上海世博园区"},{"poiid":"B2094750D26DA6FC4498","title":"历城路夜排档","lon":"121.483647","lat":"31.183592","category":"247","category_name":"餐饮美食","address":"历城路昌里路"},{"poiid":"B2094757D068A6FB459C","title":"世博会墨西哥馆","lon":"121.47791","lat":"31.17884","category":"260","category_name":"其他","address":"上海浦东新区国展路近上钢路(原上海世博会C片区)"},{"poiid":"B2094757DB6FA5FE489B","title":"地铁9号线徐家汇站","lon":"121.4773750945231","lat":"31.18166830842563","category":"500","category_name":"未知分类","address":"徐家汇"},{"poiid":"B2094655D265A1FF4793","title":"丰收日","lon":"121.47794","lat":"31.18171","category":"257","category_name":"中餐厅","address":"上海世博园区"},{"poiid":"B2094753D46AA7F84198","title":"上海虹桥火车站","lon":"121.481086","lat":"31.185646","category":"500","category_name":"未知分类","address":"上海市 上海虹桥火车站"},{"poiid":"B2094655D36DA2F94593","title":"打浦路隧道","lon":"121.47834","lat":"31.18261","category":"250","category_name":"公园户外","address":""},{"poiid":"B2094757D66DABF5419A","title":"世博大道长清北路","lon":"121.48126943","lat":"31.185527282","category":"500","category_name":"未知分类","address":"上海世博大道长清北路"},{"poiid":"B2094752D76CA3FE449F","title":"中国婚博会","lon":"121.483647","lat":"31.183592","category":"627","category_name":"一般地点标志","address":"上海世博展览馆"},{"poiid":"B2094757D06FA6FD4798","title":"Porterhouse爱尔兰酒吧","lon":"121.482203554","lat":"31.1844455537","category":"172","category_name":"酒吧","address":"上海世博园C区内"},{"poiid":"B2094655D26BAAFD469F","title":"德中同行之家","lon":"121.47682","lat":"31.18237","category":"183","category_name":"展览馆","address":"上海世博园区"},{"poiid":"B2094752D46AA7FA4592","title":"昌里路","lon":"121.483647","lat":"31.183592","category":"500","category_name":"未知分类","address":null},{"poiid":"B2094757D069A2F9429A","title":"786路公交","lon":"121.47825758","lat":"31.188280152","category":"38","category_name":"公交车站","address":"上海文化广场—南码头路昌里东路"},{"poiid":"B2094757D06FA3FE4693","title":"世博会法国馆","lon":"121.47908","lat":"31.18468","category":"260","category_name":"其他","address":"上海浦东新区世博大道塘子泾路口(原上海世博会C片区)"},{"poiid":"B2094753D46BAAFD4398","title":"海之宝足球场","lon":"121.478721","lat":"31.179347","category":"220","category_name":"运动场所","address":"上海市 国展路401号"}]