[{"poiid":"B2094757D06FA6FE489A","title":"浦东张江高科软件园","lon":"121.6044558","lat":"31.1999323","category":"500","category_name":"未知分类","address":"上海博霞路11号"},{"poiid":"B2094757D06EAAFE489D","title":"金科路地铁站","lon":"121.60199942","lat":"31.204334926","category":"36","category_name":"地铁站","address":"上海轨道交通,二号线,轨交金科路站,2"},{"poiid":"B2094757D069A4F4489E","title":"台北有间牛排馆","lon":"121.61252","lat":"31.20133","category":"91","category_name":"台湾菜","address":"浦东新区张江镇建中路290号(近高斯路)"},{"poiid":"B2094757D06FA7FE459D","title":"SAP Labs China","lon":"121.60177497","lat":"31.201272383","category":"46","category_name":"楼宇","address":"上海浦东新区张江软件园晨晖路1001号"},{"poiid":"B2094757D06FA3F9469D","title":"星巴克(蔡伦路店)","lon":"121.606942","lat":"31.193842","category":"260","category_name":"其他","address":"浦东新区蔡伦路780号1楼"},{"poiid":"B2094757D068A0F94098","title":"紫薇公园","lon":"121.61446866","lat":"31.200783664","category":"196","category_name":"公园","address":"浦东新区紫薇路60号(近古桐南路)"},{"poiid":"B2094757D06FA6F84398","title":"浦软大厦","lon":"121.60386555","lat":"31.202420875","category":"46","category_name":"楼宇","address":"上海博云路2号"},{"poiid":"B2094757D068A2FD449D","title":"张江药谷","lon":"121.606046","lat":"31.193313","category":"500","category_name":"未知分类","address":"上海蔡伦路哈雷路"},{"poiid":"B2094655D36DA7FB449F","title":"祖冲之路张江路","lon":"121.61147","lat":"31.20692","category":"38","category_name":"公交车站","address":""},{"poiid":"B2094757D068A0FE479D","title":"霍尼韦尔(中国)有限公司","lon":"121.61346859","lat":"31.1958801994","category":"263","category_name":"公司","address":"上海市浦东新区张江高科技园区李冰路430号"},{"poiid":"B2094757D16DA3F9419E","title":"浦东机场一楼(机场四线)","lon":"121.60590455","lat":"31.206038928","category":"21","category_name":"飞机场","address":"上海T1首站"},{"poiid":"B2094757D06FA1FB4098","title":"COSTA COFFEE(张江店)","lon":"121.6057431","lat":"31.2029256","category":"65","category_name":"咖啡厅","address":"浦东新区博云路2号浦软大厦1楼104区"},{"poiid":"B2094750D464A3FB4693","title":"阿斯利康张江园区","lon":"121.60511","lat":"31.204441","category":"263","category_name":"公司","address":"亮景路199号"},{"poiid":"B2094655D36CA6FD499A","title":"高斯路建中路","lon":"121.61114","lat":"31.2016","category":"38","category_name":"公交车站","address":""},{"poiid":"B2094757DB6EA5F8409D","title":"风波庄","lon":"121.6108208680295","lat":"31.20195413547734","category":"247","category_name":"餐饮美食","address":"浦东新区高斯路1268号(近古桐南路)"},{"poiid":"B2094757DB68A4F8479A","title":"川香1号","lon":"121.61487579346","lat":"31.199899374106","category":"71","category_name":"四川菜","address":"浦东新区高斯路1112-1116号(近紫薇路)"},{"poiid":"B2094757D069A3F4469A","title":"IRIS甜品店","lon":"121.6029567","lat":"31.200627598","category":"67","category_name":"甜品店","address":"浦东新区博霞路21号罗森便利后侧(近盛大文学)"},{"poiid":"B2094654DB64A3FA4199","title":"上海宏力半导体制造有限公司","lon":"121.60787","lat":"31.20683","category":"263","category_name":"公司","address":"哈雷路501"},{"poiid":"B2094750D76FA2FA479F","title":"潘朵拉城市行动咖啡店(张江二店)","lon":"121.607","lat":"31.2007","category":"113","category_name":"冷饮店","address":"浦东新区亮秀路112号Y2-106室(近晨辉路)"},{"poiid":"B2094750DA6FA2F44099","title":"SLATE岩石","lon":"121.602778","lat":"31.201933","category":"94","category_name":"西餐厅","address":"浦东新区博霞路22号软件园三期1楼"},{"poiid":"B2094757D065A7F4459E","title":"湘音土菜馆","lon":"121.612984049","lat":"31.1993806399","category":"77","category_name":"湖南菜","address":"浦东新区紫薇路8号(近高斯路)"},{"poiid":"B2094750D768A4FC4993","title":"老北京羊蝎子涮锅","lon":"121.612","lat":"31.2016","category":"86","category_name":"火锅店","address":"浦东新区建中路286号"},{"poiid":"B2094757D664A4FF4693","title":"兴庆红","lon":"121.61369882592","lat":"31.203151794114","category":"84","category_name":"西北菜","address":"浦东新区建中路280号(近高斯路)"},{"poiid":"B2094757D06AA6F5489B","title":"The Corner","lon":"121.61320641","lat":"31.199833896","category":"500","category_name":"未知分类","address":"上海高斯路1070号(紫薇路口)"},{"poiid":"B2094757D164AAFE4798","title":"55路邮电新村站","lon":"121.607564975","lat":"31.1995283427","category":"38","category_name":"公交车站","address":"上海曲阳路四平路口"},{"poiid":"B2094757D064A7FE4799","title":"Honeywell 霍尼韦尔(中国)","lon":"121.614191","lat":"31.196908","category":"46","category_name":"楼宇","address":"上海李冰路430号"},{"poiid":"B2094757D16DA1FB4398","title":"满香饺子","lon":"121.613726054","lat":"31.200214793","category":"68","category_name":"快餐厅","address":"浦东新区高斯路1060号(紫薇路口)"},{"poiid":"B2094757D06AA5F94693","title":"帝斯曼中国园区","lon":"121.60405731","lat":"31.194208145","category":"500","category_name":"未知分类","address":"上海李冰路476号"},{"poiid":"B2094655D36CA1FB4992","title":"李冰路爱迪生路","lon":"121.60796","lat":"31.19583","category":"38","category_name":"公交车站","address":""},{"poiid":"B2094757D66FA3FC4092","title":"老鸿翔苏州汤包馆","lon":"121.60846477","lat":"31.201613591","category":"247","category_name":"餐饮美食","address":"上海张江镇贝越菜场边上"},{"poiid":"B2094655D36DA6FD4798","title":"金科路","lon":"121.60198","lat":"31.20435","category":"38","category_name":"公交车站","address":"上海市浦东新区高科中路1176号(哈雷路口)"},{"poiid":"B2094757D66CA7FE409D","title":"亮秀路112号C2座","lon":"121.60796497","lat":"31.199208335","category":"500","category_name":"未知分类","address":"上海亮秀路112号C2座"},{"poiid":"B2094655D36CA6FD489B","title":"哥白尼路李冰路","lon":"121.61221","lat":"31.19688","category":"38","category_name":"公交车站","address":""},{"poiid":"B2094751D56EA5FA4593","title":"牧羊传奇火锅店","lon":"121.613295","lat":"31.199798","category":"247","category_name":"餐饮美食","address":"紫薇路17号"},{"poiid":"B2094757D164A1FE4193","title":"新招鲜","lon":"121.611023875","lat":"31.1988885277","category":"86","category_name":"火锅店","address":"浦东新区紫薇路16号(近高斯路)"},{"poiid":"B2094757D06BABF5429A","title":"药谷健身中心","lon":"121.60451","lat":"31.19639","category":"221","category_name":"健身中心","address":"浦东新区哈雷路899号(近李冰路)"},{"poiid":"B2094654DA6AA6F5469D","title":"张江新苑","lon":"121.61301","lat":"31.200815","category":"47","category_name":"住宅区","address":"紫薇路35弄"},{"poiid":"B2094655D36CA7FB4698","title":"哈雷路李冰路","lon":"121.60347","lat":"31.19772","category":"38","category_name":"公交车站","address":""},{"poiid":"B2094757D16AA4FF4692","title":"开心麻辣烫 曹杨路","lon":"121.60621497","lat":"31.198818326","category":"247","category_name":"餐饮美食","address":"上海曹杨路近顺义路"},{"poiid":"B2094757D164A1F94199","title":"氣靈散","lon":"121.60784476","lat":"31.199504102","category":"500","category_name":"未知分类","address":"上海天上人間7樓"},{"poiid":"B2094757D16EAAFC469D","title":"博霞路50号","lon":"121.60860837","lat":"31.199158334","category":"500","category_name":"未知分类","address":"上海博霞路50号"},{"poiid":"B2094757D06BA5FD4998","title":"ATA","lon":"121.60556","lat":"31.202875","category":"46","category_name":"楼宇","address":"上海浦东新区博云路36号"},{"poiid":"B2094757D16AA4FE4799","title":"古桐五村","lon":"121.61243","lat":"31.199644","category":"252","category_name":"楼宇机构","address":"上海紫薇公园"},{"poiid":"B2094757D16CA2F8439F","title":"杜邦(中国)研发中心","lon":"121.60900697","lat":"31.194236219","category":"46","category_name":"楼宇","address":"上海市浦东新区张江高科技园区蔡伦路600号"},{"poiid":"B2094750D76FA4F5439F","title":"李记农家菜","lon":"121.613","lat":"31.1992","category":"77","category_name":"湖南菜","address":"浦东新区张江镇紫薇路216-218号(近张江路)"},{"poiid":"B2094757D06BA7FE449A","title":"葛兰素史克研发中心","lon":"121.604609069","lat":"31.1960911943","category":"46","category_name":"楼宇","address":"上海哈雷路917弄"},{"poiid":"B2094757D068ABFD489E","title":"巴克莱技术中心","lon":"121.60391297","lat":"31.200257359","category":"46","category_name":"楼宇","address":"上海市浦东新区博霞路50号"},{"poiid":"B2094757D568A6F4489B","title":"蕉丽新村","lon":"121.61072998","lat":"31.20103461","category":"47","category_name":"住宅区","address":"高斯路986弄1-22号"},{"poiid":"B2094757D16CA6FC4399","title":"HTC高级研究院","lon":"121.605713775","lat":"31.2009899768","category":"500","category_name":"未知分类","address":"上海张江哈雷路88号"},{"poiid":"B2094752DA6CABF9499C","title":"星巴克浦东软件园店","lon":"121.60198","lat":"31.199841","category":"247","category_name":"餐饮美食","address":"浦东新区晨晖路1000号A1楼16-A室"},{"poiid":"B2094757D06FA6FE489A","title":"浦东张江高科软件园","lon":"121.6044558","lat":"31.1999323","category":"500","category_name":"未知分类","address":"上海博霞路11号"},{"poiid":"B2094757D06EAAFE489D","title":"金科路地铁站","lon":"121.60199942","lat":"31.204334926","category":"36","category_name":"地铁站","address":"上海轨道交通,二号线,轨交金科路站,2"},{"poiid":"B2094757D069A4F4489E","title":"台北有间牛排馆","lon":"121.61252","lat":"31.20133","category":"91","category_name":"台湾菜","address":"浦东新区张江镇建中路290号(近高斯路)"},{"poiid":"B2094757D06FA7FE459D","title":"SAP Labs China","lon":"121.60177497","lat":"31.201272383","category":"46","category_name":"楼宇","address":"上海浦东新区张江软件园晨晖路1001号"},{"poiid":"B2094757D06FA3F9469D","title":"星巴克(蔡伦路店)","lon":"121.606942","lat":"31.193842","category":"260","category_name":"其他","address":"浦东新区蔡伦路780号1楼"},{"poiid":"B2094757D068A0F94098","title":"紫薇公园","lon":"121.61446866","lat":"31.200783664","category":"196","category_name":"公园","address":"浦东新区紫薇路60号(近古桐南路)"},{"poiid":"B2094757D06FA6F84398","title":"浦软大厦","lon":"121.60386555","lat":"31.202420875","category":"46","category_name":"楼宇","address":"上海博云路2号"},{"poiid":"B2094757D068A2FD449D","title":"张江药谷","lon":"121.606046","lat":"31.193313","category":"500","category_name":"未知分类","address":"上海蔡伦路哈雷路"},{"poiid":"B2094655D36DA7FB449F","title":"祖冲之路张江路","lon":"121.61147","lat":"31.20692","category":"38","category_name":"公交车站","address":""},{"poiid":"B2094757D068A0FE479D","title":"霍尼韦尔(中国)有限公司","lon":"121.61346859","lat":"31.1958801994","category":"263","category_name":"公司","address":"上海市浦东新区张江高科技园区李冰路430号"},{"poiid":"B2094757D16DA3F9419E","title":"浦东机场一楼(机场四线)","lon":"121.60590455","lat":"31.206038928","category":"21","category_name":"飞机场","address":"上海T1首站"},{"poiid":"B2094757D06FA1FB4098","title":"COSTA COFFEE(张江店)","lon":"121.6057431","lat":"31.2029256","category":"65","category_name":"咖啡厅","address":"浦东新区博云路2号浦软大厦1楼104区"},{"poiid":"B2094750D464A3FB4693","title":"阿斯利康张江园区","lon":"121.60511","lat":"31.204441","category":"263","category_name":"公司","address":"亮景路199号"},{"poiid":"B2094655D36CA6FD499A","title":"高斯路建中路","lon":"121.61114","lat":"31.2016","category":"38","category_name":"公交车站","address":""},{"poiid":"B2094757DB6EA5F8409D","title":"风波庄","lon":"121.6108208680295","lat":"31.20195413547734","category":"247","category_name":"餐饮美食","address":"浦东新区高斯路1268号(近古桐南路)"},{"poiid":"B2094757DB68A4F8479A","title":"川香1号","lon":"121.61487579346","lat":"31.199899374106","category":"71","category_name":"四川菜","address":"浦东新区高斯路1112-1116号(近紫薇路)"},{"poiid":"B2094757D069A3F4469A","title":"IRIS甜品店","lon":"121.6029567","lat":"31.200627598","category":"67","category_name":"甜品店","address":"浦东新区博霞路21号罗森便利后侧(近盛大文学)"},{"poiid":"B2094654DB64A3FA4199","title":"上海宏力半导体制造有限公司","lon":"121.60787","lat":"31.20683","category":"263","category_name":"公司","address":"哈雷路501"},{"poiid":"B2094750D76FA2FA479F","title":"潘朵拉城市行动咖啡店(张江二店)","lon":"121.607","lat":"31.2007","category":"113","category_name":"冷饮店","address":"浦东新区亮秀路112号Y2-106室(近晨辉路)"},{"poiid":"B2094750DA6FA2F44099","title":"SLATE岩石","lon":"121.602778","lat":"31.201933","category":"94","category_name":"西餐厅","address":"浦东新区博霞路22号软件园三期1楼"},{"poiid":"B2094757D065A7F4459E","title":"湘音土菜馆","lon":"121.612984049","lat":"31.1993806399","category":"77","category_name":"湖南菜","address":"浦东新区紫薇路8号(近高斯路)"},{"poiid":"B2094750D768A4FC4993","title":"老北京羊蝎子涮锅","lon":"121.612","lat":"31.2016","category":"86","category_name":"火锅店","address":"浦东新区建中路286号"},{"poiid":"B2094757D664A4FF4693","title":"兴庆红","lon":"121.61369882592","lat":"31.203151794114","category":"84","category_name":"西北菜","address":"浦东新区建中路280号(近高斯路)"},{"poiid":"B2094757D06AA6F5489B","title":"The Corner","lon":"121.61320641","lat":"31.199833896","category":"500","category_name":"未知分类","address":"上海高斯路1070号(紫薇路口)"},{"poiid":"B2094757D164AAFE4798","title":"55路邮电新村站","lon":"121.607564975","lat":"31.1995283427","category":"38","category_name":"公交车站","address":"上海曲阳路四平路口"},{"poiid":"B2094757D064A7FE4799","title":"Honeywell 霍尼韦尔(中国)","lon":"121.614191","lat":"31.196908","category":"46","category_name":"楼宇","address":"上海李冰路430号"},{"poiid":"B2094757D16DA1FB4398","title":"满香饺子","lon":"121.613726054","lat":"31.200214793","category":"68","category_name":"快餐厅","address":"浦东新区高斯路1060号(紫薇路口)"},{"poiid":"B2094757D06AA5F94693","title":"帝斯曼中国园区","lon":"121.60405731","lat":"31.194208145","category":"500","category_name":"未知分类","address":"上海李冰路476号"},{"poiid":"B2094655D36CA1FB4992","title":"李冰路爱迪生路","lon":"121.60796","lat":"31.19583","category":"38","category_name":"公交车站","address":""},{"poiid":"B2094757D66FA3FC4092","title":"老鸿翔苏州汤包馆","lon":"121.60846477","lat":"31.201613591","category":"247","category_name":"餐饮美食","address":"上海张江镇贝越菜场边上"},{"poiid":"B2094655D36DA6FD4798","title":"金科路","lon":"121.60198","lat":"31.20435","category":"38","category_name":"公交车站","address":"上海市浦东新区高科中路1176号(哈雷路口)"},{"poiid":"B2094757D66CA7FE409D","title":"亮秀路112号C2座","lon":"121.60796497","lat":"31.199208335","category":"500","category_name":"未知分类","address":"上海亮秀路112号C2座"},{"poiid":"B2094655D36CA6FD489B","title":"哥白尼路李冰路","lon":"121.61221","lat":"31.19688","category":"38","category_name":"公交车站","address":""},{"poiid":"B2094751D56EA5FA4593","title":"牧羊传奇火锅店","lon":"121.613295","lat":"31.199798","category":"247","category_name":"餐饮美食","address":"紫薇路17号"},{"poiid":"B2094757D164A1FE4193","title":"新招鲜","lon":"121.611023875","lat":"31.1988885277","category":"86","category_name":"火锅店","address":"浦东新区紫薇路16号(近高斯路)"},{"poiid":"B2094757D06BABF5429A","title":"药谷健身中心","lon":"121.60451","lat":"31.19639","category":"221","category_name":"健身中心","address":"浦东新区哈雷路899号(近李冰路)"},{"poiid":"B2094654DA6AA6F5469D","title":"张江新苑","lon":"121.61301","lat":"31.200815","category":"47","category_name":"住宅区","address":"紫薇路35弄"},{"poiid":"B2094655D36CA7FB4698","title":"哈雷路李冰路","lon":"121.60347","lat":"31.19772","category":"38","category_name":"公交车站","address":""},{"poiid":"B2094757D16AA4FF4692","title":"开心麻辣烫 曹杨路","lon":"121.60621497","lat":"31.198818326","category":"247","category_name":"餐饮美食","address":"上海曹杨路近顺义路"},{"poiid":"B2094757D164A1F94199","title":"氣靈散","lon":"121.60784476","lat":"31.199504102","category":"500","category_name":"未知分类","address":"上海天上人間7樓"},{"poiid":"B2094757D16EAAFC469D","title":"博霞路50号","lon":"121.60860837","lat":"31.199158334","category":"500","category_name":"未知分类","address":"上海博霞路50号"},{"poiid":"B2094757D06BA5FD4998","title":"ATA","lon":"121.60556","lat":"31.202875","category":"46","category_name":"楼宇","address":"上海浦东新区博云路36号"},{"poiid":"B2094757D16AA4FE4799","title":"古桐五村","lon":"121.61243","lat":"31.199644","category":"252","category_name":"楼宇机构","address":"上海紫薇公园"},{"poiid":"B2094757D16CA2F8439F","title":"杜邦(中国)研发中心","lon":"121.60900697","lat":"31.194236219","category":"46","category_name":"楼宇","address":"上海市浦东新区张江高科技园区蔡伦路600号"},{"poiid":"B2094750D76FA4F5439F","title":"李记农家菜","lon":"121.613","lat":"31.1992","category":"77","category_name":"湖南菜","address":"浦东新区张江镇紫薇路216-218号(近张江路)"},{"poiid":"B2094757D06BA7FE449A","title":"葛兰素史克研发中心","lon":"121.604609069","lat":"31.1960911943","category":"46","category_name":"楼宇","address":"上海哈雷路917弄"},{"poiid":"B2094757D068ABFD489E","title":"巴克莱技术中心","lon":"121.60391297","lat":"31.200257359","category":"46","category_name":"楼宇","address":"上海市浦东新区博霞路50号"},{"poiid":"B2094757D568A6F4489B","title":"蕉丽新村","lon":"121.61072998","lat":"31.20103461","category":"47","category_name":"住宅区","address":"高斯路986弄1-22号"},{"poiid":"B2094757D16CA6FC4399","title":"HTC高级研究院","lon":"121.605713775","lat":"31.2009899768","category":"500","category_name":"未知分类","address":"上海张江哈雷路88号"},{"poiid":"B2094752DA6CABF9499C","title":"星巴克浦东软件园店","lon":"121.60198","lat":"31.199841","category":"247","category_name":"餐饮美食","address":"浦东新区晨晖路1000号A1楼16-A室"},{"poiid":"B2094757D06FA6FE489A","title":"浦东张江高科软件园","lon":"121.6044558","lat":"31.1999323","category":"500","category_name":"未知分类","address":"上海博霞路11号"},{"poiid":"B2094757D06EAAFE489D","title":"金科路地铁站","lon":"121.60199942","lat":"31.204334926","category":"36","category_name":"地铁站","address":"上海轨道交通,二号线,轨交金科路站,2"},{"poiid":"B2094757D069A4F4489E","title":"台北有间牛排馆","lon":"121.61252","lat":"31.20133","category":"91","category_name":"台湾菜","address":"浦东新区张江镇建中路290号(近高斯路)"},{"poiid":"B2094757D06FA7FE459D","title":"SAP Labs China","lon":"121.60177497","lat":"31.201272383","category":"46","category_name":"楼宇","address":"上海浦东新区张江软件园晨晖路1001号"},{"poiid":"B2094757D06FA3F9469D","title":"星巴克(蔡伦路店)","lon":"121.606942","lat":"31.193842","category":"260","category_name":"其他","address":"浦东新区蔡伦路780号1楼"},{"poiid":"B2094757D068A0F94098","title":"紫薇公园","lon":"121.61446866","lat":"31.200783664","category":"196","category_name":"公园","address":"浦东新区紫薇路60号(近古桐南路)"},{"poiid":"B2094757D06FA6F84398","title":"浦软大厦","lon":"121.60386555","lat":"31.202420875","category":"46","category_name":"楼宇","address":"上海博云路2号"},{"poiid":"B2094757D068A2FD449D","title":"张江药谷","lon":"121.606046","lat":"31.193313","category":"500","category_name":"未知分类","address":"上海蔡伦路哈雷路"},{"poiid":"B2094655D36DA7FB449F","title":"祖冲之路张江路","lon":"121.61147","lat":"31.20692","category":"38","category_name":"公交车站","address":""},{"poiid":"B2094757D068A0FE479D","title":"霍尼韦尔(中国)有限公司","lon":"121.61346859","lat":"31.1958801994","category":"263","category_name":"公司","address":"上海市浦东新区张江高科技园区李冰路430号"},{"poiid":"B2094757D16DA3F9419E","title":"浦东机场一楼(机场四线)","lon":"121.60590455","lat":"31.206038928","category":"21","category_name":"飞机场","address":"上海T1首站"},{"poiid":"B2094757D06FA1FB4098","title":"COSTA COFFEE(张江店)","lon":"121.6057431","lat":"31.2029256","category":"65","category_name":"咖啡厅","address":"浦东新区博云路2号浦软大厦1楼104区"},{"poiid":"B2094750D464A3FB4693","title":"阿斯利康张江园区","lon":"121.60511","lat":"31.204441","category":"263","category_name":"公司","address":"亮景路199号"},{"poiid":"B2094655D36CA6FD499A","title":"高斯路建中路","lon":"121.61114","lat":"31.2016","category":"38","category_name":"公交车站","address":""},{"poiid":"B2094757DB6EA5F8409D","title":"风波庄","lon":"121.6108208680295","lat":"31.20195413547734","category":"247","category_name":"餐饮美食","address":"浦东新区高斯路1268号(近古桐南路)"},{"poiid":"B2094757DB68A4F8479A","title":"川香1号","lon":"121.61487579346","lat":"31.199899374106","category":"71","category_name":"四川菜","address":"浦东新区高斯路1112-1116号(近紫薇路)"},{"poiid":"B2094757D069A3F4469A","title":"IRIS甜品店","lon":"121.6029567","lat":"31.200627598","category":"67","category_name":"甜品店","address":"浦东新区博霞路21号罗森便利后侧(近盛大文学)"},{"poiid":"B2094654DB64A3FA4199","title":"上海宏力半导体制造有限公司","lon":"121.60787","lat":"31.20683","category":"263","category_name":"公司","address":"哈雷路501"},{"poiid":"B2094750D76FA2FA479F","title":"潘朵拉城市行动咖啡店(张江二店)","lon":"121.607","lat":"31.2007","category":"113","category_name":"冷饮店","address":"浦东新区亮秀路112号Y2-106室(近晨辉路)"},{"poiid":"B2094750DA6FA2F44099","title":"SLATE岩石","lon":"121.602778","lat":"31.201933","category":"94","category_name":"西餐厅","address":"浦东新区博霞路22号软件园三期1楼"},{"poiid":"B2094757D065A7F4459E","title":"湘音土菜馆","lon":"121.612984049","lat":"31.1993806399","category":"77","category_name":"湖南菜","address":"浦东新区紫薇路8号(近高斯路)"},{"poiid":"B2094750D768A4FC4993","title":"老北京羊蝎子涮锅","lon":"121.612","lat":"31.2016","category":"86","category_name":"火锅店","address":"浦东新区建中路286号"},{"poiid":"B2094757D664A4FF4693","title":"兴庆红","lon":"121.61369882592","lat":"31.203151794114","category":"84","category_name":"西北菜","address":"浦东新区建中路280号(近高斯路)"},{"poiid":"B2094757D06AA6F5489B","title":"The Corner","lon":"121.61320641","lat":"31.199833896","category":"500","category_name":"未知分类","address":"上海高斯路1070号(紫薇路口)"},{"poiid":"B2094757D164AAFE4798","title":"55路邮电新村站","lon":"121.607564975","lat":"31.1995283427","category":"38","category_name":"公交车站","address":"上海曲阳路四平路口"},{"poiid":"B2094757D064A7FE4799","title":"Honeywell 霍尼韦尔(中国)","lon":"121.614191","lat":"31.196908","category":"46","category_name":"楼宇","address":"上海李冰路430号"},{"poiid":"B2094757D16DA1FB4398","title":"满香饺子","lon":"121.613726054","lat":"31.200214793","category":"68","category_name":"快餐厅","address":"浦东新区高斯路1060号(紫薇路口)"},{"poiid":"B2094757D06AA5F94693","title":"帝斯曼中国园区","lon":"121.60405731","lat":"31.194208145","category":"500","category_name":"未知分类","address":"上海李冰路476号"},{"poiid":"B2094655D36CA1FB4992","title":"李冰路爱迪生路","lon":"121.60796","lat":"31.19583","category":"38","category_name":"公交车站","address":""},{"poiid":"B2094757D66FA3FC4092","title":"老鸿翔苏州汤包馆","lon":"121.60846477","lat":"31.201613591","category":"247","category_name":"餐饮美食","address":"上海张江镇贝越菜场边上"},{"poiid":"B2094655D36DA6FD4798","title":"金科路","lon":"121.60198","lat":"31.20435","category":"38","category_name":"公交车站","address":"上海市浦东新区高科中路1176号(哈雷路口)"},{"poiid":"B2094757D66CA7FE409D","title":"亮秀路112号C2座","lon":"121.60796497","lat":"31.199208335","category":"500","category_name":"未知分类","address":"上海亮秀路112号C2座"},{"poiid":"B2094655D36CA6FD489B","title":"哥白尼路李冰路","lon":"121.61221","lat":"31.19688","category":"38","category_name":"公交车站","address":""},{"poiid":"B2094751D56EA5FA4593","title":"牧羊传奇火锅店","lon":"121.613295","lat":"31.199798","category":"247","category_name":"餐饮美食","address":"紫薇路17号"},{"poiid":"B2094757D164A1FE4193","title":"新招鲜","lon":"121.611023875","lat":"31.1988885277","category":"86","category_name":"火锅店","address":"浦东新区紫薇路16号(近高斯路)"},{"poiid":"B2094757D06BABF5429A","title":"药谷健身中心","lon":"121.60451","lat":"31.19639","category":"221","category_name":"健身中心","address":"浦东新区哈雷路899号(近李冰路)"},{"poiid":"B2094654DA6AA6F5469D","title":"张江新苑","lon":"121.61301","lat":"31.200815","category":"47","category_name":"住宅区","address":"紫薇路35弄"},{"poiid":"B2094655D36CA7FB4698","title":"哈雷路李冰路","lon":"121.60347","lat":"31.19772","category":"38","category_name":"公交车站","address":""},{"poiid":"B2094757D16AA4FF4692","title":"开心麻辣烫 曹杨路","lon":"121.60621497","lat":"31.198818326","category":"247","category_name":"餐饮美食","address":"上海曹杨路近顺义路"},{"poiid":"B2094757D164A1F94199","title":"氣靈散","lon":"121.60784476","lat":"31.199504102","category":"500","category_name":"未知分类","address":"上海天上人間7樓"},{"poiid":"B2094757D16EAAFC469D","title":"博霞路50号","lon":"121.60860837","lat":"31.199158334","category":"500","category_name":"未知分类","address":"上海博霞路50号"},{"poiid":"B2094757D06BA5FD4998","title":"ATA","lon":"121.60556","lat":"31.202875","category":"46","category_name":"楼宇","address":"上海浦东新区博云路36号"},{"poiid":"B2094757D16AA4FE4799","title":"古桐五村","lon":"121.61243","lat":"31.199644","category":"252","category_name":"楼宇机构","address":"上海紫薇公园"},{"poiid":"B2094757D16CA2F8439F","title":"杜邦(中国)研发中心","lon":"121.60900697","lat":"31.194236219","category":"46","category_name":"楼宇","address":"上海市浦东新区张江高科技园区蔡伦路600号"},{"poiid":"B2094750D76FA4F5439F","title":"李记农家菜","lon":"121.613","lat":"31.1992","category":"77","category_name":"湖南菜","address":"浦东新区张江镇紫薇路216-218号(近张江路)"},{"poiid":"B2094757D06BA7FE449A","title":"葛兰素史克研发中心","lon":"121.604609069","lat":"31.1960911943","category":"46","category_name":"楼宇","address":"上海哈雷路917弄"},{"poiid":"B2094757D068ABFD489E","title":"巴克莱技术中心","lon":"121.60391297","lat":"31.200257359","category":"46","category_name":"楼宇","address":"上海市浦东新区博霞路50号"},{"poiid":"B2094757D568A6F4489B","title":"蕉丽新村","lon":"121.61072998","lat":"31.20103461","category":"47","category_name":"住宅区","address":"高斯路986弄1-22号"},{"poiid":"B2094757D16CA6FC4399","title":"HTC高级研究院","lon":"121.605713775","lat":"31.2009899768","category":"500","category_name":"未知分类","address":"上海张江哈雷路88号"},{"poiid":"B2094752DA6CABF9499C","title":"星巴克浦东软件园店","lon":"121.60198","lat":"31.199841","category":"247","category_name":"餐饮美食","address":"浦东新区晨晖路1000号A1楼16-A室"},{"poiid":"B2094757D06FA6FE489A","title":"浦东张江高科软件园","lon":"121.6044558","lat":"31.1999323","category":"500","category_name":"未知分类","address":"上海博霞路11号"},{"poiid":"B2094757D06EAAFE489D","title":"金科路地铁站","lon":"121.60199942","lat":"31.204334926","category":"36","category_name":"地铁站","address":"上海轨道交通,二号线,轨交金科路站,2"},{"poiid":"B2094757D069A4F4489E","title":"台北有间牛排馆","lon":"121.61252","lat":"31.20133","category":"91","category_name":"台湾菜","address":"浦东新区张江镇建中路290号(近高斯路)"},{"poiid":"B2094757D06FA7FE459D","title":"SAP Labs China","lon":"121.60177497","lat":"31.201272383","category":"46","category_name":"楼宇","address":"上海浦东新区张江软件园晨晖路1001号"},{"poiid":"B2094757D06FA3F9469D","title":"星巴克(蔡伦路店)","lon":"121.606942","lat":"31.193842","category":"260","category_name":"其他","address":"浦东新区蔡伦路780号1楼"},{"poiid":"B2094757D068A0F94098","title":"紫薇公园","lon":"121.61446866","lat":"31.200783664","category":"196","category_name":"公园","address":"浦东新区紫薇路60号(近古桐南路)"},{"poiid":"B2094757D06FA6F84398","title":"浦软大厦","lon":"121.60386555","lat":"31.202420875","category":"46","category_name":"楼宇","address":"上海博云路2号"},{"poiid":"B2094757D068A2FD449D","title":"张江药谷","lon":"121.606046","lat":"31.193313","category":"500","category_name":"未知分类","address":"上海蔡伦路哈雷路"},{"poiid":"B2094655D36DA7FB449F","title":"祖冲之路张江路","lon":"121.61147","lat":"31.20692","category":"38","category_name":"公交车站","address":""},{"poiid":"B2094757D068A0FE479D","title":"霍尼韦尔(中国)有限公司","lon":"121.61346859","lat":"31.1958801994","category":"263","category_name":"公司","address":"上海市浦东新区张江高科技园区李冰路430号"},{"poiid":"B2094757D16DA3F9419E","title":"浦东机场一楼(机场四线)","lon":"121.60590455","lat":"31.206038928","category":"21","category_name":"飞机场","address":"上海T1首站"},{"poiid":"B2094757D06FA1FB4098","title":"COSTA COFFEE(张江店)","lon":"121.6057431","lat":"31.2029256","category":"65","category_name":"咖啡厅","address":"浦东新区博云路2号浦软大厦1楼104区"},{"poiid":"B2094750D464A3FB4693","title":"阿斯利康张江园区","lon":"121.60511","lat":"31.204441","category":"263","category_name":"公司","address":"亮景路199号"},{"poiid":"B2094655D36CA6FD499A","title":"高斯路建中路","lon":"121.61114","lat":"31.2016","category":"38","category_name":"公交车站","address":""},{"poiid":"B2094757DB6EA5F8409D","title":"风波庄","lon":"121.6108208680295","lat":"31.20195413547734","category":"247","category_name":"餐饮美食","address":"浦东新区高斯路1268号(近古桐南路)"},{"poiid":"B2094757DB68A4F8479A","title":"川香1号","lon":"121.61487579346","lat":"31.199899374106","category":"71","category_name":"四川菜","address":"浦东新区高斯路1112-1116号(近紫薇路)"},{"poiid":"B2094757D069A3F4469A","title":"IRIS甜品店","lon":"121.6029567","lat":"31.200627598","category":"67","category_name":"甜品店","address":"浦东新区博霞路21号罗森便利后侧(近盛大文学)"},{"poiid":"B2094654DB64A3FA4199","title":"上海宏力半导体制造有限公司","lon":"121.60787","lat":"31.20683","category":"263","category_name":"公司","address":"哈雷路501"},{"poiid":"B2094750D76FA2FA479F","title":"潘朵拉城市行动咖啡店(张江二店)","lon":"121.607","lat":"31.2007","category":"113","category_name":"冷饮店","address":"浦东新区亮秀路112号Y2-106室(近晨辉路)"},{"poiid":"B2094750DA6FA2F44099","title":"SLATE岩石","lon":"121.602778","lat":"31.201933","category":"94","category_name":"西餐厅","address":"浦东新区博霞路22号软件园三期1楼"},{"poiid":"B2094757D065A7F4459E","title":"湘音土菜馆","lon":"121.612984049","lat":"31.1993806399","category":"77","category_name":"湖南菜","address":"浦东新区紫薇路8号(近高斯路)"},{"poiid":"B2094750D768A4FC4993","title":"老北京羊蝎子涮锅","lon":"121.612","lat":"31.2016","category":"86","category_name":"火锅店","address":"浦东新区建中路286号"},{"poiid":"B2094757D664A4FF4693","title":"兴庆红","lon":"121.61369882592","lat":"31.203151794114","category":"84","category_name":"西北菜","address":"浦东新区建中路280号(近高斯路)"},{"poiid":"B2094757D06AA6F5489B","title":"The Corner","lon":"121.61320641","lat":"31.199833896","category":"500","category_name":"未知分类","address":"上海高斯路1070号(紫薇路口)"},{"poiid":"B2094757D164AAFE4798","title":"55路邮电新村站","lon":"121.607564975","lat":"31.1995283427","category":"38","category_name":"公交车站","address":"上海曲阳路四平路口"},{"poiid":"B2094757D064A7FE4799","title":"Honeywell 霍尼韦尔(中国)","lon":"121.614191","lat":"31.196908","category":"46","category_name":"楼宇","address":"上海李冰路430号"},{"poiid":"B2094757D16DA1FB4398","title":"满香饺子","lon":"121.613726054","lat":"31.200214793","category":"68","category_name":"快餐厅","address":"浦东新区高斯路1060号(紫薇路口)"},{"poiid":"B2094757D06AA5F94693","title":"帝斯曼中国园区","lon":"121.60405731","lat":"31.194208145","category":"500","category_name":"未知分类","address":"上海李冰路476号"},{"poiid":"B2094655D36CA1FB4992","title":"李冰路爱迪生路","lon":"121.60796","lat":"31.19583","category":"38","category_name":"公交车站","address":""},{"poiid":"B2094757D66FA3FC4092","title":"老鸿翔苏州汤包馆","lon":"121.60846477","lat":"31.201613591","category":"247","category_name":"餐饮美食","address":"上海张江镇贝越菜场边上"},{"poiid":"B2094655D36DA6FD4798","title":"金科路","lon":"121.60198","lat":"31.20435","category":"38","category_name":"公交车站","address":"上海市浦东新区高科中路1176号(哈雷路口)"},{"poiid":"B2094757D66CA7FE409D","title":"亮秀路112号C2座","lon":"121.60796497","lat":"31.199208335","category":"500","category_name":"未知分类","address":"上海亮秀路112号C2座"},{"poiid":"B2094655D36CA6FD489B","title":"哥白尼路李冰路","lon":"121.61221","lat":"31.19688","category":"38","category_name":"公交车站","address":""},{"poiid":"B2094751D56EA5FA4593","title":"牧羊传奇火锅店","lon":"121.613295","lat":"31.199798","category":"247","category_name":"餐饮美食","address":"紫薇路17号"},{"poiid":"B2094757D164A1FE4193","title":"新招鲜","lon":"121.611023875","lat":"31.1988885277","category":"86","category_name":"火锅店","address":"浦东新区紫薇路16号(近高斯路)"},{"poiid":"B2094757D06BABF5429A","title":"药谷健身中心","lon":"121.60451","lat":"31.19639","category":"221","category_name":"健身中心","address":"浦东新区哈雷路899号(近李冰路)"},{"poiid":"B2094654DA6AA6F5469D","title":"张江新苑","lon":"121.61301","lat":"31.200815","category":"47","category_name":"住宅区","address":"紫薇路35弄"},{"poiid":"B2094655D36CA7FB4698","title":"哈雷路李冰路","lon":"121.60347","lat":"31.19772","category":"38","category_name":"公交车站","address":""},{"poiid":"B2094757D16AA4FF4692","title":"开心麻辣烫 曹杨路","lon":"121.60621497","lat":"31.198818326","category":"247","category_name":"餐饮美食","address":"上海曹杨路近顺义路"},{"poiid":"B2094757D164A1F94199","title":"氣靈散","lon":"121.60784476","lat":"31.199504102","category":"500","category_name":"未知分类","address":"上海天上人間7樓"},{"poiid":"B2094757D16EAAFC469D","title":"博霞路50号","lon":"121.60860837","lat":"31.199158334","category":"500","category_name":"未知分类","address":"上海博霞路50号"},{"poiid":"B2094757D06BA5FD4998","title":"ATA","lon":"121.60556","lat":"31.202875","category":"46","category_name":"楼宇","address":"上海浦东新区博云路36号"},{"poiid":"B2094757D16AA4FE4799","title":"古桐五村","lon":"121.61243","lat":"31.199644","category":"252","category_name":"楼宇机构","address":"上海紫薇公园"},{"poiid":"B2094757D16CA2F8439F","title":"杜邦(中国)研发中心","lon":"121.60900697","lat":"31.194236219","category":"46","category_name":"楼宇","address":"上海市浦东新区张江高科技园区蔡伦路600号"},{"poiid":"B2094750D76FA4F5439F","title":"李记农家菜","lon":"121.613","lat":"31.1992","category":"77","category_name":"湖南菜","address":"浦东新区张江镇紫薇路216-218号(近张江路)"},{"poiid":"B2094757D06BA7FE449A","title":"葛兰素史克研发中心","lon":"121.604609069","lat":"31.1960911943","category":"46","category_name":"楼宇","address":"上海哈雷路917弄"},{"poiid":"B2094757D068ABFD489E","title":"巴克莱技术中心","lon":"121.60391297","lat":"31.200257359","category":"46","category_name":"楼宇","address":"上海市浦东新区博霞路50号"},{"poiid":"B2094757D568A6F4489B","title":"蕉丽新村","lon":"121.61072998","lat":"31.20103461","category":"47","category_name":"住宅区","address":"高斯路986弄1-22号"},{"poiid":"B2094757D16CA6FC4399","title":"HTC高级研究院","lon":"121.605713775","lat":"31.2009899768","category":"500","category_name":"未知分类","address":"上海张江哈雷路88号"},{"poiid":"B2094752DA6CABF9499C","title":"星巴克浦东软件园店","lon":"121.60198","lat":"31.199841","category":"247","category_name":"餐饮美食","address":"浦东新区晨晖路1000号A1楼16-A室"}]