[{"poiid":"B2094757D069A4FD459C","title":"新侨职业技术学院(嘉定分校)","lon":"121.17982548","lat":"31.357331121","category":"253","category_name":"校园生活","address":"嘉定区外冈镇冈峰公路68号"},{"poiid":"B2094757D069ABF5459D","title":"清竹园","lon":"121.185661","lat":"31.35938","category":"250","category_name":"公园户外","address":"上海嘉松北路633号"},{"poiid":"B2094655D36DA6FF479E","title":"外冈镇","lon":"121.17575","lat":"31.36232","category":"38","category_name":"公交车站","address":""},{"poiid":"B2094757D16DA1F8489A","title":"新港湾海鲜大酒店","lon":"121.173689653","lat":"31.3661565507","category":"88","category_name":"海鲜酒楼","address":"嘉定区外冈镇嘉松北路28号新业国际大酒店(近沪宜公路)"},{"poiid":"B2094654D468AAFF409E","title":"世纪华联外冈店","lon":"121.18453","lat":"31.36632","category":"117","category_name":"便民商店/便利店","address":""},{"poiid":"B2094654D468AAFF409F","title":"上海市外冈工业园区","lon":"121.18169","lat":"31.36611","category":"45","category_name":"产业园区","address":""},{"poiid":"B2094654D468AAFF409C","title":"上海申冈经济发展区","lon":"121.18168","lat":"31.36612","category":"45","category_name":"产业园区","address":""},{"poiid":"B2094757D065A7FA4192","title":"吴兴寺","lon":"121.1773","lat":"31.36319","category":"607","category_name":"一般景点","address":"嘉定区沪宜公路5428号(外冈北街老沪宜公路)"},{"poiid":"B2094757D16BA2FD4898","title":"上粮九库","lon":"121.193715653","lat":"31.3667315624","category":"500","category_name":"未知分类","address":"上海沪宜公路5088号"},{"poiid":"B2094757DA6EAAF9409E","title":"兰郡九里","lon":"121.17767463658","lat":"31.364784615414","category":"47","category_name":"住宅区","address":"上海市松江区新桥春九路188号"},{"poiid":"B2094757D16AA3F9439C","title":"外冈惠吉房产","lon":"121.18595565","lat":"31.361352453","category":"263","category_name":"公司","address":"上海市嘉定区祁昌路135弄"},{"poiid":"B2094757D165A2FE419C","title":"新业KTV","lon":"121.177611","lat":"31.363086","category":"170","category_name":"KTV","address":"上海外冈"},{"poiid":"B2094654D468AAFB489B","title":"外冈商场","lon":"121.17761","lat":"31.36309","category":"119","category_name":"商场","address":""},{"poiid":"B2094654D468AAFB479D","title":"快客NO.1358","lon":"121.17774","lat":"31.36294","category":"117","category_name":"便民商店/便利店","address":""},{"poiid":"B2094654D468AAF54493","title":"新侨职业技术学院","lon":"121.17798","lat":"31.35685","category":"52","category_name":"高等院校","address":""},{"poiid":"B2094750D569ABFB4893","title":"冈峰新苑","lon":"121.17693","lat":"31.361616","category":"47","category_name":"住宅区","address":"上海市嘉定区嘉松北路338弄"},{"poiid":"B2094654D469A3FC469D","title":"上海金源商场","lon":"121.17695","lat":"31.3622","category":"119","category_name":"商场","address":"嘉松北路316"},{"poiid":"B2094655D36CA1F8479E","title":"六里亭","lon":"121.20058","lat":"31.36891","category":"38","category_name":"公交车站","address":""},{"poiid":"B2094654D468AAF54898","title":"嘉定区外冈中学","lon":"121.18012","lat":"31.35816","category":"55","category_name":"中学","address":"冈峰公路88"},{"poiid":"B2094654D468AAF44999","title":"新叶大厦","lon":"121.17337","lat":"31.36513","category":"46","category_name":"楼宇","address":""},{"poiid":"B2094757D66DA6F5449E","title":"工厂","lon":"121.179251","lat":"31.36212","category":"500","category_name":"未知分类","address":"上海外青松公路"},{"poiid":"B2094757D164A1F8409F","title":"上海工艺美术职业学院","lon":"121.174843","lat":"31.365073","category":"671","category_name":"高校中心点","address":"嘉行公路851号"},{"poiid":"B2094757D16BA7FA419A","title":"林静饭店","lon":"121.173442","lat":"31.361883","category":"247","category_name":"餐饮美食","address":"上海嘉定外冈祁昌北路175号"},{"poiid":"B2094757D469A0FE4299","title":"月亮湾庄园餐厅","lon":"121.171120054","lat":"31.370106793","category":"87","category_name":"特色／地方风味餐厅","address":"外冈镇大陆村848号近沪宜公路"},{"poiid":"B2094654D469A3FC4199","title":"永辉超市(冈峰公路)","lon":"121.17833","lat":"31.35752","category":"118","category_name":"超级市场","address":""},{"poiid":"B2094654D469A3FC4193","title":"新侨学院嘉定校区学生公寓","lon":"121.17794","lat":"31.35727","category":"47","category_name":"住宅区","address":"冈峰公路51"},{"poiid":"B2094654D469A3FC4593","title":"外冈工商所","lon":"121.17584","lat":"31.3619","category":"250","category_name":"公园户外","address":"外青松公路65"},{"poiid":"B2094757D168A2FD429A","title":"外青松公路祁昌路","lon":"121.175059714","lat":"31.3614284821","category":"500","category_name":"未知分类","address":"上海外青松公路祁昌路"},{"poiid":"B2094654D468AAF5409C","title":"中国建设银行上海外冈支行","lon":"121.17575","lat":"31.3633","category":"150","category_name":"银行","address":"嘉定区嘉松北路100号(老沪宜公路外青松公路)"},{"poiid":"B2094654D468AAFD4598","title":"上海市地方税务局嘉定区分局第十二税务所","lon":"121.17537","lat":"31.36246","category":"250","category_name":"公园户外","address":""},{"poiid":"B2094654D468AAF5459E","title":"新侨学院展示厅","lon":"121.17891","lat":"31.35706","category":"183","category_name":"展览馆","address":""},{"poiid":"B2094757D66EAAF4419D","title":"妙香山韩国料理","lon":"121.17469865","lat":"31.361432454","category":"247","category_name":"餐饮美食","address":"上海市嘉定区祁昌路137号"},{"poiid":"B2094654D468ABFA4399","title":"外岗派出所","lon":"121.1762","lat":"31.36063","category":"609","category_name":"警察局","address":"祁昌路5号"},{"poiid":"B2094654D468AAFA459C","title":"嘉定区外冈镇社区卫生服务中心","lon":"121.17088","lat":"31.36482","category":"162","category_name":"医院","address":"嘉定区外冈镇祁昌路355"},{"poiid":"B2094654D468AAF5469A","title":"新侨学院总务科","lon":"121.17856","lat":"31.35685","category":"52","category_name":"高等院校","address":""},{"poiid":"B2094757D065A2FE4893","title":"外冈别墅","lon":"121.172938653","lat":"31.3581153877","category":"47","category_name":"住宅区","address":"上海市嘉定区外青松公路"},{"poiid":"B2094654D468AAF54492","title":"国际汽车城人才学院","lon":"121.17795","lat":"31.35683","category":"52","category_name":"高等院校","address":""},{"poiid":"B2094654D468AAF54592","title":"计算机楼","lon":"121.17851","lat":"31.35579","category":"46","category_name":"楼宇","address":""},{"poiid":"B2094654D469A3FC469A","title":"外冈邮政支局","lon":"121.17611","lat":"31.36238","category":"248","category_name":"生活娱乐","address":"嘉定区外冈镇外青松公路35号"},{"poiid":"B2094654D468AAF5459C","title":"新侨学院阶梯教室","lon":"121.17839","lat":"31.35597","category":"46","category_name":"楼宇","address":""},{"poiid":"B2094654D468AAF5459F","title":"新侨学院图书馆","lon":"121.17835","lat":"31.35675","category":"181","category_name":"图书馆","address":""},{"poiid":"B2094654D469A3FC4599","title":"外冈工业园经济城","lon":"121.17462","lat":"31.35933","category":"45","category_name":"产业园区","address":"外青松公路165"},{"poiid":"B2094654D468AAF54292","title":"新桥职业技术学院嘉定校区","lon":"121.17729","lat":"31.35488","category":"54","category_name":"职业技术学校","address":"外青松公路255"},{"poiid":"B2094654D469A3FC459D","title":"外冈图书馆","lon":"121.17473","lat":"31.36023","category":"181","category_name":"图书馆","address":"外青松公路135"},{"poiid":"B2094757DA6FA3FF489C","title":"上海莱尼电器系统有限公司","lon":"121.179408345129","lat":"31.358276667567","category":"263","category_name":"公司","address":"嘉定区嘉松北路1288号"},{"poiid":"B2094654D468AAFD469C","title":"快客(外青松公路)","lon":"121.17414","lat":"31.35935","category":"117","category_name":"便民商店/便利店","address":""},{"poiid":"B2094654D468ABFA439C","title":"中国农业银行外冈营业所","lon":"121.17482","lat":"31.36192","category":"150","category_name":"银行","address":"青浦区外冈镇外青松公路82号"},{"poiid":"B2094757D064A5FD4393","title":"新侨职业技术学院(嘉定分校)学生公寓2号楼","lon":"121.177059","lat":"31.356717","category":"253","category_name":"校园生活","address":"上海市嘉定区外冈镇岗峰公路68号"},{"poiid":"B2094655D264A0FF409D","title":"顺驰兰郡","lon":"121.17304","lat":"31.35473","category":"47","category_name":"住宅区","address":"外冈镇"},{"poiid":"B2094654DB6AA6FB419D","title":"上海新树金属制品有限公司","lon":"121.17309","lat":"31.36681","category":"263","category_name":"公司","address":"沪宜公路5632"},{"poiid":"B2094757D069A4FD459C","title":"新侨职业技术学院(嘉定分校)","lon":"121.17982548","lat":"31.357331121","category":"253","category_name":"校园生活","address":"嘉定区外冈镇冈峰公路68号"},{"poiid":"B2094757D069ABF5459D","title":"清竹园","lon":"121.185661","lat":"31.35938","category":"250","category_name":"公园户外","address":"上海嘉松北路633号"},{"poiid":"B2094655D36DA6FF479E","title":"外冈镇","lon":"121.17575","lat":"31.36232","category":"38","category_name":"公交车站","address":""},{"poiid":"B2094757D16DA1F8489A","title":"新港湾海鲜大酒店","lon":"121.173689653","lat":"31.3661565507","category":"88","category_name":"海鲜酒楼","address":"嘉定区外冈镇嘉松北路28号新业国际大酒店(近沪宜公路)"},{"poiid":"B2094654D468AAFF409E","title":"世纪华联外冈店","lon":"121.18453","lat":"31.36632","category":"117","category_name":"便民商店/便利店","address":""},{"poiid":"B2094654D468AAFF409F","title":"上海市外冈工业园区","lon":"121.18169","lat":"31.36611","category":"45","category_name":"产业园区","address":""},{"poiid":"B2094654D468AAFF409C","title":"上海申冈经济发展区","lon":"121.18168","lat":"31.36612","category":"45","category_name":"产业园区","address":""},{"poiid":"B2094757D065A7FA4192","title":"吴兴寺","lon":"121.1773","lat":"31.36319","category":"607","category_name":"一般景点","address":"嘉定区沪宜公路5428号(外冈北街老沪宜公路)"},{"poiid":"B2094757D16BA2FD4898","title":"上粮九库","lon":"121.193715653","lat":"31.3667315624","category":"500","category_name":"未知分类","address":"上海沪宜公路5088号"},{"poiid":"B2094757DA6EAAF9409E","title":"兰郡九里","lon":"121.17767463658","lat":"31.364784615414","category":"47","category_name":"住宅区","address":"上海市松江区新桥春九路188号"},{"poiid":"B2094757D16AA3F9439C","title":"外冈惠吉房产","lon":"121.18595565","lat":"31.361352453","category":"263","category_name":"公司","address":"上海市嘉定区祁昌路135弄"},{"poiid":"B2094757D165A2FE419C","title":"新业KTV","lon":"121.177611","lat":"31.363086","category":"170","category_name":"KTV","address":"上海外冈"},{"poiid":"B2094654D468AAFB489B","title":"外冈商场","lon":"121.17761","lat":"31.36309","category":"119","category_name":"商场","address":""},{"poiid":"B2094654D468AAFB479D","title":"快客NO.1358","lon":"121.17774","lat":"31.36294","category":"117","category_name":"便民商店/便利店","address":""},{"poiid":"B2094654D468AAF54493","title":"新侨职业技术学院","lon":"121.17798","lat":"31.35685","category":"52","category_name":"高等院校","address":""},{"poiid":"B2094750D569ABFB4893","title":"冈峰新苑","lon":"121.17693","lat":"31.361616","category":"47","category_name":"住宅区","address":"上海市嘉定区嘉松北路338弄"},{"poiid":"B2094654D469A3FC469D","title":"上海金源商场","lon":"121.17695","lat":"31.3622","category":"119","category_name":"商场","address":"嘉松北路316"},{"poiid":"B2094655D36CA1F8479E","title":"六里亭","lon":"121.20058","lat":"31.36891","category":"38","category_name":"公交车站","address":""},{"poiid":"B2094654D468AAF54898","title":"嘉定区外冈中学","lon":"121.18012","lat":"31.35816","category":"55","category_name":"中学","address":"冈峰公路88"},{"poiid":"B2094654D468AAF44999","title":"新叶大厦","lon":"121.17337","lat":"31.36513","category":"46","category_name":"楼宇","address":""},{"poiid":"B2094757D66DA6F5449E","title":"工厂","lon":"121.179251","lat":"31.36212","category":"500","category_name":"未知分类","address":"上海外青松公路"},{"poiid":"B2094757D164A1F8409F","title":"上海工艺美术职业学院","lon":"121.174843","lat":"31.365073","category":"671","category_name":"高校中心点","address":"嘉行公路851号"},{"poiid":"B2094757D16BA7FA419A","title":"林静饭店","lon":"121.173442","lat":"31.361883","category":"247","category_name":"餐饮美食","address":"上海嘉定外冈祁昌北路175号"},{"poiid":"B2094757D469A0FE4299","title":"月亮湾庄园餐厅","lon":"121.171120054","lat":"31.370106793","category":"87","category_name":"特色／地方风味餐厅","address":"外冈镇大陆村848号近沪宜公路"},{"poiid":"B2094654D469A3FC4199","title":"永辉超市(冈峰公路)","lon":"121.17833","lat":"31.35752","category":"118","category_name":"超级市场","address":""},{"poiid":"B2094654D469A3FC4193","title":"新侨学院嘉定校区学生公寓","lon":"121.17794","lat":"31.35727","category":"47","category_name":"住宅区","address":"冈峰公路51"},{"poiid":"B2094654D469A3FC4593","title":"外冈工商所","lon":"121.17584","lat":"31.3619","category":"250","category_name":"公园户外","address":"外青松公路65"},{"poiid":"B2094757D168A2FD429A","title":"外青松公路祁昌路","lon":"121.175059714","lat":"31.3614284821","category":"500","category_name":"未知分类","address":"上海外青松公路祁昌路"},{"poiid":"B2094654D468AAF5409C","title":"中国建设银行上海外冈支行","lon":"121.17575","lat":"31.3633","category":"150","category_name":"银行","address":"嘉定区嘉松北路100号(老沪宜公路外青松公路)"},{"poiid":"B2094654D468AAFD4598","title":"上海市地方税务局嘉定区分局第十二税务所","lon":"121.17537","lat":"31.36246","category":"250","category_name":"公园户外","address":""},{"poiid":"B2094654D468AAF5459E","title":"新侨学院展示厅","lon":"121.17891","lat":"31.35706","category":"183","category_name":"展览馆","address":""},{"poiid":"B2094757D66EAAF4419D","title":"妙香山韩国料理","lon":"121.17469865","lat":"31.361432454","category":"247","category_name":"餐饮美食","address":"上海市嘉定区祁昌路137号"},{"poiid":"B2094654D468ABFA4399","title":"外岗派出所","lon":"121.1762","lat":"31.36063","category":"609","category_name":"警察局","address":"祁昌路5号"},{"poiid":"B2094654D468AAFA459C","title":"嘉定区外冈镇社区卫生服务中心","lon":"121.17088","lat":"31.36482","category":"162","category_name":"医院","address":"嘉定区外冈镇祁昌路355"},{"poiid":"B2094654D468AAF5469A","title":"新侨学院总务科","lon":"121.17856","lat":"31.35685","category":"52","category_name":"高等院校","address":""},{"poiid":"B2094757D065A2FE4893","title":"外冈别墅","lon":"121.172938653","lat":"31.3581153877","category":"47","category_name":"住宅区","address":"上海市嘉定区外青松公路"},{"poiid":"B2094654D468AAF54492","title":"国际汽车城人才学院","lon":"121.17795","lat":"31.35683","category":"52","category_name":"高等院校","address":""},{"poiid":"B2094654D468AAF54592","title":"计算机楼","lon":"121.17851","lat":"31.35579","category":"46","category_name":"楼宇","address":""},{"poiid":"B2094654D469A3FC469A","title":"外冈邮政支局","lon":"121.17611","lat":"31.36238","category":"248","category_name":"生活娱乐","address":"嘉定区外冈镇外青松公路35号"},{"poiid":"B2094654D468AAF5459C","title":"新侨学院阶梯教室","lon":"121.17839","lat":"31.35597","category":"46","category_name":"楼宇","address":""},{"poiid":"B2094654D468AAF5459F","title":"新侨学院图书馆","lon":"121.17835","lat":"31.35675","category":"181","category_name":"图书馆","address":""},{"poiid":"B2094654D469A3FC4599","title":"外冈工业园经济城","lon":"121.17462","lat":"31.35933","category":"45","category_name":"产业园区","address":"外青松公路165"},{"poiid":"B2094654D468AAF54292","title":"新桥职业技术学院嘉定校区","lon":"121.17729","lat":"31.35488","category":"54","category_name":"职业技术学校","address":"外青松公路255"},{"poiid":"B2094654D469A3FC459D","title":"外冈图书馆","lon":"121.17473","lat":"31.36023","category":"181","category_name":"图书馆","address":"外青松公路135"},{"poiid":"B2094757DA6FA3FF489C","title":"上海莱尼电器系统有限公司","lon":"121.179408345129","lat":"31.358276667567","category":"263","category_name":"公司","address":"嘉定区嘉松北路1288号"},{"poiid":"B2094654D468AAFD469C","title":"快客(外青松公路)","lon":"121.17414","lat":"31.35935","category":"117","category_name":"便民商店/便利店","address":""},{"poiid":"B2094654D468ABFA439C","title":"中国农业银行外冈营业所","lon":"121.17482","lat":"31.36192","category":"150","category_name":"银行","address":"青浦区外冈镇外青松公路82号"},{"poiid":"B2094757D064A5FD4393","title":"新侨职业技术学院(嘉定分校)学生公寓2号楼","lon":"121.177059","lat":"31.356717","category":"253","category_name":"校园生活","address":"上海市嘉定区外冈镇岗峰公路68号"},{"poiid":"B2094655D264A0FF409D","title":"顺驰兰郡","lon":"121.17304","lat":"31.35473","category":"47","category_name":"住宅区","address":"外冈镇"},{"poiid":"B2094654DB6AA6FB419D","title":"上海新树金属制品有限公司","lon":"121.17309","lat":"31.36681","category":"263","category_name":"公司","address":"沪宜公路5632"}]