[{"poiid":"B2094757D06FA7F8489F","title":"滨江森林公园","lon":"121.52494953","lat":"31.38177031","category":"196","category_name":"公园","address":"上海凌桥"},{"poiid":"B2094757D06AABF5429E","title":"吴淞口国际邮轮港","lon":"121.50557","lat":"31.404876","category":"500","category_name":"未知分类","address":"上海市宝山区宝杨路１号"},{"poiid":"B2094757D06FA5F44392","title":"宝杨码头","lon":"121.501694","lat":"31.40562","category":"234","category_name":"海滨浴场","address":"上海宝山区宝杨支路18号"},{"poiid":"B2094757D069A3F8459F","title":"炮台湾湿地森林公园","lon":"121.50571413","lat":"31.393478751","category":"500","category_name":"未知分类","address":"上海宝山区塘后路"},{"poiid":"B2094757D06FABFE459A","title":"海江二村","lon":"121.50371","lat":"31.393312","category":"47","category_name":"住宅区","address":"永乐路222弄"},{"poiid":"B2094757D06AA4FE4499","title":"海军博物馆","lon":"121.50643","lat":"31.3887963487","category":"182","category_name":"博物馆","address":"宝山区塘后路68号(近淞宝路)"},{"poiid":"B2094655D26BA6FB4498","title":"吴淞炮台纪念遗址","lon":"121.5083","lat":"31.39336","category":"250","category_name":"公园户外","address":"塘后路206"},{"poiid":"B2094654D46AA7FB4099","title":"宝山一村","lon":"121.509","lat":"31.4009","category":"47","category_name":"住宅区","address":"上海双城路宝东路宝山一村4号"},{"poiid":"B2094654D46AA4FE4198","title":"宝山六村","lon":"121.502","lat":"31.397743","category":"47","category_name":"住宅区","address":"上海市宝山区永乐路115弄"},{"poiid":"B209475DD76AABFA4093","title":"吴淞炮台湾湿地森林公园","lon":"121.511054","lat":"31.39783","category":"250","category_name":"公园户外","address":"上海市 上海市宝山区黄浦江"},{"poiid":"B2094654DB6AA6FF4192","title":"海滨八村","lon":"121.507","lat":"31.3884","category":"47","category_name":"住宅区","address":"上海宝山区牡丹江路海滨八村46号"},{"poiid":"B2094750D669A4FA459A","title":"上海长江河口科技馆","lon":"121.506713","lat":"31.400457","category":"250","category_name":"公园户外","address":"宝山区塘后路206号吴淞炮台湾湿地公园(近国际邮轮码头)"},{"poiid":"B2094757D66EA5FD489F","title":"高桥老东街","lon":"121.52687183","lat":"31.403507258","category":"500","category_name":"未知分类","address":"上海季景北路东街"},{"poiid":"B2094757DA6FA2FC4998","title":"吴淞炮台湾湿地公园(北门)","lon":"121.501836776732","lat":"31.4026964848086","category":"250","category_name":"公园户外","address":"宝山区宝杨路(近宝杨支路)"},{"poiid":"B2094757D16FA1FD409F","title":"上海城投污水处理厂","lon":"121.512613631","lat":"31.3954619926","category":"500","category_name":"未知分类","address":"上海海江路1号"},{"poiid":"B209475DD365A2FD469C","title":"上海吴淞国际码头","lon":"121.512001","lat":"31.40802","category":"500","category_name":"未知分类","address":"上海宝山区宝杨路"},{"poiid":"B2094752D26BABFF449C","title":"上善宝邸","lon":"121.508543","lat":"31.394886","category":"47","category_name":"住宅区","address":"宝山区塘后支路19号"},{"poiid":"B2094654D46AA4FE419F","title":"海江公寓","lon":"121.5037","lat":"31.399063","category":"47","category_name":"住宅区","address":"塘后路285弄"},{"poiid":"B2094655D268A3FE499B","title":"前三营房","lon":"121.5051420877","lat":"31.391444050309","category":"47","category_name":"住宅区","address":"永清路98号"},{"poiid":"B2094654D46BA2FC4498","title":"双城路二弄小区","lon":"121.50777","lat":"31.39484","category":"47","category_name":"住宅区","address":"上海市宝山区双城路塘后路"},{"poiid":"B2094654D46BA2FC4293","title":"新叶公寓","lon":"121.50488","lat":"31.391869","category":"47","category_name":"住宅区","address":"上海市宝山区塘后路231号"},{"poiid":"B2094757D06AA0F8499C","title":"宝山二村","lon":"121.507","lat":"31.4014","category":"260","category_name":"其他","address":"上海市宝山区双城路"},{"poiid":"B2094757D568A5FC4293","title":"宝杨路客运码头","lon":"121.5038789","lat":"31.40380139","category":"35","category_name":"长途汽车站","address":"宝杨支路18号宝杨码头"},{"poiid":"B2094654D46BA2FC4393","title":"快客NO.6985","lon":"121.50638","lat":"31.39348","category":"117","category_name":"便民商店/便利店","address":""},{"poiid":"B2094757D16CAAFB439B","title":"阿良海鲜","lon":"121.501203","lat":"31.393635","category":"247","category_name":"餐饮美食","address":"上海宝山区双城路116号"},{"poiid":"B2094655D26FABFA4899","title":"双城路2弄小区(西门)","lon":"121.50557","lat":"31.39492","category":"47","category_name":"住宅区","address":"双城路2弄1-22号"},{"poiid":"B2094655D268A5F4449B","title":"海江公寓(西门)","lon":"121.5048","lat":"31.39653","category":"47","category_name":"住宅区","address":"塘后路285弄1-21号"},{"poiid":"B2094757D16EABFC4198","title":"小主人幼兒園","lon":"121.503705","lat":"31.393312","category":"57","category_name":"幼儿园","address":"上海海江二村"},{"poiid":"B2094757D06BA4F94298","title":"马拉戈壁","lon":"121.50718433","lat":"31.391325507","category":"247","category_name":"餐饮美食","address":"上海dkkskf"},{"poiid":"B2094757D164A4FA439B","title":"海滨五村","lon":"121.50103062728","lat":"31.401987993104","category":"46","category_name":"楼宇","address":"上海牡丹江路水产路"},{"poiid":"B2094654D46AA4FE459C","title":"上海市基督教吴淞堂","lon":"121.5013","lat":"31.40229","category":"245","category_name":"教堂","address":"宝山区宝杨路74"},{"poiid":"B2094757DB6FA5FE469A","title":"吴淞古炮台公园","lon":"121.5022320674001","lat":"31.39532357457224","category":"196","category_name":"公园","address":"双城路"},{"poiid":"B2094655D26FABFA429C","title":"海江二村(一号门)","lon":"121.50415","lat":"31.39466","category":"47","category_name":"住宅区","address":""},{"poiid":"B2094757D169A4FC409C","title":"宝山区建筑业受理服务中心","lon":"121.50640783","lat":"31.394165065","category":"500","category_name":"未知分类","address":"上海牡丹江路1188号7楼"},{"poiid":"B2094757D568ABFF419D","title":"联华超市(塘后路)","lon":"121.50344618","lat":"31.39903754","category":"118","category_name":"超级市场","address":"塘后路381"},{"poiid":"B2094654DB6AA5F8499A","title":"快客","lon":"121.50242","lat":"31.39451","category":"117","category_name":"便民商店/便利店","address":"双城路81"},{"poiid":"B2094757D569A6F94399","title":"长五小卖部","lon":"121.50292453","lat":"31.39648899","category":"117","category_name":"便民商店/便利店","address":"永乐路118-120"},{"poiid":"B2094655D36CA4FC429F","title":"宝东路海江路","lon":"121.50067","lat":"31.39725","category":"38","category_name":"公交车站","address":""},{"poiid":"B2094757D568A7FE409B","title":"好乐迪量贩式KTV音乐茶室","lon":"121.50664795","lat":"31.38941352","category":"170","category_name":"KTV","address":"塘后路112号"},{"poiid":"B2094654D46AA5FC4198","title":"永清路171弄","lon":"121.503","lat":"31.3937","category":"47","category_name":"住宅区","address":"永清路171弄1-12号"},{"poiid":"B2094654D46AA7FB4698","title":"永清路337弄小区","lon":"121.50261513212","lat":"31.394884022499","category":"47","category_name":"住宅区","address":"永清路337弄1-6号"},{"poiid":"B2094757D569A7FA4598","title":"立云汽车服务","lon":"121.50682644","lat":"31.39227132","category":"159","category_name":"汽车维修","address":"塘后路172"},{"poiid":"B2094750D16BA2FE4598","title":"皇家加勒比游轮","lon":"121.502983","lat":"31.404596","category":"500","category_name":"未知分类","address":null},{"poiid":"B2094757D068AAFF4798","title":"滨江森林公园真人CS野战场","lon":"121.526492","lat":"31.381339","category":"173","category_name":"游戏厅","address":"浦东新区高桥镇凌桥高沙滩3号(近公安高等专科学校)"},{"poiid":"B2094757D568AAFC409F","title":"美国CAS国家干洗(塘后路店)","lon":"121.50745877","lat":"31.39075412","category":"610","category_name":"干洗店","address":"塘后支路172"},{"poiid":"B2094757D66EA3FF479D","title":"肚子好饿","lon":"121.506598031","lat":"31.3907553955","category":"500","category_name":"未知分类","address":"上海肚织饿了"},{"poiid":"B2094757D16FA6F5489C","title":"宝林四小","lon":"121.50114293","lat":"31.402752243","category":"56","category_name":"小学","address":"上海宝山区宝林七村82号"},{"poiid":"B2094655D26FABF84698","title":"新叶公寓(东门)","lon":"121.50617","lat":"31.39239","category":"48","category_name":"楼宇大门","address":"塘后路203弄1-28号"},{"poiid":"B2094757D16FAAF4469D","title":"合宴酒楼","lon":"121.50195","lat":"31.39935","category":"260","category_name":"其他","address":"宝山区海江路5号(海江路塘后路)"},{"poiid":"B2094757D568A7FA4699","title":"杰隆公司宝垄车业服务(浩睿店)","lon":"121.5029267","lat":"31.39681939","category":"159","category_name":"汽车维修","address":"中国上海市宝山区永乐路"},{"poiid":"B2094757D06FA7F8489F","title":"滨江森林公园","lon":"121.52494953","lat":"31.38177031","category":"196","category_name":"公园","address":"上海凌桥"},{"poiid":"B2094757D06AABF5429E","title":"吴淞口国际邮轮港","lon":"121.50557","lat":"31.404876","category":"500","category_name":"未知分类","address":"上海市宝山区宝杨路１号"},{"poiid":"B2094757D06FA5F44392","title":"宝杨码头","lon":"121.501694","lat":"31.40562","category":"234","category_name":"海滨浴场","address":"上海宝山区宝杨支路18号"},{"poiid":"B2094757D069A3F8459F","title":"炮台湾湿地森林公园","lon":"121.50571413","lat":"31.393478751","category":"500","category_name":"未知分类","address":"上海宝山区塘后路"},{"poiid":"B2094757D06FABFE459A","title":"海江二村","lon":"121.50371","lat":"31.393312","category":"47","category_name":"住宅区","address":"永乐路222弄"},{"poiid":"B2094757D06AA4FE4499","title":"海军博物馆","lon":"121.50643","lat":"31.3887963487","category":"182","category_name":"博物馆","address":"宝山区塘后路68号(近淞宝路)"},{"poiid":"B2094655D26BA6FB4498","title":"吴淞炮台纪念遗址","lon":"121.5083","lat":"31.39336","category":"250","category_name":"公园户外","address":"塘后路206"},{"poiid":"B2094654D46AA7FB4099","title":"宝山一村","lon":"121.509","lat":"31.4009","category":"47","category_name":"住宅区","address":"上海双城路宝东路宝山一村4号"},{"poiid":"B2094654D46AA4FE4198","title":"宝山六村","lon":"121.502","lat":"31.397743","category":"47","category_name":"住宅区","address":"上海市宝山区永乐路115弄"},{"poiid":"B209475DD76AABFA4093","title":"吴淞炮台湾湿地森林公园","lon":"121.511054","lat":"31.39783","category":"250","category_name":"公园户外","address":"上海市 上海市宝山区黄浦江"},{"poiid":"B2094654DB6AA6FF4192","title":"海滨八村","lon":"121.507","lat":"31.3884","category":"47","category_name":"住宅区","address":"上海宝山区牡丹江路海滨八村46号"},{"poiid":"B2094750D669A4FA459A","title":"上海长江河口科技馆","lon":"121.506713","lat":"31.400457","category":"250","category_name":"公园户外","address":"宝山区塘后路206号吴淞炮台湾湿地公园(近国际邮轮码头)"},{"poiid":"B2094757D66EA5FD489F","title":"高桥老东街","lon":"121.52687183","lat":"31.403507258","category":"500","category_name":"未知分类","address":"上海季景北路东街"},{"poiid":"B2094757DA6FA2FC4998","title":"吴淞炮台湾湿地公园(北门)","lon":"121.501836776732","lat":"31.4026964848086","category":"250","category_name":"公园户外","address":"宝山区宝杨路(近宝杨支路)"},{"poiid":"B2094757D16FA1FD409F","title":"上海城投污水处理厂","lon":"121.512613631","lat":"31.3954619926","category":"500","category_name":"未知分类","address":"上海海江路1号"},{"poiid":"B209475DD365A2FD469C","title":"上海吴淞国际码头","lon":"121.512001","lat":"31.40802","category":"500","category_name":"未知分类","address":"上海宝山区宝杨路"},{"poiid":"B2094752D26BABFF449C","title":"上善宝邸","lon":"121.508543","lat":"31.394886","category":"47","category_name":"住宅区","address":"宝山区塘后支路19号"},{"poiid":"B2094654D46AA4FE419F","title":"海江公寓","lon":"121.5037","lat":"31.399063","category":"47","category_name":"住宅区","address":"塘后路285弄"},{"poiid":"B2094655D268A3FE499B","title":"前三营房","lon":"121.5051420877","lat":"31.391444050309","category":"47","category_name":"住宅区","address":"永清路98号"},{"poiid":"B2094654D46BA2FC4498","title":"双城路二弄小区","lon":"121.50777","lat":"31.39484","category":"47","category_name":"住宅区","address":"上海市宝山区双城路塘后路"},{"poiid":"B2094654D46BA2FC4293","title":"新叶公寓","lon":"121.50488","lat":"31.391869","category":"47","category_name":"住宅区","address":"上海市宝山区塘后路231号"},{"poiid":"B2094757D06AA0F8499C","title":"宝山二村","lon":"121.507","lat":"31.4014","category":"260","category_name":"其他","address":"上海市宝山区双城路"},{"poiid":"B2094757D568A5FC4293","title":"宝杨路客运码头","lon":"121.5038789","lat":"31.40380139","category":"35","category_name":"长途汽车站","address":"宝杨支路18号宝杨码头"},{"poiid":"B2094654D46BA2FC4393","title":"快客NO.6985","lon":"121.50638","lat":"31.39348","category":"117","category_name":"便民商店/便利店","address":""},{"poiid":"B2094757D16CAAFB439B","title":"阿良海鲜","lon":"121.501203","lat":"31.393635","category":"247","category_name":"餐饮美食","address":"上海宝山区双城路116号"},{"poiid":"B2094655D26FABFA4899","title":"双城路2弄小区(西门)","lon":"121.50557","lat":"31.39492","category":"47","category_name":"住宅区","address":"双城路2弄1-22号"},{"poiid":"B2094655D268A5F4449B","title":"海江公寓(西门)","lon":"121.5048","lat":"31.39653","category":"47","category_name":"住宅区","address":"塘后路285弄1-21号"},{"poiid":"B2094757D16EABFC4198","title":"小主人幼兒園","lon":"121.503705","lat":"31.393312","category":"57","category_name":"幼儿园","address":"上海海江二村"},{"poiid":"B2094757D06BA4F94298","title":"马拉戈壁","lon":"121.50718433","lat":"31.391325507","category":"247","category_name":"餐饮美食","address":"上海dkkskf"},{"poiid":"B2094757D164A4FA439B","title":"海滨五村","lon":"121.50103062728","lat":"31.401987993104","category":"46","category_name":"楼宇","address":"上海牡丹江路水产路"},{"poiid":"B2094654D46AA4FE459C","title":"上海市基督教吴淞堂","lon":"121.5013","lat":"31.40229","category":"245","category_name":"教堂","address":"宝山区宝杨路74"},{"poiid":"B2094757DB6FA5FE469A","title":"吴淞古炮台公园","lon":"121.5022320674001","lat":"31.39532357457224","category":"196","category_name":"公园","address":"双城路"},{"poiid":"B2094655D26FABFA429C","title":"海江二村(一号门)","lon":"121.50415","lat":"31.39466","category":"47","category_name":"住宅区","address":""},{"poiid":"B2094757D169A4FC409C","title":"宝山区建筑业受理服务中心","lon":"121.50640783","lat":"31.394165065","category":"500","category_name":"未知分类","address":"上海牡丹江路1188号7楼"},{"poiid":"B2094757D568ABFF419D","title":"联华超市(塘后路)","lon":"121.50344618","lat":"31.39903754","category":"118","category_name":"超级市场","address":"塘后路381"},{"poiid":"B2094654DB6AA5F8499A","title":"快客","lon":"121.50242","lat":"31.39451","category":"117","category_name":"便民商店/便利店","address":"双城路81"},{"poiid":"B2094757D569A6F94399","title":"长五小卖部","lon":"121.50292453","lat":"31.39648899","category":"117","category_name":"便民商店/便利店","address":"永乐路118-120"},{"poiid":"B2094655D36CA4FC429F","title":"宝东路海江路","lon":"121.50067","lat":"31.39725","category":"38","category_name":"公交车站","address":""},{"poiid":"B2094757D568A7FE409B","title":"好乐迪量贩式KTV音乐茶室","lon":"121.50664795","lat":"31.38941352","category":"170","category_name":"KTV","address":"塘后路112号"},{"poiid":"B2094654D46AA5FC4198","title":"永清路171弄","lon":"121.503","lat":"31.3937","category":"47","category_name":"住宅区","address":"永清路171弄1-12号"},{"poiid":"B2094654D46AA7FB4698","title":"永清路337弄小区","lon":"121.50261513212","lat":"31.394884022499","category":"47","category_name":"住宅区","address":"永清路337弄1-6号"},{"poiid":"B2094757D569A7FA4598","title":"立云汽车服务","lon":"121.50682644","lat":"31.39227132","category":"159","category_name":"汽车维修","address":"塘后路172"},{"poiid":"B2094750D16BA2FE4598","title":"皇家加勒比游轮","lon":"121.502983","lat":"31.404596","category":"500","category_name":"未知分类","address":null},{"poiid":"B2094757D068AAFF4798","title":"滨江森林公园真人CS野战场","lon":"121.526492","lat":"31.381339","category":"173","category_name":"游戏厅","address":"浦东新区高桥镇凌桥高沙滩3号(近公安高等专科学校)"},{"poiid":"B2094757D568AAFC409F","title":"美国CAS国家干洗(塘后路店)","lon":"121.50745877","lat":"31.39075412","category":"610","category_name":"干洗店","address":"塘后支路172"},{"poiid":"B2094757D66EA3FF479D","title":"肚子好饿","lon":"121.506598031","lat":"31.3907553955","category":"500","category_name":"未知分类","address":"上海肚织饿了"},{"poiid":"B2094757D16FA6F5489C","title":"宝林四小","lon":"121.50114293","lat":"31.402752243","category":"56","category_name":"小学","address":"上海宝山区宝林七村82号"},{"poiid":"B2094655D26FABF84698","title":"新叶公寓(东门)","lon":"121.50617","lat":"31.39239","category":"48","category_name":"楼宇大门","address":"塘后路203弄1-28号"},{"poiid":"B2094757D16FAAF4469D","title":"合宴酒楼","lon":"121.50195","lat":"31.39935","category":"260","category_name":"其他","address":"宝山区海江路5号(海江路塘后路)"},{"poiid":"B2094757D568A7FA4699","title":"杰隆公司宝垄车业服务(浩睿店)","lon":"121.5029267","lat":"31.39681939","category":"159","category_name":"汽车维修","address":"中国上海市宝山区永乐路"}]