[{"poiid":"B2094757D06FA3F5409B","title":"上海公安高等专科学校","lon":"121.51755523","lat":"31.377981185","category":"671","category_name":"高校中心点","address":"浦东新区凌桥崇景路100号(三岔港)"},{"poiid":"B2094655D26BA2FC469E","title":"吴淞码头","lon":"121.49789","lat":"31.37766","category":"38","category_name":"公交车站","address":""},{"poiid":"B2094757D068A2FF459F","title":"宝山区房地产交易中心","lon":"121.49867993","lat":"31.374190423","category":"249","category_name":"购物服务","address":"上海同泰路68号4楼"},{"poiid":"B2094757D06AA6F84598","title":"吴淞客运中心客运站","lon":"121.50122083","lat":"31.378539743","category":"35","category_name":"长途汽车站","address":"上海市宝山区化成路271号"},{"poiid":"B2094757D068A1FA489F","title":"新长江大酒店","lon":"121.499050731","lat":"31.3799873487","category":"217","category_name":"旅馆招待所","address":"上海宝山区淞宝路96号"},{"poiid":"B2094757D069A3F8459F","title":"炮台湾湿地森林公园","lon":"121.50571413","lat":"31.393478751","category":"500","category_name":"未知分类","address":"上海宝山区塘后路"},{"poiid":"B2094757D168ABF5439C","title":"星月国际商务广场","lon":"121.50003163","lat":"31.381648607","category":"500","category_name":"未知分类","address":"徐汇宜山路425号"},{"poiid":"B2094757D66CA4F54498","title":"众所粥滋(潮州海鲜粥)","lon":"121.50136","lat":"31.38392","category":"72","category_name":"广东菜","address":"宝山区淞宝路268号(近永清路)"},{"poiid":"B2094757D06AA4FE4499","title":"海军博物馆","lon":"121.50643","lat":"31.3887963487","category":"182","category_name":"博物馆","address":"宝山区塘后路68号(近淞宝路)"},{"poiid":"B2094654D46AA5FD4092","title":"海宝大酒店","lon":"121.49702","lat":"31.38114","category":"76","category_name":"上海菜","address":"宝山区牡丹江路289号(近同济支路)"},{"poiid":"B2094757D06FAAFA419A","title":"吴淞中学","lon":"121.49766","lat":"31.37568","category":"55","category_name":"中学","address":"宝山区泰和路99号(近牡丹江路)"},{"poiid":"B2094757D068A7F84592","title":"宝山区税务局","lon":"121.499759","lat":"31.375406","category":"500","category_name":"未知分类","address":"上海淞滨路28号"},{"poiid":"B2094750DB64A5FA4492","title":"巨麦时尚KTV(淞宝店)","lon":"121.50075273408515","lat":"31.381164858525576","category":"170","category_name":"KTV","address":"宝山区淞宝路155号星月广场3楼"},{"poiid":"B2094757D06AA0FB4292","title":"外环隧道","lon":"121.50563412","lat":"31.376110483","category":"500","category_name":"未知分类","address":"上海外环线"},{"poiid":"B2094757D06FABFE459A","title":"海江二村","lon":"121.50371","lat":"31.393312","category":"47","category_name":"住宅区","address":"永乐路222弄"},{"poiid":"B2094654DB6AA6FF4192","title":"海滨八村","lon":"121.507","lat":"31.3884","category":"47","category_name":"住宅区","address":"上海宝山区牡丹江路海滨八村46号"},{"poiid":"B2094757D069ABF5409A","title":"万家灯火酒店","lon":"121.502034061","lat":"31.3856950811","category":"75","category_name":"浙江菜","address":"宝山区淞宝路358号"},{"poiid":"B2094757D06FA6FB409F","title":"吴淞轮渡站","lon":"121.5012188","lat":"31.374578336","category":"35","category_name":"长途汽车站","address":"上海宝山区淞浦路114号"},{"poiid":"B2094750DA65A7F9439D","title":"弄堂口","lon":"121.500152","lat":"31.379171","category":"75","category_name":"浙江菜","address":"宝山区淞宝路155弄星月国际商务广场29号(近永清路)"},{"poiid":"B2094655D26BA1F84598","title":"牡丹江路吴淞医院","lon":"121.4972","lat":"31.37913","category":"162","category_name":"医院","address":""},{"poiid":"B2094757D16FA1FD4298","title":"海滨三村奉贤","lon":"121.49931404461","lat":"31.387000274504","category":"46","category_name":"楼宇","address":"上海牡丹江路水产路"},{"poiid":"B2094757D66BABF8419C","title":"锦润坊海鲜豆捞餐厅","lon":"121.50124","lat":"31.38345","category":"86","category_name":"火锅店","address":"宝山区淞宝路218号(近永清路)"},{"poiid":"B2094757D069AAFA4592","title":"吴淞口国际邮轮码头","lon":"121.499","lat":"31.3796","category":"260","category_name":"其他","address":"上海宝杨路1号"},{"poiid":"B2094750D26CA3F4429C","title":"老刘野生大鱼坊 宝山店","lon":"121.502523054","lat":"31.385492793","category":"82","category_name":"东北菜","address":"宝山区凇宝路406号(化成路淞宝路)"},{"poiid":"B2094757D06AA4F54899","title":"大唐酒店","lon":"121.50014495","lat":"31.383768081","category":"76","category_name":"上海菜","address":"宝山区永清路55号(近淞宝路)"},{"poiid":"B2094752D36DABFE499D","title":"横店影城","lon":"121.500458","lat":"31.380585","category":"178","category_name":"电影院","address":"淞宝路155号星月国际广场"},{"poiid":"B2094654D46AA5FE439A","title":"瑞华宝都","lon":"121.504","lat":"31.3839","category":"46","category_name":"楼宇","address":"牡丹江路186弄1幢1-3号"},{"poiid":"B2094757D569A3F54099","title":"上海港吴淞客运中心客运站","lon":"121.50186089","lat":"31.37859239","category":"35","category_name":"长途汽车站","address":"中国上海市宝山区化成路"},{"poiid":"B2094655D26BA3F5469F","title":"海淞苑","lon":"121.5007","lat":"31.384554","category":"47","category_name":"住宅区","address":"上海市宝山区淞宝路258弄"},{"poiid":"B2094751D56FA7FA439A","title":"横店电影城","lon":"121.499498","lat":"31.378073","category":"178","category_name":"电影院","address":"上海市宝山区淞宝路155弄71号一楼"},{"poiid":"B2094757D568A7F8469F","title":"星岛食府(海淞苑东北)","lon":"121.50215956","lat":"31.3861046","category":"257","category_name":"中餐厅","address":"中国上海市宝山区凇宝路"},{"poiid":"B2094757D66CA1F54893","title":"西瓜老爷","lon":"121.514824831","lat":"31.3765019015","category":"247","category_name":"餐饮美食","address":null},{"poiid":"B2094757D66DA3FD429F","title":"522公车","lon":"121.515141","lat":"31.38364","category":"500","category_name":"未知分类","address":"上海吴淞汽车站-兰陵路"},{"poiid":"B2094750D165A5FF4398","title":"驰公馆","lon":"121.50148","lat":"31.379848","category":"72","category_name":"广东菜","address":"宝山区淞宝路155弄38号(近化成路)"},{"poiid":"B2094750D564ABF9409A","title":"星月浦江国际","lon":"121.501608","lat":"31.379865","category":"46","category_name":"楼宇","address":"宝山淞宝路155弄"},{"poiid":"B2094757D66CA0FB4693","title":"淞宝发大酒店中餐厅","lon":"121.50201","lat":"31.38418","category":"76","category_name":"上海菜","address":"宝山区淞宝路288号"},{"poiid":"B2094757D165ABFE4598","title":"宝山12路","lon":"121.51567783","lat":"31.379551764","category":"500","category_name":"未知分类","address":"上海东周家角宅站"},{"poiid":"B2094757D168A0FB4999","title":"淞宝路","lon":"121.50137173","lat":"31.382647928","category":"500","category_name":"未知分类","address":"上海宝山区淞宝路"},{"poiid":"B2094757D469A0FC429F","title":"雨城料理","lon":"121.501845","lat":"31.3845689","category":"96","category_name":"韩国料理","address":"宝山区淞宝路399号(近永清路)"},{"poiid":"B2094757D568A0FB459D","title":"联和滨江大厦","lon":"121.501","lat":"31.377","category":"46","category_name":"楼宇","address":"丰台学城海鹰路1号,3号"},{"poiid":"B2094655D26BA6FB4498","title":"吴淞炮台纪念遗址","lon":"121.5083","lat":"31.39336","category":"250","category_name":"公园户外","address":"塘后路206"},{"poiid":"B2094750D769A2FD4792","title":"圣驰大唐","lon":"121.5","lat":"31.3833","category":"87","category_name":"特色／地方风味餐厅","address":"宝山区永清路56号"},{"poiid":"B2094757D16AA4FB449D","title":"海淞医院","lon":"121.50055","lat":"31.38145","category":"162","category_name":"医院","address":"上海宝山区淞宝路196号(永清路路口)  "},{"poiid":"B2094655D268A3FE499B","title":"前三营房","lon":"121.5051420877","lat":"31.391444050309","category":"47","category_name":"住宅区","address":"永清路98号"},{"poiid":"B2094655D26FA3FA4898","title":"馋神龙虾馆","lon":"121.49754469204","lat":"31.386369566175","category":"247","category_name":"餐饮美食","address":"淞宝路455号"},{"poiid":"B2094655D36DA7F54492","title":"淞宝路永清路","lon":"121.50204","lat":"31.385","category":"38","category_name":"公交车站","address":""},{"poiid":"B2094757D064ABFF439E","title":"锦润坊","lon":"121.50046383","lat":"31.382901833","category":"500","category_name":"未知分类","address":"上海市宝山区淞宝路218号"},{"poiid":"B2094753D16EA4FC499A","title":"巨麦时尚KTV(淞宝店)","lon":"121.50098","lat":"31.38077","category":"170","category_name":"KTV","address":"宝山区淞宝路155号星月广场3楼(近永清路)"},{"poiid":"B2094654DB6AA5F94592","title":"宝隆居家酒店(上海吴淞店)","lon":"121.50014","lat":"31.38376","category":"250","category_name":"公园户外","address":"上海市宝山区永清路55号"},{"poiid":"B2094757D469A3FE429D","title":"我爱我汤 宝山店","lon":"121.49681","lat":"31.38099","category":"68","category_name":"快餐厅","address":"宝山区牡丹江路298号农工商超市2楼超市入口处(近同济支路)"},{"poiid":"B2094757D06FA3F5409B","title":"上海公安高等专科学校","lon":"121.51755523","lat":"31.377981185","category":"671","category_name":"高校中心点","address":"浦东新区凌桥崇景路100号(三岔港)"},{"poiid":"B2094655D26BA2FC469E","title":"吴淞码头","lon":"121.49789","lat":"31.37766","category":"38","category_name":"公交车站","address":""},{"poiid":"B2094757D068A2FF459F","title":"宝山区房地产交易中心","lon":"121.49867993","lat":"31.374190423","category":"249","category_name":"购物服务","address":"上海同泰路68号4楼"},{"poiid":"B2094757D06AA6F84598","title":"吴淞客运中心客运站","lon":"121.50122083","lat":"31.378539743","category":"35","category_name":"长途汽车站","address":"上海市宝山区化成路271号"},{"poiid":"B2094757D068A1FA489F","title":"新长江大酒店","lon":"121.499050731","lat":"31.3799873487","category":"217","category_name":"旅馆招待所","address":"上海宝山区淞宝路96号"},{"poiid":"B2094757D069A3F8459F","title":"炮台湾湿地森林公园","lon":"121.50571413","lat":"31.393478751","category":"500","category_name":"未知分类","address":"上海宝山区塘后路"},{"poiid":"B2094757D168ABF5439C","title":"星月国际商务广场","lon":"121.50003163","lat":"31.381648607","category":"500","category_name":"未知分类","address":"徐汇宜山路425号"},{"poiid":"B2094757D66CA4F54498","title":"众所粥滋(潮州海鲜粥)","lon":"121.50136","lat":"31.38392","category":"72","category_name":"广东菜","address":"宝山区淞宝路268号(近永清路)"},{"poiid":"B2094757D06AA4FE4499","title":"海军博物馆","lon":"121.50643","lat":"31.3887963487","category":"182","category_name":"博物馆","address":"宝山区塘后路68号(近淞宝路)"},{"poiid":"B2094654D46AA5FD4092","title":"海宝大酒店","lon":"121.49702","lat":"31.38114","category":"76","category_name":"上海菜","address":"宝山区牡丹江路289号(近同济支路)"},{"poiid":"B2094757D06FAAFA419A","title":"吴淞中学","lon":"121.49766","lat":"31.37568","category":"55","category_name":"中学","address":"宝山区泰和路99号(近牡丹江路)"},{"poiid":"B2094757D068A7F84592","title":"宝山区税务局","lon":"121.499759","lat":"31.375406","category":"500","category_name":"未知分类","address":"上海淞滨路28号"},{"poiid":"B2094750DB64A5FA4492","title":"巨麦时尚KTV(淞宝店)","lon":"121.50075273408515","lat":"31.381164858525576","category":"170","category_name":"KTV","address":"宝山区淞宝路155号星月广场3楼"},{"poiid":"B2094757D06AA0FB4292","title":"外环隧道","lon":"121.50563412","lat":"31.376110483","category":"500","category_name":"未知分类","address":"上海外环线"},{"poiid":"B2094757D06FABFE459A","title":"海江二村","lon":"121.50371","lat":"31.393312","category":"47","category_name":"住宅区","address":"永乐路222弄"},{"poiid":"B2094654DB6AA6FF4192","title":"海滨八村","lon":"121.507","lat":"31.3884","category":"47","category_name":"住宅区","address":"上海宝山区牡丹江路海滨八村46号"},{"poiid":"B2094757D069ABF5409A","title":"万家灯火酒店","lon":"121.502034061","lat":"31.3856950811","category":"75","category_name":"浙江菜","address":"宝山区淞宝路358号"},{"poiid":"B2094757D06FA6FB409F","title":"吴淞轮渡站","lon":"121.5012188","lat":"31.374578336","category":"35","category_name":"长途汽车站","address":"上海宝山区淞浦路114号"},{"poiid":"B2094750DA65A7F9439D","title":"弄堂口","lon":"121.500152","lat":"31.379171","category":"75","category_name":"浙江菜","address":"宝山区淞宝路155弄星月国际商务广场29号(近永清路)"},{"poiid":"B2094655D26BA1F84598","title":"牡丹江路吴淞医院","lon":"121.4972","lat":"31.37913","category":"162","category_name":"医院","address":""},{"poiid":"B2094757D16FA1FD4298","title":"海滨三村奉贤","lon":"121.49931404461","lat":"31.387000274504","category":"46","category_name":"楼宇","address":"上海牡丹江路水产路"},{"poiid":"B2094757D66BABF8419C","title":"锦润坊海鲜豆捞餐厅","lon":"121.50124","lat":"31.38345","category":"86","category_name":"火锅店","address":"宝山区淞宝路218号(近永清路)"},{"poiid":"B2094757D069AAFA4592","title":"吴淞口国际邮轮码头","lon":"121.499","lat":"31.3796","category":"260","category_name":"其他","address":"上海宝杨路1号"},{"poiid":"B2094750D26CA3F4429C","title":"老刘野生大鱼坊 宝山店","lon":"121.502523054","lat":"31.385492793","category":"82","category_name":"东北菜","address":"宝山区凇宝路406号(化成路淞宝路)"},{"poiid":"B2094757D06AA4F54899","title":"大唐酒店","lon":"121.50014495","lat":"31.383768081","category":"76","category_name":"上海菜","address":"宝山区永清路55号(近淞宝路)"},{"poiid":"B2094752D36DABFE499D","title":"横店影城","lon":"121.500458","lat":"31.380585","category":"178","category_name":"电影院","address":"淞宝路155号星月国际广场"},{"poiid":"B2094654D46AA5FE439A","title":"瑞华宝都","lon":"121.504","lat":"31.3839","category":"46","category_name":"楼宇","address":"牡丹江路186弄1幢1-3号"},{"poiid":"B2094757D569A3F54099","title":"上海港吴淞客运中心客运站","lon":"121.50186089","lat":"31.37859239","category":"35","category_name":"长途汽车站","address":"中国上海市宝山区化成路"},{"poiid":"B2094655D26BA3F5469F","title":"海淞苑","lon":"121.5007","lat":"31.384554","category":"47","category_name":"住宅区","address":"上海市宝山区淞宝路258弄"},{"poiid":"B2094751D56FA7FA439A","title":"横店电影城","lon":"121.499498","lat":"31.378073","category":"178","category_name":"电影院","address":"上海市宝山区淞宝路155弄71号一楼"},{"poiid":"B2094757D568A7F8469F","title":"星岛食府(海淞苑东北)","lon":"121.50215956","lat":"31.3861046","category":"257","category_name":"中餐厅","address":"中国上海市宝山区凇宝路"},{"poiid":"B2094757D66CA1F54893","title":"西瓜老爷","lon":"121.514824831","lat":"31.3765019015","category":"247","category_name":"餐饮美食","address":null},{"poiid":"B2094757D66DA3FD429F","title":"522公车","lon":"121.515141","lat":"31.38364","category":"500","category_name":"未知分类","address":"上海吴淞汽车站-兰陵路"},{"poiid":"B2094750D165A5FF4398","title":"驰公馆","lon":"121.50148","lat":"31.379848","category":"72","category_name":"广东菜","address":"宝山区淞宝路155弄38号(近化成路)"},{"poiid":"B2094750D564ABF9409A","title":"星月浦江国际","lon":"121.501608","lat":"31.379865","category":"46","category_name":"楼宇","address":"宝山淞宝路155弄"},{"poiid":"B2094757D66CA0FB4693","title":"淞宝发大酒店中餐厅","lon":"121.50201","lat":"31.38418","category":"76","category_name":"上海菜","address":"宝山区淞宝路288号"},{"poiid":"B2094757D165ABFE4598","title":"宝山12路","lon":"121.51567783","lat":"31.379551764","category":"500","category_name":"未知分类","address":"上海东周家角宅站"},{"poiid":"B2094757D168A0FB4999","title":"淞宝路","lon":"121.50137173","lat":"31.382647928","category":"500","category_name":"未知分类","address":"上海宝山区淞宝路"},{"poiid":"B2094757D469A0FC429F","title":"雨城料理","lon":"121.501845","lat":"31.3845689","category":"96","category_name":"韩国料理","address":"宝山区淞宝路399号(近永清路)"},{"poiid":"B2094757D568A0FB459D","title":"联和滨江大厦","lon":"121.501","lat":"31.377","category":"46","category_name":"楼宇","address":"丰台学城海鹰路1号,3号"},{"poiid":"B2094655D26BA6FB4498","title":"吴淞炮台纪念遗址","lon":"121.5083","lat":"31.39336","category":"250","category_name":"公园户外","address":"塘后路206"},{"poiid":"B2094750D769A2FD4792","title":"圣驰大唐","lon":"121.5","lat":"31.3833","category":"87","category_name":"特色／地方风味餐厅","address":"宝山区永清路56号"},{"poiid":"B2094757D16AA4FB449D","title":"海淞医院","lon":"121.50055","lat":"31.38145","category":"162","category_name":"医院","address":"上海宝山区淞宝路196号(永清路路口)  "},{"poiid":"B2094655D268A3FE499B","title":"前三营房","lon":"121.5051420877","lat":"31.391444050309","category":"47","category_name":"住宅区","address":"永清路98号"},{"poiid":"B2094655D26FA3FA4898","title":"馋神龙虾馆","lon":"121.49754469204","lat":"31.386369566175","category":"247","category_name":"餐饮美食","address":"淞宝路455号"},{"poiid":"B2094655D36DA7F54492","title":"淞宝路永清路","lon":"121.50204","lat":"31.385","category":"38","category_name":"公交车站","address":""},{"poiid":"B2094757D064ABFF439E","title":"锦润坊","lon":"121.50046383","lat":"31.382901833","category":"500","category_name":"未知分类","address":"上海市宝山区淞宝路218号"},{"poiid":"B2094753D16EA4FC499A","title":"巨麦时尚KTV(淞宝店)","lon":"121.50098","lat":"31.38077","category":"170","category_name":"KTV","address":"宝山区淞宝路155号星月广场3楼(近永清路)"},{"poiid":"B2094654DB6AA5F94592","title":"宝隆居家酒店(上海吴淞店)","lon":"121.50014","lat":"31.38376","category":"250","category_name":"公园户外","address":"上海市宝山区永清路55号"},{"poiid":"B2094757D469A3FE429D","title":"我爱我汤 宝山店","lon":"121.49681","lat":"31.38099","category":"68","category_name":"快餐厅","address":"宝山区牡丹江路298号农工商超市2楼超市入口处(近同济支路)"},{"poiid":"B2094757D06FA3F5409B","title":"上海公安高等专科学校","lon":"121.51755523","lat":"31.377981185","category":"671","category_name":"高校中心点","address":"浦东新区凌桥崇景路100号(三岔港)"},{"poiid":"B2094655D26BA2FC469E","title":"吴淞码头","lon":"121.49789","lat":"31.37766","category":"38","category_name":"公交车站","address":""},{"poiid":"B2094757D068A2FF459F","title":"宝山区房地产交易中心","lon":"121.49867993","lat":"31.374190423","category":"249","category_name":"购物服务","address":"上海同泰路68号4楼"},{"poiid":"B2094757D06AA6F84598","title":"吴淞客运中心客运站","lon":"121.50122083","lat":"31.378539743","category":"35","category_name":"长途汽车站","address":"上海市宝山区化成路271号"},{"poiid":"B2094757D068A1FA489F","title":"新长江大酒店","lon":"121.499050731","lat":"31.3799873487","category":"217","category_name":"旅馆招待所","address":"上海宝山区淞宝路96号"},{"poiid":"B2094757D069A3F8459F","title":"炮台湾湿地森林公园","lon":"121.50571413","lat":"31.393478751","category":"500","category_name":"未知分类","address":"上海宝山区塘后路"},{"poiid":"B2094757D168ABF5439C","title":"星月国际商务广场","lon":"121.50003163","lat":"31.381648607","category":"500","category_name":"未知分类","address":"徐汇宜山路425号"},{"poiid":"B2094757D66CA4F54498","title":"众所粥滋(潮州海鲜粥)","lon":"121.50136","lat":"31.38392","category":"72","category_name":"广东菜","address":"宝山区淞宝路268号(近永清路)"},{"poiid":"B2094757D06AA4FE4499","title":"海军博物馆","lon":"121.50643","lat":"31.3887963487","category":"182","category_name":"博物馆","address":"宝山区塘后路68号(近淞宝路)"},{"poiid":"B2094654D46AA5FD4092","title":"海宝大酒店","lon":"121.49702","lat":"31.38114","category":"76","category_name":"上海菜","address":"宝山区牡丹江路289号(近同济支路)"},{"poiid":"B2094757D06FAAFA419A","title":"吴淞中学","lon":"121.49766","lat":"31.37568","category":"55","category_name":"中学","address":"宝山区泰和路99号(近牡丹江路)"},{"poiid":"B2094757D068A7F84592","title":"宝山区税务局","lon":"121.499759","lat":"31.375406","category":"500","category_name":"未知分类","address":"上海淞滨路28号"},{"poiid":"B2094750DB64A5FA4492","title":"巨麦时尚KTV(淞宝店)","lon":"121.50075273408515","lat":"31.381164858525576","category":"170","category_name":"KTV","address":"宝山区淞宝路155号星月广场3楼"},{"poiid":"B2094757D06AA0FB4292","title":"外环隧道","lon":"121.50563412","lat":"31.376110483","category":"500","category_name":"未知分类","address":"上海外环线"},{"poiid":"B2094757D06FABFE459A","title":"海江二村","lon":"121.50371","lat":"31.393312","category":"47","category_name":"住宅区","address":"永乐路222弄"},{"poiid":"B2094654DB6AA6FF4192","title":"海滨八村","lon":"121.507","lat":"31.3884","category":"47","category_name":"住宅区","address":"上海宝山区牡丹江路海滨八村46号"},{"poiid":"B2094757D069ABF5409A","title":"万家灯火酒店","lon":"121.502034061","lat":"31.3856950811","category":"75","category_name":"浙江菜","address":"宝山区淞宝路358号"},{"poiid":"B2094757D06FA6FB409F","title":"吴淞轮渡站","lon":"121.5012188","lat":"31.374578336","category":"35","category_name":"长途汽车站","address":"上海宝山区淞浦路114号"},{"poiid":"B2094750DA65A7F9439D","title":"弄堂口","lon":"121.500152","lat":"31.379171","category":"75","category_name":"浙江菜","address":"宝山区淞宝路155弄星月国际商务广场29号(近永清路)"},{"poiid":"B2094655D26BA1F84598","title":"牡丹江路吴淞医院","lon":"121.4972","lat":"31.37913","category":"162","category_name":"医院","address":""},{"poiid":"B2094757D16FA1FD4298","title":"海滨三村奉贤","lon":"121.49931404461","lat":"31.387000274504","category":"46","category_name":"楼宇","address":"上海牡丹江路水产路"},{"poiid":"B2094757D66BABF8419C","title":"锦润坊海鲜豆捞餐厅","lon":"121.50124","lat":"31.38345","category":"86","category_name":"火锅店","address":"宝山区淞宝路218号(近永清路)"},{"poiid":"B2094757D069AAFA4592","title":"吴淞口国际邮轮码头","lon":"121.499","lat":"31.3796","category":"260","category_name":"其他","address":"上海宝杨路1号"},{"poiid":"B2094750D26CA3F4429C","title":"老刘野生大鱼坊 宝山店","lon":"121.502523054","lat":"31.385492793","category":"82","category_name":"东北菜","address":"宝山区凇宝路406号(化成路淞宝路)"},{"poiid":"B2094757D06AA4F54899","title":"大唐酒店","lon":"121.50014495","lat":"31.383768081","category":"76","category_name":"上海菜","address":"宝山区永清路55号(近淞宝路)"},{"poiid":"B2094752D36DABFE499D","title":"横店影城","lon":"121.500458","lat":"31.380585","category":"178","category_name":"电影院","address":"淞宝路155号星月国际广场"},{"poiid":"B2094654D46AA5FE439A","title":"瑞华宝都","lon":"121.504","lat":"31.3839","category":"46","category_name":"楼宇","address":"牡丹江路186弄1幢1-3号"},{"poiid":"B2094757D569A3F54099","title":"上海港吴淞客运中心客运站","lon":"121.50186089","lat":"31.37859239","category":"35","category_name":"长途汽车站","address":"中国上海市宝山区化成路"},{"poiid":"B2094655D26BA3F5469F","title":"海淞苑","lon":"121.5007","lat":"31.384554","category":"47","category_name":"住宅区","address":"上海市宝山区淞宝路258弄"},{"poiid":"B2094751D56FA7FA439A","title":"横店电影城","lon":"121.499498","lat":"31.378073","category":"178","category_name":"电影院","address":"上海市宝山区淞宝路155弄71号一楼"},{"poiid":"B2094757D568A7F8469F","title":"星岛食府(海淞苑东北)","lon":"121.50215956","lat":"31.3861046","category":"257","category_name":"中餐厅","address":"中国上海市宝山区凇宝路"},{"poiid":"B2094757D66CA1F54893","title":"西瓜老爷","lon":"121.514824831","lat":"31.3765019015","category":"247","category_name":"餐饮美食","address":null},{"poiid":"B2094757D66DA3FD429F","title":"522公车","lon":"121.515141","lat":"31.38364","category":"500","category_name":"未知分类","address":"上海吴淞汽车站-兰陵路"},{"poiid":"B2094750D165A5FF4398","title":"驰公馆","lon":"121.50148","lat":"31.379848","category":"72","category_name":"广东菜","address":"宝山区淞宝路155弄38号(近化成路)"},{"poiid":"B2094750D564ABF9409A","title":"星月浦江国际","lon":"121.501608","lat":"31.379865","category":"46","category_name":"楼宇","address":"宝山淞宝路155弄"},{"poiid":"B2094757D66CA0FB4693","title":"淞宝发大酒店中餐厅","lon":"121.50201","lat":"31.38418","category":"76","category_name":"上海菜","address":"宝山区淞宝路288号"},{"poiid":"B2094757D165ABFE4598","title":"宝山12路","lon":"121.51567783","lat":"31.379551764","category":"500","category_name":"未知分类","address":"上海东周家角宅站"},{"poiid":"B2094757D168A0FB4999","title":"淞宝路","lon":"121.50137173","lat":"31.382647928","category":"500","category_name":"未知分类","address":"上海宝山区淞宝路"},{"poiid":"B2094757D469A0FC429F","title":"雨城料理","lon":"121.501845","lat":"31.3845689","category":"96","category_name":"韩国料理","address":"宝山区淞宝路399号(近永清路)"},{"poiid":"B2094757D568A0FB459D","title":"联和滨江大厦","lon":"121.501","lat":"31.377","category":"46","category_name":"楼宇","address":"丰台学城海鹰路1号,3号"},{"poiid":"B2094655D26BA6FB4498","title":"吴淞炮台纪念遗址","lon":"121.5083","lat":"31.39336","category":"250","category_name":"公园户外","address":"塘后路206"},{"poiid":"B2094750D769A2FD4792","title":"圣驰大唐","lon":"121.5","lat":"31.3833","category":"87","category_name":"特色／地方风味餐厅","address":"宝山区永清路56号"},{"poiid":"B2094757D16AA4FB449D","title":"海淞医院","lon":"121.50055","lat":"31.38145","category":"162","category_name":"医院","address":"上海宝山区淞宝路196号(永清路路口)  "},{"poiid":"B2094655D268A3FE499B","title":"前三营房","lon":"121.5051420877","lat":"31.391444050309","category":"47","category_name":"住宅区","address":"永清路98号"},{"poiid":"B2094655D26FA3FA4898","title":"馋神龙虾馆","lon":"121.49754469204","lat":"31.386369566175","category":"247","category_name":"餐饮美食","address":"淞宝路455号"},{"poiid":"B2094655D36DA7F54492","title":"淞宝路永清路","lon":"121.50204","lat":"31.385","category":"38","category_name":"公交车站","address":""},{"poiid":"B2094757D064ABFF439E","title":"锦润坊","lon":"121.50046383","lat":"31.382901833","category":"500","category_name":"未知分类","address":"上海市宝山区淞宝路218号"},{"poiid":"B2094753D16EA4FC499A","title":"巨麦时尚KTV(淞宝店)","lon":"121.50098","lat":"31.38077","category":"170","category_name":"KTV","address":"宝山区淞宝路155号星月广场3楼(近永清路)"},{"poiid":"B2094654DB6AA5F94592","title":"宝隆居家酒店(上海吴淞店)","lon":"121.50014","lat":"31.38376","category":"250","category_name":"公园户外","address":"上海市宝山区永清路55号"},{"poiid":"B2094757D469A3FE429D","title":"我爱我汤 宝山店","lon":"121.49681","lat":"31.38099","category":"68","category_name":"快餐厅","address":"宝山区牡丹江路298号农工商超市2楼超市入口处(近同济支路)"},{"poiid":"B2094757D06FA3F5409B","title":"上海公安高等专科学校","lon":"121.51755523","lat":"31.377981185","category":"671","category_name":"高校中心点","address":"浦东新区凌桥崇景路100号(三岔港)"},{"poiid":"B2094655D26BA2FC469E","title":"吴淞码头","lon":"121.49789","lat":"31.37766","category":"38","category_name":"公交车站","address":""},{"poiid":"B2094757D068A2FF459F","title":"宝山区房地产交易中心","lon":"121.49867993","lat":"31.374190423","category":"249","category_name":"购物服务","address":"上海同泰路68号4楼"},{"poiid":"B2094757D06AA6F84598","title":"吴淞客运中心客运站","lon":"121.50122083","lat":"31.378539743","category":"35","category_name":"长途汽车站","address":"上海市宝山区化成路271号"},{"poiid":"B2094757D068A1FA489F","title":"新长江大酒店","lon":"121.499050731","lat":"31.3799873487","category":"217","category_name":"旅馆招待所","address":"上海宝山区淞宝路96号"},{"poiid":"B2094757D069A3F8459F","title":"炮台湾湿地森林公园","lon":"121.50571413","lat":"31.393478751","category":"500","category_name":"未知分类","address":"上海宝山区塘后路"},{"poiid":"B2094757D168ABF5439C","title":"星月国际商务广场","lon":"121.50003163","lat":"31.381648607","category":"500","category_name":"未知分类","address":"徐汇宜山路425号"},{"poiid":"B2094757D66CA4F54498","title":"众所粥滋(潮州海鲜粥)","lon":"121.50136","lat":"31.38392","category":"72","category_name":"广东菜","address":"宝山区淞宝路268号(近永清路)"},{"poiid":"B2094757D06AA4FE4499","title":"海军博物馆","lon":"121.50643","lat":"31.3887963487","category":"182","category_name":"博物馆","address":"宝山区塘后路68号(近淞宝路)"},{"poiid":"B2094654D46AA5FD4092","title":"海宝大酒店","lon":"121.49702","lat":"31.38114","category":"76","category_name":"上海菜","address":"宝山区牡丹江路289号(近同济支路)"},{"poiid":"B2094757D06FAAFA419A","title":"吴淞中学","lon":"121.49766","lat":"31.37568","category":"55","category_name":"中学","address":"宝山区泰和路99号(近牡丹江路)"},{"poiid":"B2094757D068A7F84592","title":"宝山区税务局","lon":"121.499759","lat":"31.375406","category":"500","category_name":"未知分类","address":"上海淞滨路28号"},{"poiid":"B2094750DB64A5FA4492","title":"巨麦时尚KTV(淞宝店)","lon":"121.50075273408515","lat":"31.381164858525576","category":"170","category_name":"KTV","address":"宝山区淞宝路155号星月广场3楼"},{"poiid":"B2094757D06AA0FB4292","title":"外环隧道","lon":"121.50563412","lat":"31.376110483","category":"500","category_name":"未知分类","address":"上海外环线"},{"poiid":"B2094757D06FABFE459A","title":"海江二村","lon":"121.50371","lat":"31.393312","category":"47","category_name":"住宅区","address":"永乐路222弄"},{"poiid":"B2094654DB6AA6FF4192","title":"海滨八村","lon":"121.507","lat":"31.3884","category":"47","category_name":"住宅区","address":"上海宝山区牡丹江路海滨八村46号"},{"poiid":"B2094757D069ABF5409A","title":"万家灯火酒店","lon":"121.502034061","lat":"31.3856950811","category":"75","category_name":"浙江菜","address":"宝山区淞宝路358号"},{"poiid":"B2094757D06FA6FB409F","title":"吴淞轮渡站","lon":"121.5012188","lat":"31.374578336","category":"35","category_name":"长途汽车站","address":"上海宝山区淞浦路114号"},{"poiid":"B2094750DA65A7F9439D","title":"弄堂口","lon":"121.500152","lat":"31.379171","category":"75","category_name":"浙江菜","address":"宝山区淞宝路155弄星月国际商务广场29号(近永清路)"},{"poiid":"B2094655D26BA1F84598","title":"牡丹江路吴淞医院","lon":"121.4972","lat":"31.37913","category":"162","category_name":"医院","address":""},{"poiid":"B2094757D16FA1FD4298","title":"海滨三村奉贤","lon":"121.49931404461","lat":"31.387000274504","category":"46","category_name":"楼宇","address":"上海牡丹江路水产路"},{"poiid":"B2094757D66BABF8419C","title":"锦润坊海鲜豆捞餐厅","lon":"121.50124","lat":"31.38345","category":"86","category_name":"火锅店","address":"宝山区淞宝路218号(近永清路)"},{"poiid":"B2094757D069AAFA4592","title":"吴淞口国际邮轮码头","lon":"121.499","lat":"31.3796","category":"260","category_name":"其他","address":"上海宝杨路1号"},{"poiid":"B2094750D26CA3F4429C","title":"老刘野生大鱼坊 宝山店","lon":"121.502523054","lat":"31.385492793","category":"82","category_name":"东北菜","address":"宝山区凇宝路406号(化成路淞宝路)"},{"poiid":"B2094757D06AA4F54899","title":"大唐酒店","lon":"121.50014495","lat":"31.383768081","category":"76","category_name":"上海菜","address":"宝山区永清路55号(近淞宝路)"},{"poiid":"B2094752D36DABFE499D","title":"横店影城","lon":"121.500458","lat":"31.380585","category":"178","category_name":"电影院","address":"淞宝路155号星月国际广场"},{"poiid":"B2094654D46AA5FE439A","title":"瑞华宝都","lon":"121.504","lat":"31.3839","category":"46","category_name":"楼宇","address":"牡丹江路186弄1幢1-3号"},{"poiid":"B2094757D569A3F54099","title":"上海港吴淞客运中心客运站","lon":"121.50186089","lat":"31.37859239","category":"35","category_name":"长途汽车站","address":"中国上海市宝山区化成路"},{"poiid":"B2094655D26BA3F5469F","title":"海淞苑","lon":"121.5007","lat":"31.384554","category":"47","category_name":"住宅区","address":"上海市宝山区淞宝路258弄"},{"poiid":"B2094751D56FA7FA439A","title":"横店电影城","lon":"121.499498","lat":"31.378073","category":"178","category_name":"电影院","address":"上海市宝山区淞宝路155弄71号一楼"},{"poiid":"B2094757D568A7F8469F","title":"星岛食府(海淞苑东北)","lon":"121.50215956","lat":"31.3861046","category":"257","category_name":"中餐厅","address":"中国上海市宝山区凇宝路"},{"poiid":"B2094757D66CA1F54893","title":"西瓜老爷","lon":"121.514824831","lat":"31.3765019015","category":"247","category_name":"餐饮美食","address":null},{"poiid":"B2094757D66DA3FD429F","title":"522公车","lon":"121.515141","lat":"31.38364","category":"500","category_name":"未知分类","address":"上海吴淞汽车站-兰陵路"},{"poiid":"B2094750D165A5FF4398","title":"驰公馆","lon":"121.50148","lat":"31.379848","category":"72","category_name":"广东菜","address":"宝山区淞宝路155弄38号(近化成路)"},{"poiid":"B2094750D564ABF9409A","title":"星月浦江国际","lon":"121.501608","lat":"31.379865","category":"46","category_name":"楼宇","address":"宝山淞宝路155弄"},{"poiid":"B2094757D66CA0FB4693","title":"淞宝发大酒店中餐厅","lon":"121.50201","lat":"31.38418","category":"76","category_name":"上海菜","address":"宝山区淞宝路288号"},{"poiid":"B2094757D165ABFE4598","title":"宝山12路","lon":"121.51567783","lat":"31.379551764","category":"500","category_name":"未知分类","address":"上海东周家角宅站"},{"poiid":"B2094757D168A0FB4999","title":"淞宝路","lon":"121.50137173","lat":"31.382647928","category":"500","category_name":"未知分类","address":"上海宝山区淞宝路"},{"poiid":"B2094757D469A0FC429F","title":"雨城料理","lon":"121.501845","lat":"31.3845689","category":"96","category_name":"韩国料理","address":"宝山区淞宝路399号(近永清路)"},{"poiid":"B2094757D568A0FB459D","title":"联和滨江大厦","lon":"121.501","lat":"31.377","category":"46","category_name":"楼宇","address":"丰台学城海鹰路1号,3号"},{"poiid":"B2094655D26BA6FB4498","title":"吴淞炮台纪念遗址","lon":"121.5083","lat":"31.39336","category":"250","category_name":"公园户外","address":"塘后路206"},{"poiid":"B2094750D769A2FD4792","title":"圣驰大唐","lon":"121.5","lat":"31.3833","category":"87","category_name":"特色／地方风味餐厅","address":"宝山区永清路56号"},{"poiid":"B2094757D16AA4FB449D","title":"海淞医院","lon":"121.50055","lat":"31.38145","category":"162","category_name":"医院","address":"上海宝山区淞宝路196号(永清路路口)  "},{"poiid":"B2094655D268A3FE499B","title":"前三营房","lon":"121.5051420877","lat":"31.391444050309","category":"47","category_name":"住宅区","address":"永清路98号"},{"poiid":"B2094655D26FA3FA4898","title":"馋神龙虾馆","lon":"121.49754469204","lat":"31.386369566175","category":"247","category_name":"餐饮美食","address":"淞宝路455号"},{"poiid":"B2094655D36DA7F54492","title":"淞宝路永清路","lon":"121.50204","lat":"31.385","category":"38","category_name":"公交车站","address":""},{"poiid":"B2094757D064ABFF439E","title":"锦润坊","lon":"121.50046383","lat":"31.382901833","category":"500","category_name":"未知分类","address":"上海市宝山区淞宝路218号"},{"poiid":"B2094753D16EA4FC499A","title":"巨麦时尚KTV(淞宝店)","lon":"121.50098","lat":"31.38077","category":"170","category_name":"KTV","address":"宝山区淞宝路155号星月广场3楼(近永清路)"},{"poiid":"B2094654DB6AA5F94592","title":"宝隆居家酒店(上海吴淞店)","lon":"121.50014","lat":"31.38376","category":"250","category_name":"公园户外","address":"上海市宝山区永清路55号"},{"poiid":"B2094757D469A3FE429D","title":"我爱我汤 宝山店","lon":"121.49681","lat":"31.38099","category":"68","category_name":"快餐厅","address":"宝山区牡丹江路298号农工商超市2楼超市入口处(近同济支路)"}]