[{"poiid":"B2094757D06EAAFD469D","title":"上海1号私藏菜(静安寺店)","lon":"121.44309","lat":"31.222","category":"76","category_name":"上海菜","address":"上海静安区南京西路1856号3楼(近乌鲁木齐北路)  "},{"poiid":"B2094655D26EA5F44993","title":"满记甜品 静安寺店","lon":"121.44286410655","lat":"31.224251220367","category":"67","category_name":"甜品店","address":"静安区万航渡路72号九百世纪食品城旁(近静安寺)"},{"poiid":"B2094654D565A0FB4899","title":"上海竹家庄避风塘静安店","lon":"121.44284","lat":"31.22439","category":"72","category_name":"广东菜","address":"上海市徐汇区广元西路60号,(交大慧谷电脑城金信电玩对面)"},{"poiid":"B2094753D76FAAFA449C","title":"上海滩国泰旗舰店","lon":"121.466011","lat":"31.216125","category":"249","category_name":"购物服务","address":"淮海中路868号"},{"poiid":"B209475CD564A7F8439E","title":"上海滩中信泰富店","lon":"121.45602","lat":"31.22851","category":"119","category_name":"商场","address":"\"南京西路1168号中信泰富广场，店铺号221.\r\n\""},{"poiid":"B2094654D565A0FD499C","title":"华敏翰尊国际","lon":"121.44","lat":"31.2219","category":"46","category_name":"楼宇","address":"延安西路726-728号"},{"poiid":"B2094750D26AABFB4392","title":"糖员外私房甜品","lon":"121.443054","lat":"31.221466","category":"67","category_name":"甜品店","address":"静安区南京西路1887号(近乌鲁木齐北路)"},{"poiid":"B2094750D164ABFF4693","title":"Seesaw Coffee","lon":"121.440521","lat":"31.222074","category":"65","category_name":"咖啡厅","address":"静安区愚园路433号静安设计中心内(市西中学对面)"},{"poiid":"B2094752D76AA3FD489C","title":"好好先生","lon":"121.44278","lat":"31.223267","category":"247","category_name":"餐饮美食","address":"愚園路280號"},{"poiid":"B2094757D06FABF8479B","title":"市西中学","lon":"121.44104","lat":"31.22286","category":"55","category_name":"中学","address":"上海静安区愚园路404号(近乌鲁木齐北路)  "},{"poiid":"B2094752D464A1FF489C","title":"好好先生西餐厅","lon":"121.442902","lat":"31.223335","category":"247","category_name":"餐饮美食","address":"愚园路280号"},{"poiid":"B2094757DB68A4F9489C","title":"名宴粤菜","lon":"121.44304218656919","lat":"31.221484522382806","category":"72","category_name":"广东菜","address":"静安区南京西路1856号2楼(近静安寺)"},{"poiid":"B2094757D068A7F84599","title":"静安区牙病防治所(愚园路门诊部)","lon":"121.4397","lat":"31.22177","category":"162","category_name":"医院","address":"静安区愚园路507号(近华山路)"},{"poiid":"B2094750DA6FA6F84192","title":"Wine Connection Bar & Bistro","lon":"121.4412","lat":"31.221744","category":"247","category_name":"餐饮美食","address":"静安区愚园路439号"},{"poiid":"B2094757D06FA5FD429D","title":"肯德基 KFC (北京西路店)","lon":"121.442129194","lat":"31.2233911161","category":"68","category_name":"快餐厅","address":"静安区北京西路1829号(近乌鲁木齐北路)"},{"poiid":"B2094654D565A7FC469C","title":"新疆伊宁远征餐厅","lon":"121.442800054","lat":"31.222864793","category":"90","category_name":"清真餐馆","address":"静安区愚园支路20号(乌鲁木齐北路口)"},{"poiid":"B2094753D26BA3FC479C","title":"老灵额成都串串","lon":"121.441278","lat":"31.225222","category":"247","category_name":"餐饮美食","address":"上海市 万航渡路172号"},{"poiid":"B2094654D564A4FC4599","title":"裕丰国际大厦","lon":"121.441","lat":"31.2205","category":"46","category_name":"楼宇","address":"黄浦区南京东路311号"},{"poiid":"B2094654D565A1F4499F","title":"新恩堂","lon":"121.44068","lat":"31.22468","category":"245","category_name":"教堂","address":"静安区乌鲁木齐北路25号(近南京西路)"},{"poiid":"B2094655D36DA0F54099","title":"愚园路乌鲁木齐北路","lon":"121.44103","lat":"31.22278","category":"38","category_name":"公交车站","address":""},{"poiid":"B2094757D069A3FC429A","title":"蒲蒲兰绘本馆","lon":"121.44352","lat":"31.22299","category":"633","category_name":"商务服务类公司","address":"静安区愚园路262号(近北京西路)"},{"poiid":"B2094751D568A4FD429D","title":"上海一号私藏菜（南京西路店）","lon":"121.4392837","lat":"31.2218077","category":"247","category_name":"餐饮美食","address":null},{"poiid":"B2094752D165A1F5489E","title":"金牛苑","lon":"121.442146","lat":"31.225139","category":"47","category_name":"住宅区","address":"越洋广场芮欧百货2楼"},{"poiid":"B2094454D365A5FC4393","title":"Magnet磁石","lon":"121.44326","lat":"31.222986","category":"247","category_name":"餐饮美食","address":"上海市 南京西路1818号1788广场F1-06室"},{"poiid":"B2094750D769A2FE4493","title":"鸟重居酒屋(南京西路店)","lon":"121.442","lat":"31.2206","category":"95","category_name":"日本料理","address":"静安区南京西路1959号(乌鲁木齐中路)"},{"poiid":"B2094757D06BA5FA4592","title":"五右卫门洋面屋","lon":"121.442555986","lat":"31.2245413198","category":"257","category_name":"中餐厅","address":"上海万航渡路1号"},{"poiid":"B2094654D565A7FC449E","title":"申乐大厦","lon":"121.4426","lat":"31.223602","category":"47","category_name":"住宅区","address":"杨浦区大学路33号"},{"poiid":"B2094757DB6FA7FC459A","title":"天禧八號","lon":"121.44248","lat":"31.224709","category":"247","category_name":"餐饮美食","address":"静安区南京西路1649号静安公园8号楼(静安寺对面)"},{"poiid":"B2094757D06AA5FB439E","title":"图门串烤 万航渡路店","lon":"121.44097136455","lat":"31.225135975238","category":"68","category_name":"快餐厅","address":"静安区万航渡路192号(近乌鲁木齐北路)"},{"poiid":"B2094654D565A0FB4792","title":"珍妮花婚纱摄影(万航渡路)","lon":"121.44319","lat":"31.2243","category":"248","category_name":"生活娱乐","address":"万航渡路50号2层"},{"poiid":"B2094757D469A0FE489C","title":"云水肴","lon":"121.4394467","lat":"31.2218878","category":"91","category_name":"台湾菜","address":"静安区愚园路494-1号(乌鲁木齐北路口)"},{"poiid":"B2094750DB65A5FA4893","title":"新华书店(静安店)","lon":"121.442345","lat":"31.223573","category":"125","category_name":"书店","address":"静安区北京西路1829号"},{"poiid":"B2094654D565A7FC4992","title":"愚谷邨(愚园路)","lon":"121.44204","lat":"31.22222","category":"47","category_name":"住宅区","address":"愚园路361弄3-127号"},{"poiid":"B2094757D068A5F8459D","title":"炫动撞球概念馆","lon":"121.44324493","lat":"31.221765518","category":"171","category_name":"台球厅","address":"上海南京西路1856号4F"},{"poiid":"B2094757D06BA3FF4093","title":"红宝石 愚园路店 Ruby","lon":"121.441391054","lat":"31.222798793","category":"67","category_name":"甜品店","address":"静安区愚园路477号(近乌鲁木齐北路)"},{"poiid":"B209475CD06DA7FE489E","title":"好好先生西餐厅(静安寺店）","lon":"121.44285","lat":"31.22343","category":"67","category_name":"甜品店","address":"愚园路280号(近乌鲁木齐路)"},{"poiid":"B2094757D664ABF8469A","title":"台湾小吃鲁肉饭 静安店","lon":"121.442987054","lat":"31.223941793","category":"68","category_name":"快餐厅","address":"静安区万航渡路50号九百世纪食品城1楼(近北京西路)"},{"poiid":"B2094654DB6BA6FF499D","title":"九百世纪食品商城","lon":"121.44319","lat":"31.2243","category":"119","category_name":"商场","address":"静安区万航渡路36号(近华山路)"},{"poiid":"B2094757D66AA7FF4599","title":"Teotihuacan","lon":"121.43798","lat":"31.2216","category":"94","category_name":"西餐厅","address":"静安区愚园路580号(近镇宁路)"},{"poiid":"B2094757D468A1F5449A","title":"都可茶饮 静安寺店 CoCo","lon":"121.442968054","lat":"31.223889793","category":"113","category_name":"冷饮店","address":"静安区万航渡路50号(近百乐门)"},{"poiid":"B2094753D16BAAF8479A","title":"自由港量贩式KTV(静安寺店)","lon":"121.44325","lat":"31.22179","category":"170","category_name":"KTV","address":"静安区南京西路1856号4楼(近乌鲁木齐北路)"},{"poiid":"B2094654D564A4FC4898","title":"佳都大厦","lon":"121.441","lat":"31.2207","category":"46","category_name":"楼宇","address":"延安西路719号"},{"poiid":"B2094750DB6CA1F44592","title":"上海国际贵都大酒店","lon":"121.439631","lat":"31.221656","category":"500","category_name":"未知分类","address":null},{"poiid":"B2094757D06BA5FB4892","title":"精品牛肉面","lon":"121.44240266","lat":"31.224352883","category":"68","category_name":"快餐厅","address":"静安区北京西路1808号(近万航渡路)"},{"poiid":"B2094757D468A6F54398","title":"快乐柠檬 九百店 Happy Lemon","lon":"121.442987054","lat":"31.223941793","category":"113","category_name":"冷饮店","address":"静安区万航渡路50号(近北京西路)"},{"poiid":"B2094757D164A0FE439C","title":"南京西路乌鲁木齐路","lon":"121.442046","lat":"31.222357","category":"500","category_name":"未知分类","address":"上海南京西路乌鲁木齐路"},{"poiid":"B2094751D365A1FF4292","title":"Seesaw  Coffee","lon":"121.440399","lat":"31.221924","category":"247","category_name":"餐饮美食","address":"上海市静安区愚园路433弄静安设计中心"},{"poiid":"B2094757D66BA6FF4992","title":"三阳盛 南京西路店","lon":"121.442735054","lat":"31.221350793","category":"68","category_name":"快餐厅","address":"静安区南京西路1888号(近乌鲁木齐北路)"},{"poiid":"B2094757D06BA0FC4899","title":"Happyface Coffee","lon":"121.44212632","lat":"31.220966659","category":"65","category_name":"咖啡厅","address":"上海淮海中路1288号(华亭路口)"},{"poiid":"B2094654DB6AA3FA4793","title":"黄记桂林米粉 南京西路店","lon":"121.44178363359","lat":"31.220818276983","category":"247","category_name":"餐饮美食","address":"静安区南京西路1898号(近乌鲁木齐北路)"},{"poiid":"B2094757D06EAAFD469D","title":"上海1号私藏菜(静安寺店)","lon":"121.44309","lat":"31.222","category":"76","category_name":"上海菜","address":"上海静安区南京西路1856号3楼(近乌鲁木齐北路)  "},{"poiid":"B2094655D26EA5F44993","title":"满记甜品 静安寺店","lon":"121.44286410655","lat":"31.224251220367","category":"67","category_name":"甜品店","address":"静安区万航渡路72号九百世纪食品城旁(近静安寺)"},{"poiid":"B2094654D565A0FB4899","title":"上海竹家庄避风塘静安店","lon":"121.44284","lat":"31.22439","category":"72","category_name":"广东菜","address":"上海市徐汇区广元西路60号,(交大慧谷电脑城金信电玩对面)"},{"poiid":"B2094753D76FAAFA449C","title":"上海滩国泰旗舰店","lon":"121.466011","lat":"31.216125","category":"249","category_name":"购物服务","address":"淮海中路868号"},{"poiid":"B209475CD564A7F8439E","title":"上海滩中信泰富店","lon":"121.45602","lat":"31.22851","category":"119","category_name":"商场","address":"\"南京西路1168号中信泰富广场，店铺号221.\r\n\""},{"poiid":"B2094654D565A0FD499C","title":"华敏翰尊国际","lon":"121.44","lat":"31.2219","category":"46","category_name":"楼宇","address":"延安西路726-728号"},{"poiid":"B2094750D26AABFB4392","title":"糖员外私房甜品","lon":"121.443054","lat":"31.221466","category":"67","category_name":"甜品店","address":"静安区南京西路1887号(近乌鲁木齐北路)"},{"poiid":"B2094750D164ABFF4693","title":"Seesaw Coffee","lon":"121.440521","lat":"31.222074","category":"65","category_name":"咖啡厅","address":"静安区愚园路433号静安设计中心内(市西中学对面)"},{"poiid":"B2094752D76AA3FD489C","title":"好好先生","lon":"121.44278","lat":"31.223267","category":"247","category_name":"餐饮美食","address":"愚園路280號"},{"poiid":"B2094757D06FABF8479B","title":"市西中学","lon":"121.44104","lat":"31.22286","category":"55","category_name":"中学","address":"上海静安区愚园路404号(近乌鲁木齐北路)  "},{"poiid":"B2094752D464A1FF489C","title":"好好先生西餐厅","lon":"121.442902","lat":"31.223335","category":"247","category_name":"餐饮美食","address":"愚园路280号"},{"poiid":"B2094757DB68A4F9489C","title":"名宴粤菜","lon":"121.44304218656919","lat":"31.221484522382806","category":"72","category_name":"广东菜","address":"静安区南京西路1856号2楼(近静安寺)"},{"poiid":"B2094757D068A7F84599","title":"静安区牙病防治所(愚园路门诊部)","lon":"121.4397","lat":"31.22177","category":"162","category_name":"医院","address":"静安区愚园路507号(近华山路)"},{"poiid":"B2094750DA6FA6F84192","title":"Wine Connection Bar & Bistro","lon":"121.4412","lat":"31.221744","category":"247","category_name":"餐饮美食","address":"静安区愚园路439号"},{"poiid":"B2094757D06FA5FD429D","title":"肯德基 KFC (北京西路店)","lon":"121.442129194","lat":"31.2233911161","category":"68","category_name":"快餐厅","address":"静安区北京西路1829号(近乌鲁木齐北路)"},{"poiid":"B2094654D565A7FC469C","title":"新疆伊宁远征餐厅","lon":"121.442800054","lat":"31.222864793","category":"90","category_name":"清真餐馆","address":"静安区愚园支路20号(乌鲁木齐北路口)"},{"poiid":"B2094753D26BA3FC479C","title":"老灵额成都串串","lon":"121.441278","lat":"31.225222","category":"247","category_name":"餐饮美食","address":"上海市 万航渡路172号"},{"poiid":"B2094654D564A4FC4599","title":"裕丰国际大厦","lon":"121.441","lat":"31.2205","category":"46","category_name":"楼宇","address":"黄浦区南京东路311号"},{"poiid":"B2094654D565A1F4499F","title":"新恩堂","lon":"121.44068","lat":"31.22468","category":"245","category_name":"教堂","address":"静安区乌鲁木齐北路25号(近南京西路)"},{"poiid":"B2094655D36DA0F54099","title":"愚园路乌鲁木齐北路","lon":"121.44103","lat":"31.22278","category":"38","category_name":"公交车站","address":""},{"poiid":"B2094757D069A3FC429A","title":"蒲蒲兰绘本馆","lon":"121.44352","lat":"31.22299","category":"633","category_name":"商务服务类公司","address":"静安区愚园路262号(近北京西路)"},{"poiid":"B2094751D568A4FD429D","title":"上海一号私藏菜（南京西路店）","lon":"121.4392837","lat":"31.2218077","category":"247","category_name":"餐饮美食","address":null},{"poiid":"B2094752D165A1F5489E","title":"金牛苑","lon":"121.442146","lat":"31.225139","category":"47","category_name":"住宅区","address":"越洋广场芮欧百货2楼"},{"poiid":"B2094454D365A5FC4393","title":"Magnet磁石","lon":"121.44326","lat":"31.222986","category":"247","category_name":"餐饮美食","address":"上海市 南京西路1818号1788广场F1-06室"},{"poiid":"B2094750D769A2FE4493","title":"鸟重居酒屋(南京西路店)","lon":"121.442","lat":"31.2206","category":"95","category_name":"日本料理","address":"静安区南京西路1959号(乌鲁木齐中路)"},{"poiid":"B2094757D06BA5FA4592","title":"五右卫门洋面屋","lon":"121.442555986","lat":"31.2245413198","category":"257","category_name":"中餐厅","address":"上海万航渡路1号"},{"poiid":"B2094654D565A7FC449E","title":"申乐大厦","lon":"121.4426","lat":"31.223602","category":"47","category_name":"住宅区","address":"杨浦区大学路33号"},{"poiid":"B2094757DB6FA7FC459A","title":"天禧八號","lon":"121.44248","lat":"31.224709","category":"247","category_name":"餐饮美食","address":"静安区南京西路1649号静安公园8号楼(静安寺对面)"},{"poiid":"B2094757D06AA5FB439E","title":"图门串烤 万航渡路店","lon":"121.44097136455","lat":"31.225135975238","category":"68","category_name":"快餐厅","address":"静安区万航渡路192号(近乌鲁木齐北路)"},{"poiid":"B2094654D565A0FB4792","title":"珍妮花婚纱摄影(万航渡路)","lon":"121.44319","lat":"31.2243","category":"248","category_name":"生活娱乐","address":"万航渡路50号2层"},{"poiid":"B2094757D469A0FE489C","title":"云水肴","lon":"121.4394467","lat":"31.2218878","category":"91","category_name":"台湾菜","address":"静安区愚园路494-1号(乌鲁木齐北路口)"},{"poiid":"B2094750DB65A5FA4893","title":"新华书店(静安店)","lon":"121.442345","lat":"31.223573","category":"125","category_name":"书店","address":"静安区北京西路1829号"},{"poiid":"B2094654D565A7FC4992","title":"愚谷邨(愚园路)","lon":"121.44204","lat":"31.22222","category":"47","category_name":"住宅区","address":"愚园路361弄3-127号"},{"poiid":"B2094757D068A5F8459D","title":"炫动撞球概念馆","lon":"121.44324493","lat":"31.221765518","category":"171","category_name":"台球厅","address":"上海南京西路1856号4F"},{"poiid":"B2094757D06BA3FF4093","title":"红宝石 愚园路店 Ruby","lon":"121.441391054","lat":"31.222798793","category":"67","category_name":"甜品店","address":"静安区愚园路477号(近乌鲁木齐北路)"},{"poiid":"B209475CD06DA7FE489E","title":"好好先生西餐厅(静安寺店）","lon":"121.44285","lat":"31.22343","category":"67","category_name":"甜品店","address":"愚园路280号(近乌鲁木齐路)"},{"poiid":"B2094757D664ABF8469A","title":"台湾小吃鲁肉饭 静安店","lon":"121.442987054","lat":"31.223941793","category":"68","category_name":"快餐厅","address":"静安区万航渡路50号九百世纪食品城1楼(近北京西路)"},{"poiid":"B2094654DB6BA6FF499D","title":"九百世纪食品商城","lon":"121.44319","lat":"31.2243","category":"119","category_name":"商场","address":"静安区万航渡路36号(近华山路)"},{"poiid":"B2094757D66AA7FF4599","title":"Teotihuacan","lon":"121.43798","lat":"31.2216","category":"94","category_name":"西餐厅","address":"静安区愚园路580号(近镇宁路)"},{"poiid":"B2094757D468A1F5449A","title":"都可茶饮 静安寺店 CoCo","lon":"121.442968054","lat":"31.223889793","category":"113","category_name":"冷饮店","address":"静安区万航渡路50号(近百乐门)"},{"poiid":"B2094753D16BAAF8479A","title":"自由港量贩式KTV(静安寺店)","lon":"121.44325","lat":"31.22179","category":"170","category_name":"KTV","address":"静安区南京西路1856号4楼(近乌鲁木齐北路)"},{"poiid":"B2094654D564A4FC4898","title":"佳都大厦","lon":"121.441","lat":"31.2207","category":"46","category_name":"楼宇","address":"延安西路719号"},{"poiid":"B2094750DB6CA1F44592","title":"上海国际贵都大酒店","lon":"121.439631","lat":"31.221656","category":"500","category_name":"未知分类","address":null},{"poiid":"B2094757D06BA5FB4892","title":"精品牛肉面","lon":"121.44240266","lat":"31.224352883","category":"68","category_name":"快餐厅","address":"静安区北京西路1808号(近万航渡路)"},{"poiid":"B2094757D468A6F54398","title":"快乐柠檬 九百店 Happy Lemon","lon":"121.442987054","lat":"31.223941793","category":"113","category_name":"冷饮店","address":"静安区万航渡路50号(近北京西路)"},{"poiid":"B2094757D164A0FE439C","title":"南京西路乌鲁木齐路","lon":"121.442046","lat":"31.222357","category":"500","category_name":"未知分类","address":"上海南京西路乌鲁木齐路"},{"poiid":"B2094751D365A1FF4292","title":"Seesaw  Coffee","lon":"121.440399","lat":"31.221924","category":"247","category_name":"餐饮美食","address":"上海市静安区愚园路433弄静安设计中心"},{"poiid":"B2094757D66BA6FF4992","title":"三阳盛 南京西路店","lon":"121.442735054","lat":"31.221350793","category":"68","category_name":"快餐厅","address":"静安区南京西路1888号(近乌鲁木齐北路)"},{"poiid":"B2094757D06BA0FC4899","title":"Happyface Coffee","lon":"121.44212632","lat":"31.220966659","category":"65","category_name":"咖啡厅","address":"上海淮海中路1288号(华亭路口)"},{"poiid":"B2094654DB6AA3FA4793","title":"黄记桂林米粉 南京西路店","lon":"121.44178363359","lat":"31.220818276983","category":"247","category_name":"餐饮美食","address":"静安区南京西路1898号(近乌鲁木齐北路)"},{"poiid":"B2094757D06EAAFD469D","title":"上海1号私藏菜(静安寺店)","lon":"121.44309","lat":"31.222","category":"76","category_name":"上海菜","address":"上海静安区南京西路1856号3楼(近乌鲁木齐北路)  "},{"poiid":"B2094655D26EA5F44993","title":"满记甜品 静安寺店","lon":"121.44286410655","lat":"31.224251220367","category":"67","category_name":"甜品店","address":"静安区万航渡路72号九百世纪食品城旁(近静安寺)"},{"poiid":"B2094654D565A0FB4899","title":"上海竹家庄避风塘静安店","lon":"121.44284","lat":"31.22439","category":"72","category_name":"广东菜","address":"上海市徐汇区广元西路60号,(交大慧谷电脑城金信电玩对面)"},{"poiid":"B2094753D76FAAFA449C","title":"上海滩国泰旗舰店","lon":"121.466011","lat":"31.216125","category":"249","category_name":"购物服务","address":"淮海中路868号"},{"poiid":"B209475CD564A7F8439E","title":"上海滩中信泰富店","lon":"121.45602","lat":"31.22851","category":"119","category_name":"商场","address":"\"南京西路1168号中信泰富广场，店铺号221.\r\n\""},{"poiid":"B2094654D565A0FD499C","title":"华敏翰尊国际","lon":"121.44","lat":"31.2219","category":"46","category_name":"楼宇","address":"延安西路726-728号"},{"poiid":"B2094750D26AABFB4392","title":"糖员外私房甜品","lon":"121.443054","lat":"31.221466","category":"67","category_name":"甜品店","address":"静安区南京西路1887号(近乌鲁木齐北路)"},{"poiid":"B2094750D164ABFF4693","title":"Seesaw Coffee","lon":"121.440521","lat":"31.222074","category":"65","category_name":"咖啡厅","address":"静安区愚园路433号静安设计中心内(市西中学对面)"},{"poiid":"B2094752D76AA3FD489C","title":"好好先生","lon":"121.44278","lat":"31.223267","category":"247","category_name":"餐饮美食","address":"愚園路280號"},{"poiid":"B2094757D06FABF8479B","title":"市西中学","lon":"121.44104","lat":"31.22286","category":"55","category_name":"中学","address":"上海静安区愚园路404号(近乌鲁木齐北路)  "},{"poiid":"B2094752D464A1FF489C","title":"好好先生西餐厅","lon":"121.442902","lat":"31.223335","category":"247","category_name":"餐饮美食","address":"愚园路280号"},{"poiid":"B2094757DB68A4F9489C","title":"名宴粤菜","lon":"121.44304218656919","lat":"31.221484522382806","category":"72","category_name":"广东菜","address":"静安区南京西路1856号2楼(近静安寺)"},{"poiid":"B2094757D068A7F84599","title":"静安区牙病防治所(愚园路门诊部)","lon":"121.4397","lat":"31.22177","category":"162","category_name":"医院","address":"静安区愚园路507号(近华山路)"},{"poiid":"B2094750DA6FA6F84192","title":"Wine Connection Bar & Bistro","lon":"121.4412","lat":"31.221744","category":"247","category_name":"餐饮美食","address":"静安区愚园路439号"},{"poiid":"B2094757D06FA5FD429D","title":"肯德基 KFC (北京西路店)","lon":"121.442129194","lat":"31.2233911161","category":"68","category_name":"快餐厅","address":"静安区北京西路1829号(近乌鲁木齐北路)"},{"poiid":"B2094654D565A7FC469C","title":"新疆伊宁远征餐厅","lon":"121.442800054","lat":"31.222864793","category":"90","category_name":"清真餐馆","address":"静安区愚园支路20号(乌鲁木齐北路口)"},{"poiid":"B2094753D26BA3FC479C","title":"老灵额成都串串","lon":"121.441278","lat":"31.225222","category":"247","category_name":"餐饮美食","address":"上海市 万航渡路172号"},{"poiid":"B2094654D564A4FC4599","title":"裕丰国际大厦","lon":"121.441","lat":"31.2205","category":"46","category_name":"楼宇","address":"黄浦区南京东路311号"},{"poiid":"B2094654D565A1F4499F","title":"新恩堂","lon":"121.44068","lat":"31.22468","category":"245","category_name":"教堂","address":"静安区乌鲁木齐北路25号(近南京西路)"},{"poiid":"B2094655D36DA0F54099","title":"愚园路乌鲁木齐北路","lon":"121.44103","lat":"31.22278","category":"38","category_name":"公交车站","address":""},{"poiid":"B2094757D069A3FC429A","title":"蒲蒲兰绘本馆","lon":"121.44352","lat":"31.22299","category":"633","category_name":"商务服务类公司","address":"静安区愚园路262号(近北京西路)"},{"poiid":"B2094751D568A4FD429D","title":"上海一号私藏菜（南京西路店）","lon":"121.4392837","lat":"31.2218077","category":"247","category_name":"餐饮美食","address":null},{"poiid":"B2094752D165A1F5489E","title":"金牛苑","lon":"121.442146","lat":"31.225139","category":"47","category_name":"住宅区","address":"越洋广场芮欧百货2楼"},{"poiid":"B2094454D365A5FC4393","title":"Magnet磁石","lon":"121.44326","lat":"31.222986","category":"247","category_name":"餐饮美食","address":"上海市 南京西路1818号1788广场F1-06室"},{"poiid":"B2094750D769A2FE4493","title":"鸟重居酒屋(南京西路店)","lon":"121.442","lat":"31.2206","category":"95","category_name":"日本料理","address":"静安区南京西路1959号(乌鲁木齐中路)"},{"poiid":"B2094757D06BA5FA4592","title":"五右卫门洋面屋","lon":"121.442555986","lat":"31.2245413198","category":"257","category_name":"中餐厅","address":"上海万航渡路1号"},{"poiid":"B2094654D565A7FC449E","title":"申乐大厦","lon":"121.4426","lat":"31.223602","category":"47","category_name":"住宅区","address":"杨浦区大学路33号"},{"poiid":"B2094757DB6FA7FC459A","title":"天禧八號","lon":"121.44248","lat":"31.224709","category":"247","category_name":"餐饮美食","address":"静安区南京西路1649号静安公园8号楼(静安寺对面)"},{"poiid":"B2094757D06AA5FB439E","title":"图门串烤 万航渡路店","lon":"121.44097136455","lat":"31.225135975238","category":"68","category_name":"快餐厅","address":"静安区万航渡路192号(近乌鲁木齐北路)"},{"poiid":"B2094654D565A0FB4792","title":"珍妮花婚纱摄影(万航渡路)","lon":"121.44319","lat":"31.2243","category":"248","category_name":"生活娱乐","address":"万航渡路50号2层"},{"poiid":"B2094757D469A0FE489C","title":"云水肴","lon":"121.4394467","lat":"31.2218878","category":"91","category_name":"台湾菜","address":"静安区愚园路494-1号(乌鲁木齐北路口)"},{"poiid":"B2094750DB65A5FA4893","title":"新华书店(静安店)","lon":"121.442345","lat":"31.223573","category":"125","category_name":"书店","address":"静安区北京西路1829号"},{"poiid":"B2094654D565A7FC4992","title":"愚谷邨(愚园路)","lon":"121.44204","lat":"31.22222","category":"47","category_name":"住宅区","address":"愚园路361弄3-127号"},{"poiid":"B2094757D068A5F8459D","title":"炫动撞球概念馆","lon":"121.44324493","lat":"31.221765518","category":"171","category_name":"台球厅","address":"上海南京西路1856号4F"},{"poiid":"B2094757D06BA3FF4093","title":"红宝石 愚园路店 Ruby","lon":"121.441391054","lat":"31.222798793","category":"67","category_name":"甜品店","address":"静安区愚园路477号(近乌鲁木齐北路)"},{"poiid":"B209475CD06DA7FE489E","title":"好好先生西餐厅(静安寺店）","lon":"121.44285","lat":"31.22343","category":"67","category_name":"甜品店","address":"愚园路280号(近乌鲁木齐路)"},{"poiid":"B2094757D664ABF8469A","title":"台湾小吃鲁肉饭 静安店","lon":"121.442987054","lat":"31.223941793","category":"68","category_name":"快餐厅","address":"静安区万航渡路50号九百世纪食品城1楼(近北京西路)"},{"poiid":"B2094654DB6BA6FF499D","title":"九百世纪食品商城","lon":"121.44319","lat":"31.2243","category":"119","category_name":"商场","address":"静安区万航渡路36号(近华山路)"},{"poiid":"B2094757D66AA7FF4599","title":"Teotihuacan","lon":"121.43798","lat":"31.2216","category":"94","category_name":"西餐厅","address":"静安区愚园路580号(近镇宁路)"},{"poiid":"B2094757D468A1F5449A","title":"都可茶饮 静安寺店 CoCo","lon":"121.442968054","lat":"31.223889793","category":"113","category_name":"冷饮店","address":"静安区万航渡路50号(近百乐门)"},{"poiid":"B2094753D16BAAF8479A","title":"自由港量贩式KTV(静安寺店)","lon":"121.44325","lat":"31.22179","category":"170","category_name":"KTV","address":"静安区南京西路1856号4楼(近乌鲁木齐北路)"},{"poiid":"B2094654D564A4FC4898","title":"佳都大厦","lon":"121.441","lat":"31.2207","category":"46","category_name":"楼宇","address":"延安西路719号"},{"poiid":"B2094750DB6CA1F44592","title":"上海国际贵都大酒店","lon":"121.439631","lat":"31.221656","category":"500","category_name":"未知分类","address":null},{"poiid":"B2094757D06BA5FB4892","title":"精品牛肉面","lon":"121.44240266","lat":"31.224352883","category":"68","category_name":"快餐厅","address":"静安区北京西路1808号(近万航渡路)"},{"poiid":"B2094757D468A6F54398","title":"快乐柠檬 九百店 Happy Lemon","lon":"121.442987054","lat":"31.223941793","category":"113","category_name":"冷饮店","address":"静安区万航渡路50号(近北京西路)"},{"poiid":"B2094757D164A0FE439C","title":"南京西路乌鲁木齐路","lon":"121.442046","lat":"31.222357","category":"500","category_name":"未知分类","address":"上海南京西路乌鲁木齐路"},{"poiid":"B2094751D365A1FF4292","title":"Seesaw  Coffee","lon":"121.440399","lat":"31.221924","category":"247","category_name":"餐饮美食","address":"上海市静安区愚园路433弄静安设计中心"},{"poiid":"B2094757D66BA6FF4992","title":"三阳盛 南京西路店","lon":"121.442735054","lat":"31.221350793","category":"68","category_name":"快餐厅","address":"静安区南京西路1888号(近乌鲁木齐北路)"},{"poiid":"B2094757D06BA0FC4899","title":"Happyface Coffee","lon":"121.44212632","lat":"31.220966659","category":"65","category_name":"咖啡厅","address":"上海淮海中路1288号(华亭路口)"},{"poiid":"B2094654DB6AA3FA4793","title":"黄记桂林米粉 南京西路店","lon":"121.44178363359","lat":"31.220818276983","category":"247","category_name":"餐饮美食","address":"静安区南京西路1898号(近乌鲁木齐北路)"},{"poiid":"B2094757D06EAAFD469D","title":"上海1号私藏菜(静安寺店)","lon":"121.44309","lat":"31.222","category":"76","category_name":"上海菜","address":"上海静安区南京西路1856号3楼(近乌鲁木齐北路)  "},{"poiid":"B2094655D26EA5F44993","title":"满记甜品 静安寺店","lon":"121.44286410655","lat":"31.224251220367","category":"67","category_name":"甜品店","address":"静安区万航渡路72号九百世纪食品城旁(近静安寺)"},{"poiid":"B2094654D565A0FB4899","title":"上海竹家庄避风塘静安店","lon":"121.44284","lat":"31.22439","category":"72","category_name":"广东菜","address":"上海市徐汇区广元西路60号,(交大慧谷电脑城金信电玩对面)"},{"poiid":"B2094753D76FAAFA449C","title":"上海滩国泰旗舰店","lon":"121.466011","lat":"31.216125","category":"249","category_name":"购物服务","address":"淮海中路868号"},{"poiid":"B209475CD564A7F8439E","title":"上海滩中信泰富店","lon":"121.45602","lat":"31.22851","category":"119","category_name":"商场","address":"\"南京西路1168号中信泰富广场，店铺号221.\r\n\""},{"poiid":"B2094654D565A0FD499C","title":"华敏翰尊国际","lon":"121.44","lat":"31.2219","category":"46","category_name":"楼宇","address":"延安西路726-728号"},{"poiid":"B2094750D26AABFB4392","title":"糖员外私房甜品","lon":"121.443054","lat":"31.221466","category":"67","category_name":"甜品店","address":"静安区南京西路1887号(近乌鲁木齐北路)"},{"poiid":"B2094750D164ABFF4693","title":"Seesaw Coffee","lon":"121.440521","lat":"31.222074","category":"65","category_name":"咖啡厅","address":"静安区愚园路433号静安设计中心内(市西中学对面)"},{"poiid":"B2094752D76AA3FD489C","title":"好好先生","lon":"121.44278","lat":"31.223267","category":"247","category_name":"餐饮美食","address":"愚園路280號"},{"poiid":"B2094757D06FABF8479B","title":"市西中学","lon":"121.44104","lat":"31.22286","category":"55","category_name":"中学","address":"上海静安区愚园路404号(近乌鲁木齐北路)  "},{"poiid":"B2094752D464A1FF489C","title":"好好先生西餐厅","lon":"121.442902","lat":"31.223335","category":"247","category_name":"餐饮美食","address":"愚园路280号"},{"poiid":"B2094757DB68A4F9489C","title":"名宴粤菜","lon":"121.44304218656919","lat":"31.221484522382806","category":"72","category_name":"广东菜","address":"静安区南京西路1856号2楼(近静安寺)"},{"poiid":"B2094757D068A7F84599","title":"静安区牙病防治所(愚园路门诊部)","lon":"121.4397","lat":"31.22177","category":"162","category_name":"医院","address":"静安区愚园路507号(近华山路)"},{"poiid":"B2094750DA6FA6F84192","title":"Wine Connection Bar & Bistro","lon":"121.4412","lat":"31.221744","category":"247","category_name":"餐饮美食","address":"静安区愚园路439号"},{"poiid":"B2094757D06FA5FD429D","title":"肯德基 KFC (北京西路店)","lon":"121.442129194","lat":"31.2233911161","category":"68","category_name":"快餐厅","address":"静安区北京西路1829号(近乌鲁木齐北路)"},{"poiid":"B2094654D565A7FC469C","title":"新疆伊宁远征餐厅","lon":"121.442800054","lat":"31.222864793","category":"90","category_name":"清真餐馆","address":"静安区愚园支路20号(乌鲁木齐北路口)"},{"poiid":"B2094753D26BA3FC479C","title":"老灵额成都串串","lon":"121.441278","lat":"31.225222","category":"247","category_name":"餐饮美食","address":"上海市 万航渡路172号"},{"poiid":"B2094654D564A4FC4599","title":"裕丰国际大厦","lon":"121.441","lat":"31.2205","category":"46","category_name":"楼宇","address":"黄浦区南京东路311号"},{"poiid":"B2094654D565A1F4499F","title":"新恩堂","lon":"121.44068","lat":"31.22468","category":"245","category_name":"教堂","address":"静安区乌鲁木齐北路25号(近南京西路)"},{"poiid":"B2094655D36DA0F54099","title":"愚园路乌鲁木齐北路","lon":"121.44103","lat":"31.22278","category":"38","category_name":"公交车站","address":""},{"poiid":"B2094757D069A3FC429A","title":"蒲蒲兰绘本馆","lon":"121.44352","lat":"31.22299","category":"633","category_name":"商务服务类公司","address":"静安区愚园路262号(近北京西路)"},{"poiid":"B2094751D568A4FD429D","title":"上海一号私藏菜（南京西路店）","lon":"121.4392837","lat":"31.2218077","category":"247","category_name":"餐饮美食","address":null},{"poiid":"B2094752D165A1F5489E","title":"金牛苑","lon":"121.442146","lat":"31.225139","category":"47","category_name":"住宅区","address":"越洋广场芮欧百货2楼"},{"poiid":"B2094454D365A5FC4393","title":"Magnet磁石","lon":"121.44326","lat":"31.222986","category":"247","category_name":"餐饮美食","address":"上海市 南京西路1818号1788广场F1-06室"},{"poiid":"B2094750D769A2FE4493","title":"鸟重居酒屋(南京西路店)","lon":"121.442","lat":"31.2206","category":"95","category_name":"日本料理","address":"静安区南京西路1959号(乌鲁木齐中路)"},{"poiid":"B2094757D06BA5FA4592","title":"五右卫门洋面屋","lon":"121.442555986","lat":"31.2245413198","category":"257","category_name":"中餐厅","address":"上海万航渡路1号"},{"poiid":"B2094654D565A7FC449E","title":"申乐大厦","lon":"121.4426","lat":"31.223602","category":"47","category_name":"住宅区","address":"杨浦区大学路33号"},{"poiid":"B2094757DB6FA7FC459A","title":"天禧八號","lon":"121.44248","lat":"31.224709","category":"247","category_name":"餐饮美食","address":"静安区南京西路1649号静安公园8号楼(静安寺对面)"},{"poiid":"B2094757D06AA5FB439E","title":"图门串烤 万航渡路店","lon":"121.44097136455","lat":"31.225135975238","category":"68","category_name":"快餐厅","address":"静安区万航渡路192号(近乌鲁木齐北路)"},{"poiid":"B2094654D565A0FB4792","title":"珍妮花婚纱摄影(万航渡路)","lon":"121.44319","lat":"31.2243","category":"248","category_name":"生活娱乐","address":"万航渡路50号2层"},{"poiid":"B2094757D469A0FE489C","title":"云水肴","lon":"121.4394467","lat":"31.2218878","category":"91","category_name":"台湾菜","address":"静安区愚园路494-1号(乌鲁木齐北路口)"},{"poiid":"B2094750DB65A5FA4893","title":"新华书店(静安店)","lon":"121.442345","lat":"31.223573","category":"125","category_name":"书店","address":"静安区北京西路1829号"},{"poiid":"B2094654D565A7FC4992","title":"愚谷邨(愚园路)","lon":"121.44204","lat":"31.22222","category":"47","category_name":"住宅区","address":"愚园路361弄3-127号"},{"poiid":"B2094757D068A5F8459D","title":"炫动撞球概念馆","lon":"121.44324493","lat":"31.221765518","category":"171","category_name":"台球厅","address":"上海南京西路1856号4F"},{"poiid":"B2094757D06BA3FF4093","title":"红宝石 愚园路店 Ruby","lon":"121.441391054","lat":"31.222798793","category":"67","category_name":"甜品店","address":"静安区愚园路477号(近乌鲁木齐北路)"},{"poiid":"B209475CD06DA7FE489E","title":"好好先生西餐厅(静安寺店）","lon":"121.44285","lat":"31.22343","category":"67","category_name":"甜品店","address":"愚园路280号(近乌鲁木齐路)"},{"poiid":"B2094757D664ABF8469A","title":"台湾小吃鲁肉饭 静安店","lon":"121.442987054","lat":"31.223941793","category":"68","category_name":"快餐厅","address":"静安区万航渡路50号九百世纪食品城1楼(近北京西路)"},{"poiid":"B2094654DB6BA6FF499D","title":"九百世纪食品商城","lon":"121.44319","lat":"31.2243","category":"119","category_name":"商场","address":"静安区万航渡路36号(近华山路)"},{"poiid":"B2094757D66AA7FF4599","title":"Teotihuacan","lon":"121.43798","lat":"31.2216","category":"94","category_name":"西餐厅","address":"静安区愚园路580号(近镇宁路)"},{"poiid":"B2094757D468A1F5449A","title":"都可茶饮 静安寺店 CoCo","lon":"121.442968054","lat":"31.223889793","category":"113","category_name":"冷饮店","address":"静安区万航渡路50号(近百乐门)"},{"poiid":"B2094753D16BAAF8479A","title":"自由港量贩式KTV(静安寺店)","lon":"121.44325","lat":"31.22179","category":"170","category_name":"KTV","address":"静安区南京西路1856号4楼(近乌鲁木齐北路)"},{"poiid":"B2094654D564A4FC4898","title":"佳都大厦","lon":"121.441","lat":"31.2207","category":"46","category_name":"楼宇","address":"延安西路719号"},{"poiid":"B2094750DB6CA1F44592","title":"上海国际贵都大酒店","lon":"121.439631","lat":"31.221656","category":"500","category_name":"未知分类","address":null},{"poiid":"B2094757D06BA5FB4892","title":"精品牛肉面","lon":"121.44240266","lat":"31.224352883","category":"68","category_name":"快餐厅","address":"静安区北京西路1808号(近万航渡路)"},{"poiid":"B2094757D468A6F54398","title":"快乐柠檬 九百店 Happy Lemon","lon":"121.442987054","lat":"31.223941793","category":"113","category_name":"冷饮店","address":"静安区万航渡路50号(近北京西路)"},{"poiid":"B2094757D164A0FE439C","title":"南京西路乌鲁木齐路","lon":"121.442046","lat":"31.222357","category":"500","category_name":"未知分类","address":"上海南京西路乌鲁木齐路"},{"poiid":"B2094751D365A1FF4292","title":"Seesaw  Coffee","lon":"121.440399","lat":"31.221924","category":"247","category_name":"餐饮美食","address":"上海市静安区愚园路433弄静安设计中心"},{"poiid":"B2094757D66BA6FF4992","title":"三阳盛 南京西路店","lon":"121.442735054","lat":"31.221350793","category":"68","category_name":"快餐厅","address":"静安区南京西路1888号(近乌鲁木齐北路)"},{"poiid":"B2094757D06BA0FC4899","title":"Happyface Coffee","lon":"121.44212632","lat":"31.220966659","category":"65","category_name":"咖啡厅","address":"上海淮海中路1288号(华亭路口)"},{"poiid":"B2094654DB6AA3FA4793","title":"黄记桂林米粉 南京西路店","lon":"121.44178363359","lat":"31.220818276983","category":"247","category_name":"餐饮美食","address":"静安区南京西路1898号(近乌鲁木齐北路)"}]