[{"poiid":"B2094757D66FA6FA4793","title":"锦隆驾驶员训练场","lon":"121.42495727","lat":"31.39449501","category":"260","category_name":"其他","address":"上海近1号线富锦路站"},{"poiid":"B2094757D06FA3FC4598","title":"富锦路地铁站","lon":"121.42494332","lat":"31.392718799","category":"36","category_name":"地铁站","address":"上海轨道交通 一号线 轨交富锦路站 1"},{"poiid":"B2094757D068ABFE449F","title":"馨煌大酒店","lon":"121.42714","lat":"31.40976","category":"76","category_name":"上海菜","address":"宝山区安家路17号(安家路庆安路)"},{"poiid":"B2094757D068A0F8459F","title":"红辣椒 月浦店","lon":"121.42518","lat":"31.41344","category":"71","category_name":"四川菜","address":"宝山区四元路299号(近德都路)"},{"poiid":"B2094757D06AA1F84798","title":"宝山电视台","lon":"121.4316101","lat":"31.38982582","category":"500","category_name":"未知分类","address":"上海友谊路2359号"},{"poiid":"B2094757D065A4FE4499","title":"海德花园","lon":"121.4251","lat":"31.390446","category":"47","category_name":"住宅区","address":"上海蕴川路2488弄"},{"poiid":"B2094757D16BA3F44398","title":"基地","lon":"121.41902467","lat":"31.396712957","category":"500","category_name":"未知分类","address":null},{"poiid":"B2094655D26BAAFE439C","title":"嘉诚国际花园","lon":"121.42482","lat":"31.406294","category":"47","category_name":"住宅区","address":"上海市宝山区月浦镇德都路50弄"},{"poiid":"B2094655D36CA0FD4693","title":"锦乐路","lon":"121.41715","lat":"31.39974","category":"38","category_name":"公交车站","address":""},{"poiid":"B2094655D26BA1FA459D","title":"马泾桥","lon":"121.41912","lat":"31.41649","category":"38","category_name":"公交车站","address":"宝山区月浦镇马泾桥新村"},{"poiid":"B2094654D469AAFF419B","title":"杨行工业园","lon":"121.41591","lat":"31.4025","category":"45","category_name":"产业园区","address":""},{"poiid":"B2094757D064ABF5439B","title":"杨北中心村","lon":"121.4163899","lat":"31.3922122","category":"500","category_name":"未知分类","address":"上海杨北路"},{"poiid":"B2094757D66EA3FA4993","title":"锦隆训练场 面馆","lon":"121.419138879","lat":"31.3990151013","category":"500","category_name":"未知分类","address":null},{"poiid":"B2094654D46AA3FD469D","title":"乐业五村","lon":"121.42473","lat":"31.410698","category":"47","category_name":"住宅区","address":"德都路218弄"},{"poiid":"B2094654D46AA3FE4593","title":"宝莲湖景园","lon":"121.42947","lat":"31.405355","category":"47","category_name":"住宅区","address":"上海市宝山区绥化路260弄"},{"poiid":"B2094654D469AAF8449F","title":"杨行镇社区卫生服务中心杨北卫生服务站","lon":"121.41014","lat":"31.39312","category":"162","category_name":"医院","address":"杨行镇"},{"poiid":"B2094655D26AA0FA499A","title":"地铁富锦路站","lon":"121.42495","lat":"31.39274","category":"36","category_name":"地铁站","address":""},{"poiid":"B2094757D66BA4FC4999","title":"小天椒鱼头馆","lon":"121.427252054","lat":"31.404616793","category":"71","category_name":"四川菜","address":"宝山区月浦德都路190号(近安家路)"},{"poiid":"B2094757D164A2F8469B","title":"集祥驾校","lon":"121.41872","lat":"31.39913","category":"253","category_name":"校园生活","address":"宝山区富锦路"},{"poiid":"B2094757D16CA5FF479D","title":"上海轨道交通一号线富锦路停车场","lon":"121.424228879","lat":"31.3950874271","category":"500","category_name":"未知分类","address":"上海蕴川公路富锦路"},{"poiid":"B2094654DB69A6F9469F","title":"金悦生活广场","lon":"121.427829","lat":"31.406021","category":"46","category_name":"楼宇","address":"宝山区月浦镇绥化路288号"},{"poiid":"B2094654D469AAFF419A","title":"十三冶设备公司仓库","lon":"121.41316","lat":"31.40204","category":"263","category_name":"公司","address":""},{"poiid":"B2094654D469AAFF409F","title":"上海宝山液压油缸有限公司","lon":"121.4079","lat":"31.39805","category":"263","category_name":"公司","address":""},{"poiid":"B2094654D469AAFF4098","title":"上海宝钢运输有限公司三号库","lon":"121.40817","lat":"31.40033","category":"248","category_name":"生活娱乐","address":"共祥络379"},{"poiid":"B2094655D268ABF8499F","title":"Ａ３０蕰川路收费站","lon":"121.42111","lat":"31.39962","category":"267","category_name":"收费站","address":""},{"poiid":"B2094655D36CA6FF409D","title":"富锦路地铁站(杨北)","lon":"121.42455","lat":"31.39455","category":"38","category_name":"公交车站","address":""},{"poiid":"B2094655D26BA6FE4798","title":"上海浦帮机电制造有限公司","lon":"121.40708","lat":"31.39895","category":"263","category_name":"公司","address":"杨行工业园区锦富路60号"},{"poiid":"B2094655D264A4F9469C","title":"G1501蕰川路收费站","lon":"121.42111","lat":"31.39963","category":"267","category_name":"收费站","address":""},{"poiid":"B2094757DA6EAAF94898","title":"锦隆教练场逸风驾校","lon":"121.423537731171","lat":"31.3964143369506","category":"253","category_name":"校园生活","address":"宝山区蕰川路2028号"},{"poiid":"B2094757D165A6FD439E","title":"家全居","lon":"121.4264","lat":"31.40623","category":"71","category_name":"四川菜","address":"宝山区德都路68号(近绥化路)"},{"poiid":"B2094654DB69A7F9449F","title":"月泉湾名邸","lon":"121.4251","lat":"31.412052","category":"47","category_name":"住宅区","address":"上海市宝山区安家路16号"},{"poiid":"B2094757D065A1FC4398","title":"锦隆基地","lon":"121.42454877","lat":"31.394168369","category":"260","category_name":"其他","address":"上海近1号线富锦路站"},{"poiid":"B2094654D469AAF8449C","title":"上海礼才物流有限公司","lon":"121.41843","lat":"31.39293","category":"248","category_name":"生活娱乐","address":"蕰川路2508号"},{"poiid":"B2094655D36CA1FC449D","title":"蕰川路共祥路","lon":"121.42198","lat":"31.40462","category":"38","category_name":"公交车站","address":""},{"poiid":"B2094757D168A2FB4092","title":"世纪联华","lon":"121.42910667","lat":"31.403943094","category":"249","category_name":"购物服务","address":"上海市宝山区德都路"},{"poiid":"B2094654D469AAFF4099","title":"上海振杨钢结构制造有限公司","lon":"121.40625","lat":"31.39612","category":"263","category_name":"公司","address":"富锦路2585"},{"poiid":"B2094655D36CA6FF409F","title":"富锦路蕰川路","lon":"121.42486","lat":"31.39343","category":"38","category_name":"公交车站","address":""},{"poiid":"B2094757D064A2F84298","title":"上海市宝康电子控制工程有限公司","lon":"121.40892967","lat":"31.40320308","category":"263","category_name":"公司","address":"上海市杨行工业园区锦富路298号"},{"poiid":"B2094655D36CA5F4459B","title":"北宗","lon":"121.41339","lat":"31.38743","category":"38","category_name":"公交车站","address":""},{"poiid":"B2094757D66CA6FF4498","title":"石锅鱼","lon":"121.426626054","lat":"31.404928793","category":"71","category_name":"四川菜","address":"宝山区德都路188号(德都路绥化路)"},{"poiid":"B2094655D36DA6FD429E","title":"富锦路","lon":"121.42495","lat":"31.39274","category":"38","category_name":"公交车站","address":""},{"poiid":"B2094757D16AABF4429E","title":"甜甜奶油草莓园","lon":"121.40164467","lat":"31.389331818","category":"500","category_name":"未知分类","address":"上海市宝山区杨北路杨宗路"},{"poiid":"B2094654D469AAFF409A","title":"上海兴晟金属开板厂杨南库","lon":"121.40765","lat":"31.40368","category":"263","category_name":"公司","address":"杨南路227号"},{"poiid":"B2094654D469AAFE499B","title":"上海华冶钢铁集团公司","lon":"121.41535","lat":"31.40687","category":"263","category_name":"公司","address":""},{"poiid":"B2094753D765A6FE449D","title":"麦当劳","lon":"121.425773","lat":"31.394506","category":"500","category_name":"未知分类","address":"上海市 富锦路地铁站"},{"poiid":"B2094757D168ABFF479A","title":"新月翡翠园","lon":"121.4289","lat":"31.403162","category":"252","category_name":"楼宇机构","address":"上海市宝山区德都路35弄"},{"poiid":"B2094757D16DA1FA4098","title":"G1501上海绕城高速路(收费路段)","lon":"121.426665042","lat":"31.4012862918","category":"250","category_name":"公园户外","address":"上海市宝山区富锦路/浦东新区远东大道/奉贤区大亭公路"},{"poiid":"B2094752D56CAAF5419D","title":"远洋香奈","lon":"121.426583","lat":"31.394495","category":"47","category_name":"住宅区","address":"宝山杨泰路2158弄"},{"poiid":"B2094654D469AAF84493","title":"安徽医保杨行北周仓库","lon":"121.41659","lat":"31.38874","category":"263","category_name":"公司","address":"杨宗路135号"},{"poiid":"B2094654D469ABFB4698","title":"乐业四村","lon":"121.42666","lat":"31.406471","category":"47","category_name":"住宅区","address":"德都路165弄"},{"poiid":"B2094757D66FA6FA4793","title":"锦隆驾驶员训练场","lon":"121.42495727","lat":"31.39449501","category":"260","category_name":"其他","address":"上海近1号线富锦路站"},{"poiid":"B2094757D06FA3FC4598","title":"富锦路地铁站","lon":"121.42494332","lat":"31.392718799","category":"36","category_name":"地铁站","address":"上海轨道交通 一号线 轨交富锦路站 1"},{"poiid":"B2094757D068ABFE449F","title":"馨煌大酒店","lon":"121.42714","lat":"31.40976","category":"76","category_name":"上海菜","address":"宝山区安家路17号(安家路庆安路)"},{"poiid":"B2094757D068A0F8459F","title":"红辣椒 月浦店","lon":"121.42518","lat":"31.41344","category":"71","category_name":"四川菜","address":"宝山区四元路299号(近德都路)"},{"poiid":"B2094757D06AA1F84798","title":"宝山电视台","lon":"121.4316101","lat":"31.38982582","category":"500","category_name":"未知分类","address":"上海友谊路2359号"},{"poiid":"B2094757D065A4FE4499","title":"海德花园","lon":"121.4251","lat":"31.390446","category":"47","category_name":"住宅区","address":"上海蕴川路2488弄"},{"poiid":"B2094757D16BA3F44398","title":"基地","lon":"121.41902467","lat":"31.396712957","category":"500","category_name":"未知分类","address":null},{"poiid":"B2094655D26BAAFE439C","title":"嘉诚国际花园","lon":"121.42482","lat":"31.406294","category":"47","category_name":"住宅区","address":"上海市宝山区月浦镇德都路50弄"},{"poiid":"B2094655D36CA0FD4693","title":"锦乐路","lon":"121.41715","lat":"31.39974","category":"38","category_name":"公交车站","address":""},{"poiid":"B2094655D26BA1FA459D","title":"马泾桥","lon":"121.41912","lat":"31.41649","category":"38","category_name":"公交车站","address":"宝山区月浦镇马泾桥新村"},{"poiid":"B2094654D469AAFF419B","title":"杨行工业园","lon":"121.41591","lat":"31.4025","category":"45","category_name":"产业园区","address":""},{"poiid":"B2094757D064ABF5439B","title":"杨北中心村","lon":"121.4163899","lat":"31.3922122","category":"500","category_name":"未知分类","address":"上海杨北路"},{"poiid":"B2094757D66EA3FA4993","title":"锦隆训练场 面馆","lon":"121.419138879","lat":"31.3990151013","category":"500","category_name":"未知分类","address":null},{"poiid":"B2094654D46AA3FD469D","title":"乐业五村","lon":"121.42473","lat":"31.410698","category":"47","category_name":"住宅区","address":"德都路218弄"},{"poiid":"B2094654D46AA3FE4593","title":"宝莲湖景园","lon":"121.42947","lat":"31.405355","category":"47","category_name":"住宅区","address":"上海市宝山区绥化路260弄"},{"poiid":"B2094654D469AAF8449F","title":"杨行镇社区卫生服务中心杨北卫生服务站","lon":"121.41014","lat":"31.39312","category":"162","category_name":"医院","address":"杨行镇"},{"poiid":"B2094655D26AA0FA499A","title":"地铁富锦路站","lon":"121.42495","lat":"31.39274","category":"36","category_name":"地铁站","address":""},{"poiid":"B2094757D66BA4FC4999","title":"小天椒鱼头馆","lon":"121.427252054","lat":"31.404616793","category":"71","category_name":"四川菜","address":"宝山区月浦德都路190号(近安家路)"},{"poiid":"B2094757D164A2F8469B","title":"集祥驾校","lon":"121.41872","lat":"31.39913","category":"253","category_name":"校园生活","address":"宝山区富锦路"},{"poiid":"B2094757D16CA5FF479D","title":"上海轨道交通一号线富锦路停车场","lon":"121.424228879","lat":"31.3950874271","category":"500","category_name":"未知分类","address":"上海蕴川公路富锦路"},{"poiid":"B2094654DB69A6F9469F","title":"金悦生活广场","lon":"121.427829","lat":"31.406021","category":"46","category_name":"楼宇","address":"宝山区月浦镇绥化路288号"},{"poiid":"B2094654D469AAFF419A","title":"十三冶设备公司仓库","lon":"121.41316","lat":"31.40204","category":"263","category_name":"公司","address":""},{"poiid":"B2094654D469AAFF409F","title":"上海宝山液压油缸有限公司","lon":"121.4079","lat":"31.39805","category":"263","category_name":"公司","address":""},{"poiid":"B2094654D469AAFF4098","title":"上海宝钢运输有限公司三号库","lon":"121.40817","lat":"31.40033","category":"248","category_name":"生活娱乐","address":"共祥络379"},{"poiid":"B2094655D268ABF8499F","title":"Ａ３０蕰川路收费站","lon":"121.42111","lat":"31.39962","category":"267","category_name":"收费站","address":""},{"poiid":"B2094655D36CA6FF409D","title":"富锦路地铁站(杨北)","lon":"121.42455","lat":"31.39455","category":"38","category_name":"公交车站","address":""},{"poiid":"B2094655D26BA6FE4798","title":"上海浦帮机电制造有限公司","lon":"121.40708","lat":"31.39895","category":"263","category_name":"公司","address":"杨行工业园区锦富路60号"},{"poiid":"B2094655D264A4F9469C","title":"G1501蕰川路收费站","lon":"121.42111","lat":"31.39963","category":"267","category_name":"收费站","address":""},{"poiid":"B2094757DA6EAAF94898","title":"锦隆教练场逸风驾校","lon":"121.423537731171","lat":"31.3964143369506","category":"253","category_name":"校园生活","address":"宝山区蕰川路2028号"},{"poiid":"B2094757D165A6FD439E","title":"家全居","lon":"121.4264","lat":"31.40623","category":"71","category_name":"四川菜","address":"宝山区德都路68号(近绥化路)"},{"poiid":"B2094654DB69A7F9449F","title":"月泉湾名邸","lon":"121.4251","lat":"31.412052","category":"47","category_name":"住宅区","address":"上海市宝山区安家路16号"},{"poiid":"B2094757D065A1FC4398","title":"锦隆基地","lon":"121.42454877","lat":"31.394168369","category":"260","category_name":"其他","address":"上海近1号线富锦路站"},{"poiid":"B2094654D469AAF8449C","title":"上海礼才物流有限公司","lon":"121.41843","lat":"31.39293","category":"248","category_name":"生活娱乐","address":"蕰川路2508号"},{"poiid":"B2094655D36CA1FC449D","title":"蕰川路共祥路","lon":"121.42198","lat":"31.40462","category":"38","category_name":"公交车站","address":""},{"poiid":"B2094757D168A2FB4092","title":"世纪联华","lon":"121.42910667","lat":"31.403943094","category":"249","category_name":"购物服务","address":"上海市宝山区德都路"},{"poiid":"B2094654D469AAFF4099","title":"上海振杨钢结构制造有限公司","lon":"121.40625","lat":"31.39612","category":"263","category_name":"公司","address":"富锦路2585"},{"poiid":"B2094655D36CA6FF409F","title":"富锦路蕰川路","lon":"121.42486","lat":"31.39343","category":"38","category_name":"公交车站","address":""},{"poiid":"B2094757D064A2F84298","title":"上海市宝康电子控制工程有限公司","lon":"121.40892967","lat":"31.40320308","category":"263","category_name":"公司","address":"上海市杨行工业园区锦富路298号"},{"poiid":"B2094655D36CA5F4459B","title":"北宗","lon":"121.41339","lat":"31.38743","category":"38","category_name":"公交车站","address":""},{"poiid":"B2094757D66CA6FF4498","title":"石锅鱼","lon":"121.426626054","lat":"31.404928793","category":"71","category_name":"四川菜","address":"宝山区德都路188号(德都路绥化路)"},{"poiid":"B2094655D36DA6FD429E","title":"富锦路","lon":"121.42495","lat":"31.39274","category":"38","category_name":"公交车站","address":""},{"poiid":"B2094757D16AABF4429E","title":"甜甜奶油草莓园","lon":"121.40164467","lat":"31.389331818","category":"500","category_name":"未知分类","address":"上海市宝山区杨北路杨宗路"},{"poiid":"B2094654D469AAFF409A","title":"上海兴晟金属开板厂杨南库","lon":"121.40765","lat":"31.40368","category":"263","category_name":"公司","address":"杨南路227号"},{"poiid":"B2094654D469AAFE499B","title":"上海华冶钢铁集团公司","lon":"121.41535","lat":"31.40687","category":"263","category_name":"公司","address":""},{"poiid":"B2094753D765A6FE449D","title":"麦当劳","lon":"121.425773","lat":"31.394506","category":"500","category_name":"未知分类","address":"上海市 富锦路地铁站"},{"poiid":"B2094757D168ABFF479A","title":"新月翡翠园","lon":"121.4289","lat":"31.403162","category":"252","category_name":"楼宇机构","address":"上海市宝山区德都路35弄"},{"poiid":"B2094757D16DA1FA4098","title":"G1501上海绕城高速路(收费路段)","lon":"121.426665042","lat":"31.4012862918","category":"250","category_name":"公园户外","address":"上海市宝山区富锦路/浦东新区远东大道/奉贤区大亭公路"},{"poiid":"B2094752D56CAAF5419D","title":"远洋香奈","lon":"121.426583","lat":"31.394495","category":"47","category_name":"住宅区","address":"宝山杨泰路2158弄"},{"poiid":"B2094654D469AAF84493","title":"安徽医保杨行北周仓库","lon":"121.41659","lat":"31.38874","category":"263","category_name":"公司","address":"杨宗路135号"},{"poiid":"B2094654D469ABFB4698","title":"乐业四村","lon":"121.42666","lat":"31.406471","category":"47","category_name":"住宅区","address":"德都路165弄"},{"poiid":"B2094757D66FA6FA4793","title":"锦隆驾驶员训练场","lon":"121.42495727","lat":"31.39449501","category":"260","category_name":"其他","address":"上海近1号线富锦路站"},{"poiid":"B2094757D06FA3FC4598","title":"富锦路地铁站","lon":"121.42494332","lat":"31.392718799","category":"36","category_name":"地铁站","address":"上海轨道交通 一号线 轨交富锦路站 1"},{"poiid":"B2094757D068ABFE449F","title":"馨煌大酒店","lon":"121.42714","lat":"31.40976","category":"76","category_name":"上海菜","address":"宝山区安家路17号(安家路庆安路)"},{"poiid":"B2094757D068A0F8459F","title":"红辣椒 月浦店","lon":"121.42518","lat":"31.41344","category":"71","category_name":"四川菜","address":"宝山区四元路299号(近德都路)"},{"poiid":"B2094757D06AA1F84798","title":"宝山电视台","lon":"121.4316101","lat":"31.38982582","category":"500","category_name":"未知分类","address":"上海友谊路2359号"},{"poiid":"B2094757D065A4FE4499","title":"海德花园","lon":"121.4251","lat":"31.390446","category":"47","category_name":"住宅区","address":"上海蕴川路2488弄"},{"poiid":"B2094757D16BA3F44398","title":"基地","lon":"121.41902467","lat":"31.396712957","category":"500","category_name":"未知分类","address":null},{"poiid":"B2094655D26BAAFE439C","title":"嘉诚国际花园","lon":"121.42482","lat":"31.406294","category":"47","category_name":"住宅区","address":"上海市宝山区月浦镇德都路50弄"},{"poiid":"B2094655D36CA0FD4693","title":"锦乐路","lon":"121.41715","lat":"31.39974","category":"38","category_name":"公交车站","address":""},{"poiid":"B2094655D26BA1FA459D","title":"马泾桥","lon":"121.41912","lat":"31.41649","category":"38","category_name":"公交车站","address":"宝山区月浦镇马泾桥新村"},{"poiid":"B2094654D469AAFF419B","title":"杨行工业园","lon":"121.41591","lat":"31.4025","category":"45","category_name":"产业园区","address":""},{"poiid":"B2094757D064ABF5439B","title":"杨北中心村","lon":"121.4163899","lat":"31.3922122","category":"500","category_name":"未知分类","address":"上海杨北路"},{"poiid":"B2094757D66EA3FA4993","title":"锦隆训练场 面馆","lon":"121.419138879","lat":"31.3990151013","category":"500","category_name":"未知分类","address":null},{"poiid":"B2094654D46AA3FD469D","title":"乐业五村","lon":"121.42473","lat":"31.410698","category":"47","category_name":"住宅区","address":"德都路218弄"},{"poiid":"B2094654D46AA3FE4593","title":"宝莲湖景园","lon":"121.42947","lat":"31.405355","category":"47","category_name":"住宅区","address":"上海市宝山区绥化路260弄"},{"poiid":"B2094654D469AAF8449F","title":"杨行镇社区卫生服务中心杨北卫生服务站","lon":"121.41014","lat":"31.39312","category":"162","category_name":"医院","address":"杨行镇"},{"poiid":"B2094655D26AA0FA499A","title":"地铁富锦路站","lon":"121.42495","lat":"31.39274","category":"36","category_name":"地铁站","address":""},{"poiid":"B2094757D66BA4FC4999","title":"小天椒鱼头馆","lon":"121.427252054","lat":"31.404616793","category":"71","category_name":"四川菜","address":"宝山区月浦德都路190号(近安家路)"},{"poiid":"B2094757D164A2F8469B","title":"集祥驾校","lon":"121.41872","lat":"31.39913","category":"253","category_name":"校园生活","address":"宝山区富锦路"},{"poiid":"B2094757D16CA5FF479D","title":"上海轨道交通一号线富锦路停车场","lon":"121.424228879","lat":"31.3950874271","category":"500","category_name":"未知分类","address":"上海蕴川公路富锦路"},{"poiid":"B2094654DB69A6F9469F","title":"金悦生活广场","lon":"121.427829","lat":"31.406021","category":"46","category_name":"楼宇","address":"宝山区月浦镇绥化路288号"},{"poiid":"B2094654D469AAFF419A","title":"十三冶设备公司仓库","lon":"121.41316","lat":"31.40204","category":"263","category_name":"公司","address":""},{"poiid":"B2094654D469AAFF409F","title":"上海宝山液压油缸有限公司","lon":"121.4079","lat":"31.39805","category":"263","category_name":"公司","address":""},{"poiid":"B2094654D469AAFF4098","title":"上海宝钢运输有限公司三号库","lon":"121.40817","lat":"31.40033","category":"248","category_name":"生活娱乐","address":"共祥络379"},{"poiid":"B2094655D268ABF8499F","title":"Ａ３０蕰川路收费站","lon":"121.42111","lat":"31.39962","category":"267","category_name":"收费站","address":""},{"poiid":"B2094655D36CA6FF409D","title":"富锦路地铁站(杨北)","lon":"121.42455","lat":"31.39455","category":"38","category_name":"公交车站","address":""},{"poiid":"B2094655D26BA6FE4798","title":"上海浦帮机电制造有限公司","lon":"121.40708","lat":"31.39895","category":"263","category_name":"公司","address":"杨行工业园区锦富路60号"},{"poiid":"B2094655D264A4F9469C","title":"G1501蕰川路收费站","lon":"121.42111","lat":"31.39963","category":"267","category_name":"收费站","address":""},{"poiid":"B2094757DA6EAAF94898","title":"锦隆教练场逸风驾校","lon":"121.423537731171","lat":"31.3964143369506","category":"253","category_name":"校园生活","address":"宝山区蕰川路2028号"},{"poiid":"B2094757D165A6FD439E","title":"家全居","lon":"121.4264","lat":"31.40623","category":"71","category_name":"四川菜","address":"宝山区德都路68号(近绥化路)"},{"poiid":"B2094654DB69A7F9449F","title":"月泉湾名邸","lon":"121.4251","lat":"31.412052","category":"47","category_name":"住宅区","address":"上海市宝山区安家路16号"},{"poiid":"B2094757D065A1FC4398","title":"锦隆基地","lon":"121.42454877","lat":"31.394168369","category":"260","category_name":"其他","address":"上海近1号线富锦路站"},{"poiid":"B2094654D469AAF8449C","title":"上海礼才物流有限公司","lon":"121.41843","lat":"31.39293","category":"248","category_name":"生活娱乐","address":"蕰川路2508号"},{"poiid":"B2094655D36CA1FC449D","title":"蕰川路共祥路","lon":"121.42198","lat":"31.40462","category":"38","category_name":"公交车站","address":""},{"poiid":"B2094757D168A2FB4092","title":"世纪联华","lon":"121.42910667","lat":"31.403943094","category":"249","category_name":"购物服务","address":"上海市宝山区德都路"},{"poiid":"B2094654D469AAFF4099","title":"上海振杨钢结构制造有限公司","lon":"121.40625","lat":"31.39612","category":"263","category_name":"公司","address":"富锦路2585"},{"poiid":"B2094655D36CA6FF409F","title":"富锦路蕰川路","lon":"121.42486","lat":"31.39343","category":"38","category_name":"公交车站","address":""},{"poiid":"B2094757D064A2F84298","title":"上海市宝康电子控制工程有限公司","lon":"121.40892967","lat":"31.40320308","category":"263","category_name":"公司","address":"上海市杨行工业园区锦富路298号"},{"poiid":"B2094655D36CA5F4459B","title":"北宗","lon":"121.41339","lat":"31.38743","category":"38","category_name":"公交车站","address":""},{"poiid":"B2094757D66CA6FF4498","title":"石锅鱼","lon":"121.426626054","lat":"31.404928793","category":"71","category_name":"四川菜","address":"宝山区德都路188号(德都路绥化路)"},{"poiid":"B2094655D36DA6FD429E","title":"富锦路","lon":"121.42495","lat":"31.39274","category":"38","category_name":"公交车站","address":""},{"poiid":"B2094757D16AABF4429E","title":"甜甜奶油草莓园","lon":"121.40164467","lat":"31.389331818","category":"500","category_name":"未知分类","address":"上海市宝山区杨北路杨宗路"},{"poiid":"B2094654D469AAFF409A","title":"上海兴晟金属开板厂杨南库","lon":"121.40765","lat":"31.40368","category":"263","category_name":"公司","address":"杨南路227号"},{"poiid":"B2094654D469AAFE499B","title":"上海华冶钢铁集团公司","lon":"121.41535","lat":"31.40687","category":"263","category_name":"公司","address":""},{"poiid":"B2094753D765A6FE449D","title":"麦当劳","lon":"121.425773","lat":"31.394506","category":"500","category_name":"未知分类","address":"上海市 富锦路地铁站"},{"poiid":"B2094757D168ABFF479A","title":"新月翡翠园","lon":"121.4289","lat":"31.403162","category":"252","category_name":"楼宇机构","address":"上海市宝山区德都路35弄"},{"poiid":"B2094757D16DA1FA4098","title":"G1501上海绕城高速路(收费路段)","lon":"121.426665042","lat":"31.4012862918","category":"250","category_name":"公园户外","address":"上海市宝山区富锦路/浦东新区远东大道/奉贤区大亭公路"},{"poiid":"B2094752D56CAAF5419D","title":"远洋香奈","lon":"121.426583","lat":"31.394495","category":"47","category_name":"住宅区","address":"宝山杨泰路2158弄"},{"poiid":"B2094654D469AAF84493","title":"安徽医保杨行北周仓库","lon":"121.41659","lat":"31.38874","category":"263","category_name":"公司","address":"杨宗路135号"},{"poiid":"B2094654D469ABFB4698","title":"乐业四村","lon":"121.42666","lat":"31.406471","category":"47","category_name":"住宅区","address":"德都路165弄"}]