[{"poiid":"B2094654DA68A2FD4399","title":"上海美术馆","lon":"121.47093","lat":"31.23108","category":"184","category_name":"美术馆","address":"黄浦区南京西路325号(近黄陂北路)"},{"poiid":"B2094757D06EAAF4459F","title":"k1 3 cafe bar (木鸭梨餐吧)","lon":"121.46831373","lat":"31.230925314","category":"94","category_name":"西餐厅","address":"黄浦区南京西路456号科勒设计中心4楼(近仙乐斯广场)"},{"poiid":"B2094753D76FAAFA449C","title":"上海滩国泰旗舰店","lon":"121.466011","lat":"31.216125","category":"249","category_name":"购物服务","address":"淮海中路868号"},{"poiid":"B209475CD564A7F84292","title":"上海滩新天地店","lon":"121.47463","lat":"31.22164","category":"119","category_name":"商场","address":"\"太仓路181弄新天地北里15号\r\n\""},{"poiid":"B209475CD564A7F8439E","title":"上海滩中信泰富店","lon":"121.45602","lat":"31.22851","category":"119","category_name":"商场","address":"\"南京西路1168号中信泰富广场，店铺号221.\r\n\""},{"poiid":"B2094757D06FA2F44998","title":"Lingo Bistrot","lon":"121.46923","lat":"31.23113","category":"94","category_name":"西餐厅","address":"静安区南京西路388号仙乐斯广场1楼109室(近黄陂北路)"},{"poiid":"B2094757D06FA3F54893","title":"Kathleen's 5 Rooftop Restaurant &amp; Bar","lon":"121.470920351","lat":"31.2311566892","category":"94","category_name":"西餐厅","address":"黄浦区南京西路325号上海美术馆5楼(近黄陂北路)"},{"poiid":"B2094757D06FA2FD4192","title":"德大西菜社(南京西路店)","lon":"121.46813","lat":"31.23038","category":"94","category_name":"西餐厅","address":"静安区南京西路473号(近成都北路)"},{"poiid":"B2094654DB6BABFE4593","title":"顺风大酒店(人民广场店)","lon":"121.47048","lat":"31.22931","category":"75","category_name":"浙江菜","address":"黄浦区黄陂北路227号中区广场3楼(近上海大剧院)"},{"poiid":"B2094757D16FA6FF459C","title":"雅科","lon":"121.47077873","lat":"31.231950336","category":"76","category_name":"上海菜","address":"黄浦区南京西路248号大光明影院3楼屋顶花园(近黄河路)"},{"poiid":"B2094757D06FA3F44699","title":"红麻辣料理(仙乐斯店)","lon":"121.46877673","lat":"31.230198299","category":"68","category_name":"快餐厅","address":"静安区南京西路388号仙乐斯广场B1楼(近黄陂北路)"},{"poiid":"B2094655D26BA7F8449E","title":"上海大剧院-中剧场(Shanghai Grand Theatre - Drama Theatre)","lon":"121.47076","lat":"31.23004","category":"180","category_name":"剧场","address":"黄浦区人民大道300号大剧院1楼(近黄陂路)"},{"poiid":"B2094654DB64A5FD4099","title":"苏浙汇(黄浦店)","lon":"121.47048","lat":"31.23164","category":"76","category_name":"上海菜","address":"黄浦区南京西路288号创兴金融中心3楼(近新昌路)"},{"poiid":"B2094757D06EAAFD4292","title":"老克勒上海菜 南京西路店","lon":"121.47031","lat":"31.23222","category":"76","category_name":"上海菜","address":"黄浦区南京西路288号创兴金融中心2楼(近新昌路)"},{"poiid":"B2094757D06FA1FF479A","title":"功德林(南京西路店)","lon":"121.4687","lat":"31.23032","category":"89","category_name":"中式素餐馆","address":"黄浦区南京西路445号(近成都北路)"},{"poiid":"B2094757D46EA5F44198","title":"林记小馆 人民广场店","lon":"121.470848","lat":"31.229474","category":"72","category_name":"广东菜","address":"普陀区真北路2022号映象戴斯大酒店内(近铜川路)"},{"poiid":"B2094757D06FA2F94199","title":"唐朝大酒店(明天店)","lon":"121.47028","lat":"31.2298","category":"72","category_name":"广东菜","address":"上海南京西路389号明天广场二楼"},{"poiid":"B2094654DA68A3FD479C","title":"天安中心","lon":"121.46978","lat":"31.23174","category":"46","category_name":"楼宇","address":"上海南京西路338号"},{"poiid":"B2094654DA68A3FD499F","title":"COSTA COFFEE(仙乐斯店)","lon":"121.46944","lat":"31.23127","category":"65","category_name":"咖啡厅","address":"黄浦区南京西路388号仙乐斯广场1楼(近黄陂北路)"},{"poiid":"B2094757D06FA7F8409B","title":"老丰阁(仙乐斯店)","lon":"121.46905","lat":"31.23075","category":"76","category_name":"上海菜","address":"上海静安区南京西路388号仙乐斯广场7楼(近黄陂北路)  "},{"poiid":"B2094757D568A7FD4098","title":"barbarossalounge(芭芭露莎)","lon":"121.470839999998","lat":"31.2313530600002","category":"172","category_name":"酒吧","address":"黄浦区南京西路231号(人民公园内)"},{"poiid":"B2094757D068A2FE469E","title":"酒池星座(黄陂北路)","lon":"121.470575126","lat":"31.2296706472","category":"260","category_name":"其他","address":"黄浦区黄陂北路251号(近江阴路)"},{"poiid":"B2094757D068A7F5419B","title":"翠濮梧桐","lon":"121.47084393","lat":"31.231908135","category":"260","category_name":"其他","address":"黄浦区南京西路258号世茂商都4楼(近上海美术馆)"},{"poiid":"B2094654DB69A5FF409B","title":"麦当劳(仙乐斯店)","lon":"121.4691","lat":"31.23121","category":"68","category_name":"快餐厅","address":"静安区南京西路388号仙乐斯广场内(近黄陂北路)"},{"poiid":"B2094654DA68A3F5419A","title":"明天广场","lon":"121.46916","lat":"31.23071","category":"46","category_name":"楼宇","address":"碧云东壹栋位于浦东金藏路51号(浙桥路口)"},{"poiid":"B2094757D069A2F94392","title":"宝得莱","lon":"121.47042873","lat":"31.230037296","category":"95","category_name":"日本料理","address":"黄浦区黄陂北路227号中区广场1楼(近大剧院)"},{"poiid":"B2094757DB68AAFE469C","title":"俏江南 仙乐斯广场店","lon":"121.469229054","lat":"31.231252793","category":"71","category_name":"四川菜","address":"静安区南京西路388号仙乐斯广场2楼(近黄陂北路)"},{"poiid":"B2094757D06FA1F4499D","title":"创兴金融中心","lon":"121.4704895","lat":"31.231645584","category":"46","category_name":"楼宇","address":"上海南京西路288号"},{"poiid":"B2094757D06FA0FA4598","title":"渝乡人家(世茂商都店)","lon":"121.47092","lat":"31.23143","category":"71","category_name":"四川菜","address":"黄浦区南京西路258号世茂商都6楼(近大光明电影院，上海美术馆)  "},{"poiid":"B2094757D06FAAFB449F","title":"近江和牛正传(中区广场店)","lon":"121.47032673","lat":"31.22977029","category":"95","category_name":"日本料理","address":"黄浦区黄陂北路227号中区广场201室(近人民大道)"},{"poiid":"B209475DD56BAAFC4893","title":"南京大排档","lon":"121.470718","lat":"31.231937","category":"247","category_name":"餐饮美食","address":"上海市 南京西路258号世贸商都3楼"},{"poiid":"B2094753DB6DA7FF499F","title":"上海明天广场JW万豪酒店","lon":"121.468935","lat":"31.230925","category":"213","category_name":"五星级宾馆","address":"上海黄浦区南京西路399号"},{"poiid":"B2094757D469A1F5429C","title":"JW's Lounge Bar","lon":"121.470491054","lat":"31.229576793","category":"172","category_name":"酒吧","address":"黄浦区南京西路399号JW万豪酒店40楼(近黄陂北路)"},{"poiid":"B2094757D069A3FC4692","title":"流年咖啡","lon":"121.470938752","lat":"31.2315203906","category":"94","category_name":"西餐厅","address":"黄浦区南京西路205号(近上海美术馆)"},{"poiid":"B2094757D06FA5FD4598","title":"人民公园游乐园","lon":"121.47083282","lat":"31.231388092","category":"195","category_name":"游乐场","address":"上海黄浦区南京西路231号人民公园内"},{"poiid":"B2094757DB65A2FD4093","title":"红料理（仙乐斯广场店）","lon":"121.469","lat":"31.2314","category":"257","category_name":"中餐厅","address":"上海黄浦区南京西路388号 仙乐斯广场地下一层"},{"poiid":"B2094655D26DA7FD4792","title":"明堂上海新易途青年旅舍","lon":"121.46965","lat":"31.22958","category":"218","category_name":"青年旅舍","address":"江阴路55号"},{"poiid":"B2094757D56DA0F8459A","title":"仙乐斯营业厅","lon":"121.46903","lat":"31.231186","category":"151","category_name":"电讯营业厅","address":"黄浦区南京西路388号104单元"},{"poiid":"B2094757D06BAAF44293","title":"FC Salon","lon":"121.470497738","lat":"31.2299832948","category":"500","category_name":"未知分类","address":"上海黄陂北路251号(近南京西路)"},{"poiid":"B2094750D268A0F84398","title":"J.W万豪咖啡厅 Marriott Cafe","lon":"121.4704907438","lat":"31.22955780243","category":"268","category_name":"自助","address":"南京西路399号明天广场J.W.(金威)万豪酒店38楼近黄陂北路"},{"poiid":"B2094757D068AAF94392","title":"JW万豪大宴会厅","lon":"121.47125","lat":"31.23022","category":"247","category_name":"餐饮美食","address":"静安区南京西路399号JW万豪酒店5楼(近黄陂北路)查看地图"},{"poiid":"B2094757D068A5F4429A","title":"Napa Wine Bar &amp; Kitchen","lon":"121.46888489","lat":"31.229853754","category":"94","category_name":"西餐厅","address":"黄浦区江阴路57号(近重庆北路)"},{"poiid":"B2094757D469A5F84592","title":"克比泰国餐厅 Thai Aroma","lon":"121.470815","lat":"31.229563","category":"99","category_name":"泰国／越南菜品餐厅","address":"黄浦区黄陂北路227号中区广场1楼103室(近人民大道)"},{"poiid":"B2094757D069A4FD469D","title":"icare美发沙龙","lon":"121.46888073","lat":"31.230895314","category":"148","category_name":"美容美发店","address":"黄浦区南京西路388号仙乐斯广场3楼306室(近上海大剧院)"},{"poiid":"B2094757D06FA3FC479A","title":"马里兰商务中心(明天广场)","lon":"121.46985219","lat":"31.230372587","category":"46","category_name":"楼宇","address":"上海黄浦区南京西路399号"},{"poiid":"B2094655D26DA3FF469E","title":"上海保时捷中心","lon":"121.47048","lat":"31.2321","category":"158","category_name":"汽车销售","address":"黄浦区南京西路288号创新金融中心1楼(近新昌路)"},{"poiid":"B2094757D068A6FE479C","title":"Bar Constellation NO.3","lon":"121.4705964","lat":"31.229731422","category":"172","category_name":"酒吧","address":"上海浦东新区丁香路1399弄30号邻里之家2楼"},{"poiid":"B2094757D064A5F9499C","title":"富淳饭店天安店","lon":"121.46993873","lat":"31.230986316","category":"72","category_name":"广东菜","address":"黄浦区南京西路338号天安中心大厦B1楼"},{"poiid":"B2094751D465A3FD4699","title":"星巴克明天广场店","lon":"121.469766","lat":"31.231376","category":"247","category_name":"餐饮美食","address":"南京西路399号明天广场一楼"},{"poiid":"B2094654DA68A2FD4399","title":"上海美术馆","lon":"121.47093","lat":"31.23108","category":"184","category_name":"美术馆","address":"黄浦区南京西路325号(近黄陂北路)"},{"poiid":"B2094757D06EAAF4459F","title":"k1 3 cafe bar (木鸭梨餐吧)","lon":"121.46831373","lat":"31.230925314","category":"94","category_name":"西餐厅","address":"黄浦区南京西路456号科勒设计中心4楼(近仙乐斯广场)"},{"poiid":"B2094753D76FAAFA449C","title":"上海滩国泰旗舰店","lon":"121.466011","lat":"31.216125","category":"249","category_name":"购物服务","address":"淮海中路868号"},{"poiid":"B209475CD564A7F84292","title":"上海滩新天地店","lon":"121.47463","lat":"31.22164","category":"119","category_name":"商场","address":"\"太仓路181弄新天地北里15号\r\n\""},{"poiid":"B209475CD564A7F8439E","title":"上海滩中信泰富店","lon":"121.45602","lat":"31.22851","category":"119","category_name":"商场","address":"\"南京西路1168号中信泰富广场，店铺号221.\r\n\""},{"poiid":"B2094757D06FA2F44998","title":"Lingo Bistrot","lon":"121.46923","lat":"31.23113","category":"94","category_name":"西餐厅","address":"静安区南京西路388号仙乐斯广场1楼109室(近黄陂北路)"},{"poiid":"B2094757D06FA3F54893","title":"Kathleen's 5 Rooftop Restaurant &amp; Bar","lon":"121.470920351","lat":"31.2311566892","category":"94","category_name":"西餐厅","address":"黄浦区南京西路325号上海美术馆5楼(近黄陂北路)"},{"poiid":"B2094757D06FA2FD4192","title":"德大西菜社(南京西路店)","lon":"121.46813","lat":"31.23038","category":"94","category_name":"西餐厅","address":"静安区南京西路473号(近成都北路)"},{"poiid":"B2094654DB6BABFE4593","title":"顺风大酒店(人民广场店)","lon":"121.47048","lat":"31.22931","category":"75","category_name":"浙江菜","address":"黄浦区黄陂北路227号中区广场3楼(近上海大剧院)"},{"poiid":"B2094757D16FA6FF459C","title":"雅科","lon":"121.47077873","lat":"31.231950336","category":"76","category_name":"上海菜","address":"黄浦区南京西路248号大光明影院3楼屋顶花园(近黄河路)"},{"poiid":"B2094757D06FA3F44699","title":"红麻辣料理(仙乐斯店)","lon":"121.46877673","lat":"31.230198299","category":"68","category_name":"快餐厅","address":"静安区南京西路388号仙乐斯广场B1楼(近黄陂北路)"},{"poiid":"B2094655D26BA7F8449E","title":"上海大剧院-中剧场(Shanghai Grand Theatre - Drama Theatre)","lon":"121.47076","lat":"31.23004","category":"180","category_name":"剧场","address":"黄浦区人民大道300号大剧院1楼(近黄陂路)"},{"poiid":"B2094654DB64A5FD4099","title":"苏浙汇(黄浦店)","lon":"121.47048","lat":"31.23164","category":"76","category_name":"上海菜","address":"黄浦区南京西路288号创兴金融中心3楼(近新昌路)"},{"poiid":"B2094757D06EAAFD4292","title":"老克勒上海菜 南京西路店","lon":"121.47031","lat":"31.23222","category":"76","category_name":"上海菜","address":"黄浦区南京西路288号创兴金融中心2楼(近新昌路)"},{"poiid":"B2094757D06FA1FF479A","title":"功德林(南京西路店)","lon":"121.4687","lat":"31.23032","category":"89","category_name":"中式素餐馆","address":"黄浦区南京西路445号(近成都北路)"},{"poiid":"B2094757D46EA5F44198","title":"林记小馆 人民广场店","lon":"121.470848","lat":"31.229474","category":"72","category_name":"广东菜","address":"普陀区真北路2022号映象戴斯大酒店内(近铜川路)"},{"poiid":"B2094757D06FA2F94199","title":"唐朝大酒店(明天店)","lon":"121.47028","lat":"31.2298","category":"72","category_name":"广东菜","address":"上海南京西路389号明天广场二楼"},{"poiid":"B2094654DA68A3FD479C","title":"天安中心","lon":"121.46978","lat":"31.23174","category":"46","category_name":"楼宇","address":"上海南京西路338号"},{"poiid":"B2094654DA68A3FD499F","title":"COSTA COFFEE(仙乐斯店)","lon":"121.46944","lat":"31.23127","category":"65","category_name":"咖啡厅","address":"黄浦区南京西路388号仙乐斯广场1楼(近黄陂北路)"},{"poiid":"B2094757D06FA7F8409B","title":"老丰阁(仙乐斯店)","lon":"121.46905","lat":"31.23075","category":"76","category_name":"上海菜","address":"上海静安区南京西路388号仙乐斯广场7楼(近黄陂北路)  "},{"poiid":"B2094757D568A7FD4098","title":"barbarossalounge(芭芭露莎)","lon":"121.470839999998","lat":"31.2313530600002","category":"172","category_name":"酒吧","address":"黄浦区南京西路231号(人民公园内)"},{"poiid":"B2094757D068A2FE469E","title":"酒池星座(黄陂北路)","lon":"121.470575126","lat":"31.2296706472","category":"260","category_name":"其他","address":"黄浦区黄陂北路251号(近江阴路)"},{"poiid":"B2094757D068A7F5419B","title":"翠濮梧桐","lon":"121.47084393","lat":"31.231908135","category":"260","category_name":"其他","address":"黄浦区南京西路258号世茂商都4楼(近上海美术馆)"},{"poiid":"B2094654DB69A5FF409B","title":"麦当劳(仙乐斯店)","lon":"121.4691","lat":"31.23121","category":"68","category_name":"快餐厅","address":"静安区南京西路388号仙乐斯广场内(近黄陂北路)"},{"poiid":"B2094654DA68A3F5419A","title":"明天广场","lon":"121.46916","lat":"31.23071","category":"46","category_name":"楼宇","address":"碧云东壹栋位于浦东金藏路51号(浙桥路口)"},{"poiid":"B2094757D069A2F94392","title":"宝得莱","lon":"121.47042873","lat":"31.230037296","category":"95","category_name":"日本料理","address":"黄浦区黄陂北路227号中区广场1楼(近大剧院)"},{"poiid":"B2094757DB68AAFE469C","title":"俏江南 仙乐斯广场店","lon":"121.469229054","lat":"31.231252793","category":"71","category_name":"四川菜","address":"静安区南京西路388号仙乐斯广场2楼(近黄陂北路)"},{"poiid":"B2094757D06FA1F4499D","title":"创兴金融中心","lon":"121.4704895","lat":"31.231645584","category":"46","category_name":"楼宇","address":"上海南京西路288号"},{"poiid":"B2094757D06FA0FA4598","title":"渝乡人家(世茂商都店)","lon":"121.47092","lat":"31.23143","category":"71","category_name":"四川菜","address":"黄浦区南京西路258号世茂商都6楼(近大光明电影院，上海美术馆)  "},{"poiid":"B2094757D06FAAFB449F","title":"近江和牛正传(中区广场店)","lon":"121.47032673","lat":"31.22977029","category":"95","category_name":"日本料理","address":"黄浦区黄陂北路227号中区广场201室(近人民大道)"},{"poiid":"B209475DD56BAAFC4893","title":"南京大排档","lon":"121.470718","lat":"31.231937","category":"247","category_name":"餐饮美食","address":"上海市 南京西路258号世贸商都3楼"},{"poiid":"B2094753DB6DA7FF499F","title":"上海明天广场JW万豪酒店","lon":"121.468935","lat":"31.230925","category":"213","category_name":"五星级宾馆","address":"上海黄浦区南京西路399号"},{"poiid":"B2094757D469A1F5429C","title":"JW's Lounge Bar","lon":"121.470491054","lat":"31.229576793","category":"172","category_name":"酒吧","address":"黄浦区南京西路399号JW万豪酒店40楼(近黄陂北路)"},{"poiid":"B2094757D069A3FC4692","title":"流年咖啡","lon":"121.470938752","lat":"31.2315203906","category":"94","category_name":"西餐厅","address":"黄浦区南京西路205号(近上海美术馆)"},{"poiid":"B2094757D06FA5FD4598","title":"人民公园游乐园","lon":"121.47083282","lat":"31.231388092","category":"195","category_name":"游乐场","address":"上海黄浦区南京西路231号人民公园内"},{"poiid":"B2094757DB65A2FD4093","title":"红料理（仙乐斯广场店）","lon":"121.469","lat":"31.2314","category":"257","category_name":"中餐厅","address":"上海黄浦区南京西路388号 仙乐斯广场地下一层"},{"poiid":"B2094655D26DA7FD4792","title":"明堂上海新易途青年旅舍","lon":"121.46965","lat":"31.22958","category":"218","category_name":"青年旅舍","address":"江阴路55号"},{"poiid":"B2094757D56DA0F8459A","title":"仙乐斯营业厅","lon":"121.46903","lat":"31.231186","category":"151","category_name":"电讯营业厅","address":"黄浦区南京西路388号104单元"},{"poiid":"B2094757D06BAAF44293","title":"FC Salon","lon":"121.470497738","lat":"31.2299832948","category":"500","category_name":"未知分类","address":"上海黄陂北路251号(近南京西路)"},{"poiid":"B2094750D268A0F84398","title":"J.W万豪咖啡厅 Marriott Cafe","lon":"121.4704907438","lat":"31.22955780243","category":"268","category_name":"自助","address":"南京西路399号明天广场J.W.(金威)万豪酒店38楼近黄陂北路"},{"poiid":"B2094757D068AAF94392","title":"JW万豪大宴会厅","lon":"121.47125","lat":"31.23022","category":"247","category_name":"餐饮美食","address":"静安区南京西路399号JW万豪酒店5楼(近黄陂北路)查看地图"},{"poiid":"B2094757D068A5F4429A","title":"Napa Wine Bar &amp; Kitchen","lon":"121.46888489","lat":"31.229853754","category":"94","category_name":"西餐厅","address":"黄浦区江阴路57号(近重庆北路)"},{"poiid":"B2094757D469A5F84592","title":"克比泰国餐厅 Thai Aroma","lon":"121.470815","lat":"31.229563","category":"99","category_name":"泰国／越南菜品餐厅","address":"黄浦区黄陂北路227号中区广场1楼103室(近人民大道)"},{"poiid":"B2094757D069A4FD469D","title":"icare美发沙龙","lon":"121.46888073","lat":"31.230895314","category":"148","category_name":"美容美发店","address":"黄浦区南京西路388号仙乐斯广场3楼306室(近上海大剧院)"},{"poiid":"B2094757D06FA3FC479A","title":"马里兰商务中心(明天广场)","lon":"121.46985219","lat":"31.230372587","category":"46","category_name":"楼宇","address":"上海黄浦区南京西路399号"},{"poiid":"B2094655D26DA3FF469E","title":"上海保时捷中心","lon":"121.47048","lat":"31.2321","category":"158","category_name":"汽车销售","address":"黄浦区南京西路288号创新金融中心1楼(近新昌路)"},{"poiid":"B2094757D068A6FE479C","title":"Bar Constellation NO.3","lon":"121.4705964","lat":"31.229731422","category":"172","category_name":"酒吧","address":"上海浦东新区丁香路1399弄30号邻里之家2楼"},{"poiid":"B2094757D064A5F9499C","title":"富淳饭店天安店","lon":"121.46993873","lat":"31.230986316","category":"72","category_name":"广东菜","address":"黄浦区南京西路338号天安中心大厦B1楼"},{"poiid":"B2094751D465A3FD4699","title":"星巴克明天广场店","lon":"121.469766","lat":"31.231376","category":"247","category_name":"餐饮美食","address":"南京西路399号明天广场一楼"},{"poiid":"B2094654DA68A2FD4399","title":"上海美术馆","lon":"121.47093","lat":"31.23108","category":"184","category_name":"美术馆","address":"黄浦区南京西路325号(近黄陂北路)"},{"poiid":"B2094757D06EAAF4459F","title":"k1 3 cafe bar (木鸭梨餐吧)","lon":"121.46831373","lat":"31.230925314","category":"94","category_name":"西餐厅","address":"黄浦区南京西路456号科勒设计中心4楼(近仙乐斯广场)"},{"poiid":"B2094753D76FAAFA449C","title":"上海滩国泰旗舰店","lon":"121.466011","lat":"31.216125","category":"249","category_name":"购物服务","address":"淮海中路868号"},{"poiid":"B209475CD564A7F84292","title":"上海滩新天地店","lon":"121.47463","lat":"31.22164","category":"119","category_name":"商场","address":"\"太仓路181弄新天地北里15号\r\n\""},{"poiid":"B209475CD564A7F8439E","title":"上海滩中信泰富店","lon":"121.45602","lat":"31.22851","category":"119","category_name":"商场","address":"\"南京西路1168号中信泰富广场，店铺号221.\r\n\""},{"poiid":"B2094757D06FA2F44998","title":"Lingo Bistrot","lon":"121.46923","lat":"31.23113","category":"94","category_name":"西餐厅","address":"静安区南京西路388号仙乐斯广场1楼109室(近黄陂北路)"},{"poiid":"B2094757D06FA3F54893","title":"Kathleen's 5 Rooftop Restaurant &amp; Bar","lon":"121.470920351","lat":"31.2311566892","category":"94","category_name":"西餐厅","address":"黄浦区南京西路325号上海美术馆5楼(近黄陂北路)"},{"poiid":"B2094757D06FA2FD4192","title":"德大西菜社(南京西路店)","lon":"121.46813","lat":"31.23038","category":"94","category_name":"西餐厅","address":"静安区南京西路473号(近成都北路)"},{"poiid":"B2094654DB6BABFE4593","title":"顺风大酒店(人民广场店)","lon":"121.47048","lat":"31.22931","category":"75","category_name":"浙江菜","address":"黄浦区黄陂北路227号中区广场3楼(近上海大剧院)"},{"poiid":"B2094757D16FA6FF459C","title":"雅科","lon":"121.47077873","lat":"31.231950336","category":"76","category_name":"上海菜","address":"黄浦区南京西路248号大光明影院3楼屋顶花园(近黄河路)"},{"poiid":"B2094757D06FA3F44699","title":"红麻辣料理(仙乐斯店)","lon":"121.46877673","lat":"31.230198299","category":"68","category_name":"快餐厅","address":"静安区南京西路388号仙乐斯广场B1楼(近黄陂北路)"},{"poiid":"B2094655D26BA7F8449E","title":"上海大剧院-中剧场(Shanghai Grand Theatre - Drama Theatre)","lon":"121.47076","lat":"31.23004","category":"180","category_name":"剧场","address":"黄浦区人民大道300号大剧院1楼(近黄陂路)"},{"poiid":"B2094654DB64A5FD4099","title":"苏浙汇(黄浦店)","lon":"121.47048","lat":"31.23164","category":"76","category_name":"上海菜","address":"黄浦区南京西路288号创兴金融中心3楼(近新昌路)"},{"poiid":"B2094757D06EAAFD4292","title":"老克勒上海菜 南京西路店","lon":"121.47031","lat":"31.23222","category":"76","category_name":"上海菜","address":"黄浦区南京西路288号创兴金融中心2楼(近新昌路)"},{"poiid":"B2094757D06FA1FF479A","title":"功德林(南京西路店)","lon":"121.4687","lat":"31.23032","category":"89","category_name":"中式素餐馆","address":"黄浦区南京西路445号(近成都北路)"},{"poiid":"B2094757D46EA5F44198","title":"林记小馆 人民广场店","lon":"121.470848","lat":"31.229474","category":"72","category_name":"广东菜","address":"普陀区真北路2022号映象戴斯大酒店内(近铜川路)"},{"poiid":"B2094757D06FA2F94199","title":"唐朝大酒店(明天店)","lon":"121.47028","lat":"31.2298","category":"72","category_name":"广东菜","address":"上海南京西路389号明天广场二楼"},{"poiid":"B2094654DA68A3FD479C","title":"天安中心","lon":"121.46978","lat":"31.23174","category":"46","category_name":"楼宇","address":"上海南京西路338号"},{"poiid":"B2094654DA68A3FD499F","title":"COSTA COFFEE(仙乐斯店)","lon":"121.46944","lat":"31.23127","category":"65","category_name":"咖啡厅","address":"黄浦区南京西路388号仙乐斯广场1楼(近黄陂北路)"},{"poiid":"B2094757D06FA7F8409B","title":"老丰阁(仙乐斯店)","lon":"121.46905","lat":"31.23075","category":"76","category_name":"上海菜","address":"上海静安区南京西路388号仙乐斯广场7楼(近黄陂北路)  "},{"poiid":"B2094757D568A7FD4098","title":"barbarossalounge(芭芭露莎)","lon":"121.470839999998","lat":"31.2313530600002","category":"172","category_name":"酒吧","address":"黄浦区南京西路231号(人民公园内)"},{"poiid":"B2094757D068A2FE469E","title":"酒池星座(黄陂北路)","lon":"121.470575126","lat":"31.2296706472","category":"260","category_name":"其他","address":"黄浦区黄陂北路251号(近江阴路)"},{"poiid":"B2094757D068A7F5419B","title":"翠濮梧桐","lon":"121.47084393","lat":"31.231908135","category":"260","category_name":"其他","address":"黄浦区南京西路258号世茂商都4楼(近上海美术馆)"},{"poiid":"B2094654DB69A5FF409B","title":"麦当劳(仙乐斯店)","lon":"121.4691","lat":"31.23121","category":"68","category_name":"快餐厅","address":"静安区南京西路388号仙乐斯广场内(近黄陂北路)"},{"poiid":"B2094654DA68A3F5419A","title":"明天广场","lon":"121.46916","lat":"31.23071","category":"46","category_name":"楼宇","address":"碧云东壹栋位于浦东金藏路51号(浙桥路口)"},{"poiid":"B2094757D069A2F94392","title":"宝得莱","lon":"121.47042873","lat":"31.230037296","category":"95","category_name":"日本料理","address":"黄浦区黄陂北路227号中区广场1楼(近大剧院)"},{"poiid":"B2094757DB68AAFE469C","title":"俏江南 仙乐斯广场店","lon":"121.469229054","lat":"31.231252793","category":"71","category_name":"四川菜","address":"静安区南京西路388号仙乐斯广场2楼(近黄陂北路)"},{"poiid":"B2094757D06FA1F4499D","title":"创兴金融中心","lon":"121.4704895","lat":"31.231645584","category":"46","category_name":"楼宇","address":"上海南京西路288号"},{"poiid":"B2094757D06FA0FA4598","title":"渝乡人家(世茂商都店)","lon":"121.47092","lat":"31.23143","category":"71","category_name":"四川菜","address":"黄浦区南京西路258号世茂商都6楼(近大光明电影院，上海美术馆)  "},{"poiid":"B2094757D06FAAFB449F","title":"近江和牛正传(中区广场店)","lon":"121.47032673","lat":"31.22977029","category":"95","category_name":"日本料理","address":"黄浦区黄陂北路227号中区广场201室(近人民大道)"},{"poiid":"B209475DD56BAAFC4893","title":"南京大排档","lon":"121.470718","lat":"31.231937","category":"247","category_name":"餐饮美食","address":"上海市 南京西路258号世贸商都3楼"},{"poiid":"B2094753DB6DA7FF499F","title":"上海明天广场JW万豪酒店","lon":"121.468935","lat":"31.230925","category":"213","category_name":"五星级宾馆","address":"上海黄浦区南京西路399号"},{"poiid":"B2094757D469A1F5429C","title":"JW's Lounge Bar","lon":"121.470491054","lat":"31.229576793","category":"172","category_name":"酒吧","address":"黄浦区南京西路399号JW万豪酒店40楼(近黄陂北路)"},{"poiid":"B2094757D069A3FC4692","title":"流年咖啡","lon":"121.470938752","lat":"31.2315203906","category":"94","category_name":"西餐厅","address":"黄浦区南京西路205号(近上海美术馆)"},{"poiid":"B2094757D06FA5FD4598","title":"人民公园游乐园","lon":"121.47083282","lat":"31.231388092","category":"195","category_name":"游乐场","address":"上海黄浦区南京西路231号人民公园内"},{"poiid":"B2094757DB65A2FD4093","title":"红料理（仙乐斯广场店）","lon":"121.469","lat":"31.2314","category":"257","category_name":"中餐厅","address":"上海黄浦区南京西路388号 仙乐斯广场地下一层"},{"poiid":"B2094655D26DA7FD4792","title":"明堂上海新易途青年旅舍","lon":"121.46965","lat":"31.22958","category":"218","category_name":"青年旅舍","address":"江阴路55号"},{"poiid":"B2094757D56DA0F8459A","title":"仙乐斯营业厅","lon":"121.46903","lat":"31.231186","category":"151","category_name":"电讯营业厅","address":"黄浦区南京西路388号104单元"},{"poiid":"B2094757D06BAAF44293","title":"FC Salon","lon":"121.470497738","lat":"31.2299832948","category":"500","category_name":"未知分类","address":"上海黄陂北路251号(近南京西路)"},{"poiid":"B2094750D268A0F84398","title":"J.W万豪咖啡厅 Marriott Cafe","lon":"121.4704907438","lat":"31.22955780243","category":"268","category_name":"自助","address":"南京西路399号明天广场J.W.(金威)万豪酒店38楼近黄陂北路"},{"poiid":"B2094757D068AAF94392","title":"JW万豪大宴会厅","lon":"121.47125","lat":"31.23022","category":"247","category_name":"餐饮美食","address":"静安区南京西路399号JW万豪酒店5楼(近黄陂北路)查看地图"},{"poiid":"B2094757D068A5F4429A","title":"Napa Wine Bar &amp; Kitchen","lon":"121.46888489","lat":"31.229853754","category":"94","category_name":"西餐厅","address":"黄浦区江阴路57号(近重庆北路)"},{"poiid":"B2094757D469A5F84592","title":"克比泰国餐厅 Thai Aroma","lon":"121.470815","lat":"31.229563","category":"99","category_name":"泰国／越南菜品餐厅","address":"黄浦区黄陂北路227号中区广场1楼103室(近人民大道)"},{"poiid":"B2094757D069A4FD469D","title":"icare美发沙龙","lon":"121.46888073","lat":"31.230895314","category":"148","category_name":"美容美发店","address":"黄浦区南京西路388号仙乐斯广场3楼306室(近上海大剧院)"},{"poiid":"B2094757D06FA3FC479A","title":"马里兰商务中心(明天广场)","lon":"121.46985219","lat":"31.230372587","category":"46","category_name":"楼宇","address":"上海黄浦区南京西路399号"},{"poiid":"B2094655D26DA3FF469E","title":"上海保时捷中心","lon":"121.47048","lat":"31.2321","category":"158","category_name":"汽车销售","address":"黄浦区南京西路288号创新金融中心1楼(近新昌路)"},{"poiid":"B2094757D068A6FE479C","title":"Bar Constellation NO.3","lon":"121.4705964","lat":"31.229731422","category":"172","category_name":"酒吧","address":"上海浦东新区丁香路1399弄30号邻里之家2楼"},{"poiid":"B2094757D064A5F9499C","title":"富淳饭店天安店","lon":"121.46993873","lat":"31.230986316","category":"72","category_name":"广东菜","address":"黄浦区南京西路338号天安中心大厦B1楼"},{"poiid":"B2094751D465A3FD4699","title":"星巴克明天广场店","lon":"121.469766","lat":"31.231376","category":"247","category_name":"餐饮美食","address":"南京西路399号明天广场一楼"},{"poiid":"B2094654DA68A2FD4399","title":"上海美术馆","lon":"121.47093","lat":"31.23108","category":"184","category_name":"美术馆","address":"黄浦区南京西路325号(近黄陂北路)"},{"poiid":"B2094757D06EAAF4459F","title":"k1 3 cafe bar (木鸭梨餐吧)","lon":"121.46831373","lat":"31.230925314","category":"94","category_name":"西餐厅","address":"黄浦区南京西路456号科勒设计中心4楼(近仙乐斯广场)"},{"poiid":"B2094753D76FAAFA449C","title":"上海滩国泰旗舰店","lon":"121.466011","lat":"31.216125","category":"249","category_name":"购物服务","address":"淮海中路868号"},{"poiid":"B209475CD564A7F84292","title":"上海滩新天地店","lon":"121.47463","lat":"31.22164","category":"119","category_name":"商场","address":"\"太仓路181弄新天地北里15号\r\n\""},{"poiid":"B209475CD564A7F8439E","title":"上海滩中信泰富店","lon":"121.45602","lat":"31.22851","category":"119","category_name":"商场","address":"\"南京西路1168号中信泰富广场，店铺号221.\r\n\""},{"poiid":"B2094757D06FA2F44998","title":"Lingo Bistrot","lon":"121.46923","lat":"31.23113","category":"94","category_name":"西餐厅","address":"静安区南京西路388号仙乐斯广场1楼109室(近黄陂北路)"},{"poiid":"B2094757D06FA3F54893","title":"Kathleen's 5 Rooftop Restaurant &amp; Bar","lon":"121.470920351","lat":"31.2311566892","category":"94","category_name":"西餐厅","address":"黄浦区南京西路325号上海美术馆5楼(近黄陂北路)"},{"poiid":"B2094757D06FA2FD4192","title":"德大西菜社(南京西路店)","lon":"121.46813","lat":"31.23038","category":"94","category_name":"西餐厅","address":"静安区南京西路473号(近成都北路)"},{"poiid":"B2094654DB6BABFE4593","title":"顺风大酒店(人民广场店)","lon":"121.47048","lat":"31.22931","category":"75","category_name":"浙江菜","address":"黄浦区黄陂北路227号中区广场3楼(近上海大剧院)"},{"poiid":"B2094757D16FA6FF459C","title":"雅科","lon":"121.47077873","lat":"31.231950336","category":"76","category_name":"上海菜","address":"黄浦区南京西路248号大光明影院3楼屋顶花园(近黄河路)"},{"poiid":"B2094757D06FA3F44699","title":"红麻辣料理(仙乐斯店)","lon":"121.46877673","lat":"31.230198299","category":"68","category_name":"快餐厅","address":"静安区南京西路388号仙乐斯广场B1楼(近黄陂北路)"},{"poiid":"B2094655D26BA7F8449E","title":"上海大剧院-中剧场(Shanghai Grand Theatre - Drama Theatre)","lon":"121.47076","lat":"31.23004","category":"180","category_name":"剧场","address":"黄浦区人民大道300号大剧院1楼(近黄陂路)"},{"poiid":"B2094654DB64A5FD4099","title":"苏浙汇(黄浦店)","lon":"121.47048","lat":"31.23164","category":"76","category_name":"上海菜","address":"黄浦区南京西路288号创兴金融中心3楼(近新昌路)"},{"poiid":"B2094757D06EAAFD4292","title":"老克勒上海菜 南京西路店","lon":"121.47031","lat":"31.23222","category":"76","category_name":"上海菜","address":"黄浦区南京西路288号创兴金融中心2楼(近新昌路)"},{"poiid":"B2094757D06FA1FF479A","title":"功德林(南京西路店)","lon":"121.4687","lat":"31.23032","category":"89","category_name":"中式素餐馆","address":"黄浦区南京西路445号(近成都北路)"},{"poiid":"B2094757D46EA5F44198","title":"林记小馆 人民广场店","lon":"121.470848","lat":"31.229474","category":"72","category_name":"广东菜","address":"普陀区真北路2022号映象戴斯大酒店内(近铜川路)"},{"poiid":"B2094757D06FA2F94199","title":"唐朝大酒店(明天店)","lon":"121.47028","lat":"31.2298","category":"72","category_name":"广东菜","address":"上海南京西路389号明天广场二楼"},{"poiid":"B2094654DA68A3FD479C","title":"天安中心","lon":"121.46978","lat":"31.23174","category":"46","category_name":"楼宇","address":"上海南京西路338号"},{"poiid":"B2094654DA68A3FD499F","title":"COSTA COFFEE(仙乐斯店)","lon":"121.46944","lat":"31.23127","category":"65","category_name":"咖啡厅","address":"黄浦区南京西路388号仙乐斯广场1楼(近黄陂北路)"},{"poiid":"B2094757D06FA7F8409B","title":"老丰阁(仙乐斯店)","lon":"121.46905","lat":"31.23075","category":"76","category_name":"上海菜","address":"上海静安区南京西路388号仙乐斯广场7楼(近黄陂北路)  "},{"poiid":"B2094757D568A7FD4098","title":"barbarossalounge(芭芭露莎)","lon":"121.470839999998","lat":"31.2313530600002","category":"172","category_name":"酒吧","address":"黄浦区南京西路231号(人民公园内)"},{"poiid":"B2094757D068A2FE469E","title":"酒池星座(黄陂北路)","lon":"121.470575126","lat":"31.2296706472","category":"260","category_name":"其他","address":"黄浦区黄陂北路251号(近江阴路)"},{"poiid":"B2094757D068A7F5419B","title":"翠濮梧桐","lon":"121.47084393","lat":"31.231908135","category":"260","category_name":"其他","address":"黄浦区南京西路258号世茂商都4楼(近上海美术馆)"},{"poiid":"B2094654DB69A5FF409B","title":"麦当劳(仙乐斯店)","lon":"121.4691","lat":"31.23121","category":"68","category_name":"快餐厅","address":"静安区南京西路388号仙乐斯广场内(近黄陂北路)"},{"poiid":"B2094654DA68A3F5419A","title":"明天广场","lon":"121.46916","lat":"31.23071","category":"46","category_name":"楼宇","address":"碧云东壹栋位于浦东金藏路51号(浙桥路口)"},{"poiid":"B2094757D069A2F94392","title":"宝得莱","lon":"121.47042873","lat":"31.230037296","category":"95","category_name":"日本料理","address":"黄浦区黄陂北路227号中区广场1楼(近大剧院)"},{"poiid":"B2094757DB68AAFE469C","title":"俏江南 仙乐斯广场店","lon":"121.469229054","lat":"31.231252793","category":"71","category_name":"四川菜","address":"静安区南京西路388号仙乐斯广场2楼(近黄陂北路)"},{"poiid":"B2094757D06FA1F4499D","title":"创兴金融中心","lon":"121.4704895","lat":"31.231645584","category":"46","category_name":"楼宇","address":"上海南京西路288号"},{"poiid":"B2094757D06FA0FA4598","title":"渝乡人家(世茂商都店)","lon":"121.47092","lat":"31.23143","category":"71","category_name":"四川菜","address":"黄浦区南京西路258号世茂商都6楼(近大光明电影院，上海美术馆)  "},{"poiid":"B2094757D06FAAFB449F","title":"近江和牛正传(中区广场店)","lon":"121.47032673","lat":"31.22977029","category":"95","category_name":"日本料理","address":"黄浦区黄陂北路227号中区广场201室(近人民大道)"},{"poiid":"B209475DD56BAAFC4893","title":"南京大排档","lon":"121.470718","lat":"31.231937","category":"247","category_name":"餐饮美食","address":"上海市 南京西路258号世贸商都3楼"},{"poiid":"B2094753DB6DA7FF499F","title":"上海明天广场JW万豪酒店","lon":"121.468935","lat":"31.230925","category":"213","category_name":"五星级宾馆","address":"上海黄浦区南京西路399号"},{"poiid":"B2094757D469A1F5429C","title":"JW's Lounge Bar","lon":"121.470491054","lat":"31.229576793","category":"172","category_name":"酒吧","address":"黄浦区南京西路399号JW万豪酒店40楼(近黄陂北路)"},{"poiid":"B2094757D069A3FC4692","title":"流年咖啡","lon":"121.470938752","lat":"31.2315203906","category":"94","category_name":"西餐厅","address":"黄浦区南京西路205号(近上海美术馆)"},{"poiid":"B2094757D06FA5FD4598","title":"人民公园游乐园","lon":"121.47083282","lat":"31.231388092","category":"195","category_name":"游乐场","address":"上海黄浦区南京西路231号人民公园内"},{"poiid":"B2094757DB65A2FD4093","title":"红料理（仙乐斯广场店）","lon":"121.469","lat":"31.2314","category":"257","category_name":"中餐厅","address":"上海黄浦区南京西路388号 仙乐斯广场地下一层"},{"poiid":"B2094655D26DA7FD4792","title":"明堂上海新易途青年旅舍","lon":"121.46965","lat":"31.22958","category":"218","category_name":"青年旅舍","address":"江阴路55号"},{"poiid":"B2094757D56DA0F8459A","title":"仙乐斯营业厅","lon":"121.46903","lat":"31.231186","category":"151","category_name":"电讯营业厅","address":"黄浦区南京西路388号104单元"},{"poiid":"B2094757D06BAAF44293","title":"FC Salon","lon":"121.470497738","lat":"31.2299832948","category":"500","category_name":"未知分类","address":"上海黄陂北路251号(近南京西路)"},{"poiid":"B2094750D268A0F84398","title":"J.W万豪咖啡厅 Marriott Cafe","lon":"121.4704907438","lat":"31.22955780243","category":"268","category_name":"自助","address":"南京西路399号明天广场J.W.(金威)万豪酒店38楼近黄陂北路"},{"poiid":"B2094757D068AAF94392","title":"JW万豪大宴会厅","lon":"121.47125","lat":"31.23022","category":"247","category_name":"餐饮美食","address":"静安区南京西路399号JW万豪酒店5楼(近黄陂北路)查看地图"},{"poiid":"B2094757D068A5F4429A","title":"Napa Wine Bar &amp; Kitchen","lon":"121.46888489","lat":"31.229853754","category":"94","category_name":"西餐厅","address":"黄浦区江阴路57号(近重庆北路)"},{"poiid":"B2094757D469A5F84592","title":"克比泰国餐厅 Thai Aroma","lon":"121.470815","lat":"31.229563","category":"99","category_name":"泰国／越南菜品餐厅","address":"黄浦区黄陂北路227号中区广场1楼103室(近人民大道)"},{"poiid":"B2094757D069A4FD469D","title":"icare美发沙龙","lon":"121.46888073","lat":"31.230895314","category":"148","category_name":"美容美发店","address":"黄浦区南京西路388号仙乐斯广场3楼306室(近上海大剧院)"},{"poiid":"B2094757D06FA3FC479A","title":"马里兰商务中心(明天广场)","lon":"121.46985219","lat":"31.230372587","category":"46","category_name":"楼宇","address":"上海黄浦区南京西路399号"},{"poiid":"B2094655D26DA3FF469E","title":"上海保时捷中心","lon":"121.47048","lat":"31.2321","category":"158","category_name":"汽车销售","address":"黄浦区南京西路288号创新金融中心1楼(近新昌路)"},{"poiid":"B2094757D068A6FE479C","title":"Bar Constellation NO.3","lon":"121.4705964","lat":"31.229731422","category":"172","category_name":"酒吧","address":"上海浦东新区丁香路1399弄30号邻里之家2楼"},{"poiid":"B2094757D064A5F9499C","title":"富淳饭店天安店","lon":"121.46993873","lat":"31.230986316","category":"72","category_name":"广东菜","address":"黄浦区南京西路338号天安中心大厦B1楼"},{"poiid":"B2094751D465A3FD4699","title":"星巴克明天广场店","lon":"121.469766","lat":"31.231376","category":"247","category_name":"餐饮美食","address":"南京西路399号明天广场一楼"},{"poiid":"B2094654DA68A2FD4399","title":"上海美术馆","lon":"121.47093","lat":"31.23108","category":"184","category_name":"美术馆","address":"黄浦区南京西路325号(近黄陂北路)"},{"poiid":"B2094757D06EAAF4459F","title":"k1 3 cafe bar (木鸭梨餐吧)","lon":"121.46831373","lat":"31.230925314","category":"94","category_name":"西餐厅","address":"黄浦区南京西路456号科勒设计中心4楼(近仙乐斯广场)"},{"poiid":"B2094753D76FAAFA449C","title":"上海滩国泰旗舰店","lon":"121.466011","lat":"31.216125","category":"249","category_name":"购物服务","address":"淮海中路868号"},{"poiid":"B209475CD564A7F84292","title":"上海滩新天地店","lon":"121.47463","lat":"31.22164","category":"119","category_name":"商场","address":"\"太仓路181弄新天地北里15号\r\n\""},{"poiid":"B209475CD564A7F8439E","title":"上海滩中信泰富店","lon":"121.45602","lat":"31.22851","category":"119","category_name":"商场","address":"\"南京西路1168号中信泰富广场，店铺号221.\r\n\""},{"poiid":"B2094757D06FA2F44998","title":"Lingo Bistrot","lon":"121.46923","lat":"31.23113","category":"94","category_name":"西餐厅","address":"静安区南京西路388号仙乐斯广场1楼109室(近黄陂北路)"},{"poiid":"B2094757D06FA3F54893","title":"Kathleen's 5 Rooftop Restaurant &amp; Bar","lon":"121.470920351","lat":"31.2311566892","category":"94","category_name":"西餐厅","address":"黄浦区南京西路325号上海美术馆5楼(近黄陂北路)"},{"poiid":"B2094757D06FA2FD4192","title":"德大西菜社(南京西路店)","lon":"121.46813","lat":"31.23038","category":"94","category_name":"西餐厅","address":"静安区南京西路473号(近成都北路)"},{"poiid":"B2094654DB6BABFE4593","title":"顺风大酒店(人民广场店)","lon":"121.47048","lat":"31.22931","category":"75","category_name":"浙江菜","address":"黄浦区黄陂北路227号中区广场3楼(近上海大剧院)"},{"poiid":"B2094757D16FA6FF459C","title":"雅科","lon":"121.47077873","lat":"31.231950336","category":"76","category_name":"上海菜","address":"黄浦区南京西路248号大光明影院3楼屋顶花园(近黄河路)"},{"poiid":"B2094757D06FA3F44699","title":"红麻辣料理(仙乐斯店)","lon":"121.46877673","lat":"31.230198299","category":"68","category_name":"快餐厅","address":"静安区南京西路388号仙乐斯广场B1楼(近黄陂北路)"},{"poiid":"B2094655D26BA7F8449E","title":"上海大剧院-中剧场(Shanghai Grand Theatre - Drama Theatre)","lon":"121.47076","lat":"31.23004","category":"180","category_name":"剧场","address":"黄浦区人民大道300号大剧院1楼(近黄陂路)"},{"poiid":"B2094654DB64A5FD4099","title":"苏浙汇(黄浦店)","lon":"121.47048","lat":"31.23164","category":"76","category_name":"上海菜","address":"黄浦区南京西路288号创兴金融中心3楼(近新昌路)"},{"poiid":"B2094757D06EAAFD4292","title":"老克勒上海菜 南京西路店","lon":"121.47031","lat":"31.23222","category":"76","category_name":"上海菜","address":"黄浦区南京西路288号创兴金融中心2楼(近新昌路)"},{"poiid":"B2094757D06FA1FF479A","title":"功德林(南京西路店)","lon":"121.4687","lat":"31.23032","category":"89","category_name":"中式素餐馆","address":"黄浦区南京西路445号(近成都北路)"},{"poiid":"B2094757D46EA5F44198","title":"林记小馆 人民广场店","lon":"121.470848","lat":"31.229474","category":"72","category_name":"广东菜","address":"普陀区真北路2022号映象戴斯大酒店内(近铜川路)"},{"poiid":"B2094757D06FA2F94199","title":"唐朝大酒店(明天店)","lon":"121.47028","lat":"31.2298","category":"72","category_name":"广东菜","address":"上海南京西路389号明天广场二楼"},{"poiid":"B2094654DA68A3FD479C","title":"天安中心","lon":"121.46978","lat":"31.23174","category":"46","category_name":"楼宇","address":"上海南京西路338号"},{"poiid":"B2094654DA68A3FD499F","title":"COSTA COFFEE(仙乐斯店)","lon":"121.46944","lat":"31.23127","category":"65","category_name":"咖啡厅","address":"黄浦区南京西路388号仙乐斯广场1楼(近黄陂北路)"},{"poiid":"B2094757D06FA7F8409B","title":"老丰阁(仙乐斯店)","lon":"121.46905","lat":"31.23075","category":"76","category_name":"上海菜","address":"上海静安区南京西路388号仙乐斯广场7楼(近黄陂北路)  "},{"poiid":"B2094757D568A7FD4098","title":"barbarossalounge(芭芭露莎)","lon":"121.470839999998","lat":"31.2313530600002","category":"172","category_name":"酒吧","address":"黄浦区南京西路231号(人民公园内)"},{"poiid":"B2094757D068A2FE469E","title":"酒池星座(黄陂北路)","lon":"121.470575126","lat":"31.2296706472","category":"260","category_name":"其他","address":"黄浦区黄陂北路251号(近江阴路)"},{"poiid":"B2094757D068A7F5419B","title":"翠濮梧桐","lon":"121.47084393","lat":"31.231908135","category":"260","category_name":"其他","address":"黄浦区南京西路258号世茂商都4楼(近上海美术馆)"},{"poiid":"B2094654DB69A5FF409B","title":"麦当劳(仙乐斯店)","lon":"121.4691","lat":"31.23121","category":"68","category_name":"快餐厅","address":"静安区南京西路388号仙乐斯广场内(近黄陂北路)"},{"poiid":"B2094654DA68A3F5419A","title":"明天广场","lon":"121.46916","lat":"31.23071","category":"46","category_name":"楼宇","address":"碧云东壹栋位于浦东金藏路51号(浙桥路口)"},{"poiid":"B2094757D069A2F94392","title":"宝得莱","lon":"121.47042873","lat":"31.230037296","category":"95","category_name":"日本料理","address":"黄浦区黄陂北路227号中区广场1楼(近大剧院)"},{"poiid":"B2094757DB68AAFE469C","title":"俏江南 仙乐斯广场店","lon":"121.469229054","lat":"31.231252793","category":"71","category_name":"四川菜","address":"静安区南京西路388号仙乐斯广场2楼(近黄陂北路)"},{"poiid":"B2094757D06FA1F4499D","title":"创兴金融中心","lon":"121.4704895","lat":"31.231645584","category":"46","category_name":"楼宇","address":"上海南京西路288号"},{"poiid":"B2094757D06FA0FA4598","title":"渝乡人家(世茂商都店)","lon":"121.47092","lat":"31.23143","category":"71","category_name":"四川菜","address":"黄浦区南京西路258号世茂商都6楼(近大光明电影院，上海美术馆)  "},{"poiid":"B2094757D06FAAFB449F","title":"近江和牛正传(中区广场店)","lon":"121.47032673","lat":"31.22977029","category":"95","category_name":"日本料理","address":"黄浦区黄陂北路227号中区广场201室(近人民大道)"},{"poiid":"B209475DD56BAAFC4893","title":"南京大排档","lon":"121.470718","lat":"31.231937","category":"247","category_name":"餐饮美食","address":"上海市 南京西路258号世贸商都3楼"},{"poiid":"B2094753DB6DA7FF499F","title":"上海明天广场JW万豪酒店","lon":"121.468935","lat":"31.230925","category":"213","category_name":"五星级宾馆","address":"上海黄浦区南京西路399号"},{"poiid":"B2094757D469A1F5429C","title":"JW's Lounge Bar","lon":"121.470491054","lat":"31.229576793","category":"172","category_name":"酒吧","address":"黄浦区南京西路399号JW万豪酒店40楼(近黄陂北路)"},{"poiid":"B2094757D069A3FC4692","title":"流年咖啡","lon":"121.470938752","lat":"31.2315203906","category":"94","category_name":"西餐厅","address":"黄浦区南京西路205号(近上海美术馆)"},{"poiid":"B2094757D06FA5FD4598","title":"人民公园游乐园","lon":"121.47083282","lat":"31.231388092","category":"195","category_name":"游乐场","address":"上海黄浦区南京西路231号人民公园内"},{"poiid":"B2094757DB65A2FD4093","title":"红料理（仙乐斯广场店）","lon":"121.469","lat":"31.2314","category":"257","category_name":"中餐厅","address":"上海黄浦区南京西路388号 仙乐斯广场地下一层"},{"poiid":"B2094655D26DA7FD4792","title":"明堂上海新易途青年旅舍","lon":"121.46965","lat":"31.22958","category":"218","category_name":"青年旅舍","address":"江阴路55号"},{"poiid":"B2094757D56DA0F8459A","title":"仙乐斯营业厅","lon":"121.46903","lat":"31.231186","category":"151","category_name":"电讯营业厅","address":"黄浦区南京西路388号104单元"},{"poiid":"B2094757D06BAAF44293","title":"FC Salon","lon":"121.470497738","lat":"31.2299832948","category":"500","category_name":"未知分类","address":"上海黄陂北路251号(近南京西路)"},{"poiid":"B2094750D268A0F84398","title":"J.W万豪咖啡厅 Marriott Cafe","lon":"121.4704907438","lat":"31.22955780243","category":"268","category_name":"自助","address":"南京西路399号明天广场J.W.(金威)万豪酒店38楼近黄陂北路"},{"poiid":"B2094757D068AAF94392","title":"JW万豪大宴会厅","lon":"121.47125","lat":"31.23022","category":"247","category_name":"餐饮美食","address":"静安区南京西路399号JW万豪酒店5楼(近黄陂北路)查看地图"},{"poiid":"B2094757D068A5F4429A","title":"Napa Wine Bar &amp; Kitchen","lon":"121.46888489","lat":"31.229853754","category":"94","category_name":"西餐厅","address":"黄浦区江阴路57号(近重庆北路)"},{"poiid":"B2094757D469A5F84592","title":"克比泰国餐厅 Thai Aroma","lon":"121.470815","lat":"31.229563","category":"99","category_name":"泰国／越南菜品餐厅","address":"黄浦区黄陂北路227号中区广场1楼103室(近人民大道)"},{"poiid":"B2094757D069A4FD469D","title":"icare美发沙龙","lon":"121.46888073","lat":"31.230895314","category":"148","category_name":"美容美发店","address":"黄浦区南京西路388号仙乐斯广场3楼306室(近上海大剧院)"},{"poiid":"B2094757D06FA3FC479A","title":"马里兰商务中心(明天广场)","lon":"121.46985219","lat":"31.230372587","category":"46","category_name":"楼宇","address":"上海黄浦区南京西路399号"},{"poiid":"B2094655D26DA3FF469E","title":"上海保时捷中心","lon":"121.47048","lat":"31.2321","category":"158","category_name":"汽车销售","address":"黄浦区南京西路288号创新金融中心1楼(近新昌路)"},{"poiid":"B2094757D068A6FE479C","title":"Bar Constellation NO.3","lon":"121.4705964","lat":"31.229731422","category":"172","category_name":"酒吧","address":"上海浦东新区丁香路1399弄30号邻里之家2楼"},{"poiid":"B2094757D064A5F9499C","title":"富淳饭店天安店","lon":"121.46993873","lat":"31.230986316","category":"72","category_name":"广东菜","address":"黄浦区南京西路338号天安中心大厦B1楼"},{"poiid":"B2094751D465A3FD4699","title":"星巴克明天广场店","lon":"121.469766","lat":"31.231376","category":"247","category_name":"餐饮美食","address":"南京西路399号明天广场一楼"}]