[{"poiid":"B2094757D068A2FD4899","title":"周浦医院","lon":"121.584635939","lat":"31.1195552509","category":"162","category_name":"医院","address":"浦东新区周浦镇关岳路135号(关岳路周东路)"},{"poiid":"B2094757D06FA7FD4492","title":"川流不息(周东店)","lon":"121.58304","lat":"31.12436","category":"68","category_name":"快餐厅","address":"浦东新区周东路748号(近上海银行)"},{"poiid":"B2094655D264A5FE4292","title":"印象春城","lon":"121.59019","lat":"31.115759","category":"47","category_name":"住宅区","address":"浦东新区年家浜东路129弄(周园路)"},{"poiid":"B2094757D06FA4F9439F","title":"周浦公园","lon":"121.59599661","lat":"31.11343","category":"196","category_name":"公园","address":"浦东新区周浦镇年家浜路东侧(周邓公路周园路)"},{"poiid":"B2094654DB6DA3FD4392","title":"汇丽苑","lon":"121.58794","lat":"31.12127","category":"47","category_name":"住宅区","address":"关岳路229弄"},{"poiid":"B2094757D068A3F4429F","title":"老八样 南八灶街店","lon":"121.58165","lat":"31.11501","category":"76","category_name":"上海菜","address":"浦东新区周浦镇年家浜路205-207号(周市路口)"},{"poiid":"B2094654DB65A3FE469E","title":"上海市傅雷中学","lon":"121.59046","lat":"31.12061","category":"55","category_name":"中学","address":"关岳路301"},{"poiid":"B2094757D06AA1FF4592","title":"周浦","lon":"121.57817382","lat":"31.125178193","category":"500","category_name":"未知分类","address":"上海市浦东区周浦镇"},{"poiid":"B2094757D06BA0FC479C","title":"清风人家(周浦镇店)","lon":"121.58406","lat":"31.12304","category":"260","category_name":"其他","address":"浦东新区周浦镇周东路778号(近川周公路)"},{"poiid":"B2094757D06BA7F4469A","title":"酒窝日式料理","lon":"121.583445246","lat":"31.1325482697","category":"95","category_name":"日本料理","address":"秀沿路1060号"},{"poiid":"B2094757D069A7F5489F","title":"汤记传菜","lon":"121.58418264","lat":"31.123172379","category":"76","category_name":"上海菜","address":"浦东新区周浦镇周东路626-632号(近川周公路)"},{"poiid":"B2094655D26FA7FA459F","title":"康桥宝邸","lon":"121.60066","lat":"31.122597","category":"47","category_name":"住宅区","address":"上海浦东新区康弘路508弄"},{"poiid":"B2094655D26DA6FC4998","title":"新育公寓","lon":"121.58814906993","lat":"31.121903826289","category":"47","category_name":"住宅区","address":"周浦东八灶115弄"},{"poiid":"B2094655D26DA6FC469C","title":"海尚康庭","lon":"121.59852","lat":"31.12682","category":"47","category_name":"住宅区","address":"上海浦东新区康弘路580弄"},{"poiid":"B2094757D068A4F8469F","title":"周浦镇文化活动中心","lon":"121.58839899","lat":"31.111640325","category":"260","category_name":"其他","address":"上海周东路"},{"poiid":"B2094757D068AAFD489A","title":"圣鑫苑","lon":"121.5919268027","lat":"31.132167642657","category":"47","category_name":"住宅区","address":"航头沪南路5588号"},{"poiid":"B2094757D06AA0F44598","title":"浦东新区税务局第三十三税务所","lon":"121.587699446","lat":"31.1142155823","category":"500","category_name":"未知分类","address":"上海年家浜路2号"},{"poiid":"B2094655D36DA7F94798","title":"周东路川周公路","lon":"121.58415","lat":"31.12283","category":"38","category_name":"公交车站","address":""},{"poiid":"B2094757D164ABFA409B","title":"大丰收鱼庄","lon":"121.588163246","lat":"31.1234680531","category":"247","category_name":"餐饮美食","address":"上海市浦东新区年家浜路万达广场3楼"},{"poiid":"B2094750D669ABFC499D","title":"段氏龙虾","lon":"121.58422","lat":"31.122323","category":"68","category_name":"快餐厅","address":"浦东新区周东路616号(近川周公路)"},{"poiid":"B2094654DB64A4F5449C","title":"欣欣家园","lon":"121.58752","lat":"31.11964","category":"47","category_name":"住宅区","address":"关岳路186弄12-31号"},{"poiid":"B2094757D569A1FB4299","title":"上岛咖啡(关岳路)","lon":"121.58565294","lat":"31.11934272","category":"65","category_name":"咖啡厅","address":"浦东新区关岳路108号(近周东路)"},{"poiid":"B2094757D66DAAFA439E","title":"凡宏酒店","lon":"121.585802054","lat":"31.118154793","category":"76","category_name":"上海菜","address":"浦东新区周浦镇周东路550号(关岳路周东路)"},{"poiid":"B2094757D568ABF5499D","title":"阿昌烟酒商店","lon":"121.58913411","lat":"31.12034749","category":"117","category_name":"便民商店/便利店","address":"中国上海市浦东新区关岳路"},{"poiid":"B2094757D569A2FC4998","title":"申雅苑","lon":"121.59075","lat":"31.119904","category":"47","category_name":"住宅区","address":"关岳路338弄1-49号"},{"poiid":"B2094655D36CA7F54492","title":"关岳路周园路","lon":"121.59113","lat":"31.12057","category":"38","category_name":"公交车站","address":""},{"poiid":"B2094757D569A1F8449A","title":"秀康新城康桥月苑","lon":"121.5961189","lat":"31.12409389","category":"47","category_name":"住宅区","address":"浦东新区康佳路38、39弄"},{"poiid":"B2094757D16EAAF54492","title":"八一中学","lon":"121.59073","lat":"31.12033","category":"55","category_name":"中学","address":"浦东新区周浦镇关岳路301号"},{"poiid":"B2094757D16AABFE439D","title":"鑫源小区","lon":"121.586","lat":"31.1214","category":"47","category_name":"住宅区","address":"上海市浦东新区年家浜路"},{"poiid":"B2094757D568AAF5429A","title":"尚全","lon":"121.5881741","lat":"31.12010661","category":"117","category_name":"便民商店/便利店","address":"关岳路231"},{"poiid":"B2094654DB65A3F94793","title":"上海交通大学医学院附属第九人民医院周浦分院","lon":"121.58464","lat":"31.11955","category":"162","category_name":"医院","address":"关岳路135"},{"poiid":"B2094757D16EA6FC469F","title":"关岳路周东路公交站","lon":"121.586316","lat":"31.119641","category":"38","category_name":"公交车站","address":"上海浦东新区周浦镇关岳路(近周东路)"},{"poiid":"B2094757D66AA5F8439E","title":"苑宝楼","lon":"121.588327","lat":"31.126709","category":"76","category_name":"上海菜","address":"浦东新区川周公路4013号(近周东路)"},{"poiid":"B2094757D569A1F8469A","title":"水上巴黎","lon":"121.58941596","lat":"31.12048123","category":"149","category_name":"洗浴推拿场所","address":"中国上海市浦东新区关岳路"},{"poiid":"B2094757D069A2FA489D","title":"金田花园","lon":"121.5864","lat":"31.119236","category":"47","category_name":"住宅区","address":"上海周东路508弄"},{"poiid":"B2094757D468A4FA429F","title":"阿强农家菜","lon":"121.583995","lat":"31.123093","category":"87","category_name":"特色／地方风味餐厅","address":"浦东新区周浦川周公路4183号(近秀沿路)"},{"poiid":"B2094654DB64A1F84998","title":"周东二村(周东路)","lon":"121.58535","lat":"31.12112","category":"47","category_name":"住宅区","address":"周浦镇"},{"poiid":"B2094654DB64A5FB4892","title":"灵林公寓","lon":"121.58781","lat":"31.119122","category":"47","category_name":"住宅区","address":"关岳路186弄"},{"poiid":"B2094757D168A1FD4693","title":"老北京热气羊肉涮锅","lon":"121.583913246","lat":"31.1247312832","category":"247","category_name":"餐饮美食","address":"上海周浦周东路646号"},{"poiid":"B2094655D26DA6FC4693","title":"金宝公寓","lon":"121.58608","lat":"31.120005","category":"47","category_name":"住宅区","address":"关岳路159弄"},{"poiid":"B2094757D068A5FB459B","title":"85度C(周浦店)","lon":"121.58072724","lat":"31.121425004","category":"112","category_name":"糕饼店","address":"浦东新区周浦镇康沈路1573号(近周浦汽车站)"},{"poiid":"B2094757D569A3F4469B","title":"天浩菜馆","lon":"121.58636692","lat":"31.12526123","category":"257","category_name":"中餐厅","address":"浦东新区川周公路金家宅85-86号(周东路东侧)"},{"poiid":"B2094757D16CA6FE4792","title":"公元新村公交站","lon":"121.58638234","lat":"31.119016046","category":"38","category_name":"公交车站","address":"上海浦东新区康沈路德浦路"},{"poiid":"B2094655D36DA7F9479F","title":"周东路年家浜路","lon":"121.5875","lat":"31.11368","category":"38","category_name":"公交车站","address":""},{"poiid":"B2094655D36DA7F9479A","title":"周东公路","lon":"121.58591","lat":"31.11957","category":"38","category_name":"公交车站","address":""},{"poiid":"B2094654DB6DA2FF459C","title":"罗森(周东路)","lon":"121.58576","lat":"31.119","category":"117","category_name":"便民商店/便利店","address":""},{"poiid":"B2094757D569A3FD429F","title":"来伊份(关岳路)","lon":"121.58780219","lat":"31.12003988","category":"249","category_name":"购物服务","address":"关岳路223"},{"poiid":"B2094654DB64A7F8459B","title":"周浦医疗急救中心","lon":"121.58464","lat":"31.12084","category":"162","category_name":"医院","address":""},{"poiid":"B2094757D16BA6FA4898","title":"川周公路周东路公交站","lon":"121.584404","lat":"31.122569","category":"38","category_name":"公交车站","address":"上海浦东新区周浦镇川周公路(近周东路)"},{"poiid":"B2094654DB6DA2F9409C","title":"闻鲜家常菜","lon":"121.58531","lat":"31.12453","category":"257","category_name":"中餐厅","address":"浦东新区川周公路4115号3室(近周东路)"},{"poiid":"B2094757D068A2FD4899","title":"周浦医院","lon":"121.584635939","lat":"31.1195552509","category":"162","category_name":"医院","address":"浦东新区周浦镇关岳路135号(关岳路周东路)"},{"poiid":"B2094757D06FA7FD4492","title":"川流不息(周东店)","lon":"121.58304","lat":"31.12436","category":"68","category_name":"快餐厅","address":"浦东新区周东路748号(近上海银行)"},{"poiid":"B2094655D264A5FE4292","title":"印象春城","lon":"121.59019","lat":"31.115759","category":"47","category_name":"住宅区","address":"浦东新区年家浜东路129弄(周园路)"},{"poiid":"B2094757D06FA4F9439F","title":"周浦公园","lon":"121.59599661","lat":"31.11343","category":"196","category_name":"公园","address":"浦东新区周浦镇年家浜路东侧(周邓公路周园路)"},{"poiid":"B2094654DB6DA3FD4392","title":"汇丽苑","lon":"121.58794","lat":"31.12127","category":"47","category_name":"住宅区","address":"关岳路229弄"},{"poiid":"B2094757D068A3F4429F","title":"老八样 南八灶街店","lon":"121.58165","lat":"31.11501","category":"76","category_name":"上海菜","address":"浦东新区周浦镇年家浜路205-207号(周市路口)"},{"poiid":"B2094654DB65A3FE469E","title":"上海市傅雷中学","lon":"121.59046","lat":"31.12061","category":"55","category_name":"中学","address":"关岳路301"},{"poiid":"B2094757D06AA1FF4592","title":"周浦","lon":"121.57817382","lat":"31.125178193","category":"500","category_name":"未知分类","address":"上海市浦东区周浦镇"},{"poiid":"B2094757D06BA0FC479C","title":"清风人家(周浦镇店)","lon":"121.58406","lat":"31.12304","category":"260","category_name":"其他","address":"浦东新区周浦镇周东路778号(近川周公路)"},{"poiid":"B2094757D06BA7F4469A","title":"酒窝日式料理","lon":"121.583445246","lat":"31.1325482697","category":"95","category_name":"日本料理","address":"秀沿路1060号"},{"poiid":"B2094757D069A7F5489F","title":"汤记传菜","lon":"121.58418264","lat":"31.123172379","category":"76","category_name":"上海菜","address":"浦东新区周浦镇周东路626-632号(近川周公路)"},{"poiid":"B2094655D26FA7FA459F","title":"康桥宝邸","lon":"121.60066","lat":"31.122597","category":"47","category_name":"住宅区","address":"上海浦东新区康弘路508弄"},{"poiid":"B2094655D26DA6FC4998","title":"新育公寓","lon":"121.58814906993","lat":"31.121903826289","category":"47","category_name":"住宅区","address":"周浦东八灶115弄"},{"poiid":"B2094655D26DA6FC469C","title":"海尚康庭","lon":"121.59852","lat":"31.12682","category":"47","category_name":"住宅区","address":"上海浦东新区康弘路580弄"},{"poiid":"B2094757D068A4F8469F","title":"周浦镇文化活动中心","lon":"121.58839899","lat":"31.111640325","category":"260","category_name":"其他","address":"上海周东路"},{"poiid":"B2094757D068AAFD489A","title":"圣鑫苑","lon":"121.5919268027","lat":"31.132167642657","category":"47","category_name":"住宅区","address":"航头沪南路5588号"},{"poiid":"B2094757D06AA0F44598","title":"浦东新区税务局第三十三税务所","lon":"121.587699446","lat":"31.1142155823","category":"500","category_name":"未知分类","address":"上海年家浜路2号"},{"poiid":"B2094655D36DA7F94798","title":"周东路川周公路","lon":"121.58415","lat":"31.12283","category":"38","category_name":"公交车站","address":""},{"poiid":"B2094757D164ABFA409B","title":"大丰收鱼庄","lon":"121.588163246","lat":"31.1234680531","category":"247","category_name":"餐饮美食","address":"上海市浦东新区年家浜路万达广场3楼"},{"poiid":"B2094750D669ABFC499D","title":"段氏龙虾","lon":"121.58422","lat":"31.122323","category":"68","category_name":"快餐厅","address":"浦东新区周东路616号(近川周公路)"},{"poiid":"B2094654DB64A4F5449C","title":"欣欣家园","lon":"121.58752","lat":"31.11964","category":"47","category_name":"住宅区","address":"关岳路186弄12-31号"},{"poiid":"B2094757D569A1FB4299","title":"上岛咖啡(关岳路)","lon":"121.58565294","lat":"31.11934272","category":"65","category_name":"咖啡厅","address":"浦东新区关岳路108号(近周东路)"},{"poiid":"B2094757D66DAAFA439E","title":"凡宏酒店","lon":"121.585802054","lat":"31.118154793","category":"76","category_name":"上海菜","address":"浦东新区周浦镇周东路550号(关岳路周东路)"},{"poiid":"B2094757D568ABF5499D","title":"阿昌烟酒商店","lon":"121.58913411","lat":"31.12034749","category":"117","category_name":"便民商店/便利店","address":"中国上海市浦东新区关岳路"},{"poiid":"B2094757D569A2FC4998","title":"申雅苑","lon":"121.59075","lat":"31.119904","category":"47","category_name":"住宅区","address":"关岳路338弄1-49号"},{"poiid":"B2094655D36CA7F54492","title":"关岳路周园路","lon":"121.59113","lat":"31.12057","category":"38","category_name":"公交车站","address":""},{"poiid":"B2094757D569A1F8449A","title":"秀康新城康桥月苑","lon":"121.5961189","lat":"31.12409389","category":"47","category_name":"住宅区","address":"浦东新区康佳路38、39弄"},{"poiid":"B2094757D16EAAF54492","title":"八一中学","lon":"121.59073","lat":"31.12033","category":"55","category_name":"中学","address":"浦东新区周浦镇关岳路301号"},{"poiid":"B2094757D16AABFE439D","title":"鑫源小区","lon":"121.586","lat":"31.1214","category":"47","category_name":"住宅区","address":"上海市浦东新区年家浜路"},{"poiid":"B2094757D568AAF5429A","title":"尚全","lon":"121.5881741","lat":"31.12010661","category":"117","category_name":"便民商店/便利店","address":"关岳路231"},{"poiid":"B2094654DB65A3F94793","title":"上海交通大学医学院附属第九人民医院周浦分院","lon":"121.58464","lat":"31.11955","category":"162","category_name":"医院","address":"关岳路135"},{"poiid":"B2094757D16EA6FC469F","title":"关岳路周东路公交站","lon":"121.586316","lat":"31.119641","category":"38","category_name":"公交车站","address":"上海浦东新区周浦镇关岳路(近周东路)"},{"poiid":"B2094757D66AA5F8439E","title":"苑宝楼","lon":"121.588327","lat":"31.126709","category":"76","category_name":"上海菜","address":"浦东新区川周公路4013号(近周东路)"},{"poiid":"B2094757D569A1F8469A","title":"水上巴黎","lon":"121.58941596","lat":"31.12048123","category":"149","category_name":"洗浴推拿场所","address":"中国上海市浦东新区关岳路"},{"poiid":"B2094757D069A2FA489D","title":"金田花园","lon":"121.5864","lat":"31.119236","category":"47","category_name":"住宅区","address":"上海周东路508弄"},{"poiid":"B2094757D468A4FA429F","title":"阿强农家菜","lon":"121.583995","lat":"31.123093","category":"87","category_name":"特色／地方风味餐厅","address":"浦东新区周浦川周公路4183号(近秀沿路)"},{"poiid":"B2094654DB64A1F84998","title":"周东二村(周东路)","lon":"121.58535","lat":"31.12112","category":"47","category_name":"住宅区","address":"周浦镇"},{"poiid":"B2094654DB64A5FB4892","title":"灵林公寓","lon":"121.58781","lat":"31.119122","category":"47","category_name":"住宅区","address":"关岳路186弄"},{"poiid":"B2094757D168A1FD4693","title":"老北京热气羊肉涮锅","lon":"121.583913246","lat":"31.1247312832","category":"247","category_name":"餐饮美食","address":"上海周浦周东路646号"},{"poiid":"B2094655D26DA6FC4693","title":"金宝公寓","lon":"121.58608","lat":"31.120005","category":"47","category_name":"住宅区","address":"关岳路159弄"},{"poiid":"B2094757D068A5FB459B","title":"85度C(周浦店)","lon":"121.58072724","lat":"31.121425004","category":"112","category_name":"糕饼店","address":"浦东新区周浦镇康沈路1573号(近周浦汽车站)"},{"poiid":"B2094757D569A3F4469B","title":"天浩菜馆","lon":"121.58636692","lat":"31.12526123","category":"257","category_name":"中餐厅","address":"浦东新区川周公路金家宅85-86号(周东路东侧)"},{"poiid":"B2094757D16CA6FE4792","title":"公元新村公交站","lon":"121.58638234","lat":"31.119016046","category":"38","category_name":"公交车站","address":"上海浦东新区康沈路德浦路"},{"poiid":"B2094655D36DA7F9479F","title":"周东路年家浜路","lon":"121.5875","lat":"31.11368","category":"38","category_name":"公交车站","address":""},{"poiid":"B2094655D36DA7F9479A","title":"周东公路","lon":"121.58591","lat":"31.11957","category":"38","category_name":"公交车站","address":""},{"poiid":"B2094654DB6DA2FF459C","title":"罗森(周东路)","lon":"121.58576","lat":"31.119","category":"117","category_name":"便民商店/便利店","address":""},{"poiid":"B2094757D569A3FD429F","title":"来伊份(关岳路)","lon":"121.58780219","lat":"31.12003988","category":"249","category_name":"购物服务","address":"关岳路223"},{"poiid":"B2094654DB64A7F8459B","title":"周浦医疗急救中心","lon":"121.58464","lat":"31.12084","category":"162","category_name":"医院","address":""},{"poiid":"B2094757D16BA6FA4898","title":"川周公路周东路公交站","lon":"121.584404","lat":"31.122569","category":"38","category_name":"公交车站","address":"上海浦东新区周浦镇川周公路(近周东路)"},{"poiid":"B2094654DB6DA2F9409C","title":"闻鲜家常菜","lon":"121.58531","lat":"31.12453","category":"257","category_name":"中餐厅","address":"浦东新区川周公路4115号3室(近周东路)"},{"poiid":"B2094757D068A2FD4899","title":"周浦医院","lon":"121.584635939","lat":"31.1195552509","category":"162","category_name":"医院","address":"浦东新区周浦镇关岳路135号(关岳路周东路)"},{"poiid":"B2094757D06FA7FD4492","title":"川流不息(周东店)","lon":"121.58304","lat":"31.12436","category":"68","category_name":"快餐厅","address":"浦东新区周东路748号(近上海银行)"},{"poiid":"B2094655D264A5FE4292","title":"印象春城","lon":"121.59019","lat":"31.115759","category":"47","category_name":"住宅区","address":"浦东新区年家浜东路129弄(周园路)"},{"poiid":"B2094757D06FA4F9439F","title":"周浦公园","lon":"121.59599661","lat":"31.11343","category":"196","category_name":"公园","address":"浦东新区周浦镇年家浜路东侧(周邓公路周园路)"},{"poiid":"B2094654DB6DA3FD4392","title":"汇丽苑","lon":"121.58794","lat":"31.12127","category":"47","category_name":"住宅区","address":"关岳路229弄"},{"poiid":"B2094757D068A3F4429F","title":"老八样 南八灶街店","lon":"121.58165","lat":"31.11501","category":"76","category_name":"上海菜","address":"浦东新区周浦镇年家浜路205-207号(周市路口)"},{"poiid":"B2094654DB65A3FE469E","title":"上海市傅雷中学","lon":"121.59046","lat":"31.12061","category":"55","category_name":"中学","address":"关岳路301"},{"poiid":"B2094757D06AA1FF4592","title":"周浦","lon":"121.57817382","lat":"31.125178193","category":"500","category_name":"未知分类","address":"上海市浦东区周浦镇"},{"poiid":"B2094757D06BA0FC479C","title":"清风人家(周浦镇店)","lon":"121.58406","lat":"31.12304","category":"260","category_name":"其他","address":"浦东新区周浦镇周东路778号(近川周公路)"},{"poiid":"B2094757D06BA7F4469A","title":"酒窝日式料理","lon":"121.583445246","lat":"31.1325482697","category":"95","category_name":"日本料理","address":"秀沿路1060号"},{"poiid":"B2094757D069A7F5489F","title":"汤记传菜","lon":"121.58418264","lat":"31.123172379","category":"76","category_name":"上海菜","address":"浦东新区周浦镇周东路626-632号(近川周公路)"},{"poiid":"B2094655D26FA7FA459F","title":"康桥宝邸","lon":"121.60066","lat":"31.122597","category":"47","category_name":"住宅区","address":"上海浦东新区康弘路508弄"},{"poiid":"B2094655D26DA6FC4998","title":"新育公寓","lon":"121.58814906993","lat":"31.121903826289","category":"47","category_name":"住宅区","address":"周浦东八灶115弄"},{"poiid":"B2094655D26DA6FC469C","title":"海尚康庭","lon":"121.59852","lat":"31.12682","category":"47","category_name":"住宅区","address":"上海浦东新区康弘路580弄"},{"poiid":"B2094757D068A4F8469F","title":"周浦镇文化活动中心","lon":"121.58839899","lat":"31.111640325","category":"260","category_name":"其他","address":"上海周东路"},{"poiid":"B2094757D068AAFD489A","title":"圣鑫苑","lon":"121.5919268027","lat":"31.132167642657","category":"47","category_name":"住宅区","address":"航头沪南路5588号"},{"poiid":"B2094757D06AA0F44598","title":"浦东新区税务局第三十三税务所","lon":"121.587699446","lat":"31.1142155823","category":"500","category_name":"未知分类","address":"上海年家浜路2号"},{"poiid":"B2094655D36DA7F94798","title":"周东路川周公路","lon":"121.58415","lat":"31.12283","category":"38","category_name":"公交车站","address":""},{"poiid":"B2094757D164ABFA409B","title":"大丰收鱼庄","lon":"121.588163246","lat":"31.1234680531","category":"247","category_name":"餐饮美食","address":"上海市浦东新区年家浜路万达广场3楼"},{"poiid":"B2094750D669ABFC499D","title":"段氏龙虾","lon":"121.58422","lat":"31.122323","category":"68","category_name":"快餐厅","address":"浦东新区周东路616号(近川周公路)"},{"poiid":"B2094654DB64A4F5449C","title":"欣欣家园","lon":"121.58752","lat":"31.11964","category":"47","category_name":"住宅区","address":"关岳路186弄12-31号"},{"poiid":"B2094757D569A1FB4299","title":"上岛咖啡(关岳路)","lon":"121.58565294","lat":"31.11934272","category":"65","category_name":"咖啡厅","address":"浦东新区关岳路108号(近周东路)"},{"poiid":"B2094757D66DAAFA439E","title":"凡宏酒店","lon":"121.585802054","lat":"31.118154793","category":"76","category_name":"上海菜","address":"浦东新区周浦镇周东路550号(关岳路周东路)"},{"poiid":"B2094757D568ABF5499D","title":"阿昌烟酒商店","lon":"121.58913411","lat":"31.12034749","category":"117","category_name":"便民商店/便利店","address":"中国上海市浦东新区关岳路"},{"poiid":"B2094757D569A2FC4998","title":"申雅苑","lon":"121.59075","lat":"31.119904","category":"47","category_name":"住宅区","address":"关岳路338弄1-49号"},{"poiid":"B2094655D36CA7F54492","title":"关岳路周园路","lon":"121.59113","lat":"31.12057","category":"38","category_name":"公交车站","address":""},{"poiid":"B2094757D569A1F8449A","title":"秀康新城康桥月苑","lon":"121.5961189","lat":"31.12409389","category":"47","category_name":"住宅区","address":"浦东新区康佳路38、39弄"},{"poiid":"B2094757D16EAAF54492","title":"八一中学","lon":"121.59073","lat":"31.12033","category":"55","category_name":"中学","address":"浦东新区周浦镇关岳路301号"},{"poiid":"B2094757D16AABFE439D","title":"鑫源小区","lon":"121.586","lat":"31.1214","category":"47","category_name":"住宅区","address":"上海市浦东新区年家浜路"},{"poiid":"B2094757D568AAF5429A","title":"尚全","lon":"121.5881741","lat":"31.12010661","category":"117","category_name":"便民商店/便利店","address":"关岳路231"},{"poiid":"B2094654DB65A3F94793","title":"上海交通大学医学院附属第九人民医院周浦分院","lon":"121.58464","lat":"31.11955","category":"162","category_name":"医院","address":"关岳路135"},{"poiid":"B2094757D16EA6FC469F","title":"关岳路周东路公交站","lon":"121.586316","lat":"31.119641","category":"38","category_name":"公交车站","address":"上海浦东新区周浦镇关岳路(近周东路)"},{"poiid":"B2094757D66AA5F8439E","title":"苑宝楼","lon":"121.588327","lat":"31.126709","category":"76","category_name":"上海菜","address":"浦东新区川周公路4013号(近周东路)"},{"poiid":"B2094757D569A1F8469A","title":"水上巴黎","lon":"121.58941596","lat":"31.12048123","category":"149","category_name":"洗浴推拿场所","address":"中国上海市浦东新区关岳路"},{"poiid":"B2094757D069A2FA489D","title":"金田花园","lon":"121.5864","lat":"31.119236","category":"47","category_name":"住宅区","address":"上海周东路508弄"},{"poiid":"B2094757D468A4FA429F","title":"阿强农家菜","lon":"121.583995","lat":"31.123093","category":"87","category_name":"特色／地方风味餐厅","address":"浦东新区周浦川周公路4183号(近秀沿路)"},{"poiid":"B2094654DB64A1F84998","title":"周东二村(周东路)","lon":"121.58535","lat":"31.12112","category":"47","category_name":"住宅区","address":"周浦镇"},{"poiid":"B2094654DB64A5FB4892","title":"灵林公寓","lon":"121.58781","lat":"31.119122","category":"47","category_name":"住宅区","address":"关岳路186弄"},{"poiid":"B2094757D168A1FD4693","title":"老北京热气羊肉涮锅","lon":"121.583913246","lat":"31.1247312832","category":"247","category_name":"餐饮美食","address":"上海周浦周东路646号"},{"poiid":"B2094655D26DA6FC4693","title":"金宝公寓","lon":"121.58608","lat":"31.120005","category":"47","category_name":"住宅区","address":"关岳路159弄"},{"poiid":"B2094757D068A5FB459B","title":"85度C(周浦店)","lon":"121.58072724","lat":"31.121425004","category":"112","category_name":"糕饼店","address":"浦东新区周浦镇康沈路1573号(近周浦汽车站)"},{"poiid":"B2094757D569A3F4469B","title":"天浩菜馆","lon":"121.58636692","lat":"31.12526123","category":"257","category_name":"中餐厅","address":"浦东新区川周公路金家宅85-86号(周东路东侧)"},{"poiid":"B2094757D16CA6FE4792","title":"公元新村公交站","lon":"121.58638234","lat":"31.119016046","category":"38","category_name":"公交车站","address":"上海浦东新区康沈路德浦路"},{"poiid":"B2094655D36DA7F9479F","title":"周东路年家浜路","lon":"121.5875","lat":"31.11368","category":"38","category_name":"公交车站","address":""},{"poiid":"B2094655D36DA7F9479A","title":"周东公路","lon":"121.58591","lat":"31.11957","category":"38","category_name":"公交车站","address":""},{"poiid":"B2094654DB6DA2FF459C","title":"罗森(周东路)","lon":"121.58576","lat":"31.119","category":"117","category_name":"便民商店/便利店","address":""},{"poiid":"B2094757D569A3FD429F","title":"来伊份(关岳路)","lon":"121.58780219","lat":"31.12003988","category":"249","category_name":"购物服务","address":"关岳路223"},{"poiid":"B2094654DB64A7F8459B","title":"周浦医疗急救中心","lon":"121.58464","lat":"31.12084","category":"162","category_name":"医院","address":""},{"poiid":"B2094757D16BA6FA4898","title":"川周公路周东路公交站","lon":"121.584404","lat":"31.122569","category":"38","category_name":"公交车站","address":"上海浦东新区周浦镇川周公路(近周东路)"},{"poiid":"B2094654DB6DA2F9409C","title":"闻鲜家常菜","lon":"121.58531","lat":"31.12453","category":"257","category_name":"中餐厅","address":"浦东新区川周公路4115号3室(近周东路)"},{"poiid":"B2094757D068A2FD4899","title":"周浦医院","lon":"121.584635939","lat":"31.1195552509","category":"162","category_name":"医院","address":"浦东新区周浦镇关岳路135号(关岳路周东路)"},{"poiid":"B2094757D06FA7FD4492","title":"川流不息(周东店)","lon":"121.58304","lat":"31.12436","category":"68","category_name":"快餐厅","address":"浦东新区周东路748号(近上海银行)"},{"poiid":"B2094655D264A5FE4292","title":"印象春城","lon":"121.59019","lat":"31.115759","category":"47","category_name":"住宅区","address":"浦东新区年家浜东路129弄(周园路)"},{"poiid":"B2094757D06FA4F9439F","title":"周浦公园","lon":"121.59599661","lat":"31.11343","category":"196","category_name":"公园","address":"浦东新区周浦镇年家浜路东侧(周邓公路周园路)"},{"poiid":"B2094654DB6DA3FD4392","title":"汇丽苑","lon":"121.58794","lat":"31.12127","category":"47","category_name":"住宅区","address":"关岳路229弄"},{"poiid":"B2094757D068A3F4429F","title":"老八样 南八灶街店","lon":"121.58165","lat":"31.11501","category":"76","category_name":"上海菜","address":"浦东新区周浦镇年家浜路205-207号(周市路口)"},{"poiid":"B2094654DB65A3FE469E","title":"上海市傅雷中学","lon":"121.59046","lat":"31.12061","category":"55","category_name":"中学","address":"关岳路301"},{"poiid":"B2094757D06AA1FF4592","title":"周浦","lon":"121.57817382","lat":"31.125178193","category":"500","category_name":"未知分类","address":"上海市浦东区周浦镇"},{"poiid":"B2094757D06BA0FC479C","title":"清风人家(周浦镇店)","lon":"121.58406","lat":"31.12304","category":"260","category_name":"其他","address":"浦东新区周浦镇周东路778号(近川周公路)"},{"poiid":"B2094757D06BA7F4469A","title":"酒窝日式料理","lon":"121.583445246","lat":"31.1325482697","category":"95","category_name":"日本料理","address":"秀沿路1060号"},{"poiid":"B2094757D069A7F5489F","title":"汤记传菜","lon":"121.58418264","lat":"31.123172379","category":"76","category_name":"上海菜","address":"浦东新区周浦镇周东路626-632号(近川周公路)"},{"poiid":"B2094655D26FA7FA459F","title":"康桥宝邸","lon":"121.60066","lat":"31.122597","category":"47","category_name":"住宅区","address":"上海浦东新区康弘路508弄"},{"poiid":"B2094655D26DA6FC4998","title":"新育公寓","lon":"121.58814906993","lat":"31.121903826289","category":"47","category_name":"住宅区","address":"周浦东八灶115弄"},{"poiid":"B2094655D26DA6FC469C","title":"海尚康庭","lon":"121.59852","lat":"31.12682","category":"47","category_name":"住宅区","address":"上海浦东新区康弘路580弄"},{"poiid":"B2094757D068A4F8469F","title":"周浦镇文化活动中心","lon":"121.58839899","lat":"31.111640325","category":"260","category_name":"其他","address":"上海周东路"},{"poiid":"B2094757D068AAFD489A","title":"圣鑫苑","lon":"121.5919268027","lat":"31.132167642657","category":"47","category_name":"住宅区","address":"航头沪南路5588号"},{"poiid":"B2094757D06AA0F44598","title":"浦东新区税务局第三十三税务所","lon":"121.587699446","lat":"31.1142155823","category":"500","category_name":"未知分类","address":"上海年家浜路2号"},{"poiid":"B2094655D36DA7F94798","title":"周东路川周公路","lon":"121.58415","lat":"31.12283","category":"38","category_name":"公交车站","address":""},{"poiid":"B2094757D164ABFA409B","title":"大丰收鱼庄","lon":"121.588163246","lat":"31.1234680531","category":"247","category_name":"餐饮美食","address":"上海市浦东新区年家浜路万达广场3楼"},{"poiid":"B2094750D669ABFC499D","title":"段氏龙虾","lon":"121.58422","lat":"31.122323","category":"68","category_name":"快餐厅","address":"浦东新区周东路616号(近川周公路)"},{"poiid":"B2094654DB64A4F5449C","title":"欣欣家园","lon":"121.58752","lat":"31.11964","category":"47","category_name":"住宅区","address":"关岳路186弄12-31号"},{"poiid":"B2094757D569A1FB4299","title":"上岛咖啡(关岳路)","lon":"121.58565294","lat":"31.11934272","category":"65","category_name":"咖啡厅","address":"浦东新区关岳路108号(近周东路)"},{"poiid":"B2094757D66DAAFA439E","title":"凡宏酒店","lon":"121.585802054","lat":"31.118154793","category":"76","category_name":"上海菜","address":"浦东新区周浦镇周东路550号(关岳路周东路)"},{"poiid":"B2094757D568ABF5499D","title":"阿昌烟酒商店","lon":"121.58913411","lat":"31.12034749","category":"117","category_name":"便民商店/便利店","address":"中国上海市浦东新区关岳路"},{"poiid":"B2094757D569A2FC4998","title":"申雅苑","lon":"121.59075","lat":"31.119904","category":"47","category_name":"住宅区","address":"关岳路338弄1-49号"},{"poiid":"B2094655D36CA7F54492","title":"关岳路周园路","lon":"121.59113","lat":"31.12057","category":"38","category_name":"公交车站","address":""},{"poiid":"B2094757D569A1F8449A","title":"秀康新城康桥月苑","lon":"121.5961189","lat":"31.12409389","category":"47","category_name":"住宅区","address":"浦东新区康佳路38、39弄"},{"poiid":"B2094757D16EAAF54492","title":"八一中学","lon":"121.59073","lat":"31.12033","category":"55","category_name":"中学","address":"浦东新区周浦镇关岳路301号"},{"poiid":"B2094757D16AABFE439D","title":"鑫源小区","lon":"121.586","lat":"31.1214","category":"47","category_name":"住宅区","address":"上海市浦东新区年家浜路"},{"poiid":"B2094757D568AAF5429A","title":"尚全","lon":"121.5881741","lat":"31.12010661","category":"117","category_name":"便民商店/便利店","address":"关岳路231"},{"poiid":"B2094654DB65A3F94793","title":"上海交通大学医学院附属第九人民医院周浦分院","lon":"121.58464","lat":"31.11955","category":"162","category_name":"医院","address":"关岳路135"},{"poiid":"B2094757D16EA6FC469F","title":"关岳路周东路公交站","lon":"121.586316","lat":"31.119641","category":"38","category_name":"公交车站","address":"上海浦东新区周浦镇关岳路(近周东路)"},{"poiid":"B2094757D66AA5F8439E","title":"苑宝楼","lon":"121.588327","lat":"31.126709","category":"76","category_name":"上海菜","address":"浦东新区川周公路4013号(近周东路)"},{"poiid":"B2094757D569A1F8469A","title":"水上巴黎","lon":"121.58941596","lat":"31.12048123","category":"149","category_name":"洗浴推拿场所","address":"中国上海市浦东新区关岳路"},{"poiid":"B2094757D069A2FA489D","title":"金田花园","lon":"121.5864","lat":"31.119236","category":"47","category_name":"住宅区","address":"上海周东路508弄"},{"poiid":"B2094757D468A4FA429F","title":"阿强农家菜","lon":"121.583995","lat":"31.123093","category":"87","category_name":"特色／地方风味餐厅","address":"浦东新区周浦川周公路4183号(近秀沿路)"},{"poiid":"B2094654DB64A1F84998","title":"周东二村(周东路)","lon":"121.58535","lat":"31.12112","category":"47","category_name":"住宅区","address":"周浦镇"},{"poiid":"B2094654DB64A5FB4892","title":"灵林公寓","lon":"121.58781","lat":"31.119122","category":"47","category_name":"住宅区","address":"关岳路186弄"},{"poiid":"B2094757D168A1FD4693","title":"老北京热气羊肉涮锅","lon":"121.583913246","lat":"31.1247312832","category":"247","category_name":"餐饮美食","address":"上海周浦周东路646号"},{"poiid":"B2094655D26DA6FC4693","title":"金宝公寓","lon":"121.58608","lat":"31.120005","category":"47","category_name":"住宅区","address":"关岳路159弄"},{"poiid":"B2094757D068A5FB459B","title":"85度C(周浦店)","lon":"121.58072724","lat":"31.121425004","category":"112","category_name":"糕饼店","address":"浦东新区周浦镇康沈路1573号(近周浦汽车站)"},{"poiid":"B2094757D569A3F4469B","title":"天浩菜馆","lon":"121.58636692","lat":"31.12526123","category":"257","category_name":"中餐厅","address":"浦东新区川周公路金家宅85-86号(周东路东侧)"},{"poiid":"B2094757D16CA6FE4792","title":"公元新村公交站","lon":"121.58638234","lat":"31.119016046","category":"38","category_name":"公交车站","address":"上海浦东新区康沈路德浦路"},{"poiid":"B2094655D36DA7F9479F","title":"周东路年家浜路","lon":"121.5875","lat":"31.11368","category":"38","category_name":"公交车站","address":""},{"poiid":"B2094655D36DA7F9479A","title":"周东公路","lon":"121.58591","lat":"31.11957","category":"38","category_name":"公交车站","address":""},{"poiid":"B2094654DB6DA2FF459C","title":"罗森(周东路)","lon":"121.58576","lat":"31.119","category":"117","category_name":"便民商店/便利店","address":""},{"poiid":"B2094757D569A3FD429F","title":"来伊份(关岳路)","lon":"121.58780219","lat":"31.12003988","category":"249","category_name":"购物服务","address":"关岳路223"},{"poiid":"B2094654DB64A7F8459B","title":"周浦医疗急救中心","lon":"121.58464","lat":"31.12084","category":"162","category_name":"医院","address":""},{"poiid":"B2094757D16BA6FA4898","title":"川周公路周东路公交站","lon":"121.584404","lat":"31.122569","category":"38","category_name":"公交车站","address":"上海浦东新区周浦镇川周公路(近周东路)"},{"poiid":"B2094654DB6DA2F9409C","title":"闻鲜家常菜","lon":"121.58531","lat":"31.12453","category":"257","category_name":"中餐厅","address":"浦东新区川周公路4115号3室(近周东路)"}]