[{"poiid":"B2094655D26DA7FB4592","title":"证大·大拇指广场","lon":"121.55924","lat":"31.22688","category":"119","category_name":"商场","address":"芳甸路199弄1-57号"},{"poiid":"B2094654DB6AA7FB4698","title":"联洋广场","lon":"121.55778","lat":"31.2261","category":"46","category_name":"楼宇","address":"浦东新区芳甸路226号"},{"poiid":"B2094757D06EAAF44698","title":"好乐迪量贩式KTV(大拇指广场店)","lon":"121.55962636","lat":"31.226885364","category":"170","category_name":"KTV","address":"上海浦东芳甸路199弄36号"},{"poiid":"B2094654DB6BAAFD429F","title":"星巴克(大拇指店)","lon":"121.558561","lat":"31.226877","category":"260","category_name":"其他","address":"浦东新区芳甸路199弄40号大拇指广场内(迎春路口)"},{"poiid":"B2094757D06FA1FF439A","title":"苏浙汇(联洋店)","lon":"121.55879","lat":"31.22629","category":"76","category_name":"上海菜","address":"浦东新区芳甸路300号联洋广场C区3楼(近迎春路)"},{"poiid":"B2094757D06FA5FC419A","title":"藏珑泰极(大拇指广场店)","lon":"121.56025","lat":"31.22682","category":"99","category_name":"泰国／越南菜品餐厅","address":"浦东新区芳甸路199弄大拇指广场19号3楼(近丁香路)"},{"poiid":"B2094757D06FA2FC4892","title":"避风塘(芳甸路店)","lon":"121.55852","lat":"31.22608","category":"72","category_name":"广东菜","address":"浦东新区芳甸路300号联洋广场(迎春路口)"},{"poiid":"B2094757D06FA7FF4798","title":"炉边情谈","lon":"121.559279737","lat":"31.2265295573","category":"96","category_name":"韩国料理","address":"浦东新区芳甸路199弄40号大拇指广场53A号(迎春路口)"},{"poiid":"B2094654DB6AA6FF449F","title":"证大丽笙酒店","lon":"121.56049","lat":"31.22634","category":"213","category_name":"五星级宾馆","address":"浦东新区迎春路1199号(近芳甸路)"},{"poiid":"B2094757D768AAF84599","title":"哈根达斯 大拇指店 Haagen-Dazs","lon":"121.559246054","lat":"31.227108793","category":"67","category_name":"甜品店","address":"浦东新区芳甸路199弄32号大拇指广场1楼(迎春路口)"},{"poiid":"B2094757DA64AAFC459E","title":"大拇指广场","lon":"121.558871","lat":"31.226858","category":"252","category_name":"楼宇机构","address":"芳甸路199弄19号"},{"poiid":"B2094757D06FA5F4489D","title":"斗牛士(联洋店)","lon":"121.558331925","lat":"31.2258500724","category":"94","category_name":"西餐厅","address":"浦东新区芳甸路199弄300号联洋广场4楼(近大拇指广场)"},{"poiid":"B2094757D569A1FD4199","title":"埔里老镇","lon":"121.5603125","lat":"31.22719916","category":"91","category_name":"台湾菜","address":"浦东新区芳甸路199弄大拇指广场19号2楼(近迎春路)"},{"poiid":"B2094655D265A5FC469B","title":"俏江南(联洋广场店)","lon":"121.55759","lat":"31.22673","category":"71","category_name":"四川菜","address":"浦东新区芳甸路300号联洋广场C座2楼(近迎春路)"},{"poiid":"B2094757D06FA0FB479B","title":"唐朝酒店(联洋店)","lon":"121.55850197","lat":"31.22721799","category":"72","category_name":"广东菜","address":"浦东新区芳甸路199弄2号大拇指广场家乐福2楼(近杨高中路)"},{"poiid":"B2094654DA69A1FF449B","title":"好乐迪量贩式KTV(芳甸路)","lon":"121.55899","lat":"31.22681","category":"170","category_name":"KTV","address":"芳甸路199弄1-57号证大·大拇指广场1层"},{"poiid":"B2094757D069A4F4439D","title":"丰收日(联洋店)","lon":"121.559593975","lat":"31.2257219552","category":"75","category_name":"浙江菜","address":"浦东新区芳甸路300号联洋广场A区4楼(近迎春路)"},{"poiid":"B2094757D069A0F84892","title":"希腊餐厅(芳甸路店)","lon":"121.559723585","lat":"31.2261000756","category":"94","category_name":"西餐厅","address":"浦东新区芳甸路199弄证大大拇指广场43号1楼41铺(近杨高中路)"},{"poiid":"B2094757D068A2FC409D","title":"渝乡人家(大拇指广场店)","lon":"121.558519","lat":"31.227098","category":"71","category_name":"四川菜","address":"浦东新区芳甸路1188弄证大喜玛拉雅中心B1楼(近国际展览中心)"},{"poiid":"B2094757D06FA0FF4698","title":"家乐福(联洋店)","lon":"121.55884179","lat":"31.227584651","category":"118","category_name":"超级市场","address":"浦东新区芳甸路199弄证大大拇指广场内(近杨高中路)"},{"poiid":"B2094757D068A3FC4199","title":"韩林炭烤(联洋店)","lon":"121.55924","lat":"31.22601","category":"96","category_name":"韩国料理","address":"上海浦东新区芳甸路199弄证大大拇指广场48号(近杨高中路)  "},{"poiid":"B2094750D268A0F94993","title":"西贝莜面村 联洋店","lon":"121.557597","lat":"31.22674","category":"84","category_name":"西北菜","address":"浦东新区芳甸路300号联洋广场A区4楼401号铺(近丁香路)"},{"poiid":"B2094655D26EA0FC4492","title":"沃歌斯","lon":"121.55816","lat":"31.23072","category":"94","category_name":"西餐厅","address":"浦东新区芳甸路199弄证大大拇指广场31号(南洋泾路杨高中路)"},{"poiid":"B2094655D265A2FD429D","title":"联洋营业厅","lon":"121.5592","lat":"31.22576","category":"151","category_name":"电讯营业厅","address":"浦东新区芳甸路285号"},{"poiid":"B2094757D068A1F9439B","title":"老克勒上海菜 芳甸路店","lon":"121.558168054","lat":"31.226980793","category":"76","category_name":"上海菜","address":"浦东新区芳甸路300号联洋广场B区2楼(大拇指广场对面)"},{"poiid":"B2094654DB64A6FA4292","title":"香啡缤 大拇指广场店 Coffee Bean&Tea Leaf","lon":"121.559246054","lat":"31.227108793","category":"260","category_name":"其他","address":"浦东新区芳甸路199弄证大大拇指广场内(近杨高中路)"},{"poiid":"B2094655D26EA5FC4098","title":"花月亭(芳甸店)","lon":"121.55899","lat":"31.22681","category":"95","category_name":"日本料理","address":"浦东新区芳甸路199弄证大大拇指广场51号(近杨高中路)"},{"poiid":"B2094757D06FABFD429C","title":"蒂梵尼造型设计(联洋广场店)","lon":"121.55922","lat":"31.22583","category":"148","category_name":"美容美发店","address":"浦东新区芳甸路300号联洋广场B区3楼(近大拇指广场)"},{"poiid":"B2094751D469A0F8479C","title":"唐鱼儿麻辣鲜鱼火锅","lon":"121.560104","lat":"31.225509","category":"86","category_name":"火锅店","address":"浦东新区芳甸路199弄40号大拇指广场46号(近迎春路)"},{"poiid":"B2094757D465A3FF469B","title":"霖上海味道 联洋广场店","lon":"121.557597","lat":"31.22674","category":"76","category_name":"上海菜","address":"浦东新区芳甸路300号联洋广场B区2楼"},{"poiid":"B2094757D068A6FB4198","title":"许留山 联洋广场店 Hui Lau Shan","lon":"121.55758","lat":"31.22673","category":"67","category_name":"甜品店","address":"浦东新区芳甸路199弄40号联洋广场A座2楼(近迎春路)"},{"poiid":"B2094757D06AA2F84793","title":"近江和牛","lon":"121.5593909","lat":"31.226675604","category":"247","category_name":"餐饮美食","address":"上海大拇指广场"},{"poiid":"B2094751D46BABFD469F","title":"义面屋","lon":"121.55899","lat":"31.225021","category":"94","category_name":"西餐厅","address":"浦东新区芳甸路199弄大拇指广场19号(预计12月开业)"},{"poiid":"B2094757D16CA1FB409C","title":"小南国烧烤(大拇指店)","lon":"121.558883975","lat":"31.2262306671","category":"247","category_name":"餐饮美食","address":"上海芳甸路199弄40号大拇指广场一楼"},{"poiid":"B2094750D56DA1FB469F","title":"联洋广场 costa","lon":"121.558197","lat":"31.226411","category":"65","category_name":"咖啡厅","address":"浦东新区芳甸路300号联洋广场B区1楼(近迎春路)"},{"poiid":"B2094750DA68A4F4449A","title":"Blue Marlin","lon":"121.560188","lat":"31.227334","category":"248","category_name":"生活娱乐","address":"浦东新区芳甸路199弄17号大拇指广场"},{"poiid":"B2094757D065A0F44593","title":"爱尔兰文化餐厅","lon":"121.5593","lat":"31.22628","category":"94","category_name":"西餐厅","address":"浦东新区芳甸路199弄40号大拇指广场20号(迎春路口)"},{"poiid":"B2094757D065A4FA4893","title":"唐朝","lon":"121.55955197","lat":"31.227441995","category":"500","category_name":"未知分类","address":"上海芳甸路199弄2号大拇指广场家乐福2楼(近杨高中路)"},{"poiid":"B2094751D569AAFE499B","title":"Lapasta 義麵屋","lon":"121.559636","lat":"31.226118","category":"247","category_name":"餐饮美食","address":"浦東新區芳甸路199弄33號2樓"},{"poiid":"B2094757D068A5FF409E","title":"肯德基 KFC (联洋店)","lon":"121.558726","lat":"31.227466","category":"68","category_name":"快餐厅","address":"浦东新区芳甸路199弄40号大拇指广场38号1楼(迎春路口)"},{"poiid":"B2094757D068A1F9429C","title":"家乐福(大拇指广场店)","lon":"121.55993652","lat":"31.226459503","category":"118","category_name":"超级市场","address":"上海浦东新区芳甸路199弄 大拇指广场地下一层"},{"poiid":"B2094654DA69A1FF459E","title":"泓叶","lon":"121.55912","lat":"31.22608","category":"76","category_name":"上海菜","address":"浦东新区芳甸路199弄40号大拇指广场内(迎春路口)"},{"poiid":"B2094757D16CA4FE4293","title":"海游吞拿","lon":"121.55948767","lat":"31.225968761","category":"95","category_name":"日本料理","address":"芳甸路199弄大拇指广场2楼近杨高中路"},{"poiid":"B2094750D165A2F84892","title":"深井大叔(大拇指店)","lon":"121.559715","lat":"31.226057","category":"72","category_name":"广东菜","address":"浦东新区芳甸路199弄证大大拇指广场43号1楼"},{"poiid":"B2094757D468A4FF439A","title":"麦当劳 联洋家乐福店 McDonald's","lon":"121.559246054","lat":"31.227108793","category":"68","category_name":"快餐厅","address":"浦东新区芳甸路185号家乐福联洋店B1楼(近丁香路)"},{"poiid":"B2094752D16EA1FF4899","title":"竹若金枪鱼","lon":"121.558091","lat":"31.225088","category":"247","category_name":"餐饮美食","address":"芳甸路199弄大拇指广场51号(近丁香路)"},{"poiid":"B2094757D069A1F44692","title":"好乐迪","lon":"121.55981838","lat":"31.22722157","category":"500","category_name":"未知分类","address":"上海大拇指广场"},{"poiid":"B2094752D364A4F5489C","title":"居食屋和民(联洋广场店)","lon":"121.5579","lat":"31.22658","category":"95","category_name":"日本料理","address":"浦东新区芳甸路300号联洋广场4楼"},{"poiid":"B2094757D069A2F8459F","title":"大食代 联洋店","lon":"121.559269054","lat":"31.227013793","category":"68","category_name":"快餐厅","address":"浦东新区芳甸路199弄家乐祥福B1楼(南洋泾路杨高中路)"},{"poiid":"B2094757D468A4FC409F","title":"德兴第五季港式火锅","lon":"121.557597","lat":"31.22674","category":"86","category_name":"火锅店","address":"浦东新区芳甸路300号联洋广场A区4楼(近丁香路)"},{"poiid":"B2094655D26DA7FB4592","title":"证大·大拇指广场","lon":"121.55924","lat":"31.22688","category":"119","category_name":"商场","address":"芳甸路199弄1-57号"},{"poiid":"B2094654DB6AA7FB4698","title":"联洋广场","lon":"121.55778","lat":"31.2261","category":"46","category_name":"楼宇","address":"浦东新区芳甸路226号"},{"poiid":"B2094757D06EAAF44698","title":"好乐迪量贩式KTV(大拇指广场店)","lon":"121.55962636","lat":"31.226885364","category":"170","category_name":"KTV","address":"上海浦东芳甸路199弄36号"},{"poiid":"B2094654DB6BAAFD429F","title":"星巴克(大拇指店)","lon":"121.558561","lat":"31.226877","category":"260","category_name":"其他","address":"浦东新区芳甸路199弄40号大拇指广场内(迎春路口)"},{"poiid":"B2094757D06FA1FF439A","title":"苏浙汇(联洋店)","lon":"121.55879","lat":"31.22629","category":"76","category_name":"上海菜","address":"浦东新区芳甸路300号联洋广场C区3楼(近迎春路)"},{"poiid":"B2094757D06FA5FC419A","title":"藏珑泰极(大拇指广场店)","lon":"121.56025","lat":"31.22682","category":"99","category_name":"泰国／越南菜品餐厅","address":"浦东新区芳甸路199弄大拇指广场19号3楼(近丁香路)"},{"poiid":"B2094757D06FA2FC4892","title":"避风塘(芳甸路店)","lon":"121.55852","lat":"31.22608","category":"72","category_name":"广东菜","address":"浦东新区芳甸路300号联洋广场(迎春路口)"},{"poiid":"B2094757D06FA7FF4798","title":"炉边情谈","lon":"121.559279737","lat":"31.2265295573","category":"96","category_name":"韩国料理","address":"浦东新区芳甸路199弄40号大拇指广场53A号(迎春路口)"},{"poiid":"B2094654DB6AA6FF449F","title":"证大丽笙酒店","lon":"121.56049","lat":"31.22634","category":"213","category_name":"五星级宾馆","address":"浦东新区迎春路1199号(近芳甸路)"},{"poiid":"B2094757D768AAF84599","title":"哈根达斯 大拇指店 Haagen-Dazs","lon":"121.559246054","lat":"31.227108793","category":"67","category_name":"甜品店","address":"浦东新区芳甸路199弄32号大拇指广场1楼(迎春路口)"},{"poiid":"B2094757DA64AAFC459E","title":"大拇指广场","lon":"121.558871","lat":"31.226858","category":"252","category_name":"楼宇机构","address":"芳甸路199弄19号"},{"poiid":"B2094757D06FA5F4489D","title":"斗牛士(联洋店)","lon":"121.558331925","lat":"31.2258500724","category":"94","category_name":"西餐厅","address":"浦东新区芳甸路199弄300号联洋广场4楼(近大拇指广场)"},{"poiid":"B2094757D569A1FD4199","title":"埔里老镇","lon":"121.5603125","lat":"31.22719916","category":"91","category_name":"台湾菜","address":"浦东新区芳甸路199弄大拇指广场19号2楼(近迎春路)"},{"poiid":"B2094655D265A5FC469B","title":"俏江南(联洋广场店)","lon":"121.55759","lat":"31.22673","category":"71","category_name":"四川菜","address":"浦东新区芳甸路300号联洋广场C座2楼(近迎春路)"},{"poiid":"B2094757D06FA0FB479B","title":"唐朝酒店(联洋店)","lon":"121.55850197","lat":"31.22721799","category":"72","category_name":"广东菜","address":"浦东新区芳甸路199弄2号大拇指广场家乐福2楼(近杨高中路)"},{"poiid":"B2094654DA69A1FF449B","title":"好乐迪量贩式KTV(芳甸路)","lon":"121.55899","lat":"31.22681","category":"170","category_name":"KTV","address":"芳甸路199弄1-57号证大·大拇指广场1层"},{"poiid":"B2094757D069A4F4439D","title":"丰收日(联洋店)","lon":"121.559593975","lat":"31.2257219552","category":"75","category_name":"浙江菜","address":"浦东新区芳甸路300号联洋广场A区4楼(近迎春路)"},{"poiid":"B2094757D069A0F84892","title":"希腊餐厅(芳甸路店)","lon":"121.559723585","lat":"31.2261000756","category":"94","category_name":"西餐厅","address":"浦东新区芳甸路199弄证大大拇指广场43号1楼41铺(近杨高中路)"},{"poiid":"B2094757D068A2FC409D","title":"渝乡人家(大拇指广场店)","lon":"121.558519","lat":"31.227098","category":"71","category_name":"四川菜","address":"浦东新区芳甸路1188弄证大喜玛拉雅中心B1楼(近国际展览中心)"},{"poiid":"B2094757D06FA0FF4698","title":"家乐福(联洋店)","lon":"121.55884179","lat":"31.227584651","category":"118","category_name":"超级市场","address":"浦东新区芳甸路199弄证大大拇指广场内(近杨高中路)"},{"poiid":"B2094757D068A3FC4199","title":"韩林炭烤(联洋店)","lon":"121.55924","lat":"31.22601","category":"96","category_name":"韩国料理","address":"上海浦东新区芳甸路199弄证大大拇指广场48号(近杨高中路)  "},{"poiid":"B2094750D268A0F94993","title":"西贝莜面村 联洋店","lon":"121.557597","lat":"31.22674","category":"84","category_name":"西北菜","address":"浦东新区芳甸路300号联洋广场A区4楼401号铺(近丁香路)"},{"poiid":"B2094655D26EA0FC4492","title":"沃歌斯","lon":"121.55816","lat":"31.23072","category":"94","category_name":"西餐厅","address":"浦东新区芳甸路199弄证大大拇指广场31号(南洋泾路杨高中路)"},{"poiid":"B2094655D265A2FD429D","title":"联洋营业厅","lon":"121.5592","lat":"31.22576","category":"151","category_name":"电讯营业厅","address":"浦东新区芳甸路285号"},{"poiid":"B2094757D068A1F9439B","title":"老克勒上海菜 芳甸路店","lon":"121.558168054","lat":"31.226980793","category":"76","category_name":"上海菜","address":"浦东新区芳甸路300号联洋广场B区2楼(大拇指广场对面)"},{"poiid":"B2094654DB64A6FA4292","title":"香啡缤 大拇指广场店 Coffee Bean&Tea Leaf","lon":"121.559246054","lat":"31.227108793","category":"260","category_name":"其他","address":"浦东新区芳甸路199弄证大大拇指广场内(近杨高中路)"},{"poiid":"B2094655D26EA5FC4098","title":"花月亭(芳甸店)","lon":"121.55899","lat":"31.22681","category":"95","category_name":"日本料理","address":"浦东新区芳甸路199弄证大大拇指广场51号(近杨高中路)"},{"poiid":"B2094757D06FABFD429C","title":"蒂梵尼造型设计(联洋广场店)","lon":"121.55922","lat":"31.22583","category":"148","category_name":"美容美发店","address":"浦东新区芳甸路300号联洋广场B区3楼(近大拇指广场)"},{"poiid":"B2094751D469A0F8479C","title":"唐鱼儿麻辣鲜鱼火锅","lon":"121.560104","lat":"31.225509","category":"86","category_name":"火锅店","address":"浦东新区芳甸路199弄40号大拇指广场46号(近迎春路)"},{"poiid":"B2094757D465A3FF469B","title":"霖上海味道 联洋广场店","lon":"121.557597","lat":"31.22674","category":"76","category_name":"上海菜","address":"浦东新区芳甸路300号联洋广场B区2楼"},{"poiid":"B2094757D068A6FB4198","title":"许留山 联洋广场店 Hui Lau Shan","lon":"121.55758","lat":"31.22673","category":"67","category_name":"甜品店","address":"浦东新区芳甸路199弄40号联洋广场A座2楼(近迎春路)"},{"poiid":"B2094757D06AA2F84793","title":"近江和牛","lon":"121.5593909","lat":"31.226675604","category":"247","category_name":"餐饮美食","address":"上海大拇指广场"},{"poiid":"B2094751D46BABFD469F","title":"义面屋","lon":"121.55899","lat":"31.225021","category":"94","category_name":"西餐厅","address":"浦东新区芳甸路199弄大拇指广场19号(预计12月开业)"},{"poiid":"B2094757D16CA1FB409C","title":"小南国烧烤(大拇指店)","lon":"121.558883975","lat":"31.2262306671","category":"247","category_name":"餐饮美食","address":"上海芳甸路199弄40号大拇指广场一楼"},{"poiid":"B2094750D56DA1FB469F","title":"联洋广场 costa","lon":"121.558197","lat":"31.226411","category":"65","category_name":"咖啡厅","address":"浦东新区芳甸路300号联洋广场B区1楼(近迎春路)"},{"poiid":"B2094750DA68A4F4449A","title":"Blue Marlin","lon":"121.560188","lat":"31.227334","category":"248","category_name":"生活娱乐","address":"浦东新区芳甸路199弄17号大拇指广场"},{"poiid":"B2094757D065A0F44593","title":"爱尔兰文化餐厅","lon":"121.5593","lat":"31.22628","category":"94","category_name":"西餐厅","address":"浦东新区芳甸路199弄40号大拇指广场20号(迎春路口)"},{"poiid":"B2094757D065A4FA4893","title":"唐朝","lon":"121.55955197","lat":"31.227441995","category":"500","category_name":"未知分类","address":"上海芳甸路199弄2号大拇指广场家乐福2楼(近杨高中路)"},{"poiid":"B2094751D569AAFE499B","title":"Lapasta 義麵屋","lon":"121.559636","lat":"31.226118","category":"247","category_name":"餐饮美食","address":"浦東新區芳甸路199弄33號2樓"},{"poiid":"B2094757D068A5FF409E","title":"肯德基 KFC (联洋店)","lon":"121.558726","lat":"31.227466","category":"68","category_name":"快餐厅","address":"浦东新区芳甸路199弄40号大拇指广场38号1楼(迎春路口)"},{"poiid":"B2094757D068A1F9429C","title":"家乐福(大拇指广场店)","lon":"121.55993652","lat":"31.226459503","category":"118","category_name":"超级市场","address":"上海浦东新区芳甸路199弄 大拇指广场地下一层"},{"poiid":"B2094654DA69A1FF459E","title":"泓叶","lon":"121.55912","lat":"31.22608","category":"76","category_name":"上海菜","address":"浦东新区芳甸路199弄40号大拇指广场内(迎春路口)"},{"poiid":"B2094757D16CA4FE4293","title":"海游吞拿","lon":"121.55948767","lat":"31.225968761","category":"95","category_name":"日本料理","address":"芳甸路199弄大拇指广场2楼近杨高中路"},{"poiid":"B2094750D165A2F84892","title":"深井大叔(大拇指店)","lon":"121.559715","lat":"31.226057","category":"72","category_name":"广东菜","address":"浦东新区芳甸路199弄证大大拇指广场43号1楼"},{"poiid":"B2094757D468A4FF439A","title":"麦当劳 联洋家乐福店 McDonald's","lon":"121.559246054","lat":"31.227108793","category":"68","category_name":"快餐厅","address":"浦东新区芳甸路185号家乐福联洋店B1楼(近丁香路)"},{"poiid":"B2094752D16EA1FF4899","title":"竹若金枪鱼","lon":"121.558091","lat":"31.225088","category":"247","category_name":"餐饮美食","address":"芳甸路199弄大拇指广场51号(近丁香路)"},{"poiid":"B2094757D069A1F44692","title":"好乐迪","lon":"121.55981838","lat":"31.22722157","category":"500","category_name":"未知分类","address":"上海大拇指广场"},{"poiid":"B2094752D364A4F5489C","title":"居食屋和民(联洋广场店)","lon":"121.5579","lat":"31.22658","category":"95","category_name":"日本料理","address":"浦东新区芳甸路300号联洋广场4楼"},{"poiid":"B2094757D069A2F8459F","title":"大食代 联洋店","lon":"121.559269054","lat":"31.227013793","category":"68","category_name":"快餐厅","address":"浦东新区芳甸路199弄家乐祥福B1楼(南洋泾路杨高中路)"},{"poiid":"B2094757D468A4FC409F","title":"德兴第五季港式火锅","lon":"121.557597","lat":"31.22674","category":"86","category_name":"火锅店","address":"浦东新区芳甸路300号联洋广场A区4楼(近丁香路)"},{"poiid":"B2094655D26DA7FB4592","title":"证大·大拇指广场","lon":"121.55924","lat":"31.22688","category":"119","category_name":"商场","address":"芳甸路199弄1-57号"},{"poiid":"B2094654DB6AA7FB4698","title":"联洋广场","lon":"121.55778","lat":"31.2261","category":"46","category_name":"楼宇","address":"浦东新区芳甸路226号"},{"poiid":"B2094757D06EAAF44698","title":"好乐迪量贩式KTV(大拇指广场店)","lon":"121.55962636","lat":"31.226885364","category":"170","category_name":"KTV","address":"上海浦东芳甸路199弄36号"},{"poiid":"B2094654DB6BAAFD429F","title":"星巴克(大拇指店)","lon":"121.558561","lat":"31.226877","category":"260","category_name":"其他","address":"浦东新区芳甸路199弄40号大拇指广场内(迎春路口)"},{"poiid":"B2094757D06FA1FF439A","title":"苏浙汇(联洋店)","lon":"121.55879","lat":"31.22629","category":"76","category_name":"上海菜","address":"浦东新区芳甸路300号联洋广场C区3楼(近迎春路)"},{"poiid":"B2094757D06FA5FC419A","title":"藏珑泰极(大拇指广场店)","lon":"121.56025","lat":"31.22682","category":"99","category_name":"泰国／越南菜品餐厅","address":"浦东新区芳甸路199弄大拇指广场19号3楼(近丁香路)"},{"poiid":"B2094757D06FA2FC4892","title":"避风塘(芳甸路店)","lon":"121.55852","lat":"31.22608","category":"72","category_name":"广东菜","address":"浦东新区芳甸路300号联洋广场(迎春路口)"},{"poiid":"B2094757D06FA7FF4798","title":"炉边情谈","lon":"121.559279737","lat":"31.2265295573","category":"96","category_name":"韩国料理","address":"浦东新区芳甸路199弄40号大拇指广场53A号(迎春路口)"},{"poiid":"B2094654DB6AA6FF449F","title":"证大丽笙酒店","lon":"121.56049","lat":"31.22634","category":"213","category_name":"五星级宾馆","address":"浦东新区迎春路1199号(近芳甸路)"},{"poiid":"B2094757D768AAF84599","title":"哈根达斯 大拇指店 Haagen-Dazs","lon":"121.559246054","lat":"31.227108793","category":"67","category_name":"甜品店","address":"浦东新区芳甸路199弄32号大拇指广场1楼(迎春路口)"},{"poiid":"B2094757DA64AAFC459E","title":"大拇指广场","lon":"121.558871","lat":"31.226858","category":"252","category_name":"楼宇机构","address":"芳甸路199弄19号"},{"poiid":"B2094757D06FA5F4489D","title":"斗牛士(联洋店)","lon":"121.558331925","lat":"31.2258500724","category":"94","category_name":"西餐厅","address":"浦东新区芳甸路199弄300号联洋广场4楼(近大拇指广场)"},{"poiid":"B2094757D569A1FD4199","title":"埔里老镇","lon":"121.5603125","lat":"31.22719916","category":"91","category_name":"台湾菜","address":"浦东新区芳甸路199弄大拇指广场19号2楼(近迎春路)"},{"poiid":"B2094655D265A5FC469B","title":"俏江南(联洋广场店)","lon":"121.55759","lat":"31.22673","category":"71","category_name":"四川菜","address":"浦东新区芳甸路300号联洋广场C座2楼(近迎春路)"},{"poiid":"B2094757D06FA0FB479B","title":"唐朝酒店(联洋店)","lon":"121.55850197","lat":"31.22721799","category":"72","category_name":"广东菜","address":"浦东新区芳甸路199弄2号大拇指广场家乐福2楼(近杨高中路)"},{"poiid":"B2094654DA69A1FF449B","title":"好乐迪量贩式KTV(芳甸路)","lon":"121.55899","lat":"31.22681","category":"170","category_name":"KTV","address":"芳甸路199弄1-57号证大·大拇指广场1层"},{"poiid":"B2094757D069A4F4439D","title":"丰收日(联洋店)","lon":"121.559593975","lat":"31.2257219552","category":"75","category_name":"浙江菜","address":"浦东新区芳甸路300号联洋广场A区4楼(近迎春路)"},{"poiid":"B2094757D069A0F84892","title":"希腊餐厅(芳甸路店)","lon":"121.559723585","lat":"31.2261000756","category":"94","category_name":"西餐厅","address":"浦东新区芳甸路199弄证大大拇指广场43号1楼41铺(近杨高中路)"},{"poiid":"B2094757D068A2FC409D","title":"渝乡人家(大拇指广场店)","lon":"121.558519","lat":"31.227098","category":"71","category_name":"四川菜","address":"浦东新区芳甸路1188弄证大喜玛拉雅中心B1楼(近国际展览中心)"},{"poiid":"B2094757D06FA0FF4698","title":"家乐福(联洋店)","lon":"121.55884179","lat":"31.227584651","category":"118","category_name":"超级市场","address":"浦东新区芳甸路199弄证大大拇指广场内(近杨高中路)"},{"poiid":"B2094757D068A3FC4199","title":"韩林炭烤(联洋店)","lon":"121.55924","lat":"31.22601","category":"96","category_name":"韩国料理","address":"上海浦东新区芳甸路199弄证大大拇指广场48号(近杨高中路)  "},{"poiid":"B2094750D268A0F94993","title":"西贝莜面村 联洋店","lon":"121.557597","lat":"31.22674","category":"84","category_name":"西北菜","address":"浦东新区芳甸路300号联洋广场A区4楼401号铺(近丁香路)"},{"poiid":"B2094655D26EA0FC4492","title":"沃歌斯","lon":"121.55816","lat":"31.23072","category":"94","category_name":"西餐厅","address":"浦东新区芳甸路199弄证大大拇指广场31号(南洋泾路杨高中路)"},{"poiid":"B2094655D265A2FD429D","title":"联洋营业厅","lon":"121.5592","lat":"31.22576","category":"151","category_name":"电讯营业厅","address":"浦东新区芳甸路285号"},{"poiid":"B2094757D068A1F9439B","title":"老克勒上海菜 芳甸路店","lon":"121.558168054","lat":"31.226980793","category":"76","category_name":"上海菜","address":"浦东新区芳甸路300号联洋广场B区2楼(大拇指广场对面)"},{"poiid":"B2094654DB64A6FA4292","title":"香啡缤 大拇指广场店 Coffee Bean&Tea Leaf","lon":"121.559246054","lat":"31.227108793","category":"260","category_name":"其他","address":"浦东新区芳甸路199弄证大大拇指广场内(近杨高中路)"},{"poiid":"B2094655D26EA5FC4098","title":"花月亭(芳甸店)","lon":"121.55899","lat":"31.22681","category":"95","category_name":"日本料理","address":"浦东新区芳甸路199弄证大大拇指广场51号(近杨高中路)"},{"poiid":"B2094757D06FABFD429C","title":"蒂梵尼造型设计(联洋广场店)","lon":"121.55922","lat":"31.22583","category":"148","category_name":"美容美发店","address":"浦东新区芳甸路300号联洋广场B区3楼(近大拇指广场)"},{"poiid":"B2094751D469A0F8479C","title":"唐鱼儿麻辣鲜鱼火锅","lon":"121.560104","lat":"31.225509","category":"86","category_name":"火锅店","address":"浦东新区芳甸路199弄40号大拇指广场46号(近迎春路)"},{"poiid":"B2094757D465A3FF469B","title":"霖上海味道 联洋广场店","lon":"121.557597","lat":"31.22674","category":"76","category_name":"上海菜","address":"浦东新区芳甸路300号联洋广场B区2楼"},{"poiid":"B2094757D068A6FB4198","title":"许留山 联洋广场店 Hui Lau Shan","lon":"121.55758","lat":"31.22673","category":"67","category_name":"甜品店","address":"浦东新区芳甸路199弄40号联洋广场A座2楼(近迎春路)"},{"poiid":"B2094757D06AA2F84793","title":"近江和牛","lon":"121.5593909","lat":"31.226675604","category":"247","category_name":"餐饮美食","address":"上海大拇指广场"},{"poiid":"B2094751D46BABFD469F","title":"义面屋","lon":"121.55899","lat":"31.225021","category":"94","category_name":"西餐厅","address":"浦东新区芳甸路199弄大拇指广场19号(预计12月开业)"},{"poiid":"B2094757D16CA1FB409C","title":"小南国烧烤(大拇指店)","lon":"121.558883975","lat":"31.2262306671","category":"247","category_name":"餐饮美食","address":"上海芳甸路199弄40号大拇指广场一楼"},{"poiid":"B2094750D56DA1FB469F","title":"联洋广场 costa","lon":"121.558197","lat":"31.226411","category":"65","category_name":"咖啡厅","address":"浦东新区芳甸路300号联洋广场B区1楼(近迎春路)"},{"poiid":"B2094750DA68A4F4449A","title":"Blue Marlin","lon":"121.560188","lat":"31.227334","category":"248","category_name":"生活娱乐","address":"浦东新区芳甸路199弄17号大拇指广场"},{"poiid":"B2094757D065A0F44593","title":"爱尔兰文化餐厅","lon":"121.5593","lat":"31.22628","category":"94","category_name":"西餐厅","address":"浦东新区芳甸路199弄40号大拇指广场20号(迎春路口)"},{"poiid":"B2094757D065A4FA4893","title":"唐朝","lon":"121.55955197","lat":"31.227441995","category":"500","category_name":"未知分类","address":"上海芳甸路199弄2号大拇指广场家乐福2楼(近杨高中路)"},{"poiid":"B2094751D569AAFE499B","title":"Lapasta 義麵屋","lon":"121.559636","lat":"31.226118","category":"247","category_name":"餐饮美食","address":"浦東新區芳甸路199弄33號2樓"},{"poiid":"B2094757D068A5FF409E","title":"肯德基 KFC (联洋店)","lon":"121.558726","lat":"31.227466","category":"68","category_name":"快餐厅","address":"浦东新区芳甸路199弄40号大拇指广场38号1楼(迎春路口)"},{"poiid":"B2094757D068A1F9429C","title":"家乐福(大拇指广场店)","lon":"121.55993652","lat":"31.226459503","category":"118","category_name":"超级市场","address":"上海浦东新区芳甸路199弄 大拇指广场地下一层"},{"poiid":"B2094654DA69A1FF459E","title":"泓叶","lon":"121.55912","lat":"31.22608","category":"76","category_name":"上海菜","address":"浦东新区芳甸路199弄40号大拇指广场内(迎春路口)"},{"poiid":"B2094757D16CA4FE4293","title":"海游吞拿","lon":"121.55948767","lat":"31.225968761","category":"95","category_name":"日本料理","address":"芳甸路199弄大拇指广场2楼近杨高中路"},{"poiid":"B2094750D165A2F84892","title":"深井大叔(大拇指店)","lon":"121.559715","lat":"31.226057","category":"72","category_name":"广东菜","address":"浦东新区芳甸路199弄证大大拇指广场43号1楼"},{"poiid":"B2094757D468A4FF439A","title":"麦当劳 联洋家乐福店 McDonald's","lon":"121.559246054","lat":"31.227108793","category":"68","category_name":"快餐厅","address":"浦东新区芳甸路185号家乐福联洋店B1楼(近丁香路)"},{"poiid":"B2094752D16EA1FF4899","title":"竹若金枪鱼","lon":"121.558091","lat":"31.225088","category":"247","category_name":"餐饮美食","address":"芳甸路199弄大拇指广场51号(近丁香路)"},{"poiid":"B2094757D069A1F44692","title":"好乐迪","lon":"121.55981838","lat":"31.22722157","category":"500","category_name":"未知分类","address":"上海大拇指广场"},{"poiid":"B2094752D364A4F5489C","title":"居食屋和民(联洋广场店)","lon":"121.5579","lat":"31.22658","category":"95","category_name":"日本料理","address":"浦东新区芳甸路300号联洋广场4楼"},{"poiid":"B2094757D069A2F8459F","title":"大食代 联洋店","lon":"121.559269054","lat":"31.227013793","category":"68","category_name":"快餐厅","address":"浦东新区芳甸路199弄家乐祥福B1楼(南洋泾路杨高中路)"},{"poiid":"B2094757D468A4FC409F","title":"德兴第五季港式火锅","lon":"121.557597","lat":"31.22674","category":"86","category_name":"火锅店","address":"浦东新区芳甸路300号联洋广场A区4楼(近丁香路)"},{"poiid":"B2094655D26DA7FB4592","title":"证大·大拇指广场","lon":"121.55924","lat":"31.22688","category":"119","category_name":"商场","address":"芳甸路199弄1-57号"},{"poiid":"B2094654DB6AA7FB4698","title":"联洋广场","lon":"121.55778","lat":"31.2261","category":"46","category_name":"楼宇","address":"浦东新区芳甸路226号"},{"poiid":"B2094757D06EAAF44698","title":"好乐迪量贩式KTV(大拇指广场店)","lon":"121.55962636","lat":"31.226885364","category":"170","category_name":"KTV","address":"上海浦东芳甸路199弄36号"},{"poiid":"B2094654DB6BAAFD429F","title":"星巴克(大拇指店)","lon":"121.558561","lat":"31.226877","category":"260","category_name":"其他","address":"浦东新区芳甸路199弄40号大拇指广场内(迎春路口)"},{"poiid":"B2094757D06FA1FF439A","title":"苏浙汇(联洋店)","lon":"121.55879","lat":"31.22629","category":"76","category_name":"上海菜","address":"浦东新区芳甸路300号联洋广场C区3楼(近迎春路)"},{"poiid":"B2094757D06FA5FC419A","title":"藏珑泰极(大拇指广场店)","lon":"121.56025","lat":"31.22682","category":"99","category_name":"泰国／越南菜品餐厅","address":"浦东新区芳甸路199弄大拇指广场19号3楼(近丁香路)"},{"poiid":"B2094757D06FA2FC4892","title":"避风塘(芳甸路店)","lon":"121.55852","lat":"31.22608","category":"72","category_name":"广东菜","address":"浦东新区芳甸路300号联洋广场(迎春路口)"},{"poiid":"B2094757D06FA7FF4798","title":"炉边情谈","lon":"121.559279737","lat":"31.2265295573","category":"96","category_name":"韩国料理","address":"浦东新区芳甸路199弄40号大拇指广场53A号(迎春路口)"},{"poiid":"B2094654DB6AA6FF449F","title":"证大丽笙酒店","lon":"121.56049","lat":"31.22634","category":"213","category_name":"五星级宾馆","address":"浦东新区迎春路1199号(近芳甸路)"},{"poiid":"B2094757D768AAF84599","title":"哈根达斯 大拇指店 Haagen-Dazs","lon":"121.559246054","lat":"31.227108793","category":"67","category_name":"甜品店","address":"浦东新区芳甸路199弄32号大拇指广场1楼(迎春路口)"},{"poiid":"B2094757DA64AAFC459E","title":"大拇指广场","lon":"121.558871","lat":"31.226858","category":"252","category_name":"楼宇机构","address":"芳甸路199弄19号"},{"poiid":"B2094757D06FA5F4489D","title":"斗牛士(联洋店)","lon":"121.558331925","lat":"31.2258500724","category":"94","category_name":"西餐厅","address":"浦东新区芳甸路199弄300号联洋广场4楼(近大拇指广场)"},{"poiid":"B2094757D569A1FD4199","title":"埔里老镇","lon":"121.5603125","lat":"31.22719916","category":"91","category_name":"台湾菜","address":"浦东新区芳甸路199弄大拇指广场19号2楼(近迎春路)"},{"poiid":"B2094655D265A5FC469B","title":"俏江南(联洋广场店)","lon":"121.55759","lat":"31.22673","category":"71","category_name":"四川菜","address":"浦东新区芳甸路300号联洋广场C座2楼(近迎春路)"},{"poiid":"B2094757D06FA0FB479B","title":"唐朝酒店(联洋店)","lon":"121.55850197","lat":"31.22721799","category":"72","category_name":"广东菜","address":"浦东新区芳甸路199弄2号大拇指广场家乐福2楼(近杨高中路)"},{"poiid":"B2094654DA69A1FF449B","title":"好乐迪量贩式KTV(芳甸路)","lon":"121.55899","lat":"31.22681","category":"170","category_name":"KTV","address":"芳甸路199弄1-57号证大·大拇指广场1层"},{"poiid":"B2094757D069A4F4439D","title":"丰收日(联洋店)","lon":"121.559593975","lat":"31.2257219552","category":"75","category_name":"浙江菜","address":"浦东新区芳甸路300号联洋广场A区4楼(近迎春路)"},{"poiid":"B2094757D069A0F84892","title":"希腊餐厅(芳甸路店)","lon":"121.559723585","lat":"31.2261000756","category":"94","category_name":"西餐厅","address":"浦东新区芳甸路199弄证大大拇指广场43号1楼41铺(近杨高中路)"},{"poiid":"B2094757D068A2FC409D","title":"渝乡人家(大拇指广场店)","lon":"121.558519","lat":"31.227098","category":"71","category_name":"四川菜","address":"浦东新区芳甸路1188弄证大喜玛拉雅中心B1楼(近国际展览中心)"},{"poiid":"B2094757D06FA0FF4698","title":"家乐福(联洋店)","lon":"121.55884179","lat":"31.227584651","category":"118","category_name":"超级市场","address":"浦东新区芳甸路199弄证大大拇指广场内(近杨高中路)"},{"poiid":"B2094757D068A3FC4199","title":"韩林炭烤(联洋店)","lon":"121.55924","lat":"31.22601","category":"96","category_name":"韩国料理","address":"上海浦东新区芳甸路199弄证大大拇指广场48号(近杨高中路)  "},{"poiid":"B2094750D268A0F94993","title":"西贝莜面村 联洋店","lon":"121.557597","lat":"31.22674","category":"84","category_name":"西北菜","address":"浦东新区芳甸路300号联洋广场A区4楼401号铺(近丁香路)"},{"poiid":"B2094655D26EA0FC4492","title":"沃歌斯","lon":"121.55816","lat":"31.23072","category":"94","category_name":"西餐厅","address":"浦东新区芳甸路199弄证大大拇指广场31号(南洋泾路杨高中路)"},{"poiid":"B2094655D265A2FD429D","title":"联洋营业厅","lon":"121.5592","lat":"31.22576","category":"151","category_name":"电讯营业厅","address":"浦东新区芳甸路285号"},{"poiid":"B2094757D068A1F9439B","title":"老克勒上海菜 芳甸路店","lon":"121.558168054","lat":"31.226980793","category":"76","category_name":"上海菜","address":"浦东新区芳甸路300号联洋广场B区2楼(大拇指广场对面)"},{"poiid":"B2094654DB64A6FA4292","title":"香啡缤 大拇指广场店 Coffee Bean&Tea Leaf","lon":"121.559246054","lat":"31.227108793","category":"260","category_name":"其他","address":"浦东新区芳甸路199弄证大大拇指广场内(近杨高中路)"},{"poiid":"B2094655D26EA5FC4098","title":"花月亭(芳甸店)","lon":"121.55899","lat":"31.22681","category":"95","category_name":"日本料理","address":"浦东新区芳甸路199弄证大大拇指广场51号(近杨高中路)"},{"poiid":"B2094757D06FABFD429C","title":"蒂梵尼造型设计(联洋广场店)","lon":"121.55922","lat":"31.22583","category":"148","category_name":"美容美发店","address":"浦东新区芳甸路300号联洋广场B区3楼(近大拇指广场)"},{"poiid":"B2094751D469A0F8479C","title":"唐鱼儿麻辣鲜鱼火锅","lon":"121.560104","lat":"31.225509","category":"86","category_name":"火锅店","address":"浦东新区芳甸路199弄40号大拇指广场46号(近迎春路)"},{"poiid":"B2094757D465A3FF469B","title":"霖上海味道 联洋广场店","lon":"121.557597","lat":"31.22674","category":"76","category_name":"上海菜","address":"浦东新区芳甸路300号联洋广场B区2楼"},{"poiid":"B2094757D068A6FB4198","title":"许留山 联洋广场店 Hui Lau Shan","lon":"121.55758","lat":"31.22673","category":"67","category_name":"甜品店","address":"浦东新区芳甸路199弄40号联洋广场A座2楼(近迎春路)"},{"poiid":"B2094757D06AA2F84793","title":"近江和牛","lon":"121.5593909","lat":"31.226675604","category":"247","category_name":"餐饮美食","address":"上海大拇指广场"},{"poiid":"B2094751D46BABFD469F","title":"义面屋","lon":"121.55899","lat":"31.225021","category":"94","category_name":"西餐厅","address":"浦东新区芳甸路199弄大拇指广场19号(预计12月开业)"},{"poiid":"B2094757D16CA1FB409C","title":"小南国烧烤(大拇指店)","lon":"121.558883975","lat":"31.2262306671","category":"247","category_name":"餐饮美食","address":"上海芳甸路199弄40号大拇指广场一楼"},{"poiid":"B2094750D56DA1FB469F","title":"联洋广场 costa","lon":"121.558197","lat":"31.226411","category":"65","category_name":"咖啡厅","address":"浦东新区芳甸路300号联洋广场B区1楼(近迎春路)"},{"poiid":"B2094750DA68A4F4449A","title":"Blue Marlin","lon":"121.560188","lat":"31.227334","category":"248","category_name":"生活娱乐","address":"浦东新区芳甸路199弄17号大拇指广场"},{"poiid":"B2094757D065A0F44593","title":"爱尔兰文化餐厅","lon":"121.5593","lat":"31.22628","category":"94","category_name":"西餐厅","address":"浦东新区芳甸路199弄40号大拇指广场20号(迎春路口)"},{"poiid":"B2094757D065A4FA4893","title":"唐朝","lon":"121.55955197","lat":"31.227441995","category":"500","category_name":"未知分类","address":"上海芳甸路199弄2号大拇指广场家乐福2楼(近杨高中路)"},{"poiid":"B2094751D569AAFE499B","title":"Lapasta 義麵屋","lon":"121.559636","lat":"31.226118","category":"247","category_name":"餐饮美食","address":"浦東新區芳甸路199弄33號2樓"},{"poiid":"B2094757D068A5FF409E","title":"肯德基 KFC (联洋店)","lon":"121.558726","lat":"31.227466","category":"68","category_name":"快餐厅","address":"浦东新区芳甸路199弄40号大拇指广场38号1楼(迎春路口)"},{"poiid":"B2094757D068A1F9429C","title":"家乐福(大拇指广场店)","lon":"121.55993652","lat":"31.226459503","category":"118","category_name":"超级市场","address":"上海浦东新区芳甸路199弄 大拇指广场地下一层"},{"poiid":"B2094654DA69A1FF459E","title":"泓叶","lon":"121.55912","lat":"31.22608","category":"76","category_name":"上海菜","address":"浦东新区芳甸路199弄40号大拇指广场内(迎春路口)"},{"poiid":"B2094757D16CA4FE4293","title":"海游吞拿","lon":"121.55948767","lat":"31.225968761","category":"95","category_name":"日本料理","address":"芳甸路199弄大拇指广场2楼近杨高中路"},{"poiid":"B2094750D165A2F84892","title":"深井大叔(大拇指店)","lon":"121.559715","lat":"31.226057","category":"72","category_name":"广东菜","address":"浦东新区芳甸路199弄证大大拇指广场43号1楼"},{"poiid":"B2094757D468A4FF439A","title":"麦当劳 联洋家乐福店 McDonald's","lon":"121.559246054","lat":"31.227108793","category":"68","category_name":"快餐厅","address":"浦东新区芳甸路185号家乐福联洋店B1楼(近丁香路)"},{"poiid":"B2094752D16EA1FF4899","title":"竹若金枪鱼","lon":"121.558091","lat":"31.225088","category":"247","category_name":"餐饮美食","address":"芳甸路199弄大拇指广场51号(近丁香路)"},{"poiid":"B2094757D069A1F44692","title":"好乐迪","lon":"121.55981838","lat":"31.22722157","category":"500","category_name":"未知分类","address":"上海大拇指广场"},{"poiid":"B2094752D364A4F5489C","title":"居食屋和民(联洋广场店)","lon":"121.5579","lat":"31.22658","category":"95","category_name":"日本料理","address":"浦东新区芳甸路300号联洋广场4楼"},{"poiid":"B2094757D069A2F8459F","title":"大食代 联洋店","lon":"121.559269054","lat":"31.227013793","category":"68","category_name":"快餐厅","address":"浦东新区芳甸路199弄家乐祥福B1楼(南洋泾路杨高中路)"},{"poiid":"B2094757D468A4FC409F","title":"德兴第五季港式火锅","lon":"121.557597","lat":"31.22674","category":"86","category_name":"火锅店","address":"浦东新区芳甸路300号联洋广场A区4楼(近丁香路)"}]