[{"poiid":"B2094757D068A0FF4392","title":"洛克公园","lon":"121.42853895","lat":"31.2575828228","category":"196","category_name":"公园","address":"上海市普陀区华池路"},{"poiid":"B2094757D06FA1FE4792","title":"老郎特色牛肉面馆","lon":"121.4285","lat":"31.26146","category":"68","category_name":"快餐厅","address":"普陀区延长西路628号(近志丹路)"},{"poiid":"B2094757D465A1FE4293","title":"虾满堂手抓龙虾 华池路店","lon":"121.43021211313","lat":"31.256290977027","category":"68","category_name":"快餐厅","address":"普陀区华池路6号(近光新路)"},{"poiid":"B2094757D06FA4FF4193","title":"鑫旺阁(普陀店)","lon":"121.43101","lat":"31.26224","category":"75","category_name":"浙江菜","address":"普陀区志丹路151号(近甘泉路)"},{"poiid":"B2094757D06EAAFF429E","title":"肯德基 KFC (甘泉店)","lon":"121.43123626","lat":"31.259388373","category":"68","category_name":"快餐厅","address":"普陀区志丹路135号(甘泉路志丹路)"},{"poiid":"B2094655D26AAAF8479F","title":"留一手专业烤鱼","lon":"121.430312","lat":"31.262386","category":"68","category_name":"快餐厅","address":"普陀区甘泉路584号(近黄陵路)"},{"poiid":"B2094757D16DAAFF499F","title":"洛克篮球公园","lon":"121.42898395","lat":"31.256074794","category":"196","category_name":"公园","address":"上海市普陀区华池路58号"},{"poiid":"B2094757D164A2FA4592","title":"老郎特色牛肉面","lon":"121.42960355","lat":"31.2604433775","category":"247","category_name":"餐饮美食","address":"普陀区延长西路628号(近志丹路)"},{"poiid":"B2094757D069A3FE459F","title":"北海中学(管弄路分校)","lon":"121.42628","lat":"31.25782","category":"55","category_name":"中学","address":"普陀区管弄路51号(近华池路)"},{"poiid":"B2094751DA65ABFD4798","title":"上海元代水闸遗址博物馆","lon":"121.430568","lat":"31.259725","category":"500","category_name":"未知分类","address":"上海市普陀区延长西路619号"},{"poiid":"B2094757D069A2F4439A","title":"依云浴场","lon":"121.43332","lat":"31.25968","category":"149","category_name":"洗浴推拿场所","address":"上海普陀区延长西路543号(近子长路)"},{"poiid":"B2094757D069A4FD4593","title":"阿郎龙虾(华池路店)","lon":"121.43001","lat":"31.25613","category":"68","category_name":"快餐厅","address":"普陀区华池路18号(近光新路)"},{"poiid":"B2094757D06FA4FD4592","title":"上海市药剂学校","lon":"121.431654","lat":"31.259446","category":"500","category_name":"未知分类","address":"普陀区延长西路583号(近志丹路)"},{"poiid":"B2094654D465A1F9439F","title":"西部大楼","lon":"121.42992","lat":"31.260773","category":"47","category_name":"住宅区","address":"上海志丹路97弄"},{"poiid":"B2094654D464ABFC4892","title":"章家巷","lon":"121.43398","lat":"31.260544","category":"47","category_name":"住宅区","address":"延长西路526弄"},{"poiid":"B2094654D465A1F94499","title":"光烨写字楼","lon":"121.43008","lat":"31.2618","category":"46","category_name":"楼宇","address":"志丹路137号"},{"poiid":"B2094757D068A2FE4598","title":"圣约翰名邸","lon":"121.431","lat":"31.262","category":"47","category_name":"住宅区","address":"上海长宁路1188弄"},{"poiid":"B2094757D06AA0FF459B","title":"美格菲香溢花城会所","lon":"121.433577153","lat":"31.2569792199","category":"500","category_name":"未知分类","address":"普陀区石泉东路228号(近光新路)"},{"poiid":"B2094654D465A1FA469F","title":"志丹小区","lon":"121.42934","lat":"31.261074","category":"47","category_name":"住宅区","address":"甘泉路501弄1-42号"},{"poiid":"B2094654D465A0FE4398","title":"志丹苑","lon":"121.43008","lat":"31.25905","category":"47","category_name":"住宅区","address":"上海市长宁区延安西路1235弄"},{"poiid":"B2094757D068A3FD409C","title":"金汇商业广场(普陀店)","lon":"121.428622","lat":"31.256581","category":"119","category_name":"商场","address":"上海普陀区华池路58弄新体育广场"},{"poiid":"B2094757D06AA6FC469D","title":"子长中学","lon":"121.43162","lat":"31.2624","category":"55","category_name":"中学","address":"普陀区甘泉路388号(子长中学附近)"},{"poiid":"B2094757D06BABF9429A","title":"老北京涮羊肉","lon":"121.430998","lat":"31.261682","category":"247","category_name":"餐饮美食","address":"上海志丹路180号"},{"poiid":"B2094757D76DA0F4439F","title":"鑫亮酒家私房菜 华池路店","lon":"121.430124054","lat":"31.256290793","category":"76","category_name":"上海菜","address":"普陀区华池路6号(近光新路)"},{"poiid":"B2094757D76FA5F44199","title":"豫香斋火锅店","lon":"121.429637","lat":"31.256441","category":"86","category_name":"火锅店","address":"普陀区华池路10号(近光新路)"},{"poiid":"B2094654D465A1FB449A","title":"上海市澄源中学(延长西路)","lon":"121.42955","lat":"31.25937","category":"55","category_name":"中学","address":"延长西路661号"},{"poiid":"B2094757D16DA6F8449B","title":"普陀区人力资源与社会保障局","lon":"121.43230595","lat":"31.2578188273","category":"500","category_name":"未知分类","address":"上海志丹路8号"},{"poiid":"B2094655D26BAAF84198","title":"金源新苑(东南门)","lon":"121.42937","lat":"31.25851","category":"47","category_name":"住宅区","address":"交通路2395弄1-4号"},{"poiid":"B2094655D26CA2FB4799","title":"志丹苑(北门)","lon":"121.42999","lat":"31.25969","category":"656","category_name":"大门","address":"延长西路633弄"},{"poiid":"B2094757D06BA2FF4399","title":"管弄公园","lon":"121.42757","lat":"31.25761","category":"196","category_name":"公园","address":"普陀区管弄路29号(近华池路)"},{"poiid":"B2094654D464ABFD4398","title":"天成小区","lon":"121.43159","lat":"31.261856","category":"47","category_name":"住宅区","address":"上海普陀区志丹路170弄"},{"poiid":"B2094757D068AAF4449B","title":"导向桌球俱乐部","lon":"121.4288733","lat":"31.2564749","category":"171","category_name":"台球厅","address":"普陀区华池路58弄金汇商业广场5楼(近光新路)"},{"poiid":"B2094757D66FA6FC4193","title":"银都佳园","lon":"121.43214","lat":"31.259052","category":"47","category_name":"住宅区","address":"上海市普陀区延长西路555弄1-8号"},{"poiid":"B2094655D26EABFF4492","title":"快客","lon":"121.43054","lat":"31.26002","category":"117","category_name":"便民商店/便利店","address":"延长西路646"},{"poiid":"B2094655D26FA6F4429D","title":"金原新苑","lon":"121.42731","lat":"31.259315","category":"47","category_name":"住宅区","address":"上海延长西路677弄"},{"poiid":"B2094654D465A1FB459D","title":"黄陵路商业街","lon":"121.42838","lat":"31.26006","category":"116","category_name":"特色商业街","address":""},{"poiid":"B2094655D26FA5FC409F","title":"复旦大学医学技术学院一分院(北门)","lon":"121.43155","lat":"31.25962","category":"52","category_name":"高等院校","address":"延长西路583"},{"poiid":"B2094655D26CA0FA499F","title":"石泉六村","lon":"121.433","lat":"31.2618","category":"47","category_name":"住宅区","address":"上海普陀区华池路(近汉阴路)"},{"poiid":"B2094654D465A2F4499D","title":"上海市普陀体育场","lon":"121.4301","lat":"31.25718","category":"224","category_name":"综合体育馆","address":"华池路48号"},{"poiid":"B2094757D06AA0FB4192","title":"袁记怪味鸭唇","lon":"121.430340054","lat":"31.256309793","category":"71","category_name":"四川菜","address":"普陀区华池路14号(近光新路桥)"},{"poiid":"B2094654D464ABF9479F","title":"复旦大学医学技术学院一分院","lon":"121.43165","lat":"31.25944","category":"52","category_name":"高等院校","address":"延长西路583"},{"poiid":"B2094654DB65A6FD479C","title":"上海沪中工商管理学院","lon":"121.43165","lat":"31.25945","category":"52","category_name":"高等院校","address":"普陀区延长西路583"},{"poiid":"B2094654D464ABF9479C","title":"上海中医药大学医学技术学院一分院","lon":"121.43166","lat":"31.25944","category":"52","category_name":"高等院校","address":"延长西路583"},{"poiid":"B2094654D464ABFC4999","title":"美达口腔","lon":"121.43139","lat":"31.25998","category":"162","category_name":"医院","address":"延长西路586"},{"poiid":"B2094757D16CAAFD4699","title":"重庆谢记麻辣烫","lon":"121.42696","lat":"31.25574","category":"68","category_name":"快餐厅","address":"普陀区华池路128号(近汉阴路)"},{"poiid":"B2094751DA69AAFC419C","title":"银乐迪（品尊国际店）","lon":"121.432993","lat":"31.259584","category":"248","category_name":"生活娱乐","address":"岚皋路铜川路"},{"poiid":"B2094654D464ABF9439C","title":"嘉怡苑","lon":"121.43361","lat":"31.25823","category":"47","category_name":"住宅区","address":"嘉怡苑位于普陀交通路2245弄"},{"poiid":"B2094757D76CA3F9489B","title":"诸葛烤鱼食府","lon":"121.430961","lat":"31.262896","category":"71","category_name":"四川菜","address":"普陀区志丹路176号(近甘泉路)"},{"poiid":"B2094655D264A0FA469A","title":"西部绿苑","lon":"121.43065","lat":"31.26063","category":"47","category_name":"住宅区","address":"上海市普陀区志丹路81号"},{"poiid":"B2094757D16CA2F54299","title":"沃尔玛(甘泉店)","lon":"121.43091635","lat":"31.2610413889","category":"118","category_name":"超级市场","address":"上海普陀区平利路"},{"poiid":"B2094757D068A0FF4392","title":"洛克公园","lon":"121.42853895","lat":"31.2575828228","category":"196","category_name":"公园","address":"上海市普陀区华池路"},{"poiid":"B2094757D06FA1FE4792","title":"老郎特色牛肉面馆","lon":"121.4285","lat":"31.26146","category":"68","category_name":"快餐厅","address":"普陀区延长西路628号(近志丹路)"},{"poiid":"B2094757D465A1FE4293","title":"虾满堂手抓龙虾 华池路店","lon":"121.43021211313","lat":"31.256290977027","category":"68","category_name":"快餐厅","address":"普陀区华池路6号(近光新路)"},{"poiid":"B2094757D06FA4FF4193","title":"鑫旺阁(普陀店)","lon":"121.43101","lat":"31.26224","category":"75","category_name":"浙江菜","address":"普陀区志丹路151号(近甘泉路)"},{"poiid":"B2094757D06EAAFF429E","title":"肯德基 KFC (甘泉店)","lon":"121.43123626","lat":"31.259388373","category":"68","category_name":"快餐厅","address":"普陀区志丹路135号(甘泉路志丹路)"},{"poiid":"B2094655D26AAAF8479F","title":"留一手专业烤鱼","lon":"121.430312","lat":"31.262386","category":"68","category_name":"快餐厅","address":"普陀区甘泉路584号(近黄陵路)"},{"poiid":"B2094757D16DAAFF499F","title":"洛克篮球公园","lon":"121.42898395","lat":"31.256074794","category":"196","category_name":"公园","address":"上海市普陀区华池路58号"},{"poiid":"B2094757D164A2FA4592","title":"老郎特色牛肉面","lon":"121.42960355","lat":"31.2604433775","category":"247","category_name":"餐饮美食","address":"普陀区延长西路628号(近志丹路)"},{"poiid":"B2094757D069A3FE459F","title":"北海中学(管弄路分校)","lon":"121.42628","lat":"31.25782","category":"55","category_name":"中学","address":"普陀区管弄路51号(近华池路)"},{"poiid":"B2094751DA65ABFD4798","title":"上海元代水闸遗址博物馆","lon":"121.430568","lat":"31.259725","category":"500","category_name":"未知分类","address":"上海市普陀区延长西路619号"},{"poiid":"B2094757D069A2F4439A","title":"依云浴场","lon":"121.43332","lat":"31.25968","category":"149","category_name":"洗浴推拿场所","address":"上海普陀区延长西路543号(近子长路)"},{"poiid":"B2094757D069A4FD4593","title":"阿郎龙虾(华池路店)","lon":"121.43001","lat":"31.25613","category":"68","category_name":"快餐厅","address":"普陀区华池路18号(近光新路)"},{"poiid":"B2094757D06FA4FD4592","title":"上海市药剂学校","lon":"121.431654","lat":"31.259446","category":"500","category_name":"未知分类","address":"普陀区延长西路583号(近志丹路)"},{"poiid":"B2094654D465A1F9439F","title":"西部大楼","lon":"121.42992","lat":"31.260773","category":"47","category_name":"住宅区","address":"上海志丹路97弄"},{"poiid":"B2094654D464ABFC4892","title":"章家巷","lon":"121.43398","lat":"31.260544","category":"47","category_name":"住宅区","address":"延长西路526弄"},{"poiid":"B2094654D465A1F94499","title":"光烨写字楼","lon":"121.43008","lat":"31.2618","category":"46","category_name":"楼宇","address":"志丹路137号"},{"poiid":"B2094757D068A2FE4598","title":"圣约翰名邸","lon":"121.431","lat":"31.262","category":"47","category_name":"住宅区","address":"上海长宁路1188弄"},{"poiid":"B2094757D06AA0FF459B","title":"美格菲香溢花城会所","lon":"121.433577153","lat":"31.2569792199","category":"500","category_name":"未知分类","address":"普陀区石泉东路228号(近光新路)"},{"poiid":"B2094654D465A1FA469F","title":"志丹小区","lon":"121.42934","lat":"31.261074","category":"47","category_name":"住宅区","address":"甘泉路501弄1-42号"},{"poiid":"B2094654D465A0FE4398","title":"志丹苑","lon":"121.43008","lat":"31.25905","category":"47","category_name":"住宅区","address":"上海市长宁区延安西路1235弄"},{"poiid":"B2094757D068A3FD409C","title":"金汇商业广场(普陀店)","lon":"121.428622","lat":"31.256581","category":"119","category_name":"商场","address":"上海普陀区华池路58弄新体育广场"},{"poiid":"B2094757D06AA6FC469D","title":"子长中学","lon":"121.43162","lat":"31.2624","category":"55","category_name":"中学","address":"普陀区甘泉路388号(子长中学附近)"},{"poiid":"B2094757D06BABF9429A","title":"老北京涮羊肉","lon":"121.430998","lat":"31.261682","category":"247","category_name":"餐饮美食","address":"上海志丹路180号"},{"poiid":"B2094757D76DA0F4439F","title":"鑫亮酒家私房菜 华池路店","lon":"121.430124054","lat":"31.256290793","category":"76","category_name":"上海菜","address":"普陀区华池路6号(近光新路)"},{"poiid":"B2094757D76FA5F44199","title":"豫香斋火锅店","lon":"121.429637","lat":"31.256441","category":"86","category_name":"火锅店","address":"普陀区华池路10号(近光新路)"},{"poiid":"B2094654D465A1FB449A","title":"上海市澄源中学(延长西路)","lon":"121.42955","lat":"31.25937","category":"55","category_name":"中学","address":"延长西路661号"},{"poiid":"B2094757D16DA6F8449B","title":"普陀区人力资源与社会保障局","lon":"121.43230595","lat":"31.2578188273","category":"500","category_name":"未知分类","address":"上海志丹路8号"},{"poiid":"B2094655D26BAAF84198","title":"金源新苑(东南门)","lon":"121.42937","lat":"31.25851","category":"47","category_name":"住宅区","address":"交通路2395弄1-4号"},{"poiid":"B2094655D26CA2FB4799","title":"志丹苑(北门)","lon":"121.42999","lat":"31.25969","category":"656","category_name":"大门","address":"延长西路633弄"},{"poiid":"B2094757D06BA2FF4399","title":"管弄公园","lon":"121.42757","lat":"31.25761","category":"196","category_name":"公园","address":"普陀区管弄路29号(近华池路)"},{"poiid":"B2094654D464ABFD4398","title":"天成小区","lon":"121.43159","lat":"31.261856","category":"47","category_name":"住宅区","address":"上海普陀区志丹路170弄"},{"poiid":"B2094757D068AAF4449B","title":"导向桌球俱乐部","lon":"121.4288733","lat":"31.2564749","category":"171","category_name":"台球厅","address":"普陀区华池路58弄金汇商业广场5楼(近光新路)"},{"poiid":"B2094757D66FA6FC4193","title":"银都佳园","lon":"121.43214","lat":"31.259052","category":"47","category_name":"住宅区","address":"上海市普陀区延长西路555弄1-8号"},{"poiid":"B2094655D26EABFF4492","title":"快客","lon":"121.43054","lat":"31.26002","category":"117","category_name":"便民商店/便利店","address":"延长西路646"},{"poiid":"B2094655D26FA6F4429D","title":"金原新苑","lon":"121.42731","lat":"31.259315","category":"47","category_name":"住宅区","address":"上海延长西路677弄"},{"poiid":"B2094654D465A1FB459D","title":"黄陵路商业街","lon":"121.42838","lat":"31.26006","category":"116","category_name":"特色商业街","address":""},{"poiid":"B2094655D26FA5FC409F","title":"复旦大学医学技术学院一分院(北门)","lon":"121.43155","lat":"31.25962","category":"52","category_name":"高等院校","address":"延长西路583"},{"poiid":"B2094655D26CA0FA499F","title":"石泉六村","lon":"121.433","lat":"31.2618","category":"47","category_name":"住宅区","address":"上海普陀区华池路(近汉阴路)"},{"poiid":"B2094654D465A2F4499D","title":"上海市普陀体育场","lon":"121.4301","lat":"31.25718","category":"224","category_name":"综合体育馆","address":"华池路48号"},{"poiid":"B2094757D06AA0FB4192","title":"袁记怪味鸭唇","lon":"121.430340054","lat":"31.256309793","category":"71","category_name":"四川菜","address":"普陀区华池路14号(近光新路桥)"},{"poiid":"B2094654D464ABF9479F","title":"复旦大学医学技术学院一分院","lon":"121.43165","lat":"31.25944","category":"52","category_name":"高等院校","address":"延长西路583"},{"poiid":"B2094654DB65A6FD479C","title":"上海沪中工商管理学院","lon":"121.43165","lat":"31.25945","category":"52","category_name":"高等院校","address":"普陀区延长西路583"},{"poiid":"B2094654D464ABF9479C","title":"上海中医药大学医学技术学院一分院","lon":"121.43166","lat":"31.25944","category":"52","category_name":"高等院校","address":"延长西路583"},{"poiid":"B2094654D464ABFC4999","title":"美达口腔","lon":"121.43139","lat":"31.25998","category":"162","category_name":"医院","address":"延长西路586"},{"poiid":"B2094757D16CAAFD4699","title":"重庆谢记麻辣烫","lon":"121.42696","lat":"31.25574","category":"68","category_name":"快餐厅","address":"普陀区华池路128号(近汉阴路)"},{"poiid":"B2094751DA69AAFC419C","title":"银乐迪（品尊国际店）","lon":"121.432993","lat":"31.259584","category":"248","category_name":"生活娱乐","address":"岚皋路铜川路"},{"poiid":"B2094654D464ABF9439C","title":"嘉怡苑","lon":"121.43361","lat":"31.25823","category":"47","category_name":"住宅区","address":"嘉怡苑位于普陀交通路2245弄"},{"poiid":"B2094757D76CA3F9489B","title":"诸葛烤鱼食府","lon":"121.430961","lat":"31.262896","category":"71","category_name":"四川菜","address":"普陀区志丹路176号(近甘泉路)"},{"poiid":"B2094655D264A0FA469A","title":"西部绿苑","lon":"121.43065","lat":"31.26063","category":"47","category_name":"住宅区","address":"上海市普陀区志丹路81号"},{"poiid":"B2094757D16CA2F54299","title":"沃尔玛(甘泉店)","lon":"121.43091635","lat":"31.2610413889","category":"118","category_name":"超级市场","address":"上海普陀区平利路"},{"poiid":"B2094757D068A0FF4392","title":"洛克公园","lon":"121.42853895","lat":"31.2575828228","category":"196","category_name":"公园","address":"上海市普陀区华池路"},{"poiid":"B2094757D06FA1FE4792","title":"老郎特色牛肉面馆","lon":"121.4285","lat":"31.26146","category":"68","category_name":"快餐厅","address":"普陀区延长西路628号(近志丹路)"},{"poiid":"B2094757D465A1FE4293","title":"虾满堂手抓龙虾 华池路店","lon":"121.43021211313","lat":"31.256290977027","category":"68","category_name":"快餐厅","address":"普陀区华池路6号(近光新路)"},{"poiid":"B2094757D06FA4FF4193","title":"鑫旺阁(普陀店)","lon":"121.43101","lat":"31.26224","category":"75","category_name":"浙江菜","address":"普陀区志丹路151号(近甘泉路)"},{"poiid":"B2094757D06EAAFF429E","title":"肯德基 KFC (甘泉店)","lon":"121.43123626","lat":"31.259388373","category":"68","category_name":"快餐厅","address":"普陀区志丹路135号(甘泉路志丹路)"},{"poiid":"B2094655D26AAAF8479F","title":"留一手专业烤鱼","lon":"121.430312","lat":"31.262386","category":"68","category_name":"快餐厅","address":"普陀区甘泉路584号(近黄陵路)"},{"poiid":"B2094757D16DAAFF499F","title":"洛克篮球公园","lon":"121.42898395","lat":"31.256074794","category":"196","category_name":"公园","address":"上海市普陀区华池路58号"},{"poiid":"B2094757D164A2FA4592","title":"老郎特色牛肉面","lon":"121.42960355","lat":"31.2604433775","category":"247","category_name":"餐饮美食","address":"普陀区延长西路628号(近志丹路)"},{"poiid":"B2094757D069A3FE459F","title":"北海中学(管弄路分校)","lon":"121.42628","lat":"31.25782","category":"55","category_name":"中学","address":"普陀区管弄路51号(近华池路)"},{"poiid":"B2094751DA65ABFD4798","title":"上海元代水闸遗址博物馆","lon":"121.430568","lat":"31.259725","category":"500","category_name":"未知分类","address":"上海市普陀区延长西路619号"},{"poiid":"B2094757D069A2F4439A","title":"依云浴场","lon":"121.43332","lat":"31.25968","category":"149","category_name":"洗浴推拿场所","address":"上海普陀区延长西路543号(近子长路)"},{"poiid":"B2094757D069A4FD4593","title":"阿郎龙虾(华池路店)","lon":"121.43001","lat":"31.25613","category":"68","category_name":"快餐厅","address":"普陀区华池路18号(近光新路)"},{"poiid":"B2094757D06FA4FD4592","title":"上海市药剂学校","lon":"121.431654","lat":"31.259446","category":"500","category_name":"未知分类","address":"普陀区延长西路583号(近志丹路)"},{"poiid":"B2094654D465A1F9439F","title":"西部大楼","lon":"121.42992","lat":"31.260773","category":"47","category_name":"住宅区","address":"上海志丹路97弄"},{"poiid":"B2094654D464ABFC4892","title":"章家巷","lon":"121.43398","lat":"31.260544","category":"47","category_name":"住宅区","address":"延长西路526弄"},{"poiid":"B2094654D465A1F94499","title":"光烨写字楼","lon":"121.43008","lat":"31.2618","category":"46","category_name":"楼宇","address":"志丹路137号"},{"poiid":"B2094757D068A2FE4598","title":"圣约翰名邸","lon":"121.431","lat":"31.262","category":"47","category_name":"住宅区","address":"上海长宁路1188弄"},{"poiid":"B2094757D06AA0FF459B","title":"美格菲香溢花城会所","lon":"121.433577153","lat":"31.2569792199","category":"500","category_name":"未知分类","address":"普陀区石泉东路228号(近光新路)"},{"poiid":"B2094654D465A1FA469F","title":"志丹小区","lon":"121.42934","lat":"31.261074","category":"47","category_name":"住宅区","address":"甘泉路501弄1-42号"},{"poiid":"B2094654D465A0FE4398","title":"志丹苑","lon":"121.43008","lat":"31.25905","category":"47","category_name":"住宅区","address":"上海市长宁区延安西路1235弄"},{"poiid":"B2094757D068A3FD409C","title":"金汇商业广场(普陀店)","lon":"121.428622","lat":"31.256581","category":"119","category_name":"商场","address":"上海普陀区华池路58弄新体育广场"},{"poiid":"B2094757D06AA6FC469D","title":"子长中学","lon":"121.43162","lat":"31.2624","category":"55","category_name":"中学","address":"普陀区甘泉路388号(子长中学附近)"},{"poiid":"B2094757D06BABF9429A","title":"老北京涮羊肉","lon":"121.430998","lat":"31.261682","category":"247","category_name":"餐饮美食","address":"上海志丹路180号"},{"poiid":"B2094757D76DA0F4439F","title":"鑫亮酒家私房菜 华池路店","lon":"121.430124054","lat":"31.256290793","category":"76","category_name":"上海菜","address":"普陀区华池路6号(近光新路)"},{"poiid":"B2094757D76FA5F44199","title":"豫香斋火锅店","lon":"121.429637","lat":"31.256441","category":"86","category_name":"火锅店","address":"普陀区华池路10号(近光新路)"},{"poiid":"B2094654D465A1FB449A","title":"上海市澄源中学(延长西路)","lon":"121.42955","lat":"31.25937","category":"55","category_name":"中学","address":"延长西路661号"},{"poiid":"B2094757D16DA6F8449B","title":"普陀区人力资源与社会保障局","lon":"121.43230595","lat":"31.2578188273","category":"500","category_name":"未知分类","address":"上海志丹路8号"},{"poiid":"B2094655D26BAAF84198","title":"金源新苑(东南门)","lon":"121.42937","lat":"31.25851","category":"47","category_name":"住宅区","address":"交通路2395弄1-4号"},{"poiid":"B2094655D26CA2FB4799","title":"志丹苑(北门)","lon":"121.42999","lat":"31.25969","category":"656","category_name":"大门","address":"延长西路633弄"},{"poiid":"B2094757D06BA2FF4399","title":"管弄公园","lon":"121.42757","lat":"31.25761","category":"196","category_name":"公园","address":"普陀区管弄路29号(近华池路)"},{"poiid":"B2094654D464ABFD4398","title":"天成小区","lon":"121.43159","lat":"31.261856","category":"47","category_name":"住宅区","address":"上海普陀区志丹路170弄"},{"poiid":"B2094757D068AAF4449B","title":"导向桌球俱乐部","lon":"121.4288733","lat":"31.2564749","category":"171","category_name":"台球厅","address":"普陀区华池路58弄金汇商业广场5楼(近光新路)"},{"poiid":"B2094757D66FA6FC4193","title":"银都佳园","lon":"121.43214","lat":"31.259052","category":"47","category_name":"住宅区","address":"上海市普陀区延长西路555弄1-8号"},{"poiid":"B2094655D26EABFF4492","title":"快客","lon":"121.43054","lat":"31.26002","category":"117","category_name":"便民商店/便利店","address":"延长西路646"},{"poiid":"B2094655D26FA6F4429D","title":"金原新苑","lon":"121.42731","lat":"31.259315","category":"47","category_name":"住宅区","address":"上海延长西路677弄"},{"poiid":"B2094654D465A1FB459D","title":"黄陵路商业街","lon":"121.42838","lat":"31.26006","category":"116","category_name":"特色商业街","address":""},{"poiid":"B2094655D26FA5FC409F","title":"复旦大学医学技术学院一分院(北门)","lon":"121.43155","lat":"31.25962","category":"52","category_name":"高等院校","address":"延长西路583"},{"poiid":"B2094655D26CA0FA499F","title":"石泉六村","lon":"121.433","lat":"31.2618","category":"47","category_name":"住宅区","address":"上海普陀区华池路(近汉阴路)"},{"poiid":"B2094654D465A2F4499D","title":"上海市普陀体育场","lon":"121.4301","lat":"31.25718","category":"224","category_name":"综合体育馆","address":"华池路48号"},{"poiid":"B2094757D06AA0FB4192","title":"袁记怪味鸭唇","lon":"121.430340054","lat":"31.256309793","category":"71","category_name":"四川菜","address":"普陀区华池路14号(近光新路桥)"},{"poiid":"B2094654D464ABF9479F","title":"复旦大学医学技术学院一分院","lon":"121.43165","lat":"31.25944","category":"52","category_name":"高等院校","address":"延长西路583"},{"poiid":"B2094654DB65A6FD479C","title":"上海沪中工商管理学院","lon":"121.43165","lat":"31.25945","category":"52","category_name":"高等院校","address":"普陀区延长西路583"},{"poiid":"B2094654D464ABF9479C","title":"上海中医药大学医学技术学院一分院","lon":"121.43166","lat":"31.25944","category":"52","category_name":"高等院校","address":"延长西路583"},{"poiid":"B2094654D464ABFC4999","title":"美达口腔","lon":"121.43139","lat":"31.25998","category":"162","category_name":"医院","address":"延长西路586"},{"poiid":"B2094757D16CAAFD4699","title":"重庆谢记麻辣烫","lon":"121.42696","lat":"31.25574","category":"68","category_name":"快餐厅","address":"普陀区华池路128号(近汉阴路)"},{"poiid":"B2094751DA69AAFC419C","title":"银乐迪（品尊国际店）","lon":"121.432993","lat":"31.259584","category":"248","category_name":"生活娱乐","address":"岚皋路铜川路"},{"poiid":"B2094654D464ABF9439C","title":"嘉怡苑","lon":"121.43361","lat":"31.25823","category":"47","category_name":"住宅区","address":"嘉怡苑位于普陀交通路2245弄"},{"poiid":"B2094757D76CA3F9489B","title":"诸葛烤鱼食府","lon":"121.430961","lat":"31.262896","category":"71","category_name":"四川菜","address":"普陀区志丹路176号(近甘泉路)"},{"poiid":"B2094655D264A0FA469A","title":"西部绿苑","lon":"121.43065","lat":"31.26063","category":"47","category_name":"住宅区","address":"上海市普陀区志丹路81号"},{"poiid":"B2094757D16CA2F54299","title":"沃尔玛(甘泉店)","lon":"121.43091635","lat":"31.2610413889","category":"118","category_name":"超级市场","address":"上海普陀区平利路"},{"poiid":"B2094757D068A0FF4392","title":"洛克公园","lon":"121.42853895","lat":"31.2575828228","category":"196","category_name":"公园","address":"上海市普陀区华池路"},{"poiid":"B2094757D06FA1FE4792","title":"老郎特色牛肉面馆","lon":"121.4285","lat":"31.26146","category":"68","category_name":"快餐厅","address":"普陀区延长西路628号(近志丹路)"},{"poiid":"B2094757D465A1FE4293","title":"虾满堂手抓龙虾 华池路店","lon":"121.43021211313","lat":"31.256290977027","category":"68","category_name":"快餐厅","address":"普陀区华池路6号(近光新路)"},{"poiid":"B2094757D06FA4FF4193","title":"鑫旺阁(普陀店)","lon":"121.43101","lat":"31.26224","category":"75","category_name":"浙江菜","address":"普陀区志丹路151号(近甘泉路)"},{"poiid":"B2094757D06EAAFF429E","title":"肯德基 KFC (甘泉店)","lon":"121.43123626","lat":"31.259388373","category":"68","category_name":"快餐厅","address":"普陀区志丹路135号(甘泉路志丹路)"},{"poiid":"B2094655D26AAAF8479F","title":"留一手专业烤鱼","lon":"121.430312","lat":"31.262386","category":"68","category_name":"快餐厅","address":"普陀区甘泉路584号(近黄陵路)"},{"poiid":"B2094757D16DAAFF499F","title":"洛克篮球公园","lon":"121.42898395","lat":"31.256074794","category":"196","category_name":"公园","address":"上海市普陀区华池路58号"},{"poiid":"B2094757D164A2FA4592","title":"老郎特色牛肉面","lon":"121.42960355","lat":"31.2604433775","category":"247","category_name":"餐饮美食","address":"普陀区延长西路628号(近志丹路)"},{"poiid":"B2094757D069A3FE459F","title":"北海中学(管弄路分校)","lon":"121.42628","lat":"31.25782","category":"55","category_name":"中学","address":"普陀区管弄路51号(近华池路)"},{"poiid":"B2094751DA65ABFD4798","title":"上海元代水闸遗址博物馆","lon":"121.430568","lat":"31.259725","category":"500","category_name":"未知分类","address":"上海市普陀区延长西路619号"},{"poiid":"B2094757D069A2F4439A","title":"依云浴场","lon":"121.43332","lat":"31.25968","category":"149","category_name":"洗浴推拿场所","address":"上海普陀区延长西路543号(近子长路)"},{"poiid":"B2094757D069A4FD4593","title":"阿郎龙虾(华池路店)","lon":"121.43001","lat":"31.25613","category":"68","category_name":"快餐厅","address":"普陀区华池路18号(近光新路)"},{"poiid":"B2094757D06FA4FD4592","title":"上海市药剂学校","lon":"121.431654","lat":"31.259446","category":"500","category_name":"未知分类","address":"普陀区延长西路583号(近志丹路)"},{"poiid":"B2094654D465A1F9439F","title":"西部大楼","lon":"121.42992","lat":"31.260773","category":"47","category_name":"住宅区","address":"上海志丹路97弄"},{"poiid":"B2094654D464ABFC4892","title":"章家巷","lon":"121.43398","lat":"31.260544","category":"47","category_name":"住宅区","address":"延长西路526弄"},{"poiid":"B2094654D465A1F94499","title":"光烨写字楼","lon":"121.43008","lat":"31.2618","category":"46","category_name":"楼宇","address":"志丹路137号"},{"poiid":"B2094757D068A2FE4598","title":"圣约翰名邸","lon":"121.431","lat":"31.262","category":"47","category_name":"住宅区","address":"上海长宁路1188弄"},{"poiid":"B2094757D06AA0FF459B","title":"美格菲香溢花城会所","lon":"121.433577153","lat":"31.2569792199","category":"500","category_name":"未知分类","address":"普陀区石泉东路228号(近光新路)"},{"poiid":"B2094654D465A1FA469F","title":"志丹小区","lon":"121.42934","lat":"31.261074","category":"47","category_name":"住宅区","address":"甘泉路501弄1-42号"},{"poiid":"B2094654D465A0FE4398","title":"志丹苑","lon":"121.43008","lat":"31.25905","category":"47","category_name":"住宅区","address":"上海市长宁区延安西路1235弄"},{"poiid":"B2094757D068A3FD409C","title":"金汇商业广场(普陀店)","lon":"121.428622","lat":"31.256581","category":"119","category_name":"商场","address":"上海普陀区华池路58弄新体育广场"},{"poiid":"B2094757D06AA6FC469D","title":"子长中学","lon":"121.43162","lat":"31.2624","category":"55","category_name":"中学","address":"普陀区甘泉路388号(子长中学附近)"},{"poiid":"B2094757D06BABF9429A","title":"老北京涮羊肉","lon":"121.430998","lat":"31.261682","category":"247","category_name":"餐饮美食","address":"上海志丹路180号"},{"poiid":"B2094757D76DA0F4439F","title":"鑫亮酒家私房菜 华池路店","lon":"121.430124054","lat":"31.256290793","category":"76","category_name":"上海菜","address":"普陀区华池路6号(近光新路)"},{"poiid":"B2094757D76FA5F44199","title":"豫香斋火锅店","lon":"121.429637","lat":"31.256441","category":"86","category_name":"火锅店","address":"普陀区华池路10号(近光新路)"},{"poiid":"B2094654D465A1FB449A","title":"上海市澄源中学(延长西路)","lon":"121.42955","lat":"31.25937","category":"55","category_name":"中学","address":"延长西路661号"},{"poiid":"B2094757D16DA6F8449B","title":"普陀区人力资源与社会保障局","lon":"121.43230595","lat":"31.2578188273","category":"500","category_name":"未知分类","address":"上海志丹路8号"},{"poiid":"B2094655D26BAAF84198","title":"金源新苑(东南门)","lon":"121.42937","lat":"31.25851","category":"47","category_name":"住宅区","address":"交通路2395弄1-4号"},{"poiid":"B2094655D26CA2FB4799","title":"志丹苑(北门)","lon":"121.42999","lat":"31.25969","category":"656","category_name":"大门","address":"延长西路633弄"},{"poiid":"B2094757D06BA2FF4399","title":"管弄公园","lon":"121.42757","lat":"31.25761","category":"196","category_name":"公园","address":"普陀区管弄路29号(近华池路)"},{"poiid":"B2094654D464ABFD4398","title":"天成小区","lon":"121.43159","lat":"31.261856","category":"47","category_name":"住宅区","address":"上海普陀区志丹路170弄"},{"poiid":"B2094757D068AAF4449B","title":"导向桌球俱乐部","lon":"121.4288733","lat":"31.2564749","category":"171","category_name":"台球厅","address":"普陀区华池路58弄金汇商业广场5楼(近光新路)"},{"poiid":"B2094757D66FA6FC4193","title":"银都佳园","lon":"121.43214","lat":"31.259052","category":"47","category_name":"住宅区","address":"上海市普陀区延长西路555弄1-8号"},{"poiid":"B2094655D26EABFF4492","title":"快客","lon":"121.43054","lat":"31.26002","category":"117","category_name":"便民商店/便利店","address":"延长西路646"},{"poiid":"B2094655D26FA6F4429D","title":"金原新苑","lon":"121.42731","lat":"31.259315","category":"47","category_name":"住宅区","address":"上海延长西路677弄"},{"poiid":"B2094654D465A1FB459D","title":"黄陵路商业街","lon":"121.42838","lat":"31.26006","category":"116","category_name":"特色商业街","address":""},{"poiid":"B2094655D26FA5FC409F","title":"复旦大学医学技术学院一分院(北门)","lon":"121.43155","lat":"31.25962","category":"52","category_name":"高等院校","address":"延长西路583"},{"poiid":"B2094655D26CA0FA499F","title":"石泉六村","lon":"121.433","lat":"31.2618","category":"47","category_name":"住宅区","address":"上海普陀区华池路(近汉阴路)"},{"poiid":"B2094654D465A2F4499D","title":"上海市普陀体育场","lon":"121.4301","lat":"31.25718","category":"224","category_name":"综合体育馆","address":"华池路48号"},{"poiid":"B2094757D06AA0FB4192","title":"袁记怪味鸭唇","lon":"121.430340054","lat":"31.256309793","category":"71","category_name":"四川菜","address":"普陀区华池路14号(近光新路桥)"},{"poiid":"B2094654D464ABF9479F","title":"复旦大学医学技术学院一分院","lon":"121.43165","lat":"31.25944","category":"52","category_name":"高等院校","address":"延长西路583"},{"poiid":"B2094654DB65A6FD479C","title":"上海沪中工商管理学院","lon":"121.43165","lat":"31.25945","category":"52","category_name":"高等院校","address":"普陀区延长西路583"},{"poiid":"B2094654D464ABF9479C","title":"上海中医药大学医学技术学院一分院","lon":"121.43166","lat":"31.25944","category":"52","category_name":"高等院校","address":"延长西路583"},{"poiid":"B2094654D464ABFC4999","title":"美达口腔","lon":"121.43139","lat":"31.25998","category":"162","category_name":"医院","address":"延长西路586"},{"poiid":"B2094757D16CAAFD4699","title":"重庆谢记麻辣烫","lon":"121.42696","lat":"31.25574","category":"68","category_name":"快餐厅","address":"普陀区华池路128号(近汉阴路)"},{"poiid":"B2094751DA69AAFC419C","title":"银乐迪（品尊国际店）","lon":"121.432993","lat":"31.259584","category":"248","category_name":"生活娱乐","address":"岚皋路铜川路"},{"poiid":"B2094654D464ABF9439C","title":"嘉怡苑","lon":"121.43361","lat":"31.25823","category":"47","category_name":"住宅区","address":"嘉怡苑位于普陀交通路2245弄"},{"poiid":"B2094757D76CA3F9489B","title":"诸葛烤鱼食府","lon":"121.430961","lat":"31.262896","category":"71","category_name":"四川菜","address":"普陀区志丹路176号(近甘泉路)"},{"poiid":"B2094655D264A0FA469A","title":"西部绿苑","lon":"121.43065","lat":"31.26063","category":"47","category_name":"住宅区","address":"上海市普陀区志丹路81号"},{"poiid":"B2094757D16CA2F54299","title":"沃尔玛(甘泉店)","lon":"121.43091635","lat":"31.2610413889","category":"118","category_name":"超级市场","address":"上海普陀区平利路"}]