[{"poiid":"B2094757D06FA7F5489D","title":"唐镇地铁站","lon":"121.655261389","lat":"31.2132715098","category":"36","category_name":"地铁站","address":"上海轨道交通 二号线 轨交塘镇站 2"},{"poiid":"B2094655D36DA6FE4698","title":"唐镇","lon":"121.65525","lat":"31.21328","category":"38","category_name":"公交车站","address":""},{"poiid":"B2094654DA6AAAFD489D","title":"绿波城","lon":"121.66481","lat":"31.209545","category":"47","category_name":"住宅区","address":"创新中路258号"},{"poiid":"B2094757D06FA3F44799","title":"华夏东路地铁站","lon":"121.67645614","lat":"31.196494693","category":"36","category_name":"地铁站","address":"上海轨道交通 二号线 轨交华夏东路站 2"},{"poiid":"B2094654DA6AAAFD4699","title":"上海民远职业技术学院","lon":"121.66107","lat":"31.19932","category":"671","category_name":"高校中心点","address":"浦东新区唐陆公路3892号(近华夏东路)"},{"poiid":"B2094757D068A7FA469F","title":"金唐公寓","lon":"121.65786","lat":"31.202555","category":"500","category_name":"未知分类","address":"创新西路75弄1-136号"},{"poiid":"B2094655D265ABF9499B","title":"保利金爵公寓(一期)","lon":"121.651128","lat":"31.206772","category":"47","category_name":"住宅区","address":"浦东新区创新西路75弄131号B座"},{"poiid":"B2094757D069A3F9479C","title":"唐镇天主教堂","lon":"121.65758514","lat":"31.201940536","category":"245","category_name":"教堂","address":"上海唐陆路"},{"poiid":"B2094757D06FA5FF4692","title":"金利公寓","lon":"121.66344","lat":"31.2026","category":"47","category_name":"住宅区","address":"上海南曹路901弄"},{"poiid":"B2094757D06AA5FA489D","title":"永安公墓","lon":"121.666467005","lat":"31.195946669","category":"620","category_name":"丧葬","address":"浦东新区川沙镇唐陆公路(近华夏东路)"},{"poiid":"B2094757D065A5F8409E","title":"华夏公园","lon":"121.65080441079522","lat":"31.192232339010502","category":"196","category_name":"公园","address":"上海华夏东路185号"},{"poiid":"B2094655D264A6FD449A","title":"齐爱佳苑","lon":"121.6618","lat":"31.206957","category":"47","category_name":"住宅区","address":"上海市宝山区新二路183弄"},{"poiid":"B2094757D06BA3FD409E","title":"瀚盛家园","lon":"121.65532","lat":"31.200581","category":"47","category_name":"住宅区","address":"上海浦东新区创新西路199弄"},{"poiid":"B2094655D36CA5FD439D","title":"创新中路齐爱路","lon":"121.66386","lat":"31.20711","category":"38","category_name":"公交车站","address":""},{"poiid":"B2094654DA6AAAFD429D","title":"唐人苑","lon":"121.64923","lat":"31.208265","category":"47","category_name":"住宅区","address":"唐镇路127弄"},{"poiid":"B2094757D068AAFD4392","title":"创新中路地铁站","lon":"121.664993","lat":"31.214909","category":"36","category_name":"地铁站","address":"上海轨道交通,二号线,轨交创新中路站,2"},{"poiid":"B2094655D26BA7FC459D","title":"保利金利公寓","lon":"121.665","lat":"31.2106","category":"47","category_name":"住宅区","address":"创新西路唐陆路口"},{"poiid":"B2094750D768A3F84399","title":"川悦食空","lon":"121.655","lat":"31.2048","category":"71","category_name":"四川菜","address":"浦东新区唐安路1008号(唐兴路口)"},{"poiid":"B2094655D36CA0FB4593","title":"机口村","lon":"121.66283","lat":"31.20693","category":"38","category_name":"公交车站","address":""},{"poiid":"B2094654DA6AAAFD4792","title":"上海市浦东新区唐镇卫生院","lon":"121.66007","lat":"31.20582","category":"162","category_name":"医院","address":"创新中路566号"},{"poiid":"B2094750D56AA0FF449A","title":"保利御樽苑","lon":"121.65776","lat":"31.210739","category":"47","category_name":"住宅区","address":"上海市浦东新区唐兴路"},{"poiid":"B2094654DA6AAAFD4499","title":"浦东唐墓桥露德圣母堂","lon":"121.65727","lat":"31.20935","category":"244","category_name":"寺庙道观","address":"浦东新区东唐镇40号"},{"poiid":"B2094654DA6AAAFD4393","title":"唐镇中学","lon":"121.65885","lat":"31.20886","category":"55","category_name":"中学","address":"浦东新区齐爱路646号"},{"poiid":"B2094654DA6AABF4419B","title":"万馨佳园","lon":"121.67354","lat":"31.192419","category":"47","category_name":"住宅区","address":"新德西路207弄"},{"poiid":"B2094654DA6AAAFD449E","title":"唐镇小学","lon":"121.65505","lat":"31.20651","category":"56","category_name":"小学","address":"唐兴路439号"},{"poiid":"B2094654DA6AAAF5439C","title":"东唐苑","lon":"121.65368","lat":"31.209255","category":"47","category_name":"住宅区","address":"上海唐镇路320弄"},{"poiid":"B2094655D265ABF54398","title":"保利金色唐城","lon":"121.66432279916","lat":"31.210350014629","category":"47","category_name":"住宅区","address":"上海市浦东新区创新西路75弄"},{"poiid":"B2094750D768A7F9499C","title":"爵鼎鸡(唐安路店)","lon":"121.655","lat":"31.2037","category":"68","category_name":"快餐厅","address":"浦东新区唐镇唐安路1052-1058号(近创新西路)"},{"poiid":"B2094757D16EA0F84692","title":"盛唐府邸","lon":"121.65809208","lat":"31.204972527","category":"500","category_name":"未知分类","address":"上海市浦东新区创新西路28弄16号"},{"poiid":"B2094752D76AA6FB4693","title":"龙阳路地铁站","lon":"121.660666","lat":"31.211","category":"36","category_name":"地铁站","address":null},{"poiid":"B2094757D66EA6FB409D","title":"唐镇社区卫生服务中心","lon":"121.660797385","lat":"31.2052437333","category":"500","category_name":"未知分类","address":"上海创新中路"},{"poiid":"B2094757D164A6FD409F","title":"学校","lon":"121.659774","lat":"31.197994","category":"500","category_name":"未知分类","address":"上海民远学院"},{"poiid":"B2094757D16DA6FA449D","title":"黑暗料理界","lon":"121.65785208","lat":"31.200647432","category":"247","category_name":"餐饮美食","address":"上海市浦东新区创新西路"},{"poiid":"B2094654DA6AA5F44799","title":"南外滩花园","lon":"121.65717","lat":"31.204578","category":"47","category_name":"住宅区","address":"创新中路"},{"poiid":"B2094757D768AAFB4393","title":"Venice面包蛋糕咖啡","lon":"121.654439","lat":"31.209447","category":"67","category_name":"甜品店","address":"浦东新区唐镇路354号(唐镇路邮局对面)"},{"poiid":"B2094654DB64A6FF4799","title":"中国移动唐镇营业厅","lon":"121.65652","lat":"31.20698","category":"151","category_name":"电讯营业厅","address":"浦东新区唐兴路488-494号1层"},{"poiid":"B2094655D36CA7F5469B","title":"顾唐路创新中路","lon":"121.66822","lat":"31.2098","category":"38","category_name":"公交车站","address":""},{"poiid":"B2094757D164A7F5479E","title":"复旦大学光华楼西主楼10楼","lon":"121.66602168","lat":"31.209501926","category":"500","category_name":"未知分类","address":"上海邯郸路220号复旦大学光华楼"},{"poiid":"B2094654DA6AAAF54799","title":"唐欣苑","lon":"121.65605","lat":"31.205748","category":"47","category_name":"住宅区","address":"唐兴路436弄"},{"poiid":"B2094654DA6AAAF5459D","title":"鑫唐佳苑","lon":"121.65543","lat":"31.203997","category":"47","category_name":"住宅区","address":"唐安路1047弄"},{"poiid":"B2094757D16CA5FA4499","title":"♥けぁいうえ鮭鮭魚滴书房(*¯︶¯*)♥","lon":"121.66479998","lat":"31.205534239","category":"249","category_name":"购物服务","address":null},{"poiid":"B2094757D66DA0F4439E","title":"ORBIS","lon":"121.66486178","lat":"31.205525839","category":"500","category_name":"未知分类","address":"上海中山公园龙之梦2楼2035"},{"poiid":"B2094654DA6AAAFD449D","title":"浦东唐镇佳丽百货商场","lon":"121.65575","lat":"31.20956","category":"119","category_name":"商场","address":"唐镇"},{"poiid":"B2094757D16AA4FF469E","title":"♥えういぁけ鮭鮭魚魔兽ing♥","lon":"121.664799985","lat":"31.2055342397","category":"500","category_name":"未知分类","address":"上海♥えういぁけ鮭鮭魚书房笔记本电脑前♥"},{"poiid":"B2094654DA6AAAFD469B","title":"东菱花苑","lon":"121.65678","lat":"31.204088","category":"47","category_name":"住宅区","address":"创新西路76号"},{"poiid":"B2094757D165A5FF469F","title":"得利酒店","lon":"121.66810808","lat":"31.209185619","category":"76","category_name":"上海菜","address":"上海市浦东新区唐兴路"},{"poiid":"B2094654DA6AAAFD479F","title":"上海浦东新区唐安敬老院","lon":"121.65975","lat":"31.20567","category":"615","category_name":"敬老院","address":""},{"poiid":"B2094654DA6AA5F5429A","title":"佳乐商场","lon":"121.65726","lat":"31.20282","category":"119","category_name":"商场","address":"唐陆路3343号"},{"poiid":"B2094655D26BA1F8449A","title":"南曹","lon":"121.66075","lat":"31.20117","category":"38","category_name":"公交车站","address":""},{"poiid":"B2094757D16FA1FB479A","title":"王港中学","lon":"121.65526","lat":"31.20775","category":"55","category_name":"中学","address":"上海浦东新区唐镇王港龙东大道5237号  "},{"poiid":"B2094757D06FA7F5489D","title":"唐镇地铁站","lon":"121.655261389","lat":"31.2132715098","category":"36","category_name":"地铁站","address":"上海轨道交通 二号线 轨交塘镇站 2"},{"poiid":"B2094655D36DA6FE4698","title":"唐镇","lon":"121.65525","lat":"31.21328","category":"38","category_name":"公交车站","address":""},{"poiid":"B2094654DA6AAAFD489D","title":"绿波城","lon":"121.66481","lat":"31.209545","category":"47","category_name":"住宅区","address":"创新中路258号"},{"poiid":"B2094757D06FA3F44799","title":"华夏东路地铁站","lon":"121.67645614","lat":"31.196494693","category":"36","category_name":"地铁站","address":"上海轨道交通 二号线 轨交华夏东路站 2"},{"poiid":"B2094654DA6AAAFD4699","title":"上海民远职业技术学院","lon":"121.66107","lat":"31.19932","category":"671","category_name":"高校中心点","address":"浦东新区唐陆公路3892号(近华夏东路)"},{"poiid":"B2094757D068A7FA469F","title":"金唐公寓","lon":"121.65786","lat":"31.202555","category":"500","category_name":"未知分类","address":"创新西路75弄1-136号"},{"poiid":"B2094655D265ABF9499B","title":"保利金爵公寓(一期)","lon":"121.651128","lat":"31.206772","category":"47","category_name":"住宅区","address":"浦东新区创新西路75弄131号B座"},{"poiid":"B2094757D069A3F9479C","title":"唐镇天主教堂","lon":"121.65758514","lat":"31.201940536","category":"245","category_name":"教堂","address":"上海唐陆路"},{"poiid":"B2094757D06FA5FF4692","title":"金利公寓","lon":"121.66344","lat":"31.2026","category":"47","category_name":"住宅区","address":"上海南曹路901弄"},{"poiid":"B2094757D06AA5FA489D","title":"永安公墓","lon":"121.666467005","lat":"31.195946669","category":"620","category_name":"丧葬","address":"浦东新区川沙镇唐陆公路(近华夏东路)"},{"poiid":"B2094757D065A5F8409E","title":"华夏公园","lon":"121.65080441079522","lat":"31.192232339010502","category":"196","category_name":"公园","address":"上海华夏东路185号"},{"poiid":"B2094655D264A6FD449A","title":"齐爱佳苑","lon":"121.6618","lat":"31.206957","category":"47","category_name":"住宅区","address":"上海市宝山区新二路183弄"},{"poiid":"B2094757D06BA3FD409E","title":"瀚盛家园","lon":"121.65532","lat":"31.200581","category":"47","category_name":"住宅区","address":"上海浦东新区创新西路199弄"},{"poiid":"B2094655D36CA5FD439D","title":"创新中路齐爱路","lon":"121.66386","lat":"31.20711","category":"38","category_name":"公交车站","address":""},{"poiid":"B2094654DA6AAAFD429D","title":"唐人苑","lon":"121.64923","lat":"31.208265","category":"47","category_name":"住宅区","address":"唐镇路127弄"},{"poiid":"B2094757D068AAFD4392","title":"创新中路地铁站","lon":"121.664993","lat":"31.214909","category":"36","category_name":"地铁站","address":"上海轨道交通,二号线,轨交创新中路站,2"},{"poiid":"B2094655D26BA7FC459D","title":"保利金利公寓","lon":"121.665","lat":"31.2106","category":"47","category_name":"住宅区","address":"创新西路唐陆路口"},{"poiid":"B2094750D768A3F84399","title":"川悦食空","lon":"121.655","lat":"31.2048","category":"71","category_name":"四川菜","address":"浦东新区唐安路1008号(唐兴路口)"},{"poiid":"B2094655D36CA0FB4593","title":"机口村","lon":"121.66283","lat":"31.20693","category":"38","category_name":"公交车站","address":""},{"poiid":"B2094654DA6AAAFD4792","title":"上海市浦东新区唐镇卫生院","lon":"121.66007","lat":"31.20582","category":"162","category_name":"医院","address":"创新中路566号"},{"poiid":"B2094750D56AA0FF449A","title":"保利御樽苑","lon":"121.65776","lat":"31.210739","category":"47","category_name":"住宅区","address":"上海市浦东新区唐兴路"},{"poiid":"B2094654DA6AAAFD4499","title":"浦东唐墓桥露德圣母堂","lon":"121.65727","lat":"31.20935","category":"244","category_name":"寺庙道观","address":"浦东新区东唐镇40号"},{"poiid":"B2094654DA6AAAFD4393","title":"唐镇中学","lon":"121.65885","lat":"31.20886","category":"55","category_name":"中学","address":"浦东新区齐爱路646号"},{"poiid":"B2094654DA6AABF4419B","title":"万馨佳园","lon":"121.67354","lat":"31.192419","category":"47","category_name":"住宅区","address":"新德西路207弄"},{"poiid":"B2094654DA6AAAFD449E","title":"唐镇小学","lon":"121.65505","lat":"31.20651","category":"56","category_name":"小学","address":"唐兴路439号"},{"poiid":"B2094654DA6AAAF5439C","title":"东唐苑","lon":"121.65368","lat":"31.209255","category":"47","category_name":"住宅区","address":"上海唐镇路320弄"},{"poiid":"B2094655D265ABF54398","title":"保利金色唐城","lon":"121.66432279916","lat":"31.210350014629","category":"47","category_name":"住宅区","address":"上海市浦东新区创新西路75弄"},{"poiid":"B2094750D768A7F9499C","title":"爵鼎鸡(唐安路店)","lon":"121.655","lat":"31.2037","category":"68","category_name":"快餐厅","address":"浦东新区唐镇唐安路1052-1058号(近创新西路)"},{"poiid":"B2094757D16EA0F84692","title":"盛唐府邸","lon":"121.65809208","lat":"31.204972527","category":"500","category_name":"未知分类","address":"上海市浦东新区创新西路28弄16号"},{"poiid":"B2094752D76AA6FB4693","title":"龙阳路地铁站","lon":"121.660666","lat":"31.211","category":"36","category_name":"地铁站","address":null},{"poiid":"B2094757D66EA6FB409D","title":"唐镇社区卫生服务中心","lon":"121.660797385","lat":"31.2052437333","category":"500","category_name":"未知分类","address":"上海创新中路"},{"poiid":"B2094757D164A6FD409F","title":"学校","lon":"121.659774","lat":"31.197994","category":"500","category_name":"未知分类","address":"上海民远学院"},{"poiid":"B2094757D16DA6FA449D","title":"黑暗料理界","lon":"121.65785208","lat":"31.200647432","category":"247","category_name":"餐饮美食","address":"上海市浦东新区创新西路"},{"poiid":"B2094654DA6AA5F44799","title":"南外滩花园","lon":"121.65717","lat":"31.204578","category":"47","category_name":"住宅区","address":"创新中路"},{"poiid":"B2094757D768AAFB4393","title":"Venice面包蛋糕咖啡","lon":"121.654439","lat":"31.209447","category":"67","category_name":"甜品店","address":"浦东新区唐镇路354号(唐镇路邮局对面)"},{"poiid":"B2094654DB64A6FF4799","title":"中国移动唐镇营业厅","lon":"121.65652","lat":"31.20698","category":"151","category_name":"电讯营业厅","address":"浦东新区唐兴路488-494号1层"},{"poiid":"B2094655D36CA7F5469B","title":"顾唐路创新中路","lon":"121.66822","lat":"31.2098","category":"38","category_name":"公交车站","address":""},{"poiid":"B2094757D164A7F5479E","title":"复旦大学光华楼西主楼10楼","lon":"121.66602168","lat":"31.209501926","category":"500","category_name":"未知分类","address":"上海邯郸路220号复旦大学光华楼"},{"poiid":"B2094654DA6AAAF54799","title":"唐欣苑","lon":"121.65605","lat":"31.205748","category":"47","category_name":"住宅区","address":"唐兴路436弄"},{"poiid":"B2094654DA6AAAF5459D","title":"鑫唐佳苑","lon":"121.65543","lat":"31.203997","category":"47","category_name":"住宅区","address":"唐安路1047弄"},{"poiid":"B2094757D16CA5FA4499","title":"♥けぁいうえ鮭鮭魚滴书房(*¯︶¯*)♥","lon":"121.66479998","lat":"31.205534239","category":"249","category_name":"购物服务","address":null},{"poiid":"B2094757D66DA0F4439E","title":"ORBIS","lon":"121.66486178","lat":"31.205525839","category":"500","category_name":"未知分类","address":"上海中山公园龙之梦2楼2035"},{"poiid":"B2094654DA6AAAFD449D","title":"浦东唐镇佳丽百货商场","lon":"121.65575","lat":"31.20956","category":"119","category_name":"商场","address":"唐镇"},{"poiid":"B2094757D16AA4FF469E","title":"♥えういぁけ鮭鮭魚魔兽ing♥","lon":"121.664799985","lat":"31.2055342397","category":"500","category_name":"未知分类","address":"上海♥えういぁけ鮭鮭魚书房笔记本电脑前♥"},{"poiid":"B2094654DA6AAAFD469B","title":"东菱花苑","lon":"121.65678","lat":"31.204088","category":"47","category_name":"住宅区","address":"创新西路76号"},{"poiid":"B2094757D165A5FF469F","title":"得利酒店","lon":"121.66810808","lat":"31.209185619","category":"76","category_name":"上海菜","address":"上海市浦东新区唐兴路"},{"poiid":"B2094654DA6AAAFD479F","title":"上海浦东新区唐安敬老院","lon":"121.65975","lat":"31.20567","category":"615","category_name":"敬老院","address":""},{"poiid":"B2094654DA6AA5F5429A","title":"佳乐商场","lon":"121.65726","lat":"31.20282","category":"119","category_name":"商场","address":"唐陆路3343号"},{"poiid":"B2094655D26BA1F8449A","title":"南曹","lon":"121.66075","lat":"31.20117","category":"38","category_name":"公交车站","address":""},{"poiid":"B2094757D16FA1FB479A","title":"王港中学","lon":"121.65526","lat":"31.20775","category":"55","category_name":"中学","address":"上海浦东新区唐镇王港龙东大道5237号  "},{"poiid":"B2094757D06FA7F5489D","title":"唐镇地铁站","lon":"121.655261389","lat":"31.2132715098","category":"36","category_name":"地铁站","address":"上海轨道交通 二号线 轨交塘镇站 2"},{"poiid":"B2094655D36DA6FE4698","title":"唐镇","lon":"121.65525","lat":"31.21328","category":"38","category_name":"公交车站","address":""},{"poiid":"B2094654DA6AAAFD489D","title":"绿波城","lon":"121.66481","lat":"31.209545","category":"47","category_name":"住宅区","address":"创新中路258号"},{"poiid":"B2094757D06FA3F44799","title":"华夏东路地铁站","lon":"121.67645614","lat":"31.196494693","category":"36","category_name":"地铁站","address":"上海轨道交通 二号线 轨交华夏东路站 2"},{"poiid":"B2094654DA6AAAFD4699","title":"上海民远职业技术学院","lon":"121.66107","lat":"31.19932","category":"671","category_name":"高校中心点","address":"浦东新区唐陆公路3892号(近华夏东路)"},{"poiid":"B2094757D068A7FA469F","title":"金唐公寓","lon":"121.65786","lat":"31.202555","category":"500","category_name":"未知分类","address":"创新西路75弄1-136号"},{"poiid":"B2094655D265ABF9499B","title":"保利金爵公寓(一期)","lon":"121.651128","lat":"31.206772","category":"47","category_name":"住宅区","address":"浦东新区创新西路75弄131号B座"},{"poiid":"B2094757D069A3F9479C","title":"唐镇天主教堂","lon":"121.65758514","lat":"31.201940536","category":"245","category_name":"教堂","address":"上海唐陆路"},{"poiid":"B2094757D06FA5FF4692","title":"金利公寓","lon":"121.66344","lat":"31.2026","category":"47","category_name":"住宅区","address":"上海南曹路901弄"},{"poiid":"B2094757D06AA5FA489D","title":"永安公墓","lon":"121.666467005","lat":"31.195946669","category":"620","category_name":"丧葬","address":"浦东新区川沙镇唐陆公路(近华夏东路)"},{"poiid":"B2094757D065A5F8409E","title":"华夏公园","lon":"121.65080441079522","lat":"31.192232339010502","category":"196","category_name":"公园","address":"上海华夏东路185号"},{"poiid":"B2094655D264A6FD449A","title":"齐爱佳苑","lon":"121.6618","lat":"31.206957","category":"47","category_name":"住宅区","address":"上海市宝山区新二路183弄"},{"poiid":"B2094757D06BA3FD409E","title":"瀚盛家园","lon":"121.65532","lat":"31.200581","category":"47","category_name":"住宅区","address":"上海浦东新区创新西路199弄"},{"poiid":"B2094655D36CA5FD439D","title":"创新中路齐爱路","lon":"121.66386","lat":"31.20711","category":"38","category_name":"公交车站","address":""},{"poiid":"B2094654DA6AAAFD429D","title":"唐人苑","lon":"121.64923","lat":"31.208265","category":"47","category_name":"住宅区","address":"唐镇路127弄"},{"poiid":"B2094757D068AAFD4392","title":"创新中路地铁站","lon":"121.664993","lat":"31.214909","category":"36","category_name":"地铁站","address":"上海轨道交通,二号线,轨交创新中路站,2"},{"poiid":"B2094655D26BA7FC459D","title":"保利金利公寓","lon":"121.665","lat":"31.2106","category":"47","category_name":"住宅区","address":"创新西路唐陆路口"},{"poiid":"B2094750D768A3F84399","title":"川悦食空","lon":"121.655","lat":"31.2048","category":"71","category_name":"四川菜","address":"浦东新区唐安路1008号(唐兴路口)"},{"poiid":"B2094655D36CA0FB4593","title":"机口村","lon":"121.66283","lat":"31.20693","category":"38","category_name":"公交车站","address":""},{"poiid":"B2094654DA6AAAFD4792","title":"上海市浦东新区唐镇卫生院","lon":"121.66007","lat":"31.20582","category":"162","category_name":"医院","address":"创新中路566号"},{"poiid":"B2094750D56AA0FF449A","title":"保利御樽苑","lon":"121.65776","lat":"31.210739","category":"47","category_name":"住宅区","address":"上海市浦东新区唐兴路"},{"poiid":"B2094654DA6AAAFD4499","title":"浦东唐墓桥露德圣母堂","lon":"121.65727","lat":"31.20935","category":"244","category_name":"寺庙道观","address":"浦东新区东唐镇40号"},{"poiid":"B2094654DA6AAAFD4393","title":"唐镇中学","lon":"121.65885","lat":"31.20886","category":"55","category_name":"中学","address":"浦东新区齐爱路646号"},{"poiid":"B2094654DA6AABF4419B","title":"万馨佳园","lon":"121.67354","lat":"31.192419","category":"47","category_name":"住宅区","address":"新德西路207弄"},{"poiid":"B2094654DA6AAAFD449E","title":"唐镇小学","lon":"121.65505","lat":"31.20651","category":"56","category_name":"小学","address":"唐兴路439号"},{"poiid":"B2094654DA6AAAF5439C","title":"东唐苑","lon":"121.65368","lat":"31.209255","category":"47","category_name":"住宅区","address":"上海唐镇路320弄"},{"poiid":"B2094655D265ABF54398","title":"保利金色唐城","lon":"121.66432279916","lat":"31.210350014629","category":"47","category_name":"住宅区","address":"上海市浦东新区创新西路75弄"},{"poiid":"B2094750D768A7F9499C","title":"爵鼎鸡(唐安路店)","lon":"121.655","lat":"31.2037","category":"68","category_name":"快餐厅","address":"浦东新区唐镇唐安路1052-1058号(近创新西路)"},{"poiid":"B2094757D16EA0F84692","title":"盛唐府邸","lon":"121.65809208","lat":"31.204972527","category":"500","category_name":"未知分类","address":"上海市浦东新区创新西路28弄16号"},{"poiid":"B2094752D76AA6FB4693","title":"龙阳路地铁站","lon":"121.660666","lat":"31.211","category":"36","category_name":"地铁站","address":null},{"poiid":"B2094757D66EA6FB409D","title":"唐镇社区卫生服务中心","lon":"121.660797385","lat":"31.2052437333","category":"500","category_name":"未知分类","address":"上海创新中路"},{"poiid":"B2094757D164A6FD409F","title":"学校","lon":"121.659774","lat":"31.197994","category":"500","category_name":"未知分类","address":"上海民远学院"},{"poiid":"B2094757D16DA6FA449D","title":"黑暗料理界","lon":"121.65785208","lat":"31.200647432","category":"247","category_name":"餐饮美食","address":"上海市浦东新区创新西路"},{"poiid":"B2094654DA6AA5F44799","title":"南外滩花园","lon":"121.65717","lat":"31.204578","category":"47","category_name":"住宅区","address":"创新中路"},{"poiid":"B2094757D768AAFB4393","title":"Venice面包蛋糕咖啡","lon":"121.654439","lat":"31.209447","category":"67","category_name":"甜品店","address":"浦东新区唐镇路354号(唐镇路邮局对面)"},{"poiid":"B2094654DB64A6FF4799","title":"中国移动唐镇营业厅","lon":"121.65652","lat":"31.20698","category":"151","category_name":"电讯营业厅","address":"浦东新区唐兴路488-494号1层"},{"poiid":"B2094655D36CA7F5469B","title":"顾唐路创新中路","lon":"121.66822","lat":"31.2098","category":"38","category_name":"公交车站","address":""},{"poiid":"B2094757D164A7F5479E","title":"复旦大学光华楼西主楼10楼","lon":"121.66602168","lat":"31.209501926","category":"500","category_name":"未知分类","address":"上海邯郸路220号复旦大学光华楼"},{"poiid":"B2094654DA6AAAF54799","title":"唐欣苑","lon":"121.65605","lat":"31.205748","category":"47","category_name":"住宅区","address":"唐兴路436弄"},{"poiid":"B2094654DA6AAAF5459D","title":"鑫唐佳苑","lon":"121.65543","lat":"31.203997","category":"47","category_name":"住宅区","address":"唐安路1047弄"},{"poiid":"B2094757D16CA5FA4499","title":"♥けぁいうえ鮭鮭魚滴书房(*¯︶¯*)♥","lon":"121.66479998","lat":"31.205534239","category":"249","category_name":"购物服务","address":null},{"poiid":"B2094757D66DA0F4439E","title":"ORBIS","lon":"121.66486178","lat":"31.205525839","category":"500","category_name":"未知分类","address":"上海中山公园龙之梦2楼2035"},{"poiid":"B2094654DA6AAAFD449D","title":"浦东唐镇佳丽百货商场","lon":"121.65575","lat":"31.20956","category":"119","category_name":"商场","address":"唐镇"},{"poiid":"B2094757D16AA4FF469E","title":"♥えういぁけ鮭鮭魚魔兽ing♥","lon":"121.664799985","lat":"31.2055342397","category":"500","category_name":"未知分类","address":"上海♥えういぁけ鮭鮭魚书房笔记本电脑前♥"},{"poiid":"B2094654DA6AAAFD469B","title":"东菱花苑","lon":"121.65678","lat":"31.204088","category":"47","category_name":"住宅区","address":"创新西路76号"},{"poiid":"B2094757D165A5FF469F","title":"得利酒店","lon":"121.66810808","lat":"31.209185619","category":"76","category_name":"上海菜","address":"上海市浦东新区唐兴路"},{"poiid":"B2094654DA6AAAFD479F","title":"上海浦东新区唐安敬老院","lon":"121.65975","lat":"31.20567","category":"615","category_name":"敬老院","address":""},{"poiid":"B2094654DA6AA5F5429A","title":"佳乐商场","lon":"121.65726","lat":"31.20282","category":"119","category_name":"商场","address":"唐陆路3343号"},{"poiid":"B2094655D26BA1F8449A","title":"南曹","lon":"121.66075","lat":"31.20117","category":"38","category_name":"公交车站","address":""},{"poiid":"B2094757D16FA1FB479A","title":"王港中学","lon":"121.65526","lat":"31.20775","category":"55","category_name":"中学","address":"上海浦东新区唐镇王港龙东大道5237号  "}]