[{"poiid":"B2094654DB65A7F44198","title":"东方商厦嘉定店","lon":"121.24848","lat":"31.38053","category":"119","category_name":"商场","address":"嘉定区城中路66号(近塔城路)"},{"poiid":"B2094757D06FA6F54699","title":"嘉定影剧院","lon":"121.24771","lat":"31.38297","category":"178","category_name":"电影院","address":"嘉定区城中路149号(城中路人民街)"},{"poiid":"B2094757D06FA7FD419B","title":"州桥老街","lon":"121.249934","lat":"31.384100346","category":"260","category_name":"其他","address":"嘉定区法华塔附近(近塔城路)"},{"poiid":"B2094757D16CA5FA4892","title":"上海大学嘉定校区图书馆","lon":"121.24746365","lat":"31.376962769","category":"181","category_name":"图书馆","address":"嘉定区城中路20号上海大学内"},{"poiid":"B2094757D068AAFA469C","title":"新王府酒店(塔城路店)","lon":"121.24585","lat":"31.3775","category":"72","category_name":"广东菜","address":"嘉定区塔城路455号(梅园路口)"},{"poiid":"B2094757D068A5FC4993","title":"文涛茶餐厅(嘉定店)","lon":"121.24628","lat":"31.38288","category":"72","category_name":"广东菜","address":"嘉定区清河路111号(近城中路)"},{"poiid":"B2094757D06BA3FF469B","title":"上海大学嘉定校区悉尼工商学院文达楼","lon":"121.248172721","lat":"31.3781024483","category":"500","category_name":"未知分类","address":"上海嘉定区嘉定城中路20号上海大学嘉定校区"},{"poiid":"B2094757D069A7FF489F","title":"中国银行(嘉定支行)","lon":"121.24748","lat":"31.37851","category":"150","category_name":"银行","address":"嘉定区塔城路451号"},{"poiid":"B2094757D06AABF9419E","title":"中国建设银行(嘉定支行)","lon":"121.2484","lat":"31.37904","category":"46","category_name":"楼宇","address":"上海近郊嘉定区塔城路365号  "},{"poiid":"B2094757D16CA6FF449F","title":"中国农业银行(嘉定支行)","lon":"121.24910534","lat":"31.379893526","category":"150","category_name":"银行","address":"上海嘉定区塔城路355号"},{"poiid":"B2094757D06BA5F4419A","title":"百度烤肉","lon":"121.24607","lat":"31.38352","category":"68","category_name":"快餐厅","address":"嘉定区城中路136弄33号罗宾森广场步行街(城中路清河路)"},{"poiid":"B2094655D26FABFC4198","title":"上海大学(泮苑宾馆西)","lon":"121.24619","lat":"31.37824","category":"52","category_name":"高等院校","address":"塔城路453"},{"poiid":"B2094751D264A6F4449C","title":"嘉定.清河路.必胜客","lon":"121.24784","lat":"31.3844072","category":"500","category_name":"未知分类","address":null},{"poiid":"B2094654DB6AA6F5429C","title":"嘉定营业厅","lon":"121.24683","lat":"31.38408","category":"151","category_name":"电讯营业厅","address":"嘉定区嘉定城中路153弄1号"},{"poiid":"B2094757D06BA7F44699","title":"塔城小区","lon":"121.25045","lat":"31.380217","category":"252","category_name":"楼宇机构","address":"塔城路341弄"},{"poiid":"B2094757D16CA3FA4692","title":"研磨工坊","lon":"121.248923653","lat":"31.3835369032","category":"113","category_name":"冷饮店","address":"嘉定区清河路88弄11号(近州桥)"},{"poiid":"B2094757D66CA7FB4793","title":"上海大学联合图书馆","lon":"121.249980553","lat":"31.3787156054","category":"181","category_name":"图书馆","address":"上海市嘉定区"},{"poiid":"B2094655D26FA3FC4992","title":"中国电信(张马路营业厅)","lon":"121.24949","lat":"31.38235","category":"151","category_name":"电讯营业厅","address":"嘉定区张马路44号"},{"poiid":"B2094654D469A3F4469D","title":"中国农业银行嘉定支行营业部","lon":"121.24935","lat":"31.37984","category":"150","category_name":"银行","address":"上海市嘉定区镇塔城路355号"},{"poiid":"B2094654D469A2F4419E","title":"交通银行上海嘉定支行","lon":"121.24839","lat":"31.38096","category":"150","category_name":"银行","address":"嘉定区城中路68号(银城中路口)"},{"poiid":"B2094654DB6AA7F5499E","title":"小囡桥小区","lon":"121.24688","lat":"31.379646","category":"47","category_name":"住宅区","address":"塔城路440弄"},{"poiid":"B2094757D16BA3F5489A","title":"中国银行培训中心(嘉定)","lon":"121.24864665","lat":"31.380105833","category":"253","category_name":"校园生活","address":"上海市嘉定区塔城路451号"},{"poiid":"B2094655D36DA7FD459C","title":"张马路","lon":"121.2483","lat":"31.38167","category":"38","category_name":"公交车站","address":""},{"poiid":"B2094757D16EA1F54799","title":"上海农商银行嘉定支行","lon":"121.248171","lat":"31.37984","category":"150","category_name":"银行","address":"嘉定区塔城路386号"},{"poiid":"B2094757D168A3FC4498","title":"上海银行嘉定支行","lon":"121.248002","lat":"31.379541","category":"150","category_name":"银行","address":"上海嘉定区塔城路388号"},{"poiid":"B2094655D268A3FE459E","title":"嘉城名苑","lon":"121.24695","lat":"31.380493","category":"47","category_name":"住宅区","address":"城中路72弄"},{"poiid":"B2094654D469A2F4439A","title":"阿玛尼","lon":"121.24794","lat":"31.38181","category":"141","category_name":"服装鞋帽皮具店","address":"城中路78号"},{"poiid":"B2094654D469A2F4409D","title":"广远名苑","lon":"121.24732","lat":"31.380104","category":"47","category_name":"住宅区","address":"塔城路428弄"},{"poiid":"B2094757D16BABF8469C","title":"清河路幼儿园","lon":"121.24571465","lat":"31.380677845","category":"57","category_name":"幼儿园","address":"嘉定区塔城路450弄21号"},{"poiid":"B2094757D165A5FC4299","title":"嘉定镇街道社区文化活动中心","lon":"121.247937953","lat":"31.3806958455","category":"500","category_name":"未知分类","address":"上海嘉定区清河路196号"},{"poiid":"B2094655D268A6FE429D","title":"广远名苑(南门)","lon":"121.24768","lat":"31.37956","category":"47","category_name":"住宅区","address":"塔城路428弄"},{"poiid":"B2094654D469A2F44099","title":"嘉定镇街道社区卫生服务中心","lon":"121.24722","lat":"31.37933","category":"162","category_name":"医院","address":"塔城路432"},{"poiid":"B2094655D268A1FC409D","title":"塔城路666弄","lon":"121.24634785897","lat":"31.380145982708","category":"47","category_name":"住宅区","address":"塔城路666弄"},{"poiid":"B2094654D469A2F4409F","title":"中国民生银行上海嘉定支行","lon":"121.24748","lat":"31.37945","category":"150","category_name":"银行","address":"嘉定区嘉定区塔城路430号(新成路塔城东路)"},{"poiid":"B2094757D06AA2FC4193","title":"招商银行(嘉定支行)","lon":"121.2493943","lat":"31.38025","category":"260","category_name":"其他","address":"嘉定区塔城路399号"},{"poiid":"B2094654D469A2F44193","title":"吉的堡少儿英语培训","lon":"121.24825","lat":"31.38138","category":"190","category_name":"培训机构","address":"城中路76号5层"},{"poiid":"B2094757D16BA3FE4092","title":"嘉源小区","lon":"121.24722","lat":"31.379317","category":"47","category_name":"住宅区","address":"上海嘉定镇"},{"poiid":"B2094757D165ABFF4998","title":"阿胡子渔具店","lon":"121.247891653","lat":"31.3800128317","category":"249","category_name":"购物服务","address":"上海嘉定区城中路72弄3「4」号"},{"poiid":"B2094655D264A5F84998","title":"嘉定分公司办公楼","lon":"121.24903","lat":"31.38203","category":"46","category_name":"楼宇","address":"张马路48号"},{"poiid":"B2094654D469A1FC4199","title":"中国工商银行上海市嘉定支行","lon":"121.24461","lat":"31.38246","category":"150","category_name":"银行","address":"嘉定区清河路151号(近梅园路)"},{"poiid":"B2094654D469A1FB419A","title":"六一小区","lon":"121.24983","lat":"31.38121","category":"47","category_name":"住宅区","address":"六一新村1-12号"},{"poiid":"B2094654D469A2F4429E","title":"中国光大银行嘉定支行","lon":"121.24821","lat":"31.38143","category":"150","category_name":"银行","address":"嘉定区嘉定区塔城路453号(上海大学门口)"},{"poiid":"B2094655D26FABFC409F","title":"天主堂(中下塘街)","lon":"121.24663","lat":"31.38166","category":"245","category_name":"教堂","address":"中下塘街99"},{"poiid":"B2094654D469A2F44399","title":"侨心百货","lon":"121.24781","lat":"31.38199","category":"119","category_name":"商场","address":"城中路82"},{"poiid":"B2094654D469A3F4469C","title":"中国农业银行上海嘉定支行","lon":"121.24859","lat":"31.3796","category":"150","category_name":"银行","address":"塔城路355"},{"poiid":"B2094757D465A6FA499F","title":"绿苑鸡","lon":"121.245861054","lat":"31.378878793","category":"68","category_name":"快餐厅","address":"嘉定区仓场路2742号(近迎园路)"},{"poiid":"B2094757D16EAAF9489A","title":"岭南第一锅(城中店)","lon":"121.247338","lat":"31.381819","category":"247","category_name":"餐饮美食","address":"上海嘉定区城中路50号"},{"poiid":"B2094757D66DA2F84492","title":"LEVI'S(塔城路店)","lon":"121.24909","lat":"31.38008","category":"500","category_name":"未知分类","address":"嘉定区塔城路(近城中路)"},{"poiid":"B2094654D469A2F4429B","title":"上海市住房置业担保公司","lon":"121.24825","lat":"31.38138","category":"263","category_name":"公司","address":""},{"poiid":"B2094750D76CA2FF419F","title":"南翔老街特色小吃","lon":"121.245","lat":"31.381","category":"68","category_name":"快餐厅","address":"嘉定区南翔人民街"},{"poiid":"B2094654DB65A7F44198","title":"东方商厦嘉定店","lon":"121.24848","lat":"31.38053","category":"119","category_name":"商场","address":"嘉定区城中路66号(近塔城路)"},{"poiid":"B2094757D06FA6F54699","title":"嘉定影剧院","lon":"121.24771","lat":"31.38297","category":"178","category_name":"电影院","address":"嘉定区城中路149号(城中路人民街)"},{"poiid":"B2094757D06FA7FD419B","title":"州桥老街","lon":"121.249934","lat":"31.384100346","category":"260","category_name":"其他","address":"嘉定区法华塔附近(近塔城路)"},{"poiid":"B2094757D16CA5FA4892","title":"上海大学嘉定校区图书馆","lon":"121.24746365","lat":"31.376962769","category":"181","category_name":"图书馆","address":"嘉定区城中路20号上海大学内"},{"poiid":"B2094757D068AAFA469C","title":"新王府酒店(塔城路店)","lon":"121.24585","lat":"31.3775","category":"72","category_name":"广东菜","address":"嘉定区塔城路455号(梅园路口)"},{"poiid":"B2094757D068A5FC4993","title":"文涛茶餐厅(嘉定店)","lon":"121.24628","lat":"31.38288","category":"72","category_name":"广东菜","address":"嘉定区清河路111号(近城中路)"},{"poiid":"B2094757D06BA3FF469B","title":"上海大学嘉定校区悉尼工商学院文达楼","lon":"121.248172721","lat":"31.3781024483","category":"500","category_name":"未知分类","address":"上海嘉定区嘉定城中路20号上海大学嘉定校区"},{"poiid":"B2094757D069A7FF489F","title":"中国银行(嘉定支行)","lon":"121.24748","lat":"31.37851","category":"150","category_name":"银行","address":"嘉定区塔城路451号"},{"poiid":"B2094757D06AABF9419E","title":"中国建设银行(嘉定支行)","lon":"121.2484","lat":"31.37904","category":"46","category_name":"楼宇","address":"上海近郊嘉定区塔城路365号  "},{"poiid":"B2094757D16CA6FF449F","title":"中国农业银行(嘉定支行)","lon":"121.24910534","lat":"31.379893526","category":"150","category_name":"银行","address":"上海嘉定区塔城路355号"},{"poiid":"B2094757D06BA5F4419A","title":"百度烤肉","lon":"121.24607","lat":"31.38352","category":"68","category_name":"快餐厅","address":"嘉定区城中路136弄33号罗宾森广场步行街(城中路清河路)"},{"poiid":"B2094655D26FABFC4198","title":"上海大学(泮苑宾馆西)","lon":"121.24619","lat":"31.37824","category":"52","category_name":"高等院校","address":"塔城路453"},{"poiid":"B2094751D264A6F4449C","title":"嘉定.清河路.必胜客","lon":"121.24784","lat":"31.3844072","category":"500","category_name":"未知分类","address":null},{"poiid":"B2094654DB6AA6F5429C","title":"嘉定营业厅","lon":"121.24683","lat":"31.38408","category":"151","category_name":"电讯营业厅","address":"嘉定区嘉定城中路153弄1号"},{"poiid":"B2094757D06BA7F44699","title":"塔城小区","lon":"121.25045","lat":"31.380217","category":"252","category_name":"楼宇机构","address":"塔城路341弄"},{"poiid":"B2094757D16CA3FA4692","title":"研磨工坊","lon":"121.248923653","lat":"31.3835369032","category":"113","category_name":"冷饮店","address":"嘉定区清河路88弄11号(近州桥)"},{"poiid":"B2094757D66CA7FB4793","title":"上海大学联合图书馆","lon":"121.249980553","lat":"31.3787156054","category":"181","category_name":"图书馆","address":"上海市嘉定区"},{"poiid":"B2094655D26FA3FC4992","title":"中国电信(张马路营业厅)","lon":"121.24949","lat":"31.38235","category":"151","category_name":"电讯营业厅","address":"嘉定区张马路44号"},{"poiid":"B2094654D469A3F4469D","title":"中国农业银行嘉定支行营业部","lon":"121.24935","lat":"31.37984","category":"150","category_name":"银行","address":"上海市嘉定区镇塔城路355号"},{"poiid":"B2094654D469A2F4419E","title":"交通银行上海嘉定支行","lon":"121.24839","lat":"31.38096","category":"150","category_name":"银行","address":"嘉定区城中路68号(银城中路口)"},{"poiid":"B2094654DB6AA7F5499E","title":"小囡桥小区","lon":"121.24688","lat":"31.379646","category":"47","category_name":"住宅区","address":"塔城路440弄"},{"poiid":"B2094757D16BA3F5489A","title":"中国银行培训中心(嘉定)","lon":"121.24864665","lat":"31.380105833","category":"253","category_name":"校园生活","address":"上海市嘉定区塔城路451号"},{"poiid":"B2094655D36DA7FD459C","title":"张马路","lon":"121.2483","lat":"31.38167","category":"38","category_name":"公交车站","address":""},{"poiid":"B2094757D16EA1F54799","title":"上海农商银行嘉定支行","lon":"121.248171","lat":"31.37984","category":"150","category_name":"银行","address":"嘉定区塔城路386号"},{"poiid":"B2094757D168A3FC4498","title":"上海银行嘉定支行","lon":"121.248002","lat":"31.379541","category":"150","category_name":"银行","address":"上海嘉定区塔城路388号"},{"poiid":"B2094655D268A3FE459E","title":"嘉城名苑","lon":"121.24695","lat":"31.380493","category":"47","category_name":"住宅区","address":"城中路72弄"},{"poiid":"B2094654D469A2F4439A","title":"阿玛尼","lon":"121.24794","lat":"31.38181","category":"141","category_name":"服装鞋帽皮具店","address":"城中路78号"},{"poiid":"B2094654D469A2F4409D","title":"广远名苑","lon":"121.24732","lat":"31.380104","category":"47","category_name":"住宅区","address":"塔城路428弄"},{"poiid":"B2094757D16BABF8469C","title":"清河路幼儿园","lon":"121.24571465","lat":"31.380677845","category":"57","category_name":"幼儿园","address":"嘉定区塔城路450弄21号"},{"poiid":"B2094757D165A5FC4299","title":"嘉定镇街道社区文化活动中心","lon":"121.247937953","lat":"31.3806958455","category":"500","category_name":"未知分类","address":"上海嘉定区清河路196号"},{"poiid":"B2094655D268A6FE429D","title":"广远名苑(南门)","lon":"121.24768","lat":"31.37956","category":"47","category_name":"住宅区","address":"塔城路428弄"},{"poiid":"B2094654D469A2F44099","title":"嘉定镇街道社区卫生服务中心","lon":"121.24722","lat":"31.37933","category":"162","category_name":"医院","address":"塔城路432"},{"poiid":"B2094655D268A1FC409D","title":"塔城路666弄","lon":"121.24634785897","lat":"31.380145982708","category":"47","category_name":"住宅区","address":"塔城路666弄"},{"poiid":"B2094654D469A2F4409F","title":"中国民生银行上海嘉定支行","lon":"121.24748","lat":"31.37945","category":"150","category_name":"银行","address":"嘉定区嘉定区塔城路430号(新成路塔城东路)"},{"poiid":"B2094757D06AA2FC4193","title":"招商银行(嘉定支行)","lon":"121.2493943","lat":"31.38025","category":"260","category_name":"其他","address":"嘉定区塔城路399号"},{"poiid":"B2094654D469A2F44193","title":"吉的堡少儿英语培训","lon":"121.24825","lat":"31.38138","category":"190","category_name":"培训机构","address":"城中路76号5层"},{"poiid":"B2094757D16BA3FE4092","title":"嘉源小区","lon":"121.24722","lat":"31.379317","category":"47","category_name":"住宅区","address":"上海嘉定镇"},{"poiid":"B2094757D165ABFF4998","title":"阿胡子渔具店","lon":"121.247891653","lat":"31.3800128317","category":"249","category_name":"购物服务","address":"上海嘉定区城中路72弄3「4」号"},{"poiid":"B2094655D264A5F84998","title":"嘉定分公司办公楼","lon":"121.24903","lat":"31.38203","category":"46","category_name":"楼宇","address":"张马路48号"},{"poiid":"B2094654D469A1FC4199","title":"中国工商银行上海市嘉定支行","lon":"121.24461","lat":"31.38246","category":"150","category_name":"银行","address":"嘉定区清河路151号(近梅园路)"},{"poiid":"B2094654D469A1FB419A","title":"六一小区","lon":"121.24983","lat":"31.38121","category":"47","category_name":"住宅区","address":"六一新村1-12号"},{"poiid":"B2094654D469A2F4429E","title":"中国光大银行嘉定支行","lon":"121.24821","lat":"31.38143","category":"150","category_name":"银行","address":"嘉定区嘉定区塔城路453号(上海大学门口)"},{"poiid":"B2094655D26FABFC409F","title":"天主堂(中下塘街)","lon":"121.24663","lat":"31.38166","category":"245","category_name":"教堂","address":"中下塘街99"},{"poiid":"B2094654D469A2F44399","title":"侨心百货","lon":"121.24781","lat":"31.38199","category":"119","category_name":"商场","address":"城中路82"},{"poiid":"B2094654D469A3F4469C","title":"中国农业银行上海嘉定支行","lon":"121.24859","lat":"31.3796","category":"150","category_name":"银行","address":"塔城路355"},{"poiid":"B2094757D465A6FA499F","title":"绿苑鸡","lon":"121.245861054","lat":"31.378878793","category":"68","category_name":"快餐厅","address":"嘉定区仓场路2742号(近迎园路)"},{"poiid":"B2094757D16EAAF9489A","title":"岭南第一锅(城中店)","lon":"121.247338","lat":"31.381819","category":"247","category_name":"餐饮美食","address":"上海嘉定区城中路50号"},{"poiid":"B2094757D66DA2F84492","title":"LEVI'S(塔城路店)","lon":"121.24909","lat":"31.38008","category":"500","category_name":"未知分类","address":"嘉定区塔城路(近城中路)"},{"poiid":"B2094654D469A2F4429B","title":"上海市住房置业担保公司","lon":"121.24825","lat":"31.38138","category":"263","category_name":"公司","address":""},{"poiid":"B2094750D76CA2FF419F","title":"南翔老街特色小吃","lon":"121.245","lat":"31.381","category":"68","category_name":"快餐厅","address":"嘉定区南翔人民街"},{"poiid":"B2094654DB65A7F44198","title":"东方商厦嘉定店","lon":"121.24848","lat":"31.38053","category":"119","category_name":"商场","address":"嘉定区城中路66号(近塔城路)"},{"poiid":"B2094757D06FA6F54699","title":"嘉定影剧院","lon":"121.24771","lat":"31.38297","category":"178","category_name":"电影院","address":"嘉定区城中路149号(城中路人民街)"},{"poiid":"B2094757D06FA7FD419B","title":"州桥老街","lon":"121.249934","lat":"31.384100346","category":"260","category_name":"其他","address":"嘉定区法华塔附近(近塔城路)"},{"poiid":"B2094757D16CA5FA4892","title":"上海大学嘉定校区图书馆","lon":"121.24746365","lat":"31.376962769","category":"181","category_name":"图书馆","address":"嘉定区城中路20号上海大学内"},{"poiid":"B2094757D068AAFA469C","title":"新王府酒店(塔城路店)","lon":"121.24585","lat":"31.3775","category":"72","category_name":"广东菜","address":"嘉定区塔城路455号(梅园路口)"},{"poiid":"B2094757D068A5FC4993","title":"文涛茶餐厅(嘉定店)","lon":"121.24628","lat":"31.38288","category":"72","category_name":"广东菜","address":"嘉定区清河路111号(近城中路)"},{"poiid":"B2094757D06BA3FF469B","title":"上海大学嘉定校区悉尼工商学院文达楼","lon":"121.248172721","lat":"31.3781024483","category":"500","category_name":"未知分类","address":"上海嘉定区嘉定城中路20号上海大学嘉定校区"},{"poiid":"B2094757D069A7FF489F","title":"中国银行(嘉定支行)","lon":"121.24748","lat":"31.37851","category":"150","category_name":"银行","address":"嘉定区塔城路451号"},{"poiid":"B2094757D06AABF9419E","title":"中国建设银行(嘉定支行)","lon":"121.2484","lat":"31.37904","category":"46","category_name":"楼宇","address":"上海近郊嘉定区塔城路365号  "},{"poiid":"B2094757D16CA6FF449F","title":"中国农业银行(嘉定支行)","lon":"121.24910534","lat":"31.379893526","category":"150","category_name":"银行","address":"上海嘉定区塔城路355号"},{"poiid":"B2094757D06BA5F4419A","title":"百度烤肉","lon":"121.24607","lat":"31.38352","category":"68","category_name":"快餐厅","address":"嘉定区城中路136弄33号罗宾森广场步行街(城中路清河路)"},{"poiid":"B2094655D26FABFC4198","title":"上海大学(泮苑宾馆西)","lon":"121.24619","lat":"31.37824","category":"52","category_name":"高等院校","address":"塔城路453"},{"poiid":"B2094751D264A6F4449C","title":"嘉定.清河路.必胜客","lon":"121.24784","lat":"31.3844072","category":"500","category_name":"未知分类","address":null},{"poiid":"B2094654DB6AA6F5429C","title":"嘉定营业厅","lon":"121.24683","lat":"31.38408","category":"151","category_name":"电讯营业厅","address":"嘉定区嘉定城中路153弄1号"},{"poiid":"B2094757D06BA7F44699","title":"塔城小区","lon":"121.25045","lat":"31.380217","category":"252","category_name":"楼宇机构","address":"塔城路341弄"},{"poiid":"B2094757D16CA3FA4692","title":"研磨工坊","lon":"121.248923653","lat":"31.3835369032","category":"113","category_name":"冷饮店","address":"嘉定区清河路88弄11号(近州桥)"},{"poiid":"B2094757D66CA7FB4793","title":"上海大学联合图书馆","lon":"121.249980553","lat":"31.3787156054","category":"181","category_name":"图书馆","address":"上海市嘉定区"},{"poiid":"B2094655D26FA3FC4992","title":"中国电信(张马路营业厅)","lon":"121.24949","lat":"31.38235","category":"151","category_name":"电讯营业厅","address":"嘉定区张马路44号"},{"poiid":"B2094654D469A3F4469D","title":"中国农业银行嘉定支行营业部","lon":"121.24935","lat":"31.37984","category":"150","category_name":"银行","address":"上海市嘉定区镇塔城路355号"},{"poiid":"B2094654D469A2F4419E","title":"交通银行上海嘉定支行","lon":"121.24839","lat":"31.38096","category":"150","category_name":"银行","address":"嘉定区城中路68号(银城中路口)"},{"poiid":"B2094654DB6AA7F5499E","title":"小囡桥小区","lon":"121.24688","lat":"31.379646","category":"47","category_name":"住宅区","address":"塔城路440弄"},{"poiid":"B2094757D16BA3F5489A","title":"中国银行培训中心(嘉定)","lon":"121.24864665","lat":"31.380105833","category":"253","category_name":"校园生活","address":"上海市嘉定区塔城路451号"},{"poiid":"B2094655D36DA7FD459C","title":"张马路","lon":"121.2483","lat":"31.38167","category":"38","category_name":"公交车站","address":""},{"poiid":"B2094757D16EA1F54799","title":"上海农商银行嘉定支行","lon":"121.248171","lat":"31.37984","category":"150","category_name":"银行","address":"嘉定区塔城路386号"},{"poiid":"B2094757D168A3FC4498","title":"上海银行嘉定支行","lon":"121.248002","lat":"31.379541","category":"150","category_name":"银行","address":"上海嘉定区塔城路388号"},{"poiid":"B2094655D268A3FE459E","title":"嘉城名苑","lon":"121.24695","lat":"31.380493","category":"47","category_name":"住宅区","address":"城中路72弄"},{"poiid":"B2094654D469A2F4439A","title":"阿玛尼","lon":"121.24794","lat":"31.38181","category":"141","category_name":"服装鞋帽皮具店","address":"城中路78号"},{"poiid":"B2094654D469A2F4409D","title":"广远名苑","lon":"121.24732","lat":"31.380104","category":"47","category_name":"住宅区","address":"塔城路428弄"},{"poiid":"B2094757D16BABF8469C","title":"清河路幼儿园","lon":"121.24571465","lat":"31.380677845","category":"57","category_name":"幼儿园","address":"嘉定区塔城路450弄21号"},{"poiid":"B2094757D165A5FC4299","title":"嘉定镇街道社区文化活动中心","lon":"121.247937953","lat":"31.3806958455","category":"500","category_name":"未知分类","address":"上海嘉定区清河路196号"},{"poiid":"B2094655D268A6FE429D","title":"广远名苑(南门)","lon":"121.24768","lat":"31.37956","category":"47","category_name":"住宅区","address":"塔城路428弄"},{"poiid":"B2094654D469A2F44099","title":"嘉定镇街道社区卫生服务中心","lon":"121.24722","lat":"31.37933","category":"162","category_name":"医院","address":"塔城路432"},{"poiid":"B2094655D268A1FC409D","title":"塔城路666弄","lon":"121.24634785897","lat":"31.380145982708","category":"47","category_name":"住宅区","address":"塔城路666弄"},{"poiid":"B2094654D469A2F4409F","title":"中国民生银行上海嘉定支行","lon":"121.24748","lat":"31.37945","category":"150","category_name":"银行","address":"嘉定区嘉定区塔城路430号(新成路塔城东路)"},{"poiid":"B2094757D06AA2FC4193","title":"招商银行(嘉定支行)","lon":"121.2493943","lat":"31.38025","category":"260","category_name":"其他","address":"嘉定区塔城路399号"},{"poiid":"B2094654D469A2F44193","title":"吉的堡少儿英语培训","lon":"121.24825","lat":"31.38138","category":"190","category_name":"培训机构","address":"城中路76号5层"},{"poiid":"B2094757D16BA3FE4092","title":"嘉源小区","lon":"121.24722","lat":"31.379317","category":"47","category_name":"住宅区","address":"上海嘉定镇"},{"poiid":"B2094757D165ABFF4998","title":"阿胡子渔具店","lon":"121.247891653","lat":"31.3800128317","category":"249","category_name":"购物服务","address":"上海嘉定区城中路72弄3「4」号"},{"poiid":"B2094655D264A5F84998","title":"嘉定分公司办公楼","lon":"121.24903","lat":"31.38203","category":"46","category_name":"楼宇","address":"张马路48号"},{"poiid":"B2094654D469A1FC4199","title":"中国工商银行上海市嘉定支行","lon":"121.24461","lat":"31.38246","category":"150","category_name":"银行","address":"嘉定区清河路151号(近梅园路)"},{"poiid":"B2094654D469A1FB419A","title":"六一小区","lon":"121.24983","lat":"31.38121","category":"47","category_name":"住宅区","address":"六一新村1-12号"},{"poiid":"B2094654D469A2F4429E","title":"中国光大银行嘉定支行","lon":"121.24821","lat":"31.38143","category":"150","category_name":"银行","address":"嘉定区嘉定区塔城路453号(上海大学门口)"},{"poiid":"B2094655D26FABFC409F","title":"天主堂(中下塘街)","lon":"121.24663","lat":"31.38166","category":"245","category_name":"教堂","address":"中下塘街99"},{"poiid":"B2094654D469A2F44399","title":"侨心百货","lon":"121.24781","lat":"31.38199","category":"119","category_name":"商场","address":"城中路82"},{"poiid":"B2094654D469A3F4469C","title":"中国农业银行上海嘉定支行","lon":"121.24859","lat":"31.3796","category":"150","category_name":"银行","address":"塔城路355"},{"poiid":"B2094757D465A6FA499F","title":"绿苑鸡","lon":"121.245861054","lat":"31.378878793","category":"68","category_name":"快餐厅","address":"嘉定区仓场路2742号(近迎园路)"},{"poiid":"B2094757D16EAAF9489A","title":"岭南第一锅(城中店)","lon":"121.247338","lat":"31.381819","category":"247","category_name":"餐饮美食","address":"上海嘉定区城中路50号"},{"poiid":"B2094757D66DA2F84492","title":"LEVI'S(塔城路店)","lon":"121.24909","lat":"31.38008","category":"500","category_name":"未知分类","address":"嘉定区塔城路(近城中路)"},{"poiid":"B2094654D469A2F4429B","title":"上海市住房置业担保公司","lon":"121.24825","lat":"31.38138","category":"263","category_name":"公司","address":""},{"poiid":"B2094750D76CA2FF419F","title":"南翔老街特色小吃","lon":"121.245","lat":"31.381","category":"68","category_name":"快餐厅","address":"嘉定区南翔人民街"},{"poiid":"B2094654DB65A7F44198","title":"东方商厦嘉定店","lon":"121.24848","lat":"31.38053","category":"119","category_name":"商场","address":"嘉定区城中路66号(近塔城路)"},{"poiid":"B2094757D06FA6F54699","title":"嘉定影剧院","lon":"121.24771","lat":"31.38297","category":"178","category_name":"电影院","address":"嘉定区城中路149号(城中路人民街)"},{"poiid":"B2094757D06FA7FD419B","title":"州桥老街","lon":"121.249934","lat":"31.384100346","category":"260","category_name":"其他","address":"嘉定区法华塔附近(近塔城路)"},{"poiid":"B2094757D16CA5FA4892","title":"上海大学嘉定校区图书馆","lon":"121.24746365","lat":"31.376962769","category":"181","category_name":"图书馆","address":"嘉定区城中路20号上海大学内"},{"poiid":"B2094757D068AAFA469C","title":"新王府酒店(塔城路店)","lon":"121.24585","lat":"31.3775","category":"72","category_name":"广东菜","address":"嘉定区塔城路455号(梅园路口)"},{"poiid":"B2094757D068A5FC4993","title":"文涛茶餐厅(嘉定店)","lon":"121.24628","lat":"31.38288","category":"72","category_name":"广东菜","address":"嘉定区清河路111号(近城中路)"},{"poiid":"B2094757D06BA3FF469B","title":"上海大学嘉定校区悉尼工商学院文达楼","lon":"121.248172721","lat":"31.3781024483","category":"500","category_name":"未知分类","address":"上海嘉定区嘉定城中路20号上海大学嘉定校区"},{"poiid":"B2094757D069A7FF489F","title":"中国银行(嘉定支行)","lon":"121.24748","lat":"31.37851","category":"150","category_name":"银行","address":"嘉定区塔城路451号"},{"poiid":"B2094757D06AABF9419E","title":"中国建设银行(嘉定支行)","lon":"121.2484","lat":"31.37904","category":"46","category_name":"楼宇","address":"上海近郊嘉定区塔城路365号  "},{"poiid":"B2094757D16CA6FF449F","title":"中国农业银行(嘉定支行)","lon":"121.24910534","lat":"31.379893526","category":"150","category_name":"银行","address":"上海嘉定区塔城路355号"},{"poiid":"B2094757D06BA5F4419A","title":"百度烤肉","lon":"121.24607","lat":"31.38352","category":"68","category_name":"快餐厅","address":"嘉定区城中路136弄33号罗宾森广场步行街(城中路清河路)"},{"poiid":"B2094655D26FABFC4198","title":"上海大学(泮苑宾馆西)","lon":"121.24619","lat":"31.37824","category":"52","category_name":"高等院校","address":"塔城路453"},{"poiid":"B2094751D264A6F4449C","title":"嘉定.清河路.必胜客","lon":"121.24784","lat":"31.3844072","category":"500","category_name":"未知分类","address":null},{"poiid":"B2094654DB6AA6F5429C","title":"嘉定营业厅","lon":"121.24683","lat":"31.38408","category":"151","category_name":"电讯营业厅","address":"嘉定区嘉定城中路153弄1号"},{"poiid":"B2094757D06BA7F44699","title":"塔城小区","lon":"121.25045","lat":"31.380217","category":"252","category_name":"楼宇机构","address":"塔城路341弄"},{"poiid":"B2094757D16CA3FA4692","title":"研磨工坊","lon":"121.248923653","lat":"31.3835369032","category":"113","category_name":"冷饮店","address":"嘉定区清河路88弄11号(近州桥)"},{"poiid":"B2094757D66CA7FB4793","title":"上海大学联合图书馆","lon":"121.249980553","lat":"31.3787156054","category":"181","category_name":"图书馆","address":"上海市嘉定区"},{"poiid":"B2094655D26FA3FC4992","title":"中国电信(张马路营业厅)","lon":"121.24949","lat":"31.38235","category":"151","category_name":"电讯营业厅","address":"嘉定区张马路44号"},{"poiid":"B2094654D469A3F4469D","title":"中国农业银行嘉定支行营业部","lon":"121.24935","lat":"31.37984","category":"150","category_name":"银行","address":"上海市嘉定区镇塔城路355号"},{"poiid":"B2094654D469A2F4419E","title":"交通银行上海嘉定支行","lon":"121.24839","lat":"31.38096","category":"150","category_name":"银行","address":"嘉定区城中路68号(银城中路口)"},{"poiid":"B2094654DB6AA7F5499E","title":"小囡桥小区","lon":"121.24688","lat":"31.379646","category":"47","category_name":"住宅区","address":"塔城路440弄"},{"poiid":"B2094757D16BA3F5489A","title":"中国银行培训中心(嘉定)","lon":"121.24864665","lat":"31.380105833","category":"253","category_name":"校园生活","address":"上海市嘉定区塔城路451号"},{"poiid":"B2094655D36DA7FD459C","title":"张马路","lon":"121.2483","lat":"31.38167","category":"38","category_name":"公交车站","address":""},{"poiid":"B2094757D16EA1F54799","title":"上海农商银行嘉定支行","lon":"121.248171","lat":"31.37984","category":"150","category_name":"银行","address":"嘉定区塔城路386号"},{"poiid":"B2094757D168A3FC4498","title":"上海银行嘉定支行","lon":"121.248002","lat":"31.379541","category":"150","category_name":"银行","address":"上海嘉定区塔城路388号"},{"poiid":"B2094655D268A3FE459E","title":"嘉城名苑","lon":"121.24695","lat":"31.380493","category":"47","category_name":"住宅区","address":"城中路72弄"},{"poiid":"B2094654D469A2F4439A","title":"阿玛尼","lon":"121.24794","lat":"31.38181","category":"141","category_name":"服装鞋帽皮具店","address":"城中路78号"},{"poiid":"B2094654D469A2F4409D","title":"广远名苑","lon":"121.24732","lat":"31.380104","category":"47","category_name":"住宅区","address":"塔城路428弄"},{"poiid":"B2094757D16BABF8469C","title":"清河路幼儿园","lon":"121.24571465","lat":"31.380677845","category":"57","category_name":"幼儿园","address":"嘉定区塔城路450弄21号"},{"poiid":"B2094757D165A5FC4299","title":"嘉定镇街道社区文化活动中心","lon":"121.247937953","lat":"31.3806958455","category":"500","category_name":"未知分类","address":"上海嘉定区清河路196号"},{"poiid":"B2094655D268A6FE429D","title":"广远名苑(南门)","lon":"121.24768","lat":"31.37956","category":"47","category_name":"住宅区","address":"塔城路428弄"},{"poiid":"B2094654D469A2F44099","title":"嘉定镇街道社区卫生服务中心","lon":"121.24722","lat":"31.37933","category":"162","category_name":"医院","address":"塔城路432"},{"poiid":"B2094655D268A1FC409D","title":"塔城路666弄","lon":"121.24634785897","lat":"31.380145982708","category":"47","category_name":"住宅区","address":"塔城路666弄"},{"poiid":"B2094654D469A2F4409F","title":"中国民生银行上海嘉定支行","lon":"121.24748","lat":"31.37945","category":"150","category_name":"银行","address":"嘉定区嘉定区塔城路430号(新成路塔城东路)"},{"poiid":"B2094757D06AA2FC4193","title":"招商银行(嘉定支行)","lon":"121.2493943","lat":"31.38025","category":"260","category_name":"其他","address":"嘉定区塔城路399号"},{"poiid":"B2094654D469A2F44193","title":"吉的堡少儿英语培训","lon":"121.24825","lat":"31.38138","category":"190","category_name":"培训机构","address":"城中路76号5层"},{"poiid":"B2094757D16BA3FE4092","title":"嘉源小区","lon":"121.24722","lat":"31.379317","category":"47","category_name":"住宅区","address":"上海嘉定镇"},{"poiid":"B2094757D165ABFF4998","title":"阿胡子渔具店","lon":"121.247891653","lat":"31.3800128317","category":"249","category_name":"购物服务","address":"上海嘉定区城中路72弄3「4」号"},{"poiid":"B2094655D264A5F84998","title":"嘉定分公司办公楼","lon":"121.24903","lat":"31.38203","category":"46","category_name":"楼宇","address":"张马路48号"},{"poiid":"B2094654D469A1FC4199","title":"中国工商银行上海市嘉定支行","lon":"121.24461","lat":"31.38246","category":"150","category_name":"银行","address":"嘉定区清河路151号(近梅园路)"},{"poiid":"B2094654D469A1FB419A","title":"六一小区","lon":"121.24983","lat":"31.38121","category":"47","category_name":"住宅区","address":"六一新村1-12号"},{"poiid":"B2094654D469A2F4429E","title":"中国光大银行嘉定支行","lon":"121.24821","lat":"31.38143","category":"150","category_name":"银行","address":"嘉定区嘉定区塔城路453号(上海大学门口)"},{"poiid":"B2094655D26FABFC409F","title":"天主堂(中下塘街)","lon":"121.24663","lat":"31.38166","category":"245","category_name":"教堂","address":"中下塘街99"},{"poiid":"B2094654D469A2F44399","title":"侨心百货","lon":"121.24781","lat":"31.38199","category":"119","category_name":"商场","address":"城中路82"},{"poiid":"B2094654D469A3F4469C","title":"中国农业银行上海嘉定支行","lon":"121.24859","lat":"31.3796","category":"150","category_name":"银行","address":"塔城路355"},{"poiid":"B2094757D465A6FA499F","title":"绿苑鸡","lon":"121.245861054","lat":"31.378878793","category":"68","category_name":"快餐厅","address":"嘉定区仓场路2742号(近迎园路)"},{"poiid":"B2094757D16EAAF9489A","title":"岭南第一锅(城中店)","lon":"121.247338","lat":"31.381819","category":"247","category_name":"餐饮美食","address":"上海嘉定区城中路50号"},{"poiid":"B2094757D66DA2F84492","title":"LEVI'S(塔城路店)","lon":"121.24909","lat":"31.38008","category":"500","category_name":"未知分类","address":"嘉定区塔城路(近城中路)"},{"poiid":"B2094654D469A2F4429B","title":"上海市住房置业担保公司","lon":"121.24825","lat":"31.38138","category":"263","category_name":"公司","address":""},{"poiid":"B2094750D76CA2FF419F","title":"南翔老街特色小吃","lon":"121.245","lat":"31.381","category":"68","category_name":"快餐厅","address":"嘉定区南翔人民街"}]