[{"poiid":"B2094757D06EAAFC459D","title":"海底捞火锅店(铜川路店)","lon":"121.38532","lat":"31.25299","category":"86","category_name":"火锅店","address":"普陀区铜川路1868号(近真光路)"},{"poiid":"B2094757D06FA3FB4592","title":"利群医院","lon":"121.38526081","lat":"31.260695438","category":"162","category_name":"医院","address":"普陀区桃浦路910号(近利群医院)"},{"poiid":"B2094757D06FAAF9429B","title":"曹杨职业技术学校","lon":"121.384861254","lat":"31.2628673316","category":"52","category_name":"高等院校","address":"上海普陀区清涧路240号(近高陵路)"},{"poiid":"B2094757D068A1F9439E","title":"上海桐柏高级中学","lon":"121.38734","lat":"31.25839","category":"55","category_name":"中学","address":"上海普陀区真光路2125号  "},{"poiid":"B2094655D26BA2FF439F","title":"铜川路真光路","lon":"121.38624","lat":"31.25291","category":"38","category_name":"公交车站","address":""},{"poiid":"B2094757D068A2F84992","title":"上海曹安花卉市场","lon":"121.38817596","lat":"31.256004333","category":"119","category_name":"商场","address":"上海子州路355号"},{"poiid":"B2094757D06FA0FE4492","title":"真情公寓","lon":"121.38433518","lat":"31.254535919","category":"47","category_name":"住宅区","address":"真光路1915弄50支弄1号"},{"poiid":"B2094655D36CA6FE419E","title":"高陵路铜川路","lon":"121.38285","lat":"31.25443","category":"38","category_name":"公交车站","address":""},{"poiid":"B2094757D068A1FE499F","title":"真光八街坊","lon":"121.386","lat":"31.257","category":"47","category_name":"住宅区","address":"上海市金汤路353弄"},{"poiid":"B2094757D06FA7FC449F","title":"昆仑花苑","lon":"121.38119895","lat":"31.260967887","category":"47","category_name":"住宅区","address":"昆仑花苑位于普陀桃浦路1149弄"},{"poiid":"B2094757D068A2FE4293","title":"有山有水山里人家铜川路","lon":"121.38327767","lat":"31.25333347","category":"87","category_name":"特色／地方风味餐厅","address":"普陀区铜川路1819号(真光路口)"},{"poiid":"B2094757D068A6F5459A","title":"清涧新村第三小区","lon":"121.385987042","lat":"31.2621984083","category":"47","category_name":"住宅区","address":"上海清涧路187弄"},{"poiid":"B2094654D465A3FD449C","title":"清涧新村第七小区","lon":"121.38554","lat":"31.25907","category":"47","category_name":"住宅区","address":"上海桃浦路873弄"},{"poiid":"B2094654DB65A4FD469E","title":"真光新村第四小区","lon":"121.38151","lat":"31.25481","category":"47","category_name":"住宅区","address":"铜川路2060弄1-156号"},{"poiid":"B2094757D068A3F9429A","title":"上海家园","lon":"121.39114","lat":"31.258083","category":"47","category_name":"住宅区","address":"上海市普陀区桃浦路742弄"},{"poiid":"B2094757D06FA4F44592","title":"嘉德坊","lon":"121.384","lat":"31.2599","category":"47","category_name":"住宅区","address":"上海嘉定区万镇路1177弄"},{"poiid":"B2094654DB6AABF94092","title":"清涧小区清竹坊","lon":"121.38932","lat":"31.26117","category":"47","category_name":"住宅区","address":"清涧路39弄1-105号"},{"poiid":"B2094757D065ABF8489F","title":"桃浦路真光路路口","lon":"121.38832995","lat":"31.2600848706","category":"500","category_name":"未知分类","address":"上海市普陀区清涧路"},{"poiid":"B2094757D06AA3F5499C","title":"白玉兰小吃(桃浦路店)","lon":"121.38752449","lat":"31.259593621","category":"68","category_name":"快餐厅","address":"普陀区桃浦路(近真光路)"},{"poiid":"B2094654D464ABFB469C","title":"真光新村第二小区","lon":"121.38712","lat":"31.253748","category":"47","category_name":"住宅区","address":"铜川路1780弄1-121号"},{"poiid":"B2094654D465A3FA4293","title":"明丰世纪苑(南门)","lon":"121.39123","lat":"31.2601","category":"656","category_name":"大门","address":"子洲路680弄"},{"poiid":"B2094654D465A3FB4298","title":"清涧新村第二小区","lon":"121.38259","lat":"31.261492","category":"47","category_name":"住宅区","address":"上海普陀区桃浦路1028弄"},{"poiid":"B2094757D16CA5FD409C","title":"利群医院门口路边摊","lon":"121.385","lat":"31.26009","category":"68","category_name":"快餐厅","address":"普陀区桃浦路高陵路路口红绿灯下(高陵路桃浦路)"},{"poiid":"B2094750D26FA0FD409D","title":"新招鲜本地鸡窝 桃浦路店","lon":"121.38781070709","lat":"31.259348108487","category":"86","category_name":"火锅店","address":"普陀区桃浦路755号(近立群医院)"},{"poiid":"B2094654D465A3FD429C","title":"满天星幼儿园","lon":"121.38455","lat":"31.25881","category":"57","category_name":"幼儿园","address":"普陀区桃浦路873弄27号(近真光路)"},{"poiid":"B2094655D36DA7FE479F","title":"真光路金鼎路","lon":"121.3873","lat":"31.25822","category":"38","category_name":"公交车站","address":""},{"poiid":"B2094757D46CA7F9479A","title":"白玉兰聚香阁 桃浦店","lon":"121.38723980574","lat":"31.260063795478","category":"68","category_name":"快餐厅","address":"普陀区桃浦路755号(近利群医院)"},{"poiid":"B2094757D16FAAFE409C","title":"曹杨职校羽毛球馆","lon":"121.38697","lat":"31.25772","category":"220","category_name":"运动场所","address":"普陀区清涧路240号(近高陵路)"},{"poiid":"B2094757D06BAAF44398","title":"新招鲜(桃浦路店)","lon":"121.38771025","lat":"31.25693361","category":"500","category_name":"未知分类","address":"上海桃浦路真光路口"},{"poiid":"B2094654DB69A0F44999","title":"上海市天工职业技术学校","lon":"121.38699","lat":"31.25834","category":"54","category_name":"职业技术学校","address":"真光路2125号"},{"poiid":"B2094655D36DA7FE4799","title":"真光路","lon":"121.38795","lat":"31.25983","category":"38","category_name":"公交车站","address":"上海市普陀区真光路1877号(近铜川路)"},{"poiid":"B2094655D26BA5FE4599","title":"MINI公馆","lon":"121.39038","lat":"31.26126","category":"47","category_name":"住宅区","address":"松江区松汇中路518号"},{"poiid":"B2094654DB6AABF8459F","title":"快客No.6246","lon":"121.3872","lat":"31.25925","category":"117","category_name":"便民商店/便利店","address":"真光路2171"},{"poiid":"B2094654D464ABF4499E","title":"上海市树德小学","lon":"121.38787","lat":"31.25859","category":"56","category_name":"小学","address":"普陀区桃浦路743弄清涧八村47号(近真光路)"},{"poiid":"B2094757D069ABF44793","title":"中石油加油站(真光路)","lon":"121.385802","lat":"31.254285","category":"154","category_name":"加油加气站","address":"普陀区真光路1877号(铜川路真光路)"},{"poiid":"B2094654D464ABF4499F","title":"清涧新村第八小区","lon":"121.38862","lat":"31.25868","category":"47","category_name":"住宅区","address":"真如镇"},{"poiid":"B2094655D26BA2F94598","title":"桃浦路真光路","lon":"121.38798","lat":"31.25983","category":"38","category_name":"公交车站","address":""},{"poiid":"B2094655D26BA7F84999","title":"树德乒乓球馆","lon":"121.38754","lat":"31.25824","category":"225","category_name":"乒乓球馆","address":""},{"poiid":"B2094654D465A3FB419F","title":"永琪美容美发(清涧新村第三小区东)","lon":"121.38708","lat":"31.26016","category":"148","category_name":"美容美发店","address":""},{"poiid":"B2094655D36CA2F8469B","title":"清涧新村","lon":"121.38431","lat":"31.25939","category":"38","category_name":"公交车站","address":""},{"poiid":"B2094757D065A7FD499D","title":"豪大大鸡排","lon":"121.38450223","lat":"31.260106877","category":"257","category_name":"中餐厅","address":"上海桃浦路937号(利群医院对面)"},{"poiid":"B2094655D26EA5FD4493","title":"克莉丝汀饼屋(桃浦店)","lon":"121.38467","lat":"31.26054","category":"112","category_name":"糕饼店","address":"普陀区桃浦路(近子洲路)"},{"poiid":"B2094654D464ABF44992","title":"上海嘉龙丽商务发展有限公司","lon":"121.38803","lat":"31.2596","category":"46","category_name":"楼宇","address":"桃浦路769"},{"poiid":"B2094757D068AAFE449A","title":"海普苑","lon":"121.39","lat":"31.257","category":"500","category_name":"未知分类","address":"上海市普陀区铜川路1899弄"},{"poiid":"B2094655D26BA2F94593","title":"桃浦路高陵路","lon":"121.3839","lat":"31.26042","category":"38","category_name":"公交车站","address":""},{"poiid":"B2094757D164A1F44998","title":"老地方烧烤","lon":"121.38842895","lat":"31.2599688684","category":"257","category_name":"中餐厅","address":"上海市普陀区清涧路"},{"poiid":"B2094654DB69A5F8499B","title":"文峰美容美发(桃浦路店)","lon":"121.38723","lat":"31.26029","category":"148","category_name":"美容美发店","address":"上海市普陀区桃浦路810号"},{"poiid":"B2094654DB65A7FB409C","title":"上海市海丰农场前锋中学","lon":"121.38822","lat":"31.25972","category":"55","category_name":"中学","address":"普陀区中山北路2495弄兰风新村665号"},{"poiid":"B2094654D464ABF5409D","title":"金月亮幼儿园","lon":"121.38872","lat":"31.25958","category":"57","category_name":"幼儿园","address":"普陀区桃浦路743弄清涧八村41号(近真光路)"},{"poiid":"B2094654D464ABF44999","title":"真博花市(真光路)","lon":"121.38684","lat":"31.25612","category":"117","category_name":"便民商店/便利店","address":"真光路2016"},{"poiid":"B2094757D06EAAFC459D","title":"海底捞火锅店(铜川路店)","lon":"121.38532","lat":"31.25299","category":"86","category_name":"火锅店","address":"普陀区铜川路1868号(近真光路)"},{"poiid":"B2094757D06FA3FB4592","title":"利群医院","lon":"121.38526081","lat":"31.260695438","category":"162","category_name":"医院","address":"普陀区桃浦路910号(近利群医院)"},{"poiid":"B2094757D06FAAF9429B","title":"曹杨职业技术学校","lon":"121.384861254","lat":"31.2628673316","category":"52","category_name":"高等院校","address":"上海普陀区清涧路240号(近高陵路)"},{"poiid":"B2094757D068A1F9439E","title":"上海桐柏高级中学","lon":"121.38734","lat":"31.25839","category":"55","category_name":"中学","address":"上海普陀区真光路2125号  "},{"poiid":"B2094655D26BA2FF439F","title":"铜川路真光路","lon":"121.38624","lat":"31.25291","category":"38","category_name":"公交车站","address":""},{"poiid":"B2094757D068A2F84992","title":"上海曹安花卉市场","lon":"121.38817596","lat":"31.256004333","category":"119","category_name":"商场","address":"上海子州路355号"},{"poiid":"B2094757D06FA0FE4492","title":"真情公寓","lon":"121.38433518","lat":"31.254535919","category":"47","category_name":"住宅区","address":"真光路1915弄50支弄1号"},{"poiid":"B2094655D36CA6FE419E","title":"高陵路铜川路","lon":"121.38285","lat":"31.25443","category":"38","category_name":"公交车站","address":""},{"poiid":"B2094757D068A1FE499F","title":"真光八街坊","lon":"121.386","lat":"31.257","category":"47","category_name":"住宅区","address":"上海市金汤路353弄"},{"poiid":"B2094757D06FA7FC449F","title":"昆仑花苑","lon":"121.38119895","lat":"31.260967887","category":"47","category_name":"住宅区","address":"昆仑花苑位于普陀桃浦路1149弄"},{"poiid":"B2094757D068A2FE4293","title":"有山有水山里人家铜川路","lon":"121.38327767","lat":"31.25333347","category":"87","category_name":"特色／地方风味餐厅","address":"普陀区铜川路1819号(真光路口)"},{"poiid":"B2094757D068A6F5459A","title":"清涧新村第三小区","lon":"121.385987042","lat":"31.2621984083","category":"47","category_name":"住宅区","address":"上海清涧路187弄"},{"poiid":"B2094654D465A3FD449C","title":"清涧新村第七小区","lon":"121.38554","lat":"31.25907","category":"47","category_name":"住宅区","address":"上海桃浦路873弄"},{"poiid":"B2094654DB65A4FD469E","title":"真光新村第四小区","lon":"121.38151","lat":"31.25481","category":"47","category_name":"住宅区","address":"铜川路2060弄1-156号"},{"poiid":"B2094757D068A3F9429A","title":"上海家园","lon":"121.39114","lat":"31.258083","category":"47","category_name":"住宅区","address":"上海市普陀区桃浦路742弄"},{"poiid":"B2094757D06FA4F44592","title":"嘉德坊","lon":"121.384","lat":"31.2599","category":"47","category_name":"住宅区","address":"上海嘉定区万镇路1177弄"},{"poiid":"B2094654DB6AABF94092","title":"清涧小区清竹坊","lon":"121.38932","lat":"31.26117","category":"47","category_name":"住宅区","address":"清涧路39弄1-105号"},{"poiid":"B2094757D065ABF8489F","title":"桃浦路真光路路口","lon":"121.38832995","lat":"31.2600848706","category":"500","category_name":"未知分类","address":"上海市普陀区清涧路"},{"poiid":"B2094757D06AA3F5499C","title":"白玉兰小吃(桃浦路店)","lon":"121.38752449","lat":"31.259593621","category":"68","category_name":"快餐厅","address":"普陀区桃浦路(近真光路)"},{"poiid":"B2094654D464ABFB469C","title":"真光新村第二小区","lon":"121.38712","lat":"31.253748","category":"47","category_name":"住宅区","address":"铜川路1780弄1-121号"},{"poiid":"B2094654D465A3FA4293","title":"明丰世纪苑(南门)","lon":"121.39123","lat":"31.2601","category":"656","category_name":"大门","address":"子洲路680弄"},{"poiid":"B2094654D465A3FB4298","title":"清涧新村第二小区","lon":"121.38259","lat":"31.261492","category":"47","category_name":"住宅区","address":"上海普陀区桃浦路1028弄"},{"poiid":"B2094757D16CA5FD409C","title":"利群医院门口路边摊","lon":"121.385","lat":"31.26009","category":"68","category_name":"快餐厅","address":"普陀区桃浦路高陵路路口红绿灯下(高陵路桃浦路)"},{"poiid":"B2094750D26FA0FD409D","title":"新招鲜本地鸡窝 桃浦路店","lon":"121.38781070709","lat":"31.259348108487","category":"86","category_name":"火锅店","address":"普陀区桃浦路755号(近立群医院)"},{"poiid":"B2094654D465A3FD429C","title":"满天星幼儿园","lon":"121.38455","lat":"31.25881","category":"57","category_name":"幼儿园","address":"普陀区桃浦路873弄27号(近真光路)"},{"poiid":"B2094655D36DA7FE479F","title":"真光路金鼎路","lon":"121.3873","lat":"31.25822","category":"38","category_name":"公交车站","address":""},{"poiid":"B2094757D46CA7F9479A","title":"白玉兰聚香阁 桃浦店","lon":"121.38723980574","lat":"31.260063795478","category":"68","category_name":"快餐厅","address":"普陀区桃浦路755号(近利群医院)"},{"poiid":"B2094757D16FAAFE409C","title":"曹杨职校羽毛球馆","lon":"121.38697","lat":"31.25772","category":"220","category_name":"运动场所","address":"普陀区清涧路240号(近高陵路)"},{"poiid":"B2094757D06BAAF44398","title":"新招鲜(桃浦路店)","lon":"121.38771025","lat":"31.25693361","category":"500","category_name":"未知分类","address":"上海桃浦路真光路口"},{"poiid":"B2094654DB69A0F44999","title":"上海市天工职业技术学校","lon":"121.38699","lat":"31.25834","category":"54","category_name":"职业技术学校","address":"真光路2125号"},{"poiid":"B2094655D36DA7FE4799","title":"真光路","lon":"121.38795","lat":"31.25983","category":"38","category_name":"公交车站","address":"上海市普陀区真光路1877号(近铜川路)"},{"poiid":"B2094655D26BA5FE4599","title":"MINI公馆","lon":"121.39038","lat":"31.26126","category":"47","category_name":"住宅区","address":"松江区松汇中路518号"},{"poiid":"B2094654DB6AABF8459F","title":"快客No.6246","lon":"121.3872","lat":"31.25925","category":"117","category_name":"便民商店/便利店","address":"真光路2171"},{"poiid":"B2094654D464ABF4499E","title":"上海市树德小学","lon":"121.38787","lat":"31.25859","category":"56","category_name":"小学","address":"普陀区桃浦路743弄清涧八村47号(近真光路)"},{"poiid":"B2094757D069ABF44793","title":"中石油加油站(真光路)","lon":"121.385802","lat":"31.254285","category":"154","category_name":"加油加气站","address":"普陀区真光路1877号(铜川路真光路)"},{"poiid":"B2094654D464ABF4499F","title":"清涧新村第八小区","lon":"121.38862","lat":"31.25868","category":"47","category_name":"住宅区","address":"真如镇"},{"poiid":"B2094655D26BA2F94598","title":"桃浦路真光路","lon":"121.38798","lat":"31.25983","category":"38","category_name":"公交车站","address":""},{"poiid":"B2094655D26BA7F84999","title":"树德乒乓球馆","lon":"121.38754","lat":"31.25824","category":"225","category_name":"乒乓球馆","address":""},{"poiid":"B2094654D465A3FB419F","title":"永琪美容美发(清涧新村第三小区东)","lon":"121.38708","lat":"31.26016","category":"148","category_name":"美容美发店","address":""},{"poiid":"B2094655D36CA2F8469B","title":"清涧新村","lon":"121.38431","lat":"31.25939","category":"38","category_name":"公交车站","address":""},{"poiid":"B2094757D065A7FD499D","title":"豪大大鸡排","lon":"121.38450223","lat":"31.260106877","category":"257","category_name":"中餐厅","address":"上海桃浦路937号(利群医院对面)"},{"poiid":"B2094655D26EA5FD4493","title":"克莉丝汀饼屋(桃浦店)","lon":"121.38467","lat":"31.26054","category":"112","category_name":"糕饼店","address":"普陀区桃浦路(近子洲路)"},{"poiid":"B2094654D464ABF44992","title":"上海嘉龙丽商务发展有限公司","lon":"121.38803","lat":"31.2596","category":"46","category_name":"楼宇","address":"桃浦路769"},{"poiid":"B2094757D068AAFE449A","title":"海普苑","lon":"121.39","lat":"31.257","category":"500","category_name":"未知分类","address":"上海市普陀区铜川路1899弄"},{"poiid":"B2094655D26BA2F94593","title":"桃浦路高陵路","lon":"121.3839","lat":"31.26042","category":"38","category_name":"公交车站","address":""},{"poiid":"B2094757D164A1F44998","title":"老地方烧烤","lon":"121.38842895","lat":"31.2599688684","category":"257","category_name":"中餐厅","address":"上海市普陀区清涧路"},{"poiid":"B2094654DB69A5F8499B","title":"文峰美容美发(桃浦路店)","lon":"121.38723","lat":"31.26029","category":"148","category_name":"美容美发店","address":"上海市普陀区桃浦路810号"},{"poiid":"B2094654DB65A7FB409C","title":"上海市海丰农场前锋中学","lon":"121.38822","lat":"31.25972","category":"55","category_name":"中学","address":"普陀区中山北路2495弄兰风新村665号"},{"poiid":"B2094654D464ABF5409D","title":"金月亮幼儿园","lon":"121.38872","lat":"31.25958","category":"57","category_name":"幼儿园","address":"普陀区桃浦路743弄清涧八村41号(近真光路)"},{"poiid":"B2094654D464ABF44999","title":"真博花市(真光路)","lon":"121.38684","lat":"31.25612","category":"117","category_name":"便民商店/便利店","address":"真光路2016"},{"poiid":"B2094757D06EAAFC459D","title":"海底捞火锅店(铜川路店)","lon":"121.38532","lat":"31.25299","category":"86","category_name":"火锅店","address":"普陀区铜川路1868号(近真光路)"},{"poiid":"B2094757D06FA3FB4592","title":"利群医院","lon":"121.38526081","lat":"31.260695438","category":"162","category_name":"医院","address":"普陀区桃浦路910号(近利群医院)"},{"poiid":"B2094757D06FAAF9429B","title":"曹杨职业技术学校","lon":"121.384861254","lat":"31.2628673316","category":"52","category_name":"高等院校","address":"上海普陀区清涧路240号(近高陵路)"},{"poiid":"B2094757D068A1F9439E","title":"上海桐柏高级中学","lon":"121.38734","lat":"31.25839","category":"55","category_name":"中学","address":"上海普陀区真光路2125号  "},{"poiid":"B2094655D26BA2FF439F","title":"铜川路真光路","lon":"121.38624","lat":"31.25291","category":"38","category_name":"公交车站","address":""},{"poiid":"B2094757D068A2F84992","title":"上海曹安花卉市场","lon":"121.38817596","lat":"31.256004333","category":"119","category_name":"商场","address":"上海子州路355号"},{"poiid":"B2094757D06FA0FE4492","title":"真情公寓","lon":"121.38433518","lat":"31.254535919","category":"47","category_name":"住宅区","address":"真光路1915弄50支弄1号"},{"poiid":"B2094655D36CA6FE419E","title":"高陵路铜川路","lon":"121.38285","lat":"31.25443","category":"38","category_name":"公交车站","address":""},{"poiid":"B2094757D068A1FE499F","title":"真光八街坊","lon":"121.386","lat":"31.257","category":"47","category_name":"住宅区","address":"上海市金汤路353弄"},{"poiid":"B2094757D06FA7FC449F","title":"昆仑花苑","lon":"121.38119895","lat":"31.260967887","category":"47","category_name":"住宅区","address":"昆仑花苑位于普陀桃浦路1149弄"},{"poiid":"B2094757D068A2FE4293","title":"有山有水山里人家铜川路","lon":"121.38327767","lat":"31.25333347","category":"87","category_name":"特色／地方风味餐厅","address":"普陀区铜川路1819号(真光路口)"},{"poiid":"B2094757D068A6F5459A","title":"清涧新村第三小区","lon":"121.385987042","lat":"31.2621984083","category":"47","category_name":"住宅区","address":"上海清涧路187弄"},{"poiid":"B2094654D465A3FD449C","title":"清涧新村第七小区","lon":"121.38554","lat":"31.25907","category":"47","category_name":"住宅区","address":"上海桃浦路873弄"},{"poiid":"B2094654DB65A4FD469E","title":"真光新村第四小区","lon":"121.38151","lat":"31.25481","category":"47","category_name":"住宅区","address":"铜川路2060弄1-156号"},{"poiid":"B2094757D068A3F9429A","title":"上海家园","lon":"121.39114","lat":"31.258083","category":"47","category_name":"住宅区","address":"上海市普陀区桃浦路742弄"},{"poiid":"B2094757D06FA4F44592","title":"嘉德坊","lon":"121.384","lat":"31.2599","category":"47","category_name":"住宅区","address":"上海嘉定区万镇路1177弄"},{"poiid":"B2094654DB6AABF94092","title":"清涧小区清竹坊","lon":"121.38932","lat":"31.26117","category":"47","category_name":"住宅区","address":"清涧路39弄1-105号"},{"poiid":"B2094757D065ABF8489F","title":"桃浦路真光路路口","lon":"121.38832995","lat":"31.2600848706","category":"500","category_name":"未知分类","address":"上海市普陀区清涧路"},{"poiid":"B2094757D06AA3F5499C","title":"白玉兰小吃(桃浦路店)","lon":"121.38752449","lat":"31.259593621","category":"68","category_name":"快餐厅","address":"普陀区桃浦路(近真光路)"},{"poiid":"B2094654D464ABFB469C","title":"真光新村第二小区","lon":"121.38712","lat":"31.253748","category":"47","category_name":"住宅区","address":"铜川路1780弄1-121号"},{"poiid":"B2094654D465A3FA4293","title":"明丰世纪苑(南门)","lon":"121.39123","lat":"31.2601","category":"656","category_name":"大门","address":"子洲路680弄"},{"poiid":"B2094654D465A3FB4298","title":"清涧新村第二小区","lon":"121.38259","lat":"31.261492","category":"47","category_name":"住宅区","address":"上海普陀区桃浦路1028弄"},{"poiid":"B2094757D16CA5FD409C","title":"利群医院门口路边摊","lon":"121.385","lat":"31.26009","category":"68","category_name":"快餐厅","address":"普陀区桃浦路高陵路路口红绿灯下(高陵路桃浦路)"},{"poiid":"B2094750D26FA0FD409D","title":"新招鲜本地鸡窝 桃浦路店","lon":"121.38781070709","lat":"31.259348108487","category":"86","category_name":"火锅店","address":"普陀区桃浦路755号(近立群医院)"},{"poiid":"B2094654D465A3FD429C","title":"满天星幼儿园","lon":"121.38455","lat":"31.25881","category":"57","category_name":"幼儿园","address":"普陀区桃浦路873弄27号(近真光路)"},{"poiid":"B2094655D36DA7FE479F","title":"真光路金鼎路","lon":"121.3873","lat":"31.25822","category":"38","category_name":"公交车站","address":""},{"poiid":"B2094757D46CA7F9479A","title":"白玉兰聚香阁 桃浦店","lon":"121.38723980574","lat":"31.260063795478","category":"68","category_name":"快餐厅","address":"普陀区桃浦路755号(近利群医院)"},{"poiid":"B2094757D16FAAFE409C","title":"曹杨职校羽毛球馆","lon":"121.38697","lat":"31.25772","category":"220","category_name":"运动场所","address":"普陀区清涧路240号(近高陵路)"},{"poiid":"B2094757D06BAAF44398","title":"新招鲜(桃浦路店)","lon":"121.38771025","lat":"31.25693361","category":"500","category_name":"未知分类","address":"上海桃浦路真光路口"},{"poiid":"B2094654DB69A0F44999","title":"上海市天工职业技术学校","lon":"121.38699","lat":"31.25834","category":"54","category_name":"职业技术学校","address":"真光路2125号"},{"poiid":"B2094655D36DA7FE4799","title":"真光路","lon":"121.38795","lat":"31.25983","category":"38","category_name":"公交车站","address":"上海市普陀区真光路1877号(近铜川路)"},{"poiid":"B2094655D26BA5FE4599","title":"MINI公馆","lon":"121.39038","lat":"31.26126","category":"47","category_name":"住宅区","address":"松江区松汇中路518号"},{"poiid":"B2094654DB6AABF8459F","title":"快客No.6246","lon":"121.3872","lat":"31.25925","category":"117","category_name":"便民商店/便利店","address":"真光路2171"},{"poiid":"B2094654D464ABF4499E","title":"上海市树德小学","lon":"121.38787","lat":"31.25859","category":"56","category_name":"小学","address":"普陀区桃浦路743弄清涧八村47号(近真光路)"},{"poiid":"B2094757D069ABF44793","title":"中石油加油站(真光路)","lon":"121.385802","lat":"31.254285","category":"154","category_name":"加油加气站","address":"普陀区真光路1877号(铜川路真光路)"},{"poiid":"B2094654D464ABF4499F","title":"清涧新村第八小区","lon":"121.38862","lat":"31.25868","category":"47","category_name":"住宅区","address":"真如镇"},{"poiid":"B2094655D26BA2F94598","title":"桃浦路真光路","lon":"121.38798","lat":"31.25983","category":"38","category_name":"公交车站","address":""},{"poiid":"B2094655D26BA7F84999","title":"树德乒乓球馆","lon":"121.38754","lat":"31.25824","category":"225","category_name":"乒乓球馆","address":""},{"poiid":"B2094654D465A3FB419F","title":"永琪美容美发(清涧新村第三小区东)","lon":"121.38708","lat":"31.26016","category":"148","category_name":"美容美发店","address":""},{"poiid":"B2094655D36CA2F8469B","title":"清涧新村","lon":"121.38431","lat":"31.25939","category":"38","category_name":"公交车站","address":""},{"poiid":"B2094757D065A7FD499D","title":"豪大大鸡排","lon":"121.38450223","lat":"31.260106877","category":"257","category_name":"中餐厅","address":"上海桃浦路937号(利群医院对面)"},{"poiid":"B2094655D26EA5FD4493","title":"克莉丝汀饼屋(桃浦店)","lon":"121.38467","lat":"31.26054","category":"112","category_name":"糕饼店","address":"普陀区桃浦路(近子洲路)"},{"poiid":"B2094654D464ABF44992","title":"上海嘉龙丽商务发展有限公司","lon":"121.38803","lat":"31.2596","category":"46","category_name":"楼宇","address":"桃浦路769"},{"poiid":"B2094757D068AAFE449A","title":"海普苑","lon":"121.39","lat":"31.257","category":"500","category_name":"未知分类","address":"上海市普陀区铜川路1899弄"},{"poiid":"B2094655D26BA2F94593","title":"桃浦路高陵路","lon":"121.3839","lat":"31.26042","category":"38","category_name":"公交车站","address":""},{"poiid":"B2094757D164A1F44998","title":"老地方烧烤","lon":"121.38842895","lat":"31.2599688684","category":"257","category_name":"中餐厅","address":"上海市普陀区清涧路"},{"poiid":"B2094654DB69A5F8499B","title":"文峰美容美发(桃浦路店)","lon":"121.38723","lat":"31.26029","category":"148","category_name":"美容美发店","address":"上海市普陀区桃浦路810号"},{"poiid":"B2094654DB65A7FB409C","title":"上海市海丰农场前锋中学","lon":"121.38822","lat":"31.25972","category":"55","category_name":"中学","address":"普陀区中山北路2495弄兰风新村665号"},{"poiid":"B2094654D464ABF5409D","title":"金月亮幼儿园","lon":"121.38872","lat":"31.25958","category":"57","category_name":"幼儿园","address":"普陀区桃浦路743弄清涧八村41号(近真光路)"},{"poiid":"B2094654D464ABF44999","title":"真博花市(真光路)","lon":"121.38684","lat":"31.25612","category":"117","category_name":"便民商店/便利店","address":"真光路2016"},{"poiid":"B2094757D06EAAFC459D","title":"海底捞火锅店(铜川路店)","lon":"121.38532","lat":"31.25299","category":"86","category_name":"火锅店","address":"普陀区铜川路1868号(近真光路)"},{"poiid":"B2094757D06FA3FB4592","title":"利群医院","lon":"121.38526081","lat":"31.260695438","category":"162","category_name":"医院","address":"普陀区桃浦路910号(近利群医院)"},{"poiid":"B2094757D06FAAF9429B","title":"曹杨职业技术学校","lon":"121.384861254","lat":"31.2628673316","category":"52","category_name":"高等院校","address":"上海普陀区清涧路240号(近高陵路)"},{"poiid":"B2094757D068A1F9439E","title":"上海桐柏高级中学","lon":"121.38734","lat":"31.25839","category":"55","category_name":"中学","address":"上海普陀区真光路2125号  "},{"poiid":"B2094655D26BA2FF439F","title":"铜川路真光路","lon":"121.38624","lat":"31.25291","category":"38","category_name":"公交车站","address":""},{"poiid":"B2094757D068A2F84992","title":"上海曹安花卉市场","lon":"121.38817596","lat":"31.256004333","category":"119","category_name":"商场","address":"上海子州路355号"},{"poiid":"B2094757D06FA0FE4492","title":"真情公寓","lon":"121.38433518","lat":"31.254535919","category":"47","category_name":"住宅区","address":"真光路1915弄50支弄1号"},{"poiid":"B2094655D36CA6FE419E","title":"高陵路铜川路","lon":"121.38285","lat":"31.25443","category":"38","category_name":"公交车站","address":""},{"poiid":"B2094757D068A1FE499F","title":"真光八街坊","lon":"121.386","lat":"31.257","category":"47","category_name":"住宅区","address":"上海市金汤路353弄"},{"poiid":"B2094757D06FA7FC449F","title":"昆仑花苑","lon":"121.38119895","lat":"31.260967887","category":"47","category_name":"住宅区","address":"昆仑花苑位于普陀桃浦路1149弄"},{"poiid":"B2094757D068A2FE4293","title":"有山有水山里人家铜川路","lon":"121.38327767","lat":"31.25333347","category":"87","category_name":"特色／地方风味餐厅","address":"普陀区铜川路1819号(真光路口)"},{"poiid":"B2094757D068A6F5459A","title":"清涧新村第三小区","lon":"121.385987042","lat":"31.2621984083","category":"47","category_name":"住宅区","address":"上海清涧路187弄"},{"poiid":"B2094654D465A3FD449C","title":"清涧新村第七小区","lon":"121.38554","lat":"31.25907","category":"47","category_name":"住宅区","address":"上海桃浦路873弄"},{"poiid":"B2094654DB65A4FD469E","title":"真光新村第四小区","lon":"121.38151","lat":"31.25481","category":"47","category_name":"住宅区","address":"铜川路2060弄1-156号"},{"poiid":"B2094757D068A3F9429A","title":"上海家园","lon":"121.39114","lat":"31.258083","category":"47","category_name":"住宅区","address":"上海市普陀区桃浦路742弄"},{"poiid":"B2094757D06FA4F44592","title":"嘉德坊","lon":"121.384","lat":"31.2599","category":"47","category_name":"住宅区","address":"上海嘉定区万镇路1177弄"},{"poiid":"B2094654DB6AABF94092","title":"清涧小区清竹坊","lon":"121.38932","lat":"31.26117","category":"47","category_name":"住宅区","address":"清涧路39弄1-105号"},{"poiid":"B2094757D065ABF8489F","title":"桃浦路真光路路口","lon":"121.38832995","lat":"31.2600848706","category":"500","category_name":"未知分类","address":"上海市普陀区清涧路"},{"poiid":"B2094757D06AA3F5499C","title":"白玉兰小吃(桃浦路店)","lon":"121.38752449","lat":"31.259593621","category":"68","category_name":"快餐厅","address":"普陀区桃浦路(近真光路)"},{"poiid":"B2094654D464ABFB469C","title":"真光新村第二小区","lon":"121.38712","lat":"31.253748","category":"47","category_name":"住宅区","address":"铜川路1780弄1-121号"},{"poiid":"B2094654D465A3FA4293","title":"明丰世纪苑(南门)","lon":"121.39123","lat":"31.2601","category":"656","category_name":"大门","address":"子洲路680弄"},{"poiid":"B2094654D465A3FB4298","title":"清涧新村第二小区","lon":"121.38259","lat":"31.261492","category":"47","category_name":"住宅区","address":"上海普陀区桃浦路1028弄"},{"poiid":"B2094757D16CA5FD409C","title":"利群医院门口路边摊","lon":"121.385","lat":"31.26009","category":"68","category_name":"快餐厅","address":"普陀区桃浦路高陵路路口红绿灯下(高陵路桃浦路)"},{"poiid":"B2094750D26FA0FD409D","title":"新招鲜本地鸡窝 桃浦路店","lon":"121.38781070709","lat":"31.259348108487","category":"86","category_name":"火锅店","address":"普陀区桃浦路755号(近立群医院)"},{"poiid":"B2094654D465A3FD429C","title":"满天星幼儿园","lon":"121.38455","lat":"31.25881","category":"57","category_name":"幼儿园","address":"普陀区桃浦路873弄27号(近真光路)"},{"poiid":"B2094655D36DA7FE479F","title":"真光路金鼎路","lon":"121.3873","lat":"31.25822","category":"38","category_name":"公交车站","address":""},{"poiid":"B2094757D46CA7F9479A","title":"白玉兰聚香阁 桃浦店","lon":"121.38723980574","lat":"31.260063795478","category":"68","category_name":"快餐厅","address":"普陀区桃浦路755号(近利群医院)"},{"poiid":"B2094757D16FAAFE409C","title":"曹杨职校羽毛球馆","lon":"121.38697","lat":"31.25772","category":"220","category_name":"运动场所","address":"普陀区清涧路240号(近高陵路)"},{"poiid":"B2094757D06BAAF44398","title":"新招鲜(桃浦路店)","lon":"121.38771025","lat":"31.25693361","category":"500","category_name":"未知分类","address":"上海桃浦路真光路口"},{"poiid":"B2094654DB69A0F44999","title":"上海市天工职业技术学校","lon":"121.38699","lat":"31.25834","category":"54","category_name":"职业技术学校","address":"真光路2125号"},{"poiid":"B2094655D36DA7FE4799","title":"真光路","lon":"121.38795","lat":"31.25983","category":"38","category_name":"公交车站","address":"上海市普陀区真光路1877号(近铜川路)"},{"poiid":"B2094655D26BA5FE4599","title":"MINI公馆","lon":"121.39038","lat":"31.26126","category":"47","category_name":"住宅区","address":"松江区松汇中路518号"},{"poiid":"B2094654DB6AABF8459F","title":"快客No.6246","lon":"121.3872","lat":"31.25925","category":"117","category_name":"便民商店/便利店","address":"真光路2171"},{"poiid":"B2094654D464ABF4499E","title":"上海市树德小学","lon":"121.38787","lat":"31.25859","category":"56","category_name":"小学","address":"普陀区桃浦路743弄清涧八村47号(近真光路)"},{"poiid":"B2094757D069ABF44793","title":"中石油加油站(真光路)","lon":"121.385802","lat":"31.254285","category":"154","category_name":"加油加气站","address":"普陀区真光路1877号(铜川路真光路)"},{"poiid":"B2094654D464ABF4499F","title":"清涧新村第八小区","lon":"121.38862","lat":"31.25868","category":"47","category_name":"住宅区","address":"真如镇"},{"poiid":"B2094655D26BA2F94598","title":"桃浦路真光路","lon":"121.38798","lat":"31.25983","category":"38","category_name":"公交车站","address":""},{"poiid":"B2094655D26BA7F84999","title":"树德乒乓球馆","lon":"121.38754","lat":"31.25824","category":"225","category_name":"乒乓球馆","address":""},{"poiid":"B2094654D465A3FB419F","title":"永琪美容美发(清涧新村第三小区东)","lon":"121.38708","lat":"31.26016","category":"148","category_name":"美容美发店","address":""},{"poiid":"B2094655D36CA2F8469B","title":"清涧新村","lon":"121.38431","lat":"31.25939","category":"38","category_name":"公交车站","address":""},{"poiid":"B2094757D065A7FD499D","title":"豪大大鸡排","lon":"121.38450223","lat":"31.260106877","category":"257","category_name":"中餐厅","address":"上海桃浦路937号(利群医院对面)"},{"poiid":"B2094655D26EA5FD4493","title":"克莉丝汀饼屋(桃浦店)","lon":"121.38467","lat":"31.26054","category":"112","category_name":"糕饼店","address":"普陀区桃浦路(近子洲路)"},{"poiid":"B2094654D464ABF44992","title":"上海嘉龙丽商务发展有限公司","lon":"121.38803","lat":"31.2596","category":"46","category_name":"楼宇","address":"桃浦路769"},{"poiid":"B2094757D068AAFE449A","title":"海普苑","lon":"121.39","lat":"31.257","category":"500","category_name":"未知分类","address":"上海市普陀区铜川路1899弄"},{"poiid":"B2094655D26BA2F94593","title":"桃浦路高陵路","lon":"121.3839","lat":"31.26042","category":"38","category_name":"公交车站","address":""},{"poiid":"B2094757D164A1F44998","title":"老地方烧烤","lon":"121.38842895","lat":"31.2599688684","category":"257","category_name":"中餐厅","address":"上海市普陀区清涧路"},{"poiid":"B2094654DB69A5F8499B","title":"文峰美容美发(桃浦路店)","lon":"121.38723","lat":"31.26029","category":"148","category_name":"美容美发店","address":"上海市普陀区桃浦路810号"},{"poiid":"B2094654DB65A7FB409C","title":"上海市海丰农场前锋中学","lon":"121.38822","lat":"31.25972","category":"55","category_name":"中学","address":"普陀区中山北路2495弄兰风新村665号"},{"poiid":"B2094654D464ABF5409D","title":"金月亮幼儿园","lon":"121.38872","lat":"31.25958","category":"57","category_name":"幼儿园","address":"普陀区桃浦路743弄清涧八村41号(近真光路)"},{"poiid":"B2094654D464ABF44999","title":"真博花市(真光路)","lon":"121.38684","lat":"31.25612","category":"117","category_name":"便民商店/便利店","address":"真光路2016"}]