[{"poiid":"B2094757D06AA6F4439C","title":"仓场路","lon":"121.26558865","lat":"31.381247117","category":"500","category_name":"未知分类","address":"上海市嘉定区仓场路"},{"poiid":"B2094757D068A1FD419E","title":"嘉定体育中心","lon":"121.27172851","lat":"31.376722335","category":"500","category_name":"未知分类","address":"嘉定区新成路118号嘉定体育中心内"},{"poiid":"B2094757D068ABF5459F","title":"龙飞大酒店(仓场店)","lon":"121.27062","lat":"31.38185","category":"75","category_name":"浙江菜","address":"嘉定区仓场路422号龙飞大酒店内(仓场路新成路)"},{"poiid":"B2094757D064A3F5419E","title":"老盛昌汤包馆","lon":"121.267241653","lat":"31.3812336176","category":"247","category_name":"餐饮美食","address":"上海仓城路店"},{"poiid":"B2094654D469A5F5419C","title":"快乐鸟盱眙十三香龙虾","lon":"121.26595","lat":"31.38135","category":"257","category_name":"中餐厅","address":"嘉定区仓场路2758号(近迎园路)"},{"poiid":"B2094757D065A5FC4392","title":"歌顿咖啡新成店","lon":"121.2694","lat":"31.38908","category":"260","category_name":"其他","address":"嘉定区塔城东路292号(近和政路)"},{"poiid":"B2094655D264A1FF4793","title":"嘉怡别墅","lon":"121.273613","lat":"31.387348","category":"47","category_name":"住宅区","address":"嘉定区茹水路1180弄"},{"poiid":"B2094757D16FA4FA489C","title":"吴姑娘特色煲(仓场店)","lon":"121.265738653","lat":"31.3821161356","category":"76","category_name":"上海菜","address":"嘉定区仓场路2871号(近迎园路)"},{"poiid":"B2094757D66BA3FA4799","title":"张太和爊鸭 仓场路店","lon":"121.266739054","lat":"31.381288793","category":"68","category_name":"快餐厅","address":"嘉定区仓场路2879号(仓场路迎园路)"},{"poiid":"B2094757D168A2F9409B","title":"乐天玛特超市(嘉定店)","lon":"121.274547653","lat":"31.3806481056","category":"249","category_name":"购物服务","address":"嘉定区仓场路365号2-3楼(和政路口)"},{"poiid":"B2094654D469A4FA419D","title":"嘉宝花园别墅","lon":"121.271","lat":"31.3832","category":"47","category_name":"住宅区","address":"上海市嘉定区墅沟路888弄"},{"poiid":"B2094654D469A4FF439D","title":"南陈小区","lon":"121.27072","lat":"31.38167","category":"47","category_name":"住宅区","address":"仓场路421弄"},{"poiid":"B2094655D26FABF8419A","title":"迎园新村五、八坊","lon":"121.26623","lat":"31.38359","category":"47","category_name":"住宅区","address":"上海嘉定区迎园中路"},{"poiid":"B2094757D464A0FA4292","title":"燕子酒家 嘉定花园店","lon":"121.2685578722","lat":"31.38965961212","category":"247","category_name":"餐饮美食","address":"嘉定区嘉定区新城路899号(近塔城路)"},{"poiid":"B2094757D064AAF8429C","title":"张太和爊鸭(迎园店)","lon":"121.26682","lat":"31.38407","category":"68","category_name":"快餐厅","address":"嘉定区嘉定镇迎园中路616号(迎园北路迎园路)"},{"poiid":"B2094757D064A5FD439C","title":"嘉定迎园医院","lon":"121.271763","lat":"31.379434","category":"162","category_name":"医院","address":"上海嘉定区墅沟路"},{"poiid":"B2094750DA6CA0F9419F","title":"清风人家","lon":"121.267906","lat":"31.381256","category":"247","category_name":"餐饮美食","address":"嘉定区仓场路2669号(近新成路)"},{"poiid":"B2094654D469A4FF4399","title":"永琪美容美发(仓场路)","lon":"121.26959","lat":"31.38189","category":"148","category_name":"美容美发店","address":"仓场路451"},{"poiid":"B2094757D16AA3FE4399","title":"哈瓦那酒吧","lon":"121.2669661","lat":"31.384118816","category":"172","category_name":"酒吧","address":"嘉定区环城路579号(近嘉行公路)"},{"poiid":"B2094757D66DAAFA429F","title":"上海之春“百合里”","lon":"121.272799653","lat":"31.3812721183","category":"500","category_name":"未知分类","address":"上海市嘉定区和政路"},{"poiid":"B2094757D065A5F8439A","title":"珍品 仓场路站","lon":"121.27568","lat":"31.38379","category":"76","category_name":"上海菜","address":"嘉定区仓场路102号"},{"poiid":"B2094757D16AA6F4419A","title":"龍飛飯店","lon":"121.26841735","lat":"31.381793975","category":"247","category_name":"餐饮美食","address":"中国上海市嘉定區倉場路"},{"poiid":"B2094757D66FA2FC499B","title":"老昌盛　汤包馆","lon":"121.26748465","lat":"31.381581124","category":"68","category_name":"快餐厅","address":"嘉定区仓场路(近龙凤饭店)"},{"poiid":"B2094654DB6AA5FD429E","title":"小云南米线馆 仓场路店","lon":"121.267117054","lat":"31.381786793","category":"68","category_name":"快餐厅","address":"嘉定区仓场路"},{"poiid":"B2094654D469A0F94893","title":"嘉星小区","lon":"121.27119","lat":"31.387753","category":"47","category_name":"住宅区","address":"塔城东路255弄"},{"poiid":"B2094654DB65A6F4459C","title":"农工商超市NO.66","lon":"121.26861","lat":"31.38215","category":"118","category_name":"超级市场","address":"仓场路428"},{"poiid":"B2094655D36CA0FA489B","title":"嘉华山庄","lon":"121.268","lat":"31.3847","category":"38","category_name":"公交车站","address":"上海嘉定区嘉宝公路351号"},{"poiid":"B2094757D065A6FB4193","title":"珍品(嘉罗公路店)","lon":"121.26207","lat":"31.38376","category":"76","category_name":"上海菜","address":"嘉定区嘉罗公路453号(宝嘉公路迎园中路)"},{"poiid":"B2094654D469A4FF4098","title":"新成五坊","lon":"121.26985","lat":"31.385441","category":"47","category_name":"住宅区","address":"迎园路415弄"},{"poiid":"B2094757D168A4FF469A","title":"顺水人情浴场","lon":"121.270279653","lat":"31.3799950923","category":"149","category_name":"洗浴推拿场所","address":"上海近郊嘉定区新城路118号体育中心内  "},{"poiid":"B2094655D36CA7F9479F","title":"和政路仓场路","lon":"121.2718","lat":"31.38316","category":"38","category_name":"公交车站","address":""},{"poiid":"B2094757D165A1FE409A","title":"卡雨诗专业护肤造型中心","lon":"121.269841268","lat":"31.3825616297","category":"149","category_name":"洗浴推拿场所","address":"上海嘉定区仓场路418号"},{"poiid":"B2094654D469A0F9489C","title":"湖光月色·嘉贤庄","lon":"121.26937","lat":"31.38983","category":"47","category_name":"住宅区","address":"新成路"},{"poiid":"B2094655D268A7FF469E","title":"新城公园","lon":"121.26873","lat":"31.38832","category":"196","category_name":"公园","address":""},{"poiid":"B2094757D16AA3FD489B","title":"中国移动仓场路营业厅","lon":"121.270274","lat":"31.382544","category":"150","category_name":"银行","address":"上海嘉定镇仓场路418号"},{"poiid":"B2094654D469A4FF4292","title":"“楼组党建”党员服务广场","lon":"121.26885","lat":"31.38167","category":"201","category_name":"城市广场","address":""},{"poiid":"B2094757D06AA6F8459B","title":"塔城路","lon":"121.26364565","lat":"31.387504245","category":"500","category_name":"未知分类","address":"上海市嘉定区"},{"poiid":"B2094655D26FA2F44099","title":"文峰美容美发(仓场路店)","lon":"121.26772","lat":"31.38216","category":"148","category_name":"美容美发店","address":"嘉定区仓场路455号(仓场路新成路)"},{"poiid":"B2094757D064A0FF479A","title":"麦巢ktv","lon":"121.26563965","lat":"31.381196116","category":"170","category_name":"KTV","address":"上海市嘉定区嘉行公路"},{"poiid":"B2094655D36DA0FC4099","title":"新成路迎园路","lon":"121.26686","lat":"31.38569","category":"38","category_name":"公交车站","address":""},{"poiid":"B2094654D469A7F84699","title":"新望花园","lon":"121.27238","lat":"31.38357","category":"47","category_name":"住宅区","address":"仓场路350弄"},{"poiid":"B2094654D469A5F54192","title":"品客休闲屋仓场路NO.058","lon":"121.266","lat":"31.38136","category":"68","category_name":"快餐厅","address":"嘉定区仓场路2754号(近迎园三坊)"},{"poiid":"B209475CD46DABF9449B","title":"糖先森","lon":"121.26947","lat":"31.383806","category":"249","category_name":"购物服务","address":"上海市 嘉定区仓场路426号A8"},{"poiid":"B2094655D26FABF84092","title":"迎园新村五、八坊(东门)","lon":"121.26742","lat":"31.38382","category":"47","category_name":"住宅区","address":""},{"poiid":"B2094654D469A4F9479F","title":"迎园东一坊","lon":"121.26803","lat":"31.38057","category":"47","category_name":"住宅区","address":"新成路261弄1-18号"},{"poiid":"B2094757D168AAFE4398","title":"太麻里台湾私房牛肉面","lon":"121.27595765","lat":"31.383252158","category":"91","category_name":"台湾菜","address":"嘉定区仓场路116号"},{"poiid":"B2094654D469A7F8469E","title":"快客(仓场路)","lon":"121.27245","lat":"31.38307","category":"117","category_name":"便民商店/便利店","address":""},{"poiid":"B2094655D26BABFC449B","title":"铭记烧烤麻辣烫","lon":"121.2638","lat":"31.38099","category":"68","category_name":"快餐厅","address":"嘉定区仓场路2899号(仓场路嘉定迎宾路)"},{"poiid":"B2094750DA6BA0F8479B","title":"唱九天ktv","lon":"121.276916","lat":"31.380571","category":"248","category_name":"生活娱乐","address":null},{"poiid":"B2094654D469A5F4499D","title":"迎园新村十一坊","lon":"121.26624","lat":"31.385618","category":"47","category_name":"住宅区","address":"新成路附近"},{"poiid":"B2094757D06AA6F4439C","title":"仓场路","lon":"121.26558865","lat":"31.381247117","category":"500","category_name":"未知分类","address":"上海市嘉定区仓场路"},{"poiid":"B2094757D068A1FD419E","title":"嘉定体育中心","lon":"121.27172851","lat":"31.376722335","category":"500","category_name":"未知分类","address":"嘉定区新成路118号嘉定体育中心内"},{"poiid":"B2094757D068ABF5459F","title":"龙飞大酒店(仓场店)","lon":"121.27062","lat":"31.38185","category":"75","category_name":"浙江菜","address":"嘉定区仓场路422号龙飞大酒店内(仓场路新成路)"},{"poiid":"B2094757D064A3F5419E","title":"老盛昌汤包馆","lon":"121.267241653","lat":"31.3812336176","category":"247","category_name":"餐饮美食","address":"上海仓城路店"},{"poiid":"B2094654D469A5F5419C","title":"快乐鸟盱眙十三香龙虾","lon":"121.26595","lat":"31.38135","category":"257","category_name":"中餐厅","address":"嘉定区仓场路2758号(近迎园路)"},{"poiid":"B2094757D065A5FC4392","title":"歌顿咖啡新成店","lon":"121.2694","lat":"31.38908","category":"260","category_name":"其他","address":"嘉定区塔城东路292号(近和政路)"},{"poiid":"B2094655D264A1FF4793","title":"嘉怡别墅","lon":"121.273613","lat":"31.387348","category":"47","category_name":"住宅区","address":"嘉定区茹水路1180弄"},{"poiid":"B2094757D16FA4FA489C","title":"吴姑娘特色煲(仓场店)","lon":"121.265738653","lat":"31.3821161356","category":"76","category_name":"上海菜","address":"嘉定区仓场路2871号(近迎园路)"},{"poiid":"B2094757D66BA3FA4799","title":"张太和爊鸭 仓场路店","lon":"121.266739054","lat":"31.381288793","category":"68","category_name":"快餐厅","address":"嘉定区仓场路2879号(仓场路迎园路)"},{"poiid":"B2094757D168A2F9409B","title":"乐天玛特超市(嘉定店)","lon":"121.274547653","lat":"31.3806481056","category":"249","category_name":"购物服务","address":"嘉定区仓场路365号2-3楼(和政路口)"},{"poiid":"B2094654D469A4FA419D","title":"嘉宝花园别墅","lon":"121.271","lat":"31.3832","category":"47","category_name":"住宅区","address":"上海市嘉定区墅沟路888弄"},{"poiid":"B2094654D469A4FF439D","title":"南陈小区","lon":"121.27072","lat":"31.38167","category":"47","category_name":"住宅区","address":"仓场路421弄"},{"poiid":"B2094655D26FABF8419A","title":"迎园新村五、八坊","lon":"121.26623","lat":"31.38359","category":"47","category_name":"住宅区","address":"上海嘉定区迎园中路"},{"poiid":"B2094757D464A0FA4292","title":"燕子酒家 嘉定花园店","lon":"121.2685578722","lat":"31.38965961212","category":"247","category_name":"餐饮美食","address":"嘉定区嘉定区新城路899号(近塔城路)"},{"poiid":"B2094757D064AAF8429C","title":"张太和爊鸭(迎园店)","lon":"121.26682","lat":"31.38407","category":"68","category_name":"快餐厅","address":"嘉定区嘉定镇迎园中路616号(迎园北路迎园路)"},{"poiid":"B2094757D064A5FD439C","title":"嘉定迎园医院","lon":"121.271763","lat":"31.379434","category":"162","category_name":"医院","address":"上海嘉定区墅沟路"},{"poiid":"B2094750DA6CA0F9419F","title":"清风人家","lon":"121.267906","lat":"31.381256","category":"247","category_name":"餐饮美食","address":"嘉定区仓场路2669号(近新成路)"},{"poiid":"B2094654D469A4FF4399","title":"永琪美容美发(仓场路)","lon":"121.26959","lat":"31.38189","category":"148","category_name":"美容美发店","address":"仓场路451"},{"poiid":"B2094757D16AA3FE4399","title":"哈瓦那酒吧","lon":"121.2669661","lat":"31.384118816","category":"172","category_name":"酒吧","address":"嘉定区环城路579号(近嘉行公路)"},{"poiid":"B2094757D66DAAFA429F","title":"上海之春“百合里”","lon":"121.272799653","lat":"31.3812721183","category":"500","category_name":"未知分类","address":"上海市嘉定区和政路"},{"poiid":"B2094757D065A5F8439A","title":"珍品 仓场路站","lon":"121.27568","lat":"31.38379","category":"76","category_name":"上海菜","address":"嘉定区仓场路102号"},{"poiid":"B2094757D16AA6F4419A","title":"龍飛飯店","lon":"121.26841735","lat":"31.381793975","category":"247","category_name":"餐饮美食","address":"中国上海市嘉定區倉場路"},{"poiid":"B2094757D66FA2FC499B","title":"老昌盛　汤包馆","lon":"121.26748465","lat":"31.381581124","category":"68","category_name":"快餐厅","address":"嘉定区仓场路(近龙凤饭店)"},{"poiid":"B2094654DB6AA5FD429E","title":"小云南米线馆 仓场路店","lon":"121.267117054","lat":"31.381786793","category":"68","category_name":"快餐厅","address":"嘉定区仓场路"},{"poiid":"B2094654D469A0F94893","title":"嘉星小区","lon":"121.27119","lat":"31.387753","category":"47","category_name":"住宅区","address":"塔城东路255弄"},{"poiid":"B2094654DB65A6F4459C","title":"农工商超市NO.66","lon":"121.26861","lat":"31.38215","category":"118","category_name":"超级市场","address":"仓场路428"},{"poiid":"B2094655D36CA0FA489B","title":"嘉华山庄","lon":"121.268","lat":"31.3847","category":"38","category_name":"公交车站","address":"上海嘉定区嘉宝公路351号"},{"poiid":"B2094757D065A6FB4193","title":"珍品(嘉罗公路店)","lon":"121.26207","lat":"31.38376","category":"76","category_name":"上海菜","address":"嘉定区嘉罗公路453号(宝嘉公路迎园中路)"},{"poiid":"B2094654D469A4FF4098","title":"新成五坊","lon":"121.26985","lat":"31.385441","category":"47","category_name":"住宅区","address":"迎园路415弄"},{"poiid":"B2094757D168A4FF469A","title":"顺水人情浴场","lon":"121.270279653","lat":"31.3799950923","category":"149","category_name":"洗浴推拿场所","address":"上海近郊嘉定区新城路118号体育中心内  "},{"poiid":"B2094655D36CA7F9479F","title":"和政路仓场路","lon":"121.2718","lat":"31.38316","category":"38","category_name":"公交车站","address":""},{"poiid":"B2094757D165A1FE409A","title":"卡雨诗专业护肤造型中心","lon":"121.269841268","lat":"31.3825616297","category":"149","category_name":"洗浴推拿场所","address":"上海嘉定区仓场路418号"},{"poiid":"B2094654D469A0F9489C","title":"湖光月色·嘉贤庄","lon":"121.26937","lat":"31.38983","category":"47","category_name":"住宅区","address":"新成路"},{"poiid":"B2094655D268A7FF469E","title":"新城公园","lon":"121.26873","lat":"31.38832","category":"196","category_name":"公园","address":""},{"poiid":"B2094757D16AA3FD489B","title":"中国移动仓场路营业厅","lon":"121.270274","lat":"31.382544","category":"150","category_name":"银行","address":"上海嘉定镇仓场路418号"},{"poiid":"B2094654D469A4FF4292","title":"“楼组党建”党员服务广场","lon":"121.26885","lat":"31.38167","category":"201","category_name":"城市广场","address":""},{"poiid":"B2094757D06AA6F8459B","title":"塔城路","lon":"121.26364565","lat":"31.387504245","category":"500","category_name":"未知分类","address":"上海市嘉定区"},{"poiid":"B2094655D26FA2F44099","title":"文峰美容美发(仓场路店)","lon":"121.26772","lat":"31.38216","category":"148","category_name":"美容美发店","address":"嘉定区仓场路455号(仓场路新成路)"},{"poiid":"B2094757D064A0FF479A","title":"麦巢ktv","lon":"121.26563965","lat":"31.381196116","category":"170","category_name":"KTV","address":"上海市嘉定区嘉行公路"},{"poiid":"B2094655D36DA0FC4099","title":"新成路迎园路","lon":"121.26686","lat":"31.38569","category":"38","category_name":"公交车站","address":""},{"poiid":"B2094654D469A7F84699","title":"新望花园","lon":"121.27238","lat":"31.38357","category":"47","category_name":"住宅区","address":"仓场路350弄"},{"poiid":"B2094654D469A5F54192","title":"品客休闲屋仓场路NO.058","lon":"121.266","lat":"31.38136","category":"68","category_name":"快餐厅","address":"嘉定区仓场路2754号(近迎园三坊)"},{"poiid":"B209475CD46DABF9449B","title":"糖先森","lon":"121.26947","lat":"31.383806","category":"249","category_name":"购物服务","address":"上海市 嘉定区仓场路426号A8"},{"poiid":"B2094655D26FABF84092","title":"迎园新村五、八坊(东门)","lon":"121.26742","lat":"31.38382","category":"47","category_name":"住宅区","address":""},{"poiid":"B2094654D469A4F9479F","title":"迎园东一坊","lon":"121.26803","lat":"31.38057","category":"47","category_name":"住宅区","address":"新成路261弄1-18号"},{"poiid":"B2094757D168AAFE4398","title":"太麻里台湾私房牛肉面","lon":"121.27595765","lat":"31.383252158","category":"91","category_name":"台湾菜","address":"嘉定区仓场路116号"},{"poiid":"B2094654D469A7F8469E","title":"快客(仓场路)","lon":"121.27245","lat":"31.38307","category":"117","category_name":"便民商店/便利店","address":""},{"poiid":"B2094655D26BABFC449B","title":"铭记烧烤麻辣烫","lon":"121.2638","lat":"31.38099","category":"68","category_name":"快餐厅","address":"嘉定区仓场路2899号(仓场路嘉定迎宾路)"},{"poiid":"B2094750DA6BA0F8479B","title":"唱九天ktv","lon":"121.276916","lat":"31.380571","category":"248","category_name":"生活娱乐","address":null},{"poiid":"B2094654D469A5F4499D","title":"迎园新村十一坊","lon":"121.26624","lat":"31.385618","category":"47","category_name":"住宅区","address":"新成路附近"},{"poiid":"B2094757D06AA6F4439C","title":"仓场路","lon":"121.26558865","lat":"31.381247117","category":"500","category_name":"未知分类","address":"上海市嘉定区仓场路"},{"poiid":"B2094757D068A1FD419E","title":"嘉定体育中心","lon":"121.27172851","lat":"31.376722335","category":"500","category_name":"未知分类","address":"嘉定区新成路118号嘉定体育中心内"},{"poiid":"B2094757D068ABF5459F","title":"龙飞大酒店(仓场店)","lon":"121.27062","lat":"31.38185","category":"75","category_name":"浙江菜","address":"嘉定区仓场路422号龙飞大酒店内(仓场路新成路)"},{"poiid":"B2094757D064A3F5419E","title":"老盛昌汤包馆","lon":"121.267241653","lat":"31.3812336176","category":"247","category_name":"餐饮美食","address":"上海仓城路店"},{"poiid":"B2094654D469A5F5419C","title":"快乐鸟盱眙十三香龙虾","lon":"121.26595","lat":"31.38135","category":"257","category_name":"中餐厅","address":"嘉定区仓场路2758号(近迎园路)"},{"poiid":"B2094757D065A5FC4392","title":"歌顿咖啡新成店","lon":"121.2694","lat":"31.38908","category":"260","category_name":"其他","address":"嘉定区塔城东路292号(近和政路)"},{"poiid":"B2094655D264A1FF4793","title":"嘉怡别墅","lon":"121.273613","lat":"31.387348","category":"47","category_name":"住宅区","address":"嘉定区茹水路1180弄"},{"poiid":"B2094757D16FA4FA489C","title":"吴姑娘特色煲(仓场店)","lon":"121.265738653","lat":"31.3821161356","category":"76","category_name":"上海菜","address":"嘉定区仓场路2871号(近迎园路)"},{"poiid":"B2094757D66BA3FA4799","title":"张太和爊鸭 仓场路店","lon":"121.266739054","lat":"31.381288793","category":"68","category_name":"快餐厅","address":"嘉定区仓场路2879号(仓场路迎园路)"},{"poiid":"B2094757D168A2F9409B","title":"乐天玛特超市(嘉定店)","lon":"121.274547653","lat":"31.3806481056","category":"249","category_name":"购物服务","address":"嘉定区仓场路365号2-3楼(和政路口)"},{"poiid":"B2094654D469A4FA419D","title":"嘉宝花园别墅","lon":"121.271","lat":"31.3832","category":"47","category_name":"住宅区","address":"上海市嘉定区墅沟路888弄"},{"poiid":"B2094654D469A4FF439D","title":"南陈小区","lon":"121.27072","lat":"31.38167","category":"47","category_name":"住宅区","address":"仓场路421弄"},{"poiid":"B2094655D26FABF8419A","title":"迎园新村五、八坊","lon":"121.26623","lat":"31.38359","category":"47","category_name":"住宅区","address":"上海嘉定区迎园中路"},{"poiid":"B2094757D464A0FA4292","title":"燕子酒家 嘉定花园店","lon":"121.2685578722","lat":"31.38965961212","category":"247","category_name":"餐饮美食","address":"嘉定区嘉定区新城路899号(近塔城路)"},{"poiid":"B2094757D064AAF8429C","title":"张太和爊鸭(迎园店)","lon":"121.26682","lat":"31.38407","category":"68","category_name":"快餐厅","address":"嘉定区嘉定镇迎园中路616号(迎园北路迎园路)"},{"poiid":"B2094757D064A5FD439C","title":"嘉定迎园医院","lon":"121.271763","lat":"31.379434","category":"162","category_name":"医院","address":"上海嘉定区墅沟路"},{"poiid":"B2094750DA6CA0F9419F","title":"清风人家","lon":"121.267906","lat":"31.381256","category":"247","category_name":"餐饮美食","address":"嘉定区仓场路2669号(近新成路)"},{"poiid":"B2094654D469A4FF4399","title":"永琪美容美发(仓场路)","lon":"121.26959","lat":"31.38189","category":"148","category_name":"美容美发店","address":"仓场路451"},{"poiid":"B2094757D16AA3FE4399","title":"哈瓦那酒吧","lon":"121.2669661","lat":"31.384118816","category":"172","category_name":"酒吧","address":"嘉定区环城路579号(近嘉行公路)"},{"poiid":"B2094757D66DAAFA429F","title":"上海之春“百合里”","lon":"121.272799653","lat":"31.3812721183","category":"500","category_name":"未知分类","address":"上海市嘉定区和政路"},{"poiid":"B2094757D065A5F8439A","title":"珍品 仓场路站","lon":"121.27568","lat":"31.38379","category":"76","category_name":"上海菜","address":"嘉定区仓场路102号"},{"poiid":"B2094757D16AA6F4419A","title":"龍飛飯店","lon":"121.26841735","lat":"31.381793975","category":"247","category_name":"餐饮美食","address":"中国上海市嘉定區倉場路"},{"poiid":"B2094757D66FA2FC499B","title":"老昌盛　汤包馆","lon":"121.26748465","lat":"31.381581124","category":"68","category_name":"快餐厅","address":"嘉定区仓场路(近龙凤饭店)"},{"poiid":"B2094654DB6AA5FD429E","title":"小云南米线馆 仓场路店","lon":"121.267117054","lat":"31.381786793","category":"68","category_name":"快餐厅","address":"嘉定区仓场路"},{"poiid":"B2094654D469A0F94893","title":"嘉星小区","lon":"121.27119","lat":"31.387753","category":"47","category_name":"住宅区","address":"塔城东路255弄"},{"poiid":"B2094654DB65A6F4459C","title":"农工商超市NO.66","lon":"121.26861","lat":"31.38215","category":"118","category_name":"超级市场","address":"仓场路428"},{"poiid":"B2094655D36CA0FA489B","title":"嘉华山庄","lon":"121.268","lat":"31.3847","category":"38","category_name":"公交车站","address":"上海嘉定区嘉宝公路351号"},{"poiid":"B2094757D065A6FB4193","title":"珍品(嘉罗公路店)","lon":"121.26207","lat":"31.38376","category":"76","category_name":"上海菜","address":"嘉定区嘉罗公路453号(宝嘉公路迎园中路)"},{"poiid":"B2094654D469A4FF4098","title":"新成五坊","lon":"121.26985","lat":"31.385441","category":"47","category_name":"住宅区","address":"迎园路415弄"},{"poiid":"B2094757D168A4FF469A","title":"顺水人情浴场","lon":"121.270279653","lat":"31.3799950923","category":"149","category_name":"洗浴推拿场所","address":"上海近郊嘉定区新城路118号体育中心内  "},{"poiid":"B2094655D36CA7F9479F","title":"和政路仓场路","lon":"121.2718","lat":"31.38316","category":"38","category_name":"公交车站","address":""},{"poiid":"B2094757D165A1FE409A","title":"卡雨诗专业护肤造型中心","lon":"121.269841268","lat":"31.3825616297","category":"149","category_name":"洗浴推拿场所","address":"上海嘉定区仓场路418号"},{"poiid":"B2094654D469A0F9489C","title":"湖光月色·嘉贤庄","lon":"121.26937","lat":"31.38983","category":"47","category_name":"住宅区","address":"新成路"},{"poiid":"B2094655D268A7FF469E","title":"新城公园","lon":"121.26873","lat":"31.38832","category":"196","category_name":"公园","address":""},{"poiid":"B2094757D16AA3FD489B","title":"中国移动仓场路营业厅","lon":"121.270274","lat":"31.382544","category":"150","category_name":"银行","address":"上海嘉定镇仓场路418号"},{"poiid":"B2094654D469A4FF4292","title":"“楼组党建”党员服务广场","lon":"121.26885","lat":"31.38167","category":"201","category_name":"城市广场","address":""},{"poiid":"B2094757D06AA6F8459B","title":"塔城路","lon":"121.26364565","lat":"31.387504245","category":"500","category_name":"未知分类","address":"上海市嘉定区"},{"poiid":"B2094655D26FA2F44099","title":"文峰美容美发(仓场路店)","lon":"121.26772","lat":"31.38216","category":"148","category_name":"美容美发店","address":"嘉定区仓场路455号(仓场路新成路)"},{"poiid":"B2094757D064A0FF479A","title":"麦巢ktv","lon":"121.26563965","lat":"31.381196116","category":"170","category_name":"KTV","address":"上海市嘉定区嘉行公路"},{"poiid":"B2094655D36DA0FC4099","title":"新成路迎园路","lon":"121.26686","lat":"31.38569","category":"38","category_name":"公交车站","address":""},{"poiid":"B2094654D469A7F84699","title":"新望花园","lon":"121.27238","lat":"31.38357","category":"47","category_name":"住宅区","address":"仓场路350弄"},{"poiid":"B2094654D469A5F54192","title":"品客休闲屋仓场路NO.058","lon":"121.266","lat":"31.38136","category":"68","category_name":"快餐厅","address":"嘉定区仓场路2754号(近迎园三坊)"},{"poiid":"B209475CD46DABF9449B","title":"糖先森","lon":"121.26947","lat":"31.383806","category":"249","category_name":"购物服务","address":"上海市 嘉定区仓场路426号A8"},{"poiid":"B2094655D26FABF84092","title":"迎园新村五、八坊(东门)","lon":"121.26742","lat":"31.38382","category":"47","category_name":"住宅区","address":""},{"poiid":"B2094654D469A4F9479F","title":"迎园东一坊","lon":"121.26803","lat":"31.38057","category":"47","category_name":"住宅区","address":"新成路261弄1-18号"},{"poiid":"B2094757D168AAFE4398","title":"太麻里台湾私房牛肉面","lon":"121.27595765","lat":"31.383252158","category":"91","category_name":"台湾菜","address":"嘉定区仓场路116号"},{"poiid":"B2094654D469A7F8469E","title":"快客(仓场路)","lon":"121.27245","lat":"31.38307","category":"117","category_name":"便民商店/便利店","address":""},{"poiid":"B2094655D26BABFC449B","title":"铭记烧烤麻辣烫","lon":"121.2638","lat":"31.38099","category":"68","category_name":"快餐厅","address":"嘉定区仓场路2899号(仓场路嘉定迎宾路)"},{"poiid":"B2094750DA6BA0F8479B","title":"唱九天ktv","lon":"121.276916","lat":"31.380571","category":"248","category_name":"生活娱乐","address":null},{"poiid":"B2094654D469A5F4499D","title":"迎园新村十一坊","lon":"121.26624","lat":"31.385618","category":"47","category_name":"住宅区","address":"新成路附近"},{"poiid":"B2094757D06AA6F4439C","title":"仓场路","lon":"121.26558865","lat":"31.381247117","category":"500","category_name":"未知分类","address":"上海市嘉定区仓场路"},{"poiid":"B2094757D068A1FD419E","title":"嘉定体育中心","lon":"121.27172851","lat":"31.376722335","category":"500","category_name":"未知分类","address":"嘉定区新成路118号嘉定体育中心内"},{"poiid":"B2094757D068ABF5459F","title":"龙飞大酒店(仓场店)","lon":"121.27062","lat":"31.38185","category":"75","category_name":"浙江菜","address":"嘉定区仓场路422号龙飞大酒店内(仓场路新成路)"},{"poiid":"B2094757D064A3F5419E","title":"老盛昌汤包馆","lon":"121.267241653","lat":"31.3812336176","category":"247","category_name":"餐饮美食","address":"上海仓城路店"},{"poiid":"B2094654D469A5F5419C","title":"快乐鸟盱眙十三香龙虾","lon":"121.26595","lat":"31.38135","category":"257","category_name":"中餐厅","address":"嘉定区仓场路2758号(近迎园路)"},{"poiid":"B2094757D065A5FC4392","title":"歌顿咖啡新成店","lon":"121.2694","lat":"31.38908","category":"260","category_name":"其他","address":"嘉定区塔城东路292号(近和政路)"},{"poiid":"B2094655D264A1FF4793","title":"嘉怡别墅","lon":"121.273613","lat":"31.387348","category":"47","category_name":"住宅区","address":"嘉定区茹水路1180弄"},{"poiid":"B2094757D16FA4FA489C","title":"吴姑娘特色煲(仓场店)","lon":"121.265738653","lat":"31.3821161356","category":"76","category_name":"上海菜","address":"嘉定区仓场路2871号(近迎园路)"},{"poiid":"B2094757D66BA3FA4799","title":"张太和爊鸭 仓场路店","lon":"121.266739054","lat":"31.381288793","category":"68","category_name":"快餐厅","address":"嘉定区仓场路2879号(仓场路迎园路)"},{"poiid":"B2094757D168A2F9409B","title":"乐天玛特超市(嘉定店)","lon":"121.274547653","lat":"31.3806481056","category":"249","category_name":"购物服务","address":"嘉定区仓场路365号2-3楼(和政路口)"},{"poiid":"B2094654D469A4FA419D","title":"嘉宝花园别墅","lon":"121.271","lat":"31.3832","category":"47","category_name":"住宅区","address":"上海市嘉定区墅沟路888弄"},{"poiid":"B2094654D469A4FF439D","title":"南陈小区","lon":"121.27072","lat":"31.38167","category":"47","category_name":"住宅区","address":"仓场路421弄"},{"poiid":"B2094655D26FABF8419A","title":"迎园新村五、八坊","lon":"121.26623","lat":"31.38359","category":"47","category_name":"住宅区","address":"上海嘉定区迎园中路"},{"poiid":"B2094757D464A0FA4292","title":"燕子酒家 嘉定花园店","lon":"121.2685578722","lat":"31.38965961212","category":"247","category_name":"餐饮美食","address":"嘉定区嘉定区新城路899号(近塔城路)"},{"poiid":"B2094757D064AAF8429C","title":"张太和爊鸭(迎园店)","lon":"121.26682","lat":"31.38407","category":"68","category_name":"快餐厅","address":"嘉定区嘉定镇迎园中路616号(迎园北路迎园路)"},{"poiid":"B2094757D064A5FD439C","title":"嘉定迎园医院","lon":"121.271763","lat":"31.379434","category":"162","category_name":"医院","address":"上海嘉定区墅沟路"},{"poiid":"B2094750DA6CA0F9419F","title":"清风人家","lon":"121.267906","lat":"31.381256","category":"247","category_name":"餐饮美食","address":"嘉定区仓场路2669号(近新成路)"},{"poiid":"B2094654D469A4FF4399","title":"永琪美容美发(仓场路)","lon":"121.26959","lat":"31.38189","category":"148","category_name":"美容美发店","address":"仓场路451"},{"poiid":"B2094757D16AA3FE4399","title":"哈瓦那酒吧","lon":"121.2669661","lat":"31.384118816","category":"172","category_name":"酒吧","address":"嘉定区环城路579号(近嘉行公路)"},{"poiid":"B2094757D66DAAFA429F","title":"上海之春“百合里”","lon":"121.272799653","lat":"31.3812721183","category":"500","category_name":"未知分类","address":"上海市嘉定区和政路"},{"poiid":"B2094757D065A5F8439A","title":"珍品 仓场路站","lon":"121.27568","lat":"31.38379","category":"76","category_name":"上海菜","address":"嘉定区仓场路102号"},{"poiid":"B2094757D16AA6F4419A","title":"龍飛飯店","lon":"121.26841735","lat":"31.381793975","category":"247","category_name":"餐饮美食","address":"中国上海市嘉定區倉場路"},{"poiid":"B2094757D66FA2FC499B","title":"老昌盛　汤包馆","lon":"121.26748465","lat":"31.381581124","category":"68","category_name":"快餐厅","address":"嘉定区仓场路(近龙凤饭店)"},{"poiid":"B2094654DB6AA5FD429E","title":"小云南米线馆 仓场路店","lon":"121.267117054","lat":"31.381786793","category":"68","category_name":"快餐厅","address":"嘉定区仓场路"},{"poiid":"B2094654D469A0F94893","title":"嘉星小区","lon":"121.27119","lat":"31.387753","category":"47","category_name":"住宅区","address":"塔城东路255弄"},{"poiid":"B2094654DB65A6F4459C","title":"农工商超市NO.66","lon":"121.26861","lat":"31.38215","category":"118","category_name":"超级市场","address":"仓场路428"},{"poiid":"B2094655D36CA0FA489B","title":"嘉华山庄","lon":"121.268","lat":"31.3847","category":"38","category_name":"公交车站","address":"上海嘉定区嘉宝公路351号"},{"poiid":"B2094757D065A6FB4193","title":"珍品(嘉罗公路店)","lon":"121.26207","lat":"31.38376","category":"76","category_name":"上海菜","address":"嘉定区嘉罗公路453号(宝嘉公路迎园中路)"},{"poiid":"B2094654D469A4FF4098","title":"新成五坊","lon":"121.26985","lat":"31.385441","category":"47","category_name":"住宅区","address":"迎园路415弄"},{"poiid":"B2094757D168A4FF469A","title":"顺水人情浴场","lon":"121.270279653","lat":"31.3799950923","category":"149","category_name":"洗浴推拿场所","address":"上海近郊嘉定区新城路118号体育中心内  "},{"poiid":"B2094655D36CA7F9479F","title":"和政路仓场路","lon":"121.2718","lat":"31.38316","category":"38","category_name":"公交车站","address":""},{"poiid":"B2094757D165A1FE409A","title":"卡雨诗专业护肤造型中心","lon":"121.269841268","lat":"31.3825616297","category":"149","category_name":"洗浴推拿场所","address":"上海嘉定区仓场路418号"},{"poiid":"B2094654D469A0F9489C","title":"湖光月色·嘉贤庄","lon":"121.26937","lat":"31.38983","category":"47","category_name":"住宅区","address":"新成路"},{"poiid":"B2094655D268A7FF469E","title":"新城公园","lon":"121.26873","lat":"31.38832","category":"196","category_name":"公园","address":""},{"poiid":"B2094757D16AA3FD489B","title":"中国移动仓场路营业厅","lon":"121.270274","lat":"31.382544","category":"150","category_name":"银行","address":"上海嘉定镇仓场路418号"},{"poiid":"B2094654D469A4FF4292","title":"“楼组党建”党员服务广场","lon":"121.26885","lat":"31.38167","category":"201","category_name":"城市广场","address":""},{"poiid":"B2094757D06AA6F8459B","title":"塔城路","lon":"121.26364565","lat":"31.387504245","category":"500","category_name":"未知分类","address":"上海市嘉定区"},{"poiid":"B2094655D26FA2F44099","title":"文峰美容美发(仓场路店)","lon":"121.26772","lat":"31.38216","category":"148","category_name":"美容美发店","address":"嘉定区仓场路455号(仓场路新成路)"},{"poiid":"B2094757D064A0FF479A","title":"麦巢ktv","lon":"121.26563965","lat":"31.381196116","category":"170","category_name":"KTV","address":"上海市嘉定区嘉行公路"},{"poiid":"B2094655D36DA0FC4099","title":"新成路迎园路","lon":"121.26686","lat":"31.38569","category":"38","category_name":"公交车站","address":""},{"poiid":"B2094654D469A7F84699","title":"新望花园","lon":"121.27238","lat":"31.38357","category":"47","category_name":"住宅区","address":"仓场路350弄"},{"poiid":"B2094654D469A5F54192","title":"品客休闲屋仓场路NO.058","lon":"121.266","lat":"31.38136","category":"68","category_name":"快餐厅","address":"嘉定区仓场路2754号(近迎园三坊)"},{"poiid":"B209475CD46DABF9449B","title":"糖先森","lon":"121.26947","lat":"31.383806","category":"249","category_name":"购物服务","address":"上海市 嘉定区仓场路426号A8"},{"poiid":"B2094655D26FABF84092","title":"迎园新村五、八坊(东门)","lon":"121.26742","lat":"31.38382","category":"47","category_name":"住宅区","address":""},{"poiid":"B2094654D469A4F9479F","title":"迎园东一坊","lon":"121.26803","lat":"31.38057","category":"47","category_name":"住宅区","address":"新成路261弄1-18号"},{"poiid":"B2094757D168AAFE4398","title":"太麻里台湾私房牛肉面","lon":"121.27595765","lat":"31.383252158","category":"91","category_name":"台湾菜","address":"嘉定区仓场路116号"},{"poiid":"B2094654D469A7F8469E","title":"快客(仓场路)","lon":"121.27245","lat":"31.38307","category":"117","category_name":"便民商店/便利店","address":""},{"poiid":"B2094655D26BABFC449B","title":"铭记烧烤麻辣烫","lon":"121.2638","lat":"31.38099","category":"68","category_name":"快餐厅","address":"嘉定区仓场路2899号(仓场路嘉定迎宾路)"},{"poiid":"B2094750DA6BA0F8479B","title":"唱九天ktv","lon":"121.276916","lat":"31.380571","category":"248","category_name":"生活娱乐","address":null},{"poiid":"B2094654D469A5F4499D","title":"迎园新村十一坊","lon":"121.26624","lat":"31.385618","category":"47","category_name":"住宅区","address":"新成路附近"}]