[{"poiid":"B2094757D66FA2FF4892","title":"上海虹桥火车站","lon":"121.32484","lat":"31.20248","category":"22","category_name":"火车站","address":"上海虹桥火车站"},{"poiid":"B2094757D165A2F5429E","title":"虹桥机场2号航站楼","lon":"121.32848056","lat":"31.1976779609","category":"21","category_name":"飞机场","address":"长宁区七莘路申昆路"},{"poiid":"B2094757D06EAAFE489C","title":"虹桥机场停机坪","lon":"121.3352766","lat":"31.19801799","category":"21","category_name":"飞机场","address":"上海虹桥国际机场2号航站楼停机坪"},{"poiid":"B2094757D069A7FD439E","title":"虹桥机场2号航站楼30号登机口","lon":"121.332274223","lat":"31.1968882342","category":"21","category_name":"飞机场","address":"上海虹桥机场T2"},{"poiid":"B2094757D06EAAF44993","title":"虹桥机场2号航站楼头等舱休息室","lon":"121.32907425","lat":"31.19658545","category":"21","category_name":"飞机场","address":"上海虹桥机场国际机场T2"},{"poiid":"B2094757D06AA2F8489F","title":"虹桥机场2号航站楼42号登机口","lon":"121.32945656","lat":"31.1968459433","category":"21","category_name":"飞机场","address":"上海虹桥机场T2"},{"poiid":"B2094757D06EAAF8429F","title":"虹桥机场2号航站楼登机口","lon":"121.3295501","lat":"31.1972765791","category":"21","category_name":"飞机场","address":"上海虹桥机场T2"},{"poiid":"B2094757D06FAAFF439B","title":"虹桥机场2号航站楼V1头等舱贵宾室","lon":"121.33340227","lat":"31.19688863","category":"21","category_name":"飞机场","address":"上海虹桥国际机场T2(近25、26号登机口)"},{"poiid":"B2094757D06BA3FE499E","title":"虹桥机场航站楼摆渡巴士","lon":"121.33571936","lat":"31.2153037328","category":"260","category_name":"其他","address":"上海虹桥机场"},{"poiid":"B2094757D068A3F9419A","title":"虹桥机场2号航站楼V3国航头等舱贵宾室","lon":"121.33040022","lat":"31.1976481603","category":"21","category_name":"飞机场","address":"上海虹桥国际机场T2(安检后左转40号登机口附近)"},{"poiid":"B2094757D065A3F8499D","title":"虹桥机场2号航站楼33号登机口","lon":"121.33170356","lat":"31.196884944","category":"21","category_name":"飞机场","address":"上海虹桥机场T2"},{"poiid":"B2094757D06FA7FF479F","title":"上航虹桥基地","lon":"121.33067798","lat":"31.207181051","category":"500","category_name":"未知分类","address":"上海虹桥机场北大门"},{"poiid":"B2094757D06FA0FC499D","title":"上海航空虹桥基地","lon":"121.34491444601531","lat":"31.207246146137702","category":"500","category_name":"未知分类","address":"长宁区绥宁路"},{"poiid":"B2094757D069A7FB459D","title":"虹桥机场2号航站楼50号登机口","lon":"121.32888556","lat":"31.194866901","category":"21","category_name":"飞机场","address":"上海虹桥机场T2"},{"poiid":"B2094757D16CA4F4499F","title":"虹桥机场2号航站楼28号登机口","lon":"121.32946956","lat":"31.19716395","category":"21","category_name":"飞机场","address":"上海虹桥机场T2"},{"poiid":"B2094757D065A4F4459C","title":"虹桥机场2号航站楼25号登机口","lon":"121.32884535","lat":"31.197076856","category":"21","category_name":"飞机场","address":"上海虹桥机场T2"},{"poiid":"B2094757DA65A0FE4798","title":"虹桥机场2号航站楼","lon":"121.326098","lat":"31.195109","category":"627","category_name":"一般地点标志","address":"虹桥机场2号航站楼"},{"poiid":"B2094757D068A3FB469F","title":"金色西郊城","lon":"121.33219585036659","lat":"31.223784683592665","category":"47","category_name":"住宅区","address":"闵行区北翟路2000弄70支弄"},{"poiid":"B2094757D06FA3F94398","title":"COSTA COFFEE(虹桥机场一店)","lon":"121.32957","lat":"31.19305","category":"65","category_name":"咖啡厅","address":"闵行区虹桥路2550号虹桥机场T2航站楼46-47登机口间(近七莘路)"},{"poiid":"B2094655D36CA7F84393","title":"虹桥枢纽","lon":"121.32744","lat":"31.19611","category":"38","category_name":"公交车站","address":"闵行区纪翟路888号"},{"poiid":"B2094757D06AAAFE4798","title":"虹桥机场2号航站楼46号登机口","lon":"121.3283987","lat":"31.194636876","category":"21","category_name":"飞机场","address":"上海虹桥机场T2"},{"poiid":"B2094757D16CA6FE4699","title":"虹桥机场2号航站楼40号登机口","lon":"121.33572387","lat":"31.194454193","category":"21","category_name":"飞机场","address":"上海虹桥机场T2"},{"poiid":"B2094757D16BA2F9449E","title":"虹桥机场T2航站楼29号登机口","lon":"121.33104856","lat":"31.1968349431","category":"500","category_name":"未知分类","address":"上海市闵行区七莘路"},{"poiid":"B2094757D06BA6FF4893","title":"华漕","lon":"121.33239356","lat":"31.220920451","category":"500","category_name":"未知分类","address":"上海闵行区北翟路七莘路"},{"poiid":"B2094757D06FABF44098","title":"虹桥机场2号航站楼V2上航头等舱贵宾室","lon":"121.33243942","lat":"31.194330144","category":"21","category_name":"飞机场","address":"上海虹桥国际机场T2(安检后左转40号登机口附近)"},{"poiid":"B2094757D165A3F5479E","title":"虹桥机场某个厕所","lon":"121.33195756","lat":"31.196851943","category":"21","category_name":"飞机场","address":"上海市闵行区申达一路"},{"poiid":"B2094757D16DA2F4419C","title":"虹桥机场2号航站楼44号登机口","lon":"121.32967956","lat":"31.1967169406","category":"21","category_name":"飞机场","address":"苏州上海市闵行区崧泽高架路"},{"poiid":"B2094757D06FA2FF489C","title":"上海东方远航物流有限公司虹桥西库区","lon":"121.33105339","lat":"31.205876589","category":"46","category_name":"楼宇","address":"上海虹翔一路8号(近七莘路润虹路口)"},{"poiid":"B2094757D16BA3FE429F","title":"上海虹桥机场43号登机口","lon":"121.32961156","lat":"31.197029947","category":"21","category_name":"飞机场","address":"上海市闵行区申昆路"},{"poiid":"B2094757D165A1FD4099","title":"虹桥机场2号航站楼v2休息室","lon":"121.32964116","lat":"31.197896365","category":"21","category_name":"飞机场","address":"上海虹桥机场2号航站楼v2休息室"},{"poiid":"B2094757D66CA4FC4692","title":"虹桥机场2号航站楼41号登机口","lon":"121.32915856","lat":"31.196518936","category":"500","category_name":"未知分类","address":"上海市闵行区申昆路"},{"poiid":"B2094750D26CA2FF469D","title":"虹桥机场2号航站楼35号登机口","lon":"121.3276811227778","lat":"31.198970065","category":"21","category_name":"飞机场","address":"虹桥机场2号航站楼35号登机口"},{"poiid":"B2094757D16EAAFE499D","title":"一汽沪奥奥迪4s","lon":"121.33582056","lat":"31.2242945226","category":"500","category_name":"未知分类","address":"闵行区北翟路1800号(近北沈路)"},{"poiid":"B2094654D56AA3FB4893","title":"光荣百货","lon":"121.33244","lat":"31.20753","category":"119","category_name":"商场","address":"侯宁路"},{"poiid":"B2094654D56AA1FA4898","title":"啊羲卤菜","lon":"121.33231","lat":"31.20754","category":"247","category_name":"餐饮美食","address":""},{"poiid":"B2094654D56AA3F4439F","title":"上海航空公司虹桥基地","lon":"121.34483","lat":"31.207","category":"263","category_name":"公司","address":"绥宁路"},{"poiid":"B2094654D56AA0FB449D","title":"梦缘家常菜馆","lon":"121.33293","lat":"31.20749","category":"257","category_name":"中餐厅","address":""},{"poiid":"B2094757D16CA0F54692","title":"贝菲特健身中心(虹桥店)","lon":"121.32864806","lat":"31.221756569","category":"220","category_name":"运动场所","address":"闵行区北翟路1992号金色西郊休闲广场(近华江路)"},{"poiid":"B2094757D069ABFB499C","title":"虹桥1号","lon":"121.331484","lat":"31.223735","category":"252","category_name":"楼宇机构","address":"闵行区虹秀路8弄"},{"poiid":"B2094757D065A5FA429E","title":"永达大众4S店","lon":"121.332369127","lat":"31.2088525967","category":"500","category_name":"未知分类","address":"上海中春路9977号"},{"poiid":"B2094757D16CA5F4469B","title":"虹桥机场市政管理中心大楼","lon":"121.3292236","lat":"31.202790012","category":"21","category_name":"飞机场","address":"上海市虹翔二路39号"},{"poiid":"B2094752D76EA3FF4592","title":"虹桥机场1号航站楼登机口","lon":"121.325722","lat":"31.206426","category":"500","category_name":"未知分类","address":null},{"poiid":"B2094757D064A4FA4893","title":"上海共进通信技术有限公司创意部","lon":"121.33318456","lat":"31.208961199","category":"263","category_name":"公司","address":"上海徐汇区虹梅路1905号远中科研楼七楼"},{"poiid":"B2094654D56AA2FD419A","title":"象山海鲜酒楼","lon":"121.32701","lat":"31.20989","category":"88","category_name":"海鲜酒楼","address":"吴漕路"},{"poiid":"B2094757D06AA0F8439B","title":"西区货站","lon":"121.32852083","lat":"31.2078084046","category":"500","category_name":"未知分类","address":"上海仙霞西路"},{"poiid":"B2094654D56AA2FD4098","title":"理想国相册","lon":"121.33311","lat":"31.21355","category":"47","category_name":"住宅区","address":"东美南路18号"},{"poiid":"B2094753D26BA5F9469D","title":"上海虹桥机场","lon":"121.339239","lat":"31.214826","category":"500","category_name":"未知分类","address":"上海市 虹桥机场"},{"poiid":"B2094654D56AA2FD419C","title":"陶园舒乐小区","lon":"121.32748","lat":"31.21184","category":"47","category_name":"住宅区","address":"吴漕路718"},{"poiid":"B209475CD668A5FD409F","title":"虹桥机场1号航站楼","lon":"121.334487","lat":"31.20594","category":"500","category_name":"未知分类","address":"上海市 上海闵行区"},{"poiid":"B2094654DB6BA0FF439C","title":"华漕苑","lon":"121.33511","lat":"31.220428","category":"47","category_name":"住宅区","address":"东美路108弄"},{"poiid":"B2094757D66FA2FF4892","title":"上海虹桥火车站","lon":"121.32484","lat":"31.20248","category":"22","category_name":"火车站","address":"上海虹桥火车站"},{"poiid":"B2094757D165A2F5429E","title":"虹桥机场2号航站楼","lon":"121.32848056","lat":"31.1976779609","category":"21","category_name":"飞机场","address":"长宁区七莘路申昆路"},{"poiid":"B2094757D06EAAFE489C","title":"虹桥机场停机坪","lon":"121.3352766","lat":"31.19801799","category":"21","category_name":"飞机场","address":"上海虹桥国际机场2号航站楼停机坪"},{"poiid":"B2094757D069A7FD439E","title":"虹桥机场2号航站楼30号登机口","lon":"121.332274223","lat":"31.1968882342","category":"21","category_name":"飞机场","address":"上海虹桥机场T2"},{"poiid":"B2094757D06EAAF44993","title":"虹桥机场2号航站楼头等舱休息室","lon":"121.32907425","lat":"31.19658545","category":"21","category_name":"飞机场","address":"上海虹桥机场国际机场T2"},{"poiid":"B2094757D06AA2F8489F","title":"虹桥机场2号航站楼42号登机口","lon":"121.32945656","lat":"31.1968459433","category":"21","category_name":"飞机场","address":"上海虹桥机场T2"},{"poiid":"B2094757D06EAAF8429F","title":"虹桥机场2号航站楼登机口","lon":"121.3295501","lat":"31.1972765791","category":"21","category_name":"飞机场","address":"上海虹桥机场T2"},{"poiid":"B2094757D06FAAFF439B","title":"虹桥机场2号航站楼V1头等舱贵宾室","lon":"121.33340227","lat":"31.19688863","category":"21","category_name":"飞机场","address":"上海虹桥国际机场T2(近25、26号登机口)"},{"poiid":"B2094757D06BA3FE499E","title":"虹桥机场航站楼摆渡巴士","lon":"121.33571936","lat":"31.2153037328","category":"260","category_name":"其他","address":"上海虹桥机场"},{"poiid":"B2094757D068A3F9419A","title":"虹桥机场2号航站楼V3国航头等舱贵宾室","lon":"121.33040022","lat":"31.1976481603","category":"21","category_name":"飞机场","address":"上海虹桥国际机场T2(安检后左转40号登机口附近)"},{"poiid":"B2094757D065A3F8499D","title":"虹桥机场2号航站楼33号登机口","lon":"121.33170356","lat":"31.196884944","category":"21","category_name":"飞机场","address":"上海虹桥机场T2"},{"poiid":"B2094757D06FA7FF479F","title":"上航虹桥基地","lon":"121.33067798","lat":"31.207181051","category":"500","category_name":"未知分类","address":"上海虹桥机场北大门"},{"poiid":"B2094757D06FA0FC499D","title":"上海航空虹桥基地","lon":"121.34491444601531","lat":"31.207246146137702","category":"500","category_name":"未知分类","address":"长宁区绥宁路"},{"poiid":"B2094757D069A7FB459D","title":"虹桥机场2号航站楼50号登机口","lon":"121.32888556","lat":"31.194866901","category":"21","category_name":"飞机场","address":"上海虹桥机场T2"},{"poiid":"B2094757D16CA4F4499F","title":"虹桥机场2号航站楼28号登机口","lon":"121.32946956","lat":"31.19716395","category":"21","category_name":"飞机场","address":"上海虹桥机场T2"},{"poiid":"B2094757D065A4F4459C","title":"虹桥机场2号航站楼25号登机口","lon":"121.32884535","lat":"31.197076856","category":"21","category_name":"飞机场","address":"上海虹桥机场T2"},{"poiid":"B2094757DA65A0FE4798","title":"虹桥机场2号航站楼","lon":"121.326098","lat":"31.195109","category":"627","category_name":"一般地点标志","address":"虹桥机场2号航站楼"},{"poiid":"B2094757D068A3FB469F","title":"金色西郊城","lon":"121.33219585036659","lat":"31.223784683592665","category":"47","category_name":"住宅区","address":"闵行区北翟路2000弄70支弄"},{"poiid":"B2094757D06FA3F94398","title":"COSTA COFFEE(虹桥机场一店)","lon":"121.32957","lat":"31.19305","category":"65","category_name":"咖啡厅","address":"闵行区虹桥路2550号虹桥机场T2航站楼46-47登机口间(近七莘路)"},{"poiid":"B2094655D36CA7F84393","title":"虹桥枢纽","lon":"121.32744","lat":"31.19611","category":"38","category_name":"公交车站","address":"闵行区纪翟路888号"},{"poiid":"B2094757D06AAAFE4798","title":"虹桥机场2号航站楼46号登机口","lon":"121.3283987","lat":"31.194636876","category":"21","category_name":"飞机场","address":"上海虹桥机场T2"},{"poiid":"B2094757D16CA6FE4699","title":"虹桥机场2号航站楼40号登机口","lon":"121.33572387","lat":"31.194454193","category":"21","category_name":"飞机场","address":"上海虹桥机场T2"},{"poiid":"B2094757D16BA2F9449E","title":"虹桥机场T2航站楼29号登机口","lon":"121.33104856","lat":"31.1968349431","category":"500","category_name":"未知分类","address":"上海市闵行区七莘路"},{"poiid":"B2094757D06BA6FF4893","title":"华漕","lon":"121.33239356","lat":"31.220920451","category":"500","category_name":"未知分类","address":"上海闵行区北翟路七莘路"},{"poiid":"B2094757D06FABF44098","title":"虹桥机场2号航站楼V2上航头等舱贵宾室","lon":"121.33243942","lat":"31.194330144","category":"21","category_name":"飞机场","address":"上海虹桥国际机场T2(安检后左转40号登机口附近)"},{"poiid":"B2094757D165A3F5479E","title":"虹桥机场某个厕所","lon":"121.33195756","lat":"31.196851943","category":"21","category_name":"飞机场","address":"上海市闵行区申达一路"},{"poiid":"B2094757D16DA2F4419C","title":"虹桥机场2号航站楼44号登机口","lon":"121.32967956","lat":"31.1967169406","category":"21","category_name":"飞机场","address":"苏州上海市闵行区崧泽高架路"},{"poiid":"B2094757D06FA2FF489C","title":"上海东方远航物流有限公司虹桥西库区","lon":"121.33105339","lat":"31.205876589","category":"46","category_name":"楼宇","address":"上海虹翔一路8号(近七莘路润虹路口)"},{"poiid":"B2094757D16BA3FE429F","title":"上海虹桥机场43号登机口","lon":"121.32961156","lat":"31.197029947","category":"21","category_name":"飞机场","address":"上海市闵行区申昆路"},{"poiid":"B2094757D165A1FD4099","title":"虹桥机场2号航站楼v2休息室","lon":"121.32964116","lat":"31.197896365","category":"21","category_name":"飞机场","address":"上海虹桥机场2号航站楼v2休息室"},{"poiid":"B2094757D66CA4FC4692","title":"虹桥机场2号航站楼41号登机口","lon":"121.32915856","lat":"31.196518936","category":"500","category_name":"未知分类","address":"上海市闵行区申昆路"},{"poiid":"B2094750D26CA2FF469D","title":"虹桥机场2号航站楼35号登机口","lon":"121.3276811227778","lat":"31.198970065","category":"21","category_name":"飞机场","address":"虹桥机场2号航站楼35号登机口"},{"poiid":"B2094757D16EAAFE499D","title":"一汽沪奥奥迪4s","lon":"121.33582056","lat":"31.2242945226","category":"500","category_name":"未知分类","address":"闵行区北翟路1800号(近北沈路)"},{"poiid":"B2094654D56AA3FB4893","title":"光荣百货","lon":"121.33244","lat":"31.20753","category":"119","category_name":"商场","address":"侯宁路"},{"poiid":"B2094654D56AA1FA4898","title":"啊羲卤菜","lon":"121.33231","lat":"31.20754","category":"247","category_name":"餐饮美食","address":""},{"poiid":"B2094654D56AA3F4439F","title":"上海航空公司虹桥基地","lon":"121.34483","lat":"31.207","category":"263","category_name":"公司","address":"绥宁路"},{"poiid":"B2094654D56AA0FB449D","title":"梦缘家常菜馆","lon":"121.33293","lat":"31.20749","category":"257","category_name":"中餐厅","address":""},{"poiid":"B2094757D16CA0F54692","title":"贝菲特健身中心(虹桥店)","lon":"121.32864806","lat":"31.221756569","category":"220","category_name":"运动场所","address":"闵行区北翟路1992号金色西郊休闲广场(近华江路)"},{"poiid":"B2094757D069ABFB499C","title":"虹桥1号","lon":"121.331484","lat":"31.223735","category":"252","category_name":"楼宇机构","address":"闵行区虹秀路8弄"},{"poiid":"B2094757D065A5FA429E","title":"永达大众4S店","lon":"121.332369127","lat":"31.2088525967","category":"500","category_name":"未知分类","address":"上海中春路9977号"},{"poiid":"B2094757D16CA5F4469B","title":"虹桥机场市政管理中心大楼","lon":"121.3292236","lat":"31.202790012","category":"21","category_name":"飞机场","address":"上海市虹翔二路39号"},{"poiid":"B2094752D76EA3FF4592","title":"虹桥机场1号航站楼登机口","lon":"121.325722","lat":"31.206426","category":"500","category_name":"未知分类","address":null},{"poiid":"B2094757D064A4FA4893","title":"上海共进通信技术有限公司创意部","lon":"121.33318456","lat":"31.208961199","category":"263","category_name":"公司","address":"上海徐汇区虹梅路1905号远中科研楼七楼"},{"poiid":"B2094654D56AA2FD419A","title":"象山海鲜酒楼","lon":"121.32701","lat":"31.20989","category":"88","category_name":"海鲜酒楼","address":"吴漕路"},{"poiid":"B2094757D06AA0F8439B","title":"西区货站","lon":"121.32852083","lat":"31.2078084046","category":"500","category_name":"未知分类","address":"上海仙霞西路"},{"poiid":"B2094654D56AA2FD4098","title":"理想国相册","lon":"121.33311","lat":"31.21355","category":"47","category_name":"住宅区","address":"东美南路18号"},{"poiid":"B2094753D26BA5F9469D","title":"上海虹桥机场","lon":"121.339239","lat":"31.214826","category":"500","category_name":"未知分类","address":"上海市 虹桥机场"},{"poiid":"B2094654D56AA2FD419C","title":"陶园舒乐小区","lon":"121.32748","lat":"31.21184","category":"47","category_name":"住宅区","address":"吴漕路718"},{"poiid":"B209475CD668A5FD409F","title":"虹桥机场1号航站楼","lon":"121.334487","lat":"31.20594","category":"500","category_name":"未知分类","address":"上海市 上海闵行区"},{"poiid":"B2094654DB6BA0FF439C","title":"华漕苑","lon":"121.33511","lat":"31.220428","category":"47","category_name":"住宅区","address":"东美路108弄"},{"poiid":"B2094757D66FA2FF4892","title":"上海虹桥火车站","lon":"121.32484","lat":"31.20248","category":"22","category_name":"火车站","address":"上海虹桥火车站"},{"poiid":"B2094757D165A2F5429E","title":"虹桥机场2号航站楼","lon":"121.32848056","lat":"31.1976779609","category":"21","category_name":"飞机场","address":"长宁区七莘路申昆路"},{"poiid":"B2094757D06EAAFE489C","title":"虹桥机场停机坪","lon":"121.3352766","lat":"31.19801799","category":"21","category_name":"飞机场","address":"上海虹桥国际机场2号航站楼停机坪"},{"poiid":"B2094757D069A7FD439E","title":"虹桥机场2号航站楼30号登机口","lon":"121.332274223","lat":"31.1968882342","category":"21","category_name":"飞机场","address":"上海虹桥机场T2"},{"poiid":"B2094757D06EAAF44993","title":"虹桥机场2号航站楼头等舱休息室","lon":"121.32907425","lat":"31.19658545","category":"21","category_name":"飞机场","address":"上海虹桥机场国际机场T2"},{"poiid":"B2094757D06AA2F8489F","title":"虹桥机场2号航站楼42号登机口","lon":"121.32945656","lat":"31.1968459433","category":"21","category_name":"飞机场","address":"上海虹桥机场T2"},{"poiid":"B2094757D06EAAF8429F","title":"虹桥机场2号航站楼登机口","lon":"121.3295501","lat":"31.1972765791","category":"21","category_name":"飞机场","address":"上海虹桥机场T2"},{"poiid":"B2094757D06FAAFF439B","title":"虹桥机场2号航站楼V1头等舱贵宾室","lon":"121.33340227","lat":"31.19688863","category":"21","category_name":"飞机场","address":"上海虹桥国际机场T2(近25、26号登机口)"},{"poiid":"B2094757D06BA3FE499E","title":"虹桥机场航站楼摆渡巴士","lon":"121.33571936","lat":"31.2153037328","category":"260","category_name":"其他","address":"上海虹桥机场"},{"poiid":"B2094757D068A3F9419A","title":"虹桥机场2号航站楼V3国航头等舱贵宾室","lon":"121.33040022","lat":"31.1976481603","category":"21","category_name":"飞机场","address":"上海虹桥国际机场T2(安检后左转40号登机口附近)"},{"poiid":"B2094757D065A3F8499D","title":"虹桥机场2号航站楼33号登机口","lon":"121.33170356","lat":"31.196884944","category":"21","category_name":"飞机场","address":"上海虹桥机场T2"},{"poiid":"B2094757D06FA7FF479F","title":"上航虹桥基地","lon":"121.33067798","lat":"31.207181051","category":"500","category_name":"未知分类","address":"上海虹桥机场北大门"},{"poiid":"B2094757D06FA0FC499D","title":"上海航空虹桥基地","lon":"121.34491444601531","lat":"31.207246146137702","category":"500","category_name":"未知分类","address":"长宁区绥宁路"},{"poiid":"B2094757D069A7FB459D","title":"虹桥机场2号航站楼50号登机口","lon":"121.32888556","lat":"31.194866901","category":"21","category_name":"飞机场","address":"上海虹桥机场T2"},{"poiid":"B2094757D16CA4F4499F","title":"虹桥机场2号航站楼28号登机口","lon":"121.32946956","lat":"31.19716395","category":"21","category_name":"飞机场","address":"上海虹桥机场T2"},{"poiid":"B2094757D065A4F4459C","title":"虹桥机场2号航站楼25号登机口","lon":"121.32884535","lat":"31.197076856","category":"21","category_name":"飞机场","address":"上海虹桥机场T2"},{"poiid":"B2094757DA65A0FE4798","title":"虹桥机场2号航站楼","lon":"121.326098","lat":"31.195109","category":"627","category_name":"一般地点标志","address":"虹桥机场2号航站楼"},{"poiid":"B2094757D068A3FB469F","title":"金色西郊城","lon":"121.33219585036659","lat":"31.223784683592665","category":"47","category_name":"住宅区","address":"闵行区北翟路2000弄70支弄"},{"poiid":"B2094757D06FA3F94398","title":"COSTA COFFEE(虹桥机场一店)","lon":"121.32957","lat":"31.19305","category":"65","category_name":"咖啡厅","address":"闵行区虹桥路2550号虹桥机场T2航站楼46-47登机口间(近七莘路)"},{"poiid":"B2094655D36CA7F84393","title":"虹桥枢纽","lon":"121.32744","lat":"31.19611","category":"38","category_name":"公交车站","address":"闵行区纪翟路888号"},{"poiid":"B2094757D06AAAFE4798","title":"虹桥机场2号航站楼46号登机口","lon":"121.3283987","lat":"31.194636876","category":"21","category_name":"飞机场","address":"上海虹桥机场T2"},{"poiid":"B2094757D16CA6FE4699","title":"虹桥机场2号航站楼40号登机口","lon":"121.33572387","lat":"31.194454193","category":"21","category_name":"飞机场","address":"上海虹桥机场T2"},{"poiid":"B2094757D16BA2F9449E","title":"虹桥机场T2航站楼29号登机口","lon":"121.33104856","lat":"31.1968349431","category":"500","category_name":"未知分类","address":"上海市闵行区七莘路"},{"poiid":"B2094757D06BA6FF4893","title":"华漕","lon":"121.33239356","lat":"31.220920451","category":"500","category_name":"未知分类","address":"上海闵行区北翟路七莘路"},{"poiid":"B2094757D06FABF44098","title":"虹桥机场2号航站楼V2上航头等舱贵宾室","lon":"121.33243942","lat":"31.194330144","category":"21","category_name":"飞机场","address":"上海虹桥国际机场T2(安检后左转40号登机口附近)"},{"poiid":"B2094757D165A3F5479E","title":"虹桥机场某个厕所","lon":"121.33195756","lat":"31.196851943","category":"21","category_name":"飞机场","address":"上海市闵行区申达一路"},{"poiid":"B2094757D16DA2F4419C","title":"虹桥机场2号航站楼44号登机口","lon":"121.32967956","lat":"31.1967169406","category":"21","category_name":"飞机场","address":"苏州上海市闵行区崧泽高架路"},{"poiid":"B2094757D06FA2FF489C","title":"上海东方远航物流有限公司虹桥西库区","lon":"121.33105339","lat":"31.205876589","category":"46","category_name":"楼宇","address":"上海虹翔一路8号(近七莘路润虹路口)"},{"poiid":"B2094757D16BA3FE429F","title":"上海虹桥机场43号登机口","lon":"121.32961156","lat":"31.197029947","category":"21","category_name":"飞机场","address":"上海市闵行区申昆路"},{"poiid":"B2094757D165A1FD4099","title":"虹桥机场2号航站楼v2休息室","lon":"121.32964116","lat":"31.197896365","category":"21","category_name":"飞机场","address":"上海虹桥机场2号航站楼v2休息室"},{"poiid":"B2094757D66CA4FC4692","title":"虹桥机场2号航站楼41号登机口","lon":"121.32915856","lat":"31.196518936","category":"500","category_name":"未知分类","address":"上海市闵行区申昆路"},{"poiid":"B2094750D26CA2FF469D","title":"虹桥机场2号航站楼35号登机口","lon":"121.3276811227778","lat":"31.198970065","category":"21","category_name":"飞机场","address":"虹桥机场2号航站楼35号登机口"},{"poiid":"B2094757D16EAAFE499D","title":"一汽沪奥奥迪4s","lon":"121.33582056","lat":"31.2242945226","category":"500","category_name":"未知分类","address":"闵行区北翟路1800号(近北沈路)"},{"poiid":"B2094654D56AA3FB4893","title":"光荣百货","lon":"121.33244","lat":"31.20753","category":"119","category_name":"商场","address":"侯宁路"},{"poiid":"B2094654D56AA1FA4898","title":"啊羲卤菜","lon":"121.33231","lat":"31.20754","category":"247","category_name":"餐饮美食","address":""},{"poiid":"B2094654D56AA3F4439F","title":"上海航空公司虹桥基地","lon":"121.34483","lat":"31.207","category":"263","category_name":"公司","address":"绥宁路"},{"poiid":"B2094654D56AA0FB449D","title":"梦缘家常菜馆","lon":"121.33293","lat":"31.20749","category":"257","category_name":"中餐厅","address":""},{"poiid":"B2094757D16CA0F54692","title":"贝菲特健身中心(虹桥店)","lon":"121.32864806","lat":"31.221756569","category":"220","category_name":"运动场所","address":"闵行区北翟路1992号金色西郊休闲广场(近华江路)"},{"poiid":"B2094757D069ABFB499C","title":"虹桥1号","lon":"121.331484","lat":"31.223735","category":"252","category_name":"楼宇机构","address":"闵行区虹秀路8弄"},{"poiid":"B2094757D065A5FA429E","title":"永达大众4S店","lon":"121.332369127","lat":"31.2088525967","category":"500","category_name":"未知分类","address":"上海中春路9977号"},{"poiid":"B2094757D16CA5F4469B","title":"虹桥机场市政管理中心大楼","lon":"121.3292236","lat":"31.202790012","category":"21","category_name":"飞机场","address":"上海市虹翔二路39号"},{"poiid":"B2094752D76EA3FF4592","title":"虹桥机场1号航站楼登机口","lon":"121.325722","lat":"31.206426","category":"500","category_name":"未知分类","address":null},{"poiid":"B2094757D064A4FA4893","title":"上海共进通信技术有限公司创意部","lon":"121.33318456","lat":"31.208961199","category":"263","category_name":"公司","address":"上海徐汇区虹梅路1905号远中科研楼七楼"},{"poiid":"B2094654D56AA2FD419A","title":"象山海鲜酒楼","lon":"121.32701","lat":"31.20989","category":"88","category_name":"海鲜酒楼","address":"吴漕路"},{"poiid":"B2094757D06AA0F8439B","title":"西区货站","lon":"121.32852083","lat":"31.2078084046","category":"500","category_name":"未知分类","address":"上海仙霞西路"},{"poiid":"B2094654D56AA2FD4098","title":"理想国相册","lon":"121.33311","lat":"31.21355","category":"47","category_name":"住宅区","address":"东美南路18号"},{"poiid":"B2094753D26BA5F9469D","title":"上海虹桥机场","lon":"121.339239","lat":"31.214826","category":"500","category_name":"未知分类","address":"上海市 虹桥机场"},{"poiid":"B2094654D56AA2FD419C","title":"陶园舒乐小区","lon":"121.32748","lat":"31.21184","category":"47","category_name":"住宅区","address":"吴漕路718"},{"poiid":"B209475CD668A5FD409F","title":"虹桥机场1号航站楼","lon":"121.334487","lat":"31.20594","category":"500","category_name":"未知分类","address":"上海市 上海闵行区"},{"poiid":"B2094654DB6BA0FF439C","title":"华漕苑","lon":"121.33511","lat":"31.220428","category":"47","category_name":"住宅区","address":"东美路108弄"},{"poiid":"B2094757D66FA2FF4892","title":"上海虹桥火车站","lon":"121.32484","lat":"31.20248","category":"22","category_name":"火车站","address":"上海虹桥火车站"},{"poiid":"B2094757D165A2F5429E","title":"虹桥机场2号航站楼","lon":"121.32848056","lat":"31.1976779609","category":"21","category_name":"飞机场","address":"长宁区七莘路申昆路"},{"poiid":"B2094757D06EAAFE489C","title":"虹桥机场停机坪","lon":"121.3352766","lat":"31.19801799","category":"21","category_name":"飞机场","address":"上海虹桥国际机场2号航站楼停机坪"},{"poiid":"B2094757D069A7FD439E","title":"虹桥机场2号航站楼30号登机口","lon":"121.332274223","lat":"31.1968882342","category":"21","category_name":"飞机场","address":"上海虹桥机场T2"},{"poiid":"B2094757D06EAAF44993","title":"虹桥机场2号航站楼头等舱休息室","lon":"121.32907425","lat":"31.19658545","category":"21","category_name":"飞机场","address":"上海虹桥机场国际机场T2"},{"poiid":"B2094757D06AA2F8489F","title":"虹桥机场2号航站楼42号登机口","lon":"121.32945656","lat":"31.1968459433","category":"21","category_name":"飞机场","address":"上海虹桥机场T2"},{"poiid":"B2094757D06EAAF8429F","title":"虹桥机场2号航站楼登机口","lon":"121.3295501","lat":"31.1972765791","category":"21","category_name":"飞机场","address":"上海虹桥机场T2"},{"poiid":"B2094757D06FAAFF439B","title":"虹桥机场2号航站楼V1头等舱贵宾室","lon":"121.33340227","lat":"31.19688863","category":"21","category_name":"飞机场","address":"上海虹桥国际机场T2(近25、26号登机口)"},{"poiid":"B2094757D06BA3FE499E","title":"虹桥机场航站楼摆渡巴士","lon":"121.33571936","lat":"31.2153037328","category":"260","category_name":"其他","address":"上海虹桥机场"},{"poiid":"B2094757D068A3F9419A","title":"虹桥机场2号航站楼V3国航头等舱贵宾室","lon":"121.33040022","lat":"31.1976481603","category":"21","category_name":"飞机场","address":"上海虹桥国际机场T2(安检后左转40号登机口附近)"},{"poiid":"B2094757D065A3F8499D","title":"虹桥机场2号航站楼33号登机口","lon":"121.33170356","lat":"31.196884944","category":"21","category_name":"飞机场","address":"上海虹桥机场T2"},{"poiid":"B2094757D06FA7FF479F","title":"上航虹桥基地","lon":"121.33067798","lat":"31.207181051","category":"500","category_name":"未知分类","address":"上海虹桥机场北大门"},{"poiid":"B2094757D06FA0FC499D","title":"上海航空虹桥基地","lon":"121.34491444601531","lat":"31.207246146137702","category":"500","category_name":"未知分类","address":"长宁区绥宁路"},{"poiid":"B2094757D069A7FB459D","title":"虹桥机场2号航站楼50号登机口","lon":"121.32888556","lat":"31.194866901","category":"21","category_name":"飞机场","address":"上海虹桥机场T2"},{"poiid":"B2094757D16CA4F4499F","title":"虹桥机场2号航站楼28号登机口","lon":"121.32946956","lat":"31.19716395","category":"21","category_name":"飞机场","address":"上海虹桥机场T2"},{"poiid":"B2094757D065A4F4459C","title":"虹桥机场2号航站楼25号登机口","lon":"121.32884535","lat":"31.197076856","category":"21","category_name":"飞机场","address":"上海虹桥机场T2"},{"poiid":"B2094757DA65A0FE4798","title":"虹桥机场2号航站楼","lon":"121.326098","lat":"31.195109","category":"627","category_name":"一般地点标志","address":"虹桥机场2号航站楼"},{"poiid":"B2094757D068A3FB469F","title":"金色西郊城","lon":"121.33219585036659","lat":"31.223784683592665","category":"47","category_name":"住宅区","address":"闵行区北翟路2000弄70支弄"},{"poiid":"B2094757D06FA3F94398","title":"COSTA COFFEE(虹桥机场一店)","lon":"121.32957","lat":"31.19305","category":"65","category_name":"咖啡厅","address":"闵行区虹桥路2550号虹桥机场T2航站楼46-47登机口间(近七莘路)"},{"poiid":"B2094655D36CA7F84393","title":"虹桥枢纽","lon":"121.32744","lat":"31.19611","category":"38","category_name":"公交车站","address":"闵行区纪翟路888号"},{"poiid":"B2094757D06AAAFE4798","title":"虹桥机场2号航站楼46号登机口","lon":"121.3283987","lat":"31.194636876","category":"21","category_name":"飞机场","address":"上海虹桥机场T2"},{"poiid":"B2094757D16CA6FE4699","title":"虹桥机场2号航站楼40号登机口","lon":"121.33572387","lat":"31.194454193","category":"21","category_name":"飞机场","address":"上海虹桥机场T2"},{"poiid":"B2094757D16BA2F9449E","title":"虹桥机场T2航站楼29号登机口","lon":"121.33104856","lat":"31.1968349431","category":"500","category_name":"未知分类","address":"上海市闵行区七莘路"},{"poiid":"B2094757D06BA6FF4893","title":"华漕","lon":"121.33239356","lat":"31.220920451","category":"500","category_name":"未知分类","address":"上海闵行区北翟路七莘路"},{"poiid":"B2094757D06FABF44098","title":"虹桥机场2号航站楼V2上航头等舱贵宾室","lon":"121.33243942","lat":"31.194330144","category":"21","category_name":"飞机场","address":"上海虹桥国际机场T2(安检后左转40号登机口附近)"},{"poiid":"B2094757D165A3F5479E","title":"虹桥机场某个厕所","lon":"121.33195756","lat":"31.196851943","category":"21","category_name":"飞机场","address":"上海市闵行区申达一路"},{"poiid":"B2094757D16DA2F4419C","title":"虹桥机场2号航站楼44号登机口","lon":"121.32967956","lat":"31.1967169406","category":"21","category_name":"飞机场","address":"苏州上海市闵行区崧泽高架路"},{"poiid":"B2094757D06FA2FF489C","title":"上海东方远航物流有限公司虹桥西库区","lon":"121.33105339","lat":"31.205876589","category":"46","category_name":"楼宇","address":"上海虹翔一路8号(近七莘路润虹路口)"},{"poiid":"B2094757D16BA3FE429F","title":"上海虹桥机场43号登机口","lon":"121.32961156","lat":"31.197029947","category":"21","category_name":"飞机场","address":"上海市闵行区申昆路"},{"poiid":"B2094757D165A1FD4099","title":"虹桥机场2号航站楼v2休息室","lon":"121.32964116","lat":"31.197896365","category":"21","category_name":"飞机场","address":"上海虹桥机场2号航站楼v2休息室"},{"poiid":"B2094757D66CA4FC4692","title":"虹桥机场2号航站楼41号登机口","lon":"121.32915856","lat":"31.196518936","category":"500","category_name":"未知分类","address":"上海市闵行区申昆路"},{"poiid":"B2094750D26CA2FF469D","title":"虹桥机场2号航站楼35号登机口","lon":"121.3276811227778","lat":"31.198970065","category":"21","category_name":"飞机场","address":"虹桥机场2号航站楼35号登机口"},{"poiid":"B2094757D16EAAFE499D","title":"一汽沪奥奥迪4s","lon":"121.33582056","lat":"31.2242945226","category":"500","category_name":"未知分类","address":"闵行区北翟路1800号(近北沈路)"},{"poiid":"B2094654D56AA3FB4893","title":"光荣百货","lon":"121.33244","lat":"31.20753","category":"119","category_name":"商场","address":"侯宁路"},{"poiid":"B2094654D56AA1FA4898","title":"啊羲卤菜","lon":"121.33231","lat":"31.20754","category":"247","category_name":"餐饮美食","address":""},{"poiid":"B2094654D56AA3F4439F","title":"上海航空公司虹桥基地","lon":"121.34483","lat":"31.207","category":"263","category_name":"公司","address":"绥宁路"},{"poiid":"B2094654D56AA0FB449D","title":"梦缘家常菜馆","lon":"121.33293","lat":"31.20749","category":"257","category_name":"中餐厅","address":""},{"poiid":"B2094757D16CA0F54692","title":"贝菲特健身中心(虹桥店)","lon":"121.32864806","lat":"31.221756569","category":"220","category_name":"运动场所","address":"闵行区北翟路1992号金色西郊休闲广场(近华江路)"},{"poiid":"B2094757D069ABFB499C","title":"虹桥1号","lon":"121.331484","lat":"31.223735","category":"252","category_name":"楼宇机构","address":"闵行区虹秀路8弄"},{"poiid":"B2094757D065A5FA429E","title":"永达大众4S店","lon":"121.332369127","lat":"31.2088525967","category":"500","category_name":"未知分类","address":"上海中春路9977号"},{"poiid":"B2094757D16CA5F4469B","title":"虹桥机场市政管理中心大楼","lon":"121.3292236","lat":"31.202790012","category":"21","category_name":"飞机场","address":"上海市虹翔二路39号"},{"poiid":"B2094752D76EA3FF4592","title":"虹桥机场1号航站楼登机口","lon":"121.325722","lat":"31.206426","category":"500","category_name":"未知分类","address":null},{"poiid":"B2094757D064A4FA4893","title":"上海共进通信技术有限公司创意部","lon":"121.33318456","lat":"31.208961199","category":"263","category_name":"公司","address":"上海徐汇区虹梅路1905号远中科研楼七楼"},{"poiid":"B2094654D56AA2FD419A","title":"象山海鲜酒楼","lon":"121.32701","lat":"31.20989","category":"88","category_name":"海鲜酒楼","address":"吴漕路"},{"poiid":"B2094757D06AA0F8439B","title":"西区货站","lon":"121.32852083","lat":"31.2078084046","category":"500","category_name":"未知分类","address":"上海仙霞西路"},{"poiid":"B2094654D56AA2FD4098","title":"理想国相册","lon":"121.33311","lat":"31.21355","category":"47","category_name":"住宅区","address":"东美南路18号"},{"poiid":"B2094753D26BA5F9469D","title":"上海虹桥机场","lon":"121.339239","lat":"31.214826","category":"500","category_name":"未知分类","address":"上海市 虹桥机场"},{"poiid":"B2094654D56AA2FD419C","title":"陶园舒乐小区","lon":"121.32748","lat":"31.21184","category":"47","category_name":"住宅区","address":"吴漕路718"},{"poiid":"B209475CD668A5FD409F","title":"虹桥机场1号航站楼","lon":"121.334487","lat":"31.20594","category":"500","category_name":"未知分类","address":"上海市 上海闵行区"},{"poiid":"B2094654DB6BA0FF439C","title":"华漕苑","lon":"121.33511","lat":"31.220428","category":"47","category_name":"住宅区","address":"东美路108弄"},{"poiid":"B2094757D66FA2FF4892","title":"上海虹桥火车站","lon":"121.32484","lat":"31.20248","category":"22","category_name":"火车站","address":"上海虹桥火车站"},{"poiid":"B2094757D165A2F5429E","title":"虹桥机场2号航站楼","lon":"121.32848056","lat":"31.1976779609","category":"21","category_name":"飞机场","address":"长宁区七莘路申昆路"},{"poiid":"B2094757D06EAAFE489C","title":"虹桥机场停机坪","lon":"121.3352766","lat":"31.19801799","category":"21","category_name":"飞机场","address":"上海虹桥国际机场2号航站楼停机坪"},{"poiid":"B2094757D069A7FD439E","title":"虹桥机场2号航站楼30号登机口","lon":"121.332274223","lat":"31.1968882342","category":"21","category_name":"飞机场","address":"上海虹桥机场T2"},{"poiid":"B2094757D06EAAF44993","title":"虹桥机场2号航站楼头等舱休息室","lon":"121.32907425","lat":"31.19658545","category":"21","category_name":"飞机场","address":"上海虹桥机场国际机场T2"},{"poiid":"B2094757D06AA2F8489F","title":"虹桥机场2号航站楼42号登机口","lon":"121.32945656","lat":"31.1968459433","category":"21","category_name":"飞机场","address":"上海虹桥机场T2"},{"poiid":"B2094757D06EAAF8429F","title":"虹桥机场2号航站楼登机口","lon":"121.3295501","lat":"31.1972765791","category":"21","category_name":"飞机场","address":"上海虹桥机场T2"},{"poiid":"B2094757D06FAAFF439B","title":"虹桥机场2号航站楼V1头等舱贵宾室","lon":"121.33340227","lat":"31.19688863","category":"21","category_name":"飞机场","address":"上海虹桥国际机场T2(近25、26号登机口)"},{"poiid":"B2094757D06BA3FE499E","title":"虹桥机场航站楼摆渡巴士","lon":"121.33571936","lat":"31.2153037328","category":"260","category_name":"其他","address":"上海虹桥机场"},{"poiid":"B2094757D068A3F9419A","title":"虹桥机场2号航站楼V3国航头等舱贵宾室","lon":"121.33040022","lat":"31.1976481603","category":"21","category_name":"飞机场","address":"上海虹桥国际机场T2(安检后左转40号登机口附近)"},{"poiid":"B2094757D065A3F8499D","title":"虹桥机场2号航站楼33号登机口","lon":"121.33170356","lat":"31.196884944","category":"21","category_name":"飞机场","address":"上海虹桥机场T2"},{"poiid":"B2094757D06FA7FF479F","title":"上航虹桥基地","lon":"121.33067798","lat":"31.207181051","category":"500","category_name":"未知分类","address":"上海虹桥机场北大门"},{"poiid":"B2094757D06FA0FC499D","title":"上海航空虹桥基地","lon":"121.34491444601531","lat":"31.207246146137702","category":"500","category_name":"未知分类","address":"长宁区绥宁路"},{"poiid":"B2094757D069A7FB459D","title":"虹桥机场2号航站楼50号登机口","lon":"121.32888556","lat":"31.194866901","category":"21","category_name":"飞机场","address":"上海虹桥机场T2"},{"poiid":"B2094757D16CA4F4499F","title":"虹桥机场2号航站楼28号登机口","lon":"121.32946956","lat":"31.19716395","category":"21","category_name":"飞机场","address":"上海虹桥机场T2"},{"poiid":"B2094757D065A4F4459C","title":"虹桥机场2号航站楼25号登机口","lon":"121.32884535","lat":"31.197076856","category":"21","category_name":"飞机场","address":"上海虹桥机场T2"},{"poiid":"B2094757DA65A0FE4798","title":"虹桥机场2号航站楼","lon":"121.326098","lat":"31.195109","category":"627","category_name":"一般地点标志","address":"虹桥机场2号航站楼"},{"poiid":"B2094757D068A3FB469F","title":"金色西郊城","lon":"121.33219585036659","lat":"31.223784683592665","category":"47","category_name":"住宅区","address":"闵行区北翟路2000弄70支弄"},{"poiid":"B2094757D06FA3F94398","title":"COSTA COFFEE(虹桥机场一店)","lon":"121.32957","lat":"31.19305","category":"65","category_name":"咖啡厅","address":"闵行区虹桥路2550号虹桥机场T2航站楼46-47登机口间(近七莘路)"},{"poiid":"B2094655D36CA7F84393","title":"虹桥枢纽","lon":"121.32744","lat":"31.19611","category":"38","category_name":"公交车站","address":"闵行区纪翟路888号"},{"poiid":"B2094757D06AAAFE4798","title":"虹桥机场2号航站楼46号登机口","lon":"121.3283987","lat":"31.194636876","category":"21","category_name":"飞机场","address":"上海虹桥机场T2"},{"poiid":"B2094757D16CA6FE4699","title":"虹桥机场2号航站楼40号登机口","lon":"121.33572387","lat":"31.194454193","category":"21","category_name":"飞机场","address":"上海虹桥机场T2"},{"poiid":"B2094757D16BA2F9449E","title":"虹桥机场T2航站楼29号登机口","lon":"121.33104856","lat":"31.1968349431","category":"500","category_name":"未知分类","address":"上海市闵行区七莘路"},{"poiid":"B2094757D06BA6FF4893","title":"华漕","lon":"121.33239356","lat":"31.220920451","category":"500","category_name":"未知分类","address":"上海闵行区北翟路七莘路"},{"poiid":"B2094757D06FABF44098","title":"虹桥机场2号航站楼V2上航头等舱贵宾室","lon":"121.33243942","lat":"31.194330144","category":"21","category_name":"飞机场","address":"上海虹桥国际机场T2(安检后左转40号登机口附近)"},{"poiid":"B2094757D165A3F5479E","title":"虹桥机场某个厕所","lon":"121.33195756","lat":"31.196851943","category":"21","category_name":"飞机场","address":"上海市闵行区申达一路"},{"poiid":"B2094757D16DA2F4419C","title":"虹桥机场2号航站楼44号登机口","lon":"121.32967956","lat":"31.1967169406","category":"21","category_name":"飞机场","address":"苏州上海市闵行区崧泽高架路"},{"poiid":"B2094757D06FA2FF489C","title":"上海东方远航物流有限公司虹桥西库区","lon":"121.33105339","lat":"31.205876589","category":"46","category_name":"楼宇","address":"上海虹翔一路8号(近七莘路润虹路口)"},{"poiid":"B2094757D16BA3FE429F","title":"上海虹桥机场43号登机口","lon":"121.32961156","lat":"31.197029947","category":"21","category_name":"飞机场","address":"上海市闵行区申昆路"},{"poiid":"B2094757D165A1FD4099","title":"虹桥机场2号航站楼v2休息室","lon":"121.32964116","lat":"31.197896365","category":"21","category_name":"飞机场","address":"上海虹桥机场2号航站楼v2休息室"},{"poiid":"B2094757D66CA4FC4692","title":"虹桥机场2号航站楼41号登机口","lon":"121.32915856","lat":"31.196518936","category":"500","category_name":"未知分类","address":"上海市闵行区申昆路"},{"poiid":"B2094750D26CA2FF469D","title":"虹桥机场2号航站楼35号登机口","lon":"121.3276811227778","lat":"31.198970065","category":"21","category_name":"飞机场","address":"虹桥机场2号航站楼35号登机口"},{"poiid":"B2094757D16EAAFE499D","title":"一汽沪奥奥迪4s","lon":"121.33582056","lat":"31.2242945226","category":"500","category_name":"未知分类","address":"闵行区北翟路1800号(近北沈路)"},{"poiid":"B2094654D56AA3FB4893","title":"光荣百货","lon":"121.33244","lat":"31.20753","category":"119","category_name":"商场","address":"侯宁路"},{"poiid":"B2094654D56AA1FA4898","title":"啊羲卤菜","lon":"121.33231","lat":"31.20754","category":"247","category_name":"餐饮美食","address":""},{"poiid":"B2094654D56AA3F4439F","title":"上海航空公司虹桥基地","lon":"121.34483","lat":"31.207","category":"263","category_name":"公司","address":"绥宁路"},{"poiid":"B2094654D56AA0FB449D","title":"梦缘家常菜馆","lon":"121.33293","lat":"31.20749","category":"257","category_name":"中餐厅","address":""},{"poiid":"B2094757D16CA0F54692","title":"贝菲特健身中心(虹桥店)","lon":"121.32864806","lat":"31.221756569","category":"220","category_name":"运动场所","address":"闵行区北翟路1992号金色西郊休闲广场(近华江路)"},{"poiid":"B2094757D069ABFB499C","title":"虹桥1号","lon":"121.331484","lat":"31.223735","category":"252","category_name":"楼宇机构","address":"闵行区虹秀路8弄"},{"poiid":"B2094757D065A5FA429E","title":"永达大众4S店","lon":"121.332369127","lat":"31.2088525967","category":"500","category_name":"未知分类","address":"上海中春路9977号"},{"poiid":"B2094757D16CA5F4469B","title":"虹桥机场市政管理中心大楼","lon":"121.3292236","lat":"31.202790012","category":"21","category_name":"飞机场","address":"上海市虹翔二路39号"},{"poiid":"B2094752D76EA3FF4592","title":"虹桥机场1号航站楼登机口","lon":"121.325722","lat":"31.206426","category":"500","category_name":"未知分类","address":null},{"poiid":"B2094757D064A4FA4893","title":"上海共进通信技术有限公司创意部","lon":"121.33318456","lat":"31.208961199","category":"263","category_name":"公司","address":"上海徐汇区虹梅路1905号远中科研楼七楼"},{"poiid":"B2094654D56AA2FD419A","title":"象山海鲜酒楼","lon":"121.32701","lat":"31.20989","category":"88","category_name":"海鲜酒楼","address":"吴漕路"},{"poiid":"B2094757D06AA0F8439B","title":"西区货站","lon":"121.32852083","lat":"31.2078084046","category":"500","category_name":"未知分类","address":"上海仙霞西路"},{"poiid":"B2094654D56AA2FD4098","title":"理想国相册","lon":"121.33311","lat":"31.21355","category":"47","category_name":"住宅区","address":"东美南路18号"},{"poiid":"B2094753D26BA5F9469D","title":"上海虹桥机场","lon":"121.339239","lat":"31.214826","category":"500","category_name":"未知分类","address":"上海市 虹桥机场"},{"poiid":"B2094654D56AA2FD419C","title":"陶园舒乐小区","lon":"121.32748","lat":"31.21184","category":"47","category_name":"住宅区","address":"吴漕路718"},{"poiid":"B209475CD668A5FD409F","title":"虹桥机场1号航站楼","lon":"121.334487","lat":"31.20594","category":"500","category_name":"未知分类","address":"上海市 上海闵行区"},{"poiid":"B2094654DB6BA0FF439C","title":"华漕苑","lon":"121.33511","lat":"31.220428","category":"47","category_name":"住宅区","address":"东美路108弄"}]