[{"poiid":"B2094654D46BABFF4398","title":"古猗园","lon":"121.31596","lat":"31.29164","category":"240","category_name":"国家级景点","address":"嘉定区南翔镇沪宜路218号"},{"poiid":"B2094757D06EAAF5419F","title":"南翔漪园小笼馆","lon":"121.314494054","lat":"31.292691793","category":"68","category_name":"快餐厅","address":"嘉定区南翔镇古漪园路288号(近古漪园北门)"},{"poiid":"B2094757D06FA3FD479A","title":"南翔老街","lon":"121.30948","lat":"31.291","category":"260","category_name":"其他","address":"上海近郊嘉定区南翔镇德华路(近共和街)  "},{"poiid":"B2094757D06EAAFE419C","title":"南翔地铁站","lon":"121.32427277","lat":"31.297083592","category":"36","category_name":"地铁站","address":"上海轨道交通 十一号线 轨交南翔站 11"},{"poiid":"B2094757D06FA2FC479B","title":"金地格林世界","lon":"121.32311061","lat":"31.298570324","category":"47","category_name":"住宅区","address":"嘉定区南翔镇瑞林路68号(沪嘉高速丰翔路路口)"},{"poiid":"B2094757D06FAAFF459B","title":"古猗园餐厅","lon":"121.31639","lat":"31.29069","category":"68","category_name":"快餐厅","address":"嘉定区南翔镇沪宜公路218号古猗园南大门(古猗园路沪宜公路)"},{"poiid":"B2094757D06FA2F8499E","title":"南翔镇","lon":"121.32083892","lat":"31.293945312","category":"260","category_name":"其他","address":"上海嘉定区南翔镇"},{"poiid":"B2094654DB69A6FE489F","title":"古漪园","lon":"121.31603","lat":"31.29213","category":"196","category_name":"公园","address":"上海市嘉定区沪宜公路218号"},{"poiid":"B2094654D46BA4FE4393","title":"南翔小笼(古猗园路)","lon":"121.31492","lat":"31.2904","category":"257","category_name":"中餐厅","address":""},{"poiid":"B2094757D068A2F9459F","title":"云翔寺","lon":"121.307806677","lat":"31.2899433667","category":"245","category_name":"教堂","address":"嘉定区南翔镇解放街263号(南华路民主街)"},{"poiid":"B2094751DA6EA7F5479C","title":"星巴克南翔祥腾广场店","lon":"121.3228","lat":"31.296463","category":"247","category_name":"餐饮美食","address":"嘉定区佳通路31弄3号中冶翔腾城市广场2楼(近11号线南翔站)"},{"poiid":"B2094750D26BA7F9429A","title":"南翔医院","lon":"121.317955","lat":"31.290615","category":"162","category_name":"医院","address":"众仁路495号"},{"poiid":"B2094757D56DA2F4499D","title":"阿福龙虾","lon":"121.3066235","lat":"31.2907771","category":"68","category_name":"快餐厅","address":"嘉定区南翔镇南华路277号(近德华路)"},{"poiid":"B2094757D06AAAFF439F","title":"嘉定二中","lon":"121.31111145","lat":"31.2952690125","category":"55","category_name":"中学","address":"嘉定区德华路388号"},{"poiid":"B2094752D56DA4FD469B","title":"荷泰东南亚风味餐厅","lon":"121.317225","lat":"31.297102","category":"247","category_name":"餐饮美食","address":"中冶祥腾广场"},{"poiid":"B2094655D264A2F5459E","title":"南翔古镇","lon":"121.31557","lat":"31.2895","category":"250","category_name":"公园户外","address":"嘉定区南翔镇人民街(生产街南华路间)"},{"poiid":"B2094757D568AAFB4099","title":"南翔镇南华路、民主街解放街","lon":"121.31572","lat":"31.29648","category":"47","category_name":"住宅区","address":"上海市嘉定区南翔镇民主街224号"},{"poiid":"B2094757D16DA1FB4692","title":"南翔文广中心","lon":"121.31328892","lat":"31.299913373","category":"500","category_name":"未知分类","address":"嘉定区古猗园路737号"},{"poiid":"B2094654DB65A4FD419A","title":"南翔医院","lon":"121.31098","lat":"31.29164","category":"162","category_name":"医院","address":"嘉定区南翔镇众仁路495号(近真南路)"},{"poiid":"B2094757DA69A1F94592","title":"南翔公馆","lon":"121.30864035489","lat":"31.292813635332","category":"72","category_name":"广东菜","address":"嘉定区南翔镇共和街1号(近德华路)"},{"poiid":"B2094750D564A3FB4693","title":"绿地新里崴廉公馆","lon":"121.316786","lat":"31.295714","category":"47","category_name":"住宅区","address":"佳通路211号(真南路德华路交叉口)"},{"poiid":"B2094752D464A1FE459B","title":"满记甜品上海南翔中治翔腾广场店","lon":"121.318072","lat":"31.297161","category":"247","category_name":"餐饮美食","address":null},{"poiid":"B2094757D069A2FE4792","title":"肯德基 KFC (南翔店)","lon":"121.308648","lat":"31.29012","category":"68","category_name":"快餐厅","address":"嘉定区南翔镇解放街160号(南翔解放街民主街)"},{"poiid":"B2094753D36FA0FB409A","title":"菊樱回转寿司","lon":"121.316472","lat":"31.296914","category":"247","category_name":"餐饮美食","address":"上海市 中冶翔腾广场2楼"},{"poiid":"B2094654D46BA4FE4793","title":"嘉宝新园","lon":"121.31163","lat":"31.296789","category":"47","category_name":"住宅区","address":"古猗园路658弄"},{"poiid":"B2094757D66BA5FC4699","title":"肯德基 丰翔路店 KFC","lon":"121.316944054","lat":"31.299572793","category":"68","category_name":"快餐厅","address":"嘉定区丰翔路3168号家乐福超市1楼(丰翔路浏翔公路)"},{"poiid":"B2094654D46BABFE489C","title":"同盛公寓","lon":"121.31451","lat":"31.29105","category":"47","category_name":"住宅区","address":"上海市普陀区宁夏路335号"},{"poiid":"B2094757D16BABF5499B","title":"德华一村","lon":"121.31326","lat":"31.294931","category":"500","category_name":"未知分类","address":"上海嘉定区南翔镇德华路316弄"},{"poiid":"B2094752D06FA5FF4793","title":"必胜客南翔中冶祥腾店","lon":"121.318049","lat":"31.296746","category":"247","category_name":"餐饮美食","address":"南翔中冶祥腾广场1楼"},{"poiid":"B2094752D66BA2FF4293","title":"新翔家园","lon":"121.315361","lat":"31.298319","category":"47","category_name":"住宅区","address":"真南路4889弄"},{"poiid":"B2094757D66EA3F94093","title":"南翔小笼馆","lon":"121.310229275","lat":"31.2923393662","category":"68","category_name":"快餐厅","address":"嘉定区南翔镇生产街135号(吉利桥南侧)"},{"poiid":"B2094757D66EA7FE449F","title":"南翔镇图书馆","lon":"121.31061","lat":"31.29705","category":"181","category_name":"图书馆","address":"上海近郊嘉定区南翔镇古猗园路737号(近怀少中学)  "},{"poiid":"B2094757D16DA0FF4399","title":"阿莉餐厅","lon":"121.31614592","lat":"31.296394966","category":"500","category_name":"未知分类","address":"上海枣阳路394号"},{"poiid":"B2094757D16AA5FE479A","title":"上海农村商业银行南翔支行","lon":"121.31422309","lat":"31.2948483382","category":"500","category_name":"未知分类","address":"上海市嘉定区南翔镇解放街201号"},{"poiid":"B2094757D664A3FF4193","title":"兰森酒楼","lon":"121.3148692","lat":"31.2908675","category":"76","category_name":"上海菜","address":"南翔镇古猗园路291-295近沪宜公路"},{"poiid":"B2094751D56AA2FB449E","title":"汉净阁足道公馆(真南路店)","lon":"121.31691","lat":"31.294067","category":"149","category_name":"洗浴推拿场所","address":"嘉定区南翔镇真南路4368弄5号2楼"},{"poiid":"B2094654D46BA4FE4598","title":"南翔人家","lon":"121.31373","lat":"31.2924","category":"76","category_name":"上海菜","address":"嘉定区南翔镇沪宜公路281号古猗园内(近民主东街)"},{"poiid":"B2094757D568AAFF499D","title":"米兰咖啡","lon":"121.3159631","lat":"31.29164611","category":"65","category_name":"咖啡厅","address":"嘉定区南翔镇沪宜公路281号古猗园旁(沪宜公路口)"},{"poiid":"B2094654DB69A5F54493","title":"格林豪泰酒店(南翔店)","lon":"121.32161","lat":"31.29403","category":"216","category_name":"经济型连锁酒店","address":"普陀区众仁路与真南路交叉口(南翔镇政府斜对面)"},{"poiid":"B2094757D16BA5F44398","title":"南翔集美楼饭店","lon":"121.30921","lat":"31.29085","category":"76","category_name":"上海菜","address":"嘉定区南翔老街人民街22号(近南翔镇中心老街)"},{"poiid":"B2094654D46BA4FE479B","title":"京涛休闲保健服务部","lon":"121.31286","lat":"31.29478","category":"149","category_name":"洗浴推拿场所","address":""},{"poiid":"B2094654D46BA4FE489A","title":"怀少学校","lon":"121.31073","lat":"31.29828","category":"56","category_name":"小学","address":"嘉定区南翔镇古猗园路718号"},{"poiid":"B2094757D06AA1FD469F","title":"长兴楼","lon":"121.30513992","lat":"31.296235297","category":"76","category_name":"上海菜","address":"嘉定区南翔古镇人民街75号(近南翔寺双塔)"},{"poiid":"B2094757D064A2F94998","title":"韩美轩","lon":"121.314423875","lat":"31.291407057","category":"500","category_name":"未知分类","address":"嘉定区南翔镇古漪园路303号(沪宜公路众仁路)"},{"poiid":"B2094757D068ABFF449A","title":"南翔金地格林","lon":"121.32389068","lat":"31.300073623","category":"47","category_name":"住宅区","address":"上海嘉定南翔镇芳林路"},{"poiid":"B2094655D26BA1F8499F","title":"民主街古漪园路","lon":"121.31309","lat":"31.29254","category":"627","category_name":"一般地点标志","address":"嘉定区古漪园路古漪园边门附近(近人民街)"},{"poiid":"B2094752D368A1FF409F","title":"捞王猪肚鸡","lon":"121.322586","lat":"31.294815","category":"247","category_name":"餐饮美食","address":"上海市嘉定区南翔镇中冶翔腾城市广场二楼"},{"poiid":"B2094654DB69A6FE439C","title":"金地格林春晓","lon":"121.32337","lat":"31.29254","category":"47","category_name":"住宅区","address":"上海市嘉定区真南路4233号"},{"poiid":"B2094757D66CA1FC419C","title":"汽车港湾","lon":"121.311776925","lat":"31.2961472951","category":"500","category_name":"未知分类","address":"上海古猗园路中国海油边上"},{"poiid":"B2094757D66DA7FD4293","title":"甲道HOT美甲","lon":"121.314793","lat":"31.293378","category":"148","category_name":"美容美发店","address":"上海市嘉定区南翔镇民主东街21号（甲道）"},{"poiid":"B2094654D46BABFF4398","title":"古猗园","lon":"121.31596","lat":"31.29164","category":"240","category_name":"国家级景点","address":"嘉定区南翔镇沪宜路218号"},{"poiid":"B2094757D06EAAF5419F","title":"南翔漪园小笼馆","lon":"121.314494054","lat":"31.292691793","category":"68","category_name":"快餐厅","address":"嘉定区南翔镇古漪园路288号(近古漪园北门)"},{"poiid":"B2094757D06FA3FD479A","title":"南翔老街","lon":"121.30948","lat":"31.291","category":"260","category_name":"其他","address":"上海近郊嘉定区南翔镇德华路(近共和街)  "},{"poiid":"B2094757D06EAAFE419C","title":"南翔地铁站","lon":"121.32427277","lat":"31.297083592","category":"36","category_name":"地铁站","address":"上海轨道交通 十一号线 轨交南翔站 11"},{"poiid":"B2094757D06FA2FC479B","title":"金地格林世界","lon":"121.32311061","lat":"31.298570324","category":"47","category_name":"住宅区","address":"嘉定区南翔镇瑞林路68号(沪嘉高速丰翔路路口)"},{"poiid":"B2094757D06FAAFF459B","title":"古猗园餐厅","lon":"121.31639","lat":"31.29069","category":"68","category_name":"快餐厅","address":"嘉定区南翔镇沪宜公路218号古猗园南大门(古猗园路沪宜公路)"},{"poiid":"B2094757D06FA2F8499E","title":"南翔镇","lon":"121.32083892","lat":"31.293945312","category":"260","category_name":"其他","address":"上海嘉定区南翔镇"},{"poiid":"B2094654DB69A6FE489F","title":"古漪园","lon":"121.31603","lat":"31.29213","category":"196","category_name":"公园","address":"上海市嘉定区沪宜公路218号"},{"poiid":"B2094654D46BA4FE4393","title":"南翔小笼(古猗园路)","lon":"121.31492","lat":"31.2904","category":"257","category_name":"中餐厅","address":""},{"poiid":"B2094757D068A2F9459F","title":"云翔寺","lon":"121.307806677","lat":"31.2899433667","category":"245","category_name":"教堂","address":"嘉定区南翔镇解放街263号(南华路民主街)"},{"poiid":"B2094751DA6EA7F5479C","title":"星巴克南翔祥腾广场店","lon":"121.3228","lat":"31.296463","category":"247","category_name":"餐饮美食","address":"嘉定区佳通路31弄3号中冶翔腾城市广场2楼(近11号线南翔站)"},{"poiid":"B2094750D26BA7F9429A","title":"南翔医院","lon":"121.317955","lat":"31.290615","category":"162","category_name":"医院","address":"众仁路495号"},{"poiid":"B2094757D56DA2F4499D","title":"阿福龙虾","lon":"121.3066235","lat":"31.2907771","category":"68","category_name":"快餐厅","address":"嘉定区南翔镇南华路277号(近德华路)"},{"poiid":"B2094757D06AAAFF439F","title":"嘉定二中","lon":"121.31111145","lat":"31.2952690125","category":"55","category_name":"中学","address":"嘉定区德华路388号"},{"poiid":"B2094752D56DA4FD469B","title":"荷泰东南亚风味餐厅","lon":"121.317225","lat":"31.297102","category":"247","category_name":"餐饮美食","address":"中冶祥腾广场"},{"poiid":"B2094655D264A2F5459E","title":"南翔古镇","lon":"121.31557","lat":"31.2895","category":"250","category_name":"公园户外","address":"嘉定区南翔镇人民街(生产街南华路间)"},{"poiid":"B2094757D568AAFB4099","title":"南翔镇南华路、民主街解放街","lon":"121.31572","lat":"31.29648","category":"47","category_name":"住宅区","address":"上海市嘉定区南翔镇民主街224号"},{"poiid":"B2094757D16DA1FB4692","title":"南翔文广中心","lon":"121.31328892","lat":"31.299913373","category":"500","category_name":"未知分类","address":"嘉定区古猗园路737号"},{"poiid":"B2094654DB65A4FD419A","title":"南翔医院","lon":"121.31098","lat":"31.29164","category":"162","category_name":"医院","address":"嘉定区南翔镇众仁路495号(近真南路)"},{"poiid":"B2094757DA69A1F94592","title":"南翔公馆","lon":"121.30864035489","lat":"31.292813635332","category":"72","category_name":"广东菜","address":"嘉定区南翔镇共和街1号(近德华路)"},{"poiid":"B2094750D564A3FB4693","title":"绿地新里崴廉公馆","lon":"121.316786","lat":"31.295714","category":"47","category_name":"住宅区","address":"佳通路211号(真南路德华路交叉口)"},{"poiid":"B2094752D464A1FE459B","title":"满记甜品上海南翔中治翔腾广场店","lon":"121.318072","lat":"31.297161","category":"247","category_name":"餐饮美食","address":null},{"poiid":"B2094757D069A2FE4792","title":"肯德基 KFC (南翔店)","lon":"121.308648","lat":"31.29012","category":"68","category_name":"快餐厅","address":"嘉定区南翔镇解放街160号(南翔解放街民主街)"},{"poiid":"B2094753D36FA0FB409A","title":"菊樱回转寿司","lon":"121.316472","lat":"31.296914","category":"247","category_name":"餐饮美食","address":"上海市 中冶翔腾广场2楼"},{"poiid":"B2094654D46BA4FE4793","title":"嘉宝新园","lon":"121.31163","lat":"31.296789","category":"47","category_name":"住宅区","address":"古猗园路658弄"},{"poiid":"B2094757D66BA5FC4699","title":"肯德基 丰翔路店 KFC","lon":"121.316944054","lat":"31.299572793","category":"68","category_name":"快餐厅","address":"嘉定区丰翔路3168号家乐福超市1楼(丰翔路浏翔公路)"},{"poiid":"B2094654D46BABFE489C","title":"同盛公寓","lon":"121.31451","lat":"31.29105","category":"47","category_name":"住宅区","address":"上海市普陀区宁夏路335号"},{"poiid":"B2094757D16BABF5499B","title":"德华一村","lon":"121.31326","lat":"31.294931","category":"500","category_name":"未知分类","address":"上海嘉定区南翔镇德华路316弄"},{"poiid":"B2094752D06FA5FF4793","title":"必胜客南翔中冶祥腾店","lon":"121.318049","lat":"31.296746","category":"247","category_name":"餐饮美食","address":"南翔中冶祥腾广场1楼"},{"poiid":"B2094752D66BA2FF4293","title":"新翔家园","lon":"121.315361","lat":"31.298319","category":"47","category_name":"住宅区","address":"真南路4889弄"},{"poiid":"B2094757D66EA3F94093","title":"南翔小笼馆","lon":"121.310229275","lat":"31.2923393662","category":"68","category_name":"快餐厅","address":"嘉定区南翔镇生产街135号(吉利桥南侧)"},{"poiid":"B2094757D66EA7FE449F","title":"南翔镇图书馆","lon":"121.31061","lat":"31.29705","category":"181","category_name":"图书馆","address":"上海近郊嘉定区南翔镇古猗园路737号(近怀少中学)  "},{"poiid":"B2094757D16DA0FF4399","title":"阿莉餐厅","lon":"121.31614592","lat":"31.296394966","category":"500","category_name":"未知分类","address":"上海枣阳路394号"},{"poiid":"B2094757D16AA5FE479A","title":"上海农村商业银行南翔支行","lon":"121.31422309","lat":"31.2948483382","category":"500","category_name":"未知分类","address":"上海市嘉定区南翔镇解放街201号"},{"poiid":"B2094757D664A3FF4193","title":"兰森酒楼","lon":"121.3148692","lat":"31.2908675","category":"76","category_name":"上海菜","address":"南翔镇古猗园路291-295近沪宜公路"},{"poiid":"B2094751D56AA2FB449E","title":"汉净阁足道公馆(真南路店)","lon":"121.31691","lat":"31.294067","category":"149","category_name":"洗浴推拿场所","address":"嘉定区南翔镇真南路4368弄5号2楼"},{"poiid":"B2094654D46BA4FE4598","title":"南翔人家","lon":"121.31373","lat":"31.2924","category":"76","category_name":"上海菜","address":"嘉定区南翔镇沪宜公路281号古猗园内(近民主东街)"},{"poiid":"B2094757D568AAFF499D","title":"米兰咖啡","lon":"121.3159631","lat":"31.29164611","category":"65","category_name":"咖啡厅","address":"嘉定区南翔镇沪宜公路281号古猗园旁(沪宜公路口)"},{"poiid":"B2094654DB69A5F54493","title":"格林豪泰酒店(南翔店)","lon":"121.32161","lat":"31.29403","category":"216","category_name":"经济型连锁酒店","address":"普陀区众仁路与真南路交叉口(南翔镇政府斜对面)"},{"poiid":"B2094757D16BA5F44398","title":"南翔集美楼饭店","lon":"121.30921","lat":"31.29085","category":"76","category_name":"上海菜","address":"嘉定区南翔老街人民街22号(近南翔镇中心老街)"},{"poiid":"B2094654D46BA4FE479B","title":"京涛休闲保健服务部","lon":"121.31286","lat":"31.29478","category":"149","category_name":"洗浴推拿场所","address":""},{"poiid":"B2094654D46BA4FE489A","title":"怀少学校","lon":"121.31073","lat":"31.29828","category":"56","category_name":"小学","address":"嘉定区南翔镇古猗园路718号"},{"poiid":"B2094757D06AA1FD469F","title":"长兴楼","lon":"121.30513992","lat":"31.296235297","category":"76","category_name":"上海菜","address":"嘉定区南翔古镇人民街75号(近南翔寺双塔)"},{"poiid":"B2094757D064A2F94998","title":"韩美轩","lon":"121.314423875","lat":"31.291407057","category":"500","category_name":"未知分类","address":"嘉定区南翔镇古漪园路303号(沪宜公路众仁路)"},{"poiid":"B2094757D068ABFF449A","title":"南翔金地格林","lon":"121.32389068","lat":"31.300073623","category":"47","category_name":"住宅区","address":"上海嘉定南翔镇芳林路"},{"poiid":"B2094655D26BA1F8499F","title":"民主街古漪园路","lon":"121.31309","lat":"31.29254","category":"627","category_name":"一般地点标志","address":"嘉定区古漪园路古漪园边门附近(近人民街)"},{"poiid":"B2094752D368A1FF409F","title":"捞王猪肚鸡","lon":"121.322586","lat":"31.294815","category":"247","category_name":"餐饮美食","address":"上海市嘉定区南翔镇中冶翔腾城市广场二楼"},{"poiid":"B2094654DB69A6FE439C","title":"金地格林春晓","lon":"121.32337","lat":"31.29254","category":"47","category_name":"住宅区","address":"上海市嘉定区真南路4233号"},{"poiid":"B2094757D66CA1FC419C","title":"汽车港湾","lon":"121.311776925","lat":"31.2961472951","category":"500","category_name":"未知分类","address":"上海古猗园路中国海油边上"},{"poiid":"B2094757D66DA7FD4293","title":"甲道HOT美甲","lon":"121.314793","lat":"31.293378","category":"148","category_name":"美容美发店","address":"上海市嘉定区南翔镇民主东街21号（甲道）"},{"poiid":"B2094654D46BABFF4398","title":"古猗园","lon":"121.31596","lat":"31.29164","category":"240","category_name":"国家级景点","address":"嘉定区南翔镇沪宜路218号"},{"poiid":"B2094757D06EAAF5419F","title":"南翔漪园小笼馆","lon":"121.314494054","lat":"31.292691793","category":"68","category_name":"快餐厅","address":"嘉定区南翔镇古漪园路288号(近古漪园北门)"},{"poiid":"B2094757D06FA3FD479A","title":"南翔老街","lon":"121.30948","lat":"31.291","category":"260","category_name":"其他","address":"上海近郊嘉定区南翔镇德华路(近共和街)  "},{"poiid":"B2094757D06EAAFE419C","title":"南翔地铁站","lon":"121.32427277","lat":"31.297083592","category":"36","category_name":"地铁站","address":"上海轨道交通 十一号线 轨交南翔站 11"},{"poiid":"B2094757D06FA2FC479B","title":"金地格林世界","lon":"121.32311061","lat":"31.298570324","category":"47","category_name":"住宅区","address":"嘉定区南翔镇瑞林路68号(沪嘉高速丰翔路路口)"},{"poiid":"B2094757D06FAAFF459B","title":"古猗园餐厅","lon":"121.31639","lat":"31.29069","category":"68","category_name":"快餐厅","address":"嘉定区南翔镇沪宜公路218号古猗园南大门(古猗园路沪宜公路)"},{"poiid":"B2094757D06FA2F8499E","title":"南翔镇","lon":"121.32083892","lat":"31.293945312","category":"260","category_name":"其他","address":"上海嘉定区南翔镇"},{"poiid":"B2094654DB69A6FE489F","title":"古漪园","lon":"121.31603","lat":"31.29213","category":"196","category_name":"公园","address":"上海市嘉定区沪宜公路218号"},{"poiid":"B2094654D46BA4FE4393","title":"南翔小笼(古猗园路)","lon":"121.31492","lat":"31.2904","category":"257","category_name":"中餐厅","address":""},{"poiid":"B2094757D068A2F9459F","title":"云翔寺","lon":"121.307806677","lat":"31.2899433667","category":"245","category_name":"教堂","address":"嘉定区南翔镇解放街263号(南华路民主街)"},{"poiid":"B2094751DA6EA7F5479C","title":"星巴克南翔祥腾广场店","lon":"121.3228","lat":"31.296463","category":"247","category_name":"餐饮美食","address":"嘉定区佳通路31弄3号中冶翔腾城市广场2楼(近11号线南翔站)"},{"poiid":"B2094750D26BA7F9429A","title":"南翔医院","lon":"121.317955","lat":"31.290615","category":"162","category_name":"医院","address":"众仁路495号"},{"poiid":"B2094757D56DA2F4499D","title":"阿福龙虾","lon":"121.3066235","lat":"31.2907771","category":"68","category_name":"快餐厅","address":"嘉定区南翔镇南华路277号(近德华路)"},{"poiid":"B2094757D06AAAFF439F","title":"嘉定二中","lon":"121.31111145","lat":"31.2952690125","category":"55","category_name":"中学","address":"嘉定区德华路388号"},{"poiid":"B2094752D56DA4FD469B","title":"荷泰东南亚风味餐厅","lon":"121.317225","lat":"31.297102","category":"247","category_name":"餐饮美食","address":"中冶祥腾广场"},{"poiid":"B2094655D264A2F5459E","title":"南翔古镇","lon":"121.31557","lat":"31.2895","category":"250","category_name":"公园户外","address":"嘉定区南翔镇人民街(生产街南华路间)"},{"poiid":"B2094757D568AAFB4099","title":"南翔镇南华路、民主街解放街","lon":"121.31572","lat":"31.29648","category":"47","category_name":"住宅区","address":"上海市嘉定区南翔镇民主街224号"},{"poiid":"B2094757D16DA1FB4692","title":"南翔文广中心","lon":"121.31328892","lat":"31.299913373","category":"500","category_name":"未知分类","address":"嘉定区古猗园路737号"},{"poiid":"B2094654DB65A4FD419A","title":"南翔医院","lon":"121.31098","lat":"31.29164","category":"162","category_name":"医院","address":"嘉定区南翔镇众仁路495号(近真南路)"},{"poiid":"B2094757DA69A1F94592","title":"南翔公馆","lon":"121.30864035489","lat":"31.292813635332","category":"72","category_name":"广东菜","address":"嘉定区南翔镇共和街1号(近德华路)"},{"poiid":"B2094750D564A3FB4693","title":"绿地新里崴廉公馆","lon":"121.316786","lat":"31.295714","category":"47","category_name":"住宅区","address":"佳通路211号(真南路德华路交叉口)"},{"poiid":"B2094752D464A1FE459B","title":"满记甜品上海南翔中治翔腾广场店","lon":"121.318072","lat":"31.297161","category":"247","category_name":"餐饮美食","address":null},{"poiid":"B2094757D069A2FE4792","title":"肯德基 KFC (南翔店)","lon":"121.308648","lat":"31.29012","category":"68","category_name":"快餐厅","address":"嘉定区南翔镇解放街160号(南翔解放街民主街)"},{"poiid":"B2094753D36FA0FB409A","title":"菊樱回转寿司","lon":"121.316472","lat":"31.296914","category":"247","category_name":"餐饮美食","address":"上海市 中冶翔腾广场2楼"},{"poiid":"B2094654D46BA4FE4793","title":"嘉宝新园","lon":"121.31163","lat":"31.296789","category":"47","category_name":"住宅区","address":"古猗园路658弄"},{"poiid":"B2094757D66BA5FC4699","title":"肯德基 丰翔路店 KFC","lon":"121.316944054","lat":"31.299572793","category":"68","category_name":"快餐厅","address":"嘉定区丰翔路3168号家乐福超市1楼(丰翔路浏翔公路)"},{"poiid":"B2094654D46BABFE489C","title":"同盛公寓","lon":"121.31451","lat":"31.29105","category":"47","category_name":"住宅区","address":"上海市普陀区宁夏路335号"},{"poiid":"B2094757D16BABF5499B","title":"德华一村","lon":"121.31326","lat":"31.294931","category":"500","category_name":"未知分类","address":"上海嘉定区南翔镇德华路316弄"},{"poiid":"B2094752D06FA5FF4793","title":"必胜客南翔中冶祥腾店","lon":"121.318049","lat":"31.296746","category":"247","category_name":"餐饮美食","address":"南翔中冶祥腾广场1楼"},{"poiid":"B2094752D66BA2FF4293","title":"新翔家园","lon":"121.315361","lat":"31.298319","category":"47","category_name":"住宅区","address":"真南路4889弄"},{"poiid":"B2094757D66EA3F94093","title":"南翔小笼馆","lon":"121.310229275","lat":"31.2923393662","category":"68","category_name":"快餐厅","address":"嘉定区南翔镇生产街135号(吉利桥南侧)"},{"poiid":"B2094757D66EA7FE449F","title":"南翔镇图书馆","lon":"121.31061","lat":"31.29705","category":"181","category_name":"图书馆","address":"上海近郊嘉定区南翔镇古猗园路737号(近怀少中学)  "},{"poiid":"B2094757D16DA0FF4399","title":"阿莉餐厅","lon":"121.31614592","lat":"31.296394966","category":"500","category_name":"未知分类","address":"上海枣阳路394号"},{"poiid":"B2094757D16AA5FE479A","title":"上海农村商业银行南翔支行","lon":"121.31422309","lat":"31.2948483382","category":"500","category_name":"未知分类","address":"上海市嘉定区南翔镇解放街201号"},{"poiid":"B2094757D664A3FF4193","title":"兰森酒楼","lon":"121.3148692","lat":"31.2908675","category":"76","category_name":"上海菜","address":"南翔镇古猗园路291-295近沪宜公路"},{"poiid":"B2094751D56AA2FB449E","title":"汉净阁足道公馆(真南路店)","lon":"121.31691","lat":"31.294067","category":"149","category_name":"洗浴推拿场所","address":"嘉定区南翔镇真南路4368弄5号2楼"},{"poiid":"B2094654D46BA4FE4598","title":"南翔人家","lon":"121.31373","lat":"31.2924","category":"76","category_name":"上海菜","address":"嘉定区南翔镇沪宜公路281号古猗园内(近民主东街)"},{"poiid":"B2094757D568AAFF499D","title":"米兰咖啡","lon":"121.3159631","lat":"31.29164611","category":"65","category_name":"咖啡厅","address":"嘉定区南翔镇沪宜公路281号古猗园旁(沪宜公路口)"},{"poiid":"B2094654DB69A5F54493","title":"格林豪泰酒店(南翔店)","lon":"121.32161","lat":"31.29403","category":"216","category_name":"经济型连锁酒店","address":"普陀区众仁路与真南路交叉口(南翔镇政府斜对面)"},{"poiid":"B2094757D16BA5F44398","title":"南翔集美楼饭店","lon":"121.30921","lat":"31.29085","category":"76","category_name":"上海菜","address":"嘉定区南翔老街人民街22号(近南翔镇中心老街)"},{"poiid":"B2094654D46BA4FE479B","title":"京涛休闲保健服务部","lon":"121.31286","lat":"31.29478","category":"149","category_name":"洗浴推拿场所","address":""},{"poiid":"B2094654D46BA4FE489A","title":"怀少学校","lon":"121.31073","lat":"31.29828","category":"56","category_name":"小学","address":"嘉定区南翔镇古猗园路718号"},{"poiid":"B2094757D06AA1FD469F","title":"长兴楼","lon":"121.30513992","lat":"31.296235297","category":"76","category_name":"上海菜","address":"嘉定区南翔古镇人民街75号(近南翔寺双塔)"},{"poiid":"B2094757D064A2F94998","title":"韩美轩","lon":"121.314423875","lat":"31.291407057","category":"500","category_name":"未知分类","address":"嘉定区南翔镇古漪园路303号(沪宜公路众仁路)"},{"poiid":"B2094757D068ABFF449A","title":"南翔金地格林","lon":"121.32389068","lat":"31.300073623","category":"47","category_name":"住宅区","address":"上海嘉定南翔镇芳林路"},{"poiid":"B2094655D26BA1F8499F","title":"民主街古漪园路","lon":"121.31309","lat":"31.29254","category":"627","category_name":"一般地点标志","address":"嘉定区古漪园路古漪园边门附近(近人民街)"},{"poiid":"B2094752D368A1FF409F","title":"捞王猪肚鸡","lon":"121.322586","lat":"31.294815","category":"247","category_name":"餐饮美食","address":"上海市嘉定区南翔镇中冶翔腾城市广场二楼"},{"poiid":"B2094654DB69A6FE439C","title":"金地格林春晓","lon":"121.32337","lat":"31.29254","category":"47","category_name":"住宅区","address":"上海市嘉定区真南路4233号"},{"poiid":"B2094757D66CA1FC419C","title":"汽车港湾","lon":"121.311776925","lat":"31.2961472951","category":"500","category_name":"未知分类","address":"上海古猗园路中国海油边上"},{"poiid":"B2094757D66DA7FD4293","title":"甲道HOT美甲","lon":"121.314793","lat":"31.293378","category":"148","category_name":"美容美发店","address":"上海市嘉定区南翔镇民主东街21号（甲道）"},{"poiid":"B2094654D46BABFF4398","title":"古猗园","lon":"121.31596","lat":"31.29164","category":"240","category_name":"国家级景点","address":"嘉定区南翔镇沪宜路218号"},{"poiid":"B2094757D06EAAF5419F","title":"南翔漪园小笼馆","lon":"121.314494054","lat":"31.292691793","category":"68","category_name":"快餐厅","address":"嘉定区南翔镇古漪园路288号(近古漪园北门)"},{"poiid":"B2094757D06FA3FD479A","title":"南翔老街","lon":"121.30948","lat":"31.291","category":"260","category_name":"其他","address":"上海近郊嘉定区南翔镇德华路(近共和街)  "},{"poiid":"B2094757D06EAAFE419C","title":"南翔地铁站","lon":"121.32427277","lat":"31.297083592","category":"36","category_name":"地铁站","address":"上海轨道交通 十一号线 轨交南翔站 11"},{"poiid":"B2094757D06FA2FC479B","title":"金地格林世界","lon":"121.32311061","lat":"31.298570324","category":"47","category_name":"住宅区","address":"嘉定区南翔镇瑞林路68号(沪嘉高速丰翔路路口)"},{"poiid":"B2094757D06FAAFF459B","title":"古猗园餐厅","lon":"121.31639","lat":"31.29069","category":"68","category_name":"快餐厅","address":"嘉定区南翔镇沪宜公路218号古猗园南大门(古猗园路沪宜公路)"},{"poiid":"B2094757D06FA2F8499E","title":"南翔镇","lon":"121.32083892","lat":"31.293945312","category":"260","category_name":"其他","address":"上海嘉定区南翔镇"},{"poiid":"B2094654DB69A6FE489F","title":"古漪园","lon":"121.31603","lat":"31.29213","category":"196","category_name":"公园","address":"上海市嘉定区沪宜公路218号"},{"poiid":"B2094654D46BA4FE4393","title":"南翔小笼(古猗园路)","lon":"121.31492","lat":"31.2904","category":"257","category_name":"中餐厅","address":""},{"poiid":"B2094757D068A2F9459F","title":"云翔寺","lon":"121.307806677","lat":"31.2899433667","category":"245","category_name":"教堂","address":"嘉定区南翔镇解放街263号(南华路民主街)"},{"poiid":"B2094751DA6EA7F5479C","title":"星巴克南翔祥腾广场店","lon":"121.3228","lat":"31.296463","category":"247","category_name":"餐饮美食","address":"嘉定区佳通路31弄3号中冶翔腾城市广场2楼(近11号线南翔站)"},{"poiid":"B2094750D26BA7F9429A","title":"南翔医院","lon":"121.317955","lat":"31.290615","category":"162","category_name":"医院","address":"众仁路495号"},{"poiid":"B2094757D56DA2F4499D","title":"阿福龙虾","lon":"121.3066235","lat":"31.2907771","category":"68","category_name":"快餐厅","address":"嘉定区南翔镇南华路277号(近德华路)"},{"poiid":"B2094757D06AAAFF439F","title":"嘉定二中","lon":"121.31111145","lat":"31.2952690125","category":"55","category_name":"中学","address":"嘉定区德华路388号"},{"poiid":"B2094752D56DA4FD469B","title":"荷泰东南亚风味餐厅","lon":"121.317225","lat":"31.297102","category":"247","category_name":"餐饮美食","address":"中冶祥腾广场"},{"poiid":"B2094655D264A2F5459E","title":"南翔古镇","lon":"121.31557","lat":"31.2895","category":"250","category_name":"公园户外","address":"嘉定区南翔镇人民街(生产街南华路间)"},{"poiid":"B2094757D568AAFB4099","title":"南翔镇南华路、民主街解放街","lon":"121.31572","lat":"31.29648","category":"47","category_name":"住宅区","address":"上海市嘉定区南翔镇民主街224号"},{"poiid":"B2094757D16DA1FB4692","title":"南翔文广中心","lon":"121.31328892","lat":"31.299913373","category":"500","category_name":"未知分类","address":"嘉定区古猗园路737号"},{"poiid":"B2094654DB65A4FD419A","title":"南翔医院","lon":"121.31098","lat":"31.29164","category":"162","category_name":"医院","address":"嘉定区南翔镇众仁路495号(近真南路)"},{"poiid":"B2094757DA69A1F94592","title":"南翔公馆","lon":"121.30864035489","lat":"31.292813635332","category":"72","category_name":"广东菜","address":"嘉定区南翔镇共和街1号(近德华路)"},{"poiid":"B2094750D564A3FB4693","title":"绿地新里崴廉公馆","lon":"121.316786","lat":"31.295714","category":"47","category_name":"住宅区","address":"佳通路211号(真南路德华路交叉口)"},{"poiid":"B2094752D464A1FE459B","title":"满记甜品上海南翔中治翔腾广场店","lon":"121.318072","lat":"31.297161","category":"247","category_name":"餐饮美食","address":null},{"poiid":"B2094757D069A2FE4792","title":"肯德基 KFC (南翔店)","lon":"121.308648","lat":"31.29012","category":"68","category_name":"快餐厅","address":"嘉定区南翔镇解放街160号(南翔解放街民主街)"},{"poiid":"B2094753D36FA0FB409A","title":"菊樱回转寿司","lon":"121.316472","lat":"31.296914","category":"247","category_name":"餐饮美食","address":"上海市 中冶翔腾广场2楼"},{"poiid":"B2094654D46BA4FE4793","title":"嘉宝新园","lon":"121.31163","lat":"31.296789","category":"47","category_name":"住宅区","address":"古猗园路658弄"},{"poiid":"B2094757D66BA5FC4699","title":"肯德基 丰翔路店 KFC","lon":"121.316944054","lat":"31.299572793","category":"68","category_name":"快餐厅","address":"嘉定区丰翔路3168号家乐福超市1楼(丰翔路浏翔公路)"},{"poiid":"B2094654D46BABFE489C","title":"同盛公寓","lon":"121.31451","lat":"31.29105","category":"47","category_name":"住宅区","address":"上海市普陀区宁夏路335号"},{"poiid":"B2094757D16BABF5499B","title":"德华一村","lon":"121.31326","lat":"31.294931","category":"500","category_name":"未知分类","address":"上海嘉定区南翔镇德华路316弄"},{"poiid":"B2094752D06FA5FF4793","title":"必胜客南翔中冶祥腾店","lon":"121.318049","lat":"31.296746","category":"247","category_name":"餐饮美食","address":"南翔中冶祥腾广场1楼"},{"poiid":"B2094752D66BA2FF4293","title":"新翔家园","lon":"121.315361","lat":"31.298319","category":"47","category_name":"住宅区","address":"真南路4889弄"},{"poiid":"B2094757D66EA3F94093","title":"南翔小笼馆","lon":"121.310229275","lat":"31.2923393662","category":"68","category_name":"快餐厅","address":"嘉定区南翔镇生产街135号(吉利桥南侧)"},{"poiid":"B2094757D66EA7FE449F","title":"南翔镇图书馆","lon":"121.31061","lat":"31.29705","category":"181","category_name":"图书馆","address":"上海近郊嘉定区南翔镇古猗园路737号(近怀少中学)  "},{"poiid":"B2094757D16DA0FF4399","title":"阿莉餐厅","lon":"121.31614592","lat":"31.296394966","category":"500","category_name":"未知分类","address":"上海枣阳路394号"},{"poiid":"B2094757D16AA5FE479A","title":"上海农村商业银行南翔支行","lon":"121.31422309","lat":"31.2948483382","category":"500","category_name":"未知分类","address":"上海市嘉定区南翔镇解放街201号"},{"poiid":"B2094757D664A3FF4193","title":"兰森酒楼","lon":"121.3148692","lat":"31.2908675","category":"76","category_name":"上海菜","address":"南翔镇古猗园路291-295近沪宜公路"},{"poiid":"B2094751D56AA2FB449E","title":"汉净阁足道公馆(真南路店)","lon":"121.31691","lat":"31.294067","category":"149","category_name":"洗浴推拿场所","address":"嘉定区南翔镇真南路4368弄5号2楼"},{"poiid":"B2094654D46BA4FE4598","title":"南翔人家","lon":"121.31373","lat":"31.2924","category":"76","category_name":"上海菜","address":"嘉定区南翔镇沪宜公路281号古猗园内(近民主东街)"},{"poiid":"B2094757D568AAFF499D","title":"米兰咖啡","lon":"121.3159631","lat":"31.29164611","category":"65","category_name":"咖啡厅","address":"嘉定区南翔镇沪宜公路281号古猗园旁(沪宜公路口)"},{"poiid":"B2094654DB69A5F54493","title":"格林豪泰酒店(南翔店)","lon":"121.32161","lat":"31.29403","category":"216","category_name":"经济型连锁酒店","address":"普陀区众仁路与真南路交叉口(南翔镇政府斜对面)"},{"poiid":"B2094757D16BA5F44398","title":"南翔集美楼饭店","lon":"121.30921","lat":"31.29085","category":"76","category_name":"上海菜","address":"嘉定区南翔老街人民街22号(近南翔镇中心老街)"},{"poiid":"B2094654D46BA4FE479B","title":"京涛休闲保健服务部","lon":"121.31286","lat":"31.29478","category":"149","category_name":"洗浴推拿场所","address":""},{"poiid":"B2094654D46BA4FE489A","title":"怀少学校","lon":"121.31073","lat":"31.29828","category":"56","category_name":"小学","address":"嘉定区南翔镇古猗园路718号"},{"poiid":"B2094757D06AA1FD469F","title":"长兴楼","lon":"121.30513992","lat":"31.296235297","category":"76","category_name":"上海菜","address":"嘉定区南翔古镇人民街75号(近南翔寺双塔)"},{"poiid":"B2094757D064A2F94998","title":"韩美轩","lon":"121.314423875","lat":"31.291407057","category":"500","category_name":"未知分类","address":"嘉定区南翔镇古漪园路303号(沪宜公路众仁路)"},{"poiid":"B2094757D068ABFF449A","title":"南翔金地格林","lon":"121.32389068","lat":"31.300073623","category":"47","category_name":"住宅区","address":"上海嘉定南翔镇芳林路"},{"poiid":"B2094655D26BA1F8499F","title":"民主街古漪园路","lon":"121.31309","lat":"31.29254","category":"627","category_name":"一般地点标志","address":"嘉定区古漪园路古漪园边门附近(近人民街)"},{"poiid":"B2094752D368A1FF409F","title":"捞王猪肚鸡","lon":"121.322586","lat":"31.294815","category":"247","category_name":"餐饮美食","address":"上海市嘉定区南翔镇中冶翔腾城市广场二楼"},{"poiid":"B2094654DB69A6FE439C","title":"金地格林春晓","lon":"121.32337","lat":"31.29254","category":"47","category_name":"住宅区","address":"上海市嘉定区真南路4233号"},{"poiid":"B2094757D66CA1FC419C","title":"汽车港湾","lon":"121.311776925","lat":"31.2961472951","category":"500","category_name":"未知分类","address":"上海古猗园路中国海油边上"},{"poiid":"B2094757D66DA7FD4293","title":"甲道HOT美甲","lon":"121.314793","lat":"31.293378","category":"148","category_name":"美容美发店","address":"上海市嘉定区南翔镇民主东街21号（甲道）"}]