[{"poiid":"B2094654DB65A4FE4793","title":"上海交通大学医学院","lon":"121.47212","lat":"31.21238","category":"671","category_name":"高校中心点","address":"上海市重庆南路227号"},{"poiid":"B2094757D16CA3FA409F","title":"上海谦刺青","lon":"121.471876238","lat":"31.2107683855","category":"260","category_name":"其他","address":"徐汇区永嘉路527弄4号"},{"poiid":"B2094757D06FA0FB439B","title":"白玉兰剧场","lon":"121.47266","lat":"31.20947","category":"179","category_name":"音乐厅","address":"卢湾区重庆南路308号(近建国中路)"},{"poiid":"B2094753D76FAAFA449C","title":"上海滩国泰旗舰店","lon":"121.466011","lat":"31.216125","category":"249","category_name":"购物服务","address":"淮海中路868号"},{"poiid":"B209475CD564A7F84292","title":"上海滩新天地店","lon":"121.47463","lat":"31.22164","category":"119","category_name":"商场","address":"\"太仓路181弄新天地北里15号\r\n\""},{"poiid":"B209475CD564A7F8439E","title":"上海滩中信泰富店","lon":"121.45602","lat":"31.22851","category":"119","category_name":"商场","address":"\"南京西路1168号中信泰富广场，店铺号221.\r\n\""},{"poiid":"B2094654DA6EA3F8499E","title":"海兴广场","lon":"121.474","lat":"31.2106","category":"119","category_name":"商场","address":"卢湾区瑞金南路1号(近徐家汇路)"},{"poiid":"B2094757D06AA4FE439E","title":"交大医学院","lon":"121.47128583","lat":"31.211549299","category":"253","category_name":"校园生活","address":"上海重庆南路靠近建国路"},{"poiid":"B2094655D264A7FD4798","title":"8号桥创意园","lon":"121.47138","lat":"31.21065","category":"263","category_name":"公司","address":"建国中路8号"},{"poiid":"B2094757D66EA7FC499F","title":"交通大学医学院","lon":"121.47045573","lat":"31.212595924","category":"253","category_name":"校园生活","address":"上海重庆南路280号"},{"poiid":"B2094757D068A2FA439E","title":"KAKADU","lon":"121.471380904","lat":"31.2106511616","category":"94","category_name":"西餐厅","address":"卢湾区建国中路8号1104A座(近重庆南路)"},{"poiid":"B2094757D06FA0FA429B","title":"南北高架徐家汇路轧道","lon":"121.47258517","lat":"31.209395591","category":"500","category_name":"未知分类","address":"上海南北高架徐家汇路轧道"},{"poiid":"B2094757D065ABF94893","title":"交大医学院懿德楼","lon":"121.472265","lat":"31.212037","category":"500","category_name":"未知分类","address":"上海重庆南路227号"},{"poiid":"B2094750D565A6FE449A","title":"Acqua Pazza","lon":"121.47149","lat":"31.21056","category":"94","category_name":"西餐厅","address":"卢湾区建国中路6号(近南北高架)"},{"poiid":"B2094757D06FA7FC499E","title":"上海壹号美术馆","lon":"121.47197","lat":"31.20997","category":"179","category_name":"音乐厅","address":"卢湾区建国中路1号(近重庆南路)"},{"poiid":"B2094757D06FA2F4409F","title":"巴士大厦","lon":"121.47304474","lat":"31.210916296","category":"46","category_name":"楼宇","address":"上海卢湾区建国东路525号(近重庆南路)"},{"poiid":"B2094757D064A7FC479F","title":"上海第二医科大学","lon":"121.470434636","lat":"31.211727589","category":"671","category_name":"高校中心点","address":"上海重庆南路227号"},{"poiid":"B2094757D164A2FF449F","title":"南北高架","lon":"121.470309792","lat":"31.2140381135","category":"500","category_name":"未知分类","address":"上海卢湾"},{"poiid":"B2094757D06FA5FA4799","title":"原味坊(八号桥店)","lon":"121.47149658","lat":"31.210737228","category":"67","category_name":"甜品店","address":"上海卢湾区建国中路10号8号楼8101(近重庆南路)"},{"poiid":"B2094757D06AA2FD459C","title":"食其家(日月光中心店)","lon":"121.46846","lat":"31.20648","category":"95","category_name":"日本料理","address":"卢湾区徐家汇路618号日月光中心广场(近瑞金二路)"},{"poiid":"B2094654DA6FA3FF4492","title":"上海市兴业中学","lon":"121.47257","lat":"31.21138","category":"55","category_name":"中学","address":"卢湾区建国东路518号"},{"poiid":"B2094757D464AAF44599","title":"交通大学医学院食堂","lon":"121.471829054","lat":"31.211296793","category":"76","category_name":"上海菜","address":"卢湾区重庆南路227号交通大学医学院内(近合肥路)"},{"poiid":"B2094757D06AABFE499B","title":"汉庭海友客栈新天地店","lon":"121.47331237","lat":"31.209251403","category":"216","category_name":"经济型连锁酒店","address":"卢湾区重庆南路283号(近徐家汇路)"},{"poiid":"B2094757D66DA3FB429B","title":"肇嘉浜路地铁站","lon":"121.472531","lat":"31.210758","category":"36","category_name":"地铁站","address":"上海轨道交通7/9号线 肇嘉浜路站"},{"poiid":"B2094654DA6DA5FE429B","title":"天主教上海教区圣伯多禄堂","lon":"121.46995","lat":"31.21339","category":"245","category_name":"教堂","address":"重庆南路270"},{"poiid":"B2094752D468A0F9439D","title":"香港龍鳳樓","lon":"121.472769","lat":"31.209387","category":"247","category_name":"餐饮美食","address":null},{"poiid":"B2094757D165A2FB489A","title":"交通大学医学院清真餐厅","lon":"121.47152","lat":"31.21164","category":"90","category_name":"清真餐馆","address":"卢湾区重庆南路227号交通大学医学院内(近合肥路)"},{"poiid":"B2094757D06BA4FF4299","title":"卢湾区第一中心小学","lon":"121.47419","lat":"31.21231","category":"56","category_name":"小学","address":"卢湾区淡水路416号(淡水路建国东路)"},{"poiid":"B2094753D76AA5FC439A","title":"树洞咖啡","lon":"121.47134","lat":"31.21385","category":"65","category_name":"咖啡厅","address":"上海市卢湾区合肥路636号(近重庆南路)"},{"poiid":"B2094655D36CA3FB409A","title":"丰裕生煎 建国东路店","lon":"121.472830054","lat":"31.210854793","category":"87","category_name":"特色／地方风味餐厅","address":"卢湾区建国东路485号(近重庆南路)"},{"poiid":"B2094654DA6FA3FF459A","title":"上海市卢湾区重庆南路幼儿园","lon":"121.47235","lat":"31.21182","category":"57","category_name":"幼儿园","address":"重庆南路229弄1-7号"},{"poiid":"B2094655D36CA0F9489C","title":"建国中路","lon":"121.47149","lat":"31.2112","category":"38","category_name":"公交车站","address":""},{"poiid":"B2094750DB65AAFE499F","title":"世博大舞台","lon":"121.471679","lat":"31.211416","category":"250","category_name":"公园户外","address":"世博大道，近长清北路"},{"poiid":"B2094750D26DA0F4409A","title":"亚历山大健身会所（卢湾店）","lon":"121.472847","lat":"31.2113","category":"248","category_name":"生活娱乐","address":"徐家汇路169号"},{"poiid":"B2094757D065A7F84898","title":"苏记麻辣烫(建国东路)","lon":"121.47060356","lat":"31.21147631","category":"68","category_name":"快餐厅","address":"卢湾区建国东路479号(近重庆南路)"},{"poiid":"B2094757D569A0FD439A","title":"汉庭全季酒店(上海新天地店)","lon":"121.47338325","lat":"31.20904243","category":"216","category_name":"经济型连锁酒店","address":"上海市黄浦区重庆南路283号(徐家汇路)"},{"poiid":"B2094655D26BA0FB4493","title":"重庆南路杂粮煎饼摊","lon":"121.47213","lat":"31.21238","category":"68","category_name":"快餐厅","address":"卢湾区重庆南路227号二医大教育超市门口"},{"poiid":"B2094655D36DA7F9459C","title":"重庆南路建国中路","lon":"121.47139","lat":"31.212","category":"38","category_name":"公交车站","address":""},{"poiid":"B2094757D06AA2FC409E","title":"瑞金医院干部病房","lon":"121.47264301","lat":"31.212139202","category":"162","category_name":"医院","address":"上海市卢湾区建德路9号瑞金医院一号门内九号楼"},{"poiid":"B2094757D16DA6FC439C","title":"986公交","lon":"121.472017","lat":"31.211263","category":"38","category_name":"公交车站","address":"上海建国中路站"},{"poiid":"B2094654DA6FA3FF4599","title":"尔谊宾馆","lon":"121.4717","lat":"31.21201","category":"215","category_name":"三星级宾馆","address":"卢湾区重庆南路227号交通大学医学院东部校园内(近合肥路)"},{"poiid":"B2094655D264A6F5499B","title":"交大医学院门诊部","lon":"121.47184","lat":"31.21205","category":"162","category_name":"医院","address":""},{"poiid":"B2094757D568A4FD409D","title":"8号桥一期","lon":"121.4710839","lat":"31.21082389","category":"47","category_name":"住宅区","address":"卢湾区建国中路10号"},{"poiid":"B2094757D068A7FA4199","title":"全家便利(建国中路店)","lon":"121.47200012","lat":"31.210500717","category":"117","category_name":"便民商店/便利店","address":"上海卢湾区建国中路10号8号楼8102-8103室(近重庆南路)"},{"poiid":"B2094757D069ABFE499D","title":"COLABO","lon":"121.4711462","lat":"31.210773105","category":"500","category_name":"未知分类","address":"上海卢湾区建国中路6号"},{"poiid":"B2094654DA6FA3FF459B","title":"重建小区","lon":"121.47235","lat":"31.211826","category":"47","category_name":"住宅区","address":"重庆南路229弄1-7号"},{"poiid":"B2094757D06BA7FE449D","title":"香啡缤(八号桥店)","lon":"121.471496","lat":"31.210737","category":"500","category_name":"未知分类","address":"上海建国中路8号八号桥"},{"poiid":"B2094757D06AA7F54892","title":"隧道八线","lon":"121.471647438","lat":"31.2111807942","category":"38","category_name":"公交车站","address":"上海东方路张扬路—船厂路中山南二路"},{"poiid":"B2094757D66CA5FF469B","title":"瑞金医院门诊补液室","lon":"121.470474738","lat":"31.2117589066","category":"162","category_name":"医院","address":"上海市卢湾区瑞金二路"},{"poiid":"B2094757D06FAAFD489F","title":"香啡缤(建国中路店)","lon":"121.4712","lat":"31.21005","category":"260","category_name":"其他","address":"卢湾区建国中路25号9号楼9101A室(近南北高架)"},{"poiid":"B2094654DB65A4FE4793","title":"上海交通大学医学院","lon":"121.47212","lat":"31.21238","category":"671","category_name":"高校中心点","address":"上海市重庆南路227号"},{"poiid":"B2094757D16CA3FA409F","title":"上海谦刺青","lon":"121.471876238","lat":"31.2107683855","category":"260","category_name":"其他","address":"徐汇区永嘉路527弄4号"},{"poiid":"B2094757D06FA0FB439B","title":"白玉兰剧场","lon":"121.47266","lat":"31.20947","category":"179","category_name":"音乐厅","address":"卢湾区重庆南路308号(近建国中路)"},{"poiid":"B2094753D76FAAFA449C","title":"上海滩国泰旗舰店","lon":"121.466011","lat":"31.216125","category":"249","category_name":"购物服务","address":"淮海中路868号"},{"poiid":"B209475CD564A7F84292","title":"上海滩新天地店","lon":"121.47463","lat":"31.22164","category":"119","category_name":"商场","address":"\"太仓路181弄新天地北里15号\r\n\""},{"poiid":"B209475CD564A7F8439E","title":"上海滩中信泰富店","lon":"121.45602","lat":"31.22851","category":"119","category_name":"商场","address":"\"南京西路1168号中信泰富广场，店铺号221.\r\n\""},{"poiid":"B2094654DA6EA3F8499E","title":"海兴广场","lon":"121.474","lat":"31.2106","category":"119","category_name":"商场","address":"卢湾区瑞金南路1号(近徐家汇路)"},{"poiid":"B2094757D06AA4FE439E","title":"交大医学院","lon":"121.47128583","lat":"31.211549299","category":"253","category_name":"校园生活","address":"上海重庆南路靠近建国路"},{"poiid":"B2094655D264A7FD4798","title":"8号桥创意园","lon":"121.47138","lat":"31.21065","category":"263","category_name":"公司","address":"建国中路8号"},{"poiid":"B2094757D66EA7FC499F","title":"交通大学医学院","lon":"121.47045573","lat":"31.212595924","category":"253","category_name":"校园生活","address":"上海重庆南路280号"},{"poiid":"B2094757D068A2FA439E","title":"KAKADU","lon":"121.471380904","lat":"31.2106511616","category":"94","category_name":"西餐厅","address":"卢湾区建国中路8号1104A座(近重庆南路)"},{"poiid":"B2094757D06FA0FA429B","title":"南北高架徐家汇路轧道","lon":"121.47258517","lat":"31.209395591","category":"500","category_name":"未知分类","address":"上海南北高架徐家汇路轧道"},{"poiid":"B2094757D065ABF94893","title":"交大医学院懿德楼","lon":"121.472265","lat":"31.212037","category":"500","category_name":"未知分类","address":"上海重庆南路227号"},{"poiid":"B2094750D565A6FE449A","title":"Acqua Pazza","lon":"121.47149","lat":"31.21056","category":"94","category_name":"西餐厅","address":"卢湾区建国中路6号(近南北高架)"},{"poiid":"B2094757D06FA7FC499E","title":"上海壹号美术馆","lon":"121.47197","lat":"31.20997","category":"179","category_name":"音乐厅","address":"卢湾区建国中路1号(近重庆南路)"},{"poiid":"B2094757D06FA2F4409F","title":"巴士大厦","lon":"121.47304474","lat":"31.210916296","category":"46","category_name":"楼宇","address":"上海卢湾区建国东路525号(近重庆南路)"},{"poiid":"B2094757D064A7FC479F","title":"上海第二医科大学","lon":"121.470434636","lat":"31.211727589","category":"671","category_name":"高校中心点","address":"上海重庆南路227号"},{"poiid":"B2094757D164A2FF449F","title":"南北高架","lon":"121.470309792","lat":"31.2140381135","category":"500","category_name":"未知分类","address":"上海卢湾"},{"poiid":"B2094757D06FA5FA4799","title":"原味坊(八号桥店)","lon":"121.47149658","lat":"31.210737228","category":"67","category_name":"甜品店","address":"上海卢湾区建国中路10号8号楼8101(近重庆南路)"},{"poiid":"B2094757D06AA2FD459C","title":"食其家(日月光中心店)","lon":"121.46846","lat":"31.20648","category":"95","category_name":"日本料理","address":"卢湾区徐家汇路618号日月光中心广场(近瑞金二路)"},{"poiid":"B2094654DA6FA3FF4492","title":"上海市兴业中学","lon":"121.47257","lat":"31.21138","category":"55","category_name":"中学","address":"卢湾区建国东路518号"},{"poiid":"B2094757D464AAF44599","title":"交通大学医学院食堂","lon":"121.471829054","lat":"31.211296793","category":"76","category_name":"上海菜","address":"卢湾区重庆南路227号交通大学医学院内(近合肥路)"},{"poiid":"B2094757D06AABFE499B","title":"汉庭海友客栈新天地店","lon":"121.47331237","lat":"31.209251403","category":"216","category_name":"经济型连锁酒店","address":"卢湾区重庆南路283号(近徐家汇路)"},{"poiid":"B2094757D66DA3FB429B","title":"肇嘉浜路地铁站","lon":"121.472531","lat":"31.210758","category":"36","category_name":"地铁站","address":"上海轨道交通7/9号线 肇嘉浜路站"},{"poiid":"B2094654DA6DA5FE429B","title":"天主教上海教区圣伯多禄堂","lon":"121.46995","lat":"31.21339","category":"245","category_name":"教堂","address":"重庆南路270"},{"poiid":"B2094752D468A0F9439D","title":"香港龍鳳樓","lon":"121.472769","lat":"31.209387","category":"247","category_name":"餐饮美食","address":null},{"poiid":"B2094757D165A2FB489A","title":"交通大学医学院清真餐厅","lon":"121.47152","lat":"31.21164","category":"90","category_name":"清真餐馆","address":"卢湾区重庆南路227号交通大学医学院内(近合肥路)"},{"poiid":"B2094757D06BA4FF4299","title":"卢湾区第一中心小学","lon":"121.47419","lat":"31.21231","category":"56","category_name":"小学","address":"卢湾区淡水路416号(淡水路建国东路)"},{"poiid":"B2094753D76AA5FC439A","title":"树洞咖啡","lon":"121.47134","lat":"31.21385","category":"65","category_name":"咖啡厅","address":"上海市卢湾区合肥路636号(近重庆南路)"},{"poiid":"B2094655D36CA3FB409A","title":"丰裕生煎 建国东路店","lon":"121.472830054","lat":"31.210854793","category":"87","category_name":"特色／地方风味餐厅","address":"卢湾区建国东路485号(近重庆南路)"},{"poiid":"B2094654DA6FA3FF459A","title":"上海市卢湾区重庆南路幼儿园","lon":"121.47235","lat":"31.21182","category":"57","category_name":"幼儿园","address":"重庆南路229弄1-7号"},{"poiid":"B2094655D36CA0F9489C","title":"建国中路","lon":"121.47149","lat":"31.2112","category":"38","category_name":"公交车站","address":""},{"poiid":"B2094750DB65AAFE499F","title":"世博大舞台","lon":"121.471679","lat":"31.211416","category":"250","category_name":"公园户外","address":"世博大道，近长清北路"},{"poiid":"B2094750D26DA0F4409A","title":"亚历山大健身会所（卢湾店）","lon":"121.472847","lat":"31.2113","category":"248","category_name":"生活娱乐","address":"徐家汇路169号"},{"poiid":"B2094757D065A7F84898","title":"苏记麻辣烫(建国东路)","lon":"121.47060356","lat":"31.21147631","category":"68","category_name":"快餐厅","address":"卢湾区建国东路479号(近重庆南路)"},{"poiid":"B2094757D569A0FD439A","title":"汉庭全季酒店(上海新天地店)","lon":"121.47338325","lat":"31.20904243","category":"216","category_name":"经济型连锁酒店","address":"上海市黄浦区重庆南路283号(徐家汇路)"},{"poiid":"B2094655D26BA0FB4493","title":"重庆南路杂粮煎饼摊","lon":"121.47213","lat":"31.21238","category":"68","category_name":"快餐厅","address":"卢湾区重庆南路227号二医大教育超市门口"},{"poiid":"B2094655D36DA7F9459C","title":"重庆南路建国中路","lon":"121.47139","lat":"31.212","category":"38","category_name":"公交车站","address":""},{"poiid":"B2094757D06AA2FC409E","title":"瑞金医院干部病房","lon":"121.47264301","lat":"31.212139202","category":"162","category_name":"医院","address":"上海市卢湾区建德路9号瑞金医院一号门内九号楼"},{"poiid":"B2094757D16DA6FC439C","title":"986公交","lon":"121.472017","lat":"31.211263","category":"38","category_name":"公交车站","address":"上海建国中路站"},{"poiid":"B2094654DA6FA3FF4599","title":"尔谊宾馆","lon":"121.4717","lat":"31.21201","category":"215","category_name":"三星级宾馆","address":"卢湾区重庆南路227号交通大学医学院东部校园内(近合肥路)"},{"poiid":"B2094655D264A6F5499B","title":"交大医学院门诊部","lon":"121.47184","lat":"31.21205","category":"162","category_name":"医院","address":""},{"poiid":"B2094757D568A4FD409D","title":"8号桥一期","lon":"121.4710839","lat":"31.21082389","category":"47","category_name":"住宅区","address":"卢湾区建国中路10号"},{"poiid":"B2094757D068A7FA4199","title":"全家便利(建国中路店)","lon":"121.47200012","lat":"31.210500717","category":"117","category_name":"便民商店/便利店","address":"上海卢湾区建国中路10号8号楼8102-8103室(近重庆南路)"},{"poiid":"B2094757D069ABFE499D","title":"COLABO","lon":"121.4711462","lat":"31.210773105","category":"500","category_name":"未知分类","address":"上海卢湾区建国中路6号"},{"poiid":"B2094654DA6FA3FF459B","title":"重建小区","lon":"121.47235","lat":"31.211826","category":"47","category_name":"住宅区","address":"重庆南路229弄1-7号"},{"poiid":"B2094757D06BA7FE449D","title":"香啡缤(八号桥店)","lon":"121.471496","lat":"31.210737","category":"500","category_name":"未知分类","address":"上海建国中路8号八号桥"},{"poiid":"B2094757D06AA7F54892","title":"隧道八线","lon":"121.471647438","lat":"31.2111807942","category":"38","category_name":"公交车站","address":"上海东方路张扬路—船厂路中山南二路"},{"poiid":"B2094757D66CA5FF469B","title":"瑞金医院门诊补液室","lon":"121.470474738","lat":"31.2117589066","category":"162","category_name":"医院","address":"上海市卢湾区瑞金二路"},{"poiid":"B2094757D06FAAFD489F","title":"香啡缤(建国中路店)","lon":"121.4712","lat":"31.21005","category":"260","category_name":"其他","address":"卢湾区建国中路25号9号楼9101A室(近南北高架)"},{"poiid":"B2094654DB65A4FE4793","title":"上海交通大学医学院","lon":"121.47212","lat":"31.21238","category":"671","category_name":"高校中心点","address":"上海市重庆南路227号"},{"poiid":"B2094757D16CA3FA409F","title":"上海谦刺青","lon":"121.471876238","lat":"31.2107683855","category":"260","category_name":"其他","address":"徐汇区永嘉路527弄4号"},{"poiid":"B2094757D06FA0FB439B","title":"白玉兰剧场","lon":"121.47266","lat":"31.20947","category":"179","category_name":"音乐厅","address":"卢湾区重庆南路308号(近建国中路)"},{"poiid":"B2094753D76FAAFA449C","title":"上海滩国泰旗舰店","lon":"121.466011","lat":"31.216125","category":"249","category_name":"购物服务","address":"淮海中路868号"},{"poiid":"B209475CD564A7F84292","title":"上海滩新天地店","lon":"121.47463","lat":"31.22164","category":"119","category_name":"商场","address":"\"太仓路181弄新天地北里15号\r\n\""},{"poiid":"B209475CD564A7F8439E","title":"上海滩中信泰富店","lon":"121.45602","lat":"31.22851","category":"119","category_name":"商场","address":"\"南京西路1168号中信泰富广场，店铺号221.\r\n\""},{"poiid":"B2094654DA6EA3F8499E","title":"海兴广场","lon":"121.474","lat":"31.2106","category":"119","category_name":"商场","address":"卢湾区瑞金南路1号(近徐家汇路)"},{"poiid":"B2094757D06AA4FE439E","title":"交大医学院","lon":"121.47128583","lat":"31.211549299","category":"253","category_name":"校园生活","address":"上海重庆南路靠近建国路"},{"poiid":"B2094655D264A7FD4798","title":"8号桥创意园","lon":"121.47138","lat":"31.21065","category":"263","category_name":"公司","address":"建国中路8号"},{"poiid":"B2094757D66EA7FC499F","title":"交通大学医学院","lon":"121.47045573","lat":"31.212595924","category":"253","category_name":"校园生活","address":"上海重庆南路280号"},{"poiid":"B2094757D068A2FA439E","title":"KAKADU","lon":"121.471380904","lat":"31.2106511616","category":"94","category_name":"西餐厅","address":"卢湾区建国中路8号1104A座(近重庆南路)"},{"poiid":"B2094757D06FA0FA429B","title":"南北高架徐家汇路轧道","lon":"121.47258517","lat":"31.209395591","category":"500","category_name":"未知分类","address":"上海南北高架徐家汇路轧道"},{"poiid":"B2094757D065ABF94893","title":"交大医学院懿德楼","lon":"121.472265","lat":"31.212037","category":"500","category_name":"未知分类","address":"上海重庆南路227号"},{"poiid":"B2094750D565A6FE449A","title":"Acqua Pazza","lon":"121.47149","lat":"31.21056","category":"94","category_name":"西餐厅","address":"卢湾区建国中路6号(近南北高架)"},{"poiid":"B2094757D06FA7FC499E","title":"上海壹号美术馆","lon":"121.47197","lat":"31.20997","category":"179","category_name":"音乐厅","address":"卢湾区建国中路1号(近重庆南路)"},{"poiid":"B2094757D06FA2F4409F","title":"巴士大厦","lon":"121.47304474","lat":"31.210916296","category":"46","category_name":"楼宇","address":"上海卢湾区建国东路525号(近重庆南路)"},{"poiid":"B2094757D064A7FC479F","title":"上海第二医科大学","lon":"121.470434636","lat":"31.211727589","category":"671","category_name":"高校中心点","address":"上海重庆南路227号"},{"poiid":"B2094757D164A2FF449F","title":"南北高架","lon":"121.470309792","lat":"31.2140381135","category":"500","category_name":"未知分类","address":"上海卢湾"},{"poiid":"B2094757D06FA5FA4799","title":"原味坊(八号桥店)","lon":"121.47149658","lat":"31.210737228","category":"67","category_name":"甜品店","address":"上海卢湾区建国中路10号8号楼8101(近重庆南路)"},{"poiid":"B2094757D06AA2FD459C","title":"食其家(日月光中心店)","lon":"121.46846","lat":"31.20648","category":"95","category_name":"日本料理","address":"卢湾区徐家汇路618号日月光中心广场(近瑞金二路)"},{"poiid":"B2094654DA6FA3FF4492","title":"上海市兴业中学","lon":"121.47257","lat":"31.21138","category":"55","category_name":"中学","address":"卢湾区建国东路518号"},{"poiid":"B2094757D464AAF44599","title":"交通大学医学院食堂","lon":"121.471829054","lat":"31.211296793","category":"76","category_name":"上海菜","address":"卢湾区重庆南路227号交通大学医学院内(近合肥路)"},{"poiid":"B2094757D06AABFE499B","title":"汉庭海友客栈新天地店","lon":"121.47331237","lat":"31.209251403","category":"216","category_name":"经济型连锁酒店","address":"卢湾区重庆南路283号(近徐家汇路)"},{"poiid":"B2094757D66DA3FB429B","title":"肇嘉浜路地铁站","lon":"121.472531","lat":"31.210758","category":"36","category_name":"地铁站","address":"上海轨道交通7/9号线 肇嘉浜路站"},{"poiid":"B2094654DA6DA5FE429B","title":"天主教上海教区圣伯多禄堂","lon":"121.46995","lat":"31.21339","category":"245","category_name":"教堂","address":"重庆南路270"},{"poiid":"B2094752D468A0F9439D","title":"香港龍鳳樓","lon":"121.472769","lat":"31.209387","category":"247","category_name":"餐饮美食","address":null},{"poiid":"B2094757D165A2FB489A","title":"交通大学医学院清真餐厅","lon":"121.47152","lat":"31.21164","category":"90","category_name":"清真餐馆","address":"卢湾区重庆南路227号交通大学医学院内(近合肥路)"},{"poiid":"B2094757D06BA4FF4299","title":"卢湾区第一中心小学","lon":"121.47419","lat":"31.21231","category":"56","category_name":"小学","address":"卢湾区淡水路416号(淡水路建国东路)"},{"poiid":"B2094753D76AA5FC439A","title":"树洞咖啡","lon":"121.47134","lat":"31.21385","category":"65","category_name":"咖啡厅","address":"上海市卢湾区合肥路636号(近重庆南路)"},{"poiid":"B2094655D36CA3FB409A","title":"丰裕生煎 建国东路店","lon":"121.472830054","lat":"31.210854793","category":"87","category_name":"特色／地方风味餐厅","address":"卢湾区建国东路485号(近重庆南路)"},{"poiid":"B2094654DA6FA3FF459A","title":"上海市卢湾区重庆南路幼儿园","lon":"121.47235","lat":"31.21182","category":"57","category_name":"幼儿园","address":"重庆南路229弄1-7号"},{"poiid":"B2094655D36CA0F9489C","title":"建国中路","lon":"121.47149","lat":"31.2112","category":"38","category_name":"公交车站","address":""},{"poiid":"B2094750DB65AAFE499F","title":"世博大舞台","lon":"121.471679","lat":"31.211416","category":"250","category_name":"公园户外","address":"世博大道，近长清北路"},{"poiid":"B2094750D26DA0F4409A","title":"亚历山大健身会所（卢湾店）","lon":"121.472847","lat":"31.2113","category":"248","category_name":"生活娱乐","address":"徐家汇路169号"},{"poiid":"B2094757D065A7F84898","title":"苏记麻辣烫(建国东路)","lon":"121.47060356","lat":"31.21147631","category":"68","category_name":"快餐厅","address":"卢湾区建国东路479号(近重庆南路)"},{"poiid":"B2094757D569A0FD439A","title":"汉庭全季酒店(上海新天地店)","lon":"121.47338325","lat":"31.20904243","category":"216","category_name":"经济型连锁酒店","address":"上海市黄浦区重庆南路283号(徐家汇路)"},{"poiid":"B2094655D26BA0FB4493","title":"重庆南路杂粮煎饼摊","lon":"121.47213","lat":"31.21238","category":"68","category_name":"快餐厅","address":"卢湾区重庆南路227号二医大教育超市门口"},{"poiid":"B2094655D36DA7F9459C","title":"重庆南路建国中路","lon":"121.47139","lat":"31.212","category":"38","category_name":"公交车站","address":""},{"poiid":"B2094757D06AA2FC409E","title":"瑞金医院干部病房","lon":"121.47264301","lat":"31.212139202","category":"162","category_name":"医院","address":"上海市卢湾区建德路9号瑞金医院一号门内九号楼"},{"poiid":"B2094757D16DA6FC439C","title":"986公交","lon":"121.472017","lat":"31.211263","category":"38","category_name":"公交车站","address":"上海建国中路站"},{"poiid":"B2094654DA6FA3FF4599","title":"尔谊宾馆","lon":"121.4717","lat":"31.21201","category":"215","category_name":"三星级宾馆","address":"卢湾区重庆南路227号交通大学医学院东部校园内(近合肥路)"},{"poiid":"B2094655D264A6F5499B","title":"交大医学院门诊部","lon":"121.47184","lat":"31.21205","category":"162","category_name":"医院","address":""},{"poiid":"B2094757D568A4FD409D","title":"8号桥一期","lon":"121.4710839","lat":"31.21082389","category":"47","category_name":"住宅区","address":"卢湾区建国中路10号"},{"poiid":"B2094757D068A7FA4199","title":"全家便利(建国中路店)","lon":"121.47200012","lat":"31.210500717","category":"117","category_name":"便民商店/便利店","address":"上海卢湾区建国中路10号8号楼8102-8103室(近重庆南路)"},{"poiid":"B2094757D069ABFE499D","title":"COLABO","lon":"121.4711462","lat":"31.210773105","category":"500","category_name":"未知分类","address":"上海卢湾区建国中路6号"},{"poiid":"B2094654DA6FA3FF459B","title":"重建小区","lon":"121.47235","lat":"31.211826","category":"47","category_name":"住宅区","address":"重庆南路229弄1-7号"},{"poiid":"B2094757D06BA7FE449D","title":"香啡缤(八号桥店)","lon":"121.471496","lat":"31.210737","category":"500","category_name":"未知分类","address":"上海建国中路8号八号桥"},{"poiid":"B2094757D06AA7F54892","title":"隧道八线","lon":"121.471647438","lat":"31.2111807942","category":"38","category_name":"公交车站","address":"上海东方路张扬路—船厂路中山南二路"},{"poiid":"B2094757D66CA5FF469B","title":"瑞金医院门诊补液室","lon":"121.470474738","lat":"31.2117589066","category":"162","category_name":"医院","address":"上海市卢湾区瑞金二路"},{"poiid":"B2094757D06FAAFD489F","title":"香啡缤(建国中路店)","lon":"121.4712","lat":"31.21005","category":"260","category_name":"其他","address":"卢湾区建国中路25号9号楼9101A室(近南北高架)"},{"poiid":"B2094654DB65A4FE4793","title":"上海交通大学医学院","lon":"121.47212","lat":"31.21238","category":"671","category_name":"高校中心点","address":"上海市重庆南路227号"},{"poiid":"B2094757D16CA3FA409F","title":"上海谦刺青","lon":"121.471876238","lat":"31.2107683855","category":"260","category_name":"其他","address":"徐汇区永嘉路527弄4号"},{"poiid":"B2094757D06FA0FB439B","title":"白玉兰剧场","lon":"121.47266","lat":"31.20947","category":"179","category_name":"音乐厅","address":"卢湾区重庆南路308号(近建国中路)"},{"poiid":"B2094753D76FAAFA449C","title":"上海滩国泰旗舰店","lon":"121.466011","lat":"31.216125","category":"249","category_name":"购物服务","address":"淮海中路868号"},{"poiid":"B209475CD564A7F84292","title":"上海滩新天地店","lon":"121.47463","lat":"31.22164","category":"119","category_name":"商场","address":"\"太仓路181弄新天地北里15号\r\n\""},{"poiid":"B209475CD564A7F8439E","title":"上海滩中信泰富店","lon":"121.45602","lat":"31.22851","category":"119","category_name":"商场","address":"\"南京西路1168号中信泰富广场，店铺号221.\r\n\""},{"poiid":"B2094654DA6EA3F8499E","title":"海兴广场","lon":"121.474","lat":"31.2106","category":"119","category_name":"商场","address":"卢湾区瑞金南路1号(近徐家汇路)"},{"poiid":"B2094757D06AA4FE439E","title":"交大医学院","lon":"121.47128583","lat":"31.211549299","category":"253","category_name":"校园生活","address":"上海重庆南路靠近建国路"},{"poiid":"B2094655D264A7FD4798","title":"8号桥创意园","lon":"121.47138","lat":"31.21065","category":"263","category_name":"公司","address":"建国中路8号"},{"poiid":"B2094757D66EA7FC499F","title":"交通大学医学院","lon":"121.47045573","lat":"31.212595924","category":"253","category_name":"校园生活","address":"上海重庆南路280号"},{"poiid":"B2094757D068A2FA439E","title":"KAKADU","lon":"121.471380904","lat":"31.2106511616","category":"94","category_name":"西餐厅","address":"卢湾区建国中路8号1104A座(近重庆南路)"},{"poiid":"B2094757D06FA0FA429B","title":"南北高架徐家汇路轧道","lon":"121.47258517","lat":"31.209395591","category":"500","category_name":"未知分类","address":"上海南北高架徐家汇路轧道"},{"poiid":"B2094757D065ABF94893","title":"交大医学院懿德楼","lon":"121.472265","lat":"31.212037","category":"500","category_name":"未知分类","address":"上海重庆南路227号"},{"poiid":"B2094750D565A6FE449A","title":"Acqua Pazza","lon":"121.47149","lat":"31.21056","category":"94","category_name":"西餐厅","address":"卢湾区建国中路6号(近南北高架)"},{"poiid":"B2094757D06FA7FC499E","title":"上海壹号美术馆","lon":"121.47197","lat":"31.20997","category":"179","category_name":"音乐厅","address":"卢湾区建国中路1号(近重庆南路)"},{"poiid":"B2094757D06FA2F4409F","title":"巴士大厦","lon":"121.47304474","lat":"31.210916296","category":"46","category_name":"楼宇","address":"上海卢湾区建国东路525号(近重庆南路)"},{"poiid":"B2094757D064A7FC479F","title":"上海第二医科大学","lon":"121.470434636","lat":"31.211727589","category":"671","category_name":"高校中心点","address":"上海重庆南路227号"},{"poiid":"B2094757D164A2FF449F","title":"南北高架","lon":"121.470309792","lat":"31.2140381135","category":"500","category_name":"未知分类","address":"上海卢湾"},{"poiid":"B2094757D06FA5FA4799","title":"原味坊(八号桥店)","lon":"121.47149658","lat":"31.210737228","category":"67","category_name":"甜品店","address":"上海卢湾区建国中路10号8号楼8101(近重庆南路)"},{"poiid":"B2094757D06AA2FD459C","title":"食其家(日月光中心店)","lon":"121.46846","lat":"31.20648","category":"95","category_name":"日本料理","address":"卢湾区徐家汇路618号日月光中心广场(近瑞金二路)"},{"poiid":"B2094654DA6FA3FF4492","title":"上海市兴业中学","lon":"121.47257","lat":"31.21138","category":"55","category_name":"中学","address":"卢湾区建国东路518号"},{"poiid":"B2094757D464AAF44599","title":"交通大学医学院食堂","lon":"121.471829054","lat":"31.211296793","category":"76","category_name":"上海菜","address":"卢湾区重庆南路227号交通大学医学院内(近合肥路)"},{"poiid":"B2094757D06AABFE499B","title":"汉庭海友客栈新天地店","lon":"121.47331237","lat":"31.209251403","category":"216","category_name":"经济型连锁酒店","address":"卢湾区重庆南路283号(近徐家汇路)"},{"poiid":"B2094757D66DA3FB429B","title":"肇嘉浜路地铁站","lon":"121.472531","lat":"31.210758","category":"36","category_name":"地铁站","address":"上海轨道交通7/9号线 肇嘉浜路站"},{"poiid":"B2094654DA6DA5FE429B","title":"天主教上海教区圣伯多禄堂","lon":"121.46995","lat":"31.21339","category":"245","category_name":"教堂","address":"重庆南路270"},{"poiid":"B2094752D468A0F9439D","title":"香港龍鳳樓","lon":"121.472769","lat":"31.209387","category":"247","category_name":"餐饮美食","address":null},{"poiid":"B2094757D165A2FB489A","title":"交通大学医学院清真餐厅","lon":"121.47152","lat":"31.21164","category":"90","category_name":"清真餐馆","address":"卢湾区重庆南路227号交通大学医学院内(近合肥路)"},{"poiid":"B2094757D06BA4FF4299","title":"卢湾区第一中心小学","lon":"121.47419","lat":"31.21231","category":"56","category_name":"小学","address":"卢湾区淡水路416号(淡水路建国东路)"},{"poiid":"B2094753D76AA5FC439A","title":"树洞咖啡","lon":"121.47134","lat":"31.21385","category":"65","category_name":"咖啡厅","address":"上海市卢湾区合肥路636号(近重庆南路)"},{"poiid":"B2094655D36CA3FB409A","title":"丰裕生煎 建国东路店","lon":"121.472830054","lat":"31.210854793","category":"87","category_name":"特色／地方风味餐厅","address":"卢湾区建国东路485号(近重庆南路)"},{"poiid":"B2094654DA6FA3FF459A","title":"上海市卢湾区重庆南路幼儿园","lon":"121.47235","lat":"31.21182","category":"57","category_name":"幼儿园","address":"重庆南路229弄1-7号"},{"poiid":"B2094655D36CA0F9489C","title":"建国中路","lon":"121.47149","lat":"31.2112","category":"38","category_name":"公交车站","address":""},{"poiid":"B2094750DB65AAFE499F","title":"世博大舞台","lon":"121.471679","lat":"31.211416","category":"250","category_name":"公园户外","address":"世博大道，近长清北路"},{"poiid":"B2094750D26DA0F4409A","title":"亚历山大健身会所（卢湾店）","lon":"121.472847","lat":"31.2113","category":"248","category_name":"生活娱乐","address":"徐家汇路169号"},{"poiid":"B2094757D065A7F84898","title":"苏记麻辣烫(建国东路)","lon":"121.47060356","lat":"31.21147631","category":"68","category_name":"快餐厅","address":"卢湾区建国东路479号(近重庆南路)"},{"poiid":"B2094757D569A0FD439A","title":"汉庭全季酒店(上海新天地店)","lon":"121.47338325","lat":"31.20904243","category":"216","category_name":"经济型连锁酒店","address":"上海市黄浦区重庆南路283号(徐家汇路)"},{"poiid":"B2094655D26BA0FB4493","title":"重庆南路杂粮煎饼摊","lon":"121.47213","lat":"31.21238","category":"68","category_name":"快餐厅","address":"卢湾区重庆南路227号二医大教育超市门口"},{"poiid":"B2094655D36DA7F9459C","title":"重庆南路建国中路","lon":"121.47139","lat":"31.212","category":"38","category_name":"公交车站","address":""},{"poiid":"B2094757D06AA2FC409E","title":"瑞金医院干部病房","lon":"121.47264301","lat":"31.212139202","category":"162","category_name":"医院","address":"上海市卢湾区建德路9号瑞金医院一号门内九号楼"},{"poiid":"B2094757D16DA6FC439C","title":"986公交","lon":"121.472017","lat":"31.211263","category":"38","category_name":"公交车站","address":"上海建国中路站"},{"poiid":"B2094654DA6FA3FF4599","title":"尔谊宾馆","lon":"121.4717","lat":"31.21201","category":"215","category_name":"三星级宾馆","address":"卢湾区重庆南路227号交通大学医学院东部校园内(近合肥路)"},{"poiid":"B2094655D264A6F5499B","title":"交大医学院门诊部","lon":"121.47184","lat":"31.21205","category":"162","category_name":"医院","address":""},{"poiid":"B2094757D568A4FD409D","title":"8号桥一期","lon":"121.4710839","lat":"31.21082389","category":"47","category_name":"住宅区","address":"卢湾区建国中路10号"},{"poiid":"B2094757D068A7FA4199","title":"全家便利(建国中路店)","lon":"121.47200012","lat":"31.210500717","category":"117","category_name":"便民商店/便利店","address":"上海卢湾区建国中路10号8号楼8102-8103室(近重庆南路)"},{"poiid":"B2094757D069ABFE499D","title":"COLABO","lon":"121.4711462","lat":"31.210773105","category":"500","category_name":"未知分类","address":"上海卢湾区建国中路6号"},{"poiid":"B2094654DA6FA3FF459B","title":"重建小区","lon":"121.47235","lat":"31.211826","category":"47","category_name":"住宅区","address":"重庆南路229弄1-7号"},{"poiid":"B2094757D06BA7FE449D","title":"香啡缤(八号桥店)","lon":"121.471496","lat":"31.210737","category":"500","category_name":"未知分类","address":"上海建国中路8号八号桥"},{"poiid":"B2094757D06AA7F54892","title":"隧道八线","lon":"121.471647438","lat":"31.2111807942","category":"38","category_name":"公交车站","address":"上海东方路张扬路—船厂路中山南二路"},{"poiid":"B2094757D66CA5FF469B","title":"瑞金医院门诊补液室","lon":"121.470474738","lat":"31.2117589066","category":"162","category_name":"医院","address":"上海市卢湾区瑞金二路"},{"poiid":"B2094757D06FAAFD489F","title":"香啡缤(建国中路店)","lon":"121.4712","lat":"31.21005","category":"260","category_name":"其他","address":"卢湾区建国中路25号9号楼9101A室(近南北高架)"}]