[{"poiid":"B2094757D06BA6F4449F","title":"大成海鲜烧烤","lon":"121.41013085","lat":"31.127526913","category":"247","category_name":"餐饮美食","address":"上海市闵行区罗秀路镇西路"},{"poiid":"B2094757D06FA6FB4299","title":"西班牙名园","lon":"121.41094538994","lat":"31.135033552514","category":"47","category_name":"住宅区","address":"朝阳双桥东路温泉东里京通快速会村出口向南1700米"},{"poiid":"B2094757D16EA0FB4198","title":"梅陇","lon":"121.414322857","lat":"31.1362010872","category":"500","category_name":"未知分类","address":"上海市闵行区320,National,Rd"},{"poiid":"B2094655D26EA7FE469F","title":"望族苑","lon":"121.4078","lat":"31.12868","category":"47","category_name":"住宅区","address":"上中西路1285弄1-64号"},{"poiid":"B2094757D068AAFF4493","title":"沪闵高架","lon":"121.40802985","lat":"31.133900041","category":"260","category_name":"其他","address":"上海市沪闵高架上"},{"poiid":"B2094655D26DA0F8439D","title":"中梅苑","lon":"121.41572","lat":"31.12756","category":"47","category_name":"住宅区","address":"上海市闵行区上中西路855弄(近虹梅南路)"},{"poiid":"B2094757D06AA7FC4592","title":"罗秀路镇西路","lon":"121.411396","lat":"31.127666","category":"500","category_name":"未知分类","address":"上海罗秀路镇西路"},{"poiid":"B2094757D068A5F54693","title":"烤满分(莲花广场店)","lon":"121.40699385","lat":"31.130265968","category":"257","category_name":"中餐厅","address":"闵行区沪闵路7866号莲花国际广场B1楼东新宿食街10号(近南方商城莲花站路1号地铁)"},{"poiid":"B2094655D26DA0F8429B","title":"梅陇二村(益文路)","lon":"121.41194","lat":"31.13552","category":"47","category_name":"住宅区","address":""},{"poiid":"B2094757D069A3FB449B","title":"世纪苑","lon":"121.40809631","lat":"31.130767822","category":"47","category_name":"住宅区","address":"上海市闵行区莲花南路上中西路"},{"poiid":"B2094757D069A6F4479A","title":"大桶大(虹梅店)","lon":"121.41811685","lat":"31.131848999","category":"149","category_name":"洗浴推拿场所","address":"上海上中西路虹梅南路口"},{"poiid":"B2094757D068ABF44998","title":"四海游龙 梅陇店 OVERSEAS DRAGON","lon":"121.418294054","lat":"31.131273793","category":"257","category_name":"中餐厅","address":"闵行区虹梅南路485号(近上中西路)"},{"poiid":"B2094655D26FA6FF4398","title":"朱梅小区","lon":"121.41251","lat":"31.129642","category":"47","category_name":"住宅区","address":"上海上中西路925弄"},{"poiid":"B2094757D16CA4FB459F","title":"豆丁捞捞麻辣烫","lon":"121.41359685","lat":"31.129233947","category":"247","category_name":"餐饮美食","address":"上海罗秀路镇西路"},{"poiid":"B2094655D264A2FF4093","title":"克莉丝汀","lon":"121.41457","lat":"31.13041","category":"112","category_name":"糕饼店","address":"徐汇区罗秀路1697号望族苑3号101室(近莲花南路)"},{"poiid":"B2094655D36CA2F5449E","title":"上中西路虹梅南路","lon":"121.41603","lat":"31.13066","category":"38","category_name":"公交车站","address":""},{"poiid":"B2094757D568AAFA499E","title":"好宴世家罗秀店","lon":"121.41246","lat":"31.127721","category":"76","category_name":"上海菜","address":"闵行区罗秀路1529号(近镇西路)"},{"poiid":"B2094654DB6CA2FB469C","title":"快客No.6829","lon":"121.41429","lat":"31.13017","category":"117","category_name":"便民商店/便利店","address":"上中西路873"},{"poiid":"B2094751D36EA5F4429C","title":"大成烧烤","lon":"121.41274","lat":"31.12819","category":"68","category_name":"快餐厅","address":"闵行区镇西路(近罗秀路)"},{"poiid":"B2094654DB64A2F44598","title":"上陇新村","lon":"121.41666","lat":"31.132132","category":"47","category_name":"住宅区","address":"上中西路810弄39号-84号"},{"poiid":"B2094654DB6CA3FD4592","title":"闵行区梅陇中心小学","lon":"121.41052","lat":"31.13133","category":"56","category_name":"小学","address":"闵行区梅陇镇镇西路255号"},{"poiid":"B2094757D66DABFC479A","title":"孙记香辣龙虾","lon":"121.41518685","lat":"31.130714277","category":"247","category_name":"餐饮美食","address":"上海上中西路747号(靠近虹梅南路)"},{"poiid":"B2094654DB64AAFB479A","title":"好德便利No.3043","lon":"121.41493","lat":"31.13023","category":"117","category_name":"便民商店/便利店","address":"上中西路833"},{"poiid":"B2094757D16CA6F5469B","title":"汪氏烧烤","lon":"121.41113985","lat":"31.127339909","category":"68","category_name":"快餐厅","address":"闵行区镇西路(罗秀路口)"},{"poiid":"B2094655D26EA2FC499B","title":"良友金伴No.771","lon":"121.41077","lat":"31.12994","category":"117","category_name":"便民商店/便利店","address":"上中西路991号"},{"poiid":"B2094654DB6CA3FD469B","title":"闵行区梅陇中学","lon":"121.40977","lat":"31.1323","category":"55","category_name":"中学","address":"镇西路299"},{"poiid":"B2094757D66CA2F8449A","title":"金山伯(五角场店)","lon":"121.41403485","lat":"31.13237101","category":"247","category_name":"餐饮美食","address":"北京杨浦区政通路189号特力时尚汇4F"},{"poiid":"B2094654DB6CA2FB489A","title":"中梅苑梅花阁","lon":"121.41873","lat":"31.13014","category":"47","category_name":"住宅区","address":"上海上中西路735弄"},{"poiid":"B2094757D164A7F94693","title":"中环绕","lon":"121.413406","lat":"31.130098","category":"500","category_name":"未知分类","address":"上海中环线"},{"poiid":"B2094757D465A0FB469A","title":"华韵轩酒家","lon":"121.40984","lat":"31.1337","category":"76","category_name":"上海菜","address":"徐汇区梅陇镇西路花园别墅1号(近上中西路)"},{"poiid":"B2094757D168ABFD4792","title":"陇南市场","lon":"121.413439","lat":"31.127823","category":"119","category_name":"商场","address":"上海罗秀路1505号"},{"poiid":"B2094757D664A5F54492","title":"第五次烧烤","lon":"121.41398","lat":"31.14","category":"68","category_name":"快餐厅","address":"徐汇区虹梅南路96弄凌云新村317号(近梅陇路)"},{"poiid":"B2094757D16AA7F84193","title":"铭记烧烤","lon":"121.41255785","lat":"31.127630915","category":"247","category_name":"餐饮美食","address":"上海市闵行区上中西路"},{"poiid":"B2094757D16DA4FC4693","title":"湛江生蚝馆","lon":"121.415730457","lat":"31.1340084432","category":"247","category_name":"餐饮美食","address":"上海徐汇区梅陇路565弄15号"},{"poiid":"B2094654DB6CA2F44992","title":"凤财东北菜手工水饺","lon":"121.41773","lat":"31.12841","category":"82","category_name":"东北菜","address":"闵行区罗秀路1373号(近虹梅路)"},{"poiid":"B2094654DA65A5F4459C","title":"绿梅别墅","lon":"121.417","lat":"31.1308","category":"47","category_name":"住宅区","address":"上海闵行区罗阳路255弄34号"},{"poiid":"B2094655D26FA5FF489B","title":"梦景苑","lon":"121.40875","lat":"31.126919","category":"47","category_name":"住宅区","address":"罗秀路1701弄"},{"poiid":"B2094655D26FA4F4429D","title":"梅陇城","lon":"121.40866","lat":"31.13","category":"47","category_name":"住宅区","address":""},{"poiid":"B2094655D26BA1FB4299","title":"罗秀路虹梅南路","lon":"121.41749","lat":"31.12857","category":"38","category_name":"公交车站","address":"上海罗秀路虹梅南路"},{"poiid":"B2094757D16AA5FB409B","title":"王氏烧烤","lon":"121.412533637","lat":"31.1278380196","category":"247","category_name":"餐饮美食","address":"上海罗秀路"},{"poiid":"B2094654DB6CA2F44693","title":"光明便利No.237","lon":"121.41265","lat":"31.12774","category":"117","category_name":"便民商店/便利店","address":"闵行区罗秀路1525号"},{"poiid":"B2094757D664A7F5419E","title":"福建沙县营养小吃 益梅路店","lon":"121.40962","lat":"31.13338","category":"68","category_name":"快餐厅","address":"闵行区益梅路113号(近紫藤一村)"},{"poiid":"B2094757D06AA3FC4393","title":"乔家栅 上中店","lon":"121.417893054","lat":"31.131550793","category":"257","category_name":"中餐厅","address":"徐汇区上中西路720号(近虹梅路)"},{"poiid":"B2094757D568A6FA4898","title":"未名园三期","lon":"121.4127350721","lat":"31.126242269323","category":"47","category_name":"住宅区","address":"上海市闵行区莲花南路588号"},{"poiid":"B2094757D169A5F8409A","title":"上海劲卡汽车服务有限公司","lon":"121.41533585","lat":"31.130019963","category":"500","category_name":"未知分类","address":"上海市闵行区上中西路815号"},{"poiid":"B2094757D66CA3F44399","title":"知音琴行培训中心","lon":"121.41052985","lat":"31.131935001","category":"253","category_name":"校园生活","address":"上海市闵行区莲花南路上中西路世纪苑裙房"},{"poiid":"B2094655D26FA5FC4399","title":"767弄小区","lon":"121.4168","lat":"31.13002","category":"47","category_name":"住宅区","address":"中西路767弄15-56号"},{"poiid":"B2094654DB64A2F4459B","title":"上陇新村南门(上中西路)","lon":"121.41722","lat":"31.13133","category":"47","category_name":"住宅区","address":"上中西路738弄9-38号甲"},{"poiid":"B2094757D165A0FA489F","title":"隆鑫海鲜酒店","lon":"121.415164857","lat":"31.126310889","category":"247","category_name":"餐饮美食","address":"上海闵行区罗秀路1505号2楼"},{"poiid":"B2094655D264A2FF4192","title":"好又多购物中心","lon":"121.41091","lat":"31.12749","category":"118","category_name":"超级市场","address":"闵行区双柏路1570号"},{"poiid":"B2094757D06BA6F4449F","title":"大成海鲜烧烤","lon":"121.41013085","lat":"31.127526913","category":"247","category_name":"餐饮美食","address":"上海市闵行区罗秀路镇西路"},{"poiid":"B2094757D06FA6FB4299","title":"西班牙名园","lon":"121.41094538994","lat":"31.135033552514","category":"47","category_name":"住宅区","address":"朝阳双桥东路温泉东里京通快速会村出口向南1700米"},{"poiid":"B2094757D16EA0FB4198","title":"梅陇","lon":"121.414322857","lat":"31.1362010872","category":"500","category_name":"未知分类","address":"上海市闵行区320,National,Rd"},{"poiid":"B2094655D26EA7FE469F","title":"望族苑","lon":"121.4078","lat":"31.12868","category":"47","category_name":"住宅区","address":"上中西路1285弄1-64号"},{"poiid":"B2094757D068AAFF4493","title":"沪闵高架","lon":"121.40802985","lat":"31.133900041","category":"260","category_name":"其他","address":"上海市沪闵高架上"},{"poiid":"B2094655D26DA0F8439D","title":"中梅苑","lon":"121.41572","lat":"31.12756","category":"47","category_name":"住宅区","address":"上海市闵行区上中西路855弄(近虹梅南路)"},{"poiid":"B2094757D06AA7FC4592","title":"罗秀路镇西路","lon":"121.411396","lat":"31.127666","category":"500","category_name":"未知分类","address":"上海罗秀路镇西路"},{"poiid":"B2094757D068A5F54693","title":"烤满分(莲花广场店)","lon":"121.40699385","lat":"31.130265968","category":"257","category_name":"中餐厅","address":"闵行区沪闵路7866号莲花国际广场B1楼东新宿食街10号(近南方商城莲花站路1号地铁)"},{"poiid":"B2094655D26DA0F8429B","title":"梅陇二村(益文路)","lon":"121.41194","lat":"31.13552","category":"47","category_name":"住宅区","address":""},{"poiid":"B2094757D069A3FB449B","title":"世纪苑","lon":"121.40809631","lat":"31.130767822","category":"47","category_name":"住宅区","address":"上海市闵行区莲花南路上中西路"},{"poiid":"B2094757D069A6F4479A","title":"大桶大(虹梅店)","lon":"121.41811685","lat":"31.131848999","category":"149","category_name":"洗浴推拿场所","address":"上海上中西路虹梅南路口"},{"poiid":"B2094757D068ABF44998","title":"四海游龙 梅陇店 OVERSEAS DRAGON","lon":"121.418294054","lat":"31.131273793","category":"257","category_name":"中餐厅","address":"闵行区虹梅南路485号(近上中西路)"},{"poiid":"B2094655D26FA6FF4398","title":"朱梅小区","lon":"121.41251","lat":"31.129642","category":"47","category_name":"住宅区","address":"上海上中西路925弄"},{"poiid":"B2094757D16CA4FB459F","title":"豆丁捞捞麻辣烫","lon":"121.41359685","lat":"31.129233947","category":"247","category_name":"餐饮美食","address":"上海罗秀路镇西路"},{"poiid":"B2094655D264A2FF4093","title":"克莉丝汀","lon":"121.41457","lat":"31.13041","category":"112","category_name":"糕饼店","address":"徐汇区罗秀路1697号望族苑3号101室(近莲花南路)"},{"poiid":"B2094655D36CA2F5449E","title":"上中西路虹梅南路","lon":"121.41603","lat":"31.13066","category":"38","category_name":"公交车站","address":""},{"poiid":"B2094757D568AAFA499E","title":"好宴世家罗秀店","lon":"121.41246","lat":"31.127721","category":"76","category_name":"上海菜","address":"闵行区罗秀路1529号(近镇西路)"},{"poiid":"B2094654DB6CA2FB469C","title":"快客No.6829","lon":"121.41429","lat":"31.13017","category":"117","category_name":"便民商店/便利店","address":"上中西路873"},{"poiid":"B2094751D36EA5F4429C","title":"大成烧烤","lon":"121.41274","lat":"31.12819","category":"68","category_name":"快餐厅","address":"闵行区镇西路(近罗秀路)"},{"poiid":"B2094654DB64A2F44598","title":"上陇新村","lon":"121.41666","lat":"31.132132","category":"47","category_name":"住宅区","address":"上中西路810弄39号-84号"},{"poiid":"B2094654DB6CA3FD4592","title":"闵行区梅陇中心小学","lon":"121.41052","lat":"31.13133","category":"56","category_name":"小学","address":"闵行区梅陇镇镇西路255号"},{"poiid":"B2094757D66DABFC479A","title":"孙记香辣龙虾","lon":"121.41518685","lat":"31.130714277","category":"247","category_name":"餐饮美食","address":"上海上中西路747号(靠近虹梅南路)"},{"poiid":"B2094654DB64AAFB479A","title":"好德便利No.3043","lon":"121.41493","lat":"31.13023","category":"117","category_name":"便民商店/便利店","address":"上中西路833"},{"poiid":"B2094757D16CA6F5469B","title":"汪氏烧烤","lon":"121.41113985","lat":"31.127339909","category":"68","category_name":"快餐厅","address":"闵行区镇西路(罗秀路口)"},{"poiid":"B2094655D26EA2FC499B","title":"良友金伴No.771","lon":"121.41077","lat":"31.12994","category":"117","category_name":"便民商店/便利店","address":"上中西路991号"},{"poiid":"B2094654DB6CA3FD469B","title":"闵行区梅陇中学","lon":"121.40977","lat":"31.1323","category":"55","category_name":"中学","address":"镇西路299"},{"poiid":"B2094757D66CA2F8449A","title":"金山伯(五角场店)","lon":"121.41403485","lat":"31.13237101","category":"247","category_name":"餐饮美食","address":"北京杨浦区政通路189号特力时尚汇4F"},{"poiid":"B2094654DB6CA2FB489A","title":"中梅苑梅花阁","lon":"121.41873","lat":"31.13014","category":"47","category_name":"住宅区","address":"上海上中西路735弄"},{"poiid":"B2094757D164A7F94693","title":"中环绕","lon":"121.413406","lat":"31.130098","category":"500","category_name":"未知分类","address":"上海中环线"},{"poiid":"B2094757D465A0FB469A","title":"华韵轩酒家","lon":"121.40984","lat":"31.1337","category":"76","category_name":"上海菜","address":"徐汇区梅陇镇西路花园别墅1号(近上中西路)"},{"poiid":"B2094757D168ABFD4792","title":"陇南市场","lon":"121.413439","lat":"31.127823","category":"119","category_name":"商场","address":"上海罗秀路1505号"},{"poiid":"B2094757D664A5F54492","title":"第五次烧烤","lon":"121.41398","lat":"31.14","category":"68","category_name":"快餐厅","address":"徐汇区虹梅南路96弄凌云新村317号(近梅陇路)"},{"poiid":"B2094757D16AA7F84193","title":"铭记烧烤","lon":"121.41255785","lat":"31.127630915","category":"247","category_name":"餐饮美食","address":"上海市闵行区上中西路"},{"poiid":"B2094757D16DA4FC4693","title":"湛江生蚝馆","lon":"121.415730457","lat":"31.1340084432","category":"247","category_name":"餐饮美食","address":"上海徐汇区梅陇路565弄15号"},{"poiid":"B2094654DB6CA2F44992","title":"凤财东北菜手工水饺","lon":"121.41773","lat":"31.12841","category":"82","category_name":"东北菜","address":"闵行区罗秀路1373号(近虹梅路)"},{"poiid":"B2094654DA65A5F4459C","title":"绿梅别墅","lon":"121.417","lat":"31.1308","category":"47","category_name":"住宅区","address":"上海闵行区罗阳路255弄34号"},{"poiid":"B2094655D26FA5FF489B","title":"梦景苑","lon":"121.40875","lat":"31.126919","category":"47","category_name":"住宅区","address":"罗秀路1701弄"},{"poiid":"B2094655D26FA4F4429D","title":"梅陇城","lon":"121.40866","lat":"31.13","category":"47","category_name":"住宅区","address":""},{"poiid":"B2094655D26BA1FB4299","title":"罗秀路虹梅南路","lon":"121.41749","lat":"31.12857","category":"38","category_name":"公交车站","address":"上海罗秀路虹梅南路"},{"poiid":"B2094757D16AA5FB409B","title":"王氏烧烤","lon":"121.412533637","lat":"31.1278380196","category":"247","category_name":"餐饮美食","address":"上海罗秀路"},{"poiid":"B2094654DB6CA2F44693","title":"光明便利No.237","lon":"121.41265","lat":"31.12774","category":"117","category_name":"便民商店/便利店","address":"闵行区罗秀路1525号"},{"poiid":"B2094757D664A7F5419E","title":"福建沙县营养小吃 益梅路店","lon":"121.40962","lat":"31.13338","category":"68","category_name":"快餐厅","address":"闵行区益梅路113号(近紫藤一村)"},{"poiid":"B2094757D06AA3FC4393","title":"乔家栅 上中店","lon":"121.417893054","lat":"31.131550793","category":"257","category_name":"中餐厅","address":"徐汇区上中西路720号(近虹梅路)"},{"poiid":"B2094757D568A6FA4898","title":"未名园三期","lon":"121.4127350721","lat":"31.126242269323","category":"47","category_name":"住宅区","address":"上海市闵行区莲花南路588号"},{"poiid":"B2094757D169A5F8409A","title":"上海劲卡汽车服务有限公司","lon":"121.41533585","lat":"31.130019963","category":"500","category_name":"未知分类","address":"上海市闵行区上中西路815号"},{"poiid":"B2094757D66CA3F44399","title":"知音琴行培训中心","lon":"121.41052985","lat":"31.131935001","category":"253","category_name":"校园生活","address":"上海市闵行区莲花南路上中西路世纪苑裙房"},{"poiid":"B2094655D26FA5FC4399","title":"767弄小区","lon":"121.4168","lat":"31.13002","category":"47","category_name":"住宅区","address":"中西路767弄15-56号"},{"poiid":"B2094654DB64A2F4459B","title":"上陇新村南门(上中西路)","lon":"121.41722","lat":"31.13133","category":"47","category_name":"住宅区","address":"上中西路738弄9-38号甲"},{"poiid":"B2094757D165A0FA489F","title":"隆鑫海鲜酒店","lon":"121.415164857","lat":"31.126310889","category":"247","category_name":"餐饮美食","address":"上海闵行区罗秀路1505号2楼"},{"poiid":"B2094655D264A2FF4192","title":"好又多购物中心","lon":"121.41091","lat":"31.12749","category":"118","category_name":"超级市场","address":"闵行区双柏路1570号"},{"poiid":"B2094757D06BA6F4449F","title":"大成海鲜烧烤","lon":"121.41013085","lat":"31.127526913","category":"247","category_name":"餐饮美食","address":"上海市闵行区罗秀路镇西路"},{"poiid":"B2094757D06FA6FB4299","title":"西班牙名园","lon":"121.41094538994","lat":"31.135033552514","category":"47","category_name":"住宅区","address":"朝阳双桥东路温泉东里京通快速会村出口向南1700米"},{"poiid":"B2094757D16EA0FB4198","title":"梅陇","lon":"121.414322857","lat":"31.1362010872","category":"500","category_name":"未知分类","address":"上海市闵行区320,National,Rd"},{"poiid":"B2094655D26EA7FE469F","title":"望族苑","lon":"121.4078","lat":"31.12868","category":"47","category_name":"住宅区","address":"上中西路1285弄1-64号"},{"poiid":"B2094757D068AAFF4493","title":"沪闵高架","lon":"121.40802985","lat":"31.133900041","category":"260","category_name":"其他","address":"上海市沪闵高架上"},{"poiid":"B2094655D26DA0F8439D","title":"中梅苑","lon":"121.41572","lat":"31.12756","category":"47","category_name":"住宅区","address":"上海市闵行区上中西路855弄(近虹梅南路)"},{"poiid":"B2094757D06AA7FC4592","title":"罗秀路镇西路","lon":"121.411396","lat":"31.127666","category":"500","category_name":"未知分类","address":"上海罗秀路镇西路"},{"poiid":"B2094757D068A5F54693","title":"烤满分(莲花广场店)","lon":"121.40699385","lat":"31.130265968","category":"257","category_name":"中餐厅","address":"闵行区沪闵路7866号莲花国际广场B1楼东新宿食街10号(近南方商城莲花站路1号地铁)"},{"poiid":"B2094655D26DA0F8429B","title":"梅陇二村(益文路)","lon":"121.41194","lat":"31.13552","category":"47","category_name":"住宅区","address":""},{"poiid":"B2094757D069A3FB449B","title":"世纪苑","lon":"121.40809631","lat":"31.130767822","category":"47","category_name":"住宅区","address":"上海市闵行区莲花南路上中西路"},{"poiid":"B2094757D069A6F4479A","title":"大桶大(虹梅店)","lon":"121.41811685","lat":"31.131848999","category":"149","category_name":"洗浴推拿场所","address":"上海上中西路虹梅南路口"},{"poiid":"B2094757D068ABF44998","title":"四海游龙 梅陇店 OVERSEAS DRAGON","lon":"121.418294054","lat":"31.131273793","category":"257","category_name":"中餐厅","address":"闵行区虹梅南路485号(近上中西路)"},{"poiid":"B2094655D26FA6FF4398","title":"朱梅小区","lon":"121.41251","lat":"31.129642","category":"47","category_name":"住宅区","address":"上海上中西路925弄"},{"poiid":"B2094757D16CA4FB459F","title":"豆丁捞捞麻辣烫","lon":"121.41359685","lat":"31.129233947","category":"247","category_name":"餐饮美食","address":"上海罗秀路镇西路"},{"poiid":"B2094655D264A2FF4093","title":"克莉丝汀","lon":"121.41457","lat":"31.13041","category":"112","category_name":"糕饼店","address":"徐汇区罗秀路1697号望族苑3号101室(近莲花南路)"},{"poiid":"B2094655D36CA2F5449E","title":"上中西路虹梅南路","lon":"121.41603","lat":"31.13066","category":"38","category_name":"公交车站","address":""},{"poiid":"B2094757D568AAFA499E","title":"好宴世家罗秀店","lon":"121.41246","lat":"31.127721","category":"76","category_name":"上海菜","address":"闵行区罗秀路1529号(近镇西路)"},{"poiid":"B2094654DB6CA2FB469C","title":"快客No.6829","lon":"121.41429","lat":"31.13017","category":"117","category_name":"便民商店/便利店","address":"上中西路873"},{"poiid":"B2094751D36EA5F4429C","title":"大成烧烤","lon":"121.41274","lat":"31.12819","category":"68","category_name":"快餐厅","address":"闵行区镇西路(近罗秀路)"},{"poiid":"B2094654DB64A2F44598","title":"上陇新村","lon":"121.41666","lat":"31.132132","category":"47","category_name":"住宅区","address":"上中西路810弄39号-84号"},{"poiid":"B2094654DB6CA3FD4592","title":"闵行区梅陇中心小学","lon":"121.41052","lat":"31.13133","category":"56","category_name":"小学","address":"闵行区梅陇镇镇西路255号"},{"poiid":"B2094757D66DABFC479A","title":"孙记香辣龙虾","lon":"121.41518685","lat":"31.130714277","category":"247","category_name":"餐饮美食","address":"上海上中西路747号(靠近虹梅南路)"},{"poiid":"B2094654DB64AAFB479A","title":"好德便利No.3043","lon":"121.41493","lat":"31.13023","category":"117","category_name":"便民商店/便利店","address":"上中西路833"},{"poiid":"B2094757D16CA6F5469B","title":"汪氏烧烤","lon":"121.41113985","lat":"31.127339909","category":"68","category_name":"快餐厅","address":"闵行区镇西路(罗秀路口)"},{"poiid":"B2094655D26EA2FC499B","title":"良友金伴No.771","lon":"121.41077","lat":"31.12994","category":"117","category_name":"便民商店/便利店","address":"上中西路991号"},{"poiid":"B2094654DB6CA3FD469B","title":"闵行区梅陇中学","lon":"121.40977","lat":"31.1323","category":"55","category_name":"中学","address":"镇西路299"},{"poiid":"B2094757D66CA2F8449A","title":"金山伯(五角场店)","lon":"121.41403485","lat":"31.13237101","category":"247","category_name":"餐饮美食","address":"北京杨浦区政通路189号特力时尚汇4F"},{"poiid":"B2094654DB6CA2FB489A","title":"中梅苑梅花阁","lon":"121.41873","lat":"31.13014","category":"47","category_name":"住宅区","address":"上海上中西路735弄"},{"poiid":"B2094757D164A7F94693","title":"中环绕","lon":"121.413406","lat":"31.130098","category":"500","category_name":"未知分类","address":"上海中环线"},{"poiid":"B2094757D465A0FB469A","title":"华韵轩酒家","lon":"121.40984","lat":"31.1337","category":"76","category_name":"上海菜","address":"徐汇区梅陇镇西路花园别墅1号(近上中西路)"},{"poiid":"B2094757D168ABFD4792","title":"陇南市场","lon":"121.413439","lat":"31.127823","category":"119","category_name":"商场","address":"上海罗秀路1505号"},{"poiid":"B2094757D664A5F54492","title":"第五次烧烤","lon":"121.41398","lat":"31.14","category":"68","category_name":"快餐厅","address":"徐汇区虹梅南路96弄凌云新村317号(近梅陇路)"},{"poiid":"B2094757D16AA7F84193","title":"铭记烧烤","lon":"121.41255785","lat":"31.127630915","category":"247","category_name":"餐饮美食","address":"上海市闵行区上中西路"},{"poiid":"B2094757D16DA4FC4693","title":"湛江生蚝馆","lon":"121.415730457","lat":"31.1340084432","category":"247","category_name":"餐饮美食","address":"上海徐汇区梅陇路565弄15号"},{"poiid":"B2094654DB6CA2F44992","title":"凤财东北菜手工水饺","lon":"121.41773","lat":"31.12841","category":"82","category_name":"东北菜","address":"闵行区罗秀路1373号(近虹梅路)"},{"poiid":"B2094654DA65A5F4459C","title":"绿梅别墅","lon":"121.417","lat":"31.1308","category":"47","category_name":"住宅区","address":"上海闵行区罗阳路255弄34号"},{"poiid":"B2094655D26FA5FF489B","title":"梦景苑","lon":"121.40875","lat":"31.126919","category":"47","category_name":"住宅区","address":"罗秀路1701弄"},{"poiid":"B2094655D26FA4F4429D","title":"梅陇城","lon":"121.40866","lat":"31.13","category":"47","category_name":"住宅区","address":""},{"poiid":"B2094655D26BA1FB4299","title":"罗秀路虹梅南路","lon":"121.41749","lat":"31.12857","category":"38","category_name":"公交车站","address":"上海罗秀路虹梅南路"},{"poiid":"B2094757D16AA5FB409B","title":"王氏烧烤","lon":"121.412533637","lat":"31.1278380196","category":"247","category_name":"餐饮美食","address":"上海罗秀路"},{"poiid":"B2094654DB6CA2F44693","title":"光明便利No.237","lon":"121.41265","lat":"31.12774","category":"117","category_name":"便民商店/便利店","address":"闵行区罗秀路1525号"},{"poiid":"B2094757D664A7F5419E","title":"福建沙县营养小吃 益梅路店","lon":"121.40962","lat":"31.13338","category":"68","category_name":"快餐厅","address":"闵行区益梅路113号(近紫藤一村)"},{"poiid":"B2094757D06AA3FC4393","title":"乔家栅 上中店","lon":"121.417893054","lat":"31.131550793","category":"257","category_name":"中餐厅","address":"徐汇区上中西路720号(近虹梅路)"},{"poiid":"B2094757D568A6FA4898","title":"未名园三期","lon":"121.4127350721","lat":"31.126242269323","category":"47","category_name":"住宅区","address":"上海市闵行区莲花南路588号"},{"poiid":"B2094757D169A5F8409A","title":"上海劲卡汽车服务有限公司","lon":"121.41533585","lat":"31.130019963","category":"500","category_name":"未知分类","address":"上海市闵行区上中西路815号"},{"poiid":"B2094757D66CA3F44399","title":"知音琴行培训中心","lon":"121.41052985","lat":"31.131935001","category":"253","category_name":"校园生活","address":"上海市闵行区莲花南路上中西路世纪苑裙房"},{"poiid":"B2094655D26FA5FC4399","title":"767弄小区","lon":"121.4168","lat":"31.13002","category":"47","category_name":"住宅区","address":"中西路767弄15-56号"},{"poiid":"B2094654DB64A2F4459B","title":"上陇新村南门(上中西路)","lon":"121.41722","lat":"31.13133","category":"47","category_name":"住宅区","address":"上中西路738弄9-38号甲"},{"poiid":"B2094757D165A0FA489F","title":"隆鑫海鲜酒店","lon":"121.415164857","lat":"31.126310889","category":"247","category_name":"餐饮美食","address":"上海闵行区罗秀路1505号2楼"},{"poiid":"B2094655D264A2FF4192","title":"好又多购物中心","lon":"121.41091","lat":"31.12749","category":"118","category_name":"超级市场","address":"闵行区双柏路1570号"},{"poiid":"B2094757D06BA6F4449F","title":"大成海鲜烧烤","lon":"121.41013085","lat":"31.127526913","category":"247","category_name":"餐饮美食","address":"上海市闵行区罗秀路镇西路"},{"poiid":"B2094757D06FA6FB4299","title":"西班牙名园","lon":"121.41094538994","lat":"31.135033552514","category":"47","category_name":"住宅区","address":"朝阳双桥东路温泉东里京通快速会村出口向南1700米"},{"poiid":"B2094757D16EA0FB4198","title":"梅陇","lon":"121.414322857","lat":"31.1362010872","category":"500","category_name":"未知分类","address":"上海市闵行区320,National,Rd"},{"poiid":"B2094655D26EA7FE469F","title":"望族苑","lon":"121.4078","lat":"31.12868","category":"47","category_name":"住宅区","address":"上中西路1285弄1-64号"},{"poiid":"B2094757D068AAFF4493","title":"沪闵高架","lon":"121.40802985","lat":"31.133900041","category":"260","category_name":"其他","address":"上海市沪闵高架上"},{"poiid":"B2094655D26DA0F8439D","title":"中梅苑","lon":"121.41572","lat":"31.12756","category":"47","category_name":"住宅区","address":"上海市闵行区上中西路855弄(近虹梅南路)"},{"poiid":"B2094757D06AA7FC4592","title":"罗秀路镇西路","lon":"121.411396","lat":"31.127666","category":"500","category_name":"未知分类","address":"上海罗秀路镇西路"},{"poiid":"B2094757D068A5F54693","title":"烤满分(莲花广场店)","lon":"121.40699385","lat":"31.130265968","category":"257","category_name":"中餐厅","address":"闵行区沪闵路7866号莲花国际广场B1楼东新宿食街10号(近南方商城莲花站路1号地铁)"},{"poiid":"B2094655D26DA0F8429B","title":"梅陇二村(益文路)","lon":"121.41194","lat":"31.13552","category":"47","category_name":"住宅区","address":""},{"poiid":"B2094757D069A3FB449B","title":"世纪苑","lon":"121.40809631","lat":"31.130767822","category":"47","category_name":"住宅区","address":"上海市闵行区莲花南路上中西路"},{"poiid":"B2094757D069A6F4479A","title":"大桶大(虹梅店)","lon":"121.41811685","lat":"31.131848999","category":"149","category_name":"洗浴推拿场所","address":"上海上中西路虹梅南路口"},{"poiid":"B2094757D068ABF44998","title":"四海游龙 梅陇店 OVERSEAS DRAGON","lon":"121.418294054","lat":"31.131273793","category":"257","category_name":"中餐厅","address":"闵行区虹梅南路485号(近上中西路)"},{"poiid":"B2094655D26FA6FF4398","title":"朱梅小区","lon":"121.41251","lat":"31.129642","category":"47","category_name":"住宅区","address":"上海上中西路925弄"},{"poiid":"B2094757D16CA4FB459F","title":"豆丁捞捞麻辣烫","lon":"121.41359685","lat":"31.129233947","category":"247","category_name":"餐饮美食","address":"上海罗秀路镇西路"},{"poiid":"B2094655D264A2FF4093","title":"克莉丝汀","lon":"121.41457","lat":"31.13041","category":"112","category_name":"糕饼店","address":"徐汇区罗秀路1697号望族苑3号101室(近莲花南路)"},{"poiid":"B2094655D36CA2F5449E","title":"上中西路虹梅南路","lon":"121.41603","lat":"31.13066","category":"38","category_name":"公交车站","address":""},{"poiid":"B2094757D568AAFA499E","title":"好宴世家罗秀店","lon":"121.41246","lat":"31.127721","category":"76","category_name":"上海菜","address":"闵行区罗秀路1529号(近镇西路)"},{"poiid":"B2094654DB6CA2FB469C","title":"快客No.6829","lon":"121.41429","lat":"31.13017","category":"117","category_name":"便民商店/便利店","address":"上中西路873"},{"poiid":"B2094751D36EA5F4429C","title":"大成烧烤","lon":"121.41274","lat":"31.12819","category":"68","category_name":"快餐厅","address":"闵行区镇西路(近罗秀路)"},{"poiid":"B2094654DB64A2F44598","title":"上陇新村","lon":"121.41666","lat":"31.132132","category":"47","category_name":"住宅区","address":"上中西路810弄39号-84号"},{"poiid":"B2094654DB6CA3FD4592","title":"闵行区梅陇中心小学","lon":"121.41052","lat":"31.13133","category":"56","category_name":"小学","address":"闵行区梅陇镇镇西路255号"},{"poiid":"B2094757D66DABFC479A","title":"孙记香辣龙虾","lon":"121.41518685","lat":"31.130714277","category":"247","category_name":"餐饮美食","address":"上海上中西路747号(靠近虹梅南路)"},{"poiid":"B2094654DB64AAFB479A","title":"好德便利No.3043","lon":"121.41493","lat":"31.13023","category":"117","category_name":"便民商店/便利店","address":"上中西路833"},{"poiid":"B2094757D16CA6F5469B","title":"汪氏烧烤","lon":"121.41113985","lat":"31.127339909","category":"68","category_name":"快餐厅","address":"闵行区镇西路(罗秀路口)"},{"poiid":"B2094655D26EA2FC499B","title":"良友金伴No.771","lon":"121.41077","lat":"31.12994","category":"117","category_name":"便民商店/便利店","address":"上中西路991号"},{"poiid":"B2094654DB6CA3FD469B","title":"闵行区梅陇中学","lon":"121.40977","lat":"31.1323","category":"55","category_name":"中学","address":"镇西路299"},{"poiid":"B2094757D66CA2F8449A","title":"金山伯(五角场店)","lon":"121.41403485","lat":"31.13237101","category":"247","category_name":"餐饮美食","address":"北京杨浦区政通路189号特力时尚汇4F"},{"poiid":"B2094654DB6CA2FB489A","title":"中梅苑梅花阁","lon":"121.41873","lat":"31.13014","category":"47","category_name":"住宅区","address":"上海上中西路735弄"},{"poiid":"B2094757D164A7F94693","title":"中环绕","lon":"121.413406","lat":"31.130098","category":"500","category_name":"未知分类","address":"上海中环线"},{"poiid":"B2094757D465A0FB469A","title":"华韵轩酒家","lon":"121.40984","lat":"31.1337","category":"76","category_name":"上海菜","address":"徐汇区梅陇镇西路花园别墅1号(近上中西路)"},{"poiid":"B2094757D168ABFD4792","title":"陇南市场","lon":"121.413439","lat":"31.127823","category":"119","category_name":"商场","address":"上海罗秀路1505号"},{"poiid":"B2094757D664A5F54492","title":"第五次烧烤","lon":"121.41398","lat":"31.14","category":"68","category_name":"快餐厅","address":"徐汇区虹梅南路96弄凌云新村317号(近梅陇路)"},{"poiid":"B2094757D16AA7F84193","title":"铭记烧烤","lon":"121.41255785","lat":"31.127630915","category":"247","category_name":"餐饮美食","address":"上海市闵行区上中西路"},{"poiid":"B2094757D16DA4FC4693","title":"湛江生蚝馆","lon":"121.415730457","lat":"31.1340084432","category":"247","category_name":"餐饮美食","address":"上海徐汇区梅陇路565弄15号"},{"poiid":"B2094654DB6CA2F44992","title":"凤财东北菜手工水饺","lon":"121.41773","lat":"31.12841","category":"82","category_name":"东北菜","address":"闵行区罗秀路1373号(近虹梅路)"},{"poiid":"B2094654DA65A5F4459C","title":"绿梅别墅","lon":"121.417","lat":"31.1308","category":"47","category_name":"住宅区","address":"上海闵行区罗阳路255弄34号"},{"poiid":"B2094655D26FA5FF489B","title":"梦景苑","lon":"121.40875","lat":"31.126919","category":"47","category_name":"住宅区","address":"罗秀路1701弄"},{"poiid":"B2094655D26FA4F4429D","title":"梅陇城","lon":"121.40866","lat":"31.13","category":"47","category_name":"住宅区","address":""},{"poiid":"B2094655D26BA1FB4299","title":"罗秀路虹梅南路","lon":"121.41749","lat":"31.12857","category":"38","category_name":"公交车站","address":"上海罗秀路虹梅南路"},{"poiid":"B2094757D16AA5FB409B","title":"王氏烧烤","lon":"121.412533637","lat":"31.1278380196","category":"247","category_name":"餐饮美食","address":"上海罗秀路"},{"poiid":"B2094654DB6CA2F44693","title":"光明便利No.237","lon":"121.41265","lat":"31.12774","category":"117","category_name":"便民商店/便利店","address":"闵行区罗秀路1525号"},{"poiid":"B2094757D664A7F5419E","title":"福建沙县营养小吃 益梅路店","lon":"121.40962","lat":"31.13338","category":"68","category_name":"快餐厅","address":"闵行区益梅路113号(近紫藤一村)"},{"poiid":"B2094757D06AA3FC4393","title":"乔家栅 上中店","lon":"121.417893054","lat":"31.131550793","category":"257","category_name":"中餐厅","address":"徐汇区上中西路720号(近虹梅路)"},{"poiid":"B2094757D568A6FA4898","title":"未名园三期","lon":"121.4127350721","lat":"31.126242269323","category":"47","category_name":"住宅区","address":"上海市闵行区莲花南路588号"},{"poiid":"B2094757D169A5F8409A","title":"上海劲卡汽车服务有限公司","lon":"121.41533585","lat":"31.130019963","category":"500","category_name":"未知分类","address":"上海市闵行区上中西路815号"},{"poiid":"B2094757D66CA3F44399","title":"知音琴行培训中心","lon":"121.41052985","lat":"31.131935001","category":"253","category_name":"校园生活","address":"上海市闵行区莲花南路上中西路世纪苑裙房"},{"poiid":"B2094655D26FA5FC4399","title":"767弄小区","lon":"121.4168","lat":"31.13002","category":"47","category_name":"住宅区","address":"中西路767弄15-56号"},{"poiid":"B2094654DB64A2F4459B","title":"上陇新村南门(上中西路)","lon":"121.41722","lat":"31.13133","category":"47","category_name":"住宅区","address":"上中西路738弄9-38号甲"},{"poiid":"B2094757D165A0FA489F","title":"隆鑫海鲜酒店","lon":"121.415164857","lat":"31.126310889","category":"247","category_name":"餐饮美食","address":"上海闵行区罗秀路1505号2楼"},{"poiid":"B2094655D264A2FF4192","title":"好又多购物中心","lon":"121.41091","lat":"31.12749","category":"118","category_name":"超级市场","address":"闵行区双柏路1570号"}]