[{"poiid":"B2094654D469A6FB419A","title":"马陆驾校(横仓公路)","lon":"121.29074241964338","lat":"31.362343846904448","category":"192","category_name":"驾校","address":"上海嘉定区横仓公路2588号"},{"poiid":"B2094757D06FA4FB489A","title":"S5沪嘉高速嘉定城区收费站","lon":"121.26694911","lat":"31.3694721994","category":"267","category_name":"收费站","address":"上海嘉定区S5沪嘉高速嘉定城区收费站"},{"poiid":"B2094753D768A7FB499A","title":"嘉定新城图书馆","lon":"121.264015","lat":"31.350297","category":"500","category_name":"未知分类","address":"上海市 嘉定区裕民南路1288号"},{"poiid":"B2094751D564A0FD419A","title":"随意门","lon":"121.260361","lat":"31.367538","category":"248","category_name":"生活娱乐","address":"沪宜公路3128号"},{"poiid":"B2094757D06BA0FF489E","title":"保利家园","lon":"121.25768","lat":"31.355701","category":"47","category_name":"住宅区","address":"上海嘉定区嘉定新城洪德路333弄"},{"poiid":"B2094757D064A7F44998","title":"沃尔玛超市(马陆店)","lon":"121.27826936301312","lat":"31.34308659784451","category":"118","category_name":"超级市场","address":"嘉定区沪宜公路2618号天林商业广场2-3楼"},{"poiid":"B2094757D068A1F5479E","title":"嘉定区投资服务和办证办照中心","lon":"121.26584177","lat":"31.371860156","category":"260","category_name":"其他","address":"上海嘉戬公路118号"},{"poiid":"B2094757D16CA2FE4198","title":"仓新小区","lon":"121.26844","lat":"31.361547","category":"47","category_name":"住宅区","address":"上海嘉新公路668弄"},{"poiid":"B2094654D469A6FB489A","title":"上海马陆丰登工业园","lon":"121.29267","lat":"31.35958","category":"45","category_name":"产业园区","address":"越秀区环市东路362-366号"},{"poiid":"B2094757D064A2FB479E","title":"上海亚明灯泡厂有限公司","lon":"121.28126774","lat":"31.35180442","category":"46","category_name":"楼宇","address":"上海市嘉定区嘉新公路1001号"},{"poiid":"B2094654D469A6FD4392","title":"丰登门诊部","lon":"121.27652","lat":"31.35082","category":"162","category_name":"医院","address":"丰登路"},{"poiid":"B2094750D564A6FC469D","title":"风景里","lon":"121.26838042631","lat":"31.350996630104","category":"47","category_name":"住宅区","address":"嘉定新城宝塔路399弄永盛路口"},{"poiid":"B2094757D064A7FF4698","title":"肯德基 KFC (马陆弘基店)","lon":"121.28358992","lat":"31.337003142","category":"500","category_name":"未知分类","address":"嘉定区沪宜公路2400号(封周路沪宜公路)"},{"poiid":"B2094654D469A5FC449E","title":"九洲公寓","lon":"121.27066","lat":"31.351662","category":"47","category_name":"住宅区","address":"沪宜公路2758号"},{"poiid":"B2094654DB6AA5FC459F","title":"联华","lon":"121.27679","lat":"31.35045","category":"118","category_name":"超级市场","address":""},{"poiid":"B2094655D36CA4FD4098","title":"白银路阿克苏路","lon":"121.25992","lat":"31.35259","category":"38","category_name":"公交车站","address":""},{"poiid":"B2094757D16BA7FC459A","title":"汤圆饭店","lon":"121.27437","lat":"31.36233","category":"76","category_name":"上海菜","address":"嘉定区嘉新公路698号"},{"poiid":"B2094757DA6EABFD409B","title":"远香舫","lon":"121.281","lat":"31.3395","category":"252","category_name":"楼宇机构","address":"嘉定区裕民南路裕民南路1777弄(近洪德路)"},{"poiid":"B2094655D36CA4FC4992","title":"白银路沪宜公路","lon":"121.2664","lat":"31.35538","category":"38","category_name":"公交车站","address":""},{"poiid":"B2094751D26EA7F8489D","title":"远香湖","lon":"121.265808","lat":"31.35495","category":"250","category_name":"公园户外","address":null},{"poiid":"B2094457D36BABF4499B","title":"上海保利大剧院","lon":"121.263635","lat":"31.354132","category":"180","category_name":"剧场","address":"上海市嘉定区白银路159号"},{"poiid":"B2094654D469A7FD429A","title":"马陆培训学校","lon":"121.2705","lat":"31.35107","category":"190","category_name":"培训机构","address":""},{"poiid":"B2094654D469A6FD439D","title":"马陆镇彭赵村社区服务中心","lon":"121.27652","lat":"31.35081","category":"248","category_name":"生活娱乐","address":""},{"poiid":"B2094654D469A5FC4693","title":"实惠百货超市","lon":"121.26662","lat":"31.35746","category":"119","category_name":"商场","address":""},{"poiid":"B2094757D064A5F94498","title":"大唐江鲜土菜馆(马陆店)","lon":"121.27632","lat":"31.36067","category":"260","category_name":"其他","address":"嘉定区马陆镇申裕路519号(近沪嘉辅道)"},{"poiid":"B2094654D469A6FB439F","title":"飞利浦灯具(上海)有限公司","lon":"121.27312","lat":"31.34911","category":"263","category_name":"公司","address":"沪宜公路2688"},{"poiid":"B2094654D469A6FD449F","title":"膳来村","lon":"121.26841","lat":"31.36216","category":"257","category_name":"中餐厅","address":""},{"poiid":"B2094654DB6AA6F54693","title":"上海安川电动机器有限公司","lon":"121.28063","lat":"31.3526","category":"263","category_name":"公司","address":"嘉新公路915"},{"poiid":"B2094654D469A6F4449E","title":"仓场村葛家宅","lon":"121.27516","lat":"31.36185","category":"47","category_name":"住宅区","address":""},{"poiid":"B2094654D469A6FB469C","title":"上海久明科技有限公司","lon":"121.27985","lat":"31.35752","category":"263","category_name":"公司","address":"嘉新公路835弄39"},{"poiid":"B2094655D264A3F54992","title":"棕枋桥","lon":"121.26591","lat":"31.35807","category":"250","category_name":"公园户外","address":""},{"poiid":"B2094757D16AA5F5479A","title":"震旦","lon":"121.275866653","lat":"31.3686778611","category":"500","category_name":"未知分类","address":"上海市嘉定区嘉新公路"},{"poiid":"B2094654D469A7FD4193","title":"上海市工业区国家级高新技术区马陆园区","lon":"121.27435","lat":"31.34537","category":"45","category_name":"产业园区","address":""},{"poiid":"B2094654D469A6F44292","title":"上海亚尔光源有限公司","lon":"121.28151","lat":"31.35125","category":"263","category_name":"公司","address":"嘉新公路1001号"},{"poiid":"B2094750DA6AA3FF409B","title":"嘉定出入境管理局","lon":"121.259078","lat":"31.342535","category":"617","category_name":"政府机构","address":"嘉定区永盛路1190号"},{"poiid":"B2094654D469A0F84998","title":"澄城公寓","lon":"121.28616","lat":"31.358191","category":"47","category_name":"住宅区","address":"戬浜镇"},{"poiid":"B2094655D36CA5FE4999","title":"澄浏中路丰登路","lon":"121.28856","lat":"31.35988","category":"38","category_name":"公交车站","address":""},{"poiid":"B2094655D26BA0FD4898","title":"保利家园三期","lon":"121.26218","lat":"31.35373","category":"47","category_name":"住宅区","address":"白银路110号"},{"poiid":"B2094757D16BA4FC4899","title":"南北周佳苑","lon":"121.262636653","lat":"31.3634517544","category":"47","category_name":"住宅区","address":"上海市嘉定区沪宜公路3066号"},{"poiid":"B2094757D165A3F54693","title":"沥苑小区","lon":"121.285250625","lat":"31.3398354009","category":"47","category_name":"住宅区","address":"上海马陆"},{"poiid":"B2094753D264A1FB459F","title":"远香舫","lon":"121.265386","lat":"31.361196","category":"247","category_name":"餐饮美食","address":"上海市 洪德路38弄"},{"poiid":"B2094655D26FA1FD419A","title":"龚家花园","lon":"121.28222","lat":"31.36105","category":"47","category_name":"住宅区","address":""},{"poiid":"B2094757D568A6FA439D","title":"大卫国际大厦","lon":"121.26272","lat":"31.347561","category":"46","category_name":"楼宇","address":"嘉定区阿克苏路1187号"},{"poiid":"B2094654D469A6F4499B","title":"马陆镇新联村","lon":"121.2741","lat":"31.3626","category":"248","category_name":"生活娱乐","address":"嘉新公路698"},{"poiid":"B2094757D569A7F5469E","title":"天林商业广场","lon":"121.2785389","lat":"31.34321278","category":"46","category_name":"楼宇","address":"沪宜公路2500-2506号等"},{"poiid":"B2094757D165AAF5409D","title":"金珂花园酒店","lon":"121.279787054","lat":"31.341881793","category":"76","category_name":"上海菜","address":"嘉定区马陆镇沪宜公路2416-2418号(近弘基广场5号楼)"},{"poiid":"B2094654D469A5F9439D","title":"彭封路南区","lon":"121.28104","lat":"31.344938","category":"47","category_name":"住宅区","address":"彭封公路161弄"},{"poiid":"B2094757D16CA6F5459E","title":"保利湖畔阳光","lon":"121.265576925","lat":"31.3404722141","category":"500","category_name":"未知分类","address":"上海市嘉定区裕民南路333号"},{"poiid":"B2094757D66AA7FD4193","title":"金池塘私房菜","lon":"121.28116","lat":"31.33833","category":"76","category_name":"上海菜","address":"嘉定区沪宜公路2370弄马陆弘基诚建广场8号(近宝安公路)"},{"poiid":"B2094757D16CA4FE489F","title":"伊诺咖啡(回城店)","lon":"121.25564","lat":"31.36112","category":"65","category_name":"咖啡厅","address":"嘉定区回城南路1128号"},{"poiid":"B2094654D469A6FB419A","title":"马陆驾校(横仓公路)","lon":"121.29074241964338","lat":"31.362343846904448","category":"192","category_name":"驾校","address":"上海嘉定区横仓公路2588号"},{"poiid":"B2094757D06FA4FB489A","title":"S5沪嘉高速嘉定城区收费站","lon":"121.26694911","lat":"31.3694721994","category":"267","category_name":"收费站","address":"上海嘉定区S5沪嘉高速嘉定城区收费站"},{"poiid":"B2094753D768A7FB499A","title":"嘉定新城图书馆","lon":"121.264015","lat":"31.350297","category":"500","category_name":"未知分类","address":"上海市 嘉定区裕民南路1288号"},{"poiid":"B2094751D564A0FD419A","title":"随意门","lon":"121.260361","lat":"31.367538","category":"248","category_name":"生活娱乐","address":"沪宜公路3128号"},{"poiid":"B2094757D06BA0FF489E","title":"保利家园","lon":"121.25768","lat":"31.355701","category":"47","category_name":"住宅区","address":"上海嘉定区嘉定新城洪德路333弄"},{"poiid":"B2094757D064A7F44998","title":"沃尔玛超市(马陆店)","lon":"121.27826936301312","lat":"31.34308659784451","category":"118","category_name":"超级市场","address":"嘉定区沪宜公路2618号天林商业广场2-3楼"},{"poiid":"B2094757D068A1F5479E","title":"嘉定区投资服务和办证办照中心","lon":"121.26584177","lat":"31.371860156","category":"260","category_name":"其他","address":"上海嘉戬公路118号"},{"poiid":"B2094757D16CA2FE4198","title":"仓新小区","lon":"121.26844","lat":"31.361547","category":"47","category_name":"住宅区","address":"上海嘉新公路668弄"},{"poiid":"B2094654D469A6FB489A","title":"上海马陆丰登工业园","lon":"121.29267","lat":"31.35958","category":"45","category_name":"产业园区","address":"越秀区环市东路362-366号"},{"poiid":"B2094757D064A2FB479E","title":"上海亚明灯泡厂有限公司","lon":"121.28126774","lat":"31.35180442","category":"46","category_name":"楼宇","address":"上海市嘉定区嘉新公路1001号"},{"poiid":"B2094654D469A6FD4392","title":"丰登门诊部","lon":"121.27652","lat":"31.35082","category":"162","category_name":"医院","address":"丰登路"},{"poiid":"B2094750D564A6FC469D","title":"风景里","lon":"121.26838042631","lat":"31.350996630104","category":"47","category_name":"住宅区","address":"嘉定新城宝塔路399弄永盛路口"},{"poiid":"B2094757D064A7FF4698","title":"肯德基 KFC (马陆弘基店)","lon":"121.28358992","lat":"31.337003142","category":"500","category_name":"未知分类","address":"嘉定区沪宜公路2400号(封周路沪宜公路)"},{"poiid":"B2094654D469A5FC449E","title":"九洲公寓","lon":"121.27066","lat":"31.351662","category":"47","category_name":"住宅区","address":"沪宜公路2758号"},{"poiid":"B2094654DB6AA5FC459F","title":"联华","lon":"121.27679","lat":"31.35045","category":"118","category_name":"超级市场","address":""},{"poiid":"B2094655D36CA4FD4098","title":"白银路阿克苏路","lon":"121.25992","lat":"31.35259","category":"38","category_name":"公交车站","address":""},{"poiid":"B2094757D16BA7FC459A","title":"汤圆饭店","lon":"121.27437","lat":"31.36233","category":"76","category_name":"上海菜","address":"嘉定区嘉新公路698号"},{"poiid":"B2094757DA6EABFD409B","title":"远香舫","lon":"121.281","lat":"31.3395","category":"252","category_name":"楼宇机构","address":"嘉定区裕民南路裕民南路1777弄(近洪德路)"},{"poiid":"B2094655D36CA4FC4992","title":"白银路沪宜公路","lon":"121.2664","lat":"31.35538","category":"38","category_name":"公交车站","address":""},{"poiid":"B2094751D26EA7F8489D","title":"远香湖","lon":"121.265808","lat":"31.35495","category":"250","category_name":"公园户外","address":null},{"poiid":"B2094457D36BABF4499B","title":"上海保利大剧院","lon":"121.263635","lat":"31.354132","category":"180","category_name":"剧场","address":"上海市嘉定区白银路159号"},{"poiid":"B2094654D469A7FD429A","title":"马陆培训学校","lon":"121.2705","lat":"31.35107","category":"190","category_name":"培训机构","address":""},{"poiid":"B2094654D469A6FD439D","title":"马陆镇彭赵村社区服务中心","lon":"121.27652","lat":"31.35081","category":"248","category_name":"生活娱乐","address":""},{"poiid":"B2094654D469A5FC4693","title":"实惠百货超市","lon":"121.26662","lat":"31.35746","category":"119","category_name":"商场","address":""},{"poiid":"B2094757D064A5F94498","title":"大唐江鲜土菜馆(马陆店)","lon":"121.27632","lat":"31.36067","category":"260","category_name":"其他","address":"嘉定区马陆镇申裕路519号(近沪嘉辅道)"},{"poiid":"B2094654D469A6FB439F","title":"飞利浦灯具(上海)有限公司","lon":"121.27312","lat":"31.34911","category":"263","category_name":"公司","address":"沪宜公路2688"},{"poiid":"B2094654D469A6FD449F","title":"膳来村","lon":"121.26841","lat":"31.36216","category":"257","category_name":"中餐厅","address":""},{"poiid":"B2094654DB6AA6F54693","title":"上海安川电动机器有限公司","lon":"121.28063","lat":"31.3526","category":"263","category_name":"公司","address":"嘉新公路915"},{"poiid":"B2094654D469A6F4449E","title":"仓场村葛家宅","lon":"121.27516","lat":"31.36185","category":"47","category_name":"住宅区","address":""},{"poiid":"B2094654D469A6FB469C","title":"上海久明科技有限公司","lon":"121.27985","lat":"31.35752","category":"263","category_name":"公司","address":"嘉新公路835弄39"},{"poiid":"B2094655D264A3F54992","title":"棕枋桥","lon":"121.26591","lat":"31.35807","category":"250","category_name":"公园户外","address":""},{"poiid":"B2094757D16AA5F5479A","title":"震旦","lon":"121.275866653","lat":"31.3686778611","category":"500","category_name":"未知分类","address":"上海市嘉定区嘉新公路"},{"poiid":"B2094654D469A7FD4193","title":"上海市工业区国家级高新技术区马陆园区","lon":"121.27435","lat":"31.34537","category":"45","category_name":"产业园区","address":""},{"poiid":"B2094654D469A6F44292","title":"上海亚尔光源有限公司","lon":"121.28151","lat":"31.35125","category":"263","category_name":"公司","address":"嘉新公路1001号"},{"poiid":"B2094750DA6AA3FF409B","title":"嘉定出入境管理局","lon":"121.259078","lat":"31.342535","category":"617","category_name":"政府机构","address":"嘉定区永盛路1190号"},{"poiid":"B2094654D469A0F84998","title":"澄城公寓","lon":"121.28616","lat":"31.358191","category":"47","category_name":"住宅区","address":"戬浜镇"},{"poiid":"B2094655D36CA5FE4999","title":"澄浏中路丰登路","lon":"121.28856","lat":"31.35988","category":"38","category_name":"公交车站","address":""},{"poiid":"B2094655D26BA0FD4898","title":"保利家园三期","lon":"121.26218","lat":"31.35373","category":"47","category_name":"住宅区","address":"白银路110号"},{"poiid":"B2094757D16BA4FC4899","title":"南北周佳苑","lon":"121.262636653","lat":"31.3634517544","category":"47","category_name":"住宅区","address":"上海市嘉定区沪宜公路3066号"},{"poiid":"B2094757D165A3F54693","title":"沥苑小区","lon":"121.285250625","lat":"31.3398354009","category":"47","category_name":"住宅区","address":"上海马陆"},{"poiid":"B2094753D264A1FB459F","title":"远香舫","lon":"121.265386","lat":"31.361196","category":"247","category_name":"餐饮美食","address":"上海市 洪德路38弄"},{"poiid":"B2094655D26FA1FD419A","title":"龚家花园","lon":"121.28222","lat":"31.36105","category":"47","category_name":"住宅区","address":""},{"poiid":"B2094757D568A6FA439D","title":"大卫国际大厦","lon":"121.26272","lat":"31.347561","category":"46","category_name":"楼宇","address":"嘉定区阿克苏路1187号"},{"poiid":"B2094654D469A6F4499B","title":"马陆镇新联村","lon":"121.2741","lat":"31.3626","category":"248","category_name":"生活娱乐","address":"嘉新公路698"},{"poiid":"B2094757D569A7F5469E","title":"天林商业广场","lon":"121.2785389","lat":"31.34321278","category":"46","category_name":"楼宇","address":"沪宜公路2500-2506号等"},{"poiid":"B2094757D165AAF5409D","title":"金珂花园酒店","lon":"121.279787054","lat":"31.341881793","category":"76","category_name":"上海菜","address":"嘉定区马陆镇沪宜公路2416-2418号(近弘基广场5号楼)"},{"poiid":"B2094654D469A5F9439D","title":"彭封路南区","lon":"121.28104","lat":"31.344938","category":"47","category_name":"住宅区","address":"彭封公路161弄"},{"poiid":"B2094757D16CA6F5459E","title":"保利湖畔阳光","lon":"121.265576925","lat":"31.3404722141","category":"500","category_name":"未知分类","address":"上海市嘉定区裕民南路333号"},{"poiid":"B2094757D66AA7FD4193","title":"金池塘私房菜","lon":"121.28116","lat":"31.33833","category":"76","category_name":"上海菜","address":"嘉定区沪宜公路2370弄马陆弘基诚建广场8号(近宝安公路)"},{"poiid":"B2094757D16CA4FE489F","title":"伊诺咖啡(回城店)","lon":"121.25564","lat":"31.36112","category":"65","category_name":"咖啡厅","address":"嘉定区回城南路1128号"},{"poiid":"B2094654D469A6FB419A","title":"马陆驾校(横仓公路)","lon":"121.29074241964338","lat":"31.362343846904448","category":"192","category_name":"驾校","address":"上海嘉定区横仓公路2588号"},{"poiid":"B2094757D06FA4FB489A","title":"S5沪嘉高速嘉定城区收费站","lon":"121.26694911","lat":"31.3694721994","category":"267","category_name":"收费站","address":"上海嘉定区S5沪嘉高速嘉定城区收费站"},{"poiid":"B2094753D768A7FB499A","title":"嘉定新城图书馆","lon":"121.264015","lat":"31.350297","category":"500","category_name":"未知分类","address":"上海市 嘉定区裕民南路1288号"},{"poiid":"B2094751D564A0FD419A","title":"随意门","lon":"121.260361","lat":"31.367538","category":"248","category_name":"生活娱乐","address":"沪宜公路3128号"},{"poiid":"B2094757D06BA0FF489E","title":"保利家园","lon":"121.25768","lat":"31.355701","category":"47","category_name":"住宅区","address":"上海嘉定区嘉定新城洪德路333弄"},{"poiid":"B2094757D064A7F44998","title":"沃尔玛超市(马陆店)","lon":"121.27826936301312","lat":"31.34308659784451","category":"118","category_name":"超级市场","address":"嘉定区沪宜公路2618号天林商业广场2-3楼"},{"poiid":"B2094757D068A1F5479E","title":"嘉定区投资服务和办证办照中心","lon":"121.26584177","lat":"31.371860156","category":"260","category_name":"其他","address":"上海嘉戬公路118号"},{"poiid":"B2094757D16CA2FE4198","title":"仓新小区","lon":"121.26844","lat":"31.361547","category":"47","category_name":"住宅区","address":"上海嘉新公路668弄"},{"poiid":"B2094654D469A6FB489A","title":"上海马陆丰登工业园","lon":"121.29267","lat":"31.35958","category":"45","category_name":"产业园区","address":"越秀区环市东路362-366号"},{"poiid":"B2094757D064A2FB479E","title":"上海亚明灯泡厂有限公司","lon":"121.28126774","lat":"31.35180442","category":"46","category_name":"楼宇","address":"上海市嘉定区嘉新公路1001号"},{"poiid":"B2094654D469A6FD4392","title":"丰登门诊部","lon":"121.27652","lat":"31.35082","category":"162","category_name":"医院","address":"丰登路"},{"poiid":"B2094750D564A6FC469D","title":"风景里","lon":"121.26838042631","lat":"31.350996630104","category":"47","category_name":"住宅区","address":"嘉定新城宝塔路399弄永盛路口"},{"poiid":"B2094757D064A7FF4698","title":"肯德基 KFC (马陆弘基店)","lon":"121.28358992","lat":"31.337003142","category":"500","category_name":"未知分类","address":"嘉定区沪宜公路2400号(封周路沪宜公路)"},{"poiid":"B2094654D469A5FC449E","title":"九洲公寓","lon":"121.27066","lat":"31.351662","category":"47","category_name":"住宅区","address":"沪宜公路2758号"},{"poiid":"B2094654DB6AA5FC459F","title":"联华","lon":"121.27679","lat":"31.35045","category":"118","category_name":"超级市场","address":""},{"poiid":"B2094655D36CA4FD4098","title":"白银路阿克苏路","lon":"121.25992","lat":"31.35259","category":"38","category_name":"公交车站","address":""},{"poiid":"B2094757D16BA7FC459A","title":"汤圆饭店","lon":"121.27437","lat":"31.36233","category":"76","category_name":"上海菜","address":"嘉定区嘉新公路698号"},{"poiid":"B2094757DA6EABFD409B","title":"远香舫","lon":"121.281","lat":"31.3395","category":"252","category_name":"楼宇机构","address":"嘉定区裕民南路裕民南路1777弄(近洪德路)"},{"poiid":"B2094655D36CA4FC4992","title":"白银路沪宜公路","lon":"121.2664","lat":"31.35538","category":"38","category_name":"公交车站","address":""},{"poiid":"B2094751D26EA7F8489D","title":"远香湖","lon":"121.265808","lat":"31.35495","category":"250","category_name":"公园户外","address":null},{"poiid":"B2094457D36BABF4499B","title":"上海保利大剧院","lon":"121.263635","lat":"31.354132","category":"180","category_name":"剧场","address":"上海市嘉定区白银路159号"},{"poiid":"B2094654D469A7FD429A","title":"马陆培训学校","lon":"121.2705","lat":"31.35107","category":"190","category_name":"培训机构","address":""},{"poiid":"B2094654D469A6FD439D","title":"马陆镇彭赵村社区服务中心","lon":"121.27652","lat":"31.35081","category":"248","category_name":"生活娱乐","address":""},{"poiid":"B2094654D469A5FC4693","title":"实惠百货超市","lon":"121.26662","lat":"31.35746","category":"119","category_name":"商场","address":""},{"poiid":"B2094757D064A5F94498","title":"大唐江鲜土菜馆(马陆店)","lon":"121.27632","lat":"31.36067","category":"260","category_name":"其他","address":"嘉定区马陆镇申裕路519号(近沪嘉辅道)"},{"poiid":"B2094654D469A6FB439F","title":"飞利浦灯具(上海)有限公司","lon":"121.27312","lat":"31.34911","category":"263","category_name":"公司","address":"沪宜公路2688"},{"poiid":"B2094654D469A6FD449F","title":"膳来村","lon":"121.26841","lat":"31.36216","category":"257","category_name":"中餐厅","address":""},{"poiid":"B2094654DB6AA6F54693","title":"上海安川电动机器有限公司","lon":"121.28063","lat":"31.3526","category":"263","category_name":"公司","address":"嘉新公路915"},{"poiid":"B2094654D469A6F4449E","title":"仓场村葛家宅","lon":"121.27516","lat":"31.36185","category":"47","category_name":"住宅区","address":""},{"poiid":"B2094654D469A6FB469C","title":"上海久明科技有限公司","lon":"121.27985","lat":"31.35752","category":"263","category_name":"公司","address":"嘉新公路835弄39"},{"poiid":"B2094655D264A3F54992","title":"棕枋桥","lon":"121.26591","lat":"31.35807","category":"250","category_name":"公园户外","address":""},{"poiid":"B2094757D16AA5F5479A","title":"震旦","lon":"121.275866653","lat":"31.3686778611","category":"500","category_name":"未知分类","address":"上海市嘉定区嘉新公路"},{"poiid":"B2094654D469A7FD4193","title":"上海市工业区国家级高新技术区马陆园区","lon":"121.27435","lat":"31.34537","category":"45","category_name":"产业园区","address":""},{"poiid":"B2094654D469A6F44292","title":"上海亚尔光源有限公司","lon":"121.28151","lat":"31.35125","category":"263","category_name":"公司","address":"嘉新公路1001号"},{"poiid":"B2094750DA6AA3FF409B","title":"嘉定出入境管理局","lon":"121.259078","lat":"31.342535","category":"617","category_name":"政府机构","address":"嘉定区永盛路1190号"},{"poiid":"B2094654D469A0F84998","title":"澄城公寓","lon":"121.28616","lat":"31.358191","category":"47","category_name":"住宅区","address":"戬浜镇"},{"poiid":"B2094655D36CA5FE4999","title":"澄浏中路丰登路","lon":"121.28856","lat":"31.35988","category":"38","category_name":"公交车站","address":""},{"poiid":"B2094655D26BA0FD4898","title":"保利家园三期","lon":"121.26218","lat":"31.35373","category":"47","category_name":"住宅区","address":"白银路110号"},{"poiid":"B2094757D16BA4FC4899","title":"南北周佳苑","lon":"121.262636653","lat":"31.3634517544","category":"47","category_name":"住宅区","address":"上海市嘉定区沪宜公路3066号"},{"poiid":"B2094757D165A3F54693","title":"沥苑小区","lon":"121.285250625","lat":"31.3398354009","category":"47","category_name":"住宅区","address":"上海马陆"},{"poiid":"B2094753D264A1FB459F","title":"远香舫","lon":"121.265386","lat":"31.361196","category":"247","category_name":"餐饮美食","address":"上海市 洪德路38弄"},{"poiid":"B2094655D26FA1FD419A","title":"龚家花园","lon":"121.28222","lat":"31.36105","category":"47","category_name":"住宅区","address":""},{"poiid":"B2094757D568A6FA439D","title":"大卫国际大厦","lon":"121.26272","lat":"31.347561","category":"46","category_name":"楼宇","address":"嘉定区阿克苏路1187号"},{"poiid":"B2094654D469A6F4499B","title":"马陆镇新联村","lon":"121.2741","lat":"31.3626","category":"248","category_name":"生活娱乐","address":"嘉新公路698"},{"poiid":"B2094757D569A7F5469E","title":"天林商业广场","lon":"121.2785389","lat":"31.34321278","category":"46","category_name":"楼宇","address":"沪宜公路2500-2506号等"},{"poiid":"B2094757D165AAF5409D","title":"金珂花园酒店","lon":"121.279787054","lat":"31.341881793","category":"76","category_name":"上海菜","address":"嘉定区马陆镇沪宜公路2416-2418号(近弘基广场5号楼)"},{"poiid":"B2094654D469A5F9439D","title":"彭封路南区","lon":"121.28104","lat":"31.344938","category":"47","category_name":"住宅区","address":"彭封公路161弄"},{"poiid":"B2094757D16CA6F5459E","title":"保利湖畔阳光","lon":"121.265576925","lat":"31.3404722141","category":"500","category_name":"未知分类","address":"上海市嘉定区裕民南路333号"},{"poiid":"B2094757D66AA7FD4193","title":"金池塘私房菜","lon":"121.28116","lat":"31.33833","category":"76","category_name":"上海菜","address":"嘉定区沪宜公路2370弄马陆弘基诚建广场8号(近宝安公路)"},{"poiid":"B2094757D16CA4FE489F","title":"伊诺咖啡(回城店)","lon":"121.25564","lat":"31.36112","category":"65","category_name":"咖啡厅","address":"嘉定区回城南路1128号"}]