[{"poiid":"B2094757D06FA2FA409C","title":"嘉定西地铁站","lon":"121.22856325","lat":"31.37486328","category":"36","category_name":"地铁站","address":"上海轨道交通 十一号线 轨交嘉定西站 11"},{"poiid":"B2094757D068A1F4479D","title":"君芝莱大酒店(嘉定店)","lon":"121.23774172","lat":"31.371637903","category":"76","category_name":"上海菜","address":"嘉定区沪宜公路3879号(沪宜公路嘉安公路)"},{"poiid":"B2094757D06FA4F8439B","title":"清水颐园","lon":"121.2375","lat":"31.368086","category":"47","category_name":"住宅区","address":"上海裕民路1000弄"},{"poiid":"B2094757D16DA5FF4698","title":"新城悠活城","lon":"121.228941131","lat":"31.3767033135","category":"47","category_name":"住宅区","address":"轨道交通11号线嘉定西站旁(胜辛路静宁路交汇处)"},{"poiid":"B2094654D469A2F4449F","title":"金地格林春岸城","lon":"121.23871","lat":"31.37402","category":"47","category_name":"住宅区","address":"上海塔城路718弄"},{"poiid":"B2094757D16CA3F44198","title":"快乐鸟精品小厨","lon":"121.2385394","lat":"31.381193425","category":"76","category_name":"上海菜","address":"嘉定区环城路2450号"},{"poiid":"B2094655D36DA6FD469A","title":"嘉定西","lon":"121.2286","lat":"31.37478","category":"38","category_name":"公交车站","address":""},{"poiid":"B2094655D26FA4F8419E","title":"如家快捷酒店(上海嘉定清河路店)","lon":"121.23409","lat":"31.37591","category":"216","category_name":"经济型连锁酒店","address":"嘉定区清河路458号(近步行街)"},{"poiid":"B2094655D36DA6FF4793","title":"西门","lon":"121.2318","lat":"31.37304","category":"38","category_name":"公交车站","address":""},{"poiid":"B2094654D469A1FD489D","title":"嘉丰佳苑","lon":"121.23531","lat":"31.371836","category":"47","category_name":"住宅区","address":"上海市嘉定区沪宜公路3885号"},{"poiid":"B2094757D16CA3F5489D","title":"嘉定客运中心","lon":"121.231969","lat":"31.374719","category":"500","category_name":"未知分类","address":"上海嘉定区沪宜公路"},{"poiid":"B2094654D469A3FF439F","title":"中国科学院上海光学精密机械研究所","lon":"121.23602","lat":"31.37878","category":"191","category_name":"科研机构","address":"清河路390"},{"poiid":"B2094655D26FA6FA409C","title":"莫泰168","lon":"121.23765","lat":"31.37887","category":"216","category_name":"经济型连锁酒店","address":"上海市嘉定区清河路318号(近项泾桥，西光机所旁)"},{"poiid":"B2094753D469A4F54099","title":"禅园素食","lon":"121.22882","lat":"31.372678","category":"247","category_name":"餐饮美食","address":"上海市 嘉定区沪宜公路4500号"},{"poiid":"B2094757D06AA6F8409A","title":"荷嘉歌城","lon":"121.23943477","lat":"31.382126394","category":"170","category_name":"KTV","address":"嘉定区环城路2392号(近水门汀)"},{"poiid":"B2094655D268A6FB499B","title":"香章园小区(西门)","lon":"121.23359","lat":"31.37449","category":"47","category_name":"住宅区","address":"清河路453、631弄"},{"poiid":"B2094654D469A2F44998","title":"小区(清河路)","lon":"121.23419","lat":"31.37439","category":"47","category_name":"住宅区","address":"清河路453弄12号"},{"poiid":"B2094757D66FA3FC449C","title":"少林寺","lon":"121.228032653","lat":"31.3767007645","category":"500","category_name":"未知分类","address":"上海市嘉定区"},{"poiid":"B2094757D16BA6FB479D","title":"嘉定区青少年活动中心","lon":"121.240416823","lat":"31.3808644989","category":"500","category_name":"未知分类","address":"嘉定区梅园路226号"},{"poiid":"B2094757D06AA4FD429D","title":"嘉定电视台","lon":"121.241926303","lat":"31.3750399208","category":"260","category_name":"其他","address":"上海市嘉定区塔城路565号"},{"poiid":"B2094654D469A3FF4792","title":"上海嘉华医院","lon":"121.23441","lat":"31.37699","category":"162","category_name":"医院","address":"嘉定区清河路450号"},{"poiid":"B2094654D469A2F4469E","title":"汇城公寓","lon":"121.23564","lat":"31.374752","category":"47","category_name":"住宅区","address":"嘉丰路12-66号"},{"poiid":"B2094757D569A1FD409D","title":"东北老好吃","lon":"121.23837077","lat":"31.37101698","category":"82","category_name":"东北菜","address":"嘉定区沪宜公路3861号(近清水颐园)"},{"poiid":"B2094757D569A6FC4493","title":"宏村生活广场","lon":"121.23048177","lat":"31.37666667","category":"249","category_name":"购物服务","address":"中国上海市嘉定区"},{"poiid":"B2094655D268A2FD409A","title":"清河路420弄小区","lon":"121.23496","lat":"31.3778","category":"47","category_name":"住宅区","address":"清河路420弄"},{"poiid":"B2094750D665A6F8489B","title":"三知苑","lon":"121.239","lat":"31.3711","category":"76","category_name":"上海菜","address":"嘉定区沪宜公路3857号(近塔城路)"},{"poiid":"B2094655D268A1F84992","title":"叶城五街坊","lon":"121.23521","lat":"31.36625","category":"47","category_name":"住宅区","address":"裕民路1180-1182"},{"poiid":"B2094655D36CA0FA4893","title":"嘉定西站地铁站","lon":"121.2311","lat":"31.369","category":"36","category_name":"地铁站","address":""},{"poiid":"B2094655D268A2FD409D","title":"宝菊新家园","lon":"121.22485","lat":"31.385326","category":"47","category_name":"住宅区","address":"上海嘉定区红石路699弄"},{"poiid":"B2094654DB6AA6F4439D","title":"塔城路800-850弄小区(南门)","lon":"121.23845","lat":"31.37239","category":"47","category_name":"住宅区","address":"塔城路800-850弄"},{"poiid":"B2094654D469A3FF4693","title":"善牧堂","lon":"121.23531","lat":"31.37719","category":"162","category_name":"医院","address":"嘉定区嘉定镇清河路432号(近步行街)"},{"poiid":"B2094655D26EA1FE449D","title":"农工商超市(定环城路店)","lon":"121.23545","lat":"31.37669","category":"118","category_name":"超级市场","address":"嘉定区清河路421号"},{"poiid":"B2094757D16CA2F44499","title":"嘉定塔城路800弄","lon":"121.235784","lat":"31.373425","category":"500","category_name":"未知分类","address":"上海嘉定塔城路800弄"},{"poiid":"B2094655D268A6FB419F","title":"汇城公寓(东南门)","lon":"121.23593","lat":"31.37456","category":"47","category_name":"住宅区","address":"嘉丰路12-66号"},{"poiid":"B2094753D165A7F84393","title":"阿福龙虾","lon":"121.23628","lat":"31.37188","category":"247","category_name":"餐饮美食","address":"上海市 永盛路2770号"},{"poiid":"B2094757D169A0F9409C","title":"亚士力撞球","lon":"121.234204","lat":"31.374396","category":"248","category_name":"生活娱乐","address":"上海嘉定清河路"},{"poiid":"B2094654D469A1FD439F","title":"叶城三街坊小区","lon":"121.23655","lat":"31.36518","category":"47","category_name":"住宅区","address":"裕海路1028弄96"},{"poiid":"B2094655D268A2FD409B","title":"清河路420弄小区(东门)","lon":"121.23538","lat":"31.378","category":"47","category_name":"住宅区","address":"清河路420弄"},{"poiid":"B2094752D26CA6F4499A","title":"静心斋素食","lon":"121.23983","lat":"31.37335","category":"89","category_name":"中式素餐馆","address":"嘉定区塔城路777号(近嘉定电视台)"},{"poiid":"B2094655D36CA3FF469E","title":"叶城五街坊二期","lon":"121.2338","lat":"31.36619","category":"47","category_name":"住宅区","address":"裕民路1180弄"},{"poiid":"B2094757D16EA4F44192","title":"上海嘉定横塘五金厂","lon":"121.225122253","lat":"31.3755865419","category":"500","category_name":"未知分类","address":"上海唐窑路181号"},{"poiid":"B2094757D064A1FD4692","title":"嘉定工业园区","lon":"121.231022","lat":"31.369367","category":"252","category_name":"楼宇机构","address":"上海嘉定区胜辛北路"},{"poiid":"B2094757D065A5F9409B","title":"塔城路800弄850弄","lon":"121.23612565","lat":"31.372703683","category":"500","category_name":"未知分类","address":"上海市嘉定区塔城路"},{"poiid":"B2094752D36CA2FA419D","title":"朱家角","lon":"121.230431","lat":"31.368689","category":"500","category_name":"未知分类","address":null},{"poiid":"B2094757D16CAAF8449B","title":"嘉定中心医院注液室","lon":"121.238554","lat":"31.381625","category":"162","category_name":"医院","address":"上海环城路"},{"poiid":"B2094654D469A1FD459E","title":"上海白雪幼儿园","lon":"121.23514","lat":"31.36997","category":"57","category_name":"幼儿园","address":"嘉定区沪宜公路3885弄5号"},{"poiid":"B2094751D56EA4F84898","title":"左岸国际影城","lon":"121.2247928","lat":"31.379217","category":"178","category_name":"电影院","address":"闵行区金汇路"},{"poiid":"B2094654DB6AA6F4499B","title":"光明乳业","lon":"121.23281","lat":"31.36819","category":"117","category_name":"便民商店/便利店","address":""},{"poiid":"B209475CD16FABFD489C","title":"嘉定图书馆新馆","lon":"121.236991","lat":"31.373495","category":"500","category_name":"未知分类","address":"上海市 上海市裕民南路1288号"},{"poiid":"B2094654D469A1FD469E","title":"嘉华百货","lon":"121.23272","lat":"31.3681","category":"119","category_name":"商场","address":""},{"poiid":"B2094757D06FA2FA409C","title":"嘉定西地铁站","lon":"121.22856325","lat":"31.37486328","category":"36","category_name":"地铁站","address":"上海轨道交通 十一号线 轨交嘉定西站 11"},{"poiid":"B2094757D068A1F4479D","title":"君芝莱大酒店(嘉定店)","lon":"121.23774172","lat":"31.371637903","category":"76","category_name":"上海菜","address":"嘉定区沪宜公路3879号(沪宜公路嘉安公路)"},{"poiid":"B2094757D06FA4F8439B","title":"清水颐园","lon":"121.2375","lat":"31.368086","category":"47","category_name":"住宅区","address":"上海裕民路1000弄"},{"poiid":"B2094757D16DA5FF4698","title":"新城悠活城","lon":"121.228941131","lat":"31.3767033135","category":"47","category_name":"住宅区","address":"轨道交通11号线嘉定西站旁(胜辛路静宁路交汇处)"},{"poiid":"B2094654D469A2F4449F","title":"金地格林春岸城","lon":"121.23871","lat":"31.37402","category":"47","category_name":"住宅区","address":"上海塔城路718弄"},{"poiid":"B2094757D16CA3F44198","title":"快乐鸟精品小厨","lon":"121.2385394","lat":"31.381193425","category":"76","category_name":"上海菜","address":"嘉定区环城路2450号"},{"poiid":"B2094655D36DA6FD469A","title":"嘉定西","lon":"121.2286","lat":"31.37478","category":"38","category_name":"公交车站","address":""},{"poiid":"B2094655D26FA4F8419E","title":"如家快捷酒店(上海嘉定清河路店)","lon":"121.23409","lat":"31.37591","category":"216","category_name":"经济型连锁酒店","address":"嘉定区清河路458号(近步行街)"},{"poiid":"B2094655D36DA6FF4793","title":"西门","lon":"121.2318","lat":"31.37304","category":"38","category_name":"公交车站","address":""},{"poiid":"B2094654D469A1FD489D","title":"嘉丰佳苑","lon":"121.23531","lat":"31.371836","category":"47","category_name":"住宅区","address":"上海市嘉定区沪宜公路3885号"},{"poiid":"B2094757D16CA3F5489D","title":"嘉定客运中心","lon":"121.231969","lat":"31.374719","category":"500","category_name":"未知分类","address":"上海嘉定区沪宜公路"},{"poiid":"B2094654D469A3FF439F","title":"中国科学院上海光学精密机械研究所","lon":"121.23602","lat":"31.37878","category":"191","category_name":"科研机构","address":"清河路390"},{"poiid":"B2094655D26FA6FA409C","title":"莫泰168","lon":"121.23765","lat":"31.37887","category":"216","category_name":"经济型连锁酒店","address":"上海市嘉定区清河路318号(近项泾桥，西光机所旁)"},{"poiid":"B2094753D469A4F54099","title":"禅园素食","lon":"121.22882","lat":"31.372678","category":"247","category_name":"餐饮美食","address":"上海市 嘉定区沪宜公路4500号"},{"poiid":"B2094757D06AA6F8409A","title":"荷嘉歌城","lon":"121.23943477","lat":"31.382126394","category":"170","category_name":"KTV","address":"嘉定区环城路2392号(近水门汀)"},{"poiid":"B2094655D268A6FB499B","title":"香章园小区(西门)","lon":"121.23359","lat":"31.37449","category":"47","category_name":"住宅区","address":"清河路453、631弄"},{"poiid":"B2094654D469A2F44998","title":"小区(清河路)","lon":"121.23419","lat":"31.37439","category":"47","category_name":"住宅区","address":"清河路453弄12号"},{"poiid":"B2094757D66FA3FC449C","title":"少林寺","lon":"121.228032653","lat":"31.3767007645","category":"500","category_name":"未知分类","address":"上海市嘉定区"},{"poiid":"B2094757D16BA6FB479D","title":"嘉定区青少年活动中心","lon":"121.240416823","lat":"31.3808644989","category":"500","category_name":"未知分类","address":"嘉定区梅园路226号"},{"poiid":"B2094757D06AA4FD429D","title":"嘉定电视台","lon":"121.241926303","lat":"31.3750399208","category":"260","category_name":"其他","address":"上海市嘉定区塔城路565号"},{"poiid":"B2094654D469A3FF4792","title":"上海嘉华医院","lon":"121.23441","lat":"31.37699","category":"162","category_name":"医院","address":"嘉定区清河路450号"},{"poiid":"B2094654D469A2F4469E","title":"汇城公寓","lon":"121.23564","lat":"31.374752","category":"47","category_name":"住宅区","address":"嘉丰路12-66号"},{"poiid":"B2094757D569A1FD409D","title":"东北老好吃","lon":"121.23837077","lat":"31.37101698","category":"82","category_name":"东北菜","address":"嘉定区沪宜公路3861号(近清水颐园)"},{"poiid":"B2094757D569A6FC4493","title":"宏村生活广场","lon":"121.23048177","lat":"31.37666667","category":"249","category_name":"购物服务","address":"中国上海市嘉定区"},{"poiid":"B2094655D268A2FD409A","title":"清河路420弄小区","lon":"121.23496","lat":"31.3778","category":"47","category_name":"住宅区","address":"清河路420弄"},{"poiid":"B2094750D665A6F8489B","title":"三知苑","lon":"121.239","lat":"31.3711","category":"76","category_name":"上海菜","address":"嘉定区沪宜公路3857号(近塔城路)"},{"poiid":"B2094655D268A1F84992","title":"叶城五街坊","lon":"121.23521","lat":"31.36625","category":"47","category_name":"住宅区","address":"裕民路1180-1182"},{"poiid":"B2094655D36CA0FA4893","title":"嘉定西站地铁站","lon":"121.2311","lat":"31.369","category":"36","category_name":"地铁站","address":""},{"poiid":"B2094655D268A2FD409D","title":"宝菊新家园","lon":"121.22485","lat":"31.385326","category":"47","category_name":"住宅区","address":"上海嘉定区红石路699弄"},{"poiid":"B2094654DB6AA6F4439D","title":"塔城路800-850弄小区(南门)","lon":"121.23845","lat":"31.37239","category":"47","category_name":"住宅区","address":"塔城路800-850弄"},{"poiid":"B2094654D469A3FF4693","title":"善牧堂","lon":"121.23531","lat":"31.37719","category":"162","category_name":"医院","address":"嘉定区嘉定镇清河路432号(近步行街)"},{"poiid":"B2094655D26EA1FE449D","title":"农工商超市(定环城路店)","lon":"121.23545","lat":"31.37669","category":"118","category_name":"超级市场","address":"嘉定区清河路421号"},{"poiid":"B2094757D16CA2F44499","title":"嘉定塔城路800弄","lon":"121.235784","lat":"31.373425","category":"500","category_name":"未知分类","address":"上海嘉定塔城路800弄"},{"poiid":"B2094655D268A6FB419F","title":"汇城公寓(东南门)","lon":"121.23593","lat":"31.37456","category":"47","category_name":"住宅区","address":"嘉丰路12-66号"},{"poiid":"B2094753D165A7F84393","title":"阿福龙虾","lon":"121.23628","lat":"31.37188","category":"247","category_name":"餐饮美食","address":"上海市 永盛路2770号"},{"poiid":"B2094757D169A0F9409C","title":"亚士力撞球","lon":"121.234204","lat":"31.374396","category":"248","category_name":"生活娱乐","address":"上海嘉定清河路"},{"poiid":"B2094654D469A1FD439F","title":"叶城三街坊小区","lon":"121.23655","lat":"31.36518","category":"47","category_name":"住宅区","address":"裕海路1028弄96"},{"poiid":"B2094655D268A2FD409B","title":"清河路420弄小区(东门)","lon":"121.23538","lat":"31.378","category":"47","category_name":"住宅区","address":"清河路420弄"},{"poiid":"B2094752D26CA6F4499A","title":"静心斋素食","lon":"121.23983","lat":"31.37335","category":"89","category_name":"中式素餐馆","address":"嘉定区塔城路777号(近嘉定电视台)"},{"poiid":"B2094655D36CA3FF469E","title":"叶城五街坊二期","lon":"121.2338","lat":"31.36619","category":"47","category_name":"住宅区","address":"裕民路1180弄"},{"poiid":"B2094757D16EA4F44192","title":"上海嘉定横塘五金厂","lon":"121.225122253","lat":"31.3755865419","category":"500","category_name":"未知分类","address":"上海唐窑路181号"},{"poiid":"B2094757D064A1FD4692","title":"嘉定工业园区","lon":"121.231022","lat":"31.369367","category":"252","category_name":"楼宇机构","address":"上海嘉定区胜辛北路"},{"poiid":"B2094757D065A5F9409B","title":"塔城路800弄850弄","lon":"121.23612565","lat":"31.372703683","category":"500","category_name":"未知分类","address":"上海市嘉定区塔城路"},{"poiid":"B2094752D36CA2FA419D","title":"朱家角","lon":"121.230431","lat":"31.368689","category":"500","category_name":"未知分类","address":null},{"poiid":"B2094757D16CAAF8449B","title":"嘉定中心医院注液室","lon":"121.238554","lat":"31.381625","category":"162","category_name":"医院","address":"上海环城路"},{"poiid":"B2094654D469A1FD459E","title":"上海白雪幼儿园","lon":"121.23514","lat":"31.36997","category":"57","category_name":"幼儿园","address":"嘉定区沪宜公路3885弄5号"},{"poiid":"B2094751D56EA4F84898","title":"左岸国际影城","lon":"121.2247928","lat":"31.379217","category":"178","category_name":"电影院","address":"闵行区金汇路"},{"poiid":"B2094654DB6AA6F4499B","title":"光明乳业","lon":"121.23281","lat":"31.36819","category":"117","category_name":"便民商店/便利店","address":""},{"poiid":"B209475CD16FABFD489C","title":"嘉定图书馆新馆","lon":"121.236991","lat":"31.373495","category":"500","category_name":"未知分类","address":"上海市 上海市裕民南路1288号"},{"poiid":"B2094654D469A1FD469E","title":"嘉华百货","lon":"121.23272","lat":"31.3681","category":"119","category_name":"商场","address":""},{"poiid":"B2094757D06FA2FA409C","title":"嘉定西地铁站","lon":"121.22856325","lat":"31.37486328","category":"36","category_name":"地铁站","address":"上海轨道交通 十一号线 轨交嘉定西站 11"},{"poiid":"B2094757D068A1F4479D","title":"君芝莱大酒店(嘉定店)","lon":"121.23774172","lat":"31.371637903","category":"76","category_name":"上海菜","address":"嘉定区沪宜公路3879号(沪宜公路嘉安公路)"},{"poiid":"B2094757D06FA4F8439B","title":"清水颐园","lon":"121.2375","lat":"31.368086","category":"47","category_name":"住宅区","address":"上海裕民路1000弄"},{"poiid":"B2094757D16DA5FF4698","title":"新城悠活城","lon":"121.228941131","lat":"31.3767033135","category":"47","category_name":"住宅区","address":"轨道交通11号线嘉定西站旁(胜辛路静宁路交汇处)"},{"poiid":"B2094654D469A2F4449F","title":"金地格林春岸城","lon":"121.23871","lat":"31.37402","category":"47","category_name":"住宅区","address":"上海塔城路718弄"},{"poiid":"B2094757D16CA3F44198","title":"快乐鸟精品小厨","lon":"121.2385394","lat":"31.381193425","category":"76","category_name":"上海菜","address":"嘉定区环城路2450号"},{"poiid":"B2094655D36DA6FD469A","title":"嘉定西","lon":"121.2286","lat":"31.37478","category":"38","category_name":"公交车站","address":""},{"poiid":"B2094655D26FA4F8419E","title":"如家快捷酒店(上海嘉定清河路店)","lon":"121.23409","lat":"31.37591","category":"216","category_name":"经济型连锁酒店","address":"嘉定区清河路458号(近步行街)"},{"poiid":"B2094655D36DA6FF4793","title":"西门","lon":"121.2318","lat":"31.37304","category":"38","category_name":"公交车站","address":""},{"poiid":"B2094654D469A1FD489D","title":"嘉丰佳苑","lon":"121.23531","lat":"31.371836","category":"47","category_name":"住宅区","address":"上海市嘉定区沪宜公路3885号"},{"poiid":"B2094757D16CA3F5489D","title":"嘉定客运中心","lon":"121.231969","lat":"31.374719","category":"500","category_name":"未知分类","address":"上海嘉定区沪宜公路"},{"poiid":"B2094654D469A3FF439F","title":"中国科学院上海光学精密机械研究所","lon":"121.23602","lat":"31.37878","category":"191","category_name":"科研机构","address":"清河路390"},{"poiid":"B2094655D26FA6FA409C","title":"莫泰168","lon":"121.23765","lat":"31.37887","category":"216","category_name":"经济型连锁酒店","address":"上海市嘉定区清河路318号(近项泾桥，西光机所旁)"},{"poiid":"B2094753D469A4F54099","title":"禅园素食","lon":"121.22882","lat":"31.372678","category":"247","category_name":"餐饮美食","address":"上海市 嘉定区沪宜公路4500号"},{"poiid":"B2094757D06AA6F8409A","title":"荷嘉歌城","lon":"121.23943477","lat":"31.382126394","category":"170","category_name":"KTV","address":"嘉定区环城路2392号(近水门汀)"},{"poiid":"B2094655D268A6FB499B","title":"香章园小区(西门)","lon":"121.23359","lat":"31.37449","category":"47","category_name":"住宅区","address":"清河路453、631弄"},{"poiid":"B2094654D469A2F44998","title":"小区(清河路)","lon":"121.23419","lat":"31.37439","category":"47","category_name":"住宅区","address":"清河路453弄12号"},{"poiid":"B2094757D66FA3FC449C","title":"少林寺","lon":"121.228032653","lat":"31.3767007645","category":"500","category_name":"未知分类","address":"上海市嘉定区"},{"poiid":"B2094757D16BA6FB479D","title":"嘉定区青少年活动中心","lon":"121.240416823","lat":"31.3808644989","category":"500","category_name":"未知分类","address":"嘉定区梅园路226号"},{"poiid":"B2094757D06AA4FD429D","title":"嘉定电视台","lon":"121.241926303","lat":"31.3750399208","category":"260","category_name":"其他","address":"上海市嘉定区塔城路565号"},{"poiid":"B2094654D469A3FF4792","title":"上海嘉华医院","lon":"121.23441","lat":"31.37699","category":"162","category_name":"医院","address":"嘉定区清河路450号"},{"poiid":"B2094654D469A2F4469E","title":"汇城公寓","lon":"121.23564","lat":"31.374752","category":"47","category_name":"住宅区","address":"嘉丰路12-66号"},{"poiid":"B2094757D569A1FD409D","title":"东北老好吃","lon":"121.23837077","lat":"31.37101698","category":"82","category_name":"东北菜","address":"嘉定区沪宜公路3861号(近清水颐园)"},{"poiid":"B2094757D569A6FC4493","title":"宏村生活广场","lon":"121.23048177","lat":"31.37666667","category":"249","category_name":"购物服务","address":"中国上海市嘉定区"},{"poiid":"B2094655D268A2FD409A","title":"清河路420弄小区","lon":"121.23496","lat":"31.3778","category":"47","category_name":"住宅区","address":"清河路420弄"},{"poiid":"B2094750D665A6F8489B","title":"三知苑","lon":"121.239","lat":"31.3711","category":"76","category_name":"上海菜","address":"嘉定区沪宜公路3857号(近塔城路)"},{"poiid":"B2094655D268A1F84992","title":"叶城五街坊","lon":"121.23521","lat":"31.36625","category":"47","category_name":"住宅区","address":"裕民路1180-1182"},{"poiid":"B2094655D36CA0FA4893","title":"嘉定西站地铁站","lon":"121.2311","lat":"31.369","category":"36","category_name":"地铁站","address":""},{"poiid":"B2094655D268A2FD409D","title":"宝菊新家园","lon":"121.22485","lat":"31.385326","category":"47","category_name":"住宅区","address":"上海嘉定区红石路699弄"},{"poiid":"B2094654DB6AA6F4439D","title":"塔城路800-850弄小区(南门)","lon":"121.23845","lat":"31.37239","category":"47","category_name":"住宅区","address":"塔城路800-850弄"},{"poiid":"B2094654D469A3FF4693","title":"善牧堂","lon":"121.23531","lat":"31.37719","category":"162","category_name":"医院","address":"嘉定区嘉定镇清河路432号(近步行街)"},{"poiid":"B2094655D26EA1FE449D","title":"农工商超市(定环城路店)","lon":"121.23545","lat":"31.37669","category":"118","category_name":"超级市场","address":"嘉定区清河路421号"},{"poiid":"B2094757D16CA2F44499","title":"嘉定塔城路800弄","lon":"121.235784","lat":"31.373425","category":"500","category_name":"未知分类","address":"上海嘉定塔城路800弄"},{"poiid":"B2094655D268A6FB419F","title":"汇城公寓(东南门)","lon":"121.23593","lat":"31.37456","category":"47","category_name":"住宅区","address":"嘉丰路12-66号"},{"poiid":"B2094753D165A7F84393","title":"阿福龙虾","lon":"121.23628","lat":"31.37188","category":"247","category_name":"餐饮美食","address":"上海市 永盛路2770号"},{"poiid":"B2094757D169A0F9409C","title":"亚士力撞球","lon":"121.234204","lat":"31.374396","category":"248","category_name":"生活娱乐","address":"上海嘉定清河路"},{"poiid":"B2094654D469A1FD439F","title":"叶城三街坊小区","lon":"121.23655","lat":"31.36518","category":"47","category_name":"住宅区","address":"裕海路1028弄96"},{"poiid":"B2094655D268A2FD409B","title":"清河路420弄小区(东门)","lon":"121.23538","lat":"31.378","category":"47","category_name":"住宅区","address":"清河路420弄"},{"poiid":"B2094752D26CA6F4499A","title":"静心斋素食","lon":"121.23983","lat":"31.37335","category":"89","category_name":"中式素餐馆","address":"嘉定区塔城路777号(近嘉定电视台)"},{"poiid":"B2094655D36CA3FF469E","title":"叶城五街坊二期","lon":"121.2338","lat":"31.36619","category":"47","category_name":"住宅区","address":"裕民路1180弄"},{"poiid":"B2094757D16EA4F44192","title":"上海嘉定横塘五金厂","lon":"121.225122253","lat":"31.3755865419","category":"500","category_name":"未知分类","address":"上海唐窑路181号"},{"poiid":"B2094757D064A1FD4692","title":"嘉定工业园区","lon":"121.231022","lat":"31.369367","category":"252","category_name":"楼宇机构","address":"上海嘉定区胜辛北路"},{"poiid":"B2094757D065A5F9409B","title":"塔城路800弄850弄","lon":"121.23612565","lat":"31.372703683","category":"500","category_name":"未知分类","address":"上海市嘉定区塔城路"},{"poiid":"B2094752D36CA2FA419D","title":"朱家角","lon":"121.230431","lat":"31.368689","category":"500","category_name":"未知分类","address":null},{"poiid":"B2094757D16CAAF8449B","title":"嘉定中心医院注液室","lon":"121.238554","lat":"31.381625","category":"162","category_name":"医院","address":"上海环城路"},{"poiid":"B2094654D469A1FD459E","title":"上海白雪幼儿园","lon":"121.23514","lat":"31.36997","category":"57","category_name":"幼儿园","address":"嘉定区沪宜公路3885弄5号"},{"poiid":"B2094751D56EA4F84898","title":"左岸国际影城","lon":"121.2247928","lat":"31.379217","category":"178","category_name":"电影院","address":"闵行区金汇路"},{"poiid":"B2094654DB6AA6F4499B","title":"光明乳业","lon":"121.23281","lat":"31.36819","category":"117","category_name":"便民商店/便利店","address":""},{"poiid":"B209475CD16FABFD489C","title":"嘉定图书馆新馆","lon":"121.236991","lat":"31.373495","category":"500","category_name":"未知分类","address":"上海市 上海市裕民南路1288号"},{"poiid":"B2094654D469A1FD469E","title":"嘉华百货","lon":"121.23272","lat":"31.3681","category":"119","category_name":"商场","address":""},{"poiid":"B2094757D06FA2FA409C","title":"嘉定西地铁站","lon":"121.22856325","lat":"31.37486328","category":"36","category_name":"地铁站","address":"上海轨道交通 十一号线 轨交嘉定西站 11"},{"poiid":"B2094757D068A1F4479D","title":"君芝莱大酒店(嘉定店)","lon":"121.23774172","lat":"31.371637903","category":"76","category_name":"上海菜","address":"嘉定区沪宜公路3879号(沪宜公路嘉安公路)"},{"poiid":"B2094757D06FA4F8439B","title":"清水颐园","lon":"121.2375","lat":"31.368086","category":"47","category_name":"住宅区","address":"上海裕民路1000弄"},{"poiid":"B2094757D16DA5FF4698","title":"新城悠活城","lon":"121.228941131","lat":"31.3767033135","category":"47","category_name":"住宅区","address":"轨道交通11号线嘉定西站旁(胜辛路静宁路交汇处)"},{"poiid":"B2094654D469A2F4449F","title":"金地格林春岸城","lon":"121.23871","lat":"31.37402","category":"47","category_name":"住宅区","address":"上海塔城路718弄"},{"poiid":"B2094757D16CA3F44198","title":"快乐鸟精品小厨","lon":"121.2385394","lat":"31.381193425","category":"76","category_name":"上海菜","address":"嘉定区环城路2450号"},{"poiid":"B2094655D36DA6FD469A","title":"嘉定西","lon":"121.2286","lat":"31.37478","category":"38","category_name":"公交车站","address":""},{"poiid":"B2094655D26FA4F8419E","title":"如家快捷酒店(上海嘉定清河路店)","lon":"121.23409","lat":"31.37591","category":"216","category_name":"经济型连锁酒店","address":"嘉定区清河路458号(近步行街)"},{"poiid":"B2094655D36DA6FF4793","title":"西门","lon":"121.2318","lat":"31.37304","category":"38","category_name":"公交车站","address":""},{"poiid":"B2094654D469A1FD489D","title":"嘉丰佳苑","lon":"121.23531","lat":"31.371836","category":"47","category_name":"住宅区","address":"上海市嘉定区沪宜公路3885号"},{"poiid":"B2094757D16CA3F5489D","title":"嘉定客运中心","lon":"121.231969","lat":"31.374719","category":"500","category_name":"未知分类","address":"上海嘉定区沪宜公路"},{"poiid":"B2094654D469A3FF439F","title":"中国科学院上海光学精密机械研究所","lon":"121.23602","lat":"31.37878","category":"191","category_name":"科研机构","address":"清河路390"},{"poiid":"B2094655D26FA6FA409C","title":"莫泰168","lon":"121.23765","lat":"31.37887","category":"216","category_name":"经济型连锁酒店","address":"上海市嘉定区清河路318号(近项泾桥，西光机所旁)"},{"poiid":"B2094753D469A4F54099","title":"禅园素食","lon":"121.22882","lat":"31.372678","category":"247","category_name":"餐饮美食","address":"上海市 嘉定区沪宜公路4500号"},{"poiid":"B2094757D06AA6F8409A","title":"荷嘉歌城","lon":"121.23943477","lat":"31.382126394","category":"170","category_name":"KTV","address":"嘉定区环城路2392号(近水门汀)"},{"poiid":"B2094655D268A6FB499B","title":"香章园小区(西门)","lon":"121.23359","lat":"31.37449","category":"47","category_name":"住宅区","address":"清河路453、631弄"},{"poiid":"B2094654D469A2F44998","title":"小区(清河路)","lon":"121.23419","lat":"31.37439","category":"47","category_name":"住宅区","address":"清河路453弄12号"},{"poiid":"B2094757D66FA3FC449C","title":"少林寺","lon":"121.228032653","lat":"31.3767007645","category":"500","category_name":"未知分类","address":"上海市嘉定区"},{"poiid":"B2094757D16BA6FB479D","title":"嘉定区青少年活动中心","lon":"121.240416823","lat":"31.3808644989","category":"500","category_name":"未知分类","address":"嘉定区梅园路226号"},{"poiid":"B2094757D06AA4FD429D","title":"嘉定电视台","lon":"121.241926303","lat":"31.3750399208","category":"260","category_name":"其他","address":"上海市嘉定区塔城路565号"},{"poiid":"B2094654D469A3FF4792","title":"上海嘉华医院","lon":"121.23441","lat":"31.37699","category":"162","category_name":"医院","address":"嘉定区清河路450号"},{"poiid":"B2094654D469A2F4469E","title":"汇城公寓","lon":"121.23564","lat":"31.374752","category":"47","category_name":"住宅区","address":"嘉丰路12-66号"},{"poiid":"B2094757D569A1FD409D","title":"东北老好吃","lon":"121.23837077","lat":"31.37101698","category":"82","category_name":"东北菜","address":"嘉定区沪宜公路3861号(近清水颐园)"},{"poiid":"B2094757D569A6FC4493","title":"宏村生活广场","lon":"121.23048177","lat":"31.37666667","category":"249","category_name":"购物服务","address":"中国上海市嘉定区"},{"poiid":"B2094655D268A2FD409A","title":"清河路420弄小区","lon":"121.23496","lat":"31.3778","category":"47","category_name":"住宅区","address":"清河路420弄"},{"poiid":"B2094750D665A6F8489B","title":"三知苑","lon":"121.239","lat":"31.3711","category":"76","category_name":"上海菜","address":"嘉定区沪宜公路3857号(近塔城路)"},{"poiid":"B2094655D268A1F84992","title":"叶城五街坊","lon":"121.23521","lat":"31.36625","category":"47","category_name":"住宅区","address":"裕民路1180-1182"},{"poiid":"B2094655D36CA0FA4893","title":"嘉定西站地铁站","lon":"121.2311","lat":"31.369","category":"36","category_name":"地铁站","address":""},{"poiid":"B2094655D268A2FD409D","title":"宝菊新家园","lon":"121.22485","lat":"31.385326","category":"47","category_name":"住宅区","address":"上海嘉定区红石路699弄"},{"poiid":"B2094654DB6AA6F4439D","title":"塔城路800-850弄小区(南门)","lon":"121.23845","lat":"31.37239","category":"47","category_name":"住宅区","address":"塔城路800-850弄"},{"poiid":"B2094654D469A3FF4693","title":"善牧堂","lon":"121.23531","lat":"31.37719","category":"162","category_name":"医院","address":"嘉定区嘉定镇清河路432号(近步行街)"},{"poiid":"B2094655D26EA1FE449D","title":"农工商超市(定环城路店)","lon":"121.23545","lat":"31.37669","category":"118","category_name":"超级市场","address":"嘉定区清河路421号"},{"poiid":"B2094757D16CA2F44499","title":"嘉定塔城路800弄","lon":"121.235784","lat":"31.373425","category":"500","category_name":"未知分类","address":"上海嘉定塔城路800弄"},{"poiid":"B2094655D268A6FB419F","title":"汇城公寓(东南门)","lon":"121.23593","lat":"31.37456","category":"47","category_name":"住宅区","address":"嘉丰路12-66号"},{"poiid":"B2094753D165A7F84393","title":"阿福龙虾","lon":"121.23628","lat":"31.37188","category":"247","category_name":"餐饮美食","address":"上海市 永盛路2770号"},{"poiid":"B2094757D169A0F9409C","title":"亚士力撞球","lon":"121.234204","lat":"31.374396","category":"248","category_name":"生活娱乐","address":"上海嘉定清河路"},{"poiid":"B2094654D469A1FD439F","title":"叶城三街坊小区","lon":"121.23655","lat":"31.36518","category":"47","category_name":"住宅区","address":"裕海路1028弄96"},{"poiid":"B2094655D268A2FD409B","title":"清河路420弄小区(东门)","lon":"121.23538","lat":"31.378","category":"47","category_name":"住宅区","address":"清河路420弄"},{"poiid":"B2094752D26CA6F4499A","title":"静心斋素食","lon":"121.23983","lat":"31.37335","category":"89","category_name":"中式素餐馆","address":"嘉定区塔城路777号(近嘉定电视台)"},{"poiid":"B2094655D36CA3FF469E","title":"叶城五街坊二期","lon":"121.2338","lat":"31.36619","category":"47","category_name":"住宅区","address":"裕民路1180弄"},{"poiid":"B2094757D16EA4F44192","title":"上海嘉定横塘五金厂","lon":"121.225122253","lat":"31.3755865419","category":"500","category_name":"未知分类","address":"上海唐窑路181号"},{"poiid":"B2094757D064A1FD4692","title":"嘉定工业园区","lon":"121.231022","lat":"31.369367","category":"252","category_name":"楼宇机构","address":"上海嘉定区胜辛北路"},{"poiid":"B2094757D065A5F9409B","title":"塔城路800弄850弄","lon":"121.23612565","lat":"31.372703683","category":"500","category_name":"未知分类","address":"上海市嘉定区塔城路"},{"poiid":"B2094752D36CA2FA419D","title":"朱家角","lon":"121.230431","lat":"31.368689","category":"500","category_name":"未知分类","address":null},{"poiid":"B2094757D16CAAF8449B","title":"嘉定中心医院注液室","lon":"121.238554","lat":"31.381625","category":"162","category_name":"医院","address":"上海环城路"},{"poiid":"B2094654D469A1FD459E","title":"上海白雪幼儿园","lon":"121.23514","lat":"31.36997","category":"57","category_name":"幼儿园","address":"嘉定区沪宜公路3885弄5号"},{"poiid":"B2094751D56EA4F84898","title":"左岸国际影城","lon":"121.2247928","lat":"31.379217","category":"178","category_name":"电影院","address":"闵行区金汇路"},{"poiid":"B2094654DB6AA6F4499B","title":"光明乳业","lon":"121.23281","lat":"31.36819","category":"117","category_name":"便民商店/便利店","address":""},{"poiid":"B209475CD16FABFD489C","title":"嘉定图书馆新馆","lon":"121.236991","lat":"31.373495","category":"500","category_name":"未知分类","address":"上海市 上海市裕民南路1288号"},{"poiid":"B2094654D469A1FD469E","title":"嘉华百货","lon":"121.23272","lat":"31.3681","category":"119","category_name":"商场","address":""}]