[{"poiid":"B2094757D069A6FE4493","title":"四团镇","lon":"121.72186934","lat":"30.940912503","category":"500","category_name":"未知分类","address":"上海奉贤区四团镇"},{"poiid":"B2094654DB68A2F4429A","title":"上海东湖临港大酒店","lon":"121.73597","lat":"30.96562","category":"260","category_name":"其他","address":"浦东新区大团镇南芦公路888号(南芦公路永春南路)"},{"poiid":"B2094757D66CA1F8459D","title":"南俊大酒店四团店","lon":"121.729425263","lat":"30.9444067958","category":"500","category_name":"未知分类","address":"上海新四平公路"},{"poiid":"B2094654DB68A2FB469A","title":"奉贤区景秀高级中学","lon":"121.72647","lat":"30.95024","category":"55","category_name":"中学","address":""},{"poiid":"B2094655D26BA2FB4898","title":"四团","lon":"121.72069","lat":"30.93869","category":"38","category_name":"公交车站","address":""},{"poiid":"B2094654DB64AAFD469B","title":"鑫海雅苑","lon":"121.72958","lat":"30.941486","category":"47","category_name":"住宅区","address":"上海市奉贤区西至四平路、东至天鹏小区"},{"poiid":"B2094757D16DA5F4479C","title":"新世纪花苑二期","lon":"121.72469316","lat":"30.942423049","category":"47","category_name":"住宅区","address":"上海市浦东新区耀华路579弄"},{"poiid":"B2094654DB68A2F44193","title":"上海神仙酒厂","lon":"121.73099","lat":"30.95362","category":"263","category_name":"公司","address":"近郊奉贤区新四平公路2888号"},{"poiid":"B2094655D26BA2FB489A","title":"四团加油站","lon":"121.72387","lat":"30.94011","category":"38","category_name":"公交车站","address":""},{"poiid":"B2094654DB68A2F44298","title":"新华书店(天鹏街)","lon":"121.72532","lat":"30.94058","category":"125","category_name":"书店","address":""},{"poiid":"B2094655D36DA3F4419E","title":"四团港桥","lon":"121.72267","lat":"30.94242","category":"250","category_name":"公园户外","address":""},{"poiid":"B2094757D568A0FB459F","title":"上海国际海港城一期商业","lon":"121.7302406","lat":"30.939335","category":"47","category_name":"住宅区","address":"新四平公路468弄"},{"poiid":"B2094655D36CA3FB459F","title":"S2新四平公路收费站","lon":"121.72938","lat":"30.95937","category":"267","category_name":"收费站","address":"上海沪芦高速"},{"poiid":"B2094757D66CA0FF469B","title":"滨河新苑","lon":"121.728271029","lat":"30.9369810489","category":"47","category_name":"住宅区","address":"上海奉贤区四团镇四新南街98弄"},{"poiid":"B2094654DB64AAFD4593","title":"四团图书馆","lon":"121.72818","lat":"30.93703","category":"181","category_name":"图书馆","address":"四团镇"},{"poiid":"B2094654DB69A7F4449F","title":"奉贤四团征收所征收厅","lon":"121.72281","lat":"30.93972","category":"250","category_name":"公园户外","address":"奉贤区四团镇南奉公路8123号"},{"poiid":"B2094654DB69ABFF479B","title":"农工商超市(四团二店)","lon":"121.72334","lat":"30.93819","category":"118","category_name":"超级市场","address":"奉贤区四团镇天鹏街148-152号"},{"poiid":"B2094654DB64A7F4459C","title":"奉贤区四团中心幼儿园","lon":"121.7201","lat":"30.93896","category":"57","category_name":"幼儿园","address":""},{"poiid":"B2094757D768A5F4409E","title":"来伊份 四团店","lon":"121.71997","lat":"30.93847","category":"68","category_name":"快餐厅","address":"近郊奉贤四团川南奉公路8223号"},{"poiid":"B2094654DB64AAFC449E","title":"星星KTV","lon":"121.7177","lat":"30.94017","category":"170","category_name":"KTV","address":"四团镇"},{"poiid":"B2094655D268ABFF4193","title":"Ａ２新四平公路收费站","lon":"121.72945","lat":"30.95938","category":"267","category_name":"收费站","address":""},{"poiid":"B2094654DB64ABFE4592","title":"中国农业银行奉贤区四团支行","lon":"121.72016","lat":"30.93877","category":"150","category_name":"银行","address":"川南奉公路8208"},{"poiid":"B2094757D169AAFE499B","title":"楼外楼","lon":"121.71414231","lat":"30.939114961","category":"500","category_name":"未知分类","address":"上海奉贤四新街"},{"poiid":"B2094655D26BA2FF419B","title":"瓦洪公路","lon":"121.71367","lat":"30.9379","category":"38","category_name":"公交车站","address":""},{"poiid":"B2094757DB6EABFC429F","title":"上海临港大酒店","lon":"121.736342","lat":"30.966098","category":"214","category_name":"四星级宾馆","address":"上海市浦东新区南汇大团镇南芦路888号(近S2新四平公路出口处)"},{"poiid":"B2094655D36CA2FA469F","title":"三坎","lon":"121.72607","lat":"30.92967","category":"38","category_name":"公交车站","address":""},{"poiid":"B2094757D16BA1FD439D","title":"东湖临港大酒店中餐厅","lon":"121.736921","lat":"30.965685","category":"217","category_name":"旅馆招待所","address":"上海南芦公路888号一楼"}]