[{"poiid":"B2094757D06FA1FF4799","title":"豫园","lon":"121.49209476305077","lat":"31.227224682757594","category":"240","category_name":"国家级景点","address":"上海市黄浦区安仁街218号"},{"poiid":"B2094757D468A6FE4392","title":"星巴克 豫园店 Starbucks Cafe","lon":"121.49193120286","lat":"31.226836909199","category":"65","category_name":"咖啡厅","address":"豫园路100号近福佑路"},{"poiid":"B2094757D165A6FD409E","title":"外滩二十二号","lon":"121.48842638473934","lat":"31.239447501314032","category":"627","category_name":"一般地点标志","address":"上海市黄埔区中山东一路"},{"poiid":"B209475CD564A7F84292","title":"上海滩新天地店","lon":"121.47463","lat":"31.22164","category":"119","category_name":"商场","address":"\"太仓路181弄新天地北里15号\r\n\""},{"poiid":"B209475CD564A7F84392","title":"上海滩浦东香格里拉店","lon":"121.50058","lat":"31.23634","category":"119","category_name":"商场","address":"浦东富成路33号香格里拉酒店内大堂层"},{"poiid":"B2094757D06FA1FE439B","title":"老城隍庙小吃广场","lon":"121.49257","lat":"31.22648","category":"68","category_name":"快餐厅","address":"黄浦区福佑路238号豫园内"},{"poiid":"B2094757D06FA1F94792","title":"香港名都","lon":"121.496","lat":"31.228","category":"119","category_name":"商场","address":"黄浦区河南南路489号(近复兴东路)"},{"poiid":"B2094757D06FA4FF4298","title":"Zeal","lon":"121.494104619","lat":"31.230399184","category":"260","category_name":"其他","address":"黄浦区中山东二路22号6楼(近金陵东路)"},{"poiid":"B2094757D06FA3FC419B","title":"小林煎饼 豫园店","lon":"121.490016054","lat":"31.227538793","category":"67","category_name":"甜品店","address":"黄浦区豫春路9号豫园商城内B室(近老庙黄金广场)"},{"poiid":"B2094757D568A6FE449D","title":"松鹤楼(外滩店)","lon":"121.49712782","lat":"31.22868273","category":"76","category_name":"上海菜","address":"黄浦区中山东二路505号(近外马路)"},{"poiid":"B2094757D06FA6F8429D","title":"古城公园","lon":"121.493892508","lat":"31.2285424773","category":"196","category_name":"公园","address":"黄浦区人民路333号(近福佑路)"},{"poiid":"B2094750D26EA2FB419E","title":"El Willy","lon":"121.493644","lat":"31.231233","category":"94","category_name":"西餐厅","address":"黄浦区中山东二路22号5楼(近新永安路)"},{"poiid":"B2094757D06FA3FC439D","title":"城隍庙九曲桥","lon":"121.49238","lat":"31.22698","category":"260","category_name":"其他","address":"黄浦区福佑路238号豫园内"},{"poiid":"B2094654DA6EA5F54399","title":"小世界会所","lon":"121.4914","lat":"31.22774","category":"76","category_name":"上海菜","address":"黄浦区福佑路234号豫园3-4楼"},{"poiid":"B2094757D468A4FE489A","title":"Horizen","lon":"121.492901","lat":"31.231715","category":"247","category_name":"餐饮美食","address":"金陵东路1号近中山东二路"},{"poiid":"B2094757D069A6FE449C","title":"十六铺码头边","lon":"121.49703768","lat":"31.228610509","category":"500","category_name":"未知分类","address":"上海市,上海中山东二路"},{"poiid":"B2094757D06FABFF4699","title":"东方商旅 Les Suites Orient","lon":"121.492741","lat":"31.231819","category":"217","category_name":"旅馆招待所","address":"黄浦区金陵东路1号(近中山东二路)"},{"poiid":"B2094757D06FA3FF419C","title":"星巴克 STARBUCKS (豫园二店)","lon":"121.49199","lat":"31.22696","category":"260","category_name":"其他","address":"黄浦区福佑路238号豫园内"},{"poiid":"B2094757D069A0FC4992","title":"松月楼","lon":"121.49108","lat":"31.22666","category":"89","category_name":"中式素餐馆","address":"黄浦区旧校场路99号(近方浜中路)"},{"poiid":"B2094750D26FABF44592","title":"Bocca","lon":"121.4960508","lat":"31.2293856","category":"98","category_name":"意式菜品餐厅","address":"黄浦区中山东二路22号5楼(近新永安路)"},{"poiid":"B2094750D26EA7F44892","title":"YAWARAGI ON THE BUND","lon":"121.494522","lat":"31.232086","category":"95","category_name":"日本料理","address":"黄浦区中山东二路22号3楼(近新永安路)"},{"poiid":"B209475CD76BA0F9469E","title":"大蔬无界 外滩22号馆","lon":"121.493989","lat":"31.230711","category":"111","category_name":"休闲餐饮场所","address":"上海市黄浦区中山东二路外滩22号4楼"},{"poiid":"B2094757D068A6FF489B","title":"金陵东路渡口","lon":"121.493181968","lat":"31.2321444779","category":"35","category_name":"长途汽车站","address":"上海中山东二路121号(金陵东路口)"},{"poiid":"B2094757D06FA4FB4493","title":"黄浦区业余大学","lon":"121.4913","lat":"31.22992","category":"52","category_name":"高等院校","address":"黄浦区四川南路37号(近金陵东路)"},{"poiid":"B2094757D069A2F8419D","title":"黄浦江游览","lon":"121.49412","lat":"31.23077","category":"260","category_name":"其他","address":"黄浦区中山东二路531号(近新开河)查看地图"},{"poiid":"B2094655D36DA6FF4493","title":"金陵东路","lon":"121.49318","lat":"31.23215","category":"38","category_name":"公交车站","address":"上海黄浦区金陵东路"},{"poiid":"B2094757D068A2FA4192","title":"肯德基 KFC (豫园店)","lon":"121.491322","lat":"31.227603","category":"68","category_name":"快餐厅","address":"黄浦区福佑路234号豫园商城内(近旧校场路)"},{"poiid":"B2094654DA6EA5FA419E","title":"新外滩商厦","lon":"121.49335","lat":"31.23127","category":"46","category_name":"楼宇","address":"黄浦区中山东二路15号(龙潭路中山东二路)"},{"poiid":"B2094757D06BA2FA4499","title":"新开河","lon":"121.495265841","lat":"31.2296010434","category":"38","category_name":"公交车站","address":"上海外滩"},{"poiid":"B2094757D06FA7FD4592","title":"网鱼网咖(张杨店)","lon":"121.49722426","lat":"31.229141715","category":"173","category_name":"游戏厅","address":"浦东新区张杨路640号3楼A座(近第一八佰伴)"},{"poiid":"B2094757D569A2FE4693","title":"新外滩15号","lon":"121.4933389","lat":"31.23143889","category":"47","category_name":"住宅区","address":"黄浦区中山东二路15号"},{"poiid":"B2094750D665A0FB469C","title":"船长5号","lon":"121.494","lat":"31.2295","category":"47","category_name":"住宅区","address":"黄浦区中山东二路531号(近东门路)"},{"poiid":"B2094757D66AAAFB439C","title":"江畔Quay","lon":"121.496346","lat":"31.229182","category":"94","category_name":"西餐厅","address":"黄浦区中山东二路585号外滩英迪格酒店6楼"},{"poiid":"B2094655D26AABFA469B","title":"上海兴宇大酒店——原东莱大酒店","lon":"121.492","lat":"31.22982","category":"250","category_name":"公园户外","address":"上海市黄浦区人民路386号(永安路口)"},{"poiid":"B2094757D46BA1FD489C","title":"十二果芬 中山东二路店 Brix12","lon":"121.495787","lat":"31.2293892","category":"67","category_name":"甜品店","address":"中山东二路22号5楼近新开河路"},{"poiid":"B2094655D36CA2F9459D","title":"人民路新开河路","lon":"121.49446","lat":"31.22923","category":"38","category_name":"公交车站","address":""},{"poiid":"B2094753D268A1FF499D","title":"Chez Ivan法庐法式餐厅","lon":"121.49395821594","lat":"31.23074345761","category":"97","category_name":"法式菜品餐厅","address":"中山东二路22号3F"},{"poiid":"B2094757D06BAAF5439B","title":"大胡子烧烤","lon":"121.49381591","lat":"31.229353985","category":"247","category_name":"餐饮美食","address":"上海零陵路双峰北路口"},{"poiid":"B2094757D069A2F9419C","title":"Horizen Lounge","lon":"121.49230372","lat":"31.230716185","category":"260","category_name":"其他","address":"黄浦区中山东二路12号23楼(近金陵东路)"},{"poiid":"B2094753D469A6FA429A","title":"外滩二十二号Bund22","lon":"121.493908","lat":"31.230748","category":"119","category_name":"商场","address":"中山东二路22号"},{"poiid":"B2094757D064A2FB459B","title":"55路公交车终点站","lon":"121.494495884","lat":"31.2298011176","category":"38","category_name":"公交车站","address":"上海新开河枢纽站"},{"poiid":"B2094757D065A5FD429E","title":"中山东二路新开河路站(公交33,55,65,868,910,926,928)","lon":"121.495716131","lat":"31.2294570049","category":"38","category_name":"公交车站","address":"上海市黄浦区中山东二路新开河路"},{"poiid":"B209475CD76AABF9479C","title":"海龙海鲜坊","lon":"121.494018","lat":"31.229417","category":"500","category_name":"未知分类","address":"上海市 东昌路1号"},{"poiid":"B2094654DA6EA5FA419C","title":"中国工商银行上海市第一支行","lon":"121.49329","lat":"31.23151","category":"150","category_name":"银行","address":"黄浦区中山东二路15号外滩金陵东路口(金陵东路中山东二路)"},{"poiid":"B2094757D164A0F8419A","title":"璞丽酒店","lon":"121.493829238","lat":"31.2297287894","category":"500","category_name":"未知分类","address":"上海静安区常德路1号"},{"poiid":"B2094757D069A5F5439D","title":"外滩天文台","lon":"121.49302","lat":"31.23242","category":"46","category_name":"楼宇","address":"黄浦区中山东二路1号甲(近延安东路外滩)"},{"poiid":"B2094655D36DA7F84499","title":"中山东二路新开河路","lon":"121.49485","lat":"31.23016","category":"38","category_name":"公交车站","address":""},{"poiid":"B2094757D16CA2FB419A","title":"喵喵之家","lon":"121.494001638","lat":"31.2296263872","category":"500","category_name":"未知分类","address":null},{"poiid":"B2094750D665A0F4429B","title":"船长8号","lon":"121.496","lat":"31.2283","category":"76","category_name":"上海菜","address":"黄浦区中山东二路531号十六铺码头C区(近东门路)"},{"poiid":"B2094757D069A3FE459C","title":"欢乐谷 古木游龙","lon":"121.4943161","lat":"31.227687835","category":"195","category_name":"游乐场","address":"上海欢乐谷"},{"poiid":"B2094757D06FA1FF4799","title":"豫园","lon":"121.49209476305077","lat":"31.227224682757594","category":"240","category_name":"国家级景点","address":"上海市黄浦区安仁街218号"},{"poiid":"B2094757D468A6FE4392","title":"星巴克 豫园店 Starbucks Cafe","lon":"121.49193120286","lat":"31.226836909199","category":"65","category_name":"咖啡厅","address":"豫园路100号近福佑路"},{"poiid":"B2094757D165A6FD409E","title":"外滩二十二号","lon":"121.48842638473934","lat":"31.239447501314032","category":"627","category_name":"一般地点标志","address":"上海市黄埔区中山东一路"},{"poiid":"B209475CD564A7F84292","title":"上海滩新天地店","lon":"121.47463","lat":"31.22164","category":"119","category_name":"商场","address":"\"太仓路181弄新天地北里15号\r\n\""},{"poiid":"B209475CD564A7F84392","title":"上海滩浦东香格里拉店","lon":"121.50058","lat":"31.23634","category":"119","category_name":"商场","address":"浦东富成路33号香格里拉酒店内大堂层"},{"poiid":"B2094757D06FA1FE439B","title":"老城隍庙小吃广场","lon":"121.49257","lat":"31.22648","category":"68","category_name":"快餐厅","address":"黄浦区福佑路238号豫园内"},{"poiid":"B2094757D06FA1F94792","title":"香港名都","lon":"121.496","lat":"31.228","category":"119","category_name":"商场","address":"黄浦区河南南路489号(近复兴东路)"},{"poiid":"B2094757D06FA4FF4298","title":"Zeal","lon":"121.494104619","lat":"31.230399184","category":"260","category_name":"其他","address":"黄浦区中山东二路22号6楼(近金陵东路)"},{"poiid":"B2094757D06FA3FC419B","title":"小林煎饼 豫园店","lon":"121.490016054","lat":"31.227538793","category":"67","category_name":"甜品店","address":"黄浦区豫春路9号豫园商城内B室(近老庙黄金广场)"},{"poiid":"B2094757D568A6FE449D","title":"松鹤楼(外滩店)","lon":"121.49712782","lat":"31.22868273","category":"76","category_name":"上海菜","address":"黄浦区中山东二路505号(近外马路)"},{"poiid":"B2094757D06FA6F8429D","title":"古城公园","lon":"121.493892508","lat":"31.2285424773","category":"196","category_name":"公园","address":"黄浦区人民路333号(近福佑路)"},{"poiid":"B2094750D26EA2FB419E","title":"El Willy","lon":"121.493644","lat":"31.231233","category":"94","category_name":"西餐厅","address":"黄浦区中山东二路22号5楼(近新永安路)"},{"poiid":"B2094757D06FA3FC439D","title":"城隍庙九曲桥","lon":"121.49238","lat":"31.22698","category":"260","category_name":"其他","address":"黄浦区福佑路238号豫园内"},{"poiid":"B2094654DA6EA5F54399","title":"小世界会所","lon":"121.4914","lat":"31.22774","category":"76","category_name":"上海菜","address":"黄浦区福佑路234号豫园3-4楼"},{"poiid":"B2094757D468A4FE489A","title":"Horizen","lon":"121.492901","lat":"31.231715","category":"247","category_name":"餐饮美食","address":"金陵东路1号近中山东二路"},{"poiid":"B2094757D069A6FE449C","title":"十六铺码头边","lon":"121.49703768","lat":"31.228610509","category":"500","category_name":"未知分类","address":"上海市,上海中山东二路"},{"poiid":"B2094757D06FABFF4699","title":"东方商旅 Les Suites Orient","lon":"121.492741","lat":"31.231819","category":"217","category_name":"旅馆招待所","address":"黄浦区金陵东路1号(近中山东二路)"},{"poiid":"B2094757D06FA3FF419C","title":"星巴克 STARBUCKS (豫园二店)","lon":"121.49199","lat":"31.22696","category":"260","category_name":"其他","address":"黄浦区福佑路238号豫园内"},{"poiid":"B2094757D069A0FC4992","title":"松月楼","lon":"121.49108","lat":"31.22666","category":"89","category_name":"中式素餐馆","address":"黄浦区旧校场路99号(近方浜中路)"},{"poiid":"B2094750D26FABF44592","title":"Bocca","lon":"121.4960508","lat":"31.2293856","category":"98","category_name":"意式菜品餐厅","address":"黄浦区中山东二路22号5楼(近新永安路)"},{"poiid":"B2094750D26EA7F44892","title":"YAWARAGI ON THE BUND","lon":"121.494522","lat":"31.232086","category":"95","category_name":"日本料理","address":"黄浦区中山东二路22号3楼(近新永安路)"},{"poiid":"B209475CD76BA0F9469E","title":"大蔬无界 外滩22号馆","lon":"121.493989","lat":"31.230711","category":"111","category_name":"休闲餐饮场所","address":"上海市黄浦区中山东二路外滩22号4楼"},{"poiid":"B2094757D068A6FF489B","title":"金陵东路渡口","lon":"121.493181968","lat":"31.2321444779","category":"35","category_name":"长途汽车站","address":"上海中山东二路121号(金陵东路口)"},{"poiid":"B2094757D06FA4FB4493","title":"黄浦区业余大学","lon":"121.4913","lat":"31.22992","category":"52","category_name":"高等院校","address":"黄浦区四川南路37号(近金陵东路)"},{"poiid":"B2094757D069A2F8419D","title":"黄浦江游览","lon":"121.49412","lat":"31.23077","category":"260","category_name":"其他","address":"黄浦区中山东二路531号(近新开河)查看地图"},{"poiid":"B2094655D36DA6FF4493","title":"金陵东路","lon":"121.49318","lat":"31.23215","category":"38","category_name":"公交车站","address":"上海黄浦区金陵东路"},{"poiid":"B2094757D068A2FA4192","title":"肯德基 KFC (豫园店)","lon":"121.491322","lat":"31.227603","category":"68","category_name":"快餐厅","address":"黄浦区福佑路234号豫园商城内(近旧校场路)"},{"poiid":"B2094654DA6EA5FA419E","title":"新外滩商厦","lon":"121.49335","lat":"31.23127","category":"46","category_name":"楼宇","address":"黄浦区中山东二路15号(龙潭路中山东二路)"},{"poiid":"B2094757D06BA2FA4499","title":"新开河","lon":"121.495265841","lat":"31.2296010434","category":"38","category_name":"公交车站","address":"上海外滩"},{"poiid":"B2094757D06FA7FD4592","title":"网鱼网咖(张杨店)","lon":"121.49722426","lat":"31.229141715","category":"173","category_name":"游戏厅","address":"浦东新区张杨路640号3楼A座(近第一八佰伴)"},{"poiid":"B2094757D569A2FE4693","title":"新外滩15号","lon":"121.4933389","lat":"31.23143889","category":"47","category_name":"住宅区","address":"黄浦区中山东二路15号"},{"poiid":"B2094750D665A0FB469C","title":"船长5号","lon":"121.494","lat":"31.2295","category":"47","category_name":"住宅区","address":"黄浦区中山东二路531号(近东门路)"},{"poiid":"B2094757D66AAAFB439C","title":"江畔Quay","lon":"121.496346","lat":"31.229182","category":"94","category_name":"西餐厅","address":"黄浦区中山东二路585号外滩英迪格酒店6楼"},{"poiid":"B2094655D26AABFA469B","title":"上海兴宇大酒店——原东莱大酒店","lon":"121.492","lat":"31.22982","category":"250","category_name":"公园户外","address":"上海市黄浦区人民路386号(永安路口)"},{"poiid":"B2094757D46BA1FD489C","title":"十二果芬 中山东二路店 Brix12","lon":"121.495787","lat":"31.2293892","category":"67","category_name":"甜品店","address":"中山东二路22号5楼近新开河路"},{"poiid":"B2094655D36CA2F9459D","title":"人民路新开河路","lon":"121.49446","lat":"31.22923","category":"38","category_name":"公交车站","address":""},{"poiid":"B2094753D268A1FF499D","title":"Chez Ivan法庐法式餐厅","lon":"121.49395821594","lat":"31.23074345761","category":"97","category_name":"法式菜品餐厅","address":"中山东二路22号3F"},{"poiid":"B2094757D06BAAF5439B","title":"大胡子烧烤","lon":"121.49381591","lat":"31.229353985","category":"247","category_name":"餐饮美食","address":"上海零陵路双峰北路口"},{"poiid":"B2094757D069A2F9419C","title":"Horizen Lounge","lon":"121.49230372","lat":"31.230716185","category":"260","category_name":"其他","address":"黄浦区中山东二路12号23楼(近金陵东路)"},{"poiid":"B2094753D469A6FA429A","title":"外滩二十二号Bund22","lon":"121.493908","lat":"31.230748","category":"119","category_name":"商场","address":"中山东二路22号"},{"poiid":"B2094757D064A2FB459B","title":"55路公交车终点站","lon":"121.494495884","lat":"31.2298011176","category":"38","category_name":"公交车站","address":"上海新开河枢纽站"},{"poiid":"B2094757D065A5FD429E","title":"中山东二路新开河路站(公交33,55,65,868,910,926,928)","lon":"121.495716131","lat":"31.2294570049","category":"38","category_name":"公交车站","address":"上海市黄浦区中山东二路新开河路"},{"poiid":"B209475CD76AABF9479C","title":"海龙海鲜坊","lon":"121.494018","lat":"31.229417","category":"500","category_name":"未知分类","address":"上海市 东昌路1号"},{"poiid":"B2094654DA6EA5FA419C","title":"中国工商银行上海市第一支行","lon":"121.49329","lat":"31.23151","category":"150","category_name":"银行","address":"黄浦区中山东二路15号外滩金陵东路口(金陵东路中山东二路)"},{"poiid":"B2094757D164A0F8419A","title":"璞丽酒店","lon":"121.493829238","lat":"31.2297287894","category":"500","category_name":"未知分类","address":"上海静安区常德路1号"},{"poiid":"B2094757D069A5F5439D","title":"外滩天文台","lon":"121.49302","lat":"31.23242","category":"46","category_name":"楼宇","address":"黄浦区中山东二路1号甲(近延安东路外滩)"},{"poiid":"B2094655D36DA7F84499","title":"中山东二路新开河路","lon":"121.49485","lat":"31.23016","category":"38","category_name":"公交车站","address":""},{"poiid":"B2094757D16CA2FB419A","title":"喵喵之家","lon":"121.494001638","lat":"31.2296263872","category":"500","category_name":"未知分类","address":null},{"poiid":"B2094750D665A0F4429B","title":"船长8号","lon":"121.496","lat":"31.2283","category":"76","category_name":"上海菜","address":"黄浦区中山东二路531号十六铺码头C区(近东门路)"},{"poiid":"B2094757D069A3FE459C","title":"欢乐谷 古木游龙","lon":"121.4943161","lat":"31.227687835","category":"195","category_name":"游乐场","address":"上海欢乐谷"},{"poiid":"B2094757D06FA1FF4799","title":"豫园","lon":"121.49209476305077","lat":"31.227224682757594","category":"240","category_name":"国家级景点","address":"上海市黄浦区安仁街218号"},{"poiid":"B2094757D468A6FE4392","title":"星巴克 豫园店 Starbucks Cafe","lon":"121.49193120286","lat":"31.226836909199","category":"65","category_name":"咖啡厅","address":"豫园路100号近福佑路"},{"poiid":"B2094757D165A6FD409E","title":"外滩二十二号","lon":"121.48842638473934","lat":"31.239447501314032","category":"627","category_name":"一般地点标志","address":"上海市黄埔区中山东一路"},{"poiid":"B209475CD564A7F84292","title":"上海滩新天地店","lon":"121.47463","lat":"31.22164","category":"119","category_name":"商场","address":"\"太仓路181弄新天地北里15号\r\n\""},{"poiid":"B209475CD564A7F84392","title":"上海滩浦东香格里拉店","lon":"121.50058","lat":"31.23634","category":"119","category_name":"商场","address":"浦东富成路33号香格里拉酒店内大堂层"},{"poiid":"B2094757D06FA1FE439B","title":"老城隍庙小吃广场","lon":"121.49257","lat":"31.22648","category":"68","category_name":"快餐厅","address":"黄浦区福佑路238号豫园内"},{"poiid":"B2094757D06FA1F94792","title":"香港名都","lon":"121.496","lat":"31.228","category":"119","category_name":"商场","address":"黄浦区河南南路489号(近复兴东路)"},{"poiid":"B2094757D06FA4FF4298","title":"Zeal","lon":"121.494104619","lat":"31.230399184","category":"260","category_name":"其他","address":"黄浦区中山东二路22号6楼(近金陵东路)"},{"poiid":"B2094757D06FA3FC419B","title":"小林煎饼 豫园店","lon":"121.490016054","lat":"31.227538793","category":"67","category_name":"甜品店","address":"黄浦区豫春路9号豫园商城内B室(近老庙黄金广场)"},{"poiid":"B2094757D568A6FE449D","title":"松鹤楼(外滩店)","lon":"121.49712782","lat":"31.22868273","category":"76","category_name":"上海菜","address":"黄浦区中山东二路505号(近外马路)"},{"poiid":"B2094757D06FA6F8429D","title":"古城公园","lon":"121.493892508","lat":"31.2285424773","category":"196","category_name":"公园","address":"黄浦区人民路333号(近福佑路)"},{"poiid":"B2094750D26EA2FB419E","title":"El Willy","lon":"121.493644","lat":"31.231233","category":"94","category_name":"西餐厅","address":"黄浦区中山东二路22号5楼(近新永安路)"},{"poiid":"B2094757D06FA3FC439D","title":"城隍庙九曲桥","lon":"121.49238","lat":"31.22698","category":"260","category_name":"其他","address":"黄浦区福佑路238号豫园内"},{"poiid":"B2094654DA6EA5F54399","title":"小世界会所","lon":"121.4914","lat":"31.22774","category":"76","category_name":"上海菜","address":"黄浦区福佑路234号豫园3-4楼"},{"poiid":"B2094757D468A4FE489A","title":"Horizen","lon":"121.492901","lat":"31.231715","category":"247","category_name":"餐饮美食","address":"金陵东路1号近中山东二路"},{"poiid":"B2094757D069A6FE449C","title":"十六铺码头边","lon":"121.49703768","lat":"31.228610509","category":"500","category_name":"未知分类","address":"上海市,上海中山东二路"},{"poiid":"B2094757D06FABFF4699","title":"东方商旅 Les Suites Orient","lon":"121.492741","lat":"31.231819","category":"217","category_name":"旅馆招待所","address":"黄浦区金陵东路1号(近中山东二路)"},{"poiid":"B2094757D06FA3FF419C","title":"星巴克 STARBUCKS (豫园二店)","lon":"121.49199","lat":"31.22696","category":"260","category_name":"其他","address":"黄浦区福佑路238号豫园内"},{"poiid":"B2094757D069A0FC4992","title":"松月楼","lon":"121.49108","lat":"31.22666","category":"89","category_name":"中式素餐馆","address":"黄浦区旧校场路99号(近方浜中路)"},{"poiid":"B2094750D26FABF44592","title":"Bocca","lon":"121.4960508","lat":"31.2293856","category":"98","category_name":"意式菜品餐厅","address":"黄浦区中山东二路22号5楼(近新永安路)"},{"poiid":"B2094750D26EA7F44892","title":"YAWARAGI ON THE BUND","lon":"121.494522","lat":"31.232086","category":"95","category_name":"日本料理","address":"黄浦区中山东二路22号3楼(近新永安路)"},{"poiid":"B209475CD76BA0F9469E","title":"大蔬无界 外滩22号馆","lon":"121.493989","lat":"31.230711","category":"111","category_name":"休闲餐饮场所","address":"上海市黄浦区中山东二路外滩22号4楼"},{"poiid":"B2094757D068A6FF489B","title":"金陵东路渡口","lon":"121.493181968","lat":"31.2321444779","category":"35","category_name":"长途汽车站","address":"上海中山东二路121号(金陵东路口)"},{"poiid":"B2094757D06FA4FB4493","title":"黄浦区业余大学","lon":"121.4913","lat":"31.22992","category":"52","category_name":"高等院校","address":"黄浦区四川南路37号(近金陵东路)"},{"poiid":"B2094757D069A2F8419D","title":"黄浦江游览","lon":"121.49412","lat":"31.23077","category":"260","category_name":"其他","address":"黄浦区中山东二路531号(近新开河)查看地图"},{"poiid":"B2094655D36DA6FF4493","title":"金陵东路","lon":"121.49318","lat":"31.23215","category":"38","category_name":"公交车站","address":"上海黄浦区金陵东路"},{"poiid":"B2094757D068A2FA4192","title":"肯德基 KFC (豫园店)","lon":"121.491322","lat":"31.227603","category":"68","category_name":"快餐厅","address":"黄浦区福佑路234号豫园商城内(近旧校场路)"},{"poiid":"B2094654DA6EA5FA419E","title":"新外滩商厦","lon":"121.49335","lat":"31.23127","category":"46","category_name":"楼宇","address":"黄浦区中山东二路15号(龙潭路中山东二路)"},{"poiid":"B2094757D06BA2FA4499","title":"新开河","lon":"121.495265841","lat":"31.2296010434","category":"38","category_name":"公交车站","address":"上海外滩"},{"poiid":"B2094757D06FA7FD4592","title":"网鱼网咖(张杨店)","lon":"121.49722426","lat":"31.229141715","category":"173","category_name":"游戏厅","address":"浦东新区张杨路640号3楼A座(近第一八佰伴)"},{"poiid":"B2094757D569A2FE4693","title":"新外滩15号","lon":"121.4933389","lat":"31.23143889","category":"47","category_name":"住宅区","address":"黄浦区中山东二路15号"},{"poiid":"B2094750D665A0FB469C","title":"船长5号","lon":"121.494","lat":"31.2295","category":"47","category_name":"住宅区","address":"黄浦区中山东二路531号(近东门路)"},{"poiid":"B2094757D66AAAFB439C","title":"江畔Quay","lon":"121.496346","lat":"31.229182","category":"94","category_name":"西餐厅","address":"黄浦区中山东二路585号外滩英迪格酒店6楼"},{"poiid":"B2094655D26AABFA469B","title":"上海兴宇大酒店——原东莱大酒店","lon":"121.492","lat":"31.22982","category":"250","category_name":"公园户外","address":"上海市黄浦区人民路386号(永安路口)"},{"poiid":"B2094757D46BA1FD489C","title":"十二果芬 中山东二路店 Brix12","lon":"121.495787","lat":"31.2293892","category":"67","category_name":"甜品店","address":"中山东二路22号5楼近新开河路"},{"poiid":"B2094655D36CA2F9459D","title":"人民路新开河路","lon":"121.49446","lat":"31.22923","category":"38","category_name":"公交车站","address":""},{"poiid":"B2094753D268A1FF499D","title":"Chez Ivan法庐法式餐厅","lon":"121.49395821594","lat":"31.23074345761","category":"97","category_name":"法式菜品餐厅","address":"中山东二路22号3F"},{"poiid":"B2094757D06BAAF5439B","title":"大胡子烧烤","lon":"121.49381591","lat":"31.229353985","category":"247","category_name":"餐饮美食","address":"上海零陵路双峰北路口"},{"poiid":"B2094757D069A2F9419C","title":"Horizen Lounge","lon":"121.49230372","lat":"31.230716185","category":"260","category_name":"其他","address":"黄浦区中山东二路12号23楼(近金陵东路)"},{"poiid":"B2094753D469A6FA429A","title":"外滩二十二号Bund22","lon":"121.493908","lat":"31.230748","category":"119","category_name":"商场","address":"中山东二路22号"},{"poiid":"B2094757D064A2FB459B","title":"55路公交车终点站","lon":"121.494495884","lat":"31.2298011176","category":"38","category_name":"公交车站","address":"上海新开河枢纽站"},{"poiid":"B2094757D065A5FD429E","title":"中山东二路新开河路站(公交33,55,65,868,910,926,928)","lon":"121.495716131","lat":"31.2294570049","category":"38","category_name":"公交车站","address":"上海市黄浦区中山东二路新开河路"},{"poiid":"B209475CD76AABF9479C","title":"海龙海鲜坊","lon":"121.494018","lat":"31.229417","category":"500","category_name":"未知分类","address":"上海市 东昌路1号"},{"poiid":"B2094654DA6EA5FA419C","title":"中国工商银行上海市第一支行","lon":"121.49329","lat":"31.23151","category":"150","category_name":"银行","address":"黄浦区中山东二路15号外滩金陵东路口(金陵东路中山东二路)"},{"poiid":"B2094757D164A0F8419A","title":"璞丽酒店","lon":"121.493829238","lat":"31.2297287894","category":"500","category_name":"未知分类","address":"上海静安区常德路1号"},{"poiid":"B2094757D069A5F5439D","title":"外滩天文台","lon":"121.49302","lat":"31.23242","category":"46","category_name":"楼宇","address":"黄浦区中山东二路1号甲(近延安东路外滩)"},{"poiid":"B2094655D36DA7F84499","title":"中山东二路新开河路","lon":"121.49485","lat":"31.23016","category":"38","category_name":"公交车站","address":""},{"poiid":"B2094757D16CA2FB419A","title":"喵喵之家","lon":"121.494001638","lat":"31.2296263872","category":"500","category_name":"未知分类","address":null},{"poiid":"B2094750D665A0F4429B","title":"船长8号","lon":"121.496","lat":"31.2283","category":"76","category_name":"上海菜","address":"黄浦区中山东二路531号十六铺码头C区(近东门路)"},{"poiid":"B2094757D069A3FE459C","title":"欢乐谷 古木游龙","lon":"121.4943161","lat":"31.227687835","category":"195","category_name":"游乐场","address":"上海欢乐谷"},{"poiid":"B2094757D06FA1FF4799","title":"豫园","lon":"121.49209476305077","lat":"31.227224682757594","category":"240","category_name":"国家级景点","address":"上海市黄浦区安仁街218号"},{"poiid":"B2094757D468A6FE4392","title":"星巴克 豫园店 Starbucks Cafe","lon":"121.49193120286","lat":"31.226836909199","category":"65","category_name":"咖啡厅","address":"豫园路100号近福佑路"},{"poiid":"B2094757D165A6FD409E","title":"外滩二十二号","lon":"121.48842638473934","lat":"31.239447501314032","category":"627","category_name":"一般地点标志","address":"上海市黄埔区中山东一路"},{"poiid":"B209475CD564A7F84292","title":"上海滩新天地店","lon":"121.47463","lat":"31.22164","category":"119","category_name":"商场","address":"\"太仓路181弄新天地北里15号\r\n\""},{"poiid":"B209475CD564A7F84392","title":"上海滩浦东香格里拉店","lon":"121.50058","lat":"31.23634","category":"119","category_name":"商场","address":"浦东富成路33号香格里拉酒店内大堂层"},{"poiid":"B2094757D06FA1FE439B","title":"老城隍庙小吃广场","lon":"121.49257","lat":"31.22648","category":"68","category_name":"快餐厅","address":"黄浦区福佑路238号豫园内"},{"poiid":"B2094757D06FA1F94792","title":"香港名都","lon":"121.496","lat":"31.228","category":"119","category_name":"商场","address":"黄浦区河南南路489号(近复兴东路)"},{"poiid":"B2094757D06FA4FF4298","title":"Zeal","lon":"121.494104619","lat":"31.230399184","category":"260","category_name":"其他","address":"黄浦区中山东二路22号6楼(近金陵东路)"},{"poiid":"B2094757D06FA3FC419B","title":"小林煎饼 豫园店","lon":"121.490016054","lat":"31.227538793","category":"67","category_name":"甜品店","address":"黄浦区豫春路9号豫园商城内B室(近老庙黄金广场)"},{"poiid":"B2094757D568A6FE449D","title":"松鹤楼(外滩店)","lon":"121.49712782","lat":"31.22868273","category":"76","category_name":"上海菜","address":"黄浦区中山东二路505号(近外马路)"},{"poiid":"B2094757D06FA6F8429D","title":"古城公园","lon":"121.493892508","lat":"31.2285424773","category":"196","category_name":"公园","address":"黄浦区人民路333号(近福佑路)"},{"poiid":"B2094750D26EA2FB419E","title":"El Willy","lon":"121.493644","lat":"31.231233","category":"94","category_name":"西餐厅","address":"黄浦区中山东二路22号5楼(近新永安路)"},{"poiid":"B2094757D06FA3FC439D","title":"城隍庙九曲桥","lon":"121.49238","lat":"31.22698","category":"260","category_name":"其他","address":"黄浦区福佑路238号豫园内"},{"poiid":"B2094654DA6EA5F54399","title":"小世界会所","lon":"121.4914","lat":"31.22774","category":"76","category_name":"上海菜","address":"黄浦区福佑路234号豫园3-4楼"},{"poiid":"B2094757D468A4FE489A","title":"Horizen","lon":"121.492901","lat":"31.231715","category":"247","category_name":"餐饮美食","address":"金陵东路1号近中山东二路"},{"poiid":"B2094757D069A6FE449C","title":"十六铺码头边","lon":"121.49703768","lat":"31.228610509","category":"500","category_name":"未知分类","address":"上海市,上海中山东二路"},{"poiid":"B2094757D06FABFF4699","title":"东方商旅 Les Suites Orient","lon":"121.492741","lat":"31.231819","category":"217","category_name":"旅馆招待所","address":"黄浦区金陵东路1号(近中山东二路)"},{"poiid":"B2094757D06FA3FF419C","title":"星巴克 STARBUCKS (豫园二店)","lon":"121.49199","lat":"31.22696","category":"260","category_name":"其他","address":"黄浦区福佑路238号豫园内"},{"poiid":"B2094757D069A0FC4992","title":"松月楼","lon":"121.49108","lat":"31.22666","category":"89","category_name":"中式素餐馆","address":"黄浦区旧校场路99号(近方浜中路)"},{"poiid":"B2094750D26FABF44592","title":"Bocca","lon":"121.4960508","lat":"31.2293856","category":"98","category_name":"意式菜品餐厅","address":"黄浦区中山东二路22号5楼(近新永安路)"},{"poiid":"B2094750D26EA7F44892","title":"YAWARAGI ON THE BUND","lon":"121.494522","lat":"31.232086","category":"95","category_name":"日本料理","address":"黄浦区中山东二路22号3楼(近新永安路)"},{"poiid":"B209475CD76BA0F9469E","title":"大蔬无界 外滩22号馆","lon":"121.493989","lat":"31.230711","category":"111","category_name":"休闲餐饮场所","address":"上海市黄浦区中山东二路外滩22号4楼"},{"poiid":"B2094757D068A6FF489B","title":"金陵东路渡口","lon":"121.493181968","lat":"31.2321444779","category":"35","category_name":"长途汽车站","address":"上海中山东二路121号(金陵东路口)"},{"poiid":"B2094757D06FA4FB4493","title":"黄浦区业余大学","lon":"121.4913","lat":"31.22992","category":"52","category_name":"高等院校","address":"黄浦区四川南路37号(近金陵东路)"},{"poiid":"B2094757D069A2F8419D","title":"黄浦江游览","lon":"121.49412","lat":"31.23077","category":"260","category_name":"其他","address":"黄浦区中山东二路531号(近新开河)查看地图"},{"poiid":"B2094655D36DA6FF4493","title":"金陵东路","lon":"121.49318","lat":"31.23215","category":"38","category_name":"公交车站","address":"上海黄浦区金陵东路"},{"poiid":"B2094757D068A2FA4192","title":"肯德基 KFC (豫园店)","lon":"121.491322","lat":"31.227603","category":"68","category_name":"快餐厅","address":"黄浦区福佑路234号豫园商城内(近旧校场路)"},{"poiid":"B2094654DA6EA5FA419E","title":"新外滩商厦","lon":"121.49335","lat":"31.23127","category":"46","category_name":"楼宇","address":"黄浦区中山东二路15号(龙潭路中山东二路)"},{"poiid":"B2094757D06BA2FA4499","title":"新开河","lon":"121.495265841","lat":"31.2296010434","category":"38","category_name":"公交车站","address":"上海外滩"},{"poiid":"B2094757D06FA7FD4592","title":"网鱼网咖(张杨店)","lon":"121.49722426","lat":"31.229141715","category":"173","category_name":"游戏厅","address":"浦东新区张杨路640号3楼A座(近第一八佰伴)"},{"poiid":"B2094757D569A2FE4693","title":"新外滩15号","lon":"121.4933389","lat":"31.23143889","category":"47","category_name":"住宅区","address":"黄浦区中山东二路15号"},{"poiid":"B2094750D665A0FB469C","title":"船长5号","lon":"121.494","lat":"31.2295","category":"47","category_name":"住宅区","address":"黄浦区中山东二路531号(近东门路)"},{"poiid":"B2094757D66AAAFB439C","title":"江畔Quay","lon":"121.496346","lat":"31.229182","category":"94","category_name":"西餐厅","address":"黄浦区中山东二路585号外滩英迪格酒店6楼"},{"poiid":"B2094655D26AABFA469B","title":"上海兴宇大酒店——原东莱大酒店","lon":"121.492","lat":"31.22982","category":"250","category_name":"公园户外","address":"上海市黄浦区人民路386号(永安路口)"},{"poiid":"B2094757D46BA1FD489C","title":"十二果芬 中山东二路店 Brix12","lon":"121.495787","lat":"31.2293892","category":"67","category_name":"甜品店","address":"中山东二路22号5楼近新开河路"},{"poiid":"B2094655D36CA2F9459D","title":"人民路新开河路","lon":"121.49446","lat":"31.22923","category":"38","category_name":"公交车站","address":""},{"poiid":"B2094753D268A1FF499D","title":"Chez Ivan法庐法式餐厅","lon":"121.49395821594","lat":"31.23074345761","category":"97","category_name":"法式菜品餐厅","address":"中山东二路22号3F"},{"poiid":"B2094757D06BAAF5439B","title":"大胡子烧烤","lon":"121.49381591","lat":"31.229353985","category":"247","category_name":"餐饮美食","address":"上海零陵路双峰北路口"},{"poiid":"B2094757D069A2F9419C","title":"Horizen Lounge","lon":"121.49230372","lat":"31.230716185","category":"260","category_name":"其他","address":"黄浦区中山东二路12号23楼(近金陵东路)"},{"poiid":"B2094753D469A6FA429A","title":"外滩二十二号Bund22","lon":"121.493908","lat":"31.230748","category":"119","category_name":"商场","address":"中山东二路22号"},{"poiid":"B2094757D064A2FB459B","title":"55路公交车终点站","lon":"121.494495884","lat":"31.2298011176","category":"38","category_name":"公交车站","address":"上海新开河枢纽站"},{"poiid":"B2094757D065A5FD429E","title":"中山东二路新开河路站(公交33,55,65,868,910,926,928)","lon":"121.495716131","lat":"31.2294570049","category":"38","category_name":"公交车站","address":"上海市黄浦区中山东二路新开河路"},{"poiid":"B209475CD76AABF9479C","title":"海龙海鲜坊","lon":"121.494018","lat":"31.229417","category":"500","category_name":"未知分类","address":"上海市 东昌路1号"},{"poiid":"B2094654DA6EA5FA419C","title":"中国工商银行上海市第一支行","lon":"121.49329","lat":"31.23151","category":"150","category_name":"银行","address":"黄浦区中山东二路15号外滩金陵东路口(金陵东路中山东二路)"},{"poiid":"B2094757D164A0F8419A","title":"璞丽酒店","lon":"121.493829238","lat":"31.2297287894","category":"500","category_name":"未知分类","address":"上海静安区常德路1号"},{"poiid":"B2094757D069A5F5439D","title":"外滩天文台","lon":"121.49302","lat":"31.23242","category":"46","category_name":"楼宇","address":"黄浦区中山东二路1号甲(近延安东路外滩)"},{"poiid":"B2094655D36DA7F84499","title":"中山东二路新开河路","lon":"121.49485","lat":"31.23016","category":"38","category_name":"公交车站","address":""},{"poiid":"B2094757D16CA2FB419A","title":"喵喵之家","lon":"121.494001638","lat":"31.2296263872","category":"500","category_name":"未知分类","address":null},{"poiid":"B2094750D665A0F4429B","title":"船长8号","lon":"121.496","lat":"31.2283","category":"76","category_name":"上海菜","address":"黄浦区中山东二路531号十六铺码头C区(近东门路)"},{"poiid":"B2094757D069A3FE459C","title":"欢乐谷 古木游龙","lon":"121.4943161","lat":"31.227687835","category":"195","category_name":"游乐场","address":"上海欢乐谷"}]