[{"poiid":"B2094757D06EAAFA489F","title":"上海外滩英迪格酒店 (Hotel Indigo)","lon":"121.499735","lat":"31.226432","category":"217","category_name":"旅馆招待所","address":"黄浦区中山东二路585号(近东门路)"},{"poiid":"B2094757D06FA4F8459F","title":"滨江欣景大酒店(Riverview Hotel)","lon":"121.49992806","lat":"31.224301883","category":"76","category_name":"上海菜","address":"黄浦区中山南路76号(会馆弄中山南路)"},{"poiid":"B2094757D06FA7FC4292","title":"浦江游轮","lon":"121.50081","lat":"31.22468","category":"260","category_name":"其他","address":"黄浦区十六铺站－公平路码头(会馆弄中山南路)查看地图"},{"poiid":"B209475CD564A7F84292","title":"上海滩新天地店","lon":"121.47463","lat":"31.22164","category":"119","category_name":"商场","address":"\"太仓路181弄新天地北里15号\r\n\""},{"poiid":"B209475CD564A7F84392","title":"上海滩浦东香格里拉店","lon":"121.50058","lat":"31.23634","category":"119","category_name":"商场","address":"浦东富成路33号香格里拉酒店内大堂层"},{"poiid":"B2094757D068A5FA469B","title":"恰CHAR","lon":"121.50005411","lat":"31.225733464","category":"94","category_name":"西餐厅","address":"黄浦区中山东二路585号外滩英迪格酒店29-31楼(东门路)"},{"poiid":"B2094757D16FA0FF4092","title":"小南国(十六铺店)","lon":"121.500050938","lat":"31.2274259403","category":"76","category_name":"上海菜","address":"黄浦区中山东二路565号A楼(近东门路)"},{"poiid":"B2094654DB69A6F84893","title":"外滩.滨江名人苑","lon":"121.49835","lat":"31.223482","category":"47","category_name":"住宅区","address":"黄浦区中华路88弄"},{"poiid":"B2094757D06FA0F8499E","title":"交通银行上海分行","lon":"121.50114678","lat":"31.225955549","category":"46","category_name":"楼宇","address":"上海中山南路99号"},{"poiid":"B2094757D06AA2FD4298","title":"龙皇酒家","lon":"121.49882273","lat":"31.227382239","category":"72","category_name":"广东菜","address":"黄浦区中山东二路535号十六铺B栋楼(外马路中山东二路)"},{"poiid":"B2094757D068AAF44399","title":"士林华苑","lon":"121.497","lat":"31.2262","category":"47","category_name":"住宅区","address":"上海黄浦区河南南路555弄"},{"poiid":"B2094757D16DA0FB4493","title":"东方国际金融广场","lon":"121.502364","lat":"31.2216","category":"500","category_name":"未知分类","address":"上海中山南路318号"},{"poiid":"B2094655D36DA1F5439B","title":"小东门","lon":"121.49708","lat":"31.22573","category":"38","category_name":"公交车站","address":""},{"poiid":"B2094757D168A0F8489B","title":"fesco adecco","lon":"121.49748523","lat":"31.224477577","category":"500","category_name":"未知分类","address":"上海市中山南路28号久事大厦附楼"},{"poiid":"B2094757D664AAFB479B","title":"上海老街小吃","lon":"121.49814282332","lat":"31.22556929005","category":"68","category_name":"快餐厅","address":"黄浦区方浜中路77号(康家弄四牌楼路)"},{"poiid":"B2094655D268A6F8459A","title":"浦江公馆","lon":"121.49944","lat":"31.222755","category":"47","category_name":"住宅区","address":"中华路168弄"},{"poiid":"B2094757D06FA7FC4898","title":"十六铺面料城","lon":"121.49869","lat":"31.22476","category":"249","category_name":"购物服务","address":"黄浦区东门路168号(近中山东二路)"},{"poiid":"B2094757D06FABF4459F","title":"十六铺公交枢纽站","lon":"121.498995","lat":"31.223048","category":"38","category_name":"公交车站","address":"上海中山东二路新开河路"},{"poiid":"B2094654DA6EABFF429A","title":"上海市十六铺旅游中心","lon":"121.50238","lat":"31.22376","category":"248","category_name":"生活娱乐","address":"中山南路171号"},{"poiid":"B2094757D06AA5FA409A","title":"大块头排挡","lon":"121.49559","lat":"31.22314","category":"76","category_name":"上海菜","address":"黄浦区四牌楼106号(学院路口)"},{"poiid":"B2094750D269A0FD499F","title":"山海亭","lon":"121.497116","lat":"31.223377","category":"500","category_name":"未知分类","address":"河南南路489号"},{"poiid":"B2094757D16BA3FA489E","title":"外滩酒吧","lon":"121.501479738","lat":"31.2253351958","category":"247","category_name":"餐饮美食","address":"上海市中山东二路575号"},{"poiid":"B2094654DA6EA5FA4093","title":"上海老街(人民路)","lon":"121.49656","lat":"31.22521","category":"116","category_name":"特色商业街","address":""},{"poiid":"B2094757D16DA5FB459D","title":"MJ  club","lon":"121.499573738","lat":"31.2269042292","category":"500","category_name":"未知分类","address":"上海市黄浦区中山南二路501号"},{"poiid":"B2094654DA6EABFF419E","title":"上海市市八初级中学","lon":"121.50007","lat":"31.22189","category":"55","category_name":"中学","address":"西姚家弄48"},{"poiid":"B2094750DA6DA1F4419B","title":"上海泰康路 田子坊","lon":"121.500495","lat":"31.225341","category":"248","category_name":"生活娱乐","address":null},{"poiid":"B2094757D568AAFF469D","title":"金外滩国际广场","lon":"121.5010639","lat":"31.22469278","category":"46","category_name":"楼宇","address":"黄浦中山南路,复兴路口"},{"poiid":"B2094654DA6EABF84198","title":"圣莲大厦","lon":"121.49686","lat":"31.222799","category":"47","category_name":"住宅区","address":"上海市黄浦区学院路28弄"},{"poiid":"B2094655D268A6F84598","title":"东业大厦","lon":"121.49831","lat":"31.222387","category":"47","category_name":"住宅区","address":"上海市黄浦区中华路185号"},{"poiid":"B2094655D26FA5FB489E","title":"久事大厦(西门)","lon":"121.49905","lat":"31.22473","category":"48","category_name":"楼宇大门","address":"中山南路28号"},{"poiid":"B2094655D26BA5FA4098","title":"聚汇茶体验","lon":"121.49844","lat":"31.22365","category":"66","category_name":"茶艺馆","address":"中华路50-5"},{"poiid":"B2094654DA6EABFF439C","title":"久事大厦会议中心","lon":"121.49965","lat":"31.22504","category":"185","category_name":"会展中心","address":"中山南路28号久事大厦30层"},{"poiid":"B2094757D568A5F4499F","title":"滨江欣景商务楼B","lon":"121.5002938","lat":"31.22457058","category":"46","category_name":"楼宇","address":"中国上海市黄浦区"},{"poiid":"B2094655D26CA4F54792","title":"绿苑大酒店(西门)","lon":"121.49922","lat":"31.22435","category":"215","category_name":"三星级宾馆","address":"(东门路)外咸瓜街39号"},{"poiid":"B2094654DA6EABF84092","title":"共和园小区","lon":"121.49866","lat":"31.22305","category":"47","category_name":"住宅区","address":"中华路128弄1-4号"},{"poiid":"B2094654DA6EABFA4992","title":"绿苑大酒店","lon":"121.49954","lat":"31.22434","category":"215","category_name":"三星级宾馆","address":"黄浦区东门路外咸瓜街39号(东门路中华路)"},{"poiid":"B2094655D268A6F84492","title":"喜士多绿苑门市","lon":"121.49905","lat":"31.22451","category":"117","category_name":"便民商店/便利店","address":""},{"poiid":"B2094757D464AAFB4193","title":"新外滩酒家 龙园店","lon":"121.501211054","lat":"31.224453793","category":"76","category_name":"上海菜","address":"黄浦区中山南路77号(近十六铺码头)"},{"poiid":"B2094654DA6EABF8409E","title":"芳芳理发店(中华路)","lon":"121.49861","lat":"31.22317","category":"148","category_name":"美容美发店","address":"中华路116"},{"poiid":"B2094654DA6EABFF409B","title":"紫霞幼儿园","lon":"121.49873","lat":"31.22194","category":"57","category_name":"幼儿园","address":"黄浦区中华路195号(近复兴东路)"},{"poiid":"B2094655D26AA7FD439C","title":"玫瑰公主号游轮","lon":"121.50117","lat":"31.22559","category":"247","category_name":"餐饮美食","address":"黄浦区外马路19号十六铺旅游集散中心内(近复兴路)查看地图"},{"poiid":"B2094757D064A0F9449E","title":"名医堂","lon":"121.49637","lat":"31.2248","category":"162","category_name":"医院","address":"黄浦区方浜中路59号(近人民路)"},{"poiid":"B2094654DB69A7FE489C","title":"交银大厦","lon":"121.5019","lat":"31.22428","category":"46","category_name":"楼宇","address":"中山南路99"},{"poiid":"B2094654DA6EABFF409A","title":"上海嘉缘假日宾馆","lon":"121.49838","lat":"31.22249","category":"215","category_name":"三星级宾馆","address":"中华路179号3层"},{"poiid":"B2094757D06AA1FC4999","title":"农业银行信用卡中心","lon":"121.50236511","lat":"31.221599578","category":"46","category_name":"楼宇","address":"上海中山南二路318号新源广场"},{"poiid":"B2094757D168A0F4479D","title":"共和园酒家","lon":"121.49893","lat":"31.22276","category":"260","category_name":"其他","address":"黄浦区中华路132号(近复兴东路)"},{"poiid":"B2094654DA6EABFE4799","title":"快客(中华路)","lon":"121.49774","lat":"31.22403","category":"117","category_name":"便民商店/便利店","address":"中华路67"},{"poiid":"B2094757D165A4F44399","title":"莱福士devil nut","lon":"121.498670638","lat":"31.2217578196","category":"247","category_name":"餐饮美食","address":"上海莱福士四楼"},{"poiid":"B2094655D36DA7F8449C","title":"中山东一路东门路","lon":"121.50145","lat":"31.22407","category":"38","category_name":"公交车站","address":""},{"poiid":"B2094757D66CA2F4499B","title":"姚大哥·焦点婚礼馆","lon":"121.49879","lat":"31.22293","category":"500","category_name":"未知分类","address":"上海黄浦区中华路169弄1号901室东业大厦(近复兴东路南外滩)  "},{"poiid":"B2094757D06EAAFA489F","title":"上海外滩英迪格酒店 (Hotel Indigo)","lon":"121.499735","lat":"31.226432","category":"217","category_name":"旅馆招待所","address":"黄浦区中山东二路585号(近东门路)"},{"poiid":"B2094757D06FA4F8459F","title":"滨江欣景大酒店(Riverview Hotel)","lon":"121.49992806","lat":"31.224301883","category":"76","category_name":"上海菜","address":"黄浦区中山南路76号(会馆弄中山南路)"},{"poiid":"B2094757D06FA7FC4292","title":"浦江游轮","lon":"121.50081","lat":"31.22468","category":"260","category_name":"其他","address":"黄浦区十六铺站－公平路码头(会馆弄中山南路)查看地图"},{"poiid":"B209475CD564A7F84292","title":"上海滩新天地店","lon":"121.47463","lat":"31.22164","category":"119","category_name":"商场","address":"\"太仓路181弄新天地北里15号\r\n\""},{"poiid":"B209475CD564A7F84392","title":"上海滩浦东香格里拉店","lon":"121.50058","lat":"31.23634","category":"119","category_name":"商场","address":"浦东富成路33号香格里拉酒店内大堂层"},{"poiid":"B2094757D068A5FA469B","title":"恰CHAR","lon":"121.50005411","lat":"31.225733464","category":"94","category_name":"西餐厅","address":"黄浦区中山东二路585号外滩英迪格酒店29-31楼(东门路)"},{"poiid":"B2094757D16FA0FF4092","title":"小南国(十六铺店)","lon":"121.500050938","lat":"31.2274259403","category":"76","category_name":"上海菜","address":"黄浦区中山东二路565号A楼(近东门路)"},{"poiid":"B2094654DB69A6F84893","title":"外滩.滨江名人苑","lon":"121.49835","lat":"31.223482","category":"47","category_name":"住宅区","address":"黄浦区中华路88弄"},{"poiid":"B2094757D06FA0F8499E","title":"交通银行上海分行","lon":"121.50114678","lat":"31.225955549","category":"46","category_name":"楼宇","address":"上海中山南路99号"},{"poiid":"B2094757D06AA2FD4298","title":"龙皇酒家","lon":"121.49882273","lat":"31.227382239","category":"72","category_name":"广东菜","address":"黄浦区中山东二路535号十六铺B栋楼(外马路中山东二路)"},{"poiid":"B2094757D068AAF44399","title":"士林华苑","lon":"121.497","lat":"31.2262","category":"47","category_name":"住宅区","address":"上海黄浦区河南南路555弄"},{"poiid":"B2094757D16DA0FB4493","title":"东方国际金融广场","lon":"121.502364","lat":"31.2216","category":"500","category_name":"未知分类","address":"上海中山南路318号"},{"poiid":"B2094655D36DA1F5439B","title":"小东门","lon":"121.49708","lat":"31.22573","category":"38","category_name":"公交车站","address":""},{"poiid":"B2094757D168A0F8489B","title":"fesco adecco","lon":"121.49748523","lat":"31.224477577","category":"500","category_name":"未知分类","address":"上海市中山南路28号久事大厦附楼"},{"poiid":"B2094757D664AAFB479B","title":"上海老街小吃","lon":"121.49814282332","lat":"31.22556929005","category":"68","category_name":"快餐厅","address":"黄浦区方浜中路77号(康家弄四牌楼路)"},{"poiid":"B2094655D268A6F8459A","title":"浦江公馆","lon":"121.49944","lat":"31.222755","category":"47","category_name":"住宅区","address":"中华路168弄"},{"poiid":"B2094757D06FA7FC4898","title":"十六铺面料城","lon":"121.49869","lat":"31.22476","category":"249","category_name":"购物服务","address":"黄浦区东门路168号(近中山东二路)"},{"poiid":"B2094757D06FABF4459F","title":"十六铺公交枢纽站","lon":"121.498995","lat":"31.223048","category":"38","category_name":"公交车站","address":"上海中山东二路新开河路"},{"poiid":"B2094654DA6EABFF429A","title":"上海市十六铺旅游中心","lon":"121.50238","lat":"31.22376","category":"248","category_name":"生活娱乐","address":"中山南路171号"},{"poiid":"B2094757D06AA5FA409A","title":"大块头排挡","lon":"121.49559","lat":"31.22314","category":"76","category_name":"上海菜","address":"黄浦区四牌楼106号(学院路口)"},{"poiid":"B2094750D269A0FD499F","title":"山海亭","lon":"121.497116","lat":"31.223377","category":"500","category_name":"未知分类","address":"河南南路489号"},{"poiid":"B2094757D16BA3FA489E","title":"外滩酒吧","lon":"121.501479738","lat":"31.2253351958","category":"247","category_name":"餐饮美食","address":"上海市中山东二路575号"},{"poiid":"B2094654DA6EA5FA4093","title":"上海老街(人民路)","lon":"121.49656","lat":"31.22521","category":"116","category_name":"特色商业街","address":""},{"poiid":"B2094757D16DA5FB459D","title":"MJ  club","lon":"121.499573738","lat":"31.2269042292","category":"500","category_name":"未知分类","address":"上海市黄浦区中山南二路501号"},{"poiid":"B2094654DA6EABFF419E","title":"上海市市八初级中学","lon":"121.50007","lat":"31.22189","category":"55","category_name":"中学","address":"西姚家弄48"},{"poiid":"B2094750DA6DA1F4419B","title":"上海泰康路 田子坊","lon":"121.500495","lat":"31.225341","category":"248","category_name":"生活娱乐","address":null},{"poiid":"B2094757D568AAFF469D","title":"金外滩国际广场","lon":"121.5010639","lat":"31.22469278","category":"46","category_name":"楼宇","address":"黄浦中山南路,复兴路口"},{"poiid":"B2094654DA6EABF84198","title":"圣莲大厦","lon":"121.49686","lat":"31.222799","category":"47","category_name":"住宅区","address":"上海市黄浦区学院路28弄"},{"poiid":"B2094655D268A6F84598","title":"东业大厦","lon":"121.49831","lat":"31.222387","category":"47","category_name":"住宅区","address":"上海市黄浦区中华路185号"},{"poiid":"B2094655D26FA5FB489E","title":"久事大厦(西门)","lon":"121.49905","lat":"31.22473","category":"48","category_name":"楼宇大门","address":"中山南路28号"},{"poiid":"B2094655D26BA5FA4098","title":"聚汇茶体验","lon":"121.49844","lat":"31.22365","category":"66","category_name":"茶艺馆","address":"中华路50-5"},{"poiid":"B2094654DA6EABFF439C","title":"久事大厦会议中心","lon":"121.49965","lat":"31.22504","category":"185","category_name":"会展中心","address":"中山南路28号久事大厦30层"},{"poiid":"B2094757D568A5F4499F","title":"滨江欣景商务楼B","lon":"121.5002938","lat":"31.22457058","category":"46","category_name":"楼宇","address":"中国上海市黄浦区"},{"poiid":"B2094655D26CA4F54792","title":"绿苑大酒店(西门)","lon":"121.49922","lat":"31.22435","category":"215","category_name":"三星级宾馆","address":"(东门路)外咸瓜街39号"},{"poiid":"B2094654DA6EABF84092","title":"共和园小区","lon":"121.49866","lat":"31.22305","category":"47","category_name":"住宅区","address":"中华路128弄1-4号"},{"poiid":"B2094654DA6EABFA4992","title":"绿苑大酒店","lon":"121.49954","lat":"31.22434","category":"215","category_name":"三星级宾馆","address":"黄浦区东门路外咸瓜街39号(东门路中华路)"},{"poiid":"B2094655D268A6F84492","title":"喜士多绿苑门市","lon":"121.49905","lat":"31.22451","category":"117","category_name":"便民商店/便利店","address":""},{"poiid":"B2094757D464AAFB4193","title":"新外滩酒家 龙园店","lon":"121.501211054","lat":"31.224453793","category":"76","category_name":"上海菜","address":"黄浦区中山南路77号(近十六铺码头)"},{"poiid":"B2094654DA6EABF8409E","title":"芳芳理发店(中华路)","lon":"121.49861","lat":"31.22317","category":"148","category_name":"美容美发店","address":"中华路116"},{"poiid":"B2094654DA6EABFF409B","title":"紫霞幼儿园","lon":"121.49873","lat":"31.22194","category":"57","category_name":"幼儿园","address":"黄浦区中华路195号(近复兴东路)"},{"poiid":"B2094655D26AA7FD439C","title":"玫瑰公主号游轮","lon":"121.50117","lat":"31.22559","category":"247","category_name":"餐饮美食","address":"黄浦区外马路19号十六铺旅游集散中心内(近复兴路)查看地图"},{"poiid":"B2094757D064A0F9449E","title":"名医堂","lon":"121.49637","lat":"31.2248","category":"162","category_name":"医院","address":"黄浦区方浜中路59号(近人民路)"},{"poiid":"B2094654DB69A7FE489C","title":"交银大厦","lon":"121.5019","lat":"31.22428","category":"46","category_name":"楼宇","address":"中山南路99"},{"poiid":"B2094654DA6EABFF409A","title":"上海嘉缘假日宾馆","lon":"121.49838","lat":"31.22249","category":"215","category_name":"三星级宾馆","address":"中华路179号3层"},{"poiid":"B2094757D06AA1FC4999","title":"农业银行信用卡中心","lon":"121.50236511","lat":"31.221599578","category":"46","category_name":"楼宇","address":"上海中山南二路318号新源广场"},{"poiid":"B2094757D168A0F4479D","title":"共和园酒家","lon":"121.49893","lat":"31.22276","category":"260","category_name":"其他","address":"黄浦区中华路132号(近复兴东路)"},{"poiid":"B2094654DA6EABFE4799","title":"快客(中华路)","lon":"121.49774","lat":"31.22403","category":"117","category_name":"便民商店/便利店","address":"中华路67"},{"poiid":"B2094757D165A4F44399","title":"莱福士devil nut","lon":"121.498670638","lat":"31.2217578196","category":"247","category_name":"餐饮美食","address":"上海莱福士四楼"},{"poiid":"B2094655D36DA7F8449C","title":"中山东一路东门路","lon":"121.50145","lat":"31.22407","category":"38","category_name":"公交车站","address":""},{"poiid":"B2094757D66CA2F4499B","title":"姚大哥·焦点婚礼馆","lon":"121.49879","lat":"31.22293","category":"500","category_name":"未知分类","address":"上海黄浦区中华路169弄1号901室东业大厦(近复兴东路南外滩)  "},{"poiid":"B2094757D06EAAFA489F","title":"上海外滩英迪格酒店 (Hotel Indigo)","lon":"121.499735","lat":"31.226432","category":"217","category_name":"旅馆招待所","address":"黄浦区中山东二路585号(近东门路)"},{"poiid":"B2094757D06FA4F8459F","title":"滨江欣景大酒店(Riverview Hotel)","lon":"121.49992806","lat":"31.224301883","category":"76","category_name":"上海菜","address":"黄浦区中山南路76号(会馆弄中山南路)"},{"poiid":"B2094757D06FA7FC4292","title":"浦江游轮","lon":"121.50081","lat":"31.22468","category":"260","category_name":"其他","address":"黄浦区十六铺站－公平路码头(会馆弄中山南路)查看地图"},{"poiid":"B209475CD564A7F84292","title":"上海滩新天地店","lon":"121.47463","lat":"31.22164","category":"119","category_name":"商场","address":"\"太仓路181弄新天地北里15号\r\n\""},{"poiid":"B209475CD564A7F84392","title":"上海滩浦东香格里拉店","lon":"121.50058","lat":"31.23634","category":"119","category_name":"商场","address":"浦东富成路33号香格里拉酒店内大堂层"},{"poiid":"B2094757D068A5FA469B","title":"恰CHAR","lon":"121.50005411","lat":"31.225733464","category":"94","category_name":"西餐厅","address":"黄浦区中山东二路585号外滩英迪格酒店29-31楼(东门路)"},{"poiid":"B2094757D16FA0FF4092","title":"小南国(十六铺店)","lon":"121.500050938","lat":"31.2274259403","category":"76","category_name":"上海菜","address":"黄浦区中山东二路565号A楼(近东门路)"},{"poiid":"B2094654DB69A6F84893","title":"外滩.滨江名人苑","lon":"121.49835","lat":"31.223482","category":"47","category_name":"住宅区","address":"黄浦区中华路88弄"},{"poiid":"B2094757D06FA0F8499E","title":"交通银行上海分行","lon":"121.50114678","lat":"31.225955549","category":"46","category_name":"楼宇","address":"上海中山南路99号"},{"poiid":"B2094757D06AA2FD4298","title":"龙皇酒家","lon":"121.49882273","lat":"31.227382239","category":"72","category_name":"广东菜","address":"黄浦区中山东二路535号十六铺B栋楼(外马路中山东二路)"},{"poiid":"B2094757D068AAF44399","title":"士林华苑","lon":"121.497","lat":"31.2262","category":"47","category_name":"住宅区","address":"上海黄浦区河南南路555弄"},{"poiid":"B2094757D16DA0FB4493","title":"东方国际金融广场","lon":"121.502364","lat":"31.2216","category":"500","category_name":"未知分类","address":"上海中山南路318号"},{"poiid":"B2094655D36DA1F5439B","title":"小东门","lon":"121.49708","lat":"31.22573","category":"38","category_name":"公交车站","address":""},{"poiid":"B2094757D168A0F8489B","title":"fesco adecco","lon":"121.49748523","lat":"31.224477577","category":"500","category_name":"未知分类","address":"上海市中山南路28号久事大厦附楼"},{"poiid":"B2094757D664AAFB479B","title":"上海老街小吃","lon":"121.49814282332","lat":"31.22556929005","category":"68","category_name":"快餐厅","address":"黄浦区方浜中路77号(康家弄四牌楼路)"},{"poiid":"B2094655D268A6F8459A","title":"浦江公馆","lon":"121.49944","lat":"31.222755","category":"47","category_name":"住宅区","address":"中华路168弄"},{"poiid":"B2094757D06FA7FC4898","title":"十六铺面料城","lon":"121.49869","lat":"31.22476","category":"249","category_name":"购物服务","address":"黄浦区东门路168号(近中山东二路)"},{"poiid":"B2094757D06FABF4459F","title":"十六铺公交枢纽站","lon":"121.498995","lat":"31.223048","category":"38","category_name":"公交车站","address":"上海中山东二路新开河路"},{"poiid":"B2094654DA6EABFF429A","title":"上海市十六铺旅游中心","lon":"121.50238","lat":"31.22376","category":"248","category_name":"生活娱乐","address":"中山南路171号"},{"poiid":"B2094757D06AA5FA409A","title":"大块头排挡","lon":"121.49559","lat":"31.22314","category":"76","category_name":"上海菜","address":"黄浦区四牌楼106号(学院路口)"},{"poiid":"B2094750D269A0FD499F","title":"山海亭","lon":"121.497116","lat":"31.223377","category":"500","category_name":"未知分类","address":"河南南路489号"},{"poiid":"B2094757D16BA3FA489E","title":"外滩酒吧","lon":"121.501479738","lat":"31.2253351958","category":"247","category_name":"餐饮美食","address":"上海市中山东二路575号"},{"poiid":"B2094654DA6EA5FA4093","title":"上海老街(人民路)","lon":"121.49656","lat":"31.22521","category":"116","category_name":"特色商业街","address":""},{"poiid":"B2094757D16DA5FB459D","title":"MJ  club","lon":"121.499573738","lat":"31.2269042292","category":"500","category_name":"未知分类","address":"上海市黄浦区中山南二路501号"},{"poiid":"B2094654DA6EABFF419E","title":"上海市市八初级中学","lon":"121.50007","lat":"31.22189","category":"55","category_name":"中学","address":"西姚家弄48"},{"poiid":"B2094750DA6DA1F4419B","title":"上海泰康路 田子坊","lon":"121.500495","lat":"31.225341","category":"248","category_name":"生活娱乐","address":null},{"poiid":"B2094757D568AAFF469D","title":"金外滩国际广场","lon":"121.5010639","lat":"31.22469278","category":"46","category_name":"楼宇","address":"黄浦中山南路,复兴路口"},{"poiid":"B2094654DA6EABF84198","title":"圣莲大厦","lon":"121.49686","lat":"31.222799","category":"47","category_name":"住宅区","address":"上海市黄浦区学院路28弄"},{"poiid":"B2094655D268A6F84598","title":"东业大厦","lon":"121.49831","lat":"31.222387","category":"47","category_name":"住宅区","address":"上海市黄浦区中华路185号"},{"poiid":"B2094655D26FA5FB489E","title":"久事大厦(西门)","lon":"121.49905","lat":"31.22473","category":"48","category_name":"楼宇大门","address":"中山南路28号"},{"poiid":"B2094655D26BA5FA4098","title":"聚汇茶体验","lon":"121.49844","lat":"31.22365","category":"66","category_name":"茶艺馆","address":"中华路50-5"},{"poiid":"B2094654DA6EABFF439C","title":"久事大厦会议中心","lon":"121.49965","lat":"31.22504","category":"185","category_name":"会展中心","address":"中山南路28号久事大厦30层"},{"poiid":"B2094757D568A5F4499F","title":"滨江欣景商务楼B","lon":"121.5002938","lat":"31.22457058","category":"46","category_name":"楼宇","address":"中国上海市黄浦区"},{"poiid":"B2094655D26CA4F54792","title":"绿苑大酒店(西门)","lon":"121.49922","lat":"31.22435","category":"215","category_name":"三星级宾馆","address":"(东门路)外咸瓜街39号"},{"poiid":"B2094654DA6EABF84092","title":"共和园小区","lon":"121.49866","lat":"31.22305","category":"47","category_name":"住宅区","address":"中华路128弄1-4号"},{"poiid":"B2094654DA6EABFA4992","title":"绿苑大酒店","lon":"121.49954","lat":"31.22434","category":"215","category_name":"三星级宾馆","address":"黄浦区东门路外咸瓜街39号(东门路中华路)"},{"poiid":"B2094655D268A6F84492","title":"喜士多绿苑门市","lon":"121.49905","lat":"31.22451","category":"117","category_name":"便民商店/便利店","address":""},{"poiid":"B2094757D464AAFB4193","title":"新外滩酒家 龙园店","lon":"121.501211054","lat":"31.224453793","category":"76","category_name":"上海菜","address":"黄浦区中山南路77号(近十六铺码头)"},{"poiid":"B2094654DA6EABF8409E","title":"芳芳理发店(中华路)","lon":"121.49861","lat":"31.22317","category":"148","category_name":"美容美发店","address":"中华路116"},{"poiid":"B2094654DA6EABFF409B","title":"紫霞幼儿园","lon":"121.49873","lat":"31.22194","category":"57","category_name":"幼儿园","address":"黄浦区中华路195号(近复兴东路)"},{"poiid":"B2094655D26AA7FD439C","title":"玫瑰公主号游轮","lon":"121.50117","lat":"31.22559","category":"247","category_name":"餐饮美食","address":"黄浦区外马路19号十六铺旅游集散中心内(近复兴路)查看地图"},{"poiid":"B2094757D064A0F9449E","title":"名医堂","lon":"121.49637","lat":"31.2248","category":"162","category_name":"医院","address":"黄浦区方浜中路59号(近人民路)"},{"poiid":"B2094654DB69A7FE489C","title":"交银大厦","lon":"121.5019","lat":"31.22428","category":"46","category_name":"楼宇","address":"中山南路99"},{"poiid":"B2094654DA6EABFF409A","title":"上海嘉缘假日宾馆","lon":"121.49838","lat":"31.22249","category":"215","category_name":"三星级宾馆","address":"中华路179号3层"},{"poiid":"B2094757D06AA1FC4999","title":"农业银行信用卡中心","lon":"121.50236511","lat":"31.221599578","category":"46","category_name":"楼宇","address":"上海中山南二路318号新源广场"},{"poiid":"B2094757D168A0F4479D","title":"共和园酒家","lon":"121.49893","lat":"31.22276","category":"260","category_name":"其他","address":"黄浦区中华路132号(近复兴东路)"},{"poiid":"B2094654DA6EABFE4799","title":"快客(中华路)","lon":"121.49774","lat":"31.22403","category":"117","category_name":"便民商店/便利店","address":"中华路67"},{"poiid":"B2094757D165A4F44399","title":"莱福士devil nut","lon":"121.498670638","lat":"31.2217578196","category":"247","category_name":"餐饮美食","address":"上海莱福士四楼"},{"poiid":"B2094655D36DA7F8449C","title":"中山东一路东门路","lon":"121.50145","lat":"31.22407","category":"38","category_name":"公交车站","address":""},{"poiid":"B2094757D66CA2F4499B","title":"姚大哥·焦点婚礼馆","lon":"121.49879","lat":"31.22293","category":"500","category_name":"未知分类","address":"上海黄浦区中华路169弄1号901室东业大厦(近复兴东路南外滩)  "},{"poiid":"B2094757D06EAAFA489F","title":"上海外滩英迪格酒店 (Hotel Indigo)","lon":"121.499735","lat":"31.226432","category":"217","category_name":"旅馆招待所","address":"黄浦区中山东二路585号(近东门路)"},{"poiid":"B2094757D06FA4F8459F","title":"滨江欣景大酒店(Riverview Hotel)","lon":"121.49992806","lat":"31.224301883","category":"76","category_name":"上海菜","address":"黄浦区中山南路76号(会馆弄中山南路)"},{"poiid":"B2094757D06FA7FC4292","title":"浦江游轮","lon":"121.50081","lat":"31.22468","category":"260","category_name":"其他","address":"黄浦区十六铺站－公平路码头(会馆弄中山南路)查看地图"},{"poiid":"B209475CD564A7F84292","title":"上海滩新天地店","lon":"121.47463","lat":"31.22164","category":"119","category_name":"商场","address":"\"太仓路181弄新天地北里15号\r\n\""},{"poiid":"B209475CD564A7F84392","title":"上海滩浦东香格里拉店","lon":"121.50058","lat":"31.23634","category":"119","category_name":"商场","address":"浦东富成路33号香格里拉酒店内大堂层"},{"poiid":"B2094757D068A5FA469B","title":"恰CHAR","lon":"121.50005411","lat":"31.225733464","category":"94","category_name":"西餐厅","address":"黄浦区中山东二路585号外滩英迪格酒店29-31楼(东门路)"},{"poiid":"B2094757D16FA0FF4092","title":"小南国(十六铺店)","lon":"121.500050938","lat":"31.2274259403","category":"76","category_name":"上海菜","address":"黄浦区中山东二路565号A楼(近东门路)"},{"poiid":"B2094654DB69A6F84893","title":"外滩.滨江名人苑","lon":"121.49835","lat":"31.223482","category":"47","category_name":"住宅区","address":"黄浦区中华路88弄"},{"poiid":"B2094757D06FA0F8499E","title":"交通银行上海分行","lon":"121.50114678","lat":"31.225955549","category":"46","category_name":"楼宇","address":"上海中山南路99号"},{"poiid":"B2094757D06AA2FD4298","title":"龙皇酒家","lon":"121.49882273","lat":"31.227382239","category":"72","category_name":"广东菜","address":"黄浦区中山东二路535号十六铺B栋楼(外马路中山东二路)"},{"poiid":"B2094757D068AAF44399","title":"士林华苑","lon":"121.497","lat":"31.2262","category":"47","category_name":"住宅区","address":"上海黄浦区河南南路555弄"},{"poiid":"B2094757D16DA0FB4493","title":"东方国际金融广场","lon":"121.502364","lat":"31.2216","category":"500","category_name":"未知分类","address":"上海中山南路318号"},{"poiid":"B2094655D36DA1F5439B","title":"小东门","lon":"121.49708","lat":"31.22573","category":"38","category_name":"公交车站","address":""},{"poiid":"B2094757D168A0F8489B","title":"fesco adecco","lon":"121.49748523","lat":"31.224477577","category":"500","category_name":"未知分类","address":"上海市中山南路28号久事大厦附楼"},{"poiid":"B2094757D664AAFB479B","title":"上海老街小吃","lon":"121.49814282332","lat":"31.22556929005","category":"68","category_name":"快餐厅","address":"黄浦区方浜中路77号(康家弄四牌楼路)"},{"poiid":"B2094655D268A6F8459A","title":"浦江公馆","lon":"121.49944","lat":"31.222755","category":"47","category_name":"住宅区","address":"中华路168弄"},{"poiid":"B2094757D06FA7FC4898","title":"十六铺面料城","lon":"121.49869","lat":"31.22476","category":"249","category_name":"购物服务","address":"黄浦区东门路168号(近中山东二路)"},{"poiid":"B2094757D06FABF4459F","title":"十六铺公交枢纽站","lon":"121.498995","lat":"31.223048","category":"38","category_name":"公交车站","address":"上海中山东二路新开河路"},{"poiid":"B2094654DA6EABFF429A","title":"上海市十六铺旅游中心","lon":"121.50238","lat":"31.22376","category":"248","category_name":"生活娱乐","address":"中山南路171号"},{"poiid":"B2094757D06AA5FA409A","title":"大块头排挡","lon":"121.49559","lat":"31.22314","category":"76","category_name":"上海菜","address":"黄浦区四牌楼106号(学院路口)"},{"poiid":"B2094750D269A0FD499F","title":"山海亭","lon":"121.497116","lat":"31.223377","category":"500","category_name":"未知分类","address":"河南南路489号"},{"poiid":"B2094757D16BA3FA489E","title":"外滩酒吧","lon":"121.501479738","lat":"31.2253351958","category":"247","category_name":"餐饮美食","address":"上海市中山东二路575号"},{"poiid":"B2094654DA6EA5FA4093","title":"上海老街(人民路)","lon":"121.49656","lat":"31.22521","category":"116","category_name":"特色商业街","address":""},{"poiid":"B2094757D16DA5FB459D","title":"MJ  club","lon":"121.499573738","lat":"31.2269042292","category":"500","category_name":"未知分类","address":"上海市黄浦区中山南二路501号"},{"poiid":"B2094654DA6EABFF419E","title":"上海市市八初级中学","lon":"121.50007","lat":"31.22189","category":"55","category_name":"中学","address":"西姚家弄48"},{"poiid":"B2094750DA6DA1F4419B","title":"上海泰康路 田子坊","lon":"121.500495","lat":"31.225341","category":"248","category_name":"生活娱乐","address":null},{"poiid":"B2094757D568AAFF469D","title":"金外滩国际广场","lon":"121.5010639","lat":"31.22469278","category":"46","category_name":"楼宇","address":"黄浦中山南路,复兴路口"},{"poiid":"B2094654DA6EABF84198","title":"圣莲大厦","lon":"121.49686","lat":"31.222799","category":"47","category_name":"住宅区","address":"上海市黄浦区学院路28弄"},{"poiid":"B2094655D268A6F84598","title":"东业大厦","lon":"121.49831","lat":"31.222387","category":"47","category_name":"住宅区","address":"上海市黄浦区中华路185号"},{"poiid":"B2094655D26FA5FB489E","title":"久事大厦(西门)","lon":"121.49905","lat":"31.22473","category":"48","category_name":"楼宇大门","address":"中山南路28号"},{"poiid":"B2094655D26BA5FA4098","title":"聚汇茶体验","lon":"121.49844","lat":"31.22365","category":"66","category_name":"茶艺馆","address":"中华路50-5"},{"poiid":"B2094654DA6EABFF439C","title":"久事大厦会议中心","lon":"121.49965","lat":"31.22504","category":"185","category_name":"会展中心","address":"中山南路28号久事大厦30层"},{"poiid":"B2094757D568A5F4499F","title":"滨江欣景商务楼B","lon":"121.5002938","lat":"31.22457058","category":"46","category_name":"楼宇","address":"中国上海市黄浦区"},{"poiid":"B2094655D26CA4F54792","title":"绿苑大酒店(西门)","lon":"121.49922","lat":"31.22435","category":"215","category_name":"三星级宾馆","address":"(东门路)外咸瓜街39号"},{"poiid":"B2094654DA6EABF84092","title":"共和园小区","lon":"121.49866","lat":"31.22305","category":"47","category_name":"住宅区","address":"中华路128弄1-4号"},{"poiid":"B2094654DA6EABFA4992","title":"绿苑大酒店","lon":"121.49954","lat":"31.22434","category":"215","category_name":"三星级宾馆","address":"黄浦区东门路外咸瓜街39号(东门路中华路)"},{"poiid":"B2094655D268A6F84492","title":"喜士多绿苑门市","lon":"121.49905","lat":"31.22451","category":"117","category_name":"便民商店/便利店","address":""},{"poiid":"B2094757D464AAFB4193","title":"新外滩酒家 龙园店","lon":"121.501211054","lat":"31.224453793","category":"76","category_name":"上海菜","address":"黄浦区中山南路77号(近十六铺码头)"},{"poiid":"B2094654DA6EABF8409E","title":"芳芳理发店(中华路)","lon":"121.49861","lat":"31.22317","category":"148","category_name":"美容美发店","address":"中华路116"},{"poiid":"B2094654DA6EABFF409B","title":"紫霞幼儿园","lon":"121.49873","lat":"31.22194","category":"57","category_name":"幼儿园","address":"黄浦区中华路195号(近复兴东路)"},{"poiid":"B2094655D26AA7FD439C","title":"玫瑰公主号游轮","lon":"121.50117","lat":"31.22559","category":"247","category_name":"餐饮美食","address":"黄浦区外马路19号十六铺旅游集散中心内(近复兴路)查看地图"},{"poiid":"B2094757D064A0F9449E","title":"名医堂","lon":"121.49637","lat":"31.2248","category":"162","category_name":"医院","address":"黄浦区方浜中路59号(近人民路)"},{"poiid":"B2094654DB69A7FE489C","title":"交银大厦","lon":"121.5019","lat":"31.22428","category":"46","category_name":"楼宇","address":"中山南路99"},{"poiid":"B2094654DA6EABFF409A","title":"上海嘉缘假日宾馆","lon":"121.49838","lat":"31.22249","category":"215","category_name":"三星级宾馆","address":"中华路179号3层"},{"poiid":"B2094757D06AA1FC4999","title":"农业银行信用卡中心","lon":"121.50236511","lat":"31.221599578","category":"46","category_name":"楼宇","address":"上海中山南二路318号新源广场"},{"poiid":"B2094757D168A0F4479D","title":"共和园酒家","lon":"121.49893","lat":"31.22276","category":"260","category_name":"其他","address":"黄浦区中华路132号(近复兴东路)"},{"poiid":"B2094654DA6EABFE4799","title":"快客(中华路)","lon":"121.49774","lat":"31.22403","category":"117","category_name":"便民商店/便利店","address":"中华路67"},{"poiid":"B2094757D165A4F44399","title":"莱福士devil nut","lon":"121.498670638","lat":"31.2217578196","category":"247","category_name":"餐饮美食","address":"上海莱福士四楼"},{"poiid":"B2094655D36DA7F8449C","title":"中山东一路东门路","lon":"121.50145","lat":"31.22407","category":"38","category_name":"公交车站","address":""},{"poiid":"B2094757D66CA2F4499B","title":"姚大哥·焦点婚礼馆","lon":"121.49879","lat":"31.22293","category":"500","category_name":"未知分类","address":"上海黄浦区中华路169弄1号901室东业大厦(近复兴东路南外滩)  "}]