[{"poiid":"B2094757D06FA2FA429B","title":"上海国际时尚中心","lon":"121.55726862","lat":"31.270837313","category":"260","category_name":"其他","address":"杨浦区杨树浦路2866号(近内江路)"},{"poiid":"B2094750D76CA3FC4492","title":"金钱豹(杨树浦路店)","lon":"121.557","lat":"31.2714","category":"87","category_name":"特色／地方风味餐厅","address":"杨树浦路2866号(近内江路6月开业)"},{"poiid":"B2094654D56FA7F44298","title":"上海市杨浦区中心医院","lon":"121.55075","lat":"31.27167","category":"162","category_name":"医院","address":"杨浦区腾越路450号(海州路腾越路)"},{"poiid":"B2094752D36BA0F8479F","title":"星巴克(杨树浦路店)","lon":"121.557357","lat":"31.271385","category":"247","category_name":"餐饮美食","address":"杨浦区杨树浦路2866号(近内江路)"},{"poiid":"B2094757D068ABFD409B","title":"上海双拥大厦","lon":"121.564009619","lat":"31.26092478","category":"46","category_name":"楼宇","address":"浦东新区浦东大道2601号(近居家桥路)"},{"poiid":"B2094757D06BA5FE4799","title":"定海桥轮渡站","lon":"121.56264308","lat":"31.272182024","category":"500","category_name":"未知分类","address":"上海共青路4号"},{"poiid":"B2094757D06FA5FD439C","title":"定海路","lon":"121.553181","lat":"31.27667","category":"500","category_name":"未知分类","address":"上海定海路"},{"poiid":"B2094750DB6DA0F5409A","title":"米瑟 MIXER","lon":"121.557283","lat":"31.271839","category":"67","category_name":"甜品店","address":"杨浦区杨树浦路2866号国际时尚中心(近内江路)"},{"poiid":"B2094751DA6AAAF54099","title":"星巴克时尚中心店","lon":"121.558759","lat":"31.271","category":"247","category_name":"餐饮美食","address":null},{"poiid":"B2094757D06FA5FB4598","title":"中轩丽苑","lon":"121.55443399","lat":"31.278625913","category":"47","category_name":"住宅区","address":"上海平凉路2625弄"},{"poiid":"B2094757D16DABF94099","title":"定海桥","lon":"121.56081333","lat":"31.271165283","category":"500","category_name":"未知分类","address":"上海杨浦区定海路"},{"poiid":"B2094655D36DA0F9429A","title":"杨树浦路内江路","lon":"121.55652","lat":"31.2711","category":"38","category_name":"公交车站","address":""},{"poiid":"B2094757D06FA2FE449A","title":"军工路隧道","lon":"121.564936863","lat":"31.2710545852","category":"260","category_name":"其他","address":"上海市杨浦区军工路-浦东新区金桥路"},{"poiid":"B2094654DB6BA2F84393","title":"上海市杨浦区中心医院门诊","lon":"121.54994","lat":"31.27151","category":"162","category_name":"医院","address":"腾越路450号"},{"poiid":"B2094757D06AA5FD459A","title":"杨浦区中心医院急诊室","lon":"121.549722203","lat":"31.2726692692","category":"902","category_name":"楼宇机构","address":null},{"poiid":"B2094757D16BA6FC429E","title":"上海国家保密局","lon":"121.55471453","lat":"31.269237939","category":"247","category_name":"餐饮美食","address":"上海凉州路381号"},{"poiid":"B2094752D26DA6FF4599","title":"珍得巧克力剧院","lon":"121.55661","lat":"31.2713","category":"67","category_name":"甜品店","address":"杨浦区杨树浦路2866号上海国际时尚中心内(近内江路)"},{"poiid":"B2094750D26FA5FC499D","title":"阁楼足球会所","lon":"121.554924","lat":"31.271301","category":"248","category_name":"生活娱乐","address":"杨浦区贵阳路38号(近杨树浦路)"},{"poiid":"B2094753D26EA6F44699","title":"金星舞蹈团","lon":"121.559699","lat":"31.271037","category":"500","category_name":"未知分类","address":"上海市 杨浦区杨树浦路2866号"},{"poiid":"B2094750D56AA0FC479C","title":"东外滩1号","lon":"121.554301","lat":"31.273948","category":"47","category_name":"住宅区","address":"杨浦区内江路16弄(近杨树浦路)"},{"poiid":"B2094757D068A7FC439B","title":"源泰食品加工生产园区","lon":"121.557941789","lat":"31.270738764","category":"500","category_name":"未知分类","address":"上海波阳路290号"},{"poiid":"B2094757D66DAAF4409F","title":"同濟大學附屬楊浦中心醫院","lon":"121.554519339","lat":"31.2694552445","category":"500","category_name":"未知分类","address":"上海楊浦區隆昌路"},{"poiid":"B2094750DB6DA1FC4293","title":"杨浦 奥特莱斯","lon":"121.55368","lat":"31.272339","category":"249","category_name":"购物服务","address":"杨树浦路"},{"poiid":"B2094654D56FA6FC449A","title":"上海第十七棉纺织总厂","lon":"121.55752","lat":"31.27144","category":"263","category_name":"公司","address":"杨树浦路2866"},{"poiid":"B2094655D26BA5FF499A","title":"裕康里(东南门)","lon":"121.5562","lat":"31.27108","category":"47","category_name":"住宅区","address":""},{"poiid":"B2094655D26BAAFC489A","title":"香樟苑(西南门)","lon":"121.557","lat":"31.2717","category":"47","category_name":"住宅区","address":""},{"poiid":"B2094757D164A7FB459F","title":"杨树浦路隆昌路","lon":"121.553443903","lat":"31.2691503957","category":"47","category_name":"住宅区","address":"上海杨树浦路2569弄"},{"poiid":"B2094655D264AAFC459E","title":"裕康里","lon":"121.55602","lat":"31.27126","category":"47","category_name":"住宅区","address":""},{"poiid":"B2094654D568A2F4459C","title":"可的(复兴岛大酒店南)","lon":"121.56236","lat":"31.27213","category":"117","category_name":"便民商店/便利店","address":""},{"poiid":"B2094655D268ABFE409F","title":"杨浦定海开业园区","lon":"121.55811","lat":"31.27267","category":"47","category_name":"住宅区","address":"杨浦区杨树浦路2893"},{"poiid":"B2094655D26BA4FF439F","title":"香樟苑","lon":"121.55647","lat":"31.27227","category":"47","category_name":"住宅区","address":""},{"poiid":"B2094757D068A6F8459D","title":"金桥轮渡站","lon":"121.56765957","lat":"31.269204681","category":"251","category_name":"出行住宿","address":"上海金桥路1号"},{"poiid":"B2094751DA65A4F5479E","title":"星巴克","lon":"121.556102","lat":"31.274213","category":"247","category_name":"餐饮美食","address":"杨树浦路店"},{"poiid":"B2094757D068A6FD4998","title":"益民小区","lon":"121.55239","lat":"31.277092","category":"47","category_name":"住宅区","address":"上海平凉路2545弄"},{"poiid":"B2094655D26FA7F8439C","title":"阳光园(西南门)","lon":"121.55809","lat":"31.27313","category":"47","category_name":"住宅区","address":"定海路150"},{"poiid":"B2094654D568A3F94198","title":"阳光园","lon":"121.55811","lat":"31.27329","category":"47","category_name":"住宅区","address":"定海路150"},{"poiid":"B2094655D26DABFE479C","title":"定海路170弄小区","lon":"121.55779","lat":"31.27389","category":"47","category_name":"住宅区","address":"定海路170弄"},{"poiid":"B2094654D568A3F8499A","title":"好德便利No.725","lon":"121.55956","lat":"31.27422","category":"117","category_name":"便民商店/便利店","address":"杨树浦路3075"},{"poiid":"B2094757D068A4FE4692","title":"平凉路第四小学","lon":"121.557","lat":"31.27798","category":"56","category_name":"小学","address":"杨浦区平凉路2767弄5号(近军工路)"},{"poiid":"B2094757D069A5FF459A","title":"上房金丰苑","lon":"121.569","lat":"31.266","category":"47","category_name":"住宅区","address":"上海市浦东新区浦东大道2567号"},{"poiid":"B2094654D568A3F8499D","title":"杨树浦路3061弄住宅小区(东门)","lon":"121.55948","lat":"31.27404","category":"47","category_name":"住宅区","address":"杨树浦路3061弄"},{"poiid":"B2094757D16CA0F44193","title":"东外滩一号","lon":"121.5498301","lat":"31.271440443","category":"500","category_name":"未知分类","address":"上海市杨浦区内江路(近杨树浦路)"},{"poiid":"B2094655D26CA3FC459F","title":"上海五州轴承座厂","lon":"121.55537","lat":"31.27069","category":"263","category_name":"公司","address":"贵阳路30弄2号"},{"poiid":"B2094655D26FA6F5429E","title":"金茂花园","lon":"121.558914","lat":"31.259183","category":"47","category_name":"住宅区","address":"浦东上海市浦东大道2515"},{"poiid":"B2094655D26CA6F8429C","title":"定海路170弄小区(西南门)","lon":"121.55743","lat":"31.27363","category":"47","category_name":"住宅区","address":"定海路170弄"},{"poiid":"B2094654D568A2FB4792","title":"中国石油化工股份有限公司上海润滑油销售分公司","lon":"121.55895","lat":"31.273","category":"263","category_name":"公司","address":"杨树浦路3024"},{"poiid":"B2094757D16BAAFC489D","title":"老公家","lon":"121.55514533","lat":"31.270516268","category":"500","category_name":"未知分类","address":"海洲路105弄"},{"poiid":"B2094757D66CABFD409F","title":"维络城嘉茂七宝购物广场体验站","lon":"121.56043613","lat":"31.273314433","category":"500","category_name":"未知分类","address":"上海闵行区七莘路3655号嘉茂七宝购物广场正门入口右侧"},{"poiid":"B2094757D069A6F9479E","title":"靛卧阁","lon":"121.5535736","lat":"31.272186279","category":"46","category_name":"楼宇","address":"上海靛苑深处"},{"poiid":"B2094757D065A3F5499B","title":"黄浦江游轮","lon":"121.55846688","lat":"31.26314064","category":"247","category_name":"餐饮美食","address":"上海黄浦江上"},{"poiid":"B2094757D06FA2FA429B","title":"上海国际时尚中心","lon":"121.55726862","lat":"31.270837313","category":"260","category_name":"其他","address":"杨浦区杨树浦路2866号(近内江路)"},{"poiid":"B2094750D76CA3FC4492","title":"金钱豹(杨树浦路店)","lon":"121.557","lat":"31.2714","category":"87","category_name":"特色／地方风味餐厅","address":"杨树浦路2866号(近内江路6月开业)"},{"poiid":"B2094654D56FA7F44298","title":"上海市杨浦区中心医院","lon":"121.55075","lat":"31.27167","category":"162","category_name":"医院","address":"杨浦区腾越路450号(海州路腾越路)"},{"poiid":"B2094752D36BA0F8479F","title":"星巴克(杨树浦路店)","lon":"121.557357","lat":"31.271385","category":"247","category_name":"餐饮美食","address":"杨浦区杨树浦路2866号(近内江路)"},{"poiid":"B2094757D068ABFD409B","title":"上海双拥大厦","lon":"121.564009619","lat":"31.26092478","category":"46","category_name":"楼宇","address":"浦东新区浦东大道2601号(近居家桥路)"},{"poiid":"B2094757D06BA5FE4799","title":"定海桥轮渡站","lon":"121.56264308","lat":"31.272182024","category":"500","category_name":"未知分类","address":"上海共青路4号"},{"poiid":"B2094757D06FA5FD439C","title":"定海路","lon":"121.553181","lat":"31.27667","category":"500","category_name":"未知分类","address":"上海定海路"},{"poiid":"B2094750DB6DA0F5409A","title":"米瑟 MIXER","lon":"121.557283","lat":"31.271839","category":"67","category_name":"甜品店","address":"杨浦区杨树浦路2866号国际时尚中心(近内江路)"},{"poiid":"B2094751DA6AAAF54099","title":"星巴克时尚中心店","lon":"121.558759","lat":"31.271","category":"247","category_name":"餐饮美食","address":null},{"poiid":"B2094757D06FA5FB4598","title":"中轩丽苑","lon":"121.55443399","lat":"31.278625913","category":"47","category_name":"住宅区","address":"上海平凉路2625弄"},{"poiid":"B2094757D16DABF94099","title":"定海桥","lon":"121.56081333","lat":"31.271165283","category":"500","category_name":"未知分类","address":"上海杨浦区定海路"},{"poiid":"B2094655D36DA0F9429A","title":"杨树浦路内江路","lon":"121.55652","lat":"31.2711","category":"38","category_name":"公交车站","address":""},{"poiid":"B2094757D06FA2FE449A","title":"军工路隧道","lon":"121.564936863","lat":"31.2710545852","category":"260","category_name":"其他","address":"上海市杨浦区军工路-浦东新区金桥路"},{"poiid":"B2094654DB6BA2F84393","title":"上海市杨浦区中心医院门诊","lon":"121.54994","lat":"31.27151","category":"162","category_name":"医院","address":"腾越路450号"},{"poiid":"B2094757D06AA5FD459A","title":"杨浦区中心医院急诊室","lon":"121.549722203","lat":"31.2726692692","category":"902","category_name":"楼宇机构","address":null},{"poiid":"B2094757D16BA6FC429E","title":"上海国家保密局","lon":"121.55471453","lat":"31.269237939","category":"247","category_name":"餐饮美食","address":"上海凉州路381号"},{"poiid":"B2094752D26DA6FF4599","title":"珍得巧克力剧院","lon":"121.55661","lat":"31.2713","category":"67","category_name":"甜品店","address":"杨浦区杨树浦路2866号上海国际时尚中心内(近内江路)"},{"poiid":"B2094750D26FA5FC499D","title":"阁楼足球会所","lon":"121.554924","lat":"31.271301","category":"248","category_name":"生活娱乐","address":"杨浦区贵阳路38号(近杨树浦路)"},{"poiid":"B2094753D26EA6F44699","title":"金星舞蹈团","lon":"121.559699","lat":"31.271037","category":"500","category_name":"未知分类","address":"上海市 杨浦区杨树浦路2866号"},{"poiid":"B2094750D56AA0FC479C","title":"东外滩1号","lon":"121.554301","lat":"31.273948","category":"47","category_name":"住宅区","address":"杨浦区内江路16弄(近杨树浦路)"},{"poiid":"B2094757D068A7FC439B","title":"源泰食品加工生产园区","lon":"121.557941789","lat":"31.270738764","category":"500","category_name":"未知分类","address":"上海波阳路290号"},{"poiid":"B2094757D66DAAF4409F","title":"同濟大學附屬楊浦中心醫院","lon":"121.554519339","lat":"31.2694552445","category":"500","category_name":"未知分类","address":"上海楊浦區隆昌路"},{"poiid":"B2094750DB6DA1FC4293","title":"杨浦 奥特莱斯","lon":"121.55368","lat":"31.272339","category":"249","category_name":"购物服务","address":"杨树浦路"},{"poiid":"B2094654D56FA6FC449A","title":"上海第十七棉纺织总厂","lon":"121.55752","lat":"31.27144","category":"263","category_name":"公司","address":"杨树浦路2866"},{"poiid":"B2094655D26BA5FF499A","title":"裕康里(东南门)","lon":"121.5562","lat":"31.27108","category":"47","category_name":"住宅区","address":""},{"poiid":"B2094655D26BAAFC489A","title":"香樟苑(西南门)","lon":"121.557","lat":"31.2717","category":"47","category_name":"住宅区","address":""},{"poiid":"B2094757D164A7FB459F","title":"杨树浦路隆昌路","lon":"121.553443903","lat":"31.2691503957","category":"47","category_name":"住宅区","address":"上海杨树浦路2569弄"},{"poiid":"B2094655D264AAFC459E","title":"裕康里","lon":"121.55602","lat":"31.27126","category":"47","category_name":"住宅区","address":""},{"poiid":"B2094654D568A2F4459C","title":"可的(复兴岛大酒店南)","lon":"121.56236","lat":"31.27213","category":"117","category_name":"便民商店/便利店","address":""},{"poiid":"B2094655D268ABFE409F","title":"杨浦定海开业园区","lon":"121.55811","lat":"31.27267","category":"47","category_name":"住宅区","address":"杨浦区杨树浦路2893"},{"poiid":"B2094655D26BA4FF439F","title":"香樟苑","lon":"121.55647","lat":"31.27227","category":"47","category_name":"住宅区","address":""},{"poiid":"B2094757D068A6F8459D","title":"金桥轮渡站","lon":"121.56765957","lat":"31.269204681","category":"251","category_name":"出行住宿","address":"上海金桥路1号"},{"poiid":"B2094751DA65A4F5479E","title":"星巴克","lon":"121.556102","lat":"31.274213","category":"247","category_name":"餐饮美食","address":"杨树浦路店"},{"poiid":"B2094757D068A6FD4998","title":"益民小区","lon":"121.55239","lat":"31.277092","category":"47","category_name":"住宅区","address":"上海平凉路2545弄"},{"poiid":"B2094655D26FA7F8439C","title":"阳光园(西南门)","lon":"121.55809","lat":"31.27313","category":"47","category_name":"住宅区","address":"定海路150"},{"poiid":"B2094654D568A3F94198","title":"阳光园","lon":"121.55811","lat":"31.27329","category":"47","category_name":"住宅区","address":"定海路150"},{"poiid":"B2094655D26DABFE479C","title":"定海路170弄小区","lon":"121.55779","lat":"31.27389","category":"47","category_name":"住宅区","address":"定海路170弄"},{"poiid":"B2094654D568A3F8499A","title":"好德便利No.725","lon":"121.55956","lat":"31.27422","category":"117","category_name":"便民商店/便利店","address":"杨树浦路3075"},{"poiid":"B2094757D068A4FE4692","title":"平凉路第四小学","lon":"121.557","lat":"31.27798","category":"56","category_name":"小学","address":"杨浦区平凉路2767弄5号(近军工路)"},{"poiid":"B2094757D069A5FF459A","title":"上房金丰苑","lon":"121.569","lat":"31.266","category":"47","category_name":"住宅区","address":"上海市浦东新区浦东大道2567号"},{"poiid":"B2094654D568A3F8499D","title":"杨树浦路3061弄住宅小区(东门)","lon":"121.55948","lat":"31.27404","category":"47","category_name":"住宅区","address":"杨树浦路3061弄"},{"poiid":"B2094757D16CA0F44193","title":"东外滩一号","lon":"121.5498301","lat":"31.271440443","category":"500","category_name":"未知分类","address":"上海市杨浦区内江路(近杨树浦路)"},{"poiid":"B2094655D26CA3FC459F","title":"上海五州轴承座厂","lon":"121.55537","lat":"31.27069","category":"263","category_name":"公司","address":"贵阳路30弄2号"},{"poiid":"B2094655D26FA6F5429E","title":"金茂花园","lon":"121.558914","lat":"31.259183","category":"47","category_name":"住宅区","address":"浦东上海市浦东大道2515"},{"poiid":"B2094655D26CA6F8429C","title":"定海路170弄小区(西南门)","lon":"121.55743","lat":"31.27363","category":"47","category_name":"住宅区","address":"定海路170弄"},{"poiid":"B2094654D568A2FB4792","title":"中国石油化工股份有限公司上海润滑油销售分公司","lon":"121.55895","lat":"31.273","category":"263","category_name":"公司","address":"杨树浦路3024"},{"poiid":"B2094757D16BAAFC489D","title":"老公家","lon":"121.55514533","lat":"31.270516268","category":"500","category_name":"未知分类","address":"海洲路105弄"},{"poiid":"B2094757D66CABFD409F","title":"维络城嘉茂七宝购物广场体验站","lon":"121.56043613","lat":"31.273314433","category":"500","category_name":"未知分类","address":"上海闵行区七莘路3655号嘉茂七宝购物广场正门入口右侧"},{"poiid":"B2094757D069A6F9479E","title":"靛卧阁","lon":"121.5535736","lat":"31.272186279","category":"46","category_name":"楼宇","address":"上海靛苑深处"},{"poiid":"B2094757D065A3F5499B","title":"黄浦江游轮","lon":"121.55846688","lat":"31.26314064","category":"247","category_name":"餐饮美食","address":"上海黄浦江上"},{"poiid":"B2094757D06FA2FA429B","title":"上海国际时尚中心","lon":"121.55726862","lat":"31.270837313","category":"260","category_name":"其他","address":"杨浦区杨树浦路2866号(近内江路)"},{"poiid":"B2094750D76CA3FC4492","title":"金钱豹(杨树浦路店)","lon":"121.557","lat":"31.2714","category":"87","category_name":"特色／地方风味餐厅","address":"杨树浦路2866号(近内江路6月开业)"},{"poiid":"B2094654D56FA7F44298","title":"上海市杨浦区中心医院","lon":"121.55075","lat":"31.27167","category":"162","category_name":"医院","address":"杨浦区腾越路450号(海州路腾越路)"},{"poiid":"B2094752D36BA0F8479F","title":"星巴克(杨树浦路店)","lon":"121.557357","lat":"31.271385","category":"247","category_name":"餐饮美食","address":"杨浦区杨树浦路2866号(近内江路)"},{"poiid":"B2094757D068ABFD409B","title":"上海双拥大厦","lon":"121.564009619","lat":"31.26092478","category":"46","category_name":"楼宇","address":"浦东新区浦东大道2601号(近居家桥路)"},{"poiid":"B2094757D06BA5FE4799","title":"定海桥轮渡站","lon":"121.56264308","lat":"31.272182024","category":"500","category_name":"未知分类","address":"上海共青路4号"},{"poiid":"B2094757D06FA5FD439C","title":"定海路","lon":"121.553181","lat":"31.27667","category":"500","category_name":"未知分类","address":"上海定海路"},{"poiid":"B2094750DB6DA0F5409A","title":"米瑟 MIXER","lon":"121.557283","lat":"31.271839","category":"67","category_name":"甜品店","address":"杨浦区杨树浦路2866号国际时尚中心(近内江路)"},{"poiid":"B2094751DA6AAAF54099","title":"星巴克时尚中心店","lon":"121.558759","lat":"31.271","category":"247","category_name":"餐饮美食","address":null},{"poiid":"B2094757D06FA5FB4598","title":"中轩丽苑","lon":"121.55443399","lat":"31.278625913","category":"47","category_name":"住宅区","address":"上海平凉路2625弄"},{"poiid":"B2094757D16DABF94099","title":"定海桥","lon":"121.56081333","lat":"31.271165283","category":"500","category_name":"未知分类","address":"上海杨浦区定海路"},{"poiid":"B2094655D36DA0F9429A","title":"杨树浦路内江路","lon":"121.55652","lat":"31.2711","category":"38","category_name":"公交车站","address":""},{"poiid":"B2094757D06FA2FE449A","title":"军工路隧道","lon":"121.564936863","lat":"31.2710545852","category":"260","category_name":"其他","address":"上海市杨浦区军工路-浦东新区金桥路"},{"poiid":"B2094654DB6BA2F84393","title":"上海市杨浦区中心医院门诊","lon":"121.54994","lat":"31.27151","category":"162","category_name":"医院","address":"腾越路450号"},{"poiid":"B2094757D06AA5FD459A","title":"杨浦区中心医院急诊室","lon":"121.549722203","lat":"31.2726692692","category":"902","category_name":"楼宇机构","address":null},{"poiid":"B2094757D16BA6FC429E","title":"上海国家保密局","lon":"121.55471453","lat":"31.269237939","category":"247","category_name":"餐饮美食","address":"上海凉州路381号"},{"poiid":"B2094752D26DA6FF4599","title":"珍得巧克力剧院","lon":"121.55661","lat":"31.2713","category":"67","category_name":"甜品店","address":"杨浦区杨树浦路2866号上海国际时尚中心内(近内江路)"},{"poiid":"B2094750D26FA5FC499D","title":"阁楼足球会所","lon":"121.554924","lat":"31.271301","category":"248","category_name":"生活娱乐","address":"杨浦区贵阳路38号(近杨树浦路)"},{"poiid":"B2094753D26EA6F44699","title":"金星舞蹈团","lon":"121.559699","lat":"31.271037","category":"500","category_name":"未知分类","address":"上海市 杨浦区杨树浦路2866号"},{"poiid":"B2094750D56AA0FC479C","title":"东外滩1号","lon":"121.554301","lat":"31.273948","category":"47","category_name":"住宅区","address":"杨浦区内江路16弄(近杨树浦路)"},{"poiid":"B2094757D068A7FC439B","title":"源泰食品加工生产园区","lon":"121.557941789","lat":"31.270738764","category":"500","category_name":"未知分类","address":"上海波阳路290号"},{"poiid":"B2094757D66DAAF4409F","title":"同濟大學附屬楊浦中心醫院","lon":"121.554519339","lat":"31.2694552445","category":"500","category_name":"未知分类","address":"上海楊浦區隆昌路"},{"poiid":"B2094750DB6DA1FC4293","title":"杨浦 奥特莱斯","lon":"121.55368","lat":"31.272339","category":"249","category_name":"购物服务","address":"杨树浦路"},{"poiid":"B2094654D56FA6FC449A","title":"上海第十七棉纺织总厂","lon":"121.55752","lat":"31.27144","category":"263","category_name":"公司","address":"杨树浦路2866"},{"poiid":"B2094655D26BA5FF499A","title":"裕康里(东南门)","lon":"121.5562","lat":"31.27108","category":"47","category_name":"住宅区","address":""},{"poiid":"B2094655D26BAAFC489A","title":"香樟苑(西南门)","lon":"121.557","lat":"31.2717","category":"47","category_name":"住宅区","address":""},{"poiid":"B2094757D164A7FB459F","title":"杨树浦路隆昌路","lon":"121.553443903","lat":"31.2691503957","category":"47","category_name":"住宅区","address":"上海杨树浦路2569弄"},{"poiid":"B2094655D264AAFC459E","title":"裕康里","lon":"121.55602","lat":"31.27126","category":"47","category_name":"住宅区","address":""},{"poiid":"B2094654D568A2F4459C","title":"可的(复兴岛大酒店南)","lon":"121.56236","lat":"31.27213","category":"117","category_name":"便民商店/便利店","address":""},{"poiid":"B2094655D268ABFE409F","title":"杨浦定海开业园区","lon":"121.55811","lat":"31.27267","category":"47","category_name":"住宅区","address":"杨浦区杨树浦路2893"},{"poiid":"B2094655D26BA4FF439F","title":"香樟苑","lon":"121.55647","lat":"31.27227","category":"47","category_name":"住宅区","address":""},{"poiid":"B2094757D068A6F8459D","title":"金桥轮渡站","lon":"121.56765957","lat":"31.269204681","category":"251","category_name":"出行住宿","address":"上海金桥路1号"},{"poiid":"B2094751DA65A4F5479E","title":"星巴克","lon":"121.556102","lat":"31.274213","category":"247","category_name":"餐饮美食","address":"杨树浦路店"},{"poiid":"B2094757D068A6FD4998","title":"益民小区","lon":"121.55239","lat":"31.277092","category":"47","category_name":"住宅区","address":"上海平凉路2545弄"},{"poiid":"B2094655D26FA7F8439C","title":"阳光园(西南门)","lon":"121.55809","lat":"31.27313","category":"47","category_name":"住宅区","address":"定海路150"},{"poiid":"B2094654D568A3F94198","title":"阳光园","lon":"121.55811","lat":"31.27329","category":"47","category_name":"住宅区","address":"定海路150"},{"poiid":"B2094655D26DABFE479C","title":"定海路170弄小区","lon":"121.55779","lat":"31.27389","category":"47","category_name":"住宅区","address":"定海路170弄"},{"poiid":"B2094654D568A3F8499A","title":"好德便利No.725","lon":"121.55956","lat":"31.27422","category":"117","category_name":"便民商店/便利店","address":"杨树浦路3075"},{"poiid":"B2094757D068A4FE4692","title":"平凉路第四小学","lon":"121.557","lat":"31.27798","category":"56","category_name":"小学","address":"杨浦区平凉路2767弄5号(近军工路)"},{"poiid":"B2094757D069A5FF459A","title":"上房金丰苑","lon":"121.569","lat":"31.266","category":"47","category_name":"住宅区","address":"上海市浦东新区浦东大道2567号"},{"poiid":"B2094654D568A3F8499D","title":"杨树浦路3061弄住宅小区(东门)","lon":"121.55948","lat":"31.27404","category":"47","category_name":"住宅区","address":"杨树浦路3061弄"},{"poiid":"B2094757D16CA0F44193","title":"东外滩一号","lon":"121.5498301","lat":"31.271440443","category":"500","category_name":"未知分类","address":"上海市杨浦区内江路(近杨树浦路)"},{"poiid":"B2094655D26CA3FC459F","title":"上海五州轴承座厂","lon":"121.55537","lat":"31.27069","category":"263","category_name":"公司","address":"贵阳路30弄2号"},{"poiid":"B2094655D26FA6F5429E","title":"金茂花园","lon":"121.558914","lat":"31.259183","category":"47","category_name":"住宅区","address":"浦东上海市浦东大道2515"},{"poiid":"B2094655D26CA6F8429C","title":"定海路170弄小区(西南门)","lon":"121.55743","lat":"31.27363","category":"47","category_name":"住宅区","address":"定海路170弄"},{"poiid":"B2094654D568A2FB4792","title":"中国石油化工股份有限公司上海润滑油销售分公司","lon":"121.55895","lat":"31.273","category":"263","category_name":"公司","address":"杨树浦路3024"},{"poiid":"B2094757D16BAAFC489D","title":"老公家","lon":"121.55514533","lat":"31.270516268","category":"500","category_name":"未知分类","address":"海洲路105弄"},{"poiid":"B2094757D66CABFD409F","title":"维络城嘉茂七宝购物广场体验站","lon":"121.56043613","lat":"31.273314433","category":"500","category_name":"未知分类","address":"上海闵行区七莘路3655号嘉茂七宝购物广场正门入口右侧"},{"poiid":"B2094757D069A6F9479E","title":"靛卧阁","lon":"121.5535736","lat":"31.272186279","category":"46","category_name":"楼宇","address":"上海靛苑深处"},{"poiid":"B2094757D065A3F5499B","title":"黄浦江游轮","lon":"121.55846688","lat":"31.26314064","category":"247","category_name":"餐饮美食","address":"上海黄浦江上"},{"poiid":"B2094757D06FA2FA429B","title":"上海国际时尚中心","lon":"121.55726862","lat":"31.270837313","category":"260","category_name":"其他","address":"杨浦区杨树浦路2866号(近内江路)"},{"poiid":"B2094750D76CA3FC4492","title":"金钱豹(杨树浦路店)","lon":"121.557","lat":"31.2714","category":"87","category_name":"特色／地方风味餐厅","address":"杨树浦路2866号(近内江路6月开业)"},{"poiid":"B2094654D56FA7F44298","title":"上海市杨浦区中心医院","lon":"121.55075","lat":"31.27167","category":"162","category_name":"医院","address":"杨浦区腾越路450号(海州路腾越路)"},{"poiid":"B2094752D36BA0F8479F","title":"星巴克(杨树浦路店)","lon":"121.557357","lat":"31.271385","category":"247","category_name":"餐饮美食","address":"杨浦区杨树浦路2866号(近内江路)"},{"poiid":"B2094757D068ABFD409B","title":"上海双拥大厦","lon":"121.564009619","lat":"31.26092478","category":"46","category_name":"楼宇","address":"浦东新区浦东大道2601号(近居家桥路)"},{"poiid":"B2094757D06BA5FE4799","title":"定海桥轮渡站","lon":"121.56264308","lat":"31.272182024","category":"500","category_name":"未知分类","address":"上海共青路4号"},{"poiid":"B2094757D06FA5FD439C","title":"定海路","lon":"121.553181","lat":"31.27667","category":"500","category_name":"未知分类","address":"上海定海路"},{"poiid":"B2094750DB6DA0F5409A","title":"米瑟 MIXER","lon":"121.557283","lat":"31.271839","category":"67","category_name":"甜品店","address":"杨浦区杨树浦路2866号国际时尚中心(近内江路)"},{"poiid":"B2094751DA6AAAF54099","title":"星巴克时尚中心店","lon":"121.558759","lat":"31.271","category":"247","category_name":"餐饮美食","address":null},{"poiid":"B2094757D06FA5FB4598","title":"中轩丽苑","lon":"121.55443399","lat":"31.278625913","category":"47","category_name":"住宅区","address":"上海平凉路2625弄"},{"poiid":"B2094757D16DABF94099","title":"定海桥","lon":"121.56081333","lat":"31.271165283","category":"500","category_name":"未知分类","address":"上海杨浦区定海路"},{"poiid":"B2094655D36DA0F9429A","title":"杨树浦路内江路","lon":"121.55652","lat":"31.2711","category":"38","category_name":"公交车站","address":""},{"poiid":"B2094757D06FA2FE449A","title":"军工路隧道","lon":"121.564936863","lat":"31.2710545852","category":"260","category_name":"其他","address":"上海市杨浦区军工路-浦东新区金桥路"},{"poiid":"B2094654DB6BA2F84393","title":"上海市杨浦区中心医院门诊","lon":"121.54994","lat":"31.27151","category":"162","category_name":"医院","address":"腾越路450号"},{"poiid":"B2094757D06AA5FD459A","title":"杨浦区中心医院急诊室","lon":"121.549722203","lat":"31.2726692692","category":"902","category_name":"楼宇机构","address":null},{"poiid":"B2094757D16BA6FC429E","title":"上海国家保密局","lon":"121.55471453","lat":"31.269237939","category":"247","category_name":"餐饮美食","address":"上海凉州路381号"},{"poiid":"B2094752D26DA6FF4599","title":"珍得巧克力剧院","lon":"121.55661","lat":"31.2713","category":"67","category_name":"甜品店","address":"杨浦区杨树浦路2866号上海国际时尚中心内(近内江路)"},{"poiid":"B2094750D26FA5FC499D","title":"阁楼足球会所","lon":"121.554924","lat":"31.271301","category":"248","category_name":"生活娱乐","address":"杨浦区贵阳路38号(近杨树浦路)"},{"poiid":"B2094753D26EA6F44699","title":"金星舞蹈团","lon":"121.559699","lat":"31.271037","category":"500","category_name":"未知分类","address":"上海市 杨浦区杨树浦路2866号"},{"poiid":"B2094750D56AA0FC479C","title":"东外滩1号","lon":"121.554301","lat":"31.273948","category":"47","category_name":"住宅区","address":"杨浦区内江路16弄(近杨树浦路)"},{"poiid":"B2094757D068A7FC439B","title":"源泰食品加工生产园区","lon":"121.557941789","lat":"31.270738764","category":"500","category_name":"未知分类","address":"上海波阳路290号"},{"poiid":"B2094757D66DAAF4409F","title":"同濟大學附屬楊浦中心醫院","lon":"121.554519339","lat":"31.2694552445","category":"500","category_name":"未知分类","address":"上海楊浦區隆昌路"},{"poiid":"B2094750DB6DA1FC4293","title":"杨浦 奥特莱斯","lon":"121.55368","lat":"31.272339","category":"249","category_name":"购物服务","address":"杨树浦路"},{"poiid":"B2094654D56FA6FC449A","title":"上海第十七棉纺织总厂","lon":"121.55752","lat":"31.27144","category":"263","category_name":"公司","address":"杨树浦路2866"},{"poiid":"B2094655D26BA5FF499A","title":"裕康里(东南门)","lon":"121.5562","lat":"31.27108","category":"47","category_name":"住宅区","address":""},{"poiid":"B2094655D26BAAFC489A","title":"香樟苑(西南门)","lon":"121.557","lat":"31.2717","category":"47","category_name":"住宅区","address":""},{"poiid":"B2094757D164A7FB459F","title":"杨树浦路隆昌路","lon":"121.553443903","lat":"31.2691503957","category":"47","category_name":"住宅区","address":"上海杨树浦路2569弄"},{"poiid":"B2094655D264AAFC459E","title":"裕康里","lon":"121.55602","lat":"31.27126","category":"47","category_name":"住宅区","address":""},{"poiid":"B2094654D568A2F4459C","title":"可的(复兴岛大酒店南)","lon":"121.56236","lat":"31.27213","category":"117","category_name":"便民商店/便利店","address":""},{"poiid":"B2094655D268ABFE409F","title":"杨浦定海开业园区","lon":"121.55811","lat":"31.27267","category":"47","category_name":"住宅区","address":"杨浦区杨树浦路2893"},{"poiid":"B2094655D26BA4FF439F","title":"香樟苑","lon":"121.55647","lat":"31.27227","category":"47","category_name":"住宅区","address":""},{"poiid":"B2094757D068A6F8459D","title":"金桥轮渡站","lon":"121.56765957","lat":"31.269204681","category":"251","category_name":"出行住宿","address":"上海金桥路1号"},{"poiid":"B2094751DA65A4F5479E","title":"星巴克","lon":"121.556102","lat":"31.274213","category":"247","category_name":"餐饮美食","address":"杨树浦路店"},{"poiid":"B2094757D068A6FD4998","title":"益民小区","lon":"121.55239","lat":"31.277092","category":"47","category_name":"住宅区","address":"上海平凉路2545弄"},{"poiid":"B2094655D26FA7F8439C","title":"阳光园(西南门)","lon":"121.55809","lat":"31.27313","category":"47","category_name":"住宅区","address":"定海路150"},{"poiid":"B2094654D568A3F94198","title":"阳光园","lon":"121.55811","lat":"31.27329","category":"47","category_name":"住宅区","address":"定海路150"},{"poiid":"B2094655D26DABFE479C","title":"定海路170弄小区","lon":"121.55779","lat":"31.27389","category":"47","category_name":"住宅区","address":"定海路170弄"},{"poiid":"B2094654D568A3F8499A","title":"好德便利No.725","lon":"121.55956","lat":"31.27422","category":"117","category_name":"便民商店/便利店","address":"杨树浦路3075"},{"poiid":"B2094757D068A4FE4692","title":"平凉路第四小学","lon":"121.557","lat":"31.27798","category":"56","category_name":"小学","address":"杨浦区平凉路2767弄5号(近军工路)"},{"poiid":"B2094757D069A5FF459A","title":"上房金丰苑","lon":"121.569","lat":"31.266","category":"47","category_name":"住宅区","address":"上海市浦东新区浦东大道2567号"},{"poiid":"B2094654D568A3F8499D","title":"杨树浦路3061弄住宅小区(东门)","lon":"121.55948","lat":"31.27404","category":"47","category_name":"住宅区","address":"杨树浦路3061弄"},{"poiid":"B2094757D16CA0F44193","title":"东外滩一号","lon":"121.5498301","lat":"31.271440443","category":"500","category_name":"未知分类","address":"上海市杨浦区内江路(近杨树浦路)"},{"poiid":"B2094655D26CA3FC459F","title":"上海五州轴承座厂","lon":"121.55537","lat":"31.27069","category":"263","category_name":"公司","address":"贵阳路30弄2号"},{"poiid":"B2094655D26FA6F5429E","title":"金茂花园","lon":"121.558914","lat":"31.259183","category":"47","category_name":"住宅区","address":"浦东上海市浦东大道2515"},{"poiid":"B2094655D26CA6F8429C","title":"定海路170弄小区(西南门)","lon":"121.55743","lat":"31.27363","category":"47","category_name":"住宅区","address":"定海路170弄"},{"poiid":"B2094654D568A2FB4792","title":"中国石油化工股份有限公司上海润滑油销售分公司","lon":"121.55895","lat":"31.273","category":"263","category_name":"公司","address":"杨树浦路3024"},{"poiid":"B2094757D16BAAFC489D","title":"老公家","lon":"121.55514533","lat":"31.270516268","category":"500","category_name":"未知分类","address":"海洲路105弄"},{"poiid":"B2094757D66CABFD409F","title":"维络城嘉茂七宝购物广场体验站","lon":"121.56043613","lat":"31.273314433","category":"500","category_name":"未知分类","address":"上海闵行区七莘路3655号嘉茂七宝购物广场正门入口右侧"},{"poiid":"B2094757D069A6F9479E","title":"靛卧阁","lon":"121.5535736","lat":"31.272186279","category":"46","category_name":"楼宇","address":"上海靛苑深处"},{"poiid":"B2094757D065A3F5499B","title":"黄浦江游轮","lon":"121.55846688","lat":"31.26314064","category":"247","category_name":"餐饮美食","address":"上海黄浦江上"}]