[{"poiid":"B2094757D06FA3F9439C","title":"拳击猫啤酒屋 Boxing Cat Brewery(思南路店)","lon":"121.46768783","lat":"31.215615828","category":"94","category_name":"西餐厅","address":"卢湾区复兴中路519号思南公馆26A栋(近思南路)"},{"poiid":"B2094757D06EAAF9409F","title":"阿娘面","lon":"121.46655","lat":"31.21757","category":"68","category_name":"快餐厅","address":"卢湾区思南路36号(近南昌路)"},{"poiid":"B2094757D06EABF54093","title":"古董花园 Antique Garden","lon":"121.46692867894","lat":"31.216339592929","category":"47","category_name":"住宅区","address":"卢湾区思南路44号甲(近香山路)"},{"poiid":"B2094753D76FAAFA449C","title":"上海滩国泰旗舰店","lon":"121.466011","lat":"31.216125","category":"249","category_name":"购物服务","address":"淮海中路868号"},{"poiid":"B209475CD564A7F84292","title":"上海滩新天地店","lon":"121.47463","lat":"31.22164","category":"119","category_name":"商场","address":"\"太仓路181弄新天地北里15号\r\n\""},{"poiid":"B209475CD564A7F8439E","title":"上海滩中信泰富店","lon":"121.45602","lat":"31.22851","category":"119","category_name":"商场","address":"\"南京西路1168号中信泰富广场，店铺号221.\r\n\""},{"poiid":"B2094757D06EAAFE4092","title":"Muse at Park 97","lon":"121.46741778008413","lat":"31.21736329005447","category":"260","category_name":"其他","address":"卢湾区皋兰路2号甲复兴公园内(近思南路)"},{"poiid":"B2094654DA6EA4FB409C","title":"Club G Plus","lon":"121.465873","lat":"31.214857","category":"260","category_name":"其他","address":"卢湾区兴业路123弄新天地南里广场6号楼5楼(近马当路)"},{"poiid":"B2094757D06FA2FE4799","title":"上海瑞金洲际酒店","lon":"121.46510953447012","lat":"31.213619361647314","category":"217","category_name":"旅馆招待所","address":"卢湾区瑞金二路118号上海瑞金洲际酒店内(近复兴中路)"},{"poiid":"B2094654DB69A4F8439F","title":"星巴克(瑞金路店)","lon":"121.4649203","lat":"31.2150973","category":"260","category_name":"其他","address":"卢湾区瑞金二路101-107号(近复兴中路)"},{"poiid":"B2094750DA6EA1FD449E","title":"蜀公馆成都老火锅","lon":"121.465324","lat":"31.217531","category":"86","category_name":"火锅店","address":"卢湾区淮海中路776号锦江淮海大厦1楼(近瑞金一路)"},{"poiid":"B2094757D06FA7FB489E","title":"官邸","lon":"121.4676","lat":"31.21717","category":"47","category_name":"住宅区","address":"卢湾区皋兰路2号甲复兴公园内(近思南路)"},{"poiid":"B2094757D06FA1F9449C","title":"孙中山故居","lon":"121.46759796","lat":"31.216024398","category":"243","category_name":"纪念馆","address":"卢湾区香山路7号(近思南路)"},{"poiid":"B2094757D068A4FF489F","title":"帕夏土耳其餐厅","lon":"121.46559","lat":"31.21756","category":"94","category_name":"西餐厅","address":"卢湾区南昌路262号(近瑞金二路)"},{"poiid":"B2094757D068A5F54199","title":"park97","lon":"121.465627738","lat":"31.2151659791","category":"172","category_name":"酒吧","address":"上海市卢湾区茂名南路"},{"poiid":"B2094757D068A3FE4093","title":"香山中医医院","lon":"121.46655501","lat":"31.21583555","category":"162","category_name":"医院","address":"卢湾区复兴中路528号(复兴中路思南路)"},{"poiid":"B2094752DB6BA3F9459B","title":"上海文化广场剧院","lon":"121.465729","lat":"31.215866","category":"500","category_name":"未知分类","address":"上海市 上海市复兴中路597号"},{"poiid":"B2094757D06FA4FA419C","title":"永兴餐厅","lon":"121.46444","lat":"31.21441","category":"76","category_name":"上海菜","address":"卢湾区复兴中路626弄1号(茂名路瑞金路间)"},{"poiid":"B2094753D565A2FA469A","title":"贝克街221B","lon":"121.465248","lat":"31.21626","category":"47","category_name":"住宅区","address":"上海市 卢湾区瑞金二路50号"},{"poiid":"B209475CD76CA4FC489F","title":"the CAFE KACAO","lon":"121.46556","lat":"31.216766","category":"500","category_name":"未知分类","address":"上海市 思南路8号"},{"poiid":"B2094757D16EA1FF449A","title":"香啡缤(思南公馆)","lon":"121.466178738","lat":"31.2163040034","category":"260","category_name":"其他","address":"卢湾区思南路55号思南公馆26B号楼1楼(近复兴中路)"},{"poiid":"B2094757D068A1FB489E","title":"La Vida","lon":"121.46538","lat":"31.21665","category":"94","category_name":"西餐厅","address":"卢湾区陕西南路402号(近复兴中路)"},{"poiid":"B2094757D068A2FB459C","title":"仁清 南昌路店 NINSEI JAPANESE DININGBAR","lon":"121.4639582539","lat":"31.217281624639","category":"95","category_name":"日本料理","address":"卢湾区南昌路125号(近瑞金二路)"},{"poiid":"B2094757D06FAAF44798","title":"EASO ROOM","lon":"121.46515","lat":"31.21538","category":"260","category_name":"其他","address":"卢湾区香山路32号(近瑞金二路)"},{"poiid":"B2094655D26EA0F44998","title":"扬州饭店(瑞金店)","lon":"121.46484","lat":"31.21428","category":"74","category_name":"江苏菜","address":"卢湾区瑞金二路108号民防大厦3楼(近复兴中路)"},{"poiid":"B2094757D069A2FA439A","title":"燕云楼(科学会堂店)","lon":"121.46657","lat":"31.21766","category":"260","category_name":"其他","address":"卢湾区思南路31号5楼(南昌路口)"},{"poiid":"B2094654DA6DABF94499","title":"思南路35号综合楼","lon":"121.46704","lat":"31.21678","category":"46","category_name":"楼宇","address":"思南路35"},{"poiid":"B2094757D06AA2F54593","title":"南蛮亭 思南公馆店","lon":"121.468088","lat":"31.214529","category":"95","category_name":"日本料理","address":"卢湾区思南路45号思南公馆32号楼3楼(近复兴中路)"},{"poiid":"B2094757D464A7FC479A","title":"麒麟宫酒家","lon":"121.46456723123","lat":"31.216548649768","category":"76","category_name":"上海菜","address":"卢湾区瑞金二路75号(近南昌路)"},{"poiid":"B2094750D16AA1F4479A","title":"壹•火锅 The One Hotpot","lon":"121.465843","lat":"31.216817","category":"247","category_name":"餐饮美食","address":"复兴中路535号(思南公馆30号)"},{"poiid":"B209475CD26CA4FC4598","title":"iapm上海环贸广场","lon":"121.46421","lat":"31.215311","category":"500","category_name":"未知分类","address":"上海市 淮海中路999号"},{"poiid":"B2094655D264A5FC499E","title":"阿面娘","lon":"121.46647","lat":"31.21768","category":"257","category_name":"中餐厅","address":"思南路36-1临"},{"poiid":"B2094654DA6DABF9419D","title":"思南路幼儿园","lon":"121.46619","lat":"31.21685","category":"57","category_name":"幼儿园","address":"卢湾区皋兰路11号(近思南路)"},{"poiid":"B2094757D568ABFC4799","title":"交大医学院西校区","lon":"121.46739","lat":"31.21463","category":"52","category_name":"高等院校","address":"重庆南路280号"},{"poiid":"B2094655D36CA6FF439C","title":"复兴中路瑞金二路","lon":"121.46427","lat":"31.2147","category":"38","category_name":"公交车站","address":""},{"poiid":"B2094654DA6DABF4429E","title":"市气功研究所医疗门诊部","lon":"121.46537","lat":"31.21799","category":"162","category_name":"医院","address":"卢湾区南昌路220号(瑞金二路与思南路间)"},{"poiid":"B2094757D064A3F4499B","title":"一豚","lon":"121.465683738","lat":"31.2149439744","category":"95","category_name":"日本料理","address":"卢湾区复兴中路581号(近瑞金二路)"},{"poiid":"B2094757D06AA5FA479D","title":"阿三烤鸭","lon":"121.46508","lat":"31.21477","category":"68","category_name":"快餐厅","address":"卢湾区复兴中路589号(近瑞金二路)"},{"poiid":"B209475DD468A2FA479C","title":"小小南国","lon":"121.46434","lat":"31.214624","category":"247","category_name":"餐饮美食","address":"上海市 上海市徐汇区淮海中路939号"},{"poiid":"B2094753D46BA1FD439E","title":"楓の私廚料理","lon":"121.465393","lat":"31.216409","category":"247","category_name":"餐饮美食","address":"上海市 淮海中路816弄內58號"},{"poiid":"B2094753D26BA3FA409A","title":"思南公馆","lon":"121.466143","lat":"31.216217","category":"500","category_name":"未知分类","address":"上海市 复兴中路思南路"},{"poiid":"B2094757D16DA3F5449D","title":"松坂烤肉","lon":"121.46526336","lat":"31.216856002","category":"247","category_name":"餐饮美食","address":"上海老锦江内"},{"poiid":"B2094655D26AA7FC479A","title":"瑞金宾馆宴会厅","lon":"121.46607","lat":"31.2139","category":"247","category_name":"餐饮美食","address":"卢湾区瑞金二路118号瑞金宾馆内(近复兴中路)查看地图"},{"poiid":"B2094655D264A5FC449E","title":"illy","lon":"121.46504","lat":"31.21569","category":"256","category_name":"外国餐厅","address":"卢湾区建国中路155弄39号"},{"poiid":"B2094757D66BABFD419B","title":"北万新 香山店","lon":"121.464814054","lat":"31.214811793","category":"68","category_name":"快餐厅","address":"卢湾区瑞金二路111号(近复兴中路)"},{"poiid":"B209475CDA6EA7F4449A","title":"ipam环贸","lon":"121.465614","lat":"31.215686","category":"500","category_name":"未知分类","address":"上海市 淮海中路"},{"poiid":"B2094757D56EA4FF4998","title":"上海南京路新世界","lon":"121.464692","lat":"31.215499","category":"249","category_name":"购物服务","address":"上海市南京西路2－68号(88号)五层"},{"poiid":"B2094654DA6DA6F5409B","title":"花园坊","lon":"121.46608","lat":"31.213909","category":"47","category_name":"住宅区","address":"卢湾区瑞金二路129弄(近复兴中路)"},{"poiid":"B2094757D064AAFA4699","title":"Shoga 姜","lon":"121.46685073","lat":"31.216485007","category":"95","category_name":"日本料理","address":"卢湾区思南路30号"},{"poiid":"B2094757D164A7F5479B","title":"上海皋兰路东正教教堂","lon":"121.46599565","lat":"31.216691602","category":"245","category_name":"教堂","address":"上海卢湾区皋兰路16号"},{"poiid":"B2094757D06FA3F9439C","title":"拳击猫啤酒屋 Boxing Cat Brewery(思南路店)","lon":"121.46768783","lat":"31.215615828","category":"94","category_name":"西餐厅","address":"卢湾区复兴中路519号思南公馆26A栋(近思南路)"},{"poiid":"B2094757D06EAAF9409F","title":"阿娘面","lon":"121.46655","lat":"31.21757","category":"68","category_name":"快餐厅","address":"卢湾区思南路36号(近南昌路)"},{"poiid":"B2094757D06EABF54093","title":"古董花园 Antique Garden","lon":"121.46692867894","lat":"31.216339592929","category":"47","category_name":"住宅区","address":"卢湾区思南路44号甲(近香山路)"},{"poiid":"B2094753D76FAAFA449C","title":"上海滩国泰旗舰店","lon":"121.466011","lat":"31.216125","category":"249","category_name":"购物服务","address":"淮海中路868号"},{"poiid":"B209475CD564A7F84292","title":"上海滩新天地店","lon":"121.47463","lat":"31.22164","category":"119","category_name":"商场","address":"\"太仓路181弄新天地北里15号\r\n\""},{"poiid":"B209475CD564A7F8439E","title":"上海滩中信泰富店","lon":"121.45602","lat":"31.22851","category":"119","category_name":"商场","address":"\"南京西路1168号中信泰富广场，店铺号221.\r\n\""},{"poiid":"B2094757D06EAAFE4092","title":"Muse at Park 97","lon":"121.46741778008413","lat":"31.21736329005447","category":"260","category_name":"其他","address":"卢湾区皋兰路2号甲复兴公园内(近思南路)"},{"poiid":"B2094654DA6EA4FB409C","title":"Club G Plus","lon":"121.465873","lat":"31.214857","category":"260","category_name":"其他","address":"卢湾区兴业路123弄新天地南里广场6号楼5楼(近马当路)"},{"poiid":"B2094757D06FA2FE4799","title":"上海瑞金洲际酒店","lon":"121.46510953447012","lat":"31.213619361647314","category":"217","category_name":"旅馆招待所","address":"卢湾区瑞金二路118号上海瑞金洲际酒店内(近复兴中路)"},{"poiid":"B2094654DB69A4F8439F","title":"星巴克(瑞金路店)","lon":"121.4649203","lat":"31.2150973","category":"260","category_name":"其他","address":"卢湾区瑞金二路101-107号(近复兴中路)"},{"poiid":"B2094750DA6EA1FD449E","title":"蜀公馆成都老火锅","lon":"121.465324","lat":"31.217531","category":"86","category_name":"火锅店","address":"卢湾区淮海中路776号锦江淮海大厦1楼(近瑞金一路)"},{"poiid":"B2094757D06FA7FB489E","title":"官邸","lon":"121.4676","lat":"31.21717","category":"47","category_name":"住宅区","address":"卢湾区皋兰路2号甲复兴公园内(近思南路)"},{"poiid":"B2094757D06FA1F9449C","title":"孙中山故居","lon":"121.46759796","lat":"31.216024398","category":"243","category_name":"纪念馆","address":"卢湾区香山路7号(近思南路)"},{"poiid":"B2094757D068A4FF489F","title":"帕夏土耳其餐厅","lon":"121.46559","lat":"31.21756","category":"94","category_name":"西餐厅","address":"卢湾区南昌路262号(近瑞金二路)"},{"poiid":"B2094757D068A5F54199","title":"park97","lon":"121.465627738","lat":"31.2151659791","category":"172","category_name":"酒吧","address":"上海市卢湾区茂名南路"},{"poiid":"B2094757D068A3FE4093","title":"香山中医医院","lon":"121.46655501","lat":"31.21583555","category":"162","category_name":"医院","address":"卢湾区复兴中路528号(复兴中路思南路)"},{"poiid":"B2094752DB6BA3F9459B","title":"上海文化广场剧院","lon":"121.465729","lat":"31.215866","category":"500","category_name":"未知分类","address":"上海市 上海市复兴中路597号"},{"poiid":"B2094757D06FA4FA419C","title":"永兴餐厅","lon":"121.46444","lat":"31.21441","category":"76","category_name":"上海菜","address":"卢湾区复兴中路626弄1号(茂名路瑞金路间)"},{"poiid":"B2094753D565A2FA469A","title":"贝克街221B","lon":"121.465248","lat":"31.21626","category":"47","category_name":"住宅区","address":"上海市 卢湾区瑞金二路50号"},{"poiid":"B209475CD76CA4FC489F","title":"the CAFE KACAO","lon":"121.46556","lat":"31.216766","category":"500","category_name":"未知分类","address":"上海市 思南路8号"},{"poiid":"B2094757D16EA1FF449A","title":"香啡缤(思南公馆)","lon":"121.466178738","lat":"31.2163040034","category":"260","category_name":"其他","address":"卢湾区思南路55号思南公馆26B号楼1楼(近复兴中路)"},{"poiid":"B2094757D068A1FB489E","title":"La Vida","lon":"121.46538","lat":"31.21665","category":"94","category_name":"西餐厅","address":"卢湾区陕西南路402号(近复兴中路)"},{"poiid":"B2094757D068A2FB459C","title":"仁清 南昌路店 NINSEI JAPANESE DININGBAR","lon":"121.4639582539","lat":"31.217281624639","category":"95","category_name":"日本料理","address":"卢湾区南昌路125号(近瑞金二路)"},{"poiid":"B2094757D06FAAF44798","title":"EASO ROOM","lon":"121.46515","lat":"31.21538","category":"260","category_name":"其他","address":"卢湾区香山路32号(近瑞金二路)"},{"poiid":"B2094655D26EA0F44998","title":"扬州饭店(瑞金店)","lon":"121.46484","lat":"31.21428","category":"74","category_name":"江苏菜","address":"卢湾区瑞金二路108号民防大厦3楼(近复兴中路)"},{"poiid":"B2094757D069A2FA439A","title":"燕云楼(科学会堂店)","lon":"121.46657","lat":"31.21766","category":"260","category_name":"其他","address":"卢湾区思南路31号5楼(南昌路口)"},{"poiid":"B2094654DA6DABF94499","title":"思南路35号综合楼","lon":"121.46704","lat":"31.21678","category":"46","category_name":"楼宇","address":"思南路35"},{"poiid":"B2094757D06AA2F54593","title":"南蛮亭 思南公馆店","lon":"121.468088","lat":"31.214529","category":"95","category_name":"日本料理","address":"卢湾区思南路45号思南公馆32号楼3楼(近复兴中路)"},{"poiid":"B2094757D464A7FC479A","title":"麒麟宫酒家","lon":"121.46456723123","lat":"31.216548649768","category":"76","category_name":"上海菜","address":"卢湾区瑞金二路75号(近南昌路)"},{"poiid":"B2094750D16AA1F4479A","title":"壹•火锅 The One Hotpot","lon":"121.465843","lat":"31.216817","category":"247","category_name":"餐饮美食","address":"复兴中路535号(思南公馆30号)"},{"poiid":"B209475CD26CA4FC4598","title":"iapm上海环贸广场","lon":"121.46421","lat":"31.215311","category":"500","category_name":"未知分类","address":"上海市 淮海中路999号"},{"poiid":"B2094655D264A5FC499E","title":"阿面娘","lon":"121.46647","lat":"31.21768","category":"257","category_name":"中餐厅","address":"思南路36-1临"},{"poiid":"B2094654DA6DABF9419D","title":"思南路幼儿园","lon":"121.46619","lat":"31.21685","category":"57","category_name":"幼儿园","address":"卢湾区皋兰路11号(近思南路)"},{"poiid":"B2094757D568ABFC4799","title":"交大医学院西校区","lon":"121.46739","lat":"31.21463","category":"52","category_name":"高等院校","address":"重庆南路280号"},{"poiid":"B2094655D36CA6FF439C","title":"复兴中路瑞金二路","lon":"121.46427","lat":"31.2147","category":"38","category_name":"公交车站","address":""},{"poiid":"B2094654DA6DABF4429E","title":"市气功研究所医疗门诊部","lon":"121.46537","lat":"31.21799","category":"162","category_name":"医院","address":"卢湾区南昌路220号(瑞金二路与思南路间)"},{"poiid":"B2094757D064A3F4499B","title":"一豚","lon":"121.465683738","lat":"31.2149439744","category":"95","category_name":"日本料理","address":"卢湾区复兴中路581号(近瑞金二路)"},{"poiid":"B2094757D06AA5FA479D","title":"阿三烤鸭","lon":"121.46508","lat":"31.21477","category":"68","category_name":"快餐厅","address":"卢湾区复兴中路589号(近瑞金二路)"},{"poiid":"B209475DD468A2FA479C","title":"小小南国","lon":"121.46434","lat":"31.214624","category":"247","category_name":"餐饮美食","address":"上海市 上海市徐汇区淮海中路939号"},{"poiid":"B2094753D46BA1FD439E","title":"楓の私廚料理","lon":"121.465393","lat":"31.216409","category":"247","category_name":"餐饮美食","address":"上海市 淮海中路816弄內58號"},{"poiid":"B2094753D26BA3FA409A","title":"思南公馆","lon":"121.466143","lat":"31.216217","category":"500","category_name":"未知分类","address":"上海市 复兴中路思南路"},{"poiid":"B2094757D16DA3F5449D","title":"松坂烤肉","lon":"121.46526336","lat":"31.216856002","category":"247","category_name":"餐饮美食","address":"上海老锦江内"},{"poiid":"B2094655D26AA7FC479A","title":"瑞金宾馆宴会厅","lon":"121.46607","lat":"31.2139","category":"247","category_name":"餐饮美食","address":"卢湾区瑞金二路118号瑞金宾馆内(近复兴中路)查看地图"},{"poiid":"B2094655D264A5FC449E","title":"illy","lon":"121.46504","lat":"31.21569","category":"256","category_name":"外国餐厅","address":"卢湾区建国中路155弄39号"},{"poiid":"B2094757D66BABFD419B","title":"北万新 香山店","lon":"121.464814054","lat":"31.214811793","category":"68","category_name":"快餐厅","address":"卢湾区瑞金二路111号(近复兴中路)"},{"poiid":"B209475CDA6EA7F4449A","title":"ipam环贸","lon":"121.465614","lat":"31.215686","category":"500","category_name":"未知分类","address":"上海市 淮海中路"},{"poiid":"B2094757D56EA4FF4998","title":"上海南京路新世界","lon":"121.464692","lat":"31.215499","category":"249","category_name":"购物服务","address":"上海市南京西路2－68号(88号)五层"},{"poiid":"B2094654DA6DA6F5409B","title":"花园坊","lon":"121.46608","lat":"31.213909","category":"47","category_name":"住宅区","address":"卢湾区瑞金二路129弄(近复兴中路)"},{"poiid":"B2094757D064AAFA4699","title":"Shoga 姜","lon":"121.46685073","lat":"31.216485007","category":"95","category_name":"日本料理","address":"卢湾区思南路30号"},{"poiid":"B2094757D164A7F5479B","title":"上海皋兰路东正教教堂","lon":"121.46599565","lat":"31.216691602","category":"245","category_name":"教堂","address":"上海卢湾区皋兰路16号"},{"poiid":"B2094757D06FA3F9439C","title":"拳击猫啤酒屋 Boxing Cat Brewery(思南路店)","lon":"121.46768783","lat":"31.215615828","category":"94","category_name":"西餐厅","address":"卢湾区复兴中路519号思南公馆26A栋(近思南路)"},{"poiid":"B2094757D06EAAF9409F","title":"阿娘面","lon":"121.46655","lat":"31.21757","category":"68","category_name":"快餐厅","address":"卢湾区思南路36号(近南昌路)"},{"poiid":"B2094757D06EABF54093","title":"古董花园 Antique Garden","lon":"121.46692867894","lat":"31.216339592929","category":"47","category_name":"住宅区","address":"卢湾区思南路44号甲(近香山路)"},{"poiid":"B2094753D76FAAFA449C","title":"上海滩国泰旗舰店","lon":"121.466011","lat":"31.216125","category":"249","category_name":"购物服务","address":"淮海中路868号"},{"poiid":"B209475CD564A7F84292","title":"上海滩新天地店","lon":"121.47463","lat":"31.22164","category":"119","category_name":"商场","address":"\"太仓路181弄新天地北里15号\r\n\""},{"poiid":"B209475CD564A7F8439E","title":"上海滩中信泰富店","lon":"121.45602","lat":"31.22851","category":"119","category_name":"商场","address":"\"南京西路1168号中信泰富广场，店铺号221.\r\n\""},{"poiid":"B2094757D06EAAFE4092","title":"Muse at Park 97","lon":"121.46741778008413","lat":"31.21736329005447","category":"260","category_name":"其他","address":"卢湾区皋兰路2号甲复兴公园内(近思南路)"},{"poiid":"B2094654DA6EA4FB409C","title":"Club G Plus","lon":"121.465873","lat":"31.214857","category":"260","category_name":"其他","address":"卢湾区兴业路123弄新天地南里广场6号楼5楼(近马当路)"},{"poiid":"B2094757D06FA2FE4799","title":"上海瑞金洲际酒店","lon":"121.46510953447012","lat":"31.213619361647314","category":"217","category_name":"旅馆招待所","address":"卢湾区瑞金二路118号上海瑞金洲际酒店内(近复兴中路)"},{"poiid":"B2094654DB69A4F8439F","title":"星巴克(瑞金路店)","lon":"121.4649203","lat":"31.2150973","category":"260","category_name":"其他","address":"卢湾区瑞金二路101-107号(近复兴中路)"},{"poiid":"B2094750DA6EA1FD449E","title":"蜀公馆成都老火锅","lon":"121.465324","lat":"31.217531","category":"86","category_name":"火锅店","address":"卢湾区淮海中路776号锦江淮海大厦1楼(近瑞金一路)"},{"poiid":"B2094757D06FA7FB489E","title":"官邸","lon":"121.4676","lat":"31.21717","category":"47","category_name":"住宅区","address":"卢湾区皋兰路2号甲复兴公园内(近思南路)"},{"poiid":"B2094757D06FA1F9449C","title":"孙中山故居","lon":"121.46759796","lat":"31.216024398","category":"243","category_name":"纪念馆","address":"卢湾区香山路7号(近思南路)"},{"poiid":"B2094757D068A4FF489F","title":"帕夏土耳其餐厅","lon":"121.46559","lat":"31.21756","category":"94","category_name":"西餐厅","address":"卢湾区南昌路262号(近瑞金二路)"},{"poiid":"B2094757D068A5F54199","title":"park97","lon":"121.465627738","lat":"31.2151659791","category":"172","category_name":"酒吧","address":"上海市卢湾区茂名南路"},{"poiid":"B2094757D068A3FE4093","title":"香山中医医院","lon":"121.46655501","lat":"31.21583555","category":"162","category_name":"医院","address":"卢湾区复兴中路528号(复兴中路思南路)"},{"poiid":"B2094752DB6BA3F9459B","title":"上海文化广场剧院","lon":"121.465729","lat":"31.215866","category":"500","category_name":"未知分类","address":"上海市 上海市复兴中路597号"},{"poiid":"B2094757D06FA4FA419C","title":"永兴餐厅","lon":"121.46444","lat":"31.21441","category":"76","category_name":"上海菜","address":"卢湾区复兴中路626弄1号(茂名路瑞金路间)"},{"poiid":"B2094753D565A2FA469A","title":"贝克街221B","lon":"121.465248","lat":"31.21626","category":"47","category_name":"住宅区","address":"上海市 卢湾区瑞金二路50号"},{"poiid":"B209475CD76CA4FC489F","title":"the CAFE KACAO","lon":"121.46556","lat":"31.216766","category":"500","category_name":"未知分类","address":"上海市 思南路8号"},{"poiid":"B2094757D16EA1FF449A","title":"香啡缤(思南公馆)","lon":"121.466178738","lat":"31.2163040034","category":"260","category_name":"其他","address":"卢湾区思南路55号思南公馆26B号楼1楼(近复兴中路)"},{"poiid":"B2094757D068A1FB489E","title":"La Vida","lon":"121.46538","lat":"31.21665","category":"94","category_name":"西餐厅","address":"卢湾区陕西南路402号(近复兴中路)"},{"poiid":"B2094757D068A2FB459C","title":"仁清 南昌路店 NINSEI JAPANESE DININGBAR","lon":"121.4639582539","lat":"31.217281624639","category":"95","category_name":"日本料理","address":"卢湾区南昌路125号(近瑞金二路)"},{"poiid":"B2094757D06FAAF44798","title":"EASO ROOM","lon":"121.46515","lat":"31.21538","category":"260","category_name":"其他","address":"卢湾区香山路32号(近瑞金二路)"},{"poiid":"B2094655D26EA0F44998","title":"扬州饭店(瑞金店)","lon":"121.46484","lat":"31.21428","category":"74","category_name":"江苏菜","address":"卢湾区瑞金二路108号民防大厦3楼(近复兴中路)"},{"poiid":"B2094757D069A2FA439A","title":"燕云楼(科学会堂店)","lon":"121.46657","lat":"31.21766","category":"260","category_name":"其他","address":"卢湾区思南路31号5楼(南昌路口)"},{"poiid":"B2094654DA6DABF94499","title":"思南路35号综合楼","lon":"121.46704","lat":"31.21678","category":"46","category_name":"楼宇","address":"思南路35"},{"poiid":"B2094757D06AA2F54593","title":"南蛮亭 思南公馆店","lon":"121.468088","lat":"31.214529","category":"95","category_name":"日本料理","address":"卢湾区思南路45号思南公馆32号楼3楼(近复兴中路)"},{"poiid":"B2094757D464A7FC479A","title":"麒麟宫酒家","lon":"121.46456723123","lat":"31.216548649768","category":"76","category_name":"上海菜","address":"卢湾区瑞金二路75号(近南昌路)"},{"poiid":"B2094750D16AA1F4479A","title":"壹•火锅 The One Hotpot","lon":"121.465843","lat":"31.216817","category":"247","category_name":"餐饮美食","address":"复兴中路535号(思南公馆30号)"},{"poiid":"B209475CD26CA4FC4598","title":"iapm上海环贸广场","lon":"121.46421","lat":"31.215311","category":"500","category_name":"未知分类","address":"上海市 淮海中路999号"},{"poiid":"B2094655D264A5FC499E","title":"阿面娘","lon":"121.46647","lat":"31.21768","category":"257","category_name":"中餐厅","address":"思南路36-1临"},{"poiid":"B2094654DA6DABF9419D","title":"思南路幼儿园","lon":"121.46619","lat":"31.21685","category":"57","category_name":"幼儿园","address":"卢湾区皋兰路11号(近思南路)"},{"poiid":"B2094757D568ABFC4799","title":"交大医学院西校区","lon":"121.46739","lat":"31.21463","category":"52","category_name":"高等院校","address":"重庆南路280号"},{"poiid":"B2094655D36CA6FF439C","title":"复兴中路瑞金二路","lon":"121.46427","lat":"31.2147","category":"38","category_name":"公交车站","address":""},{"poiid":"B2094654DA6DABF4429E","title":"市气功研究所医疗门诊部","lon":"121.46537","lat":"31.21799","category":"162","category_name":"医院","address":"卢湾区南昌路220号(瑞金二路与思南路间)"},{"poiid":"B2094757D064A3F4499B","title":"一豚","lon":"121.465683738","lat":"31.2149439744","category":"95","category_name":"日本料理","address":"卢湾区复兴中路581号(近瑞金二路)"},{"poiid":"B2094757D06AA5FA479D","title":"阿三烤鸭","lon":"121.46508","lat":"31.21477","category":"68","category_name":"快餐厅","address":"卢湾区复兴中路589号(近瑞金二路)"},{"poiid":"B209475DD468A2FA479C","title":"小小南国","lon":"121.46434","lat":"31.214624","category":"247","category_name":"餐饮美食","address":"上海市 上海市徐汇区淮海中路939号"},{"poiid":"B2094753D46BA1FD439E","title":"楓の私廚料理","lon":"121.465393","lat":"31.216409","category":"247","category_name":"餐饮美食","address":"上海市 淮海中路816弄內58號"},{"poiid":"B2094753D26BA3FA409A","title":"思南公馆","lon":"121.466143","lat":"31.216217","category":"500","category_name":"未知分类","address":"上海市 复兴中路思南路"},{"poiid":"B2094757D16DA3F5449D","title":"松坂烤肉","lon":"121.46526336","lat":"31.216856002","category":"247","category_name":"餐饮美食","address":"上海老锦江内"},{"poiid":"B2094655D26AA7FC479A","title":"瑞金宾馆宴会厅","lon":"121.46607","lat":"31.2139","category":"247","category_name":"餐饮美食","address":"卢湾区瑞金二路118号瑞金宾馆内(近复兴中路)查看地图"},{"poiid":"B2094655D264A5FC449E","title":"illy","lon":"121.46504","lat":"31.21569","category":"256","category_name":"外国餐厅","address":"卢湾区建国中路155弄39号"},{"poiid":"B2094757D66BABFD419B","title":"北万新 香山店","lon":"121.464814054","lat":"31.214811793","category":"68","category_name":"快餐厅","address":"卢湾区瑞金二路111号(近复兴中路)"},{"poiid":"B209475CDA6EA7F4449A","title":"ipam环贸","lon":"121.465614","lat":"31.215686","category":"500","category_name":"未知分类","address":"上海市 淮海中路"},{"poiid":"B2094757D56EA4FF4998","title":"上海南京路新世界","lon":"121.464692","lat":"31.215499","category":"249","category_name":"购物服务","address":"上海市南京西路2－68号(88号)五层"},{"poiid":"B2094654DA6DA6F5409B","title":"花园坊","lon":"121.46608","lat":"31.213909","category":"47","category_name":"住宅区","address":"卢湾区瑞金二路129弄(近复兴中路)"},{"poiid":"B2094757D064AAFA4699","title":"Shoga 姜","lon":"121.46685073","lat":"31.216485007","category":"95","category_name":"日本料理","address":"卢湾区思南路30号"},{"poiid":"B2094757D164A7F5479B","title":"上海皋兰路东正教教堂","lon":"121.46599565","lat":"31.216691602","category":"245","category_name":"教堂","address":"上海卢湾区皋兰路16号"},{"poiid":"B2094757D06FA3F9439C","title":"拳击猫啤酒屋 Boxing Cat Brewery(思南路店)","lon":"121.46768783","lat":"31.215615828","category":"94","category_name":"西餐厅","address":"卢湾区复兴中路519号思南公馆26A栋(近思南路)"},{"poiid":"B2094757D06EAAF9409F","title":"阿娘面","lon":"121.46655","lat":"31.21757","category":"68","category_name":"快餐厅","address":"卢湾区思南路36号(近南昌路)"},{"poiid":"B2094757D06EABF54093","title":"古董花园 Antique Garden","lon":"121.46692867894","lat":"31.216339592929","category":"47","category_name":"住宅区","address":"卢湾区思南路44号甲(近香山路)"},{"poiid":"B2094753D76FAAFA449C","title":"上海滩国泰旗舰店","lon":"121.466011","lat":"31.216125","category":"249","category_name":"购物服务","address":"淮海中路868号"},{"poiid":"B209475CD564A7F84292","title":"上海滩新天地店","lon":"121.47463","lat":"31.22164","category":"119","category_name":"商场","address":"\"太仓路181弄新天地北里15号\r\n\""},{"poiid":"B209475CD564A7F8439E","title":"上海滩中信泰富店","lon":"121.45602","lat":"31.22851","category":"119","category_name":"商场","address":"\"南京西路1168号中信泰富广场，店铺号221.\r\n\""},{"poiid":"B2094757D06EAAFE4092","title":"Muse at Park 97","lon":"121.46741778008413","lat":"31.21736329005447","category":"260","category_name":"其他","address":"卢湾区皋兰路2号甲复兴公园内(近思南路)"},{"poiid":"B2094654DA6EA4FB409C","title":"Club G Plus","lon":"121.465873","lat":"31.214857","category":"260","category_name":"其他","address":"卢湾区兴业路123弄新天地南里广场6号楼5楼(近马当路)"},{"poiid":"B2094757D06FA2FE4799","title":"上海瑞金洲际酒店","lon":"121.46510953447012","lat":"31.213619361647314","category":"217","category_name":"旅馆招待所","address":"卢湾区瑞金二路118号上海瑞金洲际酒店内(近复兴中路)"},{"poiid":"B2094654DB69A4F8439F","title":"星巴克(瑞金路店)","lon":"121.4649203","lat":"31.2150973","category":"260","category_name":"其他","address":"卢湾区瑞金二路101-107号(近复兴中路)"},{"poiid":"B2094750DA6EA1FD449E","title":"蜀公馆成都老火锅","lon":"121.465324","lat":"31.217531","category":"86","category_name":"火锅店","address":"卢湾区淮海中路776号锦江淮海大厦1楼(近瑞金一路)"},{"poiid":"B2094757D06FA7FB489E","title":"官邸","lon":"121.4676","lat":"31.21717","category":"47","category_name":"住宅区","address":"卢湾区皋兰路2号甲复兴公园内(近思南路)"},{"poiid":"B2094757D06FA1F9449C","title":"孙中山故居","lon":"121.46759796","lat":"31.216024398","category":"243","category_name":"纪念馆","address":"卢湾区香山路7号(近思南路)"},{"poiid":"B2094757D068A4FF489F","title":"帕夏土耳其餐厅","lon":"121.46559","lat":"31.21756","category":"94","category_name":"西餐厅","address":"卢湾区南昌路262号(近瑞金二路)"},{"poiid":"B2094757D068A5F54199","title":"park97","lon":"121.465627738","lat":"31.2151659791","category":"172","category_name":"酒吧","address":"上海市卢湾区茂名南路"},{"poiid":"B2094757D068A3FE4093","title":"香山中医医院","lon":"121.46655501","lat":"31.21583555","category":"162","category_name":"医院","address":"卢湾区复兴中路528号(复兴中路思南路)"},{"poiid":"B2094752DB6BA3F9459B","title":"上海文化广场剧院","lon":"121.465729","lat":"31.215866","category":"500","category_name":"未知分类","address":"上海市 上海市复兴中路597号"},{"poiid":"B2094757D06FA4FA419C","title":"永兴餐厅","lon":"121.46444","lat":"31.21441","category":"76","category_name":"上海菜","address":"卢湾区复兴中路626弄1号(茂名路瑞金路间)"},{"poiid":"B2094753D565A2FA469A","title":"贝克街221B","lon":"121.465248","lat":"31.21626","category":"47","category_name":"住宅区","address":"上海市 卢湾区瑞金二路50号"},{"poiid":"B209475CD76CA4FC489F","title":"the CAFE KACAO","lon":"121.46556","lat":"31.216766","category":"500","category_name":"未知分类","address":"上海市 思南路8号"},{"poiid":"B2094757D16EA1FF449A","title":"香啡缤(思南公馆)","lon":"121.466178738","lat":"31.2163040034","category":"260","category_name":"其他","address":"卢湾区思南路55号思南公馆26B号楼1楼(近复兴中路)"},{"poiid":"B2094757D068A1FB489E","title":"La Vida","lon":"121.46538","lat":"31.21665","category":"94","category_name":"西餐厅","address":"卢湾区陕西南路402号(近复兴中路)"},{"poiid":"B2094757D068A2FB459C","title":"仁清 南昌路店 NINSEI JAPANESE DININGBAR","lon":"121.4639582539","lat":"31.217281624639","category":"95","category_name":"日本料理","address":"卢湾区南昌路125号(近瑞金二路)"},{"poiid":"B2094757D06FAAF44798","title":"EASO ROOM","lon":"121.46515","lat":"31.21538","category":"260","category_name":"其他","address":"卢湾区香山路32号(近瑞金二路)"},{"poiid":"B2094655D26EA0F44998","title":"扬州饭店(瑞金店)","lon":"121.46484","lat":"31.21428","category":"74","category_name":"江苏菜","address":"卢湾区瑞金二路108号民防大厦3楼(近复兴中路)"},{"poiid":"B2094757D069A2FA439A","title":"燕云楼(科学会堂店)","lon":"121.46657","lat":"31.21766","category":"260","category_name":"其他","address":"卢湾区思南路31号5楼(南昌路口)"},{"poiid":"B2094654DA6DABF94499","title":"思南路35号综合楼","lon":"121.46704","lat":"31.21678","category":"46","category_name":"楼宇","address":"思南路35"},{"poiid":"B2094757D06AA2F54593","title":"南蛮亭 思南公馆店","lon":"121.468088","lat":"31.214529","category":"95","category_name":"日本料理","address":"卢湾区思南路45号思南公馆32号楼3楼(近复兴中路)"},{"poiid":"B2094757D464A7FC479A","title":"麒麟宫酒家","lon":"121.46456723123","lat":"31.216548649768","category":"76","category_name":"上海菜","address":"卢湾区瑞金二路75号(近南昌路)"},{"poiid":"B2094750D16AA1F4479A","title":"壹•火锅 The One Hotpot","lon":"121.465843","lat":"31.216817","category":"247","category_name":"餐饮美食","address":"复兴中路535号(思南公馆30号)"},{"poiid":"B209475CD26CA4FC4598","title":"iapm上海环贸广场","lon":"121.46421","lat":"31.215311","category":"500","category_name":"未知分类","address":"上海市 淮海中路999号"},{"poiid":"B2094655D264A5FC499E","title":"阿面娘","lon":"121.46647","lat":"31.21768","category":"257","category_name":"中餐厅","address":"思南路36-1临"},{"poiid":"B2094654DA6DABF9419D","title":"思南路幼儿园","lon":"121.46619","lat":"31.21685","category":"57","category_name":"幼儿园","address":"卢湾区皋兰路11号(近思南路)"},{"poiid":"B2094757D568ABFC4799","title":"交大医学院西校区","lon":"121.46739","lat":"31.21463","category":"52","category_name":"高等院校","address":"重庆南路280号"},{"poiid":"B2094655D36CA6FF439C","title":"复兴中路瑞金二路","lon":"121.46427","lat":"31.2147","category":"38","category_name":"公交车站","address":""},{"poiid":"B2094654DA6DABF4429E","title":"市气功研究所医疗门诊部","lon":"121.46537","lat":"31.21799","category":"162","category_name":"医院","address":"卢湾区南昌路220号(瑞金二路与思南路间)"},{"poiid":"B2094757D064A3F4499B","title":"一豚","lon":"121.465683738","lat":"31.2149439744","category":"95","category_name":"日本料理","address":"卢湾区复兴中路581号(近瑞金二路)"},{"poiid":"B2094757D06AA5FA479D","title":"阿三烤鸭","lon":"121.46508","lat":"31.21477","category":"68","category_name":"快餐厅","address":"卢湾区复兴中路589号(近瑞金二路)"},{"poiid":"B209475DD468A2FA479C","title":"小小南国","lon":"121.46434","lat":"31.214624","category":"247","category_name":"餐饮美食","address":"上海市 上海市徐汇区淮海中路939号"},{"poiid":"B2094753D46BA1FD439E","title":"楓の私廚料理","lon":"121.465393","lat":"31.216409","category":"247","category_name":"餐饮美食","address":"上海市 淮海中路816弄內58號"},{"poiid":"B2094753D26BA3FA409A","title":"思南公馆","lon":"121.466143","lat":"31.216217","category":"500","category_name":"未知分类","address":"上海市 复兴中路思南路"},{"poiid":"B2094757D16DA3F5449D","title":"松坂烤肉","lon":"121.46526336","lat":"31.216856002","category":"247","category_name":"餐饮美食","address":"上海老锦江内"},{"poiid":"B2094655D26AA7FC479A","title":"瑞金宾馆宴会厅","lon":"121.46607","lat":"31.2139","category":"247","category_name":"餐饮美食","address":"卢湾区瑞金二路118号瑞金宾馆内(近复兴中路)查看地图"},{"poiid":"B2094655D264A5FC449E","title":"illy","lon":"121.46504","lat":"31.21569","category":"256","category_name":"外国餐厅","address":"卢湾区建国中路155弄39号"},{"poiid":"B2094757D66BABFD419B","title":"北万新 香山店","lon":"121.464814054","lat":"31.214811793","category":"68","category_name":"快餐厅","address":"卢湾区瑞金二路111号(近复兴中路)"},{"poiid":"B209475CDA6EA7F4449A","title":"ipam环贸","lon":"121.465614","lat":"31.215686","category":"500","category_name":"未知分类","address":"上海市 淮海中路"},{"poiid":"B2094757D56EA4FF4998","title":"上海南京路新世界","lon":"121.464692","lat":"31.215499","category":"249","category_name":"购物服务","address":"上海市南京西路2－68号(88号)五层"},{"poiid":"B2094654DA6DA6F5409B","title":"花园坊","lon":"121.46608","lat":"31.213909","category":"47","category_name":"住宅区","address":"卢湾区瑞金二路129弄(近复兴中路)"},{"poiid":"B2094757D064AAFA4699","title":"Shoga 姜","lon":"121.46685073","lat":"31.216485007","category":"95","category_name":"日本料理","address":"卢湾区思南路30号"},{"poiid":"B2094757D164A7F5479B","title":"上海皋兰路东正教教堂","lon":"121.46599565","lat":"31.216691602","category":"245","category_name":"教堂","address":"上海卢湾区皋兰路16号"},{"poiid":"B2094757D06FA3F9439C","title":"拳击猫啤酒屋 Boxing Cat Brewery(思南路店)","lon":"121.46768783","lat":"31.215615828","category":"94","category_name":"西餐厅","address":"卢湾区复兴中路519号思南公馆26A栋(近思南路)"},{"poiid":"B2094757D06EAAF9409F","title":"阿娘面","lon":"121.46655","lat":"31.21757","category":"68","category_name":"快餐厅","address":"卢湾区思南路36号(近南昌路)"},{"poiid":"B2094757D06EABF54093","title":"古董花园 Antique Garden","lon":"121.46692867894","lat":"31.216339592929","category":"47","category_name":"住宅区","address":"卢湾区思南路44号甲(近香山路)"},{"poiid":"B2094753D76FAAFA449C","title":"上海滩国泰旗舰店","lon":"121.466011","lat":"31.216125","category":"249","category_name":"购物服务","address":"淮海中路868号"},{"poiid":"B209475CD564A7F84292","title":"上海滩新天地店","lon":"121.47463","lat":"31.22164","category":"119","category_name":"商场","address":"\"太仓路181弄新天地北里15号\r\n\""},{"poiid":"B209475CD564A7F8439E","title":"上海滩中信泰富店","lon":"121.45602","lat":"31.22851","category":"119","category_name":"商场","address":"\"南京西路1168号中信泰富广场，店铺号221.\r\n\""},{"poiid":"B2094757D06EAAFE4092","title":"Muse at Park 97","lon":"121.46741778008413","lat":"31.21736329005447","category":"260","category_name":"其他","address":"卢湾区皋兰路2号甲复兴公园内(近思南路)"},{"poiid":"B2094654DA6EA4FB409C","title":"Club G Plus","lon":"121.465873","lat":"31.214857","category":"260","category_name":"其他","address":"卢湾区兴业路123弄新天地南里广场6号楼5楼(近马当路)"},{"poiid":"B2094757D06FA2FE4799","title":"上海瑞金洲际酒店","lon":"121.46510953447012","lat":"31.213619361647314","category":"217","category_name":"旅馆招待所","address":"卢湾区瑞金二路118号上海瑞金洲际酒店内(近复兴中路)"},{"poiid":"B2094654DB69A4F8439F","title":"星巴克(瑞金路店)","lon":"121.4649203","lat":"31.2150973","category":"260","category_name":"其他","address":"卢湾区瑞金二路101-107号(近复兴中路)"},{"poiid":"B2094750DA6EA1FD449E","title":"蜀公馆成都老火锅","lon":"121.465324","lat":"31.217531","category":"86","category_name":"火锅店","address":"卢湾区淮海中路776号锦江淮海大厦1楼(近瑞金一路)"},{"poiid":"B2094757D06FA7FB489E","title":"官邸","lon":"121.4676","lat":"31.21717","category":"47","category_name":"住宅区","address":"卢湾区皋兰路2号甲复兴公园内(近思南路)"},{"poiid":"B2094757D06FA1F9449C","title":"孙中山故居","lon":"121.46759796","lat":"31.216024398","category":"243","category_name":"纪念馆","address":"卢湾区香山路7号(近思南路)"},{"poiid":"B2094757D068A4FF489F","title":"帕夏土耳其餐厅","lon":"121.46559","lat":"31.21756","category":"94","category_name":"西餐厅","address":"卢湾区南昌路262号(近瑞金二路)"},{"poiid":"B2094757D068A5F54199","title":"park97","lon":"121.465627738","lat":"31.2151659791","category":"172","category_name":"酒吧","address":"上海市卢湾区茂名南路"},{"poiid":"B2094757D068A3FE4093","title":"香山中医医院","lon":"121.46655501","lat":"31.21583555","category":"162","category_name":"医院","address":"卢湾区复兴中路528号(复兴中路思南路)"},{"poiid":"B2094752DB6BA3F9459B","title":"上海文化广场剧院","lon":"121.465729","lat":"31.215866","category":"500","category_name":"未知分类","address":"上海市 上海市复兴中路597号"},{"poiid":"B2094757D06FA4FA419C","title":"永兴餐厅","lon":"121.46444","lat":"31.21441","category":"76","category_name":"上海菜","address":"卢湾区复兴中路626弄1号(茂名路瑞金路间)"},{"poiid":"B2094753D565A2FA469A","title":"贝克街221B","lon":"121.465248","lat":"31.21626","category":"47","category_name":"住宅区","address":"上海市 卢湾区瑞金二路50号"},{"poiid":"B209475CD76CA4FC489F","title":"the CAFE KACAO","lon":"121.46556","lat":"31.216766","category":"500","category_name":"未知分类","address":"上海市 思南路8号"},{"poiid":"B2094757D16EA1FF449A","title":"香啡缤(思南公馆)","lon":"121.466178738","lat":"31.2163040034","category":"260","category_name":"其他","address":"卢湾区思南路55号思南公馆26B号楼1楼(近复兴中路)"},{"poiid":"B2094757D068A1FB489E","title":"La Vida","lon":"121.46538","lat":"31.21665","category":"94","category_name":"西餐厅","address":"卢湾区陕西南路402号(近复兴中路)"},{"poiid":"B2094757D068A2FB459C","title":"仁清 南昌路店 NINSEI JAPANESE DININGBAR","lon":"121.4639582539","lat":"31.217281624639","category":"95","category_name":"日本料理","address":"卢湾区南昌路125号(近瑞金二路)"},{"poiid":"B2094757D06FAAF44798","title":"EASO ROOM","lon":"121.46515","lat":"31.21538","category":"260","category_name":"其他","address":"卢湾区香山路32号(近瑞金二路)"},{"poiid":"B2094655D26EA0F44998","title":"扬州饭店(瑞金店)","lon":"121.46484","lat":"31.21428","category":"74","category_name":"江苏菜","address":"卢湾区瑞金二路108号民防大厦3楼(近复兴中路)"},{"poiid":"B2094757D069A2FA439A","title":"燕云楼(科学会堂店)","lon":"121.46657","lat":"31.21766","category":"260","category_name":"其他","address":"卢湾区思南路31号5楼(南昌路口)"},{"poiid":"B2094654DA6DABF94499","title":"思南路35号综合楼","lon":"121.46704","lat":"31.21678","category":"46","category_name":"楼宇","address":"思南路35"},{"poiid":"B2094757D06AA2F54593","title":"南蛮亭 思南公馆店","lon":"121.468088","lat":"31.214529","category":"95","category_name":"日本料理","address":"卢湾区思南路45号思南公馆32号楼3楼(近复兴中路)"},{"poiid":"B2094757D464A7FC479A","title":"麒麟宫酒家","lon":"121.46456723123","lat":"31.216548649768","category":"76","category_name":"上海菜","address":"卢湾区瑞金二路75号(近南昌路)"},{"poiid":"B2094750D16AA1F4479A","title":"壹•火锅 The One Hotpot","lon":"121.465843","lat":"31.216817","category":"247","category_name":"餐饮美食","address":"复兴中路535号(思南公馆30号)"},{"poiid":"B209475CD26CA4FC4598","title":"iapm上海环贸广场","lon":"121.46421","lat":"31.215311","category":"500","category_name":"未知分类","address":"上海市 淮海中路999号"},{"poiid":"B2094655D264A5FC499E","title":"阿面娘","lon":"121.46647","lat":"31.21768","category":"257","category_name":"中餐厅","address":"思南路36-1临"},{"poiid":"B2094654DA6DABF9419D","title":"思南路幼儿园","lon":"121.46619","lat":"31.21685","category":"57","category_name":"幼儿园","address":"卢湾区皋兰路11号(近思南路)"},{"poiid":"B2094757D568ABFC4799","title":"交大医学院西校区","lon":"121.46739","lat":"31.21463","category":"52","category_name":"高等院校","address":"重庆南路280号"},{"poiid":"B2094655D36CA6FF439C","title":"复兴中路瑞金二路","lon":"121.46427","lat":"31.2147","category":"38","category_name":"公交车站","address":""},{"poiid":"B2094654DA6DABF4429E","title":"市气功研究所医疗门诊部","lon":"121.46537","lat":"31.21799","category":"162","category_name":"医院","address":"卢湾区南昌路220号(瑞金二路与思南路间)"},{"poiid":"B2094757D064A3F4499B","title":"一豚","lon":"121.465683738","lat":"31.2149439744","category":"95","category_name":"日本料理","address":"卢湾区复兴中路581号(近瑞金二路)"},{"poiid":"B2094757D06AA5FA479D","title":"阿三烤鸭","lon":"121.46508","lat":"31.21477","category":"68","category_name":"快餐厅","address":"卢湾区复兴中路589号(近瑞金二路)"},{"poiid":"B209475DD468A2FA479C","title":"小小南国","lon":"121.46434","lat":"31.214624","category":"247","category_name":"餐饮美食","address":"上海市 上海市徐汇区淮海中路939号"},{"poiid":"B2094753D46BA1FD439E","title":"楓の私廚料理","lon":"121.465393","lat":"31.216409","category":"247","category_name":"餐饮美食","address":"上海市 淮海中路816弄內58號"},{"poiid":"B2094753D26BA3FA409A","title":"思南公馆","lon":"121.466143","lat":"31.216217","category":"500","category_name":"未知分类","address":"上海市 复兴中路思南路"},{"poiid":"B2094757D16DA3F5449D","title":"松坂烤肉","lon":"121.46526336","lat":"31.216856002","category":"247","category_name":"餐饮美食","address":"上海老锦江内"},{"poiid":"B2094655D26AA7FC479A","title":"瑞金宾馆宴会厅","lon":"121.46607","lat":"31.2139","category":"247","category_name":"餐饮美食","address":"卢湾区瑞金二路118号瑞金宾馆内(近复兴中路)查看地图"},{"poiid":"B2094655D264A5FC449E","title":"illy","lon":"121.46504","lat":"31.21569","category":"256","category_name":"外国餐厅","address":"卢湾区建国中路155弄39号"},{"poiid":"B2094757D66BABFD419B","title":"北万新 香山店","lon":"121.464814054","lat":"31.214811793","category":"68","category_name":"快餐厅","address":"卢湾区瑞金二路111号(近复兴中路)"},{"poiid":"B209475CDA6EA7F4449A","title":"ipam环贸","lon":"121.465614","lat":"31.215686","category":"500","category_name":"未知分类","address":"上海市 淮海中路"},{"poiid":"B2094757D56EA4FF4998","title":"上海南京路新世界","lon":"121.464692","lat":"31.215499","category":"249","category_name":"购物服务","address":"上海市南京西路2－68号(88号)五层"},{"poiid":"B2094654DA6DA6F5409B","title":"花园坊","lon":"121.46608","lat":"31.213909","category":"47","category_name":"住宅区","address":"卢湾区瑞金二路129弄(近复兴中路)"},{"poiid":"B2094757D064AAFA4699","title":"Shoga 姜","lon":"121.46685073","lat":"31.216485007","category":"95","category_name":"日本料理","address":"卢湾区思南路30号"},{"poiid":"B2094757D164A7F5479B","title":"上海皋兰路东正教教堂","lon":"121.46599565","lat":"31.216691602","category":"245","category_name":"教堂","address":"上海卢湾区皋兰路16号"}]