[{"poiid":"B2094757D06EAAFC449B","title":"串串香麻辣烫(襄阳路店)","lon":"121.45859","lat":"31.20867","category":"68","category_name":"快餐厅","address":"徐汇区襄阳南路311号(近永嘉路)"},{"poiid":"B2094655D36DA1F44793","title":"襄阳南路永嘉路","lon":"121.45791","lat":"31.20864","category":"38","category_name":"公交车站","address":""},{"poiid":"B2094757D06FAAFA459D","title":"上海市口腔病防治院(复兴中路分院)","lon":"121.4582","lat":"31.2126","category":"162","category_name":"医院","address":"徐汇区复兴中路1258号(近襄阳南路)"},{"poiid":"B2094753D76FAAFA449C","title":"上海滩国泰旗舰店","lon":"121.466011","lat":"31.216125","category":"249","category_name":"购物服务","address":"淮海中路868号"},{"poiid":"B209475CD564A7F84292","title":"上海滩新天地店","lon":"121.47463","lat":"31.22164","category":"119","category_name":"商场","address":"\"太仓路181弄新天地北里15号\r\n\""},{"poiid":"B209475CD564A7F8439E","title":"上海滩中信泰富店","lon":"121.45602","lat":"31.22851","category":"119","category_name":"商场","address":"\"南京西路1168号中信泰富广场，店铺号221.\r\n\""},{"poiid":"B2094757D06FA2FA489F","title":"Le Creme Milano(永嘉路店)","lon":"121.4610629","lat":"31.210917858","category":"113","category_name":"冷饮店","address":"上海徐汇区陕西南路434号(近永嘉路)"},{"poiid":"B2094757DB6CA7F4459F","title":"Shanghai Brewery","lon":"121.45859","lat":"31.21094","category":"260","category_name":"其他","address":"徐汇区东平路15号(近衡山路)"},{"poiid":"B2094757D06FA5FE4898","title":"老地方面馆","lon":"121.45791","lat":"31.21153","category":"68","category_name":"快餐厅","address":"徐汇区襄阳南路233号(近永康路)"},{"poiid":"B2094757D068A1F8429A","title":"熠盛粤味","lon":"121.457178","lat":"31.210503","category":"72","category_name":"广东菜","address":"徐汇区永康路132号(近襄阳南路)"},{"poiid":"B2094757D06EAAFA429F","title":"It's Café (Espresso Club)","lon":"121.458087","lat":"31.21099","category":"65","category_name":"咖啡厅","address":"上海徐汇区永康路64号"},{"poiid":"B2094757D16EA0F9449A","title":"永康路","lon":"121.460757538","lat":"31.2108748877","category":"500","category_name":"未知分类","address":"上海徐汇区永康路"},{"poiid":"B2094757D068A3FD4793","title":"华检体检中心(徐汇分院)","lon":"121.459014996","lat":"31.211539631","category":"162","category_name":"医院","address":"徐汇区嘉善路118号明园B座3楼(近永康路)"},{"poiid":"B2094757D16EA5F5409E","title":"The Sailors","lon":"121.458565738","lat":"31.2106958839","category":"500","category_name":"未知分类","address":"上海永康路33号"},{"poiid":"B2094757D065A2FB4699","title":"Muses Cafe","lon":"121.459490738","lat":"31.2115059012","category":"500","category_name":"未知分类","address":"卢湾区陕西南路438-2号(上海文化广场对面)"},{"poiid":"B2094757D06AA2FE419F","title":"嘉善路永嘉路","lon":"121.46058735","lat":"31.209750078","category":"500","category_name":"未知分类","address":"上海嘉善路永嘉路"},{"poiid":"B2094654DA6DA6F8479B","title":"点石斋小宴","lon":"121.45729","lat":"31.20882","category":"76","category_name":"上海菜","address":"徐汇区永嘉路320号(近襄阳南路)"},{"poiid":"B2094757DA6FA3FE439F","title":"恋恋仙草(永康店)","lon":"121.457996","lat":"31.2109670000002","category":"113","category_name":"冷饮店","address":"徐汇区永康路70号(襄阳南路口)"},{"poiid":"B2094750DB68A0FB4492","title":"上海五官科医院","lon":"121.45819","lat":"31.210149","category":"162","category_name":"医院","address":"徐汇区汾阳路83号"},{"poiid":"B2094757D06EABF5499F","title":"新单位","lon":"121.461281","lat":"31.210108","category":"46","category_name":"楼宇","address":"卢湾区永嘉路50号(近陕西南路)"},{"poiid":"B2094655D26FA4F44198","title":"Newyork Pizza","lon":"121.459","lat":"31.2112","category":"94","category_name":"西餐厅","address":"徐汇区永康路52号(近嘉善路)"},{"poiid":"B2094750DA6BA1F9409B","title":"上海理工大学中英国际学院","lon":"121.460227","lat":"31.21158","category":"500","category_name":"未知分类","address":"复兴中路1195号"},{"poiid":"B2094757D069A5FD4492","title":"京世造型复兴店","lon":"121.46034773","lat":"31.212293917","category":"148","category_name":"美容美发店","address":"上海市徐汇区复兴中路1195号"},{"poiid":"B2094757D764A5F4449F","title":"IT'S COFFEE","lon":"121.458087","lat":"31.21099","category":"260","category_name":"其他","address":"徐汇区永康路64号(近复兴中路)"},{"poiid":"B2094654DA6DA6FD459F","title":"花子","lon":"121.45753735595","lat":"31.211939687057","category":"95","category_name":"日本料理","address":"徐汇区襄阳南路207-3号(近复兴中路)"},{"poiid":"B2094757D06AA6FA459F","title":"宋芳茶馆 Song Fang Maison de The","lon":"121.45904294968","lat":"31.209497617878","category":"66","category_name":"茶艺馆","address":"永嘉路227号甲1-3楼近陕西南路"},{"poiid":"B2094757DA65A6FC4299","title":"1933老場坊","lon":"121.457631","lat":"31.21133","category":"248","category_name":"生活娱乐","address":"上海市虹口區漂陽路611號1933老場坊"},{"poiid":"B2094751D368A0FE4293","title":"The Sailors Fish & Chips","lon":"121.45851","lat":"31.21092","category":"68","category_name":"快餐厅","address":"徐汇区永康路33号(近襄阳南路)"},{"poiid":"B2094654DA6DA6FF469A","title":"明园世纪城","lon":"121.45858","lat":"31.211952","category":"47","category_name":"住宅区","address":"上海市徐汇区复兴中路1199号"},{"poiid":"B2094655D36CA2FB4999","title":"陕西南路永嘉路","lon":"121.46139","lat":"31.21103","category":"38","category_name":"公交车站","address":""},{"poiid":"B2094750D465A2F54899","title":"寿司屋","lon":"121.459007","lat":"31.211322","category":"95","category_name":"日本料理","address":"徐汇区永康路21号(近嘉善路)"},{"poiid":"B2094757D16AA3FA409B","title":"台北永康","lon":"121.45818773","lat":"31.210877887","category":"500","category_name":"未知分类","address":"上海永康路66号"},{"poiid":"B2094750D76DA4F9449E","title":"阿斯曼新疆风味餐厅(复兴中路店)","lon":"121.458","lat":"31.2126","category":"90","category_name":"清真餐馆","address":"徐汇区复兴中路1251号"},{"poiid":"B2094655D26FAAFC4498","title":"上海理工大学东门(陕西南路)","lon":"121.46114","lat":"31.21159","category":"52","category_name":"高等院校","address":""},{"poiid":"B2094654DA6DA6F9499D","title":"皇宫爆烤鸭","lon":"121.457991054","lat":"31.208769793","category":"68","category_name":"快餐厅","address":"徐汇区襄阳南路311号(近永嘉路)"},{"poiid":"B2094757D665A3FC4898","title":"湘泉乡村土菜馆 永嘉店","lon":"121.45959667146","lat":"31.209721637788","category":"77","category_name":"湖南菜","address":"卢湾区永嘉路108号(近嘉善路)"},{"poiid":"B2094757D16EA7FA469D","title":"乔家栅食府","lon":"121.457663373","lat":"31.2089027357","category":"68","category_name":"快餐厅","address":"徐汇区襄阳南路336号(近永嘉路)"},{"poiid":"B2094654DA6DA6FD499E","title":"明园商务中心B座","lon":"121.45896","lat":"31.21154","category":"46","category_name":"楼宇","address":"嘉善路98、118"},{"poiid":"B2094757D06BA6F54492","title":"台北永康精致美食","lon":"121.45812576","lat":"31.210464891","category":"91","category_name":"台湾菜","address":"徐汇区永康路66号(近襄阳路)"},{"poiid":"B2094654DA6DA6F9499E","title":"晓平饭店","lon":"121.4596","lat":"31.20848","category":"76","category_name":"上海菜","address":"徐汇区嘉善路202号(近永嘉路)"},{"poiid":"B2094757D068A1F84792","title":"现代电子城","lon":"121.45725822","lat":"31.212201762","category":"249","category_name":"购物服务","address":"徐汇区襄阳南路218号(近复兴中路)"},{"poiid":"B2094654DA6DA6FE419F","title":"晚星餐厅","lon":"121.45943","lat":"31.21146","category":"76","category_name":"上海菜","address":"徐汇区嘉善路87号(近复兴中路)"},{"poiid":"B2094757D16DA2F94499","title":"Melange oasis cafe","lon":"121.45945273","lat":"31.208209831","category":"500","category_name":"未知分类","address":"上海陝西南路550巷37號"},{"poiid":"B2094757D06BAAFB469F","title":"重庆鸡公煲(复兴中路店)","lon":"121.45855","lat":"31.2126","category":"71","category_name":"四川菜","address":"卢湾区复兴中路1250号(复兴中路嘉善路)"},{"poiid":"B2094654DB69A6F8429C","title":"嘉嘉大楼","lon":"121.45912","lat":"31.209761","category":"47","category_name":"住宅区","address":"浦东区崂山东路410号"},{"poiid":"B2094757D06BA4F5409A","title":"维也纳咖啡","lon":"121.46024634","lat":"31.209313144","category":"65","category_name":"咖啡厅","address":"绍兴路25弄2号近陕西南路瑞金二路间"},{"poiid":"B2094757D169A0F94898","title":"SBC 英方图书馆","lon":"121.458349638","lat":"31.2126543256","category":"181","category_name":"图书馆","address":"上海复兴中路1195号"},{"poiid":"B2094750D76EA4F5419F","title":"JustGrapes(永康路店)","lon":"121.459","lat":"31.211","category":"94","category_name":"西餐厅","address":"徐汇区永康路41号(近嘉善路)"},{"poiid":"B2094753D66FABFD469E","title":"梦苑咖啡影吧","lon":"121.457076","lat":"31.211774","category":"65","category_name":"咖啡厅","address":"徐汇区襄阳南路222号"},{"poiid":"B2094654DA6DA6FD459C","title":"巨星发艺(襄阳南路)","lon":"121.45758","lat":"31.21166","category":"148","category_name":"美容美发店","address":"襄阳南路207-4"},{"poiid":"B2094757D06EAAFC449B","title":"串串香麻辣烫(襄阳路店)","lon":"121.45859","lat":"31.20867","category":"68","category_name":"快餐厅","address":"徐汇区襄阳南路311号(近永嘉路)"},{"poiid":"B2094655D36DA1F44793","title":"襄阳南路永嘉路","lon":"121.45791","lat":"31.20864","category":"38","category_name":"公交车站","address":""},{"poiid":"B2094757D06FAAFA459D","title":"上海市口腔病防治院(复兴中路分院)","lon":"121.4582","lat":"31.2126","category":"162","category_name":"医院","address":"徐汇区复兴中路1258号(近襄阳南路)"},{"poiid":"B2094753D76FAAFA449C","title":"上海滩国泰旗舰店","lon":"121.466011","lat":"31.216125","category":"249","category_name":"购物服务","address":"淮海中路868号"},{"poiid":"B209475CD564A7F84292","title":"上海滩新天地店","lon":"121.47463","lat":"31.22164","category":"119","category_name":"商场","address":"\"太仓路181弄新天地北里15号\r\n\""},{"poiid":"B209475CD564A7F8439E","title":"上海滩中信泰富店","lon":"121.45602","lat":"31.22851","category":"119","category_name":"商场","address":"\"南京西路1168号中信泰富广场，店铺号221.\r\n\""},{"poiid":"B2094757D06FA2FA489F","title":"Le Creme Milano(永嘉路店)","lon":"121.4610629","lat":"31.210917858","category":"113","category_name":"冷饮店","address":"上海徐汇区陕西南路434号(近永嘉路)"},{"poiid":"B2094757DB6CA7F4459F","title":"Shanghai Brewery","lon":"121.45859","lat":"31.21094","category":"260","category_name":"其他","address":"徐汇区东平路15号(近衡山路)"},{"poiid":"B2094757D06FA5FE4898","title":"老地方面馆","lon":"121.45791","lat":"31.21153","category":"68","category_name":"快餐厅","address":"徐汇区襄阳南路233号(近永康路)"},{"poiid":"B2094757D068A1F8429A","title":"熠盛粤味","lon":"121.457178","lat":"31.210503","category":"72","category_name":"广东菜","address":"徐汇区永康路132号(近襄阳南路)"},{"poiid":"B2094757D06EAAFA429F","title":"It's Café (Espresso Club)","lon":"121.458087","lat":"31.21099","category":"65","category_name":"咖啡厅","address":"上海徐汇区永康路64号"},{"poiid":"B2094757D16EA0F9449A","title":"永康路","lon":"121.460757538","lat":"31.2108748877","category":"500","category_name":"未知分类","address":"上海徐汇区永康路"},{"poiid":"B2094757D068A3FD4793","title":"华检体检中心(徐汇分院)","lon":"121.459014996","lat":"31.211539631","category":"162","category_name":"医院","address":"徐汇区嘉善路118号明园B座3楼(近永康路)"},{"poiid":"B2094757D16EA5F5409E","title":"The Sailors","lon":"121.458565738","lat":"31.2106958839","category":"500","category_name":"未知分类","address":"上海永康路33号"},{"poiid":"B2094757D065A2FB4699","title":"Muses Cafe","lon":"121.459490738","lat":"31.2115059012","category":"500","category_name":"未知分类","address":"卢湾区陕西南路438-2号(上海文化广场对面)"},{"poiid":"B2094757D06AA2FE419F","title":"嘉善路永嘉路","lon":"121.46058735","lat":"31.209750078","category":"500","category_name":"未知分类","address":"上海嘉善路永嘉路"},{"poiid":"B2094654DA6DA6F8479B","title":"点石斋小宴","lon":"121.45729","lat":"31.20882","category":"76","category_name":"上海菜","address":"徐汇区永嘉路320号(近襄阳南路)"},{"poiid":"B2094757DA6FA3FE439F","title":"恋恋仙草(永康店)","lon":"121.457996","lat":"31.2109670000002","category":"113","category_name":"冷饮店","address":"徐汇区永康路70号(襄阳南路口)"},{"poiid":"B2094750DB68A0FB4492","title":"上海五官科医院","lon":"121.45819","lat":"31.210149","category":"162","category_name":"医院","address":"徐汇区汾阳路83号"},{"poiid":"B2094757D06EABF5499F","title":"新单位","lon":"121.461281","lat":"31.210108","category":"46","category_name":"楼宇","address":"卢湾区永嘉路50号(近陕西南路)"},{"poiid":"B2094655D26FA4F44198","title":"Newyork Pizza","lon":"121.459","lat":"31.2112","category":"94","category_name":"西餐厅","address":"徐汇区永康路52号(近嘉善路)"},{"poiid":"B2094750DA6BA1F9409B","title":"上海理工大学中英国际学院","lon":"121.460227","lat":"31.21158","category":"500","category_name":"未知分类","address":"复兴中路1195号"},{"poiid":"B2094757D069A5FD4492","title":"京世造型复兴店","lon":"121.46034773","lat":"31.212293917","category":"148","category_name":"美容美发店","address":"上海市徐汇区复兴中路1195号"},{"poiid":"B2094757D764A5F4449F","title":"IT'S COFFEE","lon":"121.458087","lat":"31.21099","category":"260","category_name":"其他","address":"徐汇区永康路64号(近复兴中路)"},{"poiid":"B2094654DA6DA6FD459F","title":"花子","lon":"121.45753735595","lat":"31.211939687057","category":"95","category_name":"日本料理","address":"徐汇区襄阳南路207-3号(近复兴中路)"},{"poiid":"B2094757D06AA6FA459F","title":"宋芳茶馆 Song Fang Maison de The","lon":"121.45904294968","lat":"31.209497617878","category":"66","category_name":"茶艺馆","address":"永嘉路227号甲1-3楼近陕西南路"},{"poiid":"B2094757DA65A6FC4299","title":"1933老場坊","lon":"121.457631","lat":"31.21133","category":"248","category_name":"生活娱乐","address":"上海市虹口區漂陽路611號1933老場坊"},{"poiid":"B2094751D368A0FE4293","title":"The Sailors Fish & Chips","lon":"121.45851","lat":"31.21092","category":"68","category_name":"快餐厅","address":"徐汇区永康路33号(近襄阳南路)"},{"poiid":"B2094654DA6DA6FF469A","title":"明园世纪城","lon":"121.45858","lat":"31.211952","category":"47","category_name":"住宅区","address":"上海市徐汇区复兴中路1199号"},{"poiid":"B2094655D36CA2FB4999","title":"陕西南路永嘉路","lon":"121.46139","lat":"31.21103","category":"38","category_name":"公交车站","address":""},{"poiid":"B2094750D465A2F54899","title":"寿司屋","lon":"121.459007","lat":"31.211322","category":"95","category_name":"日本料理","address":"徐汇区永康路21号(近嘉善路)"},{"poiid":"B2094757D16AA3FA409B","title":"台北永康","lon":"121.45818773","lat":"31.210877887","category":"500","category_name":"未知分类","address":"上海永康路66号"},{"poiid":"B2094750D76DA4F9449E","title":"阿斯曼新疆风味餐厅(复兴中路店)","lon":"121.458","lat":"31.2126","category":"90","category_name":"清真餐馆","address":"徐汇区复兴中路1251号"},{"poiid":"B2094655D26FAAFC4498","title":"上海理工大学东门(陕西南路)","lon":"121.46114","lat":"31.21159","category":"52","category_name":"高等院校","address":""},{"poiid":"B2094654DA6DA6F9499D","title":"皇宫爆烤鸭","lon":"121.457991054","lat":"31.208769793","category":"68","category_name":"快餐厅","address":"徐汇区襄阳南路311号(近永嘉路)"},{"poiid":"B2094757D665A3FC4898","title":"湘泉乡村土菜馆 永嘉店","lon":"121.45959667146","lat":"31.209721637788","category":"77","category_name":"湖南菜","address":"卢湾区永嘉路108号(近嘉善路)"},{"poiid":"B2094757D16EA7FA469D","title":"乔家栅食府","lon":"121.457663373","lat":"31.2089027357","category":"68","category_name":"快餐厅","address":"徐汇区襄阳南路336号(近永嘉路)"},{"poiid":"B2094654DA6DA6FD499E","title":"明园商务中心B座","lon":"121.45896","lat":"31.21154","category":"46","category_name":"楼宇","address":"嘉善路98、118"},{"poiid":"B2094757D06BA6F54492","title":"台北永康精致美食","lon":"121.45812576","lat":"31.210464891","category":"91","category_name":"台湾菜","address":"徐汇区永康路66号(近襄阳路)"},{"poiid":"B2094654DA6DA6F9499E","title":"晓平饭店","lon":"121.4596","lat":"31.20848","category":"76","category_name":"上海菜","address":"徐汇区嘉善路202号(近永嘉路)"},{"poiid":"B2094757D068A1F84792","title":"现代电子城","lon":"121.45725822","lat":"31.212201762","category":"249","category_name":"购物服务","address":"徐汇区襄阳南路218号(近复兴中路)"},{"poiid":"B2094654DA6DA6FE419F","title":"晚星餐厅","lon":"121.45943","lat":"31.21146","category":"76","category_name":"上海菜","address":"徐汇区嘉善路87号(近复兴中路)"},{"poiid":"B2094757D16DA2F94499","title":"Melange oasis cafe","lon":"121.45945273","lat":"31.208209831","category":"500","category_name":"未知分类","address":"上海陝西南路550巷37號"},{"poiid":"B2094757D06BAAFB469F","title":"重庆鸡公煲(复兴中路店)","lon":"121.45855","lat":"31.2126","category":"71","category_name":"四川菜","address":"卢湾区复兴中路1250号(复兴中路嘉善路)"},{"poiid":"B2094654DB69A6F8429C","title":"嘉嘉大楼","lon":"121.45912","lat":"31.209761","category":"47","category_name":"住宅区","address":"浦东区崂山东路410号"},{"poiid":"B2094757D06BA4F5409A","title":"维也纳咖啡","lon":"121.46024634","lat":"31.209313144","category":"65","category_name":"咖啡厅","address":"绍兴路25弄2号近陕西南路瑞金二路间"},{"poiid":"B2094757D169A0F94898","title":"SBC 英方图书馆","lon":"121.458349638","lat":"31.2126543256","category":"181","category_name":"图书馆","address":"上海复兴中路1195号"},{"poiid":"B2094750D76EA4F5419F","title":"JustGrapes(永康路店)","lon":"121.459","lat":"31.211","category":"94","category_name":"西餐厅","address":"徐汇区永康路41号(近嘉善路)"},{"poiid":"B2094753D66FABFD469E","title":"梦苑咖啡影吧","lon":"121.457076","lat":"31.211774","category":"65","category_name":"咖啡厅","address":"徐汇区襄阳南路222号"},{"poiid":"B2094654DA6DA6FD459C","title":"巨星发艺(襄阳南路)","lon":"121.45758","lat":"31.21166","category":"148","category_name":"美容美发店","address":"襄阳南路207-4"},{"poiid":"B2094757D06EAAFC449B","title":"串串香麻辣烫(襄阳路店)","lon":"121.45859","lat":"31.20867","category":"68","category_name":"快餐厅","address":"徐汇区襄阳南路311号(近永嘉路)"},{"poiid":"B2094655D36DA1F44793","title":"襄阳南路永嘉路","lon":"121.45791","lat":"31.20864","category":"38","category_name":"公交车站","address":""},{"poiid":"B2094757D06FAAFA459D","title":"上海市口腔病防治院(复兴中路分院)","lon":"121.4582","lat":"31.2126","category":"162","category_name":"医院","address":"徐汇区复兴中路1258号(近襄阳南路)"},{"poiid":"B2094753D76FAAFA449C","title":"上海滩国泰旗舰店","lon":"121.466011","lat":"31.216125","category":"249","category_name":"购物服务","address":"淮海中路868号"},{"poiid":"B209475CD564A7F84292","title":"上海滩新天地店","lon":"121.47463","lat":"31.22164","category":"119","category_name":"商场","address":"\"太仓路181弄新天地北里15号\r\n\""},{"poiid":"B209475CD564A7F8439E","title":"上海滩中信泰富店","lon":"121.45602","lat":"31.22851","category":"119","category_name":"商场","address":"\"南京西路1168号中信泰富广场，店铺号221.\r\n\""},{"poiid":"B2094757D06FA2FA489F","title":"Le Creme Milano(永嘉路店)","lon":"121.4610629","lat":"31.210917858","category":"113","category_name":"冷饮店","address":"上海徐汇区陕西南路434号(近永嘉路)"},{"poiid":"B2094757DB6CA7F4459F","title":"Shanghai Brewery","lon":"121.45859","lat":"31.21094","category":"260","category_name":"其他","address":"徐汇区东平路15号(近衡山路)"},{"poiid":"B2094757D06FA5FE4898","title":"老地方面馆","lon":"121.45791","lat":"31.21153","category":"68","category_name":"快餐厅","address":"徐汇区襄阳南路233号(近永康路)"},{"poiid":"B2094757D068A1F8429A","title":"熠盛粤味","lon":"121.457178","lat":"31.210503","category":"72","category_name":"广东菜","address":"徐汇区永康路132号(近襄阳南路)"},{"poiid":"B2094757D06EAAFA429F","title":"It's Café (Espresso Club)","lon":"121.458087","lat":"31.21099","category":"65","category_name":"咖啡厅","address":"上海徐汇区永康路64号"},{"poiid":"B2094757D16EA0F9449A","title":"永康路","lon":"121.460757538","lat":"31.2108748877","category":"500","category_name":"未知分类","address":"上海徐汇区永康路"},{"poiid":"B2094757D068A3FD4793","title":"华检体检中心(徐汇分院)","lon":"121.459014996","lat":"31.211539631","category":"162","category_name":"医院","address":"徐汇区嘉善路118号明园B座3楼(近永康路)"},{"poiid":"B2094757D16EA5F5409E","title":"The Sailors","lon":"121.458565738","lat":"31.2106958839","category":"500","category_name":"未知分类","address":"上海永康路33号"},{"poiid":"B2094757D065A2FB4699","title":"Muses Cafe","lon":"121.459490738","lat":"31.2115059012","category":"500","category_name":"未知分类","address":"卢湾区陕西南路438-2号(上海文化广场对面)"},{"poiid":"B2094757D06AA2FE419F","title":"嘉善路永嘉路","lon":"121.46058735","lat":"31.209750078","category":"500","category_name":"未知分类","address":"上海嘉善路永嘉路"},{"poiid":"B2094654DA6DA6F8479B","title":"点石斋小宴","lon":"121.45729","lat":"31.20882","category":"76","category_name":"上海菜","address":"徐汇区永嘉路320号(近襄阳南路)"},{"poiid":"B2094757DA6FA3FE439F","title":"恋恋仙草(永康店)","lon":"121.457996","lat":"31.2109670000002","category":"113","category_name":"冷饮店","address":"徐汇区永康路70号(襄阳南路口)"},{"poiid":"B2094750DB68A0FB4492","title":"上海五官科医院","lon":"121.45819","lat":"31.210149","category":"162","category_name":"医院","address":"徐汇区汾阳路83号"},{"poiid":"B2094757D06EABF5499F","title":"新单位","lon":"121.461281","lat":"31.210108","category":"46","category_name":"楼宇","address":"卢湾区永嘉路50号(近陕西南路)"},{"poiid":"B2094655D26FA4F44198","title":"Newyork Pizza","lon":"121.459","lat":"31.2112","category":"94","category_name":"西餐厅","address":"徐汇区永康路52号(近嘉善路)"},{"poiid":"B2094750DA6BA1F9409B","title":"上海理工大学中英国际学院","lon":"121.460227","lat":"31.21158","category":"500","category_name":"未知分类","address":"复兴中路1195号"},{"poiid":"B2094757D069A5FD4492","title":"京世造型复兴店","lon":"121.46034773","lat":"31.212293917","category":"148","category_name":"美容美发店","address":"上海市徐汇区复兴中路1195号"},{"poiid":"B2094757D764A5F4449F","title":"IT'S COFFEE","lon":"121.458087","lat":"31.21099","category":"260","category_name":"其他","address":"徐汇区永康路64号(近复兴中路)"},{"poiid":"B2094654DA6DA6FD459F","title":"花子","lon":"121.45753735595","lat":"31.211939687057","category":"95","category_name":"日本料理","address":"徐汇区襄阳南路207-3号(近复兴中路)"},{"poiid":"B2094757D06AA6FA459F","title":"宋芳茶馆 Song Fang Maison de The","lon":"121.45904294968","lat":"31.209497617878","category":"66","category_name":"茶艺馆","address":"永嘉路227号甲1-3楼近陕西南路"},{"poiid":"B2094757DA65A6FC4299","title":"1933老場坊","lon":"121.457631","lat":"31.21133","category":"248","category_name":"生活娱乐","address":"上海市虹口區漂陽路611號1933老場坊"},{"poiid":"B2094751D368A0FE4293","title":"The Sailors Fish & Chips","lon":"121.45851","lat":"31.21092","category":"68","category_name":"快餐厅","address":"徐汇区永康路33号(近襄阳南路)"},{"poiid":"B2094654DA6DA6FF469A","title":"明园世纪城","lon":"121.45858","lat":"31.211952","category":"47","category_name":"住宅区","address":"上海市徐汇区复兴中路1199号"},{"poiid":"B2094655D36CA2FB4999","title":"陕西南路永嘉路","lon":"121.46139","lat":"31.21103","category":"38","category_name":"公交车站","address":""},{"poiid":"B2094750D465A2F54899","title":"寿司屋","lon":"121.459007","lat":"31.211322","category":"95","category_name":"日本料理","address":"徐汇区永康路21号(近嘉善路)"},{"poiid":"B2094757D16AA3FA409B","title":"台北永康","lon":"121.45818773","lat":"31.210877887","category":"500","category_name":"未知分类","address":"上海永康路66号"},{"poiid":"B2094750D76DA4F9449E","title":"阿斯曼新疆风味餐厅(复兴中路店)","lon":"121.458","lat":"31.2126","category":"90","category_name":"清真餐馆","address":"徐汇区复兴中路1251号"},{"poiid":"B2094655D26FAAFC4498","title":"上海理工大学东门(陕西南路)","lon":"121.46114","lat":"31.21159","category":"52","category_name":"高等院校","address":""},{"poiid":"B2094654DA6DA6F9499D","title":"皇宫爆烤鸭","lon":"121.457991054","lat":"31.208769793","category":"68","category_name":"快餐厅","address":"徐汇区襄阳南路311号(近永嘉路)"},{"poiid":"B2094757D665A3FC4898","title":"湘泉乡村土菜馆 永嘉店","lon":"121.45959667146","lat":"31.209721637788","category":"77","category_name":"湖南菜","address":"卢湾区永嘉路108号(近嘉善路)"},{"poiid":"B2094757D16EA7FA469D","title":"乔家栅食府","lon":"121.457663373","lat":"31.2089027357","category":"68","category_name":"快餐厅","address":"徐汇区襄阳南路336号(近永嘉路)"},{"poiid":"B2094654DA6DA6FD499E","title":"明园商务中心B座","lon":"121.45896","lat":"31.21154","category":"46","category_name":"楼宇","address":"嘉善路98、118"},{"poiid":"B2094757D06BA6F54492","title":"台北永康精致美食","lon":"121.45812576","lat":"31.210464891","category":"91","category_name":"台湾菜","address":"徐汇区永康路66号(近襄阳路)"},{"poiid":"B2094654DA6DA6F9499E","title":"晓平饭店","lon":"121.4596","lat":"31.20848","category":"76","category_name":"上海菜","address":"徐汇区嘉善路202号(近永嘉路)"},{"poiid":"B2094757D068A1F84792","title":"现代电子城","lon":"121.45725822","lat":"31.212201762","category":"249","category_name":"购物服务","address":"徐汇区襄阳南路218号(近复兴中路)"},{"poiid":"B2094654DA6DA6FE419F","title":"晚星餐厅","lon":"121.45943","lat":"31.21146","category":"76","category_name":"上海菜","address":"徐汇区嘉善路87号(近复兴中路)"},{"poiid":"B2094757D16DA2F94499","title":"Melange oasis cafe","lon":"121.45945273","lat":"31.208209831","category":"500","category_name":"未知分类","address":"上海陝西南路550巷37號"},{"poiid":"B2094757D06BAAFB469F","title":"重庆鸡公煲(复兴中路店)","lon":"121.45855","lat":"31.2126","category":"71","category_name":"四川菜","address":"卢湾区复兴中路1250号(复兴中路嘉善路)"},{"poiid":"B2094654DB69A6F8429C","title":"嘉嘉大楼","lon":"121.45912","lat":"31.209761","category":"47","category_name":"住宅区","address":"浦东区崂山东路410号"},{"poiid":"B2094757D06BA4F5409A","title":"维也纳咖啡","lon":"121.46024634","lat":"31.209313144","category":"65","category_name":"咖啡厅","address":"绍兴路25弄2号近陕西南路瑞金二路间"},{"poiid":"B2094757D169A0F94898","title":"SBC 英方图书馆","lon":"121.458349638","lat":"31.2126543256","category":"181","category_name":"图书馆","address":"上海复兴中路1195号"},{"poiid":"B2094750D76EA4F5419F","title":"JustGrapes(永康路店)","lon":"121.459","lat":"31.211","category":"94","category_name":"西餐厅","address":"徐汇区永康路41号(近嘉善路)"},{"poiid":"B2094753D66FABFD469E","title":"梦苑咖啡影吧","lon":"121.457076","lat":"31.211774","category":"65","category_name":"咖啡厅","address":"徐汇区襄阳南路222号"},{"poiid":"B2094654DA6DA6FD459C","title":"巨星发艺(襄阳南路)","lon":"121.45758","lat":"31.21166","category":"148","category_name":"美容美发店","address":"襄阳南路207-4"},{"poiid":"B2094757D06EAAFC449B","title":"串串香麻辣烫(襄阳路店)","lon":"121.45859","lat":"31.20867","category":"68","category_name":"快餐厅","address":"徐汇区襄阳南路311号(近永嘉路)"},{"poiid":"B2094655D36DA1F44793","title":"襄阳南路永嘉路","lon":"121.45791","lat":"31.20864","category":"38","category_name":"公交车站","address":""},{"poiid":"B2094757D06FAAFA459D","title":"上海市口腔病防治院(复兴中路分院)","lon":"121.4582","lat":"31.2126","category":"162","category_name":"医院","address":"徐汇区复兴中路1258号(近襄阳南路)"},{"poiid":"B2094753D76FAAFA449C","title":"上海滩国泰旗舰店","lon":"121.466011","lat":"31.216125","category":"249","category_name":"购物服务","address":"淮海中路868号"},{"poiid":"B209475CD564A7F84292","title":"上海滩新天地店","lon":"121.47463","lat":"31.22164","category":"119","category_name":"商场","address":"\"太仓路181弄新天地北里15号\r\n\""},{"poiid":"B209475CD564A7F8439E","title":"上海滩中信泰富店","lon":"121.45602","lat":"31.22851","category":"119","category_name":"商场","address":"\"南京西路1168号中信泰富广场，店铺号221.\r\n\""},{"poiid":"B2094757D06FA2FA489F","title":"Le Creme Milano(永嘉路店)","lon":"121.4610629","lat":"31.210917858","category":"113","category_name":"冷饮店","address":"上海徐汇区陕西南路434号(近永嘉路)"},{"poiid":"B2094757DB6CA7F4459F","title":"Shanghai Brewery","lon":"121.45859","lat":"31.21094","category":"260","category_name":"其他","address":"徐汇区东平路15号(近衡山路)"},{"poiid":"B2094757D06FA5FE4898","title":"老地方面馆","lon":"121.45791","lat":"31.21153","category":"68","category_name":"快餐厅","address":"徐汇区襄阳南路233号(近永康路)"},{"poiid":"B2094757D068A1F8429A","title":"熠盛粤味","lon":"121.457178","lat":"31.210503","category":"72","category_name":"广东菜","address":"徐汇区永康路132号(近襄阳南路)"},{"poiid":"B2094757D06EAAFA429F","title":"It's Café (Espresso Club)","lon":"121.458087","lat":"31.21099","category":"65","category_name":"咖啡厅","address":"上海徐汇区永康路64号"},{"poiid":"B2094757D16EA0F9449A","title":"永康路","lon":"121.460757538","lat":"31.2108748877","category":"500","category_name":"未知分类","address":"上海徐汇区永康路"},{"poiid":"B2094757D068A3FD4793","title":"华检体检中心(徐汇分院)","lon":"121.459014996","lat":"31.211539631","category":"162","category_name":"医院","address":"徐汇区嘉善路118号明园B座3楼(近永康路)"},{"poiid":"B2094757D16EA5F5409E","title":"The Sailors","lon":"121.458565738","lat":"31.2106958839","category":"500","category_name":"未知分类","address":"上海永康路33号"},{"poiid":"B2094757D065A2FB4699","title":"Muses Cafe","lon":"121.459490738","lat":"31.2115059012","category":"500","category_name":"未知分类","address":"卢湾区陕西南路438-2号(上海文化广场对面)"},{"poiid":"B2094757D06AA2FE419F","title":"嘉善路永嘉路","lon":"121.46058735","lat":"31.209750078","category":"500","category_name":"未知分类","address":"上海嘉善路永嘉路"},{"poiid":"B2094654DA6DA6F8479B","title":"点石斋小宴","lon":"121.45729","lat":"31.20882","category":"76","category_name":"上海菜","address":"徐汇区永嘉路320号(近襄阳南路)"},{"poiid":"B2094757DA6FA3FE439F","title":"恋恋仙草(永康店)","lon":"121.457996","lat":"31.2109670000002","category":"113","category_name":"冷饮店","address":"徐汇区永康路70号(襄阳南路口)"},{"poiid":"B2094750DB68A0FB4492","title":"上海五官科医院","lon":"121.45819","lat":"31.210149","category":"162","category_name":"医院","address":"徐汇区汾阳路83号"},{"poiid":"B2094757D06EABF5499F","title":"新单位","lon":"121.461281","lat":"31.210108","category":"46","category_name":"楼宇","address":"卢湾区永嘉路50号(近陕西南路)"},{"poiid":"B2094655D26FA4F44198","title":"Newyork Pizza","lon":"121.459","lat":"31.2112","category":"94","category_name":"西餐厅","address":"徐汇区永康路52号(近嘉善路)"},{"poiid":"B2094750DA6BA1F9409B","title":"上海理工大学中英国际学院","lon":"121.460227","lat":"31.21158","category":"500","category_name":"未知分类","address":"复兴中路1195号"},{"poiid":"B2094757D069A5FD4492","title":"京世造型复兴店","lon":"121.46034773","lat":"31.212293917","category":"148","category_name":"美容美发店","address":"上海市徐汇区复兴中路1195号"},{"poiid":"B2094757D764A5F4449F","title":"IT'S COFFEE","lon":"121.458087","lat":"31.21099","category":"260","category_name":"其他","address":"徐汇区永康路64号(近复兴中路)"},{"poiid":"B2094654DA6DA6FD459F","title":"花子","lon":"121.45753735595","lat":"31.211939687057","category":"95","category_name":"日本料理","address":"徐汇区襄阳南路207-3号(近复兴中路)"},{"poiid":"B2094757D06AA6FA459F","title":"宋芳茶馆 Song Fang Maison de The","lon":"121.45904294968","lat":"31.209497617878","category":"66","category_name":"茶艺馆","address":"永嘉路227号甲1-3楼近陕西南路"},{"poiid":"B2094757DA65A6FC4299","title":"1933老場坊","lon":"121.457631","lat":"31.21133","category":"248","category_name":"生活娱乐","address":"上海市虹口區漂陽路611號1933老場坊"},{"poiid":"B2094751D368A0FE4293","title":"The Sailors Fish & Chips","lon":"121.45851","lat":"31.21092","category":"68","category_name":"快餐厅","address":"徐汇区永康路33号(近襄阳南路)"},{"poiid":"B2094654DA6DA6FF469A","title":"明园世纪城","lon":"121.45858","lat":"31.211952","category":"47","category_name":"住宅区","address":"上海市徐汇区复兴中路1199号"},{"poiid":"B2094655D36CA2FB4999","title":"陕西南路永嘉路","lon":"121.46139","lat":"31.21103","category":"38","category_name":"公交车站","address":""},{"poiid":"B2094750D465A2F54899","title":"寿司屋","lon":"121.459007","lat":"31.211322","category":"95","category_name":"日本料理","address":"徐汇区永康路21号(近嘉善路)"},{"poiid":"B2094757D16AA3FA409B","title":"台北永康","lon":"121.45818773","lat":"31.210877887","category":"500","category_name":"未知分类","address":"上海永康路66号"},{"poiid":"B2094750D76DA4F9449E","title":"阿斯曼新疆风味餐厅(复兴中路店)","lon":"121.458","lat":"31.2126","category":"90","category_name":"清真餐馆","address":"徐汇区复兴中路1251号"},{"poiid":"B2094655D26FAAFC4498","title":"上海理工大学东门(陕西南路)","lon":"121.46114","lat":"31.21159","category":"52","category_name":"高等院校","address":""},{"poiid":"B2094654DA6DA6F9499D","title":"皇宫爆烤鸭","lon":"121.457991054","lat":"31.208769793","category":"68","category_name":"快餐厅","address":"徐汇区襄阳南路311号(近永嘉路)"},{"poiid":"B2094757D665A3FC4898","title":"湘泉乡村土菜馆 永嘉店","lon":"121.45959667146","lat":"31.209721637788","category":"77","category_name":"湖南菜","address":"卢湾区永嘉路108号(近嘉善路)"},{"poiid":"B2094757D16EA7FA469D","title":"乔家栅食府","lon":"121.457663373","lat":"31.2089027357","category":"68","category_name":"快餐厅","address":"徐汇区襄阳南路336号(近永嘉路)"},{"poiid":"B2094654DA6DA6FD499E","title":"明园商务中心B座","lon":"121.45896","lat":"31.21154","category":"46","category_name":"楼宇","address":"嘉善路98、118"},{"poiid":"B2094757D06BA6F54492","title":"台北永康精致美食","lon":"121.45812576","lat":"31.210464891","category":"91","category_name":"台湾菜","address":"徐汇区永康路66号(近襄阳路)"},{"poiid":"B2094654DA6DA6F9499E","title":"晓平饭店","lon":"121.4596","lat":"31.20848","category":"76","category_name":"上海菜","address":"徐汇区嘉善路202号(近永嘉路)"},{"poiid":"B2094757D068A1F84792","title":"现代电子城","lon":"121.45725822","lat":"31.212201762","category":"249","category_name":"购物服务","address":"徐汇区襄阳南路218号(近复兴中路)"},{"poiid":"B2094654DA6DA6FE419F","title":"晚星餐厅","lon":"121.45943","lat":"31.21146","category":"76","category_name":"上海菜","address":"徐汇区嘉善路87号(近复兴中路)"},{"poiid":"B2094757D16DA2F94499","title":"Melange oasis cafe","lon":"121.45945273","lat":"31.208209831","category":"500","category_name":"未知分类","address":"上海陝西南路550巷37號"},{"poiid":"B2094757D06BAAFB469F","title":"重庆鸡公煲(复兴中路店)","lon":"121.45855","lat":"31.2126","category":"71","category_name":"四川菜","address":"卢湾区复兴中路1250号(复兴中路嘉善路)"},{"poiid":"B2094654DB69A6F8429C","title":"嘉嘉大楼","lon":"121.45912","lat":"31.209761","category":"47","category_name":"住宅区","address":"浦东区崂山东路410号"},{"poiid":"B2094757D06BA4F5409A","title":"维也纳咖啡","lon":"121.46024634","lat":"31.209313144","category":"65","category_name":"咖啡厅","address":"绍兴路25弄2号近陕西南路瑞金二路间"},{"poiid":"B2094757D169A0F94898","title":"SBC 英方图书馆","lon":"121.458349638","lat":"31.2126543256","category":"181","category_name":"图书馆","address":"上海复兴中路1195号"},{"poiid":"B2094750D76EA4F5419F","title":"JustGrapes(永康路店)","lon":"121.459","lat":"31.211","category":"94","category_name":"西餐厅","address":"徐汇区永康路41号(近嘉善路)"},{"poiid":"B2094753D66FABFD469E","title":"梦苑咖啡影吧","lon":"121.457076","lat":"31.211774","category":"65","category_name":"咖啡厅","address":"徐汇区襄阳南路222号"},{"poiid":"B2094654DA6DA6FD459C","title":"巨星发艺(襄阳南路)","lon":"121.45758","lat":"31.21166","category":"148","category_name":"美容美发店","address":"襄阳南路207-4"}]