[{"poiid":"B2094654DB6BAAF8479D","title":"环球金融中心","lon":"121.514","lat":"31.241","category":"46","category_name":"楼宇","address":"上海市浦东新区陆家嘴世纪大道8号"},{"poiid":"B2094654DA69A7FB4599","title":"金茂大厦","lon":"121.5124569976","lat":"31.240872238236","category":"46","category_name":"楼宇","address":"浦东新区世纪大道88号金茂大厦内(近二号线陆家嘴站)"},{"poiid":"B2094654DA69A7FF499A","title":"上海市东方医院同济大学附属东方医院","lon":"121.51234","lat":"31.23772","category":"162","category_name":"医院","address":"浦东新区即墨路150号"},{"poiid":"B209475CD564A7F84392","title":"上海滩浦东香格里拉店","lon":"121.50058","lat":"31.23634","category":"119","category_name":"商场","address":"浦东富成路33号香格里拉酒店内大堂层"},{"poiid":"B2094655D26BA2F54792","title":"浦东大道东方医院","lon":"121.51231","lat":"31.23845","category":"162","category_name":"医院","address":""},{"poiid":"B2094654DA69A7FB489A","title":"渣打银行大厦","lon":"121.516","lat":"31.2415","category":"46","category_name":"楼宇","address":"浦东区金融贸易区D3-5"},{"poiid":"B2094757D06FA7F44199","title":"光头烧烤吧(南泉北路店)","lon":"121.51594","lat":"31.23765","category":"68","category_name":"快餐厅","address":"浦东新区南泉北路47号(近东方医院)"},{"poiid":"B2094757D06FA6FD479E","title":"工行上海分行","lon":"121.51130276","lat":"31.23914032","category":"500","category_name":"未知分类","address":"上海浦東大道9號"},{"poiid":"B2094757D069A7F4429B","title":"浦东新舞台","lon":"121.51503","lat":"31.23892","category":"179","category_name":"音乐厅","address":"浦东新区浦东大道143号(南泉北路浦东大道)"},{"poiid":"B2094757D068ABFF4899","title":"东方医院急诊部","lon":"121.512201667","lat":"31.237744757","category":"162","category_name":"医院","address":"上海浦东新区即墨路150号(近浦东大道)"},{"poiid":"B2094757D06FA2FF4099","title":"中国保险大厦","lon":"121.516","lat":"31.2421","category":"46","category_name":"楼宇","address":"浦东临港新城主城区申港大道200号"},{"poiid":"B2094757D06FA7F54993","title":"老山东鲁菜馆","lon":"121.510469","lat":"31.239297","category":"73","category_name":"山东菜","address":"浦东新区浦东南路379号金穗大厦6楼(近浦东大道)"},{"poiid":"B2094757D068A6FD489F","title":"永华大厦","lon":"121.51416015","lat":"31.238700866","category":"46","category_name":"楼宇","address":"浦东大道138号"},{"poiid":"B2094757D06FAAFF439E","title":"中国船舶大厦","lon":"121.510881","lat":"31.238821","category":"46","category_name":"楼宇","address":"上海市宝山区牡丹江路1228号"},{"poiid":"B2094757D068A3F94192","title":"东北四季饺子王(浦东大道店)","lon":"121.51492","lat":"31.23906","category":"82","category_name":"东北菜","address":"上海浦东新区浦东大道143号甲(即墨路口)"},{"poiid":"B2094757D068A1FA4999","title":"西安5号米皮","lon":"121.51563","lat":"31.23721","category":"68","category_name":"快餐厅","address":"浦东新区南泉北路51号-4(近招远路)"},{"poiid":"B2094757D068A6FC449A","title":"即墨路","lon":"121.51289367","lat":"31.239175796","category":"500","category_name":"未知分类","address":"上海即墨路"},{"poiid":"B2094654DB6BAAF84698","title":"上海市东方医院同济大学附属东方医院(西门)","lon":"121.51133","lat":"31.23722","category":"162","category_name":"医院","address":"即墨路150"},{"poiid":"B2094757D66EA3F54792","title":"中国工商银行上海市分行","lon":"121.512708738","lat":"31.2381974699","category":"500","category_name":"未知分类","address":"浦东新区浦东大道9号(东方医院对面)"},{"poiid":"B2094757D06FAAFF4693","title":"大壶春(浦东总店)","lon":"121.51408","lat":"31.23824","category":"68","category_name":"快餐厅","address":"浦东新区浦东大道136弄4-6号(近即墨路)"},{"poiid":"B2094757D068A1F8449F","title":"鲜得来排骨年糕 浦东店","lon":"121.513548054","lat":"31.237137793","category":"68","category_name":"快餐厅","address":"浦东新区即墨路180号(近招远路东方医院旁边)"},{"poiid":"B2094757D56CAAFB469F","title":"二子龙虾 东昌店","lon":"121.514945054","lat":"31.237452793","category":"68","category_name":"快餐厅","address":"浦东新区南泉北路51号(近招远路)"},{"poiid":"B2094757D06AA6FA419C","title":"东方医院体检中心","lon":"121.51287","lat":"31.23781","category":"162","category_name":"医院","address":"浦东新区即墨路150号东方医院内(近浦东大道)"},{"poiid":"B2094757D064A0F94199","title":"Chloe's","lon":"121.51385973","lat":"31.238796482","category":"94","category_name":"西餐厅","address":"浦东新区昌邑路31号(即墨路口)"},{"poiid":"B2094757D06AA7F8429A","title":"德兴面馆(浦东店)","lon":"121.5153","lat":"31.2387","category":"68","category_name":"快餐厅","address":"浦东新区南泉北路1号(浦东大道口)"},{"poiid":"B2094654DB64A7F5459D","title":"要得湖南湘菜馆","lon":"121.51452","lat":"31.23933","category":"77","category_name":"湖南菜","address":"浦东新区浦东大道143号乙(即墨路口)"},{"poiid":"B2094654DA69A0FC4493","title":"上船大楼","lon":"121.51326","lat":"31.23954","category":"47","category_name":"住宅区","address":"徐汇区田林路300号"},{"poiid":"B2094654DA69A0FC449F","title":"世纪金融大厦","lon":"121.51198","lat":"31.23891","category":"46","category_name":"楼宇","address":"浦东大道9号"},{"poiid":"B2094757D465A3F9439D","title":"柯记港式茶餐厅","lon":"121.513903054","lat":"31.240806793","category":"72","category_name":"广东菜","address":"浦东新区昌邑路88号(近即墨路)"},{"poiid":"B2094753D164A6F9499A","title":"老胡烧烤","lon":"121.513929","lat":"31.239576","category":"247","category_name":"餐饮美食","address":"上海市 崂山路255号"},{"poiid":"B2094757D06AAAFD4992","title":"上岛咖啡 陆家嘴金融店 UBC Coffee","lon":"121.51266479492","lat":"31.240152359009","category":"260","category_name":"其他","address":"浦东新区即墨路39号(近昌邑路)"},{"poiid":"B2094757D66BA0FA479E","title":"HaHa大鸡排","lon":"121.51386","lat":"31.23883","category":"68","category_name":"快餐厅","address":"浦东新区浦东大道140弄4号(近南泉北路)"},{"poiid":"B2094757D164A2F9429C","title":"光头烧烤","lon":"121.51228","lat":"31.24018","category":"68","category_name":"快餐厅","address":"浦东新区崂山路47号(东昌电影院)"},{"poiid":"B2094757D068A5F8459B","title":"月亮生煎大王","lon":"121.51692","lat":"31.23806","category":"68","category_name":"快餐厅","address":"浦东新区崂山路80号101室(近浦东大道)"},{"poiid":"B2094757D06BA3FE409F","title":"东方医院输液室","lon":"121.512332","lat":"31.237727","category":"162","category_name":"医院","address":"上海东方医院急诊"},{"poiid":"B2094757D768AAFE4593","title":"仟村馄饨 南泉北路店","lon":"121.515156054","lat":"31.239196793","category":"68","category_name":"快餐厅","address":"浦东新区南泉北路41号(近招远路)"},{"poiid":"B2094655D264ABF94793","title":"富橙投资","lon":"121.51634","lat":"31.23925","category":"46","category_name":"楼宇","address":"浦东区浦东大道288号"},{"poiid":"B2094654DA69A7FA4192","title":"上港小区","lon":"121.5146","lat":"31.238003","category":"47","category_name":"住宅区","address":"浦东大道136弄2-51号"},{"poiid":"B2094654DA69A0FC479F","title":"浦江茗园","lon":"121.5135","lat":"31.241152","category":"47","category_name":"住宅区","address":"上海市浦东新区昌邑路55弄"},{"poiid":"B2094757D168A1FD459F","title":"浦东大道浦东南路口","lon":"121.51269973","lat":"31.23823647","category":"500","category_name":"未知分类","address":"上海市浦东新区"},{"poiid":"B2094654DA69A0FD4792","title":"半岛鱼翅潮州酒楼","lon":"121.51827247863","lat":"31.24055145864","category":"72","category_name":"广东菜","address":"浦东新区浦东大道281号2楼(浦东大道荣成路)"},{"poiid":"B2094757D66DABFB479E","title":"名盛串城","lon":"121.515641738","lat":"31.2376644585","category":"96","category_name":"韩国料理","address":"浦东新区南泉北路53号(近浦东大道)"},{"poiid":"B2094757D065A2FD479B","title":"老姚烧烤","lon":"121.51579","lat":"31.23748","category":"68","category_name":"快餐厅","address":"浦东新区南泉北路51号(近招远路)"},{"poiid":"B2094757D068A1FC429F","title":"东昌电影院","lon":"121.516061","lat":"31.237536","category":"178","category_name":"电影院","address":"南泉北路150"},{"poiid":"B2094654DA69A7FA429A","title":"文峰美发美容(浦东大道)","lon":"121.51355","lat":"31.2386","category":"148","category_name":"美容美发店","address":"浦东大道136-2"},{"poiid":"B2094654DA69A0FD4793","title":"东海宾馆","lon":"121.51625","lat":"31.23986","category":"215","category_name":"三星级宾馆","address":"浦东新区浦东大道281号(近东方路)"},{"poiid":"B2094654DA69A7FF4893","title":"上海东方联合医院","lon":"121.51234","lat":"31.23773","category":"162","category_name":"医院","address":"上海浦东新区浦东南路551号"},{"poiid":"B2094654DA69A7FA409D","title":"尊荣会议中心(浦东大道)","lon":"121.51417","lat":"31.2385","category":"185","category_name":"会展中心","address":"浦东大道138号永华大厦6层G"},{"poiid":"B2094654DB6BAAF84693","title":"厦门国际银行上海分行","lon":"121.51426","lat":"31.23871","category":"150","category_name":"银行","address":"浦东新区浦东大道138号永华大厦(即墨路浦东大道)"},{"poiid":"B2094757D464A0F8439F","title":"汤姆杰瑞西餐酒吧 Tom and Jerry's","lon":"121.512829054","lat":"31.240417793","category":"68","category_name":"快餐厅","address":"昌邑路27号近即墨路口"},{"poiid":"B2094654DB6BAAF8479D","title":"环球金融中心","lon":"121.514","lat":"31.241","category":"46","category_name":"楼宇","address":"上海市浦东新区陆家嘴世纪大道8号"},{"poiid":"B2094654DA69A7FB4599","title":"金茂大厦","lon":"121.5124569976","lat":"31.240872238236","category":"46","category_name":"楼宇","address":"浦东新区世纪大道88号金茂大厦内(近二号线陆家嘴站)"},{"poiid":"B2094654DA69A7FF499A","title":"上海市东方医院同济大学附属东方医院","lon":"121.51234","lat":"31.23772","category":"162","category_name":"医院","address":"浦东新区即墨路150号"},{"poiid":"B209475CD564A7F84392","title":"上海滩浦东香格里拉店","lon":"121.50058","lat":"31.23634","category":"119","category_name":"商场","address":"浦东富成路33号香格里拉酒店内大堂层"},{"poiid":"B2094655D26BA2F54792","title":"浦东大道东方医院","lon":"121.51231","lat":"31.23845","category":"162","category_name":"医院","address":""},{"poiid":"B2094654DA69A7FB489A","title":"渣打银行大厦","lon":"121.516","lat":"31.2415","category":"46","category_name":"楼宇","address":"浦东区金融贸易区D3-5"},{"poiid":"B2094757D06FA7F44199","title":"光头烧烤吧(南泉北路店)","lon":"121.51594","lat":"31.23765","category":"68","category_name":"快餐厅","address":"浦东新区南泉北路47号(近东方医院)"},{"poiid":"B2094757D06FA6FD479E","title":"工行上海分行","lon":"121.51130276","lat":"31.23914032","category":"500","category_name":"未知分类","address":"上海浦東大道9號"},{"poiid":"B2094757D069A7F4429B","title":"浦东新舞台","lon":"121.51503","lat":"31.23892","category":"179","category_name":"音乐厅","address":"浦东新区浦东大道143号(南泉北路浦东大道)"},{"poiid":"B2094757D068ABFF4899","title":"东方医院急诊部","lon":"121.512201667","lat":"31.237744757","category":"162","category_name":"医院","address":"上海浦东新区即墨路150号(近浦东大道)"},{"poiid":"B2094757D06FA2FF4099","title":"中国保险大厦","lon":"121.516","lat":"31.2421","category":"46","category_name":"楼宇","address":"浦东临港新城主城区申港大道200号"},{"poiid":"B2094757D06FA7F54993","title":"老山东鲁菜馆","lon":"121.510469","lat":"31.239297","category":"73","category_name":"山东菜","address":"浦东新区浦东南路379号金穗大厦6楼(近浦东大道)"},{"poiid":"B2094757D068A6FD489F","title":"永华大厦","lon":"121.51416015","lat":"31.238700866","category":"46","category_name":"楼宇","address":"浦东大道138号"},{"poiid":"B2094757D06FAAFF439E","title":"中国船舶大厦","lon":"121.510881","lat":"31.238821","category":"46","category_name":"楼宇","address":"上海市宝山区牡丹江路1228号"},{"poiid":"B2094757D068A3F94192","title":"东北四季饺子王(浦东大道店)","lon":"121.51492","lat":"31.23906","category":"82","category_name":"东北菜","address":"上海浦东新区浦东大道143号甲(即墨路口)"},{"poiid":"B2094757D068A1FA4999","title":"西安5号米皮","lon":"121.51563","lat":"31.23721","category":"68","category_name":"快餐厅","address":"浦东新区南泉北路51号-4(近招远路)"},{"poiid":"B2094757D068A6FC449A","title":"即墨路","lon":"121.51289367","lat":"31.239175796","category":"500","category_name":"未知分类","address":"上海即墨路"},{"poiid":"B2094654DB6BAAF84698","title":"上海市东方医院同济大学附属东方医院(西门)","lon":"121.51133","lat":"31.23722","category":"162","category_name":"医院","address":"即墨路150"},{"poiid":"B2094757D66EA3F54792","title":"中国工商银行上海市分行","lon":"121.512708738","lat":"31.2381974699","category":"500","category_name":"未知分类","address":"浦东新区浦东大道9号(东方医院对面)"},{"poiid":"B2094757D06FAAFF4693","title":"大壶春(浦东总店)","lon":"121.51408","lat":"31.23824","category":"68","category_name":"快餐厅","address":"浦东新区浦东大道136弄4-6号(近即墨路)"},{"poiid":"B2094757D068A1F8449F","title":"鲜得来排骨年糕 浦东店","lon":"121.513548054","lat":"31.237137793","category":"68","category_name":"快餐厅","address":"浦东新区即墨路180号(近招远路东方医院旁边)"},{"poiid":"B2094757D56CAAFB469F","title":"二子龙虾 东昌店","lon":"121.514945054","lat":"31.237452793","category":"68","category_name":"快餐厅","address":"浦东新区南泉北路51号(近招远路)"},{"poiid":"B2094757D06AA6FA419C","title":"东方医院体检中心","lon":"121.51287","lat":"31.23781","category":"162","category_name":"医院","address":"浦东新区即墨路150号东方医院内(近浦东大道)"},{"poiid":"B2094757D064A0F94199","title":"Chloe's","lon":"121.51385973","lat":"31.238796482","category":"94","category_name":"西餐厅","address":"浦东新区昌邑路31号(即墨路口)"},{"poiid":"B2094757D06AA7F8429A","title":"德兴面馆(浦东店)","lon":"121.5153","lat":"31.2387","category":"68","category_name":"快餐厅","address":"浦东新区南泉北路1号(浦东大道口)"},{"poiid":"B2094654DB64A7F5459D","title":"要得湖南湘菜馆","lon":"121.51452","lat":"31.23933","category":"77","category_name":"湖南菜","address":"浦东新区浦东大道143号乙(即墨路口)"},{"poiid":"B2094654DA69A0FC4493","title":"上船大楼","lon":"121.51326","lat":"31.23954","category":"47","category_name":"住宅区","address":"徐汇区田林路300号"},{"poiid":"B2094654DA69A0FC449F","title":"世纪金融大厦","lon":"121.51198","lat":"31.23891","category":"46","category_name":"楼宇","address":"浦东大道9号"},{"poiid":"B2094757D465A3F9439D","title":"柯记港式茶餐厅","lon":"121.513903054","lat":"31.240806793","category":"72","category_name":"广东菜","address":"浦东新区昌邑路88号(近即墨路)"},{"poiid":"B2094753D164A6F9499A","title":"老胡烧烤","lon":"121.513929","lat":"31.239576","category":"247","category_name":"餐饮美食","address":"上海市 崂山路255号"},{"poiid":"B2094757D06AAAFD4992","title":"上岛咖啡 陆家嘴金融店 UBC Coffee","lon":"121.51266479492","lat":"31.240152359009","category":"260","category_name":"其他","address":"浦东新区即墨路39号(近昌邑路)"},{"poiid":"B2094757D66BA0FA479E","title":"HaHa大鸡排","lon":"121.51386","lat":"31.23883","category":"68","category_name":"快餐厅","address":"浦东新区浦东大道140弄4号(近南泉北路)"},{"poiid":"B2094757D164A2F9429C","title":"光头烧烤","lon":"121.51228","lat":"31.24018","category":"68","category_name":"快餐厅","address":"浦东新区崂山路47号(东昌电影院)"},{"poiid":"B2094757D068A5F8459B","title":"月亮生煎大王","lon":"121.51692","lat":"31.23806","category":"68","category_name":"快餐厅","address":"浦东新区崂山路80号101室(近浦东大道)"},{"poiid":"B2094757D06BA3FE409F","title":"东方医院输液室","lon":"121.512332","lat":"31.237727","category":"162","category_name":"医院","address":"上海东方医院急诊"},{"poiid":"B2094757D768AAFE4593","title":"仟村馄饨 南泉北路店","lon":"121.515156054","lat":"31.239196793","category":"68","category_name":"快餐厅","address":"浦东新区南泉北路41号(近招远路)"},{"poiid":"B2094655D264ABF94793","title":"富橙投资","lon":"121.51634","lat":"31.23925","category":"46","category_name":"楼宇","address":"浦东区浦东大道288号"},{"poiid":"B2094654DA69A7FA4192","title":"上港小区","lon":"121.5146","lat":"31.238003","category":"47","category_name":"住宅区","address":"浦东大道136弄2-51号"},{"poiid":"B2094654DA69A0FC479F","title":"浦江茗园","lon":"121.5135","lat":"31.241152","category":"47","category_name":"住宅区","address":"上海市浦东新区昌邑路55弄"},{"poiid":"B2094757D168A1FD459F","title":"浦东大道浦东南路口","lon":"121.51269973","lat":"31.23823647","category":"500","category_name":"未知分类","address":"上海市浦东新区"},{"poiid":"B2094654DA69A0FD4792","title":"半岛鱼翅潮州酒楼","lon":"121.51827247863","lat":"31.24055145864","category":"72","category_name":"广东菜","address":"浦东新区浦东大道281号2楼(浦东大道荣成路)"},{"poiid":"B2094757D66DABFB479E","title":"名盛串城","lon":"121.515641738","lat":"31.2376644585","category":"96","category_name":"韩国料理","address":"浦东新区南泉北路53号(近浦东大道)"},{"poiid":"B2094757D065A2FD479B","title":"老姚烧烤","lon":"121.51579","lat":"31.23748","category":"68","category_name":"快餐厅","address":"浦东新区南泉北路51号(近招远路)"},{"poiid":"B2094757D068A1FC429F","title":"东昌电影院","lon":"121.516061","lat":"31.237536","category":"178","category_name":"电影院","address":"南泉北路150"},{"poiid":"B2094654DA69A7FA429A","title":"文峰美发美容(浦东大道)","lon":"121.51355","lat":"31.2386","category":"148","category_name":"美容美发店","address":"浦东大道136-2"},{"poiid":"B2094654DA69A0FD4793","title":"东海宾馆","lon":"121.51625","lat":"31.23986","category":"215","category_name":"三星级宾馆","address":"浦东新区浦东大道281号(近东方路)"},{"poiid":"B2094654DA69A7FF4893","title":"上海东方联合医院","lon":"121.51234","lat":"31.23773","category":"162","category_name":"医院","address":"上海浦东新区浦东南路551号"},{"poiid":"B2094654DA69A7FA409D","title":"尊荣会议中心(浦东大道)","lon":"121.51417","lat":"31.2385","category":"185","category_name":"会展中心","address":"浦东大道138号永华大厦6层G"},{"poiid":"B2094654DB6BAAF84693","title":"厦门国际银行上海分行","lon":"121.51426","lat":"31.23871","category":"150","category_name":"银行","address":"浦东新区浦东大道138号永华大厦(即墨路浦东大道)"},{"poiid":"B2094757D464A0F8439F","title":"汤姆杰瑞西餐酒吧 Tom and Jerry's","lon":"121.512829054","lat":"31.240417793","category":"68","category_name":"快餐厅","address":"昌邑路27号近即墨路口"},{"poiid":"B2094654DB6BAAF8479D","title":"环球金融中心","lon":"121.514","lat":"31.241","category":"46","category_name":"楼宇","address":"上海市浦东新区陆家嘴世纪大道8号"},{"poiid":"B2094654DA69A7FB4599","title":"金茂大厦","lon":"121.5124569976","lat":"31.240872238236","category":"46","category_name":"楼宇","address":"浦东新区世纪大道88号金茂大厦内(近二号线陆家嘴站)"},{"poiid":"B2094654DA69A7FF499A","title":"上海市东方医院同济大学附属东方医院","lon":"121.51234","lat":"31.23772","category":"162","category_name":"医院","address":"浦东新区即墨路150号"},{"poiid":"B209475CD564A7F84392","title":"上海滩浦东香格里拉店","lon":"121.50058","lat":"31.23634","category":"119","category_name":"商场","address":"浦东富成路33号香格里拉酒店内大堂层"},{"poiid":"B2094655D26BA2F54792","title":"浦东大道东方医院","lon":"121.51231","lat":"31.23845","category":"162","category_name":"医院","address":""},{"poiid":"B2094654DA69A7FB489A","title":"渣打银行大厦","lon":"121.516","lat":"31.2415","category":"46","category_name":"楼宇","address":"浦东区金融贸易区D3-5"},{"poiid":"B2094757D06FA7F44199","title":"光头烧烤吧(南泉北路店)","lon":"121.51594","lat":"31.23765","category":"68","category_name":"快餐厅","address":"浦东新区南泉北路47号(近东方医院)"},{"poiid":"B2094757D06FA6FD479E","title":"工行上海分行","lon":"121.51130276","lat":"31.23914032","category":"500","category_name":"未知分类","address":"上海浦東大道9號"},{"poiid":"B2094757D069A7F4429B","title":"浦东新舞台","lon":"121.51503","lat":"31.23892","category":"179","category_name":"音乐厅","address":"浦东新区浦东大道143号(南泉北路浦东大道)"},{"poiid":"B2094757D068ABFF4899","title":"东方医院急诊部","lon":"121.512201667","lat":"31.237744757","category":"162","category_name":"医院","address":"上海浦东新区即墨路150号(近浦东大道)"},{"poiid":"B2094757D06FA2FF4099","title":"中国保险大厦","lon":"121.516","lat":"31.2421","category":"46","category_name":"楼宇","address":"浦东临港新城主城区申港大道200号"},{"poiid":"B2094757D06FA7F54993","title":"老山东鲁菜馆","lon":"121.510469","lat":"31.239297","category":"73","category_name":"山东菜","address":"浦东新区浦东南路379号金穗大厦6楼(近浦东大道)"},{"poiid":"B2094757D068A6FD489F","title":"永华大厦","lon":"121.51416015","lat":"31.238700866","category":"46","category_name":"楼宇","address":"浦东大道138号"},{"poiid":"B2094757D06FAAFF439E","title":"中国船舶大厦","lon":"121.510881","lat":"31.238821","category":"46","category_name":"楼宇","address":"上海市宝山区牡丹江路1228号"},{"poiid":"B2094757D068A3F94192","title":"东北四季饺子王(浦东大道店)","lon":"121.51492","lat":"31.23906","category":"82","category_name":"东北菜","address":"上海浦东新区浦东大道143号甲(即墨路口)"},{"poiid":"B2094757D068A1FA4999","title":"西安5号米皮","lon":"121.51563","lat":"31.23721","category":"68","category_name":"快餐厅","address":"浦东新区南泉北路51号-4(近招远路)"},{"poiid":"B2094757D068A6FC449A","title":"即墨路","lon":"121.51289367","lat":"31.239175796","category":"500","category_name":"未知分类","address":"上海即墨路"},{"poiid":"B2094654DB6BAAF84698","title":"上海市东方医院同济大学附属东方医院(西门)","lon":"121.51133","lat":"31.23722","category":"162","category_name":"医院","address":"即墨路150"},{"poiid":"B2094757D66EA3F54792","title":"中国工商银行上海市分行","lon":"121.512708738","lat":"31.2381974699","category":"500","category_name":"未知分类","address":"浦东新区浦东大道9号(东方医院对面)"},{"poiid":"B2094757D06FAAFF4693","title":"大壶春(浦东总店)","lon":"121.51408","lat":"31.23824","category":"68","category_name":"快餐厅","address":"浦东新区浦东大道136弄4-6号(近即墨路)"},{"poiid":"B2094757D068A1F8449F","title":"鲜得来排骨年糕 浦东店","lon":"121.513548054","lat":"31.237137793","category":"68","category_name":"快餐厅","address":"浦东新区即墨路180号(近招远路东方医院旁边)"},{"poiid":"B2094757D56CAAFB469F","title":"二子龙虾 东昌店","lon":"121.514945054","lat":"31.237452793","category":"68","category_name":"快餐厅","address":"浦东新区南泉北路51号(近招远路)"},{"poiid":"B2094757D06AA6FA419C","title":"东方医院体检中心","lon":"121.51287","lat":"31.23781","category":"162","category_name":"医院","address":"浦东新区即墨路150号东方医院内(近浦东大道)"},{"poiid":"B2094757D064A0F94199","title":"Chloe's","lon":"121.51385973","lat":"31.238796482","category":"94","category_name":"西餐厅","address":"浦东新区昌邑路31号(即墨路口)"},{"poiid":"B2094757D06AA7F8429A","title":"德兴面馆(浦东店)","lon":"121.5153","lat":"31.2387","category":"68","category_name":"快餐厅","address":"浦东新区南泉北路1号(浦东大道口)"},{"poiid":"B2094654DB64A7F5459D","title":"要得湖南湘菜馆","lon":"121.51452","lat":"31.23933","category":"77","category_name":"湖南菜","address":"浦东新区浦东大道143号乙(即墨路口)"},{"poiid":"B2094654DA69A0FC4493","title":"上船大楼","lon":"121.51326","lat":"31.23954","category":"47","category_name":"住宅区","address":"徐汇区田林路300号"},{"poiid":"B2094654DA69A0FC449F","title":"世纪金融大厦","lon":"121.51198","lat":"31.23891","category":"46","category_name":"楼宇","address":"浦东大道9号"},{"poiid":"B2094757D465A3F9439D","title":"柯记港式茶餐厅","lon":"121.513903054","lat":"31.240806793","category":"72","category_name":"广东菜","address":"浦东新区昌邑路88号(近即墨路)"},{"poiid":"B2094753D164A6F9499A","title":"老胡烧烤","lon":"121.513929","lat":"31.239576","category":"247","category_name":"餐饮美食","address":"上海市 崂山路255号"},{"poiid":"B2094757D06AAAFD4992","title":"上岛咖啡 陆家嘴金融店 UBC Coffee","lon":"121.51266479492","lat":"31.240152359009","category":"260","category_name":"其他","address":"浦东新区即墨路39号(近昌邑路)"},{"poiid":"B2094757D66BA0FA479E","title":"HaHa大鸡排","lon":"121.51386","lat":"31.23883","category":"68","category_name":"快餐厅","address":"浦东新区浦东大道140弄4号(近南泉北路)"},{"poiid":"B2094757D164A2F9429C","title":"光头烧烤","lon":"121.51228","lat":"31.24018","category":"68","category_name":"快餐厅","address":"浦东新区崂山路47号(东昌电影院)"},{"poiid":"B2094757D068A5F8459B","title":"月亮生煎大王","lon":"121.51692","lat":"31.23806","category":"68","category_name":"快餐厅","address":"浦东新区崂山路80号101室(近浦东大道)"},{"poiid":"B2094757D06BA3FE409F","title":"东方医院输液室","lon":"121.512332","lat":"31.237727","category":"162","category_name":"医院","address":"上海东方医院急诊"},{"poiid":"B2094757D768AAFE4593","title":"仟村馄饨 南泉北路店","lon":"121.515156054","lat":"31.239196793","category":"68","category_name":"快餐厅","address":"浦东新区南泉北路41号(近招远路)"},{"poiid":"B2094655D264ABF94793","title":"富橙投资","lon":"121.51634","lat":"31.23925","category":"46","category_name":"楼宇","address":"浦东区浦东大道288号"},{"poiid":"B2094654DA69A7FA4192","title":"上港小区","lon":"121.5146","lat":"31.238003","category":"47","category_name":"住宅区","address":"浦东大道136弄2-51号"},{"poiid":"B2094654DA69A0FC479F","title":"浦江茗园","lon":"121.5135","lat":"31.241152","category":"47","category_name":"住宅区","address":"上海市浦东新区昌邑路55弄"},{"poiid":"B2094757D168A1FD459F","title":"浦东大道浦东南路口","lon":"121.51269973","lat":"31.23823647","category":"500","category_name":"未知分类","address":"上海市浦东新区"},{"poiid":"B2094654DA69A0FD4792","title":"半岛鱼翅潮州酒楼","lon":"121.51827247863","lat":"31.24055145864","category":"72","category_name":"广东菜","address":"浦东新区浦东大道281号2楼(浦东大道荣成路)"},{"poiid":"B2094757D66DABFB479E","title":"名盛串城","lon":"121.515641738","lat":"31.2376644585","category":"96","category_name":"韩国料理","address":"浦东新区南泉北路53号(近浦东大道)"},{"poiid":"B2094757D065A2FD479B","title":"老姚烧烤","lon":"121.51579","lat":"31.23748","category":"68","category_name":"快餐厅","address":"浦东新区南泉北路51号(近招远路)"},{"poiid":"B2094757D068A1FC429F","title":"东昌电影院","lon":"121.516061","lat":"31.237536","category":"178","category_name":"电影院","address":"南泉北路150"},{"poiid":"B2094654DA69A7FA429A","title":"文峰美发美容(浦东大道)","lon":"121.51355","lat":"31.2386","category":"148","category_name":"美容美发店","address":"浦东大道136-2"},{"poiid":"B2094654DA69A0FD4793","title":"东海宾馆","lon":"121.51625","lat":"31.23986","category":"215","category_name":"三星级宾馆","address":"浦东新区浦东大道281号(近东方路)"},{"poiid":"B2094654DA69A7FF4893","title":"上海东方联合医院","lon":"121.51234","lat":"31.23773","category":"162","category_name":"医院","address":"上海浦东新区浦东南路551号"},{"poiid":"B2094654DA69A7FA409D","title":"尊荣会议中心(浦东大道)","lon":"121.51417","lat":"31.2385","category":"185","category_name":"会展中心","address":"浦东大道138号永华大厦6层G"},{"poiid":"B2094654DB6BAAF84693","title":"厦门国际银行上海分行","lon":"121.51426","lat":"31.23871","category":"150","category_name":"银行","address":"浦东新区浦东大道138号永华大厦(即墨路浦东大道)"},{"poiid":"B2094757D464A0F8439F","title":"汤姆杰瑞西餐酒吧 Tom and Jerry's","lon":"121.512829054","lat":"31.240417793","category":"68","category_name":"快餐厅","address":"昌邑路27号近即墨路口"},{"poiid":"B2094654DB6BAAF8479D","title":"环球金融中心","lon":"121.514","lat":"31.241","category":"46","category_name":"楼宇","address":"上海市浦东新区陆家嘴世纪大道8号"},{"poiid":"B2094654DA69A7FB4599","title":"金茂大厦","lon":"121.5124569976","lat":"31.240872238236","category":"46","category_name":"楼宇","address":"浦东新区世纪大道88号金茂大厦内(近二号线陆家嘴站)"},{"poiid":"B2094654DA69A7FF499A","title":"上海市东方医院同济大学附属东方医院","lon":"121.51234","lat":"31.23772","category":"162","category_name":"医院","address":"浦东新区即墨路150号"},{"poiid":"B209475CD564A7F84392","title":"上海滩浦东香格里拉店","lon":"121.50058","lat":"31.23634","category":"119","category_name":"商场","address":"浦东富成路33号香格里拉酒店内大堂层"},{"poiid":"B2094655D26BA2F54792","title":"浦东大道东方医院","lon":"121.51231","lat":"31.23845","category":"162","category_name":"医院","address":""},{"poiid":"B2094654DA69A7FB489A","title":"渣打银行大厦","lon":"121.516","lat":"31.2415","category":"46","category_name":"楼宇","address":"浦东区金融贸易区D3-5"},{"poiid":"B2094757D06FA7F44199","title":"光头烧烤吧(南泉北路店)","lon":"121.51594","lat":"31.23765","category":"68","category_name":"快餐厅","address":"浦东新区南泉北路47号(近东方医院)"},{"poiid":"B2094757D06FA6FD479E","title":"工行上海分行","lon":"121.51130276","lat":"31.23914032","category":"500","category_name":"未知分类","address":"上海浦東大道9號"},{"poiid":"B2094757D069A7F4429B","title":"浦东新舞台","lon":"121.51503","lat":"31.23892","category":"179","category_name":"音乐厅","address":"浦东新区浦东大道143号(南泉北路浦东大道)"},{"poiid":"B2094757D068ABFF4899","title":"东方医院急诊部","lon":"121.512201667","lat":"31.237744757","category":"162","category_name":"医院","address":"上海浦东新区即墨路150号(近浦东大道)"},{"poiid":"B2094757D06FA2FF4099","title":"中国保险大厦","lon":"121.516","lat":"31.2421","category":"46","category_name":"楼宇","address":"浦东临港新城主城区申港大道200号"},{"poiid":"B2094757D06FA7F54993","title":"老山东鲁菜馆","lon":"121.510469","lat":"31.239297","category":"73","category_name":"山东菜","address":"浦东新区浦东南路379号金穗大厦6楼(近浦东大道)"},{"poiid":"B2094757D068A6FD489F","title":"永华大厦","lon":"121.51416015","lat":"31.238700866","category":"46","category_name":"楼宇","address":"浦东大道138号"},{"poiid":"B2094757D06FAAFF439E","title":"中国船舶大厦","lon":"121.510881","lat":"31.238821","category":"46","category_name":"楼宇","address":"上海市宝山区牡丹江路1228号"},{"poiid":"B2094757D068A3F94192","title":"东北四季饺子王(浦东大道店)","lon":"121.51492","lat":"31.23906","category":"82","category_name":"东北菜","address":"上海浦东新区浦东大道143号甲(即墨路口)"},{"poiid":"B2094757D068A1FA4999","title":"西安5号米皮","lon":"121.51563","lat":"31.23721","category":"68","category_name":"快餐厅","address":"浦东新区南泉北路51号-4(近招远路)"},{"poiid":"B2094757D068A6FC449A","title":"即墨路","lon":"121.51289367","lat":"31.239175796","category":"500","category_name":"未知分类","address":"上海即墨路"},{"poiid":"B2094654DB6BAAF84698","title":"上海市东方医院同济大学附属东方医院(西门)","lon":"121.51133","lat":"31.23722","category":"162","category_name":"医院","address":"即墨路150"},{"poiid":"B2094757D66EA3F54792","title":"中国工商银行上海市分行","lon":"121.512708738","lat":"31.2381974699","category":"500","category_name":"未知分类","address":"浦东新区浦东大道9号(东方医院对面)"},{"poiid":"B2094757D06FAAFF4693","title":"大壶春(浦东总店)","lon":"121.51408","lat":"31.23824","category":"68","category_name":"快餐厅","address":"浦东新区浦东大道136弄4-6号(近即墨路)"},{"poiid":"B2094757D068A1F8449F","title":"鲜得来排骨年糕 浦东店","lon":"121.513548054","lat":"31.237137793","category":"68","category_name":"快餐厅","address":"浦东新区即墨路180号(近招远路东方医院旁边)"},{"poiid":"B2094757D56CAAFB469F","title":"二子龙虾 东昌店","lon":"121.514945054","lat":"31.237452793","category":"68","category_name":"快餐厅","address":"浦东新区南泉北路51号(近招远路)"},{"poiid":"B2094757D06AA6FA419C","title":"东方医院体检中心","lon":"121.51287","lat":"31.23781","category":"162","category_name":"医院","address":"浦东新区即墨路150号东方医院内(近浦东大道)"},{"poiid":"B2094757D064A0F94199","title":"Chloe's","lon":"121.51385973","lat":"31.238796482","category":"94","category_name":"西餐厅","address":"浦东新区昌邑路31号(即墨路口)"},{"poiid":"B2094757D06AA7F8429A","title":"德兴面馆(浦东店)","lon":"121.5153","lat":"31.2387","category":"68","category_name":"快餐厅","address":"浦东新区南泉北路1号(浦东大道口)"},{"poiid":"B2094654DB64A7F5459D","title":"要得湖南湘菜馆","lon":"121.51452","lat":"31.23933","category":"77","category_name":"湖南菜","address":"浦东新区浦东大道143号乙(即墨路口)"},{"poiid":"B2094654DA69A0FC4493","title":"上船大楼","lon":"121.51326","lat":"31.23954","category":"47","category_name":"住宅区","address":"徐汇区田林路300号"},{"poiid":"B2094654DA69A0FC449F","title":"世纪金融大厦","lon":"121.51198","lat":"31.23891","category":"46","category_name":"楼宇","address":"浦东大道9号"},{"poiid":"B2094757D465A3F9439D","title":"柯记港式茶餐厅","lon":"121.513903054","lat":"31.240806793","category":"72","category_name":"广东菜","address":"浦东新区昌邑路88号(近即墨路)"},{"poiid":"B2094753D164A6F9499A","title":"老胡烧烤","lon":"121.513929","lat":"31.239576","category":"247","category_name":"餐饮美食","address":"上海市 崂山路255号"},{"poiid":"B2094757D06AAAFD4992","title":"上岛咖啡 陆家嘴金融店 UBC Coffee","lon":"121.51266479492","lat":"31.240152359009","category":"260","category_name":"其他","address":"浦东新区即墨路39号(近昌邑路)"},{"poiid":"B2094757D66BA0FA479E","title":"HaHa大鸡排","lon":"121.51386","lat":"31.23883","category":"68","category_name":"快餐厅","address":"浦东新区浦东大道140弄4号(近南泉北路)"},{"poiid":"B2094757D164A2F9429C","title":"光头烧烤","lon":"121.51228","lat":"31.24018","category":"68","category_name":"快餐厅","address":"浦东新区崂山路47号(东昌电影院)"},{"poiid":"B2094757D068A5F8459B","title":"月亮生煎大王","lon":"121.51692","lat":"31.23806","category":"68","category_name":"快餐厅","address":"浦东新区崂山路80号101室(近浦东大道)"},{"poiid":"B2094757D06BA3FE409F","title":"东方医院输液室","lon":"121.512332","lat":"31.237727","category":"162","category_name":"医院","address":"上海东方医院急诊"},{"poiid":"B2094757D768AAFE4593","title":"仟村馄饨 南泉北路店","lon":"121.515156054","lat":"31.239196793","category":"68","category_name":"快餐厅","address":"浦东新区南泉北路41号(近招远路)"},{"poiid":"B2094655D264ABF94793","title":"富橙投资","lon":"121.51634","lat":"31.23925","category":"46","category_name":"楼宇","address":"浦东区浦东大道288号"},{"poiid":"B2094654DA69A7FA4192","title":"上港小区","lon":"121.5146","lat":"31.238003","category":"47","category_name":"住宅区","address":"浦东大道136弄2-51号"},{"poiid":"B2094654DA69A0FC479F","title":"浦江茗园","lon":"121.5135","lat":"31.241152","category":"47","category_name":"住宅区","address":"上海市浦东新区昌邑路55弄"},{"poiid":"B2094757D168A1FD459F","title":"浦东大道浦东南路口","lon":"121.51269973","lat":"31.23823647","category":"500","category_name":"未知分类","address":"上海市浦东新区"},{"poiid":"B2094654DA69A0FD4792","title":"半岛鱼翅潮州酒楼","lon":"121.51827247863","lat":"31.24055145864","category":"72","category_name":"广东菜","address":"浦东新区浦东大道281号2楼(浦东大道荣成路)"},{"poiid":"B2094757D66DABFB479E","title":"名盛串城","lon":"121.515641738","lat":"31.2376644585","category":"96","category_name":"韩国料理","address":"浦东新区南泉北路53号(近浦东大道)"},{"poiid":"B2094757D065A2FD479B","title":"老姚烧烤","lon":"121.51579","lat":"31.23748","category":"68","category_name":"快餐厅","address":"浦东新区南泉北路51号(近招远路)"},{"poiid":"B2094757D068A1FC429F","title":"东昌电影院","lon":"121.516061","lat":"31.237536","category":"178","category_name":"电影院","address":"南泉北路150"},{"poiid":"B2094654DA69A7FA429A","title":"文峰美发美容(浦东大道)","lon":"121.51355","lat":"31.2386","category":"148","category_name":"美容美发店","address":"浦东大道136-2"},{"poiid":"B2094654DA69A0FD4793","title":"东海宾馆","lon":"121.51625","lat":"31.23986","category":"215","category_name":"三星级宾馆","address":"浦东新区浦东大道281号(近东方路)"},{"poiid":"B2094654DA69A7FF4893","title":"上海东方联合医院","lon":"121.51234","lat":"31.23773","category":"162","category_name":"医院","address":"上海浦东新区浦东南路551号"},{"poiid":"B2094654DA69A7FA409D","title":"尊荣会议中心(浦东大道)","lon":"121.51417","lat":"31.2385","category":"185","category_name":"会展中心","address":"浦东大道138号永华大厦6层G"},{"poiid":"B2094654DB6BAAF84693","title":"厦门国际银行上海分行","lon":"121.51426","lat":"31.23871","category":"150","category_name":"银行","address":"浦东新区浦东大道138号永华大厦(即墨路浦东大道)"},{"poiid":"B2094757D464A0F8439F","title":"汤姆杰瑞西餐酒吧 Tom and Jerry's","lon":"121.512829054","lat":"31.240417793","category":"68","category_name":"快餐厅","address":"昌邑路27号近即墨路口"}]