[{"poiid":"B2094757D06EABF54999","title":"秘密花园","lon":"121.4254","lat":"31.20498","category":"47","category_name":"住宅区","address":"长宁区延安西路1742号(近凯旋路)"},{"poiid":"B2094757D06FA3FB4599","title":"五观堂素食","lon":"121.42627","lat":"31.20313","category":"89","category_name":"中式素餐馆","address":"长宁区新华路349号(近定西路)"},{"poiid":"B2094757D06FA0FD479D","title":"中国人民解放军第四五五医院(总院)","lon":"121.4279118882938","lat":"31.200720631212796","category":"162","category_name":"医院","address":"上海长宁区淮海西路338号(近番禺路)"},{"poiid":"B2094757D06FA2F8479C","title":"Cotton's(新华路店)","lon":"121.4277083","lat":"31.202930121","category":"260","category_name":"其他","address":"长宁区新华路294号(近香花桥路)"},{"poiid":"B2094757D06FA0FB4498","title":"上海交通大学安泰经济与管理学院","lon":"121.4250955","lat":"31.205555045","category":"260","category_name":"其他","address":"长宁区法华镇路535号上海交通大学内(近定西路)"},{"poiid":"B2094757D068A3FB489C","title":"雕刻时光咖啡馆(红坊店)","lon":"121.425078586","lat":"31.1992688256","category":"260","category_name":"其他","address":"长宁区淮海西路570号B111"},{"poiid":"B2094757D06EAAFA419C","title":"星巴克(上海影城店)","lon":"121.429277","lat":"31.2021766","category":"260","category_name":"其他","address":"长宁区新华路160号上海影城1楼001号(番禺路口)"},{"poiid":"B2094757D06FAAFC4592","title":"蝶翠轩(新华店)","lon":"121.426340611","lat":"31.2035536554","category":"76","category_name":"上海菜","address":"长宁区新华路336号(近番禺路上海影城)"},{"poiid":"B2094757D06FA6F94193","title":"金锚传菜","lon":"121.42316","lat":"31.20379","category":"76","category_name":"上海菜","address":"长宁区新华路543号新华大厦1楼(近定西路口)"},{"poiid":"B2094750DA6EA1FA499C","title":"On Stage","lon":"121.424015","lat":"31.199642","category":"172","category_name":"酒吧","address":"长宁区淮海西路570号红坊艺术文化社区A2(近虹桥路)"},{"poiid":"B2094757D06FA7F54592","title":"四季亭(新华店)","lon":"121.42557","lat":"31.20336","category":"95","category_name":"日本料理","address":"长宁区新华路369号(近定西路)"},{"poiid":"B2094751D26DAAFB449D","title":"Las Tapas","lon":"121.42482","lat":"31.199341","category":"94","category_name":"西餐厅","address":"长宁区淮海西路570号第59幢C6(近凯旋路)"},{"poiid":"B2094654DA6DA2FF4298","title":"三湘大厦","lon":"121.425","lat":"31.2002","category":"250","category_name":"公园户外","address":"上海市中山西路1243号(近虹桥路)"},{"poiid":"B2094757DB6CA2FC469D","title":"wagas","lon":"121.4253502298639","lat":"31.20229575437234","category":"500","category_name":"未知分类","address":"番禺路483號"},{"poiid":"B2094757D068A0FA419A","title":"定西路安顺路","lon":"121.422481","lat":"31.201977","category":"500","category_name":"未知分类","address":"上海定西路安顺路口"},{"poiid":"B2094750D66FA3FD489A","title":"星巴克","lon":"121.42322","lat":"31.2039","category":"260","category_name":"其他","address":"长宁区定西路475号(近新华路)"},{"poiid":"B2094757D16BA4FD4693","title":"新华路香花桥路","lon":"121.42446158","lat":"31.202785894","category":"500","category_name":"未知分类","address":"上海市长宁区新华路"},{"poiid":"B2094757D064A3FB4599","title":"新华路定西路","lon":"121.4243402","lat":"31.203689512","category":"500","category_name":"未知分类","address":"上海定西路420弄"},{"poiid":"B2094750D76CA3FA4599","title":"沃歌斯(番禺路店)","lon":"121.429","lat":"31.204","category":"94","category_name":"西餐厅","address":"长宁区番禺路483号1楼(近法华镇路)"},{"poiid":"B2094654DB69AAF5449B","title":"上海交大安泰管理学院","lon":"121.42535","lat":"31.20503","category":"52","category_name":"高等院校","address":"上海市长宁区法华镇路535号"},{"poiid":"B2094757D065A2FC4499","title":"干叶子茶料理","lon":"121.425673529","lat":"31.2033053162","category":"89","category_name":"中式素餐馆","address":"长宁区新华路359号(定西路口)"},{"poiid":"B2094654DB6AA7FA479A","title":"香啡缤 红坊店 Coffee Bean&Tea Leaf","lon":"121.423160054","lat":"31.197249793","category":"260","category_name":"其他","address":"长宁区淮海西路570号红坊创意园区B112室(近虹桥路)"},{"poiid":"B2094654D564A5FF469D","title":"虹桥荣广大厦","lon":"121.424","lat":"31.2038","category":"46","category_name":"楼宇","address":"上海市长宁区长顺路11号"},{"poiid":"B2094757D065A0FD479C","title":"德林酸菜鱼","lon":"121.42313742","lat":"31.202297864","category":"247","category_name":"餐饮美食","address":"上海安顺路"},{"poiid":"B2094757D068A7FB449A","title":"秋霞阁","lon":"121.42341","lat":"31.20437","category":"68","category_name":"快餐厅","address":"长宁区定西路591号(新华路口)"},{"poiid":"B2094757D16AABFC4392","title":"恋恋仙草","lon":"121.425591586","lat":"31.2035189087","category":"113","category_name":"冷饮店","address":"长宁区新华路372号(近香花桥路)"},{"poiid":"B2094757D068A5F9469F","title":"翠薇轩","lon":"121.423208","lat":"31.203222","category":"72","category_name":"广东菜","address":"长宁区定西路430号(近新华路)"},{"poiid":"B2094757D16FABF84298","title":"老上海弄堂菜馆","lon":"121.42867075","lat":"31.202453967","category":"76","category_name":"上海菜","address":"长宁区新华路160号上海影城2号门3楼(近番禺路)"},{"poiid":"B2094750D665A2FC409C","title":"比比叩自助烤肉","lon":"121.42196","lat":"31.20177","category":"68","category_name":"快餐厅","address":"长宁区安顺路88号(定西路口)"},{"poiid":"B2094757D16DA0F4429F","title":"水瓶座塔罗占卜屋","lon":"121.424972586","lat":"31.2039329168","category":"247","category_name":"餐饮美食","address":"上海市长宁区新华路"},{"poiid":"B2094757D065A5FC489D","title":"瓷园会所","lon":"121.42345","lat":"31.20422","category":"72","category_name":"广东菜","address":"长宁区定西路566号(近新华路)"},{"poiid":"B2094654D564A7F5489A","title":"上海民族乐团","lon":"121.42624","lat":"31.20355","category":"189","category_name":"文艺团体","address":"长宁区新华路336号(近香花桥路)"},{"poiid":"B2094655D26FA5FF459E","title":"淮海花园","lon":"121.428537","lat":"31.200028","category":"47","category_name":"住宅区","address":"淮海西路288弄1-5号"},{"poiid":"B2094654D564A6FA409F","title":"东华大学国家大学科技园(北门)","lon":"121.42552","lat":"31.20315","category":"45","category_name":"产业园区","address":"新华路365弄5"},{"poiid":"B2094654DB6BA7F44692","title":"新华别墅(北门)","lon":"121.42633","lat":"31.20308","category":"47","category_name":"住宅区","address":"新华路329弄15-71号"},{"poiid":"B2094757D069A5FA439F","title":"法华镇路","lon":"121.425354","lat":"31.205027","category":"627","category_name":"一般地点标志","address":"上海法华镇路"},{"poiid":"B2094750D664AAFB429D","title":"御封会","lon":"121.429","lat":"31.2024","category":"72","category_name":"广东菜","address":"长宁区新华路185弄1号"},{"poiid":"B2094757D16EA2F8459A","title":"食流林","lon":"121.42549","lat":"31.20368","category":"68","category_name":"快餐厅","address":"长宁区香花桥路41号(近法华镇路交大)"},{"poiid":"B2094757D568ABFB4398","title":"天力公园","lon":"121.42633","lat":"31.20308389","category":"196","category_name":"公园","address":"长宁区新华路329弄30号(香花桥路新华路)"},{"poiid":"B2094654DB65AAF84292","title":"上海长新中学","lon":"121.42633","lat":"31.20308","category":"55","category_name":"中学","address":"长宁区新华路329弄43号"},{"poiid":"B2094655D268A1FA4798","title":"上海外滩花园酒店","lon":"121.42877","lat":"31.20218","category":"70","category_name":"综合酒楼","address":"长宁区新华路179号(近番禺路)"},{"poiid":"B2094654D564A5F8489A","title":"南洋虹桥公寓","lon":"121.426","lat":"31.203","category":"47","category_name":"住宅区","address":"虹桥路953弄8-10号"},{"poiid":"B2094654D564A6F84593","title":"凯利大厦","lon":"121.42693","lat":"31.19923","category":"46","category_name":"楼宇","address":"上海市奉贤区南奉公路8515,8519号"},{"poiid":"B2094757D068A0F8479E","title":"The Coffee Bean(红坊店)","lon":"121.42402358","lat":"31.200390847","category":"65","category_name":"咖啡厅","address":"上海红坊b 112"},{"poiid":"B2094655D36DA1F44692","title":"香花桥","lon":"121.42538","lat":"31.20355","category":"38","category_name":"公交车站","address":""},{"poiid":"B2094654D564A6FA409E","title":"新华社区图书阅览室","lon":"121.42537","lat":"31.20309","category":"181","category_name":"图书馆","address":"新华路365弄1"},{"poiid":"B2094654D564A6FA409B","title":"新华社区文化活动中心","lon":"121.42568","lat":"31.20316","category":"248","category_name":"生活娱乐","address":"新华路359"},{"poiid":"B2094757D16DA3FC4892","title":"尚盈创意产业园","lon":"121.425976526","lat":"31.2028895091","category":"500","category_name":"未知分类","address":"上海新华路345号"},{"poiid":"B2094654DB65A4F84499","title":"复旦初级中学(北门)","lon":"121.42803","lat":"31.20221","category":"678","category_name":"学校大门","address":"新华路211弄1-32号"},{"poiid":"B2094654D564A7F5479D","title":"联华(新华路)","lon":"121.42541","lat":"31.20366","category":"118","category_name":"超级市场","address":"新华路372"},{"poiid":"B2094757D06EABF54999","title":"秘密花园","lon":"121.4254","lat":"31.20498","category":"47","category_name":"住宅区","address":"长宁区延安西路1742号(近凯旋路)"},{"poiid":"B2094757D06FA3FB4599","title":"五观堂素食","lon":"121.42627","lat":"31.20313","category":"89","category_name":"中式素餐馆","address":"长宁区新华路349号(近定西路)"},{"poiid":"B2094757D06FA0FD479D","title":"中国人民解放军第四五五医院(总院)","lon":"121.4279118882938","lat":"31.200720631212796","category":"162","category_name":"医院","address":"上海长宁区淮海西路338号(近番禺路)"},{"poiid":"B2094757D06FA2F8479C","title":"Cotton's(新华路店)","lon":"121.4277083","lat":"31.202930121","category":"260","category_name":"其他","address":"长宁区新华路294号(近香花桥路)"},{"poiid":"B2094757D06FA0FB4498","title":"上海交通大学安泰经济与管理学院","lon":"121.4250955","lat":"31.205555045","category":"260","category_name":"其他","address":"长宁区法华镇路535号上海交通大学内(近定西路)"},{"poiid":"B2094757D068A3FB489C","title":"雕刻时光咖啡馆(红坊店)","lon":"121.425078586","lat":"31.1992688256","category":"260","category_name":"其他","address":"长宁区淮海西路570号B111"},{"poiid":"B2094757D06EAAFA419C","title":"星巴克(上海影城店)","lon":"121.429277","lat":"31.2021766","category":"260","category_name":"其他","address":"长宁区新华路160号上海影城1楼001号(番禺路口)"},{"poiid":"B2094757D06FAAFC4592","title":"蝶翠轩(新华店)","lon":"121.426340611","lat":"31.2035536554","category":"76","category_name":"上海菜","address":"长宁区新华路336号(近番禺路上海影城)"},{"poiid":"B2094757D06FA6F94193","title":"金锚传菜","lon":"121.42316","lat":"31.20379","category":"76","category_name":"上海菜","address":"长宁区新华路543号新华大厦1楼(近定西路口)"},{"poiid":"B2094750DA6EA1FA499C","title":"On Stage","lon":"121.424015","lat":"31.199642","category":"172","category_name":"酒吧","address":"长宁区淮海西路570号红坊艺术文化社区A2(近虹桥路)"},{"poiid":"B2094757D06FA7F54592","title":"四季亭(新华店)","lon":"121.42557","lat":"31.20336","category":"95","category_name":"日本料理","address":"长宁区新华路369号(近定西路)"},{"poiid":"B2094751D26DAAFB449D","title":"Las Tapas","lon":"121.42482","lat":"31.199341","category":"94","category_name":"西餐厅","address":"长宁区淮海西路570号第59幢C6(近凯旋路)"},{"poiid":"B2094654DA6DA2FF4298","title":"三湘大厦","lon":"121.425","lat":"31.2002","category":"250","category_name":"公园户外","address":"上海市中山西路1243号(近虹桥路)"},{"poiid":"B2094757DB6CA2FC469D","title":"wagas","lon":"121.4253502298639","lat":"31.20229575437234","category":"500","category_name":"未知分类","address":"番禺路483號"},{"poiid":"B2094757D068A0FA419A","title":"定西路安顺路","lon":"121.422481","lat":"31.201977","category":"500","category_name":"未知分类","address":"上海定西路安顺路口"},{"poiid":"B2094750D66FA3FD489A","title":"星巴克","lon":"121.42322","lat":"31.2039","category":"260","category_name":"其他","address":"长宁区定西路475号(近新华路)"},{"poiid":"B2094757D16BA4FD4693","title":"新华路香花桥路","lon":"121.42446158","lat":"31.202785894","category":"500","category_name":"未知分类","address":"上海市长宁区新华路"},{"poiid":"B2094757D064A3FB4599","title":"新华路定西路","lon":"121.4243402","lat":"31.203689512","category":"500","category_name":"未知分类","address":"上海定西路420弄"},{"poiid":"B2094750D76CA3FA4599","title":"沃歌斯(番禺路店)","lon":"121.429","lat":"31.204","category":"94","category_name":"西餐厅","address":"长宁区番禺路483号1楼(近法华镇路)"},{"poiid":"B2094654DB69AAF5449B","title":"上海交大安泰管理学院","lon":"121.42535","lat":"31.20503","category":"52","category_name":"高等院校","address":"上海市长宁区法华镇路535号"},{"poiid":"B2094757D065A2FC4499","title":"干叶子茶料理","lon":"121.425673529","lat":"31.2033053162","category":"89","category_name":"中式素餐馆","address":"长宁区新华路359号(定西路口)"},{"poiid":"B2094654DB6AA7FA479A","title":"香啡缤 红坊店 Coffee Bean&Tea Leaf","lon":"121.423160054","lat":"31.197249793","category":"260","category_name":"其他","address":"长宁区淮海西路570号红坊创意园区B112室(近虹桥路)"},{"poiid":"B2094654D564A5FF469D","title":"虹桥荣广大厦","lon":"121.424","lat":"31.2038","category":"46","category_name":"楼宇","address":"上海市长宁区长顺路11号"},{"poiid":"B2094757D065A0FD479C","title":"德林酸菜鱼","lon":"121.42313742","lat":"31.202297864","category":"247","category_name":"餐饮美食","address":"上海安顺路"},{"poiid":"B2094757D068A7FB449A","title":"秋霞阁","lon":"121.42341","lat":"31.20437","category":"68","category_name":"快餐厅","address":"长宁区定西路591号(新华路口)"},{"poiid":"B2094757D16AABFC4392","title":"恋恋仙草","lon":"121.425591586","lat":"31.2035189087","category":"113","category_name":"冷饮店","address":"长宁区新华路372号(近香花桥路)"},{"poiid":"B2094757D068A5F9469F","title":"翠薇轩","lon":"121.423208","lat":"31.203222","category":"72","category_name":"广东菜","address":"长宁区定西路430号(近新华路)"},{"poiid":"B2094757D16FABF84298","title":"老上海弄堂菜馆","lon":"121.42867075","lat":"31.202453967","category":"76","category_name":"上海菜","address":"长宁区新华路160号上海影城2号门3楼(近番禺路)"},{"poiid":"B2094750D665A2FC409C","title":"比比叩自助烤肉","lon":"121.42196","lat":"31.20177","category":"68","category_name":"快餐厅","address":"长宁区安顺路88号(定西路口)"},{"poiid":"B2094757D16DA0F4429F","title":"水瓶座塔罗占卜屋","lon":"121.424972586","lat":"31.2039329168","category":"247","category_name":"餐饮美食","address":"上海市长宁区新华路"},{"poiid":"B2094757D065A5FC489D","title":"瓷园会所","lon":"121.42345","lat":"31.20422","category":"72","category_name":"广东菜","address":"长宁区定西路566号(近新华路)"},{"poiid":"B2094654D564A7F5489A","title":"上海民族乐团","lon":"121.42624","lat":"31.20355","category":"189","category_name":"文艺团体","address":"长宁区新华路336号(近香花桥路)"},{"poiid":"B2094655D26FA5FF459E","title":"淮海花园","lon":"121.428537","lat":"31.200028","category":"47","category_name":"住宅区","address":"淮海西路288弄1-5号"},{"poiid":"B2094654D564A6FA409F","title":"东华大学国家大学科技园(北门)","lon":"121.42552","lat":"31.20315","category":"45","category_name":"产业园区","address":"新华路365弄5"},{"poiid":"B2094654DB6BA7F44692","title":"新华别墅(北门)","lon":"121.42633","lat":"31.20308","category":"47","category_name":"住宅区","address":"新华路329弄15-71号"},{"poiid":"B2094757D069A5FA439F","title":"法华镇路","lon":"121.425354","lat":"31.205027","category":"627","category_name":"一般地点标志","address":"上海法华镇路"},{"poiid":"B2094750D664AAFB429D","title":"御封会","lon":"121.429","lat":"31.2024","category":"72","category_name":"广东菜","address":"长宁区新华路185弄1号"},{"poiid":"B2094757D16EA2F8459A","title":"食流林","lon":"121.42549","lat":"31.20368","category":"68","category_name":"快餐厅","address":"长宁区香花桥路41号(近法华镇路交大)"},{"poiid":"B2094757D568ABFB4398","title":"天力公园","lon":"121.42633","lat":"31.20308389","category":"196","category_name":"公园","address":"长宁区新华路329弄30号(香花桥路新华路)"},{"poiid":"B2094654DB65AAF84292","title":"上海长新中学","lon":"121.42633","lat":"31.20308","category":"55","category_name":"中学","address":"长宁区新华路329弄43号"},{"poiid":"B2094655D268A1FA4798","title":"上海外滩花园酒店","lon":"121.42877","lat":"31.20218","category":"70","category_name":"综合酒楼","address":"长宁区新华路179号(近番禺路)"},{"poiid":"B2094654D564A5F8489A","title":"南洋虹桥公寓","lon":"121.426","lat":"31.203","category":"47","category_name":"住宅区","address":"虹桥路953弄8-10号"},{"poiid":"B2094654D564A6F84593","title":"凯利大厦","lon":"121.42693","lat":"31.19923","category":"46","category_name":"楼宇","address":"上海市奉贤区南奉公路8515,8519号"},{"poiid":"B2094757D068A0F8479E","title":"The Coffee Bean(红坊店)","lon":"121.42402358","lat":"31.200390847","category":"65","category_name":"咖啡厅","address":"上海红坊b 112"},{"poiid":"B2094655D36DA1F44692","title":"香花桥","lon":"121.42538","lat":"31.20355","category":"38","category_name":"公交车站","address":""},{"poiid":"B2094654D564A6FA409E","title":"新华社区图书阅览室","lon":"121.42537","lat":"31.20309","category":"181","category_name":"图书馆","address":"新华路365弄1"},{"poiid":"B2094654D564A6FA409B","title":"新华社区文化活动中心","lon":"121.42568","lat":"31.20316","category":"248","category_name":"生活娱乐","address":"新华路359"},{"poiid":"B2094757D16DA3FC4892","title":"尚盈创意产业园","lon":"121.425976526","lat":"31.2028895091","category":"500","category_name":"未知分类","address":"上海新华路345号"},{"poiid":"B2094654DB65A4F84499","title":"复旦初级中学(北门)","lon":"121.42803","lat":"31.20221","category":"678","category_name":"学校大门","address":"新华路211弄1-32号"},{"poiid":"B2094654D564A7F5479D","title":"联华(新华路)","lon":"121.42541","lat":"31.20366","category":"118","category_name":"超级市场","address":"新华路372"},{"poiid":"B2094757D06EABF54999","title":"秘密花园","lon":"121.4254","lat":"31.20498","category":"47","category_name":"住宅区","address":"长宁区延安西路1742号(近凯旋路)"},{"poiid":"B2094757D06FA3FB4599","title":"五观堂素食","lon":"121.42627","lat":"31.20313","category":"89","category_name":"中式素餐馆","address":"长宁区新华路349号(近定西路)"},{"poiid":"B2094757D06FA0FD479D","title":"中国人民解放军第四五五医院(总院)","lon":"121.4279118882938","lat":"31.200720631212796","category":"162","category_name":"医院","address":"上海长宁区淮海西路338号(近番禺路)"},{"poiid":"B2094757D06FA2F8479C","title":"Cotton's(新华路店)","lon":"121.4277083","lat":"31.202930121","category":"260","category_name":"其他","address":"长宁区新华路294号(近香花桥路)"},{"poiid":"B2094757D06FA0FB4498","title":"上海交通大学安泰经济与管理学院","lon":"121.4250955","lat":"31.205555045","category":"260","category_name":"其他","address":"长宁区法华镇路535号上海交通大学内(近定西路)"},{"poiid":"B2094757D068A3FB489C","title":"雕刻时光咖啡馆(红坊店)","lon":"121.425078586","lat":"31.1992688256","category":"260","category_name":"其他","address":"长宁区淮海西路570号B111"},{"poiid":"B2094757D06EAAFA419C","title":"星巴克(上海影城店)","lon":"121.429277","lat":"31.2021766","category":"260","category_name":"其他","address":"长宁区新华路160号上海影城1楼001号(番禺路口)"},{"poiid":"B2094757D06FAAFC4592","title":"蝶翠轩(新华店)","lon":"121.426340611","lat":"31.2035536554","category":"76","category_name":"上海菜","address":"长宁区新华路336号(近番禺路上海影城)"},{"poiid":"B2094757D06FA6F94193","title":"金锚传菜","lon":"121.42316","lat":"31.20379","category":"76","category_name":"上海菜","address":"长宁区新华路543号新华大厦1楼(近定西路口)"},{"poiid":"B2094750DA6EA1FA499C","title":"On Stage","lon":"121.424015","lat":"31.199642","category":"172","category_name":"酒吧","address":"长宁区淮海西路570号红坊艺术文化社区A2(近虹桥路)"},{"poiid":"B2094757D06FA7F54592","title":"四季亭(新华店)","lon":"121.42557","lat":"31.20336","category":"95","category_name":"日本料理","address":"长宁区新华路369号(近定西路)"},{"poiid":"B2094751D26DAAFB449D","title":"Las Tapas","lon":"121.42482","lat":"31.199341","category":"94","category_name":"西餐厅","address":"长宁区淮海西路570号第59幢C6(近凯旋路)"},{"poiid":"B2094654DA6DA2FF4298","title":"三湘大厦","lon":"121.425","lat":"31.2002","category":"250","category_name":"公园户外","address":"上海市中山西路1243号(近虹桥路)"},{"poiid":"B2094757DB6CA2FC469D","title":"wagas","lon":"121.4253502298639","lat":"31.20229575437234","category":"500","category_name":"未知分类","address":"番禺路483號"},{"poiid":"B2094757D068A0FA419A","title":"定西路安顺路","lon":"121.422481","lat":"31.201977","category":"500","category_name":"未知分类","address":"上海定西路安顺路口"},{"poiid":"B2094750D66FA3FD489A","title":"星巴克","lon":"121.42322","lat":"31.2039","category":"260","category_name":"其他","address":"长宁区定西路475号(近新华路)"},{"poiid":"B2094757D16BA4FD4693","title":"新华路香花桥路","lon":"121.42446158","lat":"31.202785894","category":"500","category_name":"未知分类","address":"上海市长宁区新华路"},{"poiid":"B2094757D064A3FB4599","title":"新华路定西路","lon":"121.4243402","lat":"31.203689512","category":"500","category_name":"未知分类","address":"上海定西路420弄"},{"poiid":"B2094750D76CA3FA4599","title":"沃歌斯(番禺路店)","lon":"121.429","lat":"31.204","category":"94","category_name":"西餐厅","address":"长宁区番禺路483号1楼(近法华镇路)"},{"poiid":"B2094654DB69AAF5449B","title":"上海交大安泰管理学院","lon":"121.42535","lat":"31.20503","category":"52","category_name":"高等院校","address":"上海市长宁区法华镇路535号"},{"poiid":"B2094757D065A2FC4499","title":"干叶子茶料理","lon":"121.425673529","lat":"31.2033053162","category":"89","category_name":"中式素餐馆","address":"长宁区新华路359号(定西路口)"},{"poiid":"B2094654DB6AA7FA479A","title":"香啡缤 红坊店 Coffee Bean&Tea Leaf","lon":"121.423160054","lat":"31.197249793","category":"260","category_name":"其他","address":"长宁区淮海西路570号红坊创意园区B112室(近虹桥路)"},{"poiid":"B2094654D564A5FF469D","title":"虹桥荣广大厦","lon":"121.424","lat":"31.2038","category":"46","category_name":"楼宇","address":"上海市长宁区长顺路11号"},{"poiid":"B2094757D065A0FD479C","title":"德林酸菜鱼","lon":"121.42313742","lat":"31.202297864","category":"247","category_name":"餐饮美食","address":"上海安顺路"},{"poiid":"B2094757D068A7FB449A","title":"秋霞阁","lon":"121.42341","lat":"31.20437","category":"68","category_name":"快餐厅","address":"长宁区定西路591号(新华路口)"},{"poiid":"B2094757D16AABFC4392","title":"恋恋仙草","lon":"121.425591586","lat":"31.2035189087","category":"113","category_name":"冷饮店","address":"长宁区新华路372号(近香花桥路)"},{"poiid":"B2094757D068A5F9469F","title":"翠薇轩","lon":"121.423208","lat":"31.203222","category":"72","category_name":"广东菜","address":"长宁区定西路430号(近新华路)"},{"poiid":"B2094757D16FABF84298","title":"老上海弄堂菜馆","lon":"121.42867075","lat":"31.202453967","category":"76","category_name":"上海菜","address":"长宁区新华路160号上海影城2号门3楼(近番禺路)"},{"poiid":"B2094750D665A2FC409C","title":"比比叩自助烤肉","lon":"121.42196","lat":"31.20177","category":"68","category_name":"快餐厅","address":"长宁区安顺路88号(定西路口)"},{"poiid":"B2094757D16DA0F4429F","title":"水瓶座塔罗占卜屋","lon":"121.424972586","lat":"31.2039329168","category":"247","category_name":"餐饮美食","address":"上海市长宁区新华路"},{"poiid":"B2094757D065A5FC489D","title":"瓷园会所","lon":"121.42345","lat":"31.20422","category":"72","category_name":"广东菜","address":"长宁区定西路566号(近新华路)"},{"poiid":"B2094654D564A7F5489A","title":"上海民族乐团","lon":"121.42624","lat":"31.20355","category":"189","category_name":"文艺团体","address":"长宁区新华路336号(近香花桥路)"},{"poiid":"B2094655D26FA5FF459E","title":"淮海花园","lon":"121.428537","lat":"31.200028","category":"47","category_name":"住宅区","address":"淮海西路288弄1-5号"},{"poiid":"B2094654D564A6FA409F","title":"东华大学国家大学科技园(北门)","lon":"121.42552","lat":"31.20315","category":"45","category_name":"产业园区","address":"新华路365弄5"},{"poiid":"B2094654DB6BA7F44692","title":"新华别墅(北门)","lon":"121.42633","lat":"31.20308","category":"47","category_name":"住宅区","address":"新华路329弄15-71号"},{"poiid":"B2094757D069A5FA439F","title":"法华镇路","lon":"121.425354","lat":"31.205027","category":"627","category_name":"一般地点标志","address":"上海法华镇路"},{"poiid":"B2094750D664AAFB429D","title":"御封会","lon":"121.429","lat":"31.2024","category":"72","category_name":"广东菜","address":"长宁区新华路185弄1号"},{"poiid":"B2094757D16EA2F8459A","title":"食流林","lon":"121.42549","lat":"31.20368","category":"68","category_name":"快餐厅","address":"长宁区香花桥路41号(近法华镇路交大)"},{"poiid":"B2094757D568ABFB4398","title":"天力公园","lon":"121.42633","lat":"31.20308389","category":"196","category_name":"公园","address":"长宁区新华路329弄30号(香花桥路新华路)"},{"poiid":"B2094654DB65AAF84292","title":"上海长新中学","lon":"121.42633","lat":"31.20308","category":"55","category_name":"中学","address":"长宁区新华路329弄43号"},{"poiid":"B2094655D268A1FA4798","title":"上海外滩花园酒店","lon":"121.42877","lat":"31.20218","category":"70","category_name":"综合酒楼","address":"长宁区新华路179号(近番禺路)"},{"poiid":"B2094654D564A5F8489A","title":"南洋虹桥公寓","lon":"121.426","lat":"31.203","category":"47","category_name":"住宅区","address":"虹桥路953弄8-10号"},{"poiid":"B2094654D564A6F84593","title":"凯利大厦","lon":"121.42693","lat":"31.19923","category":"46","category_name":"楼宇","address":"上海市奉贤区南奉公路8515,8519号"},{"poiid":"B2094757D068A0F8479E","title":"The Coffee Bean(红坊店)","lon":"121.42402358","lat":"31.200390847","category":"65","category_name":"咖啡厅","address":"上海红坊b 112"},{"poiid":"B2094655D36DA1F44692","title":"香花桥","lon":"121.42538","lat":"31.20355","category":"38","category_name":"公交车站","address":""},{"poiid":"B2094654D564A6FA409E","title":"新华社区图书阅览室","lon":"121.42537","lat":"31.20309","category":"181","category_name":"图书馆","address":"新华路365弄1"},{"poiid":"B2094654D564A6FA409B","title":"新华社区文化活动中心","lon":"121.42568","lat":"31.20316","category":"248","category_name":"生活娱乐","address":"新华路359"},{"poiid":"B2094757D16DA3FC4892","title":"尚盈创意产业园","lon":"121.425976526","lat":"31.2028895091","category":"500","category_name":"未知分类","address":"上海新华路345号"},{"poiid":"B2094654DB65A4F84499","title":"复旦初级中学(北门)","lon":"121.42803","lat":"31.20221","category":"678","category_name":"学校大门","address":"新华路211弄1-32号"},{"poiid":"B2094654D564A7F5479D","title":"联华(新华路)","lon":"121.42541","lat":"31.20366","category":"118","category_name":"超级市场","address":"新华路372"},{"poiid":"B2094757D06EABF54999","title":"秘密花园","lon":"121.4254","lat":"31.20498","category":"47","category_name":"住宅区","address":"长宁区延安西路1742号(近凯旋路)"},{"poiid":"B2094757D06FA3FB4599","title":"五观堂素食","lon":"121.42627","lat":"31.20313","category":"89","category_name":"中式素餐馆","address":"长宁区新华路349号(近定西路)"},{"poiid":"B2094757D06FA0FD479D","title":"中国人民解放军第四五五医院(总院)","lon":"121.4279118882938","lat":"31.200720631212796","category":"162","category_name":"医院","address":"上海长宁区淮海西路338号(近番禺路)"},{"poiid":"B2094757D06FA2F8479C","title":"Cotton's(新华路店)","lon":"121.4277083","lat":"31.202930121","category":"260","category_name":"其他","address":"长宁区新华路294号(近香花桥路)"},{"poiid":"B2094757D06FA0FB4498","title":"上海交通大学安泰经济与管理学院","lon":"121.4250955","lat":"31.205555045","category":"260","category_name":"其他","address":"长宁区法华镇路535号上海交通大学内(近定西路)"},{"poiid":"B2094757D068A3FB489C","title":"雕刻时光咖啡馆(红坊店)","lon":"121.425078586","lat":"31.1992688256","category":"260","category_name":"其他","address":"长宁区淮海西路570号B111"},{"poiid":"B2094757D06EAAFA419C","title":"星巴克(上海影城店)","lon":"121.429277","lat":"31.2021766","category":"260","category_name":"其他","address":"长宁区新华路160号上海影城1楼001号(番禺路口)"},{"poiid":"B2094757D06FAAFC4592","title":"蝶翠轩(新华店)","lon":"121.426340611","lat":"31.2035536554","category":"76","category_name":"上海菜","address":"长宁区新华路336号(近番禺路上海影城)"},{"poiid":"B2094757D06FA6F94193","title":"金锚传菜","lon":"121.42316","lat":"31.20379","category":"76","category_name":"上海菜","address":"长宁区新华路543号新华大厦1楼(近定西路口)"},{"poiid":"B2094750DA6EA1FA499C","title":"On Stage","lon":"121.424015","lat":"31.199642","category":"172","category_name":"酒吧","address":"长宁区淮海西路570号红坊艺术文化社区A2(近虹桥路)"},{"poiid":"B2094757D06FA7F54592","title":"四季亭(新华店)","lon":"121.42557","lat":"31.20336","category":"95","category_name":"日本料理","address":"长宁区新华路369号(近定西路)"},{"poiid":"B2094751D26DAAFB449D","title":"Las Tapas","lon":"121.42482","lat":"31.199341","category":"94","category_name":"西餐厅","address":"长宁区淮海西路570号第59幢C6(近凯旋路)"},{"poiid":"B2094654DA6DA2FF4298","title":"三湘大厦","lon":"121.425","lat":"31.2002","category":"250","category_name":"公园户外","address":"上海市中山西路1243号(近虹桥路)"},{"poiid":"B2094757DB6CA2FC469D","title":"wagas","lon":"121.4253502298639","lat":"31.20229575437234","category":"500","category_name":"未知分类","address":"番禺路483號"},{"poiid":"B2094757D068A0FA419A","title":"定西路安顺路","lon":"121.422481","lat":"31.201977","category":"500","category_name":"未知分类","address":"上海定西路安顺路口"},{"poiid":"B2094750D66FA3FD489A","title":"星巴克","lon":"121.42322","lat":"31.2039","category":"260","category_name":"其他","address":"长宁区定西路475号(近新华路)"},{"poiid":"B2094757D16BA4FD4693","title":"新华路香花桥路","lon":"121.42446158","lat":"31.202785894","category":"500","category_name":"未知分类","address":"上海市长宁区新华路"},{"poiid":"B2094757D064A3FB4599","title":"新华路定西路","lon":"121.4243402","lat":"31.203689512","category":"500","category_name":"未知分类","address":"上海定西路420弄"},{"poiid":"B2094750D76CA3FA4599","title":"沃歌斯(番禺路店)","lon":"121.429","lat":"31.204","category":"94","category_name":"西餐厅","address":"长宁区番禺路483号1楼(近法华镇路)"},{"poiid":"B2094654DB69AAF5449B","title":"上海交大安泰管理学院","lon":"121.42535","lat":"31.20503","category":"52","category_name":"高等院校","address":"上海市长宁区法华镇路535号"},{"poiid":"B2094757D065A2FC4499","title":"干叶子茶料理","lon":"121.425673529","lat":"31.2033053162","category":"89","category_name":"中式素餐馆","address":"长宁区新华路359号(定西路口)"},{"poiid":"B2094654DB6AA7FA479A","title":"香啡缤 红坊店 Coffee Bean&Tea Leaf","lon":"121.423160054","lat":"31.197249793","category":"260","category_name":"其他","address":"长宁区淮海西路570号红坊创意园区B112室(近虹桥路)"},{"poiid":"B2094654D564A5FF469D","title":"虹桥荣广大厦","lon":"121.424","lat":"31.2038","category":"46","category_name":"楼宇","address":"上海市长宁区长顺路11号"},{"poiid":"B2094757D065A0FD479C","title":"德林酸菜鱼","lon":"121.42313742","lat":"31.202297864","category":"247","category_name":"餐饮美食","address":"上海安顺路"},{"poiid":"B2094757D068A7FB449A","title":"秋霞阁","lon":"121.42341","lat":"31.20437","category":"68","category_name":"快餐厅","address":"长宁区定西路591号(新华路口)"},{"poiid":"B2094757D16AABFC4392","title":"恋恋仙草","lon":"121.425591586","lat":"31.2035189087","category":"113","category_name":"冷饮店","address":"长宁区新华路372号(近香花桥路)"},{"poiid":"B2094757D068A5F9469F","title":"翠薇轩","lon":"121.423208","lat":"31.203222","category":"72","category_name":"广东菜","address":"长宁区定西路430号(近新华路)"},{"poiid":"B2094757D16FABF84298","title":"老上海弄堂菜馆","lon":"121.42867075","lat":"31.202453967","category":"76","category_name":"上海菜","address":"长宁区新华路160号上海影城2号门3楼(近番禺路)"},{"poiid":"B2094750D665A2FC409C","title":"比比叩自助烤肉","lon":"121.42196","lat":"31.20177","category":"68","category_name":"快餐厅","address":"长宁区安顺路88号(定西路口)"},{"poiid":"B2094757D16DA0F4429F","title":"水瓶座塔罗占卜屋","lon":"121.424972586","lat":"31.2039329168","category":"247","category_name":"餐饮美食","address":"上海市长宁区新华路"},{"poiid":"B2094757D065A5FC489D","title":"瓷园会所","lon":"121.42345","lat":"31.20422","category":"72","category_name":"广东菜","address":"长宁区定西路566号(近新华路)"},{"poiid":"B2094654D564A7F5489A","title":"上海民族乐团","lon":"121.42624","lat":"31.20355","category":"189","category_name":"文艺团体","address":"长宁区新华路336号(近香花桥路)"},{"poiid":"B2094655D26FA5FF459E","title":"淮海花园","lon":"121.428537","lat":"31.200028","category":"47","category_name":"住宅区","address":"淮海西路288弄1-5号"},{"poiid":"B2094654D564A6FA409F","title":"东华大学国家大学科技园(北门)","lon":"121.42552","lat":"31.20315","category":"45","category_name":"产业园区","address":"新华路365弄5"},{"poiid":"B2094654DB6BA7F44692","title":"新华别墅(北门)","lon":"121.42633","lat":"31.20308","category":"47","category_name":"住宅区","address":"新华路329弄15-71号"},{"poiid":"B2094757D069A5FA439F","title":"法华镇路","lon":"121.425354","lat":"31.205027","category":"627","category_name":"一般地点标志","address":"上海法华镇路"},{"poiid":"B2094750D664AAFB429D","title":"御封会","lon":"121.429","lat":"31.2024","category":"72","category_name":"广东菜","address":"长宁区新华路185弄1号"},{"poiid":"B2094757D16EA2F8459A","title":"食流林","lon":"121.42549","lat":"31.20368","category":"68","category_name":"快餐厅","address":"长宁区香花桥路41号(近法华镇路交大)"},{"poiid":"B2094757D568ABFB4398","title":"天力公园","lon":"121.42633","lat":"31.20308389","category":"196","category_name":"公园","address":"长宁区新华路329弄30号(香花桥路新华路)"},{"poiid":"B2094654DB65AAF84292","title":"上海长新中学","lon":"121.42633","lat":"31.20308","category":"55","category_name":"中学","address":"长宁区新华路329弄43号"},{"poiid":"B2094655D268A1FA4798","title":"上海外滩花园酒店","lon":"121.42877","lat":"31.20218","category":"70","category_name":"综合酒楼","address":"长宁区新华路179号(近番禺路)"},{"poiid":"B2094654D564A5F8489A","title":"南洋虹桥公寓","lon":"121.426","lat":"31.203","category":"47","category_name":"住宅区","address":"虹桥路953弄8-10号"},{"poiid":"B2094654D564A6F84593","title":"凯利大厦","lon":"121.42693","lat":"31.19923","category":"46","category_name":"楼宇","address":"上海市奉贤区南奉公路8515,8519号"},{"poiid":"B2094757D068A0F8479E","title":"The Coffee Bean(红坊店)","lon":"121.42402358","lat":"31.200390847","category":"65","category_name":"咖啡厅","address":"上海红坊b 112"},{"poiid":"B2094655D36DA1F44692","title":"香花桥","lon":"121.42538","lat":"31.20355","category":"38","category_name":"公交车站","address":""},{"poiid":"B2094654D564A6FA409E","title":"新华社区图书阅览室","lon":"121.42537","lat":"31.20309","category":"181","category_name":"图书馆","address":"新华路365弄1"},{"poiid":"B2094654D564A6FA409B","title":"新华社区文化活动中心","lon":"121.42568","lat":"31.20316","category":"248","category_name":"生活娱乐","address":"新华路359"},{"poiid":"B2094757D16DA3FC4892","title":"尚盈创意产业园","lon":"121.425976526","lat":"31.2028895091","category":"500","category_name":"未知分类","address":"上海新华路345号"},{"poiid":"B2094654DB65A4F84499","title":"复旦初级中学(北门)","lon":"121.42803","lat":"31.20221","category":"678","category_name":"学校大门","address":"新华路211弄1-32号"},{"poiid":"B2094654D564A7F5479D","title":"联华(新华路)","lon":"121.42541","lat":"31.20366","category":"118","category_name":"超级市场","address":"新华路372"}]