[{"poiid":"B2094654DA6EA7FF409A","title":"大肠面","lon":"121.48144","lat":"31.21834","category":"68","category_name":"快餐厅","address":"卢湾区复兴中路59号(吉安路东台路间)"},{"poiid":"B2094750D664A4FA419A","title":"耳光馄饨","lon":"121.481","lat":"31.216","category":"68","category_name":"快餐厅","address":"黄浦区肇周路209-213号(近合肥路)"},{"poiid":"B2094757D068A2FB4692","title":"辣肉丝面馆","lon":"121.482194054","lat":"31.216874793","category":"68","category_name":"快餐厅","address":"黄浦区肇周路106号(近吉安路)"},{"poiid":"B2094753D76FAAFA449C","title":"上海滩国泰旗舰店","lon":"121.466011","lat":"31.216125","category":"249","category_name":"购物服务","address":"淮海中路868号"},{"poiid":"B209475CD564A7F84292","title":"上海滩新天地店","lon":"121.47463","lat":"31.22164","category":"119","category_name":"商场","address":"\"太仓路181弄新天地北里15号\r\n\""},{"poiid":"B209475CD564A7F8439E","title":"上海滩中信泰富店","lon":"121.45602","lat":"31.22851","category":"119","category_name":"商场","address":"\"南京西路1168号中信泰富广场，店铺号221.\r\n\""},{"poiid":"B209475CD564A7F84392","title":"上海滩浦东香格里拉店","lon":"121.50058","lat":"31.23634","category":"119","category_name":"商场","address":"浦东富成路33号香格里拉酒店内大堂层"},{"poiid":"B2094750D26EABF8459A","title":"上海虹桥机场","lon":"121.48","lat":"31.22","category":"21","category_name":"飞机场","address":"上海长宁区虹桥路2550号"},{"poiid":"B2094757D06FA3FF479D","title":"长脚汤面","lon":"121.480717","lat":"31.216623","category":"68","category_name":"快餐厅","address":"卢湾区肇周路166弄弄堂里(近济南路)"},{"poiid":"B2094757D06AA4FD419D","title":"格澜国际大酒店","lon":"121.482429538","lat":"31.2197208762","category":"76","category_name":"上海菜","address":"黄浦区西藏南路567号(近复兴中路)"},{"poiid":"B2094757D06FAAFA499D","title":"法藏讲寺","lon":"121.48161","lat":"31.21755","category":"244","category_name":"寺庙道观","address":"上海卢湾区吉安路271号(近复兴中路)"},{"poiid":"B2094757D068A1F94392","title":"新天地南里","lon":"121.48018047","lat":"31.217756111","category":"119","category_name":"商场","address":"上海卢湾区兴业路123弄"},{"poiid":"B2094654DA6EA7F84999","title":"易买得(老西门店)","lon":"121.48337","lat":"31.21698","category":"118","category_name":"超级市场","address":"黄浦区西藏南路666号(西藏南路肇周路)"},{"poiid":"B2094757D064A3FC4299","title":"POST餐厅","lon":"121.47842","lat":"31.21808","category":"94","category_name":"西餐厅","address":"卢湾区顺昌路168弄翠湖天地10号会所2楼(自忠路)"},{"poiid":"B2094751D26DABFA459F","title":"新天地摩罗街","lon":"121.479576","lat":"31.217754","category":"500","category_name":"未知分类","address":null},{"poiid":"B2094750D26FA5F84792","title":"宁静名猫生活馆","lon":"121.480108","lat":"31.217455","category":"260","category_name":"其他","address":"黄浦区西藏南路765号永惠大厦1303室(近方斜路)"},{"poiid":"B2094757D16CA5FC459F","title":"肇州路馄饨","lon":"121.48104573","lat":"31.215022976","category":"500","category_name":"未知分类","address":"上海肇州路合肥路"},{"poiid":"B2094757D06AA2FB459F","title":"十号线老西门站","lon":"121.481291738","lat":"31.2153389828","category":"500","category_name":"未知分类","address":"上海老西门"},{"poiid":"B2094757D069A3F8429B","title":"老西门新苑","lon":"121.483051","lat":"31.216619","category":"47","category_name":"住宅区","address":"上海市黄浦区西藏南路688弄会所内"},{"poiid":"B2094654DB64A5FD409B","title":"斯巴顿健身会所(老西门店)","lon":"121.48316","lat":"31.21657","category":"221","category_name":"健身中心","address":"黄浦区西藏南路688弄15号(近复兴中路)"},{"poiid":"B209475DDB64AAFA4193","title":"云南云海肴","lon":"121.479309","lat":"31.217967","category":"247","category_name":"餐饮美食","address":"上海市 新天地兴业路123弄1号楼03单元"},{"poiid":"B2094757DB6FA5FA4798","title":"地铁八号线","lon":"121.4801134782591","lat":"31.21684147290736","category":"500","category_name":"未知分类","address":"陆家浜路站"},{"poiid":"B2094655D26AA0FA4092","title":"地铁老西门站","lon":"121.48323","lat":"31.21837","category":"36","category_name":"地铁站","address":""},{"poiid":"B2094757DB6DA4FD4392","title":"上海青瓷主题酒店","lon":"121.481594145","lat":"31.216474009","category":"216","category_name":"经济型连锁酒店","address":"黄浦区肇周路153号(近唐家湾路)"},{"poiid":"B2094757D664A1F9439E","title":"慈光素食","lon":"121.48152","lat":"31.21795","category":"89","category_name":"中式素餐馆","address":"卢湾区吉安路271号法藏讲寺内(复兴中路吉安路)"},{"poiid":"B2094757D469A7FA4098","title":"重庆鸡公煲 肇周路店","lon":"121.48189","lat":"31.21687","category":"71","category_name":"四川菜","address":"黄浦区肇周路108号(近西藏南路)"},{"poiid":"B2094654DA6EA7F8439C","title":"肇周小吃","lon":"121.48168","lat":"31.21676","category":"68","category_name":"快餐厅","address":"黄浦区肇周路吉安路口"},{"poiid":"B2094757D16DA3F84499","title":"黄浦区民政局","lon":"121.48325573","lat":"31.218233044","category":"500","category_name":"未知分类","address":"上海市黄浦区中华路1011号"},{"poiid":"B2094757D468A0FF4099","title":"杰克的酒窝","lon":"121.483278","lat":"31.21809","category":"260","category_name":"其他","address":"黄浦区肇周路76号(近东台路)"},{"poiid":"B2094752D26BA2FF4499","title":"耀华路地铁站","lon":"121.479828","lat":"31.218002","category":"36","category_name":"地铁站","address":null},{"poiid":"B2094654DA6EA7F84592","title":"法藏讲寺(1号门)","lon":"121.48149","lat":"31.21767","category":"679","category_name":"楼宇机构","address":"吉安路293弄2-10号"},{"poiid":"B2094654DA6EABF54498","title":"翠湖天地","lon":"121.47864","lat":"31.21832","category":"47","category_name":"住宅区","address":"长宁区镇宁路111号"},{"poiid":"B2094757D068A4F9489F","title":"BerryBear Frozen Yogurt","lon":"121.479574738","lat":"31.2173970267","category":"113","category_name":"冷饮店","address":"上海卢湾区兴业路123弄新天地南里6号楼3楼327-3单元"},{"poiid":"B2094757D66DAAFF499F","title":"冷馄饨","lon":"121.48063773","lat":"31.215786992","category":"247","category_name":"餐饮美食","address":"上海肇周路"},{"poiid":"B2094655D268A6F54092","title":"源成里小区","lon":"121.48062","lat":"31.2177","category":"47","category_name":"住宅区","address":"复兴中路113弄1-48号"},{"poiid":"B2094655D36DA7FE449B","title":"肇周路老西门","lon":"121.48302","lat":"31.21724","category":"38","category_name":"公交车站","address":""},{"poiid":"B2094654DA6EA7FF409F","title":"快客No.945(吉安路)","lon":"121.48123","lat":"31.21819","category":"117","category_name":"便民商店/便利店","address":"吉安路251"},{"poiid":"B2094757D465A7FE4499","title":"东东砂锅馆","lon":"121.47981","lat":"31.21603","category":"68","category_name":"快餐厅","address":"卢湾区合肥路46号(近肇周路)"},{"poiid":"B2094757D464A0F4479F","title":"乐乐新疆风味餐厅","lon":"121.482229054","lat":"31.218332793","category":"90","category_name":"清真餐馆","address":"卢湾区东台路272号(近复兴中路)"},{"poiid":"B209475DDB64AAFA4399","title":"云南云海肴","lon":"121.479309","lat":"31.217967","category":"247","category_name":"餐饮美食","address":"上海市 新天地兴业路123弄1号楼03单元"},{"poiid":"B2094654DA6EA7FE4999","title":"国际广场A座","lon":"121.4829","lat":"31.21762","category":"46","category_name":"楼宇","address":"上海东台路279号"},{"poiid":"B209475CD468A1FC4899","title":"大福屋","lon":"121.478874","lat":"31.216972","category":"500","category_name":"未知分类","address":"上海市 上海市卢湾区新天地"},{"poiid":"B2094654DB64A5F9449D","title":"浦江之星连锁旅店","lon":"121.48198","lat":"31.21821","category":"216","category_name":"经济型连锁酒店","address":"东台路270-2、272-2"},{"poiid":"B2094654DB6BA4FF469F","title":"新疆风味餐厅(东台路)","lon":"121.482","lat":"31.21817","category":"90","category_name":"清真餐馆","address":"东台路272-1"},{"poiid":"B2094654DA6EA7F8409C","title":"名流酒家","lon":"121.48009","lat":"31.21747","category":"76","category_name":"上海菜","address":"卢湾区济南路241号(近复兴中路)"},{"poiid":"B2094655D268A6F8429F","title":"富华里","lon":"121.48136","lat":"31.21699","category":"47","category_name":"住宅区","address":"吉安路328弄1-3号"},{"poiid":"B2094654DA6EA7FE499F","title":"国际广场B座","lon":"121.4827","lat":"31.21805","category":"46","category_name":"楼宇","address":"东台路277"},{"poiid":"B209475DDA6DAAFC4698","title":"花蒲甜品","lon":"121.479293","lat":"31.216024","category":"247","category_name":"餐饮美食","address":"上海市 马当路245号新天地时尚1楼107室(自忠路)"},{"poiid":"B2094751D36BA5FF469F","title":"上海南站","lon":"121.48","lat":"31.22","category":"195","category_name":"游乐场","address":"上海徐家汇"},{"poiid":"B2094654DB6BA4FF4599","title":"良友金伴(复兴中路)","lon":"121.48155","lat":"31.21836","category":"117","category_name":"便民商店/便利店","address":"复兴中路63-65"},{"poiid":"B2094654DA6EA7FF409A","title":"大肠面","lon":"121.48144","lat":"31.21834","category":"68","category_name":"快餐厅","address":"卢湾区复兴中路59号(吉安路东台路间)"},{"poiid":"B2094750D664A4FA419A","title":"耳光馄饨","lon":"121.481","lat":"31.216","category":"68","category_name":"快餐厅","address":"黄浦区肇周路209-213号(近合肥路)"},{"poiid":"B2094757D068A2FB4692","title":"辣肉丝面馆","lon":"121.482194054","lat":"31.216874793","category":"68","category_name":"快餐厅","address":"黄浦区肇周路106号(近吉安路)"},{"poiid":"B2094753D76FAAFA449C","title":"上海滩国泰旗舰店","lon":"121.466011","lat":"31.216125","category":"249","category_name":"购物服务","address":"淮海中路868号"},{"poiid":"B209475CD564A7F84292","title":"上海滩新天地店","lon":"121.47463","lat":"31.22164","category":"119","category_name":"商场","address":"\"太仓路181弄新天地北里15号\r\n\""},{"poiid":"B209475CD564A7F8439E","title":"上海滩中信泰富店","lon":"121.45602","lat":"31.22851","category":"119","category_name":"商场","address":"\"南京西路1168号中信泰富广场，店铺号221.\r\n\""},{"poiid":"B209475CD564A7F84392","title":"上海滩浦东香格里拉店","lon":"121.50058","lat":"31.23634","category":"119","category_name":"商场","address":"浦东富成路33号香格里拉酒店内大堂层"},{"poiid":"B2094750D26EABF8459A","title":"上海虹桥机场","lon":"121.48","lat":"31.22","category":"21","category_name":"飞机场","address":"上海长宁区虹桥路2550号"},{"poiid":"B2094757D06FA3FF479D","title":"长脚汤面","lon":"121.480717","lat":"31.216623","category":"68","category_name":"快餐厅","address":"卢湾区肇周路166弄弄堂里(近济南路)"},{"poiid":"B2094757D06AA4FD419D","title":"格澜国际大酒店","lon":"121.482429538","lat":"31.2197208762","category":"76","category_name":"上海菜","address":"黄浦区西藏南路567号(近复兴中路)"},{"poiid":"B2094757D06FAAFA499D","title":"法藏讲寺","lon":"121.48161","lat":"31.21755","category":"244","category_name":"寺庙道观","address":"上海卢湾区吉安路271号(近复兴中路)"},{"poiid":"B2094757D068A1F94392","title":"新天地南里","lon":"121.48018047","lat":"31.217756111","category":"119","category_name":"商场","address":"上海卢湾区兴业路123弄"},{"poiid":"B2094654DA6EA7F84999","title":"易买得(老西门店)","lon":"121.48337","lat":"31.21698","category":"118","category_name":"超级市场","address":"黄浦区西藏南路666号(西藏南路肇周路)"},{"poiid":"B2094757D064A3FC4299","title":"POST餐厅","lon":"121.47842","lat":"31.21808","category":"94","category_name":"西餐厅","address":"卢湾区顺昌路168弄翠湖天地10号会所2楼(自忠路)"},{"poiid":"B2094751D26DABFA459F","title":"新天地摩罗街","lon":"121.479576","lat":"31.217754","category":"500","category_name":"未知分类","address":null},{"poiid":"B2094750D26FA5F84792","title":"宁静名猫生活馆","lon":"121.480108","lat":"31.217455","category":"260","category_name":"其他","address":"黄浦区西藏南路765号永惠大厦1303室(近方斜路)"},{"poiid":"B2094757D16CA5FC459F","title":"肇州路馄饨","lon":"121.48104573","lat":"31.215022976","category":"500","category_name":"未知分类","address":"上海肇州路合肥路"},{"poiid":"B2094757D06AA2FB459F","title":"十号线老西门站","lon":"121.481291738","lat":"31.2153389828","category":"500","category_name":"未知分类","address":"上海老西门"},{"poiid":"B2094757D069A3F8429B","title":"老西门新苑","lon":"121.483051","lat":"31.216619","category":"47","category_name":"住宅区","address":"上海市黄浦区西藏南路688弄会所内"},{"poiid":"B2094654DB64A5FD409B","title":"斯巴顿健身会所(老西门店)","lon":"121.48316","lat":"31.21657","category":"221","category_name":"健身中心","address":"黄浦区西藏南路688弄15号(近复兴中路)"},{"poiid":"B209475DDB64AAFA4193","title":"云南云海肴","lon":"121.479309","lat":"31.217967","category":"247","category_name":"餐饮美食","address":"上海市 新天地兴业路123弄1号楼03单元"},{"poiid":"B2094757DB6FA5FA4798","title":"地铁八号线","lon":"121.4801134782591","lat":"31.21684147290736","category":"500","category_name":"未知分类","address":"陆家浜路站"},{"poiid":"B2094655D26AA0FA4092","title":"地铁老西门站","lon":"121.48323","lat":"31.21837","category":"36","category_name":"地铁站","address":""},{"poiid":"B2094757DB6DA4FD4392","title":"上海青瓷主题酒店","lon":"121.481594145","lat":"31.216474009","category":"216","category_name":"经济型连锁酒店","address":"黄浦区肇周路153号(近唐家湾路)"},{"poiid":"B2094757D664A1F9439E","title":"慈光素食","lon":"121.48152","lat":"31.21795","category":"89","category_name":"中式素餐馆","address":"卢湾区吉安路271号法藏讲寺内(复兴中路吉安路)"},{"poiid":"B2094757D469A7FA4098","title":"重庆鸡公煲 肇周路店","lon":"121.48189","lat":"31.21687","category":"71","category_name":"四川菜","address":"黄浦区肇周路108号(近西藏南路)"},{"poiid":"B2094654DA6EA7F8439C","title":"肇周小吃","lon":"121.48168","lat":"31.21676","category":"68","category_name":"快餐厅","address":"黄浦区肇周路吉安路口"},{"poiid":"B2094757D16DA3F84499","title":"黄浦区民政局","lon":"121.48325573","lat":"31.218233044","category":"500","category_name":"未知分类","address":"上海市黄浦区中华路1011号"},{"poiid":"B2094757D468A0FF4099","title":"杰克的酒窝","lon":"121.483278","lat":"31.21809","category":"260","category_name":"其他","address":"黄浦区肇周路76号(近东台路)"},{"poiid":"B2094752D26BA2FF4499","title":"耀华路地铁站","lon":"121.479828","lat":"31.218002","category":"36","category_name":"地铁站","address":null},{"poiid":"B2094654DA6EA7F84592","title":"法藏讲寺(1号门)","lon":"121.48149","lat":"31.21767","category":"679","category_name":"楼宇机构","address":"吉安路293弄2-10号"},{"poiid":"B2094654DA6EABF54498","title":"翠湖天地","lon":"121.47864","lat":"31.21832","category":"47","category_name":"住宅区","address":"长宁区镇宁路111号"},{"poiid":"B2094757D068A4F9489F","title":"BerryBear Frozen Yogurt","lon":"121.479574738","lat":"31.2173970267","category":"113","category_name":"冷饮店","address":"上海卢湾区兴业路123弄新天地南里6号楼3楼327-3单元"},{"poiid":"B2094757D66DAAFF499F","title":"冷馄饨","lon":"121.48063773","lat":"31.215786992","category":"247","category_name":"餐饮美食","address":"上海肇周路"},{"poiid":"B2094655D268A6F54092","title":"源成里小区","lon":"121.48062","lat":"31.2177","category":"47","category_name":"住宅区","address":"复兴中路113弄1-48号"},{"poiid":"B2094655D36DA7FE449B","title":"肇周路老西门","lon":"121.48302","lat":"31.21724","category":"38","category_name":"公交车站","address":""},{"poiid":"B2094654DA6EA7FF409F","title":"快客No.945(吉安路)","lon":"121.48123","lat":"31.21819","category":"117","category_name":"便民商店/便利店","address":"吉安路251"},{"poiid":"B2094757D465A7FE4499","title":"东东砂锅馆","lon":"121.47981","lat":"31.21603","category":"68","category_name":"快餐厅","address":"卢湾区合肥路46号(近肇周路)"},{"poiid":"B2094757D464A0F4479F","title":"乐乐新疆风味餐厅","lon":"121.482229054","lat":"31.218332793","category":"90","category_name":"清真餐馆","address":"卢湾区东台路272号(近复兴中路)"},{"poiid":"B209475DDB64AAFA4399","title":"云南云海肴","lon":"121.479309","lat":"31.217967","category":"247","category_name":"餐饮美食","address":"上海市 新天地兴业路123弄1号楼03单元"},{"poiid":"B2094654DA6EA7FE4999","title":"国际广场A座","lon":"121.4829","lat":"31.21762","category":"46","category_name":"楼宇","address":"上海东台路279号"},{"poiid":"B209475CD468A1FC4899","title":"大福屋","lon":"121.478874","lat":"31.216972","category":"500","category_name":"未知分类","address":"上海市 上海市卢湾区新天地"},{"poiid":"B2094654DB64A5F9449D","title":"浦江之星连锁旅店","lon":"121.48198","lat":"31.21821","category":"216","category_name":"经济型连锁酒店","address":"东台路270-2、272-2"},{"poiid":"B2094654DB6BA4FF469F","title":"新疆风味餐厅(东台路)","lon":"121.482","lat":"31.21817","category":"90","category_name":"清真餐馆","address":"东台路272-1"},{"poiid":"B2094654DA6EA7F8409C","title":"名流酒家","lon":"121.48009","lat":"31.21747","category":"76","category_name":"上海菜","address":"卢湾区济南路241号(近复兴中路)"},{"poiid":"B2094655D268A6F8429F","title":"富华里","lon":"121.48136","lat":"31.21699","category":"47","category_name":"住宅区","address":"吉安路328弄1-3号"},{"poiid":"B2094654DA6EA7FE499F","title":"国际广场B座","lon":"121.4827","lat":"31.21805","category":"46","category_name":"楼宇","address":"东台路277"},{"poiid":"B209475DDA6DAAFC4698","title":"花蒲甜品","lon":"121.479293","lat":"31.216024","category":"247","category_name":"餐饮美食","address":"上海市 马当路245号新天地时尚1楼107室(自忠路)"},{"poiid":"B2094751D36BA5FF469F","title":"上海南站","lon":"121.48","lat":"31.22","category":"195","category_name":"游乐场","address":"上海徐家汇"},{"poiid":"B2094654DB6BA4FF4599","title":"良友金伴(复兴中路)","lon":"121.48155","lat":"31.21836","category":"117","category_name":"便民商店/便利店","address":"复兴中路63-65"},{"poiid":"B2094654DA6EA7FF409A","title":"大肠面","lon":"121.48144","lat":"31.21834","category":"68","category_name":"快餐厅","address":"卢湾区复兴中路59号(吉安路东台路间)"},{"poiid":"B2094750D664A4FA419A","title":"耳光馄饨","lon":"121.481","lat":"31.216","category":"68","category_name":"快餐厅","address":"黄浦区肇周路209-213号(近合肥路)"},{"poiid":"B2094757D068A2FB4692","title":"辣肉丝面馆","lon":"121.482194054","lat":"31.216874793","category":"68","category_name":"快餐厅","address":"黄浦区肇周路106号(近吉安路)"},{"poiid":"B2094753D76FAAFA449C","title":"上海滩国泰旗舰店","lon":"121.466011","lat":"31.216125","category":"249","category_name":"购物服务","address":"淮海中路868号"},{"poiid":"B209475CD564A7F84292","title":"上海滩新天地店","lon":"121.47463","lat":"31.22164","category":"119","category_name":"商场","address":"\"太仓路181弄新天地北里15号\r\n\""},{"poiid":"B209475CD564A7F8439E","title":"上海滩中信泰富店","lon":"121.45602","lat":"31.22851","category":"119","category_name":"商场","address":"\"南京西路1168号中信泰富广场，店铺号221.\r\n\""},{"poiid":"B209475CD564A7F84392","title":"上海滩浦东香格里拉店","lon":"121.50058","lat":"31.23634","category":"119","category_name":"商场","address":"浦东富成路33号香格里拉酒店内大堂层"},{"poiid":"B2094750D26EABF8459A","title":"上海虹桥机场","lon":"121.48","lat":"31.22","category":"21","category_name":"飞机场","address":"上海长宁区虹桥路2550号"},{"poiid":"B2094757D06FA3FF479D","title":"长脚汤面","lon":"121.480717","lat":"31.216623","category":"68","category_name":"快餐厅","address":"卢湾区肇周路166弄弄堂里(近济南路)"},{"poiid":"B2094757D06AA4FD419D","title":"格澜国际大酒店","lon":"121.482429538","lat":"31.2197208762","category":"76","category_name":"上海菜","address":"黄浦区西藏南路567号(近复兴中路)"},{"poiid":"B2094757D06FAAFA499D","title":"法藏讲寺","lon":"121.48161","lat":"31.21755","category":"244","category_name":"寺庙道观","address":"上海卢湾区吉安路271号(近复兴中路)"},{"poiid":"B2094757D068A1F94392","title":"新天地南里","lon":"121.48018047","lat":"31.217756111","category":"119","category_name":"商场","address":"上海卢湾区兴业路123弄"},{"poiid":"B2094654DA6EA7F84999","title":"易买得(老西门店)","lon":"121.48337","lat":"31.21698","category":"118","category_name":"超级市场","address":"黄浦区西藏南路666号(西藏南路肇周路)"},{"poiid":"B2094757D064A3FC4299","title":"POST餐厅","lon":"121.47842","lat":"31.21808","category":"94","category_name":"西餐厅","address":"卢湾区顺昌路168弄翠湖天地10号会所2楼(自忠路)"},{"poiid":"B2094751D26DABFA459F","title":"新天地摩罗街","lon":"121.479576","lat":"31.217754","category":"500","category_name":"未知分类","address":null},{"poiid":"B2094750D26FA5F84792","title":"宁静名猫生活馆","lon":"121.480108","lat":"31.217455","category":"260","category_name":"其他","address":"黄浦区西藏南路765号永惠大厦1303室(近方斜路)"},{"poiid":"B2094757D16CA5FC459F","title":"肇州路馄饨","lon":"121.48104573","lat":"31.215022976","category":"500","category_name":"未知分类","address":"上海肇州路合肥路"},{"poiid":"B2094757D06AA2FB459F","title":"十号线老西门站","lon":"121.481291738","lat":"31.2153389828","category":"500","category_name":"未知分类","address":"上海老西门"},{"poiid":"B2094757D069A3F8429B","title":"老西门新苑","lon":"121.483051","lat":"31.216619","category":"47","category_name":"住宅区","address":"上海市黄浦区西藏南路688弄会所内"},{"poiid":"B2094654DB64A5FD409B","title":"斯巴顿健身会所(老西门店)","lon":"121.48316","lat":"31.21657","category":"221","category_name":"健身中心","address":"黄浦区西藏南路688弄15号(近复兴中路)"},{"poiid":"B209475DDB64AAFA4193","title":"云南云海肴","lon":"121.479309","lat":"31.217967","category":"247","category_name":"餐饮美食","address":"上海市 新天地兴业路123弄1号楼03单元"},{"poiid":"B2094757DB6FA5FA4798","title":"地铁八号线","lon":"121.4801134782591","lat":"31.21684147290736","category":"500","category_name":"未知分类","address":"陆家浜路站"},{"poiid":"B2094655D26AA0FA4092","title":"地铁老西门站","lon":"121.48323","lat":"31.21837","category":"36","category_name":"地铁站","address":""},{"poiid":"B2094757DB6DA4FD4392","title":"上海青瓷主题酒店","lon":"121.481594145","lat":"31.216474009","category":"216","category_name":"经济型连锁酒店","address":"黄浦区肇周路153号(近唐家湾路)"},{"poiid":"B2094757D664A1F9439E","title":"慈光素食","lon":"121.48152","lat":"31.21795","category":"89","category_name":"中式素餐馆","address":"卢湾区吉安路271号法藏讲寺内(复兴中路吉安路)"},{"poiid":"B2094757D469A7FA4098","title":"重庆鸡公煲 肇周路店","lon":"121.48189","lat":"31.21687","category":"71","category_name":"四川菜","address":"黄浦区肇周路108号(近西藏南路)"},{"poiid":"B2094654DA6EA7F8439C","title":"肇周小吃","lon":"121.48168","lat":"31.21676","category":"68","category_name":"快餐厅","address":"黄浦区肇周路吉安路口"},{"poiid":"B2094757D16DA3F84499","title":"黄浦区民政局","lon":"121.48325573","lat":"31.218233044","category":"500","category_name":"未知分类","address":"上海市黄浦区中华路1011号"},{"poiid":"B2094757D468A0FF4099","title":"杰克的酒窝","lon":"121.483278","lat":"31.21809","category":"260","category_name":"其他","address":"黄浦区肇周路76号(近东台路)"},{"poiid":"B2094752D26BA2FF4499","title":"耀华路地铁站","lon":"121.479828","lat":"31.218002","category":"36","category_name":"地铁站","address":null},{"poiid":"B2094654DA6EA7F84592","title":"法藏讲寺(1号门)","lon":"121.48149","lat":"31.21767","category":"679","category_name":"楼宇机构","address":"吉安路293弄2-10号"},{"poiid":"B2094654DA6EABF54498","title":"翠湖天地","lon":"121.47864","lat":"31.21832","category":"47","category_name":"住宅区","address":"长宁区镇宁路111号"},{"poiid":"B2094757D068A4F9489F","title":"BerryBear Frozen Yogurt","lon":"121.479574738","lat":"31.2173970267","category":"113","category_name":"冷饮店","address":"上海卢湾区兴业路123弄新天地南里6号楼3楼327-3单元"},{"poiid":"B2094757D66DAAFF499F","title":"冷馄饨","lon":"121.48063773","lat":"31.215786992","category":"247","category_name":"餐饮美食","address":"上海肇周路"},{"poiid":"B2094655D268A6F54092","title":"源成里小区","lon":"121.48062","lat":"31.2177","category":"47","category_name":"住宅区","address":"复兴中路113弄1-48号"},{"poiid":"B2094655D36DA7FE449B","title":"肇周路老西门","lon":"121.48302","lat":"31.21724","category":"38","category_name":"公交车站","address":""},{"poiid":"B2094654DA6EA7FF409F","title":"快客No.945(吉安路)","lon":"121.48123","lat":"31.21819","category":"117","category_name":"便民商店/便利店","address":"吉安路251"},{"poiid":"B2094757D465A7FE4499","title":"东东砂锅馆","lon":"121.47981","lat":"31.21603","category":"68","category_name":"快餐厅","address":"卢湾区合肥路46号(近肇周路)"},{"poiid":"B2094757D464A0F4479F","title":"乐乐新疆风味餐厅","lon":"121.482229054","lat":"31.218332793","category":"90","category_name":"清真餐馆","address":"卢湾区东台路272号(近复兴中路)"},{"poiid":"B209475DDB64AAFA4399","title":"云南云海肴","lon":"121.479309","lat":"31.217967","category":"247","category_name":"餐饮美食","address":"上海市 新天地兴业路123弄1号楼03单元"},{"poiid":"B2094654DA6EA7FE4999","title":"国际广场A座","lon":"121.4829","lat":"31.21762","category":"46","category_name":"楼宇","address":"上海东台路279号"},{"poiid":"B209475CD468A1FC4899","title":"大福屋","lon":"121.478874","lat":"31.216972","category":"500","category_name":"未知分类","address":"上海市 上海市卢湾区新天地"},{"poiid":"B2094654DB64A5F9449D","title":"浦江之星连锁旅店","lon":"121.48198","lat":"31.21821","category":"216","category_name":"经济型连锁酒店","address":"东台路270-2、272-2"},{"poiid":"B2094654DB6BA4FF469F","title":"新疆风味餐厅(东台路)","lon":"121.482","lat":"31.21817","category":"90","category_name":"清真餐馆","address":"东台路272-1"},{"poiid":"B2094654DA6EA7F8409C","title":"名流酒家","lon":"121.48009","lat":"31.21747","category":"76","category_name":"上海菜","address":"卢湾区济南路241号(近复兴中路)"},{"poiid":"B2094655D268A6F8429F","title":"富华里","lon":"121.48136","lat":"31.21699","category":"47","category_name":"住宅区","address":"吉安路328弄1-3号"},{"poiid":"B2094654DA6EA7FE499F","title":"国际广场B座","lon":"121.4827","lat":"31.21805","category":"46","category_name":"楼宇","address":"东台路277"},{"poiid":"B209475DDA6DAAFC4698","title":"花蒲甜品","lon":"121.479293","lat":"31.216024","category":"247","category_name":"餐饮美食","address":"上海市 马当路245号新天地时尚1楼107室(自忠路)"},{"poiid":"B2094751D36BA5FF469F","title":"上海南站","lon":"121.48","lat":"31.22","category":"195","category_name":"游乐场","address":"上海徐家汇"},{"poiid":"B2094654DB6BA4FF4599","title":"良友金伴(复兴中路)","lon":"121.48155","lat":"31.21836","category":"117","category_name":"便民商店/便利店","address":"复兴中路63-65"},{"poiid":"B2094654DA6EA7FF409A","title":"大肠面","lon":"121.48144","lat":"31.21834","category":"68","category_name":"快餐厅","address":"卢湾区复兴中路59号(吉安路东台路间)"},{"poiid":"B2094750D664A4FA419A","title":"耳光馄饨","lon":"121.481","lat":"31.216","category":"68","category_name":"快餐厅","address":"黄浦区肇周路209-213号(近合肥路)"},{"poiid":"B2094757D068A2FB4692","title":"辣肉丝面馆","lon":"121.482194054","lat":"31.216874793","category":"68","category_name":"快餐厅","address":"黄浦区肇周路106号(近吉安路)"},{"poiid":"B2094753D76FAAFA449C","title":"上海滩国泰旗舰店","lon":"121.466011","lat":"31.216125","category":"249","category_name":"购物服务","address":"淮海中路868号"},{"poiid":"B209475CD564A7F84292","title":"上海滩新天地店","lon":"121.47463","lat":"31.22164","category":"119","category_name":"商场","address":"\"太仓路181弄新天地北里15号\r\n\""},{"poiid":"B209475CD564A7F8439E","title":"上海滩中信泰富店","lon":"121.45602","lat":"31.22851","category":"119","category_name":"商场","address":"\"南京西路1168号中信泰富广场，店铺号221.\r\n\""},{"poiid":"B209475CD564A7F84392","title":"上海滩浦东香格里拉店","lon":"121.50058","lat":"31.23634","category":"119","category_name":"商场","address":"浦东富成路33号香格里拉酒店内大堂层"},{"poiid":"B2094750D26EABF8459A","title":"上海虹桥机场","lon":"121.48","lat":"31.22","category":"21","category_name":"飞机场","address":"上海长宁区虹桥路2550号"},{"poiid":"B2094757D06FA3FF479D","title":"长脚汤面","lon":"121.480717","lat":"31.216623","category":"68","category_name":"快餐厅","address":"卢湾区肇周路166弄弄堂里(近济南路)"},{"poiid":"B2094757D06AA4FD419D","title":"格澜国际大酒店","lon":"121.482429538","lat":"31.2197208762","category":"76","category_name":"上海菜","address":"黄浦区西藏南路567号(近复兴中路)"},{"poiid":"B2094757D06FAAFA499D","title":"法藏讲寺","lon":"121.48161","lat":"31.21755","category":"244","category_name":"寺庙道观","address":"上海卢湾区吉安路271号(近复兴中路)"},{"poiid":"B2094757D068A1F94392","title":"新天地南里","lon":"121.48018047","lat":"31.217756111","category":"119","category_name":"商场","address":"上海卢湾区兴业路123弄"},{"poiid":"B2094654DA6EA7F84999","title":"易买得(老西门店)","lon":"121.48337","lat":"31.21698","category":"118","category_name":"超级市场","address":"黄浦区西藏南路666号(西藏南路肇周路)"},{"poiid":"B2094757D064A3FC4299","title":"POST餐厅","lon":"121.47842","lat":"31.21808","category":"94","category_name":"西餐厅","address":"卢湾区顺昌路168弄翠湖天地10号会所2楼(自忠路)"},{"poiid":"B2094751D26DABFA459F","title":"新天地摩罗街","lon":"121.479576","lat":"31.217754","category":"500","category_name":"未知分类","address":null},{"poiid":"B2094750D26FA5F84792","title":"宁静名猫生活馆","lon":"121.480108","lat":"31.217455","category":"260","category_name":"其他","address":"黄浦区西藏南路765号永惠大厦1303室(近方斜路)"},{"poiid":"B2094757D16CA5FC459F","title":"肇州路馄饨","lon":"121.48104573","lat":"31.215022976","category":"500","category_name":"未知分类","address":"上海肇州路合肥路"},{"poiid":"B2094757D06AA2FB459F","title":"十号线老西门站","lon":"121.481291738","lat":"31.2153389828","category":"500","category_name":"未知分类","address":"上海老西门"},{"poiid":"B2094757D069A3F8429B","title":"老西门新苑","lon":"121.483051","lat":"31.216619","category":"47","category_name":"住宅区","address":"上海市黄浦区西藏南路688弄会所内"},{"poiid":"B2094654DB64A5FD409B","title":"斯巴顿健身会所(老西门店)","lon":"121.48316","lat":"31.21657","category":"221","category_name":"健身中心","address":"黄浦区西藏南路688弄15号(近复兴中路)"},{"poiid":"B209475DDB64AAFA4193","title":"云南云海肴","lon":"121.479309","lat":"31.217967","category":"247","category_name":"餐饮美食","address":"上海市 新天地兴业路123弄1号楼03单元"},{"poiid":"B2094757DB6FA5FA4798","title":"地铁八号线","lon":"121.4801134782591","lat":"31.21684147290736","category":"500","category_name":"未知分类","address":"陆家浜路站"},{"poiid":"B2094655D26AA0FA4092","title":"地铁老西门站","lon":"121.48323","lat":"31.21837","category":"36","category_name":"地铁站","address":""},{"poiid":"B2094757DB6DA4FD4392","title":"上海青瓷主题酒店","lon":"121.481594145","lat":"31.216474009","category":"216","category_name":"经济型连锁酒店","address":"黄浦区肇周路153号(近唐家湾路)"},{"poiid":"B2094757D664A1F9439E","title":"慈光素食","lon":"121.48152","lat":"31.21795","category":"89","category_name":"中式素餐馆","address":"卢湾区吉安路271号法藏讲寺内(复兴中路吉安路)"},{"poiid":"B2094757D469A7FA4098","title":"重庆鸡公煲 肇周路店","lon":"121.48189","lat":"31.21687","category":"71","category_name":"四川菜","address":"黄浦区肇周路108号(近西藏南路)"},{"poiid":"B2094654DA6EA7F8439C","title":"肇周小吃","lon":"121.48168","lat":"31.21676","category":"68","category_name":"快餐厅","address":"黄浦区肇周路吉安路口"},{"poiid":"B2094757D16DA3F84499","title":"黄浦区民政局","lon":"121.48325573","lat":"31.218233044","category":"500","category_name":"未知分类","address":"上海市黄浦区中华路1011号"},{"poiid":"B2094757D468A0FF4099","title":"杰克的酒窝","lon":"121.483278","lat":"31.21809","category":"260","category_name":"其他","address":"黄浦区肇周路76号(近东台路)"},{"poiid":"B2094752D26BA2FF4499","title":"耀华路地铁站","lon":"121.479828","lat":"31.218002","category":"36","category_name":"地铁站","address":null},{"poiid":"B2094654DA6EA7F84592","title":"法藏讲寺(1号门)","lon":"121.48149","lat":"31.21767","category":"679","category_name":"楼宇机构","address":"吉安路293弄2-10号"},{"poiid":"B2094654DA6EABF54498","title":"翠湖天地","lon":"121.47864","lat":"31.21832","category":"47","category_name":"住宅区","address":"长宁区镇宁路111号"},{"poiid":"B2094757D068A4F9489F","title":"BerryBear Frozen Yogurt","lon":"121.479574738","lat":"31.2173970267","category":"113","category_name":"冷饮店","address":"上海卢湾区兴业路123弄新天地南里6号楼3楼327-3单元"},{"poiid":"B2094757D66DAAFF499F","title":"冷馄饨","lon":"121.48063773","lat":"31.215786992","category":"247","category_name":"餐饮美食","address":"上海肇周路"},{"poiid":"B2094655D268A6F54092","title":"源成里小区","lon":"121.48062","lat":"31.2177","category":"47","category_name":"住宅区","address":"复兴中路113弄1-48号"},{"poiid":"B2094655D36DA7FE449B","title":"肇周路老西门","lon":"121.48302","lat":"31.21724","category":"38","category_name":"公交车站","address":""},{"poiid":"B2094654DA6EA7FF409F","title":"快客No.945(吉安路)","lon":"121.48123","lat":"31.21819","category":"117","category_name":"便民商店/便利店","address":"吉安路251"},{"poiid":"B2094757D465A7FE4499","title":"东东砂锅馆","lon":"121.47981","lat":"31.21603","category":"68","category_name":"快餐厅","address":"卢湾区合肥路46号(近肇周路)"},{"poiid":"B2094757D464A0F4479F","title":"乐乐新疆风味餐厅","lon":"121.482229054","lat":"31.218332793","category":"90","category_name":"清真餐馆","address":"卢湾区东台路272号(近复兴中路)"},{"poiid":"B209475DDB64AAFA4399","title":"云南云海肴","lon":"121.479309","lat":"31.217967","category":"247","category_name":"餐饮美食","address":"上海市 新天地兴业路123弄1号楼03单元"},{"poiid":"B2094654DA6EA7FE4999","title":"国际广场A座","lon":"121.4829","lat":"31.21762","category":"46","category_name":"楼宇","address":"上海东台路279号"},{"poiid":"B209475CD468A1FC4899","title":"大福屋","lon":"121.478874","lat":"31.216972","category":"500","category_name":"未知分类","address":"上海市 上海市卢湾区新天地"},{"poiid":"B2094654DB64A5F9449D","title":"浦江之星连锁旅店","lon":"121.48198","lat":"31.21821","category":"216","category_name":"经济型连锁酒店","address":"东台路270-2、272-2"},{"poiid":"B2094654DB6BA4FF469F","title":"新疆风味餐厅(东台路)","lon":"121.482","lat":"31.21817","category":"90","category_name":"清真餐馆","address":"东台路272-1"},{"poiid":"B2094654DA6EA7F8409C","title":"名流酒家","lon":"121.48009","lat":"31.21747","category":"76","category_name":"上海菜","address":"卢湾区济南路241号(近复兴中路)"},{"poiid":"B2094655D268A6F8429F","title":"富华里","lon":"121.48136","lat":"31.21699","category":"47","category_name":"住宅区","address":"吉安路328弄1-3号"},{"poiid":"B2094654DA6EA7FE499F","title":"国际广场B座","lon":"121.4827","lat":"31.21805","category":"46","category_name":"楼宇","address":"东台路277"},{"poiid":"B209475DDA6DAAFC4698","title":"花蒲甜品","lon":"121.479293","lat":"31.216024","category":"247","category_name":"餐饮美食","address":"上海市 马当路245号新天地时尚1楼107室(自忠路)"},{"poiid":"B2094751D36BA5FF469F","title":"上海南站","lon":"121.48","lat":"31.22","category":"195","category_name":"游乐场","address":"上海徐家汇"},{"poiid":"B2094654DB6BA4FF4599","title":"良友金伴(复兴中路)","lon":"121.48155","lat":"31.21836","category":"117","category_name":"便民商店/便利店","address":"复兴中路63-65"}]