[{"poiid":"B2094655D264A4F8419E","title":"上海欢乐谷","lon":"121.21698","lat":"31.0948","category":"195","category_name":"游乐场","address":"上海松江区林湖路888号"},{"poiid":"B2094654DA6BABFF479E","title":"世茂佘山艾美酒店 (Le Méridien She Shan Shanghai)","lon":"121.20545","lat":"31.09526","category":"268","category_name":"自助","address":"松江区林荫新路1288号世茂佘山艾美酒店内(近月湖公园)"},{"poiid":"B2094757D06FA1FD479B","title":"欢乐谷 绝顶雄风","lon":"121.22014617","lat":"31.098506927","category":"195","category_name":"游乐场","address":"松江区佘山镇林湖路888号上海欢乐谷内"},{"poiid":"B2094757D06FA2FC4293","title":"月湖雕塑公园","lon":"121.21370491","lat":"31.102339066","category":"196","category_name":"公园","address":"松江区佘山镇村荫新路1158号"},{"poiid":"B2094654DB64A2FC4293","title":"上海佘山国家森林公园","lon":"121.19633","lat":"31.09534","category":"240","category_name":"国家级景点","address":"松江区佘山镇外青松公路"},{"poiid":"B2094753D764A0FC489C","title":"玛雅海滩水公园","lon":"121.208877","lat":"31.093067","category":"250","category_name":"公园户外","address":"佘山镇林湖路888号"},{"poiid":"B2094757D064AAFA4693","title":"欢乐谷 古木游龙","lon":"121.221438196","lat":"31.098652128","category":"500","category_name":"未知分类","address":"上海市松江区林荫新路"},{"poiid":"B2094757D06FA6F8419A","title":"佘山天主教堂","lon":"121.19495357","lat":"31.092315826","category":"245","category_name":"教堂","address":"松江区松江佘山镇西佘山山顶"},{"poiid":"B2094757D06EAAFC4193","title":"佘山地铁站","lon":"121.229661","lat":"31.105242","category":"36","category_name":"地铁站","address":"上海轨道交通 九号线 轨交佘山站 9"},{"poiid":"B2094757D069A1F54993","title":"月湖会馆","lon":"121.2005313","lat":"31.099746398","category":"217","category_name":"旅馆招待所","address":"上海佘山国家旅游度假区佘北路158号"},{"poiid":"B2094757D068A1FE439E","title":"欢乐谷 蓝月飞车","lon":"121.21751619","lat":"31.099986156","category":"195","category_name":"游乐场","address":"松江区佘山镇林湖路888号上海欢乐谷内"},{"poiid":"B2094753D46CA1FC469F","title":"上海玛雅海滩水公园","lon":"121.210037","lat":"31.096334","category":"500","category_name":"未知分类","address":"上海市 上海市松江佘山玛雅海滩水公园"},{"poiid":"B2094757D06FA0FB4492","title":"洞泾地铁站","lon":"121.231169","lat":"31.084672","category":"36","category_name":"地铁站","address":"上海轨道交通 九号线 轨交洞泾站 9"},{"poiid":"B2094757D068A6F54892","title":"激流勇进","lon":"121.21955871","lat":"31.090198516","category":"500","category_name":"未知分类","address":"上海欢乐谷内"},{"poiid":"B2094757D06FABF94293","title":"欢乐谷 大摆锤","lon":"121.22387695","lat":"31.098340988","category":"195","category_name":"游乐场","address":"松江区佘山镇林湖路888号上海欢乐谷内"},{"poiid":"B2094757D068A5F9459B","title":"必胜客(欢乐谷店)","lon":"121.21677202","lat":"31.095382224","category":"94","category_name":"西餐厅","address":"松江区林湖路888号上海欢乐谷阳光港8号"},{"poiid":"B2094655D26FA4FC4392","title":"上海佘山国家森林公园东佘山园","lon":"121.20191","lat":"31.09649","category":"250","category_name":"公园户外","address":"东佘山园位于市郊古城松江北部10.5公里，距市中心35公里处"},{"poiid":"B2094757D16AABFC469B","title":"蚂蚁王国","lon":"121.21432409","lat":"31.093664821","category":"500","category_name":"未知分类","address":"上海欢乐谷"},{"poiid":"B2094757D064ABFF429B","title":"旋转木马","lon":"121.21832019","lat":"31.095685064","category":"247","category_name":"餐饮美食","address":"上海欢乐谷内"},{"poiid":"B2094655D265A4F5499F","title":"佘山假日半岛","lon":"121.231685","lat":"31.085686","category":"47","category_name":"住宅区","address":"上海市松江区嘉松公路沈砖路口"},{"poiid":"B2094757D06BA5FA4993","title":"兰笋山庄","lon":"121.198113286","lat":"31.0950694059","category":"216","category_name":"经济型连锁酒店","address":"松江区佘山外青松公路9269号(东佘山麓索道旁)"},{"poiid":"B2094757D06AAAFC4399","title":"上海欢乐谷 完美风暴","lon":"121.21588219","lat":"31.094813812","category":"500","category_name":"未知分类","address":"上海松江区佘山镇林湖路888号"},{"poiid":"B2094753D46AA7F4439F","title":"玛雅水上乐园","lon":"121.21527","lat":"31.090633","category":"500","category_name":"未知分类","address":"上海市 佘山欢乐谷"},{"poiid":"B2094757D66CA4FA419B","title":"华侨城大剧场","lon":"121.214634596","lat":"31.0930913089","category":"248","category_name":"生活娱乐","address":"上海欢乐谷内"},{"poiid":"B2094757D065AAFF4893","title":"东方既白(欢乐谷店)","lon":"121.21611486","lat":"31.094391426","category":"68","category_name":"快餐厅","address":"松江区佘山国家度假区林荫大道18号欢乐谷内"},{"poiid":"B2094753D469A1FB469A","title":"上海玛雅海滩水公园","lon":"121.220901","lat":"31.090871","category":"500","category_name":"未知分类","address":"上海市 林湖路"},{"poiid":"B2094757D06AA5F4409F","title":"飞行影院","lon":"121.21821873","lat":"31.095593592","category":"178","category_name":"电影院","address":"上海欢乐谷内"},{"poiid":"B2094757D06BA7FA4392","title":"月湖轩 Lake View","lon":"121.20537567139","lat":"31.095104217529","category":"72","category_name":"广东菜","address":"松江区佘山林荫新路1288号世茂佘山艾美酒店5楼"},{"poiid":"B2094655D36DA7FB4592","title":"上海欢乐谷(招呼站)","lon":"121.21856","lat":"31.08853","category":"38","category_name":"公交车站","address":""},{"poiid":"B2094757D065ABF4489D","title":"上海欢乐谷 异度空间","lon":"121.217376296","lat":"31.0970593439","category":"500","category_name":"未知分类","address":"上海市松江区欢乐谷"},{"poiid":"B2094757D164A0F54799","title":"神奇草帽","lon":"121.21553719","lat":"31.09411103","category":"247","category_name":"餐饮美食","address":"上海欢乐谷"},{"poiid":"B2094757D065AAFC4292","title":"四维影院","lon":"121.21938119","lat":"31.094362036","category":"178","category_name":"电影院","address":"上海欢乐谷内"},{"poiid":"B2094757D164ABF5409C","title":"暴风之旅","lon":"121.21442459","lat":"31.093538718","category":"500","category_name":"未知分类","address":"上海佘山镇林湖路888号欢乐谷内"},{"poiid":"B2094753D56AA0F4469A","title":"上海玛雅水上乐园","lon":"121.21524","lat":"31.091382","category":"500","category_name":"未知分类","address":"上海市 林湖路888号"},{"poiid":"B2094757D66CA0FE4098","title":"蚂蚁王国 快乐飞艇","lon":"121.214410296","lat":"31.0934892174","category":"500","category_name":"未知分类","address":"上海松江区佘山镇林湖路888号欢乐谷内"},{"poiid":"B2094757D068ABF8449D","title":"佘山森林宾馆","lon":"121.197178287","lat":"31.0952594087","category":"215","category_name":"三星级宾馆","address":"松江区外青松公路9259号"},{"poiid":"B2094757D169A5FF4092","title":"旋转摇摆伞","lon":"121.21670719","lat":"31.092490996","category":"500","category_name":"未知分类","address":"上海欢乐谷内"},{"poiid":"B2094655D26FA5FB499B","title":"佘山国家旅游渡假区","lon":"121.20378","lat":"31.08669","category":"250","category_name":"公园户外","address":"松江区佘山"},{"poiid":"B2094752DA65AAFA429B","title":"萌气十足的上海地铁九号线","lon":"121.216972","lat":"31.091575","category":"500","category_name":"未知分类","address":"上海市 地铁九号线松江大学城站"},{"poiid":"B2094757D66EAAFB4293","title":"欢乐谷停车场","lon":"121.22003219","lat":"31.092899004","category":"500","category_name":"未知分类","address":"上海市松江区林湖路"},{"poiid":"B2094757D16FA7F4439F","title":"欢乐谷碰碰车","lon":"121.219136796","lat":"31.0963143279","category":"500","category_name":"未知分类","address":"上海市松江区欢乐谷"},{"poiid":"B2094753D46AA1FA4298","title":"玛雅海滩水上公园","lon":"121.214027","lat":"31.094501","category":"500","category_name":"未知分类","address":"上海市 欢乐谷西南"},{"poiid":"B2094757D06BA0FE499F","title":"肯德基(欢乐谷店)","lon":"121.2154077","lat":"31.1010105","category":"68","category_name":"快餐厅","address":"松江区林湖路888号欢乐谷金矿镇"},{"poiid":"B2094757DA69A3F9479F","title":"上海古摄影婚纱艺术","lon":"121.21698","lat":"31.0948","category":"611","category_name":"照相馆","address":"新闸路356号"},{"poiid":"B2094757D06FA6F9499E","title":"谷木游龙","lon":"121.223876953","lat":"31.0983409882","category":"500","category_name":"未知分类","address":"上海欢乐谷内"},{"poiid":"B2094757D568A1FF4399","title":"上品轩茶楼","lon":"121.208537","lat":"31.095868","category":"66","category_name":"茶艺馆","address":"松江区佘山国家旅游度假区林荫大道1358号(近华侨城欢乐谷)"},{"poiid":"B2094757D169A5F4489A","title":"秋月舫","lon":"121.20822","lat":"31.09742","category":"72","category_name":"广东菜","address":"松江区佘山国家旅游度假区林荫大道1158号月湖秋景区內"},{"poiid":"B2094757D66EA6FB4198","title":"乐宝堡幼儿园","lon":"121.21843546","lat":"31.094976851","category":"57","category_name":"幼儿园","address":"上海灵石路1669弄11号"},{"poiid":"B2094757D66FA0FF429D","title":"快乐柠檬(浦东三钢里店)","lon":"121.21956619","lat":"31.094213032","category":"247","category_name":"餐饮美食","address":"上海市浦东新区上南路1154号-临1商铺"},{"poiid":"B2094757D16FA4FD4899","title":"欢乐风火轮","lon":"121.21748819","lat":"31.096343078","category":"500","category_name":"未知分类","address":"上海松江欢乐谷内"},{"poiid":"B2094655D264A4F8419E","title":"上海欢乐谷","lon":"121.21698","lat":"31.0948","category":"195","category_name":"游乐场","address":"上海松江区林湖路888号"},{"poiid":"B2094654DA6BABFF479E","title":"世茂佘山艾美酒店 (Le Méridien She Shan Shanghai)","lon":"121.20545","lat":"31.09526","category":"268","category_name":"自助","address":"松江区林荫新路1288号世茂佘山艾美酒店内(近月湖公园)"},{"poiid":"B2094757D06FA1FD479B","title":"欢乐谷 绝顶雄风","lon":"121.22014617","lat":"31.098506927","category":"195","category_name":"游乐场","address":"松江区佘山镇林湖路888号上海欢乐谷内"},{"poiid":"B2094757D06FA2FC4293","title":"月湖雕塑公园","lon":"121.21370491","lat":"31.102339066","category":"196","category_name":"公园","address":"松江区佘山镇村荫新路1158号"},{"poiid":"B2094654DB64A2FC4293","title":"上海佘山国家森林公园","lon":"121.19633","lat":"31.09534","category":"240","category_name":"国家级景点","address":"松江区佘山镇外青松公路"},{"poiid":"B2094753D764A0FC489C","title":"玛雅海滩水公园","lon":"121.208877","lat":"31.093067","category":"250","category_name":"公园户外","address":"佘山镇林湖路888号"},{"poiid":"B2094757D064AAFA4693","title":"欢乐谷 古木游龙","lon":"121.221438196","lat":"31.098652128","category":"500","category_name":"未知分类","address":"上海市松江区林荫新路"},{"poiid":"B2094757D06FA6F8419A","title":"佘山天主教堂","lon":"121.19495357","lat":"31.092315826","category":"245","category_name":"教堂","address":"松江区松江佘山镇西佘山山顶"},{"poiid":"B2094757D06EAAFC4193","title":"佘山地铁站","lon":"121.229661","lat":"31.105242","category":"36","category_name":"地铁站","address":"上海轨道交通 九号线 轨交佘山站 9"},{"poiid":"B2094757D069A1F54993","title":"月湖会馆","lon":"121.2005313","lat":"31.099746398","category":"217","category_name":"旅馆招待所","address":"上海佘山国家旅游度假区佘北路158号"},{"poiid":"B2094757D068A1FE439E","title":"欢乐谷 蓝月飞车","lon":"121.21751619","lat":"31.099986156","category":"195","category_name":"游乐场","address":"松江区佘山镇林湖路888号上海欢乐谷内"},{"poiid":"B2094753D46CA1FC469F","title":"上海玛雅海滩水公园","lon":"121.210037","lat":"31.096334","category":"500","category_name":"未知分类","address":"上海市 上海市松江佘山玛雅海滩水公园"},{"poiid":"B2094757D06FA0FB4492","title":"洞泾地铁站","lon":"121.231169","lat":"31.084672","category":"36","category_name":"地铁站","address":"上海轨道交通 九号线 轨交洞泾站 9"},{"poiid":"B2094757D068A6F54892","title":"激流勇进","lon":"121.21955871","lat":"31.090198516","category":"500","category_name":"未知分类","address":"上海欢乐谷内"},{"poiid":"B2094757D06FABF94293","title":"欢乐谷 大摆锤","lon":"121.22387695","lat":"31.098340988","category":"195","category_name":"游乐场","address":"松江区佘山镇林湖路888号上海欢乐谷内"},{"poiid":"B2094757D068A5F9459B","title":"必胜客(欢乐谷店)","lon":"121.21677202","lat":"31.095382224","category":"94","category_name":"西餐厅","address":"松江区林湖路888号上海欢乐谷阳光港8号"},{"poiid":"B2094655D26FA4FC4392","title":"上海佘山国家森林公园东佘山园","lon":"121.20191","lat":"31.09649","category":"250","category_name":"公园户外","address":"东佘山园位于市郊古城松江北部10.5公里，距市中心35公里处"},{"poiid":"B2094757D16AABFC469B","title":"蚂蚁王国","lon":"121.21432409","lat":"31.093664821","category":"500","category_name":"未知分类","address":"上海欢乐谷"},{"poiid":"B2094757D064ABFF429B","title":"旋转木马","lon":"121.21832019","lat":"31.095685064","category":"247","category_name":"餐饮美食","address":"上海欢乐谷内"},{"poiid":"B2094655D265A4F5499F","title":"佘山假日半岛","lon":"121.231685","lat":"31.085686","category":"47","category_name":"住宅区","address":"上海市松江区嘉松公路沈砖路口"},{"poiid":"B2094757D06BA5FA4993","title":"兰笋山庄","lon":"121.198113286","lat":"31.0950694059","category":"216","category_name":"经济型连锁酒店","address":"松江区佘山外青松公路9269号(东佘山麓索道旁)"},{"poiid":"B2094757D06AAAFC4399","title":"上海欢乐谷 完美风暴","lon":"121.21588219","lat":"31.094813812","category":"500","category_name":"未知分类","address":"上海松江区佘山镇林湖路888号"},{"poiid":"B2094753D46AA7F4439F","title":"玛雅水上乐园","lon":"121.21527","lat":"31.090633","category":"500","category_name":"未知分类","address":"上海市 佘山欢乐谷"},{"poiid":"B2094757D66CA4FA419B","title":"华侨城大剧场","lon":"121.214634596","lat":"31.0930913089","category":"248","category_name":"生活娱乐","address":"上海欢乐谷内"},{"poiid":"B2094757D065AAFF4893","title":"东方既白(欢乐谷店)","lon":"121.21611486","lat":"31.094391426","category":"68","category_name":"快餐厅","address":"松江区佘山国家度假区林荫大道18号欢乐谷内"},{"poiid":"B2094753D469A1FB469A","title":"上海玛雅海滩水公园","lon":"121.220901","lat":"31.090871","category":"500","category_name":"未知分类","address":"上海市 林湖路"},{"poiid":"B2094757D06AA5F4409F","title":"飞行影院","lon":"121.21821873","lat":"31.095593592","category":"178","category_name":"电影院","address":"上海欢乐谷内"},{"poiid":"B2094757D06BA7FA4392","title":"月湖轩 Lake View","lon":"121.20537567139","lat":"31.095104217529","category":"72","category_name":"广东菜","address":"松江区佘山林荫新路1288号世茂佘山艾美酒店5楼"},{"poiid":"B2094655D36DA7FB4592","title":"上海欢乐谷(招呼站)","lon":"121.21856","lat":"31.08853","category":"38","category_name":"公交车站","address":""},{"poiid":"B2094757D065ABF4489D","title":"上海欢乐谷 异度空间","lon":"121.217376296","lat":"31.0970593439","category":"500","category_name":"未知分类","address":"上海市松江区欢乐谷"},{"poiid":"B2094757D164A0F54799","title":"神奇草帽","lon":"121.21553719","lat":"31.09411103","category":"247","category_name":"餐饮美食","address":"上海欢乐谷"},{"poiid":"B2094757D065AAFC4292","title":"四维影院","lon":"121.21938119","lat":"31.094362036","category":"178","category_name":"电影院","address":"上海欢乐谷内"},{"poiid":"B2094757D164ABF5409C","title":"暴风之旅","lon":"121.21442459","lat":"31.093538718","category":"500","category_name":"未知分类","address":"上海佘山镇林湖路888号欢乐谷内"},{"poiid":"B2094753D56AA0F4469A","title":"上海玛雅水上乐园","lon":"121.21524","lat":"31.091382","category":"500","category_name":"未知分类","address":"上海市 林湖路888号"},{"poiid":"B2094757D66CA0FE4098","title":"蚂蚁王国 快乐飞艇","lon":"121.214410296","lat":"31.0934892174","category":"500","category_name":"未知分类","address":"上海松江区佘山镇林湖路888号欢乐谷内"},{"poiid":"B2094757D068ABF8449D","title":"佘山森林宾馆","lon":"121.197178287","lat":"31.0952594087","category":"215","category_name":"三星级宾馆","address":"松江区外青松公路9259号"},{"poiid":"B2094757D169A5FF4092","title":"旋转摇摆伞","lon":"121.21670719","lat":"31.092490996","category":"500","category_name":"未知分类","address":"上海欢乐谷内"},{"poiid":"B2094655D26FA5FB499B","title":"佘山国家旅游渡假区","lon":"121.20378","lat":"31.08669","category":"250","category_name":"公园户外","address":"松江区佘山"},{"poiid":"B2094752DA65AAFA429B","title":"萌气十足的上海地铁九号线","lon":"121.216972","lat":"31.091575","category":"500","category_name":"未知分类","address":"上海市 地铁九号线松江大学城站"},{"poiid":"B2094757D66EAAFB4293","title":"欢乐谷停车场","lon":"121.22003219","lat":"31.092899004","category":"500","category_name":"未知分类","address":"上海市松江区林湖路"},{"poiid":"B2094757D16FA7F4439F","title":"欢乐谷碰碰车","lon":"121.219136796","lat":"31.0963143279","category":"500","category_name":"未知分类","address":"上海市松江区欢乐谷"},{"poiid":"B2094753D46AA1FA4298","title":"玛雅海滩水上公园","lon":"121.214027","lat":"31.094501","category":"500","category_name":"未知分类","address":"上海市 欢乐谷西南"},{"poiid":"B2094757D06BA0FE499F","title":"肯德基(欢乐谷店)","lon":"121.2154077","lat":"31.1010105","category":"68","category_name":"快餐厅","address":"松江区林湖路888号欢乐谷金矿镇"},{"poiid":"B2094757DA69A3F9479F","title":"上海古摄影婚纱艺术","lon":"121.21698","lat":"31.0948","category":"611","category_name":"照相馆","address":"新闸路356号"},{"poiid":"B2094757D06FA6F9499E","title":"谷木游龙","lon":"121.223876953","lat":"31.0983409882","category":"500","category_name":"未知分类","address":"上海欢乐谷内"},{"poiid":"B2094757D568A1FF4399","title":"上品轩茶楼","lon":"121.208537","lat":"31.095868","category":"66","category_name":"茶艺馆","address":"松江区佘山国家旅游度假区林荫大道1358号(近华侨城欢乐谷)"},{"poiid":"B2094757D169A5F4489A","title":"秋月舫","lon":"121.20822","lat":"31.09742","category":"72","category_name":"广东菜","address":"松江区佘山国家旅游度假区林荫大道1158号月湖秋景区內"},{"poiid":"B2094757D66EA6FB4198","title":"乐宝堡幼儿园","lon":"121.21843546","lat":"31.094976851","category":"57","category_name":"幼儿园","address":"上海灵石路1669弄11号"},{"poiid":"B2094757D66FA0FF429D","title":"快乐柠檬(浦东三钢里店)","lon":"121.21956619","lat":"31.094213032","category":"247","category_name":"餐饮美食","address":"上海市浦东新区上南路1154号-临1商铺"},{"poiid":"B2094757D16FA4FD4899","title":"欢乐风火轮","lon":"121.21748819","lat":"31.096343078","category":"500","category_name":"未知分类","address":"上海松江欢乐谷内"},{"poiid":"B2094655D264A4F8419E","title":"上海欢乐谷","lon":"121.21698","lat":"31.0948","category":"195","category_name":"游乐场","address":"上海松江区林湖路888号"},{"poiid":"B2094654DA6BABFF479E","title":"世茂佘山艾美酒店 (Le Méridien She Shan Shanghai)","lon":"121.20545","lat":"31.09526","category":"268","category_name":"自助","address":"松江区林荫新路1288号世茂佘山艾美酒店内(近月湖公园)"},{"poiid":"B2094757D06FA1FD479B","title":"欢乐谷 绝顶雄风","lon":"121.22014617","lat":"31.098506927","category":"195","category_name":"游乐场","address":"松江区佘山镇林湖路888号上海欢乐谷内"},{"poiid":"B2094757D06FA2FC4293","title":"月湖雕塑公园","lon":"121.21370491","lat":"31.102339066","category":"196","category_name":"公园","address":"松江区佘山镇村荫新路1158号"},{"poiid":"B2094654DB64A2FC4293","title":"上海佘山国家森林公园","lon":"121.19633","lat":"31.09534","category":"240","category_name":"国家级景点","address":"松江区佘山镇外青松公路"},{"poiid":"B2094753D764A0FC489C","title":"玛雅海滩水公园","lon":"121.208877","lat":"31.093067","category":"250","category_name":"公园户外","address":"佘山镇林湖路888号"},{"poiid":"B2094757D064AAFA4693","title":"欢乐谷 古木游龙","lon":"121.221438196","lat":"31.098652128","category":"500","category_name":"未知分类","address":"上海市松江区林荫新路"},{"poiid":"B2094757D06FA6F8419A","title":"佘山天主教堂","lon":"121.19495357","lat":"31.092315826","category":"245","category_name":"教堂","address":"松江区松江佘山镇西佘山山顶"},{"poiid":"B2094757D06EAAFC4193","title":"佘山地铁站","lon":"121.229661","lat":"31.105242","category":"36","category_name":"地铁站","address":"上海轨道交通 九号线 轨交佘山站 9"},{"poiid":"B2094757D069A1F54993","title":"月湖会馆","lon":"121.2005313","lat":"31.099746398","category":"217","category_name":"旅馆招待所","address":"上海佘山国家旅游度假区佘北路158号"},{"poiid":"B2094757D068A1FE439E","title":"欢乐谷 蓝月飞车","lon":"121.21751619","lat":"31.099986156","category":"195","category_name":"游乐场","address":"松江区佘山镇林湖路888号上海欢乐谷内"},{"poiid":"B2094753D46CA1FC469F","title":"上海玛雅海滩水公园","lon":"121.210037","lat":"31.096334","category":"500","category_name":"未知分类","address":"上海市 上海市松江佘山玛雅海滩水公园"},{"poiid":"B2094757D06FA0FB4492","title":"洞泾地铁站","lon":"121.231169","lat":"31.084672","category":"36","category_name":"地铁站","address":"上海轨道交通 九号线 轨交洞泾站 9"},{"poiid":"B2094757D068A6F54892","title":"激流勇进","lon":"121.21955871","lat":"31.090198516","category":"500","category_name":"未知分类","address":"上海欢乐谷内"},{"poiid":"B2094757D06FABF94293","title":"欢乐谷 大摆锤","lon":"121.22387695","lat":"31.098340988","category":"195","category_name":"游乐场","address":"松江区佘山镇林湖路888号上海欢乐谷内"},{"poiid":"B2094757D068A5F9459B","title":"必胜客(欢乐谷店)","lon":"121.21677202","lat":"31.095382224","category":"94","category_name":"西餐厅","address":"松江区林湖路888号上海欢乐谷阳光港8号"},{"poiid":"B2094655D26FA4FC4392","title":"上海佘山国家森林公园东佘山园","lon":"121.20191","lat":"31.09649","category":"250","category_name":"公园户外","address":"东佘山园位于市郊古城松江北部10.5公里，距市中心35公里处"},{"poiid":"B2094757D16AABFC469B","title":"蚂蚁王国","lon":"121.21432409","lat":"31.093664821","category":"500","category_name":"未知分类","address":"上海欢乐谷"},{"poiid":"B2094757D064ABFF429B","title":"旋转木马","lon":"121.21832019","lat":"31.095685064","category":"247","category_name":"餐饮美食","address":"上海欢乐谷内"},{"poiid":"B2094655D265A4F5499F","title":"佘山假日半岛","lon":"121.231685","lat":"31.085686","category":"47","category_name":"住宅区","address":"上海市松江区嘉松公路沈砖路口"},{"poiid":"B2094757D06BA5FA4993","title":"兰笋山庄","lon":"121.198113286","lat":"31.0950694059","category":"216","category_name":"经济型连锁酒店","address":"松江区佘山外青松公路9269号(东佘山麓索道旁)"},{"poiid":"B2094757D06AAAFC4399","title":"上海欢乐谷 完美风暴","lon":"121.21588219","lat":"31.094813812","category":"500","category_name":"未知分类","address":"上海松江区佘山镇林湖路888号"},{"poiid":"B2094753D46AA7F4439F","title":"玛雅水上乐园","lon":"121.21527","lat":"31.090633","category":"500","category_name":"未知分类","address":"上海市 佘山欢乐谷"},{"poiid":"B2094757D66CA4FA419B","title":"华侨城大剧场","lon":"121.214634596","lat":"31.0930913089","category":"248","category_name":"生活娱乐","address":"上海欢乐谷内"},{"poiid":"B2094757D065AAFF4893","title":"东方既白(欢乐谷店)","lon":"121.21611486","lat":"31.094391426","category":"68","category_name":"快餐厅","address":"松江区佘山国家度假区林荫大道18号欢乐谷内"},{"poiid":"B2094753D469A1FB469A","title":"上海玛雅海滩水公园","lon":"121.220901","lat":"31.090871","category":"500","category_name":"未知分类","address":"上海市 林湖路"},{"poiid":"B2094757D06AA5F4409F","title":"飞行影院","lon":"121.21821873","lat":"31.095593592","category":"178","category_name":"电影院","address":"上海欢乐谷内"},{"poiid":"B2094757D06BA7FA4392","title":"月湖轩 Lake View","lon":"121.20537567139","lat":"31.095104217529","category":"72","category_name":"广东菜","address":"松江区佘山林荫新路1288号世茂佘山艾美酒店5楼"},{"poiid":"B2094655D36DA7FB4592","title":"上海欢乐谷(招呼站)","lon":"121.21856","lat":"31.08853","category":"38","category_name":"公交车站","address":""},{"poiid":"B2094757D065ABF4489D","title":"上海欢乐谷 异度空间","lon":"121.217376296","lat":"31.0970593439","category":"500","category_name":"未知分类","address":"上海市松江区欢乐谷"},{"poiid":"B2094757D164A0F54799","title":"神奇草帽","lon":"121.21553719","lat":"31.09411103","category":"247","category_name":"餐饮美食","address":"上海欢乐谷"},{"poiid":"B2094757D065AAFC4292","title":"四维影院","lon":"121.21938119","lat":"31.094362036","category":"178","category_name":"电影院","address":"上海欢乐谷内"},{"poiid":"B2094757D164ABF5409C","title":"暴风之旅","lon":"121.21442459","lat":"31.093538718","category":"500","category_name":"未知分类","address":"上海佘山镇林湖路888号欢乐谷内"},{"poiid":"B2094753D56AA0F4469A","title":"上海玛雅水上乐园","lon":"121.21524","lat":"31.091382","category":"500","category_name":"未知分类","address":"上海市 林湖路888号"},{"poiid":"B2094757D66CA0FE4098","title":"蚂蚁王国 快乐飞艇","lon":"121.214410296","lat":"31.0934892174","category":"500","category_name":"未知分类","address":"上海松江区佘山镇林湖路888号欢乐谷内"},{"poiid":"B2094757D068ABF8449D","title":"佘山森林宾馆","lon":"121.197178287","lat":"31.0952594087","category":"215","category_name":"三星级宾馆","address":"松江区外青松公路9259号"},{"poiid":"B2094757D169A5FF4092","title":"旋转摇摆伞","lon":"121.21670719","lat":"31.092490996","category":"500","category_name":"未知分类","address":"上海欢乐谷内"},{"poiid":"B2094655D26FA5FB499B","title":"佘山国家旅游渡假区","lon":"121.20378","lat":"31.08669","category":"250","category_name":"公园户外","address":"松江区佘山"},{"poiid":"B2094752DA65AAFA429B","title":"萌气十足的上海地铁九号线","lon":"121.216972","lat":"31.091575","category":"500","category_name":"未知分类","address":"上海市 地铁九号线松江大学城站"},{"poiid":"B2094757D66EAAFB4293","title":"欢乐谷停车场","lon":"121.22003219","lat":"31.092899004","category":"500","category_name":"未知分类","address":"上海市松江区林湖路"},{"poiid":"B2094757D16FA7F4439F","title":"欢乐谷碰碰车","lon":"121.219136796","lat":"31.0963143279","category":"500","category_name":"未知分类","address":"上海市松江区欢乐谷"},{"poiid":"B2094753D46AA1FA4298","title":"玛雅海滩水上公园","lon":"121.214027","lat":"31.094501","category":"500","category_name":"未知分类","address":"上海市 欢乐谷西南"},{"poiid":"B2094757D06BA0FE499F","title":"肯德基(欢乐谷店)","lon":"121.2154077","lat":"31.1010105","category":"68","category_name":"快餐厅","address":"松江区林湖路888号欢乐谷金矿镇"},{"poiid":"B2094757DA69A3F9479F","title":"上海古摄影婚纱艺术","lon":"121.21698","lat":"31.0948","category":"611","category_name":"照相馆","address":"新闸路356号"},{"poiid":"B2094757D06FA6F9499E","title":"谷木游龙","lon":"121.223876953","lat":"31.0983409882","category":"500","category_name":"未知分类","address":"上海欢乐谷内"},{"poiid":"B2094757D568A1FF4399","title":"上品轩茶楼","lon":"121.208537","lat":"31.095868","category":"66","category_name":"茶艺馆","address":"松江区佘山国家旅游度假区林荫大道1358号(近华侨城欢乐谷)"},{"poiid":"B2094757D169A5F4489A","title":"秋月舫","lon":"121.20822","lat":"31.09742","category":"72","category_name":"广东菜","address":"松江区佘山国家旅游度假区林荫大道1158号月湖秋景区內"},{"poiid":"B2094757D66EA6FB4198","title":"乐宝堡幼儿园","lon":"121.21843546","lat":"31.094976851","category":"57","category_name":"幼儿园","address":"上海灵石路1669弄11号"},{"poiid":"B2094757D66FA0FF429D","title":"快乐柠檬(浦东三钢里店)","lon":"121.21956619","lat":"31.094213032","category":"247","category_name":"餐饮美食","address":"上海市浦东新区上南路1154号-临1商铺"},{"poiid":"B2094757D16FA4FD4899","title":"欢乐风火轮","lon":"121.21748819","lat":"31.096343078","category":"500","category_name":"未知分类","address":"上海松江欢乐谷内"}]