[{"poiid":"B2094655D26BA0FD479D","title":"世博洲际酒店","lon":"121.50538","lat":"31.19933","category":"213","category_name":"五星级宾馆","address":"浦东新区雪野路1188号(近南码头路)"},{"poiid":"B2094655D26AA1FA4998","title":"黄浦旅游集散站","lon":"121.50134","lat":"31.20778","category":"35","category_name":"长途汽车站","address":"黄浦区外马路1588号"},{"poiid":"B2094655D36DA6FE419E","title":"南浦大桥","lon":"121.49934","lat":"31.20845","category":"38","category_name":"公交车站","address":"黄浦区南马路1410号"},{"poiid":"B2094655D264A7FA4899","title":"幸福码头","lon":"121.50506","lat":"31.21097","category":"47","category_name":"住宅区","address":"黄浦区中山南路1029号幸福码头5号楼(近多稼路)"},{"poiid":"B2094757D06FA2FB459A","title":"艾福敦酒店 (Eiffelton Riverside Hotel Pudong Shanghai)","lon":"121.509251618","lat":"31.2056334725","category":"217","category_name":"旅馆招待所","address":"浦东新区浦明路1888号(近浦建路)"},{"poiid":"B2094757D06FA7FD4298","title":"薇拉宫邸(浦东店)","lon":"121.50889556","lat":"31.207375193","category":"95","category_name":"日本料理","address":"上海浦明路1888号5号楼"},{"poiid":"B2094757D06FA1F94793","title":"南码头轮渡","lon":"121.50582772","lat":"31.202802396","category":"260","category_name":"其他","address":"上海浦东新区南码头路1号摆渡口"},{"poiid":"B2094757D06FA4F4429B","title":"上海市第二人民医院","lon":"121.50425317","lat":"31.210314152","category":"162","category_name":"医院","address":"黄浦区多稼路1号(近中山南路)"},{"poiid":"B2094757D06FA3F4459F","title":"南浦大桥地铁站","lon":"121.49936726","lat":"31.20842377","category":"36","category_name":"地铁站","address":"上海轨道交通 四号线 轨交南浦大桥站 轻轨 4"},{"poiid":"B2094757D16CA2FD469D","title":"上海亚廷游艇会","lon":"121.505592","lat":"31.209361","category":"260","category_name":"其他","address":"黄浦区外马路1162号(近南浦大桥浦西桥墩)"},{"poiid":"B2094750DB69A3FD4993","title":"镭战大联盟","lon":"121.501408","lat":"31.204725","category":"248","category_name":"生活娱乐","address":"黄浦区外马路1353号(近南浦大桥)"},{"poiid":"B2094655D268A1FA459F","title":"东江高尔夫会所","lon":"121.51033","lat":"31.2083","category":"206","category_name":"高尔夫相关","address":"小南码头路5号"},{"poiid":"B2094757D169ABFE449D","title":"巴富仕游艇会","lon":"121.505978738","lat":"31.2121359146","category":"500","category_name":"未知分类","address":"上海市黄浦区幸福码头创意园区"},{"poiid":"B2094757DB68A5FA409B","title":"罗曼园高级婚礼会馆 外滩雅致英伦馆","lon":"121.50477647781","lat":"31.210635939807","category":"247","category_name":"餐饮美食","address":"长宁区中山西路1011号(近虹桥路)查看地图"},{"poiid":"B2094654DA68A0FD469D","title":"帝龙海鲜舫","lon":"121.50427282682","lat":"31.206678575885","category":"76","category_name":"上海菜","address":"黄浦区外马路1333号(近南浦大桥)"},{"poiid":"B2094757D065A6FC4692","title":"HAVEN","lon":"121.50305603","lat":"31.211066691","category":"97","category_name":"法式菜品餐厅","address":"黄浦区中山南路1029号幸福码头3号楼(近多稼路)"},{"poiid":"B2094654DA68A0FD4592","title":"上海南浦大桥长途旅游客运站","lon":"121.50129","lat":"31.20767","category":"35","category_name":"长途汽车站","address":"黄浦区外马路1588号(近陆家浜路)"},{"poiid":"B2094757DA6EABFB4999","title":"薇拉宫邸私人婚礼会所(南浦店)","lon":"121.509479","lat":"31.2066410000002","category":"248","category_name":"生活娱乐","address":"浦东新区浦明路1888号5号楼(近南浦大桥)查看地图"},{"poiid":"B2094757D068A5FE409F","title":"黄浦区旅游集散中心 二楼携程VIP","lon":"121.501064","lat":"31.207764","category":"260","category_name":"其他","address":"上海外马路1588号"},{"poiid":"B2094757D069AAFD4699","title":"东江高尔夫","lon":"121.50941473","lat":"31.205573774","category":"500","category_name":"未知分类","address":"上海市南码头路5号"},{"poiid":"B209475CD768A0FF4499","title":"pulupulu主题游戏馆","lon":"121.504699","lat":"31.203042","category":"500","category_name":"未知分类","address":"上海市 苗江路139号"},{"poiid":"B2094757D16DA2F9429C","title":"优艾贝国际月子会所","lon":"121.511133338","lat":"31.2068565021","category":"248","category_name":"生活娱乐","address":"浦东新区浦明路1888号(近南浦大桥)"},{"poiid":"B2094757D66EA7F54698","title":"南浦大桥引桥","lon":"121.50467189","lat":"31.205788251","category":"500","category_name":"未知分类","address":"上海南浦大桥"},{"poiid":"B2094757D16CA4FF4198","title":"外码头上海创意产业聚集区","lon":"121.505065","lat":"31.208697","category":"46","category_name":"楼宇","address":"上海黄浦区外马路1178号"},{"poiid":"B2094654DA68A0FD4698","title":"海狮大厦","lon":"121.50265","lat":"31.20692","category":"46","category_name":"楼宇","address":"徐汇区田林路300号"},{"poiid":"B209475DD66AA7FE429C","title":"Pulupulu主题游戏馆","lon":"121.500289","lat":"31.205091","category":"248","category_name":"生活娱乐","address":"上海市 黄浦区苗江路139号"},{"poiid":"B2094757D064A0F94999","title":"黄浦区交警队","lon":"121.502949","lat":"31.208994","category":"500","category_name":"未知分类","address":"上海丰记码头街78号"},{"poiid":"B2094654DA68A0FD469E","title":"黄浦公安分局交警支队业务接待受理点","lon":"121.50264","lat":"31.20692","category":"248","category_name":"生活娱乐","address":"陆家浜路88号海狮大厦"},{"poiid":"B2094757D064AAF8449B","title":"公交65路","lon":"121.50361633","lat":"31.206497192","category":"38","category_name":"公交车站","address":"上海南浦大桥-北区汽车站"},{"poiid":"B2094654DB6AA6FF419F","title":"南码头渡口","lon":"121.50591","lat":"31.20227","category":"34","category_name":"港口码头","address":""},{"poiid":"B2094750D16BA1FD409D","title":"虹口足球场","lon":"121.5032644966952","lat":"31.20336783101407","category":"220","category_name":"运动场所","address":null},{"poiid":"B2094757D168A4FB4793","title":"43路终点站","lon":"121.505664","lat":"31.20537","category":"38","category_name":"公交车站","address":"上海南浦大桥"},{"poiid":"B2094655D265A0F5439E","title":"幸福码头(西门)","lon":"121.50463","lat":"31.21119","category":"47","category_name":"住宅区","address":"中山南路1029号"},{"poiid":"B2094750DB68A2FC4499","title":"浦江.四季 Seasons on the Bund","lon":"121.508255","lat":"31.206165","category":"247","category_name":"餐饮美食","address":"浦东新区浦明路1888弄21号(近东江高尔夫球场)"},{"poiid":"B2094654DA68A0FD469F","title":"帝龙","lon":"121.50285","lat":"31.20672","category":"170","category_name":"KTV","address":"陆家浜路18号"},{"poiid":"B2094750D76FA3FC4993","title":"和容轩","lon":"121.511","lat":"31.2056","category":"76","category_name":"上海菜","address":"浦东新区浦明路1888号15号楼3楼(近微山路)"},{"poiid":"B2094757D068A5F8419F","title":"黄浦区社会保险事业管理中心","lon":"121.501153","lat":"31.210839","category":"252","category_name":"楼宇机构","address":"上海黄浦区陆家浜路265号"},{"poiid":"B2094655D268ABFF4093","title":"内环南浦大桥立交桥","lon":"121.50024","lat":"31.20819","category":"250","category_name":"公园户外","address":""},{"poiid":"B2094655D268A6FF4993","title":"黄浦交通违章受理队","lon":"121.5033","lat":"31.20581","category":"250","category_name":"公园户外","address":""},{"poiid":"B2094750DB65A2FD4798","title":"浦東國際機場","lon":"121.504974","lat":"31.206342","category":"500","category_name":"未知分类","address":null},{"poiid":"B2094757D168A6FB449E","title":"黄浦区出入境管理办公室","lon":"121.504542738","lat":"31.2036637341","category":"500","category_name":"未知分类","address":"上海市黄浦区陆家浜路88号"},{"poiid":"B209475CD36FA5FE4092","title":"镭战大联盟真人CS 南外滩店","lon":"121.50314","lat":"31.20637","category":"172","category_name":"酒吧","address":"外马路1353号7-8号楼(近南浦大桥)"},{"poiid":"B2094757D164AAF84192","title":"沪军营路公交枢纽","lon":"121.501061619","lat":"31.2059114971","category":"38","category_name":"公交车站","address":"上海南浦大桥沪军营路"},{"poiid":"B2094757D064A0F8459B","title":"一一八八 Cafe 1188","lon":"121.505704","lat":"31.2001","category":"247","category_name":"餐饮美食","address":"雪野路1188号世博洲际酒店1楼内近南码头路"},{"poiid":"B2094655D268A1FA4699","title":"如家快捷酒店上海南外滩店","lon":"121.50653","lat":"31.21198","category":"216","category_name":"经济型连锁酒店","address":"黄浦区中山南路943号(董家渡口)"},{"poiid":"B2094654DA68A0FD4699","title":"黄浦区道路交通事故纠纷调解室","lon":"121.50265","lat":"31.20692","category":"250","category_name":"公园户外","address":"陆家浜路88号海狮大厦"},{"poiid":"B2094757D16DA2FE4598","title":"阳光里","lon":"121.50111","lat":"31.211866","category":"500","category_name":"未知分类","address":"上海市黄浦区陆家浜路305弄"},{"poiid":"B2094757D66EA2FD459D","title":"Marlin Bay @ Shanghai Yacht Cl","lon":"121.50546173","lat":"31.208413835","category":"500","category_name":"未知分类","address":"1162 外马路 南外滩"},{"poiid":"B2094757D16AA6FE459A","title":"ZudemDACH 智同道合 文化传播","lon":"121.505297938","lat":"31.2090959498","category":"46","category_name":"楼宇","address":"上海黄浦区外马路1178号2-C座外码头创意产业园(近南浦大桥)"},{"poiid":"B2094757D16FA3FC4792","title":"丰记码头街","lon":"121.50515423","lat":"31.203827737","category":"500","category_name":"未知分类","address":"上海黄埔区交警违章处理点"},{"poiid":"B209475DD66AA7FE4193","title":"Pulu Pulu主题游戏馆","lon":"121.500282","lat":"31.205087","category":"248","category_name":"生活娱乐","address":"上海市 黄浦区苗江路139号"},{"poiid":"B2094654DB69A7F94299","title":"西三小区","lon":"121.50658","lat":"31.200727","category":"47","category_name":"住宅区","address":"浦东新区西三小区"},{"poiid":"B2094757D76DA0F4439B","title":"巴赛丽意大利餐厅 Basilico","lon":"121.505704","lat":"31.20014","category":"94","category_name":"西餐厅","address":"浦东新区雪野路1188号世博洲际酒店内(近世博大道)"},{"poiid":"B2094655D268A4FB459D","title":"上海第二人民医院急诊","lon":"121.50534","lat":"31.20958","category":"162","category_name":"医院","address":"多稼路1"},{"poiid":"B2094750DB6BA1FD469A","title":"黄浦旅游集散站 携程VIP候车厅","lon":"121.505088","lat":"31.206199","category":"251","category_name":"出行住宿","address":null},{"poiid":"B209475CD56AA0FE419C","title":"黄浦区工人体育馆","lon":"121.5074","lat":"31.206216","category":"500","category_name":"未知分类","address":"上海市 外马路1288号"},{"poiid":"B2094757DB6DA3F94993","title":"苏先生海鲜鱼荘","lon":"121.5003222358991","lat":"31.2059752855171","category":"247","category_name":"餐饮美食","address":"浦东南路2304号"},{"poiid":"B2094757D064AAFE499B","title":"上海市城市交通运输管理处","lon":"121.502473","lat":"31.209617","category":"500","category_name":"未知分类","address":"上海市中山南路1155号"},{"poiid":"B2094654DB6AA7F5499A","title":"凇园大厦","lon":"121.502","lat":"31.209","category":"46","category_name":"楼宇","address":"黄浦区半凇园路698弄1号"},{"poiid":"B2094750D16AA2FB479C","title":"世博凌睿试驾体验中心","lon":"121.50827","lat":"31.203342","category":"500","category_name":"未知分类","address":"世博大道138号"},{"poiid":"B2094654DA68A0FD4299","title":"万有全食品配送中心南浦大桥分部","lon":"121.5039","lat":"31.2088","category":"117","category_name":"便民商店/便利店","address":"外马路1218号上海南浦大桥食品批发交易市场34"},{"poiid":"B2094757D469A3FB4992","title":"扬帆号","lon":"121.505928","lat":"31.209515","category":"94","category_name":"西餐厅","address":"外马路1178号上海亚艇游艇会近多稼路"},{"poiid":"B2094753D56FA5FA4498","title":"必维国际检验集团","lon":"121.507011","lat":"31.204816","category":"500","category_name":"未知分类","address":"上海市 外马路1288号"},{"poiid":"B2094752DA6AA5FB409F","title":"浦东国际机场","lon":"121.50087","lat":"31.209503","category":"500","category_name":"未知分类","address":"上海市 浦东国际机场T2航站楼"},{"poiid":"B2094750D06CA2FE489C","title":"巴富仕","lon":"121.502471","lat":"31.207853","category":"249","category_name":"购物服务","address":null},{"poiid":"B2094753D56AAAF44498","title":"世博中心","lon":"121.504013","lat":"31.209514","category":"500","category_name":"未知分类","address":"上海市 世博大道"},{"poiid":"B2094757D66AA0F8469A","title":"盛会堂","lon":"121.50567","lat":"31.20018","category":"87","category_name":"特色／地方风味餐厅","address":"浦东新区雪野路1188号洲际酒店2楼(南码头渡口)"},{"poiid":"B2094757D464A7FE4999","title":"川妹渔庄 多稼路店","lon":"121.50066","lat":"31.21272","category":"76","category_name":"上海菜","address":"黄浦区多稼路234号(近海潮路)"},{"poiid":"B2094750D76FA3F8409F","title":"小辫子大酒楼","lon":"121.502","lat":"31.2113","category":"76","category_name":"上海菜","address":"黄浦区薛家浜路218号(近多稼路)"},{"poiid":"B2094655D269ABFD439E","title":"摩登假日沐浴","lon":"121.50235","lat":"31.20932","category":"247","category_name":"餐饮美食","address":"黄浦区中山南路1157号"},{"poiid":"B2094655D268A0F94498","title":"小东门派出所(丰记码头街)","lon":"121.50373","lat":"31.20994","category":"248","category_name":"生活娱乐","address":"丰记码头街116号"},{"poiid":"B2094654DA68A0FC4698","title":"雾晓大楼","lon":"121.501","lat":"31.2099","category":"46","category_name":"楼宇","address":"中山南路1701号"},{"poiid":"B2094757D16AA6F9489D","title":"象山小岛人家","lon":"121.500695138","lat":"31.2081551298","category":"247","category_name":"餐饮美食","address":"上海薛家浜路218号"},{"poiid":"B2094655D268A3FE439A","title":"丰记码头街小区(东门)","lon":"121.50424","lat":"31.20954","category":"47","category_name":"住宅区","address":"丰记码头街66"},{"poiid":"B209475CD76CABFC4892","title":"上海体育馆","lon":"121.501022","lat":"31.207822","category":"500","category_name":"未知分类","address":"上海市 上海体育馆"},{"poiid":"B2094655D26FA7FB4199","title":"上海市第二人民医院(南门)","lon":"121.50537","lat":"31.20995","category":"162","category_name":"医院","address":"多稼路1"},{"poiid":"B2094654DA68A0FD459D","title":"小东门社区公共体育中心","lon":"121.50191","lat":"31.20886","category":"220","category_name":"运动场所","address":"陆家浜路89号"},{"poiid":"B2094757D064A5FC439E","title":"妖物一屋","lon":"121.5043075","lat":"31.208845121","category":"500","category_name":"未知分类","address":"上海黄浦区中福花苑青年汇(近海潮路)"},{"poiid":"B2094655D26BA4FC459F","title":"开泰里(南门)","lon":"121.50411","lat":"31.20982","category":"47","category_name":"住宅区","address":"丰记码头街95弄1-18号"},{"poiid":"B2094655D36CA6F9489A","title":"多稼路","lon":"121.50361","lat":"31.21053","category":"38","category_name":"公交车站","address":""},{"poiid":"B2094750D66EABFB449D","title":"浦东游泳馆","lon":"121.507072","lat":"31.201353","category":"220","category_name":"运动场所","address":null},{"poiid":"B2094655D26BA6FF4593","title":"开泰里","lon":"121.50427","lat":"31.20996","category":"47","category_name":"住宅区","address":"丰记码头街95弄1-18号"},{"poiid":"B2094757D065ABF54593","title":"上海市税务局三分局","lon":"121.50812173","lat":"31.20492176","category":"500","category_name":"未知分类","address":"上海中山南路865号"},{"poiid":"B2094654DB64A3FF459F","title":"可的","lon":"121.50682","lat":"31.20144","category":"117","category_name":"便民商店/便利店","address":"南码头路47"},{"poiid":"B2094752D46CA5FD4193","title":"地铁四号线塘桥站","lon":"121.506742","lat":"31.209721","category":"500","category_name":"未知分类","address":null},{"poiid":"B2094654DA68AAF9429A","title":"上海创意产业集聚区外码头","lon":"121.50506","lat":"31.20869","category":"263","category_name":"公司","address":"外马路1178号2层201室"},{"poiid":"B2094655D26BA1FF4293","title":"南浦大桥沪军营路","lon":"121.49861","lat":"31.20545","category":"38","category_name":"公交车站","address":""},{"poiid":"B2094655D269AAF9459F","title":"乐惠米业","lon":"121.50163","lat":"31.21048","category":"247","category_name":"餐饮美食","address":"黄浦区中山南路1228号(近南浦大桥)"},{"poiid":"B2094757D16AA5FB4998","title":"周南线南码头渡口终点站","lon":"121.505867","lat":"31.202531","category":"500","category_name":"未知分类","address":"上海市浦东新区南码头路世博大道"},{"poiid":"B2094750D164A5FE499B","title":"富驿商旅酒店上海世博店","lon":"121.5074","lat":"31.2009","category":"216","category_name":"经济型连锁酒店","address":"浦东新区南码头路101号(近东三里桥路)"},{"poiid":"B2094752DA6BABFA4599","title":"当代艺术博物馆","lon":"121.499593","lat":"31.207842","category":"500","category_name":"未知分类","address":"上海市 上海市花园港路200号"},{"poiid":"B2094757D068A1FE499A","title":"中山南路董家渡路","lon":"121.505032251","lat":"31.2121811937","category":"500","category_name":"未知分类","address":"上海中山南路董家渡路"},{"poiid":"B2094757D16FA4FA429B","title":"阿诗玛峰","lon":"121.50060653","lat":"31.207342912","category":"500","category_name":"未知分类","address":"上海普育东路101弄"},{"poiid":"B2094654DA68A0FD409E","title":"上海市第二人民医院体检站","lon":"121.50437","lat":"31.21082","category":"162","category_name":"医院","address":"多稼路1号"},{"poiid":"B2094757D66AA0F84999","title":"世博洲际酒店大堂吧 Lobby Lounge","lon":"121.505602","lat":"31.200317","category":"260","category_name":"其他","address":"浦东新区雪野路1188号洲际酒店内(雪野路云台路)"},{"poiid":"B2094753D164ABFD429E","title":"丽思卡尔顿酒店","lon":"121.5079707","lat":"31.2091925","category":"500","category_name":"未知分类","address":"上海市 外滩黄浦江边"},{"poiid":"B2094753DB68A4FF499F","title":"上海环球金融中心","lon":"121.507179","lat":"31.199951","category":"500","category_name":"未知分类","address":"上海市 上海市陆家嘴"},{"poiid":"B2094752D36FA0F9479D","title":"上海第九人民医院","lon":"121.501624","lat":"31.2093662","category":"162","category_name":"医院","address":null},{"poiid":"B2094655D36CA3FA4299","title":"三角大楼(南二门)","lon":"121.50101","lat":"31.21074","category":"46","category_name":"楼宇","address":""},{"poiid":"B2094654DB6BA4F94798","title":"良友","lon":"121.50196","lat":"31.21071","category":"117","category_name":"便民商店/便利店","address":"董家渡"},{"poiid":"B2094750DB65AAF8419F","title":"喜马拉雅中心","lon":"121.499755","lat":"31.203878","category":"627","category_name":"一般地点标志","address":"芳甸路"},{"poiid":"B2094757D16CAAF4479E","title":"中山南路多稼路","lon":"121.50315223","lat":"31.211083992","category":"500","category_name":"未知分类","address":"上海中山南路多稼路"},{"poiid":"B2094757D064A2FB489F","title":"中福花苑青年会公寓","lon":"121.499550738","lat":"31.2101788729","category":"252","category_name":"楼宇机构","address":"上海市黄浦区陆家浜路388号"},{"poiid":"B2094750DB6EA4FB469A","title":"秀水苑","lon":"121.50173","lat":"31.211805","category":"47","category_name":"住宅区","address":"上海市黄浦区多稼路208号"},{"poiid":"B2094655D264A0F5419E","title":"上海怡德物业经营管理有限公司三泰管理处","lon":"121.50538","lat":"31.20922","category":"263","category_name":"公司","address":"外马路1162"},{"poiid":"B2094654DA68AAF9419F","title":"上海市会馆街环卫码头","lon":"121.50652","lat":"31.21088","category":"34","category_name":"港口码头","address":""},{"poiid":"B2094655D26DA7FA4892","title":"桥南玉亭小区","lon":"121.50743","lat":"31.20161","category":"47","category_name":"住宅区","address":"东三街35弄"},{"poiid":"B2094753D56AA1F44492","title":"X-room超级密室","lon":"121.506011","lat":"31.212303","category":"500","category_name":"未知分类","address":"上海市 上海黄浦区中山南二路1029号"},{"poiid":"B2094757D66DABFE489D","title":"591结婚网","lon":"121.50550973","lat":"31.211371898","category":"263","category_name":"公司","address":"上海普陀区常德路1211号宝华大厦1606室(近新会路)  "},{"poiid":"B2094757D16EA5FB439A","title":"公交868终点站","lon":"121.499443418","lat":"31.2077030702","category":"500","category_name":"未知分类","address":"上海南浦大桥(沪军营路)"},{"poiid":"B2094757D66FA2FD469B","title":"长日精工","lon":"121.506006738","lat":"31.2106408827","category":"500","category_name":"未知分类","address":"黄浦区中山南路1029号幸福码头创意园区9号楼1楼(近外马路)"},{"poiid":"B2094655D268A4F4419D","title":"薛家浜路242弄小区","lon":"121.50167","lat":"31.2109","category":"47","category_name":"住宅区","address":"薛家浜路242弄1-3号"},{"poiid":"B2094757D16FA7F44499","title":"箸香 明珠店","lon":"121.49882073","lat":"31.203306726","category":"247","category_name":"餐饮美食","address":"上海肇嘉浜路212号3楼"},{"poiid":"B2094757D064ABF9469F","title":"915终点站","lon":"121.49929973","lat":"31.207511816","category":"500","category_name":"未知分类","address":"上海市黄浦区外马路(南浦大桥)"},{"poiid":"B2094655D268A5FB4798","title":"薛家浜路242弄小区(东门)","lon":"121.50188","lat":"31.2106","category":"47","category_name":"住宅区","address":"薛家浜路242弄1-3号"},{"poiid":"B2094655D264A6F84298","title":"长航商务楼","lon":"121.50623","lat":"31.21211","category":"46","category_name":"楼宇","address":"中山南路935"},{"poiid":"B2094757D164A0F9479C","title":"黄浦区残疾人劳动服务所","lon":"121.503689","lat":"31.210191","category":"500","category_name":"未知分类","address":"上海中山南路1117号"},{"poiid":"B2094757D064A6FD4098","title":"南码头路 海博大厦","lon":"121.507323","lat":"31.20091","category":"500","category_name":"未知分类","address":"上海南码头路101号"},{"poiid":"B2094654DA69ABF84498","title":"微西小区","lon":"121.51069","lat":"31.207483","category":"47","category_name":"住宅区","address":"微西小区"},{"poiid":"B2094757D065A3FD4092","title":"上行线(南浦大桥店)","lon":"121.49941029","lat":"31.208372562","category":"125","category_name":"书店","address":"上海黄浦区地铁四号线南浦大桥站"},{"poiid":"B2094757D16CABFE409F","title":"南仓街烧烤摊","lon":"121.501284638","lat":"31.2106861837","category":"247","category_name":"餐饮美食","address":"上海南仓街东江阴街"},{"poiid":"B2094750DA6AA6F44993","title":"巴富仕游艇俱乐部","lon":"121.505065","lat":"31.2107","category":"248","category_name":"生活娱乐","address":"中山南路1029号码"},{"poiid":"B2094757D66EA7F94392","title":"小江摄影","lon":"121.49972943","lat":"31.208404135","category":"500","category_name":"未知分类","address":"上海黄埔区中山南路1029号幸福码头创意园1号楼2楼"},{"poiid":"B2094750DA6AA6FE4798","title":"上海文化广场","lon":"121.508308","lat":"31.210443","category":"500","category_name":"未知分类","address":null},{"poiid":"B2094654DA68AAF8459A","title":"上海市强生职工医院","lon":"121.50682","lat":"31.21189","category":"162","category_name":"医院","address":"黄埔区外马路984号"},{"poiid":"B2094654DA69ABF84499","title":"微西小区(东门)","lon":"121.51049","lat":"31.20791","category":"47","category_name":"住宅区","address":""},{"poiid":"B2094757D66EA5FA479B","title":"罗森便利(中山南路店)","lon":"121.5011309","lat":"31.2102801","category":"117","category_name":"便民商店/便利店","address":"上海黄浦区中山南路1713号"},{"poiid":"B2094752D06BA0FF499D","title":"塘桥","lon":"121.503365","lat":"31.209756","category":"500","category_name":"未知分类","address":null},{"poiid":"B2094655D268A1FD479E","title":"东三大楼(南门)","lon":"121.50741","lat":"31.20067","category":"47","category_name":"住宅区","address":"南码头路101号"},{"poiid":"B2094655D26FA7FA489B","title":"上海市东方阶梯双语学校","lon":"121.50703","lat":"31.19991","category":"55","category_name":"中学","address":"浦东新区胶南路169号"},{"poiid":"B2094753D26CA6F8429F","title":"浦东新区市民中心","lon":"121.510315","lat":"31.206406","category":"500","category_name":"未知分类","address":"上海市 合欢路2号"},{"poiid":"B2094654DA6AA3F84499","title":"快客联华便利连锁No.1214","lon":"121.50785","lat":"31.19997","category":"117","category_name":"便民商店/便利店","address":"东三里桥路11识别"},{"poiid":"B2094757D16DA0FC4999","title":"薛家浜路多稼路","lon":"121.503773638","lat":"31.211121093","category":"500","category_name":"未知分类","address":"上海薛家浜路多稼路口"},{"poiid":"B2094655D268A1FA439E","title":"东三大楼","lon":"121.5077","lat":"31.20074","category":"47","category_name":"住宅区","address":"南码头路101号"},{"poiid":"B2094757D165AAFA4592","title":"Grand Ballroom","lon":"121.50541059","lat":"31.199083308","category":"500","category_name":"未知分类","address":"上海世博洲际大酒店"},{"poiid":"B2094753D66BA0FF439D","title":"宝燕一号","lon":"121.510612","lat":"31.207403","category":"500","category_name":"未知分类","address":"上海市 浦明路1999号"},{"poiid":"B2094750D76DA7FC419D","title":"薛家浜路大饼油条","lon":"121.502","lat":"31.2117","category":"68","category_name":"快餐厅","address":"黄浦区薛家浜路口(近多稼路)"},{"poiid":"B2094757D168A2FB469D","title":"上海市保险同业公会","lon":"121.501215","lat":"31.210512","category":"500","category_name":"未知分类","address":"上海中山南路1228号华普科技大厦8楼"},{"poiid":"B2094655D264A7FA439D","title":"秀水苑1号楼","lon":"121.50209","lat":"31.21167","category":"47","category_name":"住宅区","address":"多稼路168"},{"poiid":"B2094757D164A2FD459B","title":"C-Store 喜士多 (西藏南路店)","lon":"121.499381017","lat":"31.2084082131","category":"249","category_name":"购物服务","address":"上海西藏南路地铁站"},{"poiid":"B2094654DA6EA4FF4893","title":"上海南外滩集团","lon":"121.50157","lat":"31.21051","category":"263","category_name":"公司","address":"中山南路1228号华普科技大厦"},{"poiid":"B2094655D268A2F54998","title":"东三里桥路79弄小区(侧门)","lon":"121.50867","lat":"31.20082","category":"47","category_name":"住宅区","address":"东三里桥路79弄"},{"poiid":"B2094655D265ABF94099","title":"上海市黄浦区环境监测站","lon":"121.50404","lat":"31.21175","category":"250","category_name":"公园户外","address":"中山南路1058"},{"poiid":"B2094655D265ABF54798","title":"小东门工商所","lon":"121.50109","lat":"31.21107","category":"250","category_name":"公园户外","address":"陆家浜路285号三角大楼5层"},{"poiid":"B2094757D16AA3F4429B","title":"黄浦环境卫生教育基地","lon":"121.502589","lat":"31.211254","category":"500","category_name":"未知分类","address":"上海薛家浜路219号"},{"poiid":"B2094654DA68AAF8439A","title":"施特劳斯-海音艺术进修学校","lon":"121.5063","lat":"31.21238","category":"53","category_name":"成人教育","address":"中山南路917号2层"},{"poiid":"B2094757D168A1FF4099","title":"．Ｈｔｆ．家族","lon":"121.5046327","lat":"31.211181366","category":"500","category_name":"未知分类","address":null},{"poiid":"B2094655D265A0F84793","title":"上海康盛文化传媒有限公司","lon":"121.50108","lat":"31.21108","category":"252","category_name":"楼宇机构","address":"陆家浜路285号三角大楼603室"},{"poiid":"B209475CD66EA5FB429E","title":"超级密室Xroom","lon":"121.510009","lat":"31.20936","category":"248","category_name":"生活娱乐","address":"上海市 幸福码头"},{"poiid":"B2094757D569A2FF4693","title":"金海马家具南码头路店","lon":"121.5073469","lat":"31.19991611","category":"123","category_name":"家具建材市场","address":"南码头路120号"},{"poiid":"B2094655D264A0FA439D","title":"金茂盛融游艇俱乐部","lon":"121.50694","lat":"31.20071","category":"208","category_name":"休闲场所","address":"南码头路54号3层"},{"poiid":"B2094757D568AAF5479D","title":"良安度假宾馆(南浦店)","lon":"121.499476","lat":"31.206951","category":"251","category_name":"出行住宿","address":"沪军营路67号"},{"poiid":"B2094750D768A2FA4293","title":"爱咖屋","lon":"121.506","lat":"31.2001","category":"260","category_name":"其他","address":"浦东新区南码头路105号海博大厦1楼(近世博大道)"},{"poiid":"B2094757D06BA7F4499E","title":"_瑶瑶瑶瑶瑶瑶瑶s' House","lon":"121.506908495","lat":"31.1997428222","category":"500","category_name":"未知分类","address":null},{"poiid":"B2094757D66CA4FF499D","title":"菌菇王","lon":"121.507098","lat":"31.199954","category":"500","category_name":"未知分类","address":"上海浦东新区浦三路"},{"poiid":"B2094654DB69AAFA479D","title":"市航运公安局","lon":"121.50606","lat":"31.21218","category":"609","category_name":"警察局","address":"上海市黄浦区中山南路935号"},{"poiid":"B2094655D268ABFD409C","title":"西三小区(东二门)","lon":"121.50634","lat":"31.20154","category":"656","category_name":"大门","address":""},{"poiid":"B2094654DA68AAF8489C","title":"东方先导(上海)糖酒有限公司","lon":"121.5059","lat":"31.21178","category":"263","category_name":"公司","address":"中山南路969号谷泰滨江大厦15层"},{"poiid":"B2094654DA68AAF8449F","title":"上海长江轮船公司","lon":"121.50605","lat":"31.21218","category":"263","category_name":"公司","address":"中山南路935"},{"poiid":"B2094654DA68AAF8449E","title":"上海长江汽车销售服务有限公司黄浦分公司","lon":"121.50605","lat":"31.21218","category":"158","category_name":"汽车销售","address":"中山南路935"},{"poiid":"B2094655D26BAAFE409B","title":"上海大众汽车","lon":"121.50606","lat":"31.21216","category":"158","category_name":"汽车销售","address":""},{"poiid":"B2094655D26BAAFE469F","title":"上海市水务局水环境研究工作室","lon":"121.50108","lat":"31.21107","category":"191","category_name":"科研机构","address":"陆家浜路285号三角大楼12层"},{"poiid":"B2094655D268A4FF489C","title":"桥南玉亭小区(侧门)","lon":"121.50732","lat":"31.20179","category":"656","category_name":"大门","address":""},{"poiid":"B2094655D268A5F4449C","title":"华普科技大厦(南门)","lon":"121.50131","lat":"31.21034","category":"656","category_name":"大门","address":""},{"poiid":"B2094655D26DA1F4499A","title":"桥南玉亭小区(南门)","lon":"121.50752","lat":"31.20142","category":"656","category_name":"大门","address":"东三街35弄"},{"poiid":"B2094655D268ABFD409E","title":"西三小区(东一门)","lon":"121.50662","lat":"31.20098","category":"656","category_name":"大门","address":""},{"poiid":"B2094654DB6BA4F9479E","title":"东方证券(陆家浜路)","lon":"121.50071","lat":"31.21116","category":"219","category_name":"其他","address":"陆家浜路307"},{"poiid":"B2094655D26EA0FF4099","title":"东三小区(西门)","lon":"121.50878","lat":"31.20164","category":"656","category_name":"大门","address":"东三街102弄1-45号"},{"poiid":"B2094655D268A4FB4592","title":"谷泰滨江大厦(西二门)","lon":"121.50678","lat":"31.21165","category":"656","category_name":"大门","address":"中山南路969"},{"poiid":"B2094655D26FA7F84892","title":"谷泰滨江大厦(西门)","lon":"121.50543","lat":"31.21176","category":"656","category_name":"大门","address":"中山南路969"},{"poiid":"B2094655D268A3FE429F","title":"阳光公寓(南门)","lon":"121.50074","lat":"31.21111","category":"656","category_name":"大门","address":"陆家浜路305弄"},{"poiid":"B2094655D268A2FD449D","title":"秀水苑(北一门)","lon":"121.50195","lat":"31.21193","category":"656","category_name":"大门","address":"多稼路208"},{"poiid":"B2094655D268A5FB4799","title":"华普科技大厦(南二门)","lon":"121.50102","lat":"31.21075","category":"656","category_name":"大门","address":""},{"poiid":"B2094757D064AAFE4499","title":"船长号系列游船","lon":"121.50546","lat":"31.21214","category":"260","category_name":"其他","address":"上海黄浦区中山南路171号5号码头(近复兴东路)  "},{"poiid":"B2094655D268A6FE4493","title":"西三小区(东门)","lon":"121.50698","lat":"31.20055","category":"656","category_name":"大门","address":""},{"poiid":"B2094655D268A0F9449C","title":"秀水苑(北门)","lon":"121.50228","lat":"31.2117","category":"656","category_name":"大门","address":"多稼路168"},{"poiid":"B2094655D268A1FC469A","title":"华普科技大厦(南三门)","lon":"121.50081","lat":"31.21101","category":"656","category_name":"大门","address":"陆家浜路285号"},{"poiid":"B2094655D268A0F9449F","title":"秀水苑(东门)","lon":"121.50214","lat":"31.21139","category":"656","category_name":"大门","address":""}]