[{"poiid":"B2094655D26AA0F84993","title":"地铁世纪大道站","lon":"121.52693","lat":"31.22938","category":"36","category_name":"地铁站","address":""},{"poiid":"B2094757D06EAAFF449C","title":"世纪大道地铁站","lon":"121.52631663","lat":"31.229214229","category":"36","category_name":"地铁站","address":"上海轨道交通 二号线 四号线 六号线 九号线 轨交世纪大道站 轻轨 2 4 6 9"},{"poiid":"B2094757D068AAFD409A","title":"台北吴记麻辣火锅(张扬路店))","lon":"121.529039738","lat":"31.2306723095","category":"86","category_name":"火锅店","address":"浦东新区张杨路998号(近福山路)"},{"poiid":"B209475CD564A7F84392","title":"上海滩浦东香格里拉店","lon":"121.50058","lat":"31.23634","category":"119","category_name":"商场","address":"浦东富成路33号香格里拉酒店内大堂层"},{"poiid":"B2094757D06FA5FF419C","title":"羊家胡同(福山店)","lon":"121.52660142939567","lat":"31.234068535728298","category":"86","category_name":"火锅店","address":"浦东新区福山路76号(近商城路)"},{"poiid":"B2094654DA69A4FA469F","title":"中融恒瑞国际大厦","lon":"121.52605424499","lat":"31.233571234318","category":"46","category_name":"楼宇","address":"浦东新区张杨路568号(近南泉北路)"},{"poiid":"B2094655D36DA7FE4092","title":"张扬路福山路","lon":"121.52742","lat":"31.23083","category":"38","category_name":"公交车站","address":""},{"poiid":"B2094757D068A5FC469B","title":"宝安大厦","lon":"121.5303161272","lat":"31.232654025942","category":"46","category_name":"楼宇","address":"上海市浦东新区东方路800号"},{"poiid":"B2094757D06FA7FB479F","title":"华都大厦","lon":"121.53","lat":"31.2345","category":"46","category_name":"楼宇","address":"静安延安中路1440号,华山路"},{"poiid":"B2094757D06FABFD429D","title":"阿拉对面碳烤鱼 福山路店","lon":"121.5284129484","lat":"31.231552680725","category":"71","category_name":"四川菜","address":"浦东新区福山路287号(近张杨路)"},{"poiid":"B2094654DB64A4FD459B","title":"生命人寿大厦","lon":"121.526","lat":"31.235","category":"46","category_name":"楼宇","address":"上海市浦东新区张扬路707号"},{"poiid":"B2094757D068ABFC499B","title":"上海歌城(东昌路店)","lon":"121.528610229","lat":"31.2306118011","category":"170","category_name":"KTV","address":"上海八佰伴对面"},{"poiid":"B2094757D069A5F44193","title":"魔锅坊麻辣香锅","lon":"121.52891","lat":"31.23005","category":"71","category_name":"四川菜","address":"浦东新区福山路293号(近张扬路)"},{"poiid":"B2094654DB6AA3FA489D","title":"小长安(张杨路店)","lon":"121.52711","lat":"31.23095","category":"84","category_name":"西北菜","address":"浦东新区张杨路1005号(近福山路)"},{"poiid":"B2094655D265ABFE4999","title":"松山小区","lon":"121.52848","lat":"31.232367","category":"47","category_name":"住宅区","address":"福山路111弄1-24号"},{"poiid":"B2094757D068A0F44598","title":"梅园四街坊","lon":"121.52569","lat":"31.23312","category":"47","category_name":"住宅区","address":"上海浦东新区福山路100弄,福山路102弄,张杨路951弄,商城路1028弄"},{"poiid":"B2094655D26DA1FE499C","title":"上海福山外国语小学(福山路)","lon":"121.52596","lat":"31.23491","category":"56","category_name":"小学","address":"福山路62临"},{"poiid":"B2094654DA69A4F94799","title":"东明广场","lon":"121.526438","lat":"31.233961","category":"46","category_name":"楼宇","address":"张杨路628弄"},{"poiid":"B2094654DA69A4F4459C","title":"中电大厦","lon":"121.52541257328","lat":"31.231606783448","category":"46","category_name":"楼宇","address":"上海南泉北路1029号"},{"poiid":"B2094654DA69AAFC4293","title":"振华综合高级中学","lon":"121.52606","lat":"31.23377","category":"55","category_name":"中学","address":"浦东新区商城路1088号(福山路商城路)"},{"poiid":"B2094654DA69A4F94092","title":"长航大厦","lon":"121.52869281152","lat":"31.234432056672","category":"46","category_name":"楼宇","address":"上海浦东新区张杨路800号"},{"poiid":"B2094655D265A5FD459B","title":"莎琪玛港式茶餐厅","lon":"121.52894","lat":"31.23002","category":"72","category_name":"广东菜","address":"浦东新区福山路295号(近张杨路)"},{"poiid":"B2094757D66CA7FB479C","title":"麻辣香锅","lon":"121.52820173","lat":"31.230797312","category":"247","category_name":"餐饮美食","address":"上海市浦东新区张杨路福山路"},{"poiid":"B2094655D36CA2FB499F","title":"商城路福山路","lon":"121.52558","lat":"31.23386","category":"38","category_name":"公交车站","address":""},{"poiid":"B2094654DA69A0F94199","title":"福兴大厦","lon":"121.526","lat":"31.2344","category":"46","category_name":"楼宇","address":"丰台学城海鹰路1号,3号"},{"poiid":"B2094750D268A6F4429C","title":"牧场绿农火锅餐厅","lon":"121.5274143219","lat":"31.234252093742","category":"86","category_name":"火锅店","address":"浦东新区商城路1121号(近福山路)"},{"poiid":"B2094654DA69AAFE4592","title":"稻草屋","lon":"121.52923453834","lat":"31.23531684979","category":"90","category_name":"清真餐馆","address":"浦东新区松林路69号(近商城路)"},{"poiid":"B2094654DA69A4F84299","title":"江苏大厦","lon":"121.52991010245","lat":"31.233196698625","category":"46","category_name":"楼宇","address":"上海市崂山路526号"},{"poiid":"B2094654DA69A0F9419E","title":"华诚大厦","lon":"121.526","lat":"31.2343","category":"46","category_name":"楼宇","address":"朝阳华威桥东北角"},{"poiid":"B2094750D26EA7F8469A","title":"东来福热气涮羊肉 福山路店","lon":"121.529084054","lat":"31.230551793","category":"86","category_name":"火锅店","address":"浦东新区福山路(近世纪大道)"},{"poiid":"B2094757D06AA6FC419A","title":"GE通用电气班车(世纪大道线)","lon":"121.5278607","lat":"31.2319583","category":"38","category_name":"公交车站","address":"上海福山路世纪大道(近潍坊路)～华佗路1号"},{"poiid":"B2094655D36CA6FF459A","title":"福山路张杨路","lon":"121.52802","lat":"31.23153","category":"38","category_name":"公交车站","address":""},{"poiid":"B2094757D06AA3F44792","title":"新亚大包 张杨路店","lon":"121.53043739181","lat":"31.231674280801","category":"68","category_name":"快餐厅","address":"浦东新区张杨路998号(近福山路)"},{"poiid":"B2094654DA69AAFC4198","title":"谢记麻辣烫","lon":"121.529248","lat":"31.230935","category":"68","category_name":"快餐厅","address":"浦东新区张杨路1027号(福山路口)"},{"poiid":"B2094655D264AAFF419E","title":"全家","lon":"121.52846","lat":"31.23136","category":"117","category_name":"便民商店/便利店","address":"张杨路1041"},{"poiid":"B2094757D46EAAF4429A","title":"向日葵餐厅","lon":"121.530516054","lat":"31.232580793","category":"76","category_name":"上海菜","address":"浦东新区松林路81号(近张杨路)"},{"poiid":"B2094757D66DA3FB449F","title":"青藏拉面","lon":"121.530754054","lat":"31.232092793","category":"90","category_name":"清真餐馆","address":"浦东新区张杨路(近福山路)"},{"poiid":"B2094757D16FA2F8499A","title":"金丰小区","lon":"121.528106","lat":"31.231658","category":"47","category_name":"住宅区","address":"上海金丰路121弄"},{"poiid":"B2094655D36CA6FF4593","title":"福山路","lon":"121.52771","lat":"31.23096","category":"38","category_name":"公交车站","address":""},{"poiid":"B2094655D264ABFC4492","title":"银峰大厦","lon":"121.52705803185","lat":"31.234238906118","category":"46","category_name":"楼宇","address":"上海市浦东新区张杨路500号"},{"poiid":"B2094654DA69AAFE4292","title":"中国联通张杨路营业厅","lon":"121.52822","lat":"31.23142","category":"151","category_name":"电讯营业厅","address":"浦东新区福山路127号(近张杨路)"},{"poiid":"B2094654DA69AAFE429D","title":"好德No.147","lon":"121.52828","lat":"31.23134","category":"117","category_name":"便民商店/便利店","address":"福山路129"},{"poiid":"B2094654DB6AA3F54292","title":"食知味龙虾馆 商城路店","lon":"121.526278","lat":"31.234431","category":"68","category_name":"快餐厅","address":"浦东新区商城路1111号(近福山路)"},{"poiid":"B2094757D66DAAF5469C","title":"海怡別墅","lon":"121.530523738","lat":"31.2334473687","category":"47","category_name":"住宅区","address":"上海浦東新區松林路97弄"},{"poiid":"B2094757D76AA6FC4299","title":"湘霸王土菜馆 商城路店","lon":"121.527200054","lat":"31.234404793","category":"77","category_name":"湖南菜","address":"浦东新区商城路1126号(近福山路)"},{"poiid":"B2094655D26DA3F5439F","title":"振华大楼(福山路)","lon":"121.52685","lat":"31.23335","category":"47","category_name":"住宅区","address":"商城路1088"},{"poiid":"B2094654DB69A6FF449A","title":"新亚汤臣大酒店健康中心游泳馆","lon":"121.52743","lat":"31.2311","category":"231","category_name":"游泳馆","address":"浦东新区张扬路777号"},{"poiid":"B2094757D469A7F8459C","title":"绍兴名菜","lon":"121.526985054","lat":"31.234795793","category":"75","category_name":"浙江菜","address":"浦东新区商城路1129号(福山路口)"},{"poiid":"B2094654DA69AAFC419F","title":"上海艺流美容美发直营店(张杨路)","lon":"121.52782","lat":"31.23122","category":"148","category_name":"美容美发店","address":""},{"poiid":"B2094654DA69A4F4469C","title":"紫金瀚宫","lon":"121.525926","lat":"31.231324","category":"47","category_name":"住宅区","address":"南泉北路1035号亨利国际商务中心"},{"poiid":"B209475CD364AAF5419D","title":"iVegan爱源素蔬食馆","lon":"121.52949","lat":"31.23446","category":"89","category_name":"中式素餐馆","address":"松林路87号近张杨路"},{"poiid":"B2094654DA69AAFC439A","title":"振华外经职业学校","lon":"121.52606","lat":"31.23377","category":"54","category_name":"职业技术学校","address":"商城路1088"},{"poiid":"B2094655D26AA7F84799","title":"火车票代售点张杨路店","lon":"121.52903","lat":"31.23161","category":"247","category_name":"餐饮美食","address":"浦东新区张杨路1071号(近福山路)"},{"poiid":"B2094655D264AAFF419C","title":"福沈小区","lon":"121.52634","lat":"31.2332","category":"47","category_name":"住宅区","address":""},{"poiid":"B2094654DA69AAFE4399","title":"九鑫棋牌室","lon":"121.52807","lat":"31.23171","category":"175","category_name":"棋牌室","address":"浦东新区福山路119号(近张杨路)"},{"poiid":"B2094757D16AA3FF419F","title":"崂山路551弄","lon":"121.529","lat":"31.2324","category":"500","category_name":"未知分类","address":"上海市浦东新区张扬路"},{"poiid":"B2094655D265ABFB4298","title":"大都汇商务酒店","lon":"121.52867","lat":"31.23079","category":"250","category_name":"公园户外","address":"浦东新区张杨路998号(福山路张杨路)"},{"poiid":"B2094655D264AAF94498","title":"新招鲜本地鸡窝","lon":"121.52674","lat":"31.23466","category":"86","category_name":"火锅店","address":"浦东新区商城路1111号(近福山路)"},{"poiid":"B2094655D26EA3F84992","title":"振华大楼(北门)","lon":"121.52619","lat":"31.23396","category":"52","category_name":"高等院校","address":"商城路1088号"},{"poiid":"B2094654DA69ABF44693","title":"永和宅急送","lon":"121.528944054","lat":"31.231039793","category":"68","category_name":"快餐厅","address":"浦东新区福山路291号(福山路张杨路)"},{"poiid":"B2094757D069AAFB4293","title":"东欣高层","lon":"121.529752","lat":"31.232158","category":"47","category_name":"住宅区","address":"上海崂山路571弄"},{"poiid":"B2094654DA69AAFC4399","title":"上海市金桥专修学院(北门)","lon":"121.52618","lat":"31.23396","category":"52","category_name":"高等院校","address":"浦东新区商城路1088"},{"poiid":"B2094654DA69ABFD409A","title":"新明大楼","lon":"121.525","lat":"31.2326","category":"46","category_name":"楼宇","address":"崂山西路1017号"},{"poiid":"B2094655D265A6FF4699","title":"福沈小区(东一门)","lon":"121.52764","lat":"31.2319","category":"656","category_name":"大门","address":"福山路100弄1-11号、102弄1-17号"},{"poiid":"B2094654DA69ABF5459D","title":"竹园小学","lon":"121.53034","lat":"31.231","category":"56","category_name":"小学","address":"浦东新区张杨路1050弄1号‎(近东方路)"},{"poiid":"B2094654DB69A5F84198","title":"文峰美容美发(福山路店)","lon":"121.52642","lat":"31.23435","category":"148","category_name":"美容美发店","address":"浦东新区福山路74号(福山路商城路)"},{"poiid":"B2094654DA69AAFC429E","title":"梅园四街坊(东门)","lon":"121.52752","lat":"31.23193","category":"656","category_name":"大门","address":""},{"poiid":"B2094654DA69AAFC449A","title":"市政大楼","lon":"121.52454","lat":"31.232597","category":"47","category_name":"住宅区","address":"东方路573弄1-2号"},{"poiid":"B2094654DA69AAFE449F","title":"上海铁路旅行社张杨路营业部","lon":"121.52902","lat":"31.23161","category":"248","category_name":"生活娱乐","address":"浦东新区张杨路1071号(近福山路)"},{"poiid":"B2094655D26DA1FB4698","title":"竹园商务公寓","lon":"121.52941","lat":"31.229389","category":"47","category_name":"住宅区","address":"铁西区铁西兴华街与南十中路交处(兴华南街48号)"},{"poiid":"B2094757D06AA5FD419E","title":"冰厂田幼儿园梅园中大班部","lon":"121.528895","lat":"31.234257","category":"500","category_name":"未知分类","address":"浦东新区商城路1178弄38号(商城路松林路)"},{"poiid":"B2094757D068A0FD479F","title":"梅园五街坊(松山小区)","lon":"121.525992","lat":"31.2340056","category":"47","category_name":"住宅区","address":"上海浦东新区福山路111弄"},{"poiid":"B2094757D16EABF8459E","title":"今招鲜 商城路店","lon":"121.52701726726","lat":"31.234975964085","category":"76","category_name":"上海菜","address":"浦东新区商城路1115号(近福山路)"},{"poiid":"B2094655D26DA7FB4992","title":"振华外经职业学校(北门)","lon":"121.52619","lat":"31.23396","category":"678","category_name":"学校大门","address":"商城路1088"},{"poiid":"B2094654DA69AAFE4598","title":"海怡别墅(西门)","lon":"121.53004","lat":"31.23341","category":"47","category_name":"住宅区","address":"松林路97弄"},{"poiid":"B2094757D16AA6FA429E","title":"永琪美容美发(张杨店)","lon":"121.52863","lat":"31.23099","category":"148","category_name":"美容美发店","address":"浦东新区张杨路(近福山路)"},{"poiid":"B2094757D464AAFA449C","title":"明华拉面","lon":"121.527005054","lat":"31.234378793","category":"68","category_name":"快餐厅","address":"浦东新区福山路(近商城路)"},{"poiid":"B2094757D065A2FF4092","title":"上海新东方学校(商城路校区)","lon":"121.52634","lat":"31.2335","category":"253","category_name":"校园生活","address":"浦东新区商城路1088号(福山路商城路)"},{"poiid":"B2094655D26DA1F44398","title":"桌球","lon":"121.52696","lat":"31.23426","category":"171","category_name":"台球厅","address":"商城路1118"},{"poiid":"B2094750D76FA3FD439B","title":"晏子烧烤","lon":"121.529","lat":"31.2305","category":"68","category_name":"快餐厅","address":"浦东新区福山路285号(近世纪大道地铁站)"},{"poiid":"B2094654DA69AAFE499D","title":"海怡花园","lon":"121.53046","lat":"31.23238","category":"47","category_name":"住宅区","address":"上海市浦东新区松林路111号"},{"poiid":"B2094654DA69ABFD419B","title":"新光大楼","lon":"121.5246647811","lat":"31.232475030754","category":"46","category_name":"楼宇","address":"南泉北路1051号"},{"poiid":"B2094654DA69AAFC4398","title":"上海市金桥专修学院","lon":"121.52607","lat":"31.23377","category":"53","category_name":"成人教育","address":"商城路1088"},{"poiid":"B2094654DA69AAFE4392","title":"梅园五街坊(西门)","lon":"121.52802","lat":"31.23191","category":"656","category_name":"大门","address":""},{"poiid":"B2094757D16AA0FA4399","title":"春秋国际旅行社(张杨路店)","lon":"121.52774","lat":"31.23078","category":"500","category_name":"未知分类","address":"浦东新区张杨路642号(近南泉北路)"},{"poiid":"B2094655D26DA1FE469E","title":"松林路95弄小区","lon":"121.53022","lat":"31.23396","category":"47","category_name":"住宅区","address":"松林路95弄1-12号"},{"poiid":"B2094757D16BA6FC439C","title":"隧道三线（福山路站）","lon":"121.527288","lat":"31.230862","category":"500","category_name":"未知分类","address":"上海张杨路福山路"},{"poiid":"B2094655D26DA7FA479B","title":"福竹小区","lon":"121.52993","lat":"31.2309","category":"47","category_name":"住宅区","address":"张杨路1000弄"},{"poiid":"B2094655D264A0FC459E","title":"松山小区(北门)","lon":"121.5281","lat":"31.23484","category":"47","category_name":"住宅区","address":"商城路1178弄1-36号"},{"poiid":"B2094757D66DA5F8469A","title":"上海盛态实业发展有限公司","lon":"121.527982738","lat":"31.2337483751","category":"263","category_name":"公司","address":"上海浦东新区松林路93号"},{"poiid":"B2094655D26EAAFD489C","title":"三和一茶餐厅","lon":"121.52674","lat":"31.23465","category":"66","category_name":"茶艺馆","address":"浦东新区商城路1111号"},{"poiid":"B2094757D169A3FD4693","title":"海员医院(源深路分院)","lon":"121.52969053","lat":"31.234321433","category":"162","category_name":"医院","address":"浦东新区源深路348弄4号(商城路源深路)"},{"poiid":"B2094654DA69AAFE4599","title":"梅园社区双拥广场","lon":"121.52992","lat":"31.23403","category":"202","category_name":"公园广场","address":"梅园新村"},{"poiid":"B2094655D26DA1F94692","title":"松林路95弄小区(西门)","lon":"121.52983","lat":"31.23373","category":"47","category_name":"住宅区","address":"松林路95弄1-12号"},{"poiid":"B2094654DA69ABF5489D","title":"梅园高层小区","lon":"121.5255","lat":"31.230669","category":"47","category_name":"住宅区","address":"东方路573弄5号"},{"poiid":"B2094757D06AABFB4898","title":"东方路市政大楼","lon":"121.525092","lat":"31.232085","category":"500","category_name":"未知分类","address":"上海东方路573弄"},{"poiid":"B2094757D66CA1FD449A","title":"乳山路福山路","lon":"121.529684738","lat":"31.2342933867","category":"500","category_name":"未知分类","address":"上海乳山路福山路"},{"poiid":"B2094654DA69AAFE479D","title":"好德No.387","lon":"121.52735","lat":"31.23491","category":"117","category_name":"便民商店/便利店","address":"商城路1137-1识别"},{"poiid":"B2094757D169A3FB409E","title":"艺流美容美发(张杨路店)","lon":"121.52665","lat":"31.23049","category":"148","category_name":"美容美发店","address":"浦东新区张杨路1035号(近东方路)"},{"poiid":"B2094654DA69AAFE4792","title":"良友金伴(商城路)","lon":"121.52745","lat":"31.23494","category":"117","category_name":"便民商店/便利店","address":"商城路1139识别"},{"poiid":"B2094655D264AAFF419D","title":"福沈小区(东门)","lon":"121.52706","lat":"31.23302","category":"656","category_name":"大门","address":""},{"poiid":"B2094757D06AA3FA469A","title":"世纪大道(东方路潍坊路)公车站","lon":"121.53060913","lat":"31.231260299","category":"500","category_name":"未知分类","address":"上海东方路张杨路路口"},{"poiid":"B2094654DB64A3FE439A","title":"苏宁电器(福山路店)","lon":"121.52891","lat":"31.23006","category":"138","category_name":"家电电子卖场","address":"浦东新区福山路289号(世纪联华对面)"},{"poiid":"B2094655D36CA6FF4592","title":"福山路商城路","lon":"121.52641","lat":"31.23484","category":"38","category_name":"公交车站","address":""},{"poiid":"B2094654DA69ABF54892","title":"梅园高层小区(南门)","lon":"121.52563","lat":"31.23048","category":"47","category_name":"住宅区","address":"东方路573弄5号"},{"poiid":"B2094757D16AA1F9449B","title":"海逸别墅","lon":"121.53048373","lat":"31.233389367","category":"47","category_name":"住宅区","address":"上海浦东新区松林路97弄"},{"poiid":"B2094750DB64A1F4499E","title":"冰厂田幼儿园","lon":"121.527618","lat":"31.235017","category":"57","category_name":"幼儿园","address":null},{"poiid":"B2094750DA6BA4F8439C","title":"塞班岛","lon":"121.529457","lat":"31.232717","category":"627","category_name":"一般地点标志","address":"塞班岛海边"},{"poiid":"B2094655D264ABF4499A","title":"振华教育培训中心","lon":"121.52629","lat":"31.23401","category":"190","category_name":"培训机构","address":"商城路1088-2临"},{"poiid":"B2094655D265A3FC449D","title":"传说时装","lon":"121.52597","lat":"31.23059","category":"141","category_name":"服装鞋帽皮具店","address":"张杨路945"},{"poiid":"B2094757D16FA3FE409A","title":"全家(长城弘基广场店)","lon":"121.525259338","lat":"31.2325216489","category":"500","category_name":"未知分类","address":"上海普陀区中山北路3018号长城弘基"},{"poiid":"B2094655D26EA2F8479B","title":"沈家花园(东方路)","lon":"121.52454","lat":"31.23259","category":"47","category_name":"住宅区","address":"东方路573弄8号近张杨路"},{"poiid":"B2094757D66DA3FD499F","title":"太奇教育mba考前辅导班","lon":"121.52652723","lat":"31.234187534","category":"253","category_name":"校园生活","address":"上海浦东商城路1088号振华外经学校2楼"},{"poiid":"B2094655D26DA1FE4699","title":"中国银行上海市商城路支行","lon":"121.52687","lat":"31.23471","category":"150","category_name":"银行","address":"浦东新区商城路1123号(福山路商城路)"},{"poiid":"B2094654DA69AAFE449D","title":"梅园五街坊(南门)","lon":"121.5292","lat":"31.23162","category":"656","category_name":"大门","address":"张杨路1133弄1-34号"},{"poiid":"B2094655D264A4FA439D","title":"上海蜂星筑波通信设备有限公司第二分公司","lon":"121.52483","lat":"31.23208","category":"138","category_name":"家电电子卖场","address":"东方路573弄10号"},{"poiid":"B2094655D26DA0FE4493","title":"海运游泳池","lon":"121.52934","lat":"31.23493","category":"231","category_name":"游泳馆","address":""},{"poiid":"B2094757D16CA1FA4799","title":"成助棋牌娱乐中心","lon":"121.52991","lat":"31.23153","category":"173","category_name":"游戏厅","address":"浦东新区张杨路1139号(近福山路)"},{"poiid":"B2094757DA6FA2FC4399","title":"振华职业技术学校","lon":"121.526123","lat":"31.2340729999998","category":"253","category_name":"校园生活","address":"浦东新区商城路1088号"},{"poiid":"B2094655D264ABF4419F","title":"张杨小区(北门)","lon":"121.53084","lat":"31.2314","category":"47","category_name":"住宅区","address":"张杨路1050弄1-8号"},{"poiid":"B2094757D168AAFA429E","title":"潮汕海鲜粥","lon":"121.526141738","lat":"31.2351694054","category":"247","category_name":"餐饮美食","address":"上海市浦东新区东方路"},{"poiid":"B2094757D06AA3FB459F","title":"潍坊七村","lon":"121.52794425626","lat":"31.229840805664","category":"252","category_name":"楼宇机构","address":"潍坊路716号"},{"poiid":"B2094751D56FA1F5409F","title":"星杰国际设计","lon":"121.525684","lat":"31.2339575","category":"263","category_name":"公司","address":"上海市浦东新区张杨路1258号"},{"poiid":"B2094757D568A5FA4092","title":"联华超市(张杨店)","lon":"121.531055","lat":"31.232215","category":"118","category_name":"超级市场","address":"浦东新区张杨路1255号(松林路口)"},{"poiid":"B2094655D26DA1F9489D","title":"绣竹大楼","lon":"121.5299","lat":"31.230036","category":"47","category_name":"住宅区","address":"张杨路1050弄2号"},{"poiid":"B2094655D26AAAF5449E","title":"集韵社专业戏剧写真","lon":"121.52571","lat":"31.2337","category":"248","category_name":"生活娱乐","address":"浦东新区商城路1028弄25号近东方路;;"},{"poiid":"B2094655D36CA1FD479C","title":"世纪大道张杨路","lon":"121.52662","lat":"31.22923","category":"38","category_name":"公交车站","address":""},{"poiid":"B2094757D16DA4FE4892","title":"GK美甲96广场店","lon":"121.52670183","lat":"31.229722639","category":"500","category_name":"未知分类","address":"上海东方路960号"},{"poiid":"B2094757D16AA1F5479C","title":"玫瑰婚典壹号会馆","lon":"121.52883283","lat":"31.230131898","category":"500","category_name":"未知分类","address":"上海宜昌路100号"},{"poiid":"B2094655D265A4FE4198","title":"酷派上海捷鹏通讯设备有限公司","lon":"121.52454","lat":"31.2326","category":"138","category_name":"家电电子卖场","address":"东方路573弄9号"},{"poiid":"B2094654DA69ABF5499E","title":"梅园四街坊(南门)","lon":"121.52642","lat":"31.23071","category":"656","category_name":"大门","address":"张杨路951弄1-19号"},{"poiid":"B2094655D265A6FB439F","title":"林山小区","lon":"121.52779","lat":"31.23573","category":"47","category_name":"住宅区","address":"商城路1177弄1-40号"},{"poiid":"B2094655D26FA5FD4798","title":"竹园幼儿园","lon":"121.52954","lat":"31.22952","category":"57","category_name":"幼儿园","address":"浦东新区福山路331弄2号"},{"poiid":"B2094757D16FA7FC449A","title":"食知味商城路店","lon":"121.526572738","lat":"31.2347113956","category":"500","category_name":"未知分类","address":"上海市浦东新区商城路1111号"},{"poiid":"B2094654DA69AAFE4798","title":"雨点","lon":"121.52702","lat":"31.23478","category":"260","category_name":"其他","address":"浦东新区商城路1127号(近福山路)"},{"poiid":"B209475CD76EA4F84999","title":"正大广场","lon":"121.531204","lat":"31.232776","category":"500","category_name":"未知分类","address":"上海市 陆家嘴"},{"poiid":"B2094757D16FA2F8449C","title":"峯鐵板燒","lon":"121.527909738","lat":"31.2358764204","category":"247","category_name":"餐饮美食","address":"上海市外马路579号2号库302"},{"poiid":"B2094655D26BAAF8479A","title":"北京同仁堂浦东药店","lon":"121.52448","lat":"31.2321","category":"669","category_name":"药店","address":"东方路573弄7"},{"poiid":"B2094757D06AA1F4409E","title":"全家便利店(福山路店)","lon":"121.52933","lat":"31.229319","category":"117","category_name":"便民商店/便利店","address":"上海浦东新区张杨路1041号(近福山路)"},{"poiid":"B2094655D26DA1FB489F","title":"竹园菜市场(竹园商务公寓东北)","lon":"121.52967","lat":"31.22965","category":"117","category_name":"便民商店/便利店","address":"张杨路1000弄20"},{"poiid":"B2094757D568A4F8479B","title":"ilove kill-time box","lon":"121.5304711","lat":"31.232385","category":"248","category_name":"生活娱乐","address":"松林路111弄7号紫荆阁15A"},{"poiid":"B2094654DB64A3FE4499","title":"梅园三街坊(南二门)","lon":"121.52597","lat":"31.23416","category":"656","category_name":"大门","address":"商城路1025弄1-29号"},{"poiid":"B2094757D069A3F5449D","title":"诺维雅婚纱","lon":"121.52476425","lat":"31.231812284","category":"249","category_name":"购物服务","address":"浦东新区乳山路506弄上海滩花园洋房21号301室(近源深体育中心)查看地图"},{"poiid":"B2094757D568A2F8439B","title":"梦之源婚庆礼仪","lon":"121.525894","lat":"31.230556","category":"248","category_name":"生活娱乐","address":"浦东新区张杨路945号(近东方路)查看地图"},{"poiid":"B209475CD26CAAF4469A","title":"世纪大道张扬路","lon":"121.53099","lat":"31.23129","category":"500","category_name":"未知分类","address":"上海市 世纪大道张扬路"},{"poiid":"B2094757D16EAAF4479B","title":"商城路1025弄","lon":"121.52518273","lat":"31.234780397","category":"500","category_name":"未知分类","address":"上海市浦东新区东方路"},{"poiid":"B2094654DA69ABF54692","title":"福竹小区(北门)","lon":"121.52893","lat":"31.23083","category":"656","category_name":"大门","address":"张杨路1000弄"},{"poiid":"B2094655D26EA6FE429A","title":"海怡俱乐部","lon":"121.53055","lat":"31.23365","category":"208","category_name":"休闲场所","address":"松林路97号"},{"poiid":"B2094757D568A4FB499A","title":"福竹小区居民活动室","lon":"121.52954346","lat":"31.23050049","category":"248","category_name":"生活娱乐","address":"中国上海市浦东新区"},{"poiid":"B2094654DA69AAFE4493","title":"梅园五街坊(东门)","lon":"121.52998","lat":"31.23258","category":"656","category_name":"大门","address":"松林路88弄1-36号"},{"poiid":"B2094655D265A6F8429F","title":"晋风园","lon":"121.52958","lat":"31.23444","category":"260","category_name":"其他","address":"浦东新区松林路81号(近张杨路)"},{"poiid":"B2094757D66DA5FC4999","title":"华东师范大学闵行校区东运动场网球场","lon":"121.526556738","lat":"31.229099276","category":"253","category_name":"校园生活","address":"上海东川路500号"},{"poiid":"B2094757D16AA1F8419B","title":"商城路东方路","lon":"121.524515738","lat":"31.2307693116","category":"500","category_name":"未知分类","address":"上海商城路418号"},{"poiid":"B2094757D66CA6F5409B","title":"美亚财产保险有限公司上海分公司","lon":"121.526915638","lat":"31.229428383","category":"263","category_name":"公司","address":"上海世纪大道1589 号长泰国际金融大厦5楼"},{"poiid":"B2094752D268AAF4409C","title":"鐮仓PASTA","lon":"121.528002","lat":"31.22893","category":"500","category_name":"未知分类","address":null},{"poiid":"B2094654DA69AAFE4999","title":"梅园五街坊(北门)","lon":"121.52802","lat":"31.2348","category":"656","category_name":"大门","address":""},{"poiid":"B2094757D66EA6FB469D","title":"一嗨租車","lon":"121.525965","lat":"31.23492","category":"163","category_name":"4S店","address":"上海福山路"},{"poiid":"B2094757D569A2F5429A","title":"上海浦东新区慈爱公益服务社","lon":"121.53071723","lat":"31.23129829","category":"248","category_name":"生活娱乐","address":"中国上海市浦东新区松林路"},{"poiid":"B2094757D169ABFC479B","title":"上海星盛美容美发有限公司","lon":"121.52600791","lat":"31.2294181761","category":"500","category_name":"未知分类","address":"上海张杨路福山路"},{"poiid":"B2094757D16CA5FD489F","title":"970","lon":"121.53067073","lat":"31.234276386","category":"500","category_name":"未知分类","address":"上海南新小区－枣庄路方向"},{"poiid":"B2094654DA69AAFE499B","title":"梅园六街坊(南门)","lon":"121.52799","lat":"31.23514","category":"656","category_name":"大门","address":"商城路1177弄1-38号"},{"poiid":"B2094757DA6AA4FB4492","title":"lynn bar","lon":"121.52751","lat":"31.23485","category":"260","category_name":"其他","address":"浦东新区商城路1145号(近福山路)"},{"poiid":"B2094654DA69AAFC4392","title":"梅园四街坊(北门)","lon":"121.52492","lat":"31.23331","category":"656","category_name":"大门","address":"商城路1028弄1-35号"},{"poiid":"B2094654DA69ABF4489E","title":"竹园商务公寓(西门)","lon":"121.52918","lat":"31.22935","category":"48","category_name":"楼宇大门","address":"福山路309"},{"poiid":"B2094654DA69ABF54592","title":"福竹小区(东门)","lon":"121.52999","lat":"31.2306","category":"656","category_name":"大门","address":""},{"poiid":"B2094655D265A1F44593","title":"林山小区(南门)","lon":"121.52789","lat":"31.2351","category":"656","category_name":"大门","address":"商城路1177弄1-40号"},{"poiid":"B2094654DA69AAFC449B","title":"市政大楼(北门)","lon":"121.52441","lat":"31.23305","category":"656","category_name":"大门","address":"东方路573弄1-2号"},{"poiid":"B2094654DA69AAFF4292","title":"海怡花园(北门)","lon":"121.53112","lat":"31.23283","category":"656","category_name":"大门","address":""},{"poiid":"B2094655D265A7F5469C","title":"林山小区(西门)","lon":"121.52625","lat":"31.23553","category":"656","category_name":"大门","address":""}]