[{"poiid":"B2094757D06FA2F4439C","title":"上海市出入境管理局徐汇分局","lon":"121.428715562","lat":"31.1973608269","category":"252","category_name":"楼宇机构","address":"上海番禺路865号"},{"poiid":"B2094757D069AAFC4893","title":"老刘野生大鱼坊(番禺路店)","lon":"121.42839","lat":"31.19603","category":"82","category_name":"东北菜","address":"徐汇区番禺路888号2楼(近虹桥路)"},{"poiid":"B2094757D06FA2FD469A","title":"乐山新村","lon":"121.43004623","lat":"31.195086057","category":"47","category_name":"住宅区","address":"上海秀山路乐山新村"},{"poiid":"B2094757D068AAFA4692","title":"东方射击射箭馆","lon":"121.42682","lat":"31.19442","category":"220","category_name":"运动场所","address":"上海虹桥路663号(近番禺绿地)  "},{"poiid":"B2094757D06FA1F4479C","title":"上海数娱大厦","lon":"121.42780037","lat":"31.193787149","category":"46","category_name":"楼宇","address":"上海番禺路1028号"},{"poiid":"B2094655D26EAAFD449C","title":"上海市昂立学院(番禺路)","lon":"121.42809","lat":"31.19708","category":"52","category_name":"高等院校","address":"徐汇区番禺路868"},{"poiid":"B2094757D06FAAFB4498","title":"上海新东方学校(番禺路校区)","lon":"121.42843","lat":"31.19542","category":"253","category_name":"校园生活","address":"徐汇区番禺路900号1楼(近虹桥路)"},{"poiid":"B2094757D06FA4F54693","title":"东北四季饺子王(番禺路店)","lon":"121.428130321","lat":"31.1959206491","category":"82","category_name":"东北菜","address":"徐汇区番禺路888号(近秀山路)"},{"poiid":"B2094757D06FA1F8409E","title":"亚力山大会馆(虹桥路店)","lon":"121.42813","lat":"31.19334","category":"221","category_name":"健身中心","address":"徐汇区虹桥路600号(近番禺路)"},{"poiid":"B2094750DB6BA2FB4999","title":"星巴克新淮海坊","lon":"121.427413","lat":"31.19465","category":"500","category_name":"未知分类","address":null},{"poiid":"B2094655D26EA6FF439D","title":"汉庭快捷酒店(上海交大店)","lon":"121.42843","lat":"31.19504","category":"216","category_name":"经济型连锁酒店","address":"徐汇区番禺路955号(近虹桥路)"},{"poiid":"B2094757D068A6F5479B","title":"とりくら","lon":"121.42876633","lat":"31.197705595","category":"95","category_name":"日本料理","address":"徐汇区番禺路828号(近交通大学)"},{"poiid":"B2094654DA6DA2FF489B","title":"国峰科技大厦","lon":"121.427","lat":"31.1983","category":"46","category_name":"楼宇","address":"闸北区江场西路395号"},{"poiid":"B2094757D06BA5FA4599","title":"港汇广场stella luna","lon":"121.42873382","lat":"31.197780609","category":"500","category_name":"未知分类","address":"上海华山路"},{"poiid":"B2094757D06FA6FB459C","title":"7-ELEVEN(新番禺店)","lon":"121.428344727","lat":"31.1967391968","category":"117","category_name":"便民商店/便利店","address":"徐汇区番禺路878号(番禺路秀山路)"},{"poiid":"B2094750D568A3F5419B","title":"肯德基(番禺路店)","lon":"121.428","lat":"31.1976","category":"68","category_name":"快餐厅","address":"徐汇区番禺路868号(近虹桥路)"},{"poiid":"B2094757D068A5F94399","title":"红辣椒湘菜馆(番禺店)","lon":"121.4292","lat":"31.19863","category":"77","category_name":"湖南菜","address":"徐汇区番禺路754号(近淮海西路)"},{"poiid":"B2094757D06FA7FC4992","title":"昂立进修学院(番禺路分校)","lon":"121.42851","lat":"31.19654","category":"260","category_name":"其他","address":"上海徐汇区番禺路868号(近交通大学)"},{"poiid":"B2094654DA6DA3F9429C","title":"爱情公寓","lon":"121.42775","lat":"31.19459","category":"263","category_name":"公司","address":"番禺路1028号上海数娱大厦1108"},{"poiid":"B2094757D069A4F9409A","title":"大众大厦","lon":"121.43","lat":"31.1934","category":"46","category_name":"楼宇","address":"徐汇区中山西路1515号(近徐虹中路)"},{"poiid":"B2094757D068A1F44599","title":"番禺绿地","lon":"121.42766","lat":"31.19429","category":"196","category_name":"公园","address":"徐汇区虹桥路637号(番禺路口)"},{"poiid":"B2094655D264A0F44393","title":"上海交大慧谷信息园","lon":"121.42867","lat":"31.19554","category":"45","category_name":"产业园区","address":"番禺路951-3临"},{"poiid":"B2094757D065A4F8429F","title":"成妈功夫面馆","lon":"121.428373414","lat":"31.1966294045","category":"68","category_name":"快餐厅","address":"徐汇区番禺路784号(近乐山路)"},{"poiid":"B2094757D165A4F5429E","title":"熔盛重工","lon":"121.428665161","lat":"31.1958370209","category":"46","category_name":"楼宇","address":"上海虹桥路882号"},{"poiid":"B2094655D36CA6F9459B","title":"番禺路虹桥路","lon":"121.42824","lat":"31.19506","category":"38","category_name":"公交车站","address":""},{"poiid":"B2094757DA6AA5F5489B","title":"Element fresh","lon":"121.4299939867743","lat":"31.19539928272323","category":"500","category_name":"未知分类","address":"港汇广场"},{"poiid":"B2094757D468A3FD489E","title":"紫都雅宴","lon":"121.428357","lat":"31.196826","category":"91","category_name":"台湾菜","address":"徐汇区番禺路878号(近虹桥路)"},{"poiid":"B2094757D068ABFB479E","title":"金杆桌球(番禺路店)","lon":"121.42856","lat":"31.19589","category":"171","category_name":"台球厅","address":"徐汇区番禺路888号(近虹桥路)"},{"poiid":"B2094757D465A4FC4793","title":"四海游龙 番禺路店 OVERSEAS DRAGON","lon":"121.427827054","lat":"31.193939793","category":"68","category_name":"快餐厅","address":"徐汇区番禺路955号(近虹桥路)"},{"poiid":"B2094654DA6DA3FB4398","title":"上海交通大学出版社","lon":"121.42855","lat":"31.19567","category":"63","category_name":"出版社","address":"番禺路951号"},{"poiid":"B2094757D06AA0FE4099","title":"东骏海鲜大酒楼","lon":"121.42922973","lat":"31.196931839","category":"247","category_name":"餐饮美食","address":"上海淮海西路518号"},{"poiid":"B2094757D465A4F8449F","title":"赤阪拉面","lon":"121.428357","lat":"31.196826","category":"247","category_name":"餐饮美食","address":"番禺路878号近虹桥路"},{"poiid":"B2094654DA6DA3FB4399","title":"上海市徐汇区虹桥路小学","lon":"121.4289","lat":"31.19634","category":"56","category_name":"小学","address":"番禺路901"},{"poiid":"B2094751D464A2F4449D","title":"加州寿司","lon":"121.428213","lat":"31.195103","category":"95","category_name":"日本料理","address":"徐汇区番禺路1000号(近虹桥路)"},{"poiid":"B2094757D06BA1F54398","title":"喜凤•海南鸡饭","lon":"121.42821358","lat":"31.195200746","category":"247","category_name":"餐饮美食","address":"上海番愚路"},{"poiid":"B2094757D16EA6F5499D","title":"JOYCE WAREHOUSE","lon":"121.4286499","lat":"31.196163177","category":"500","category_name":"未知分类","address":"上海淮海西路紅坊"},{"poiid":"B2094655D268A3F4459B","title":"番禺大楼(东门)","lon":"121.42814","lat":"31.19559","category":"47","category_name":"住宅区","address":"番禺路900"},{"poiid":"B2094655D268A3F4459A","title":"番禺大楼","lon":"121.42793","lat":"31.195759","category":"47","category_name":"住宅区","address":"番禺路900号"},{"poiid":"B2094654DB65A0F9479E","title":"白领俱乐部","lon":"121.42842","lat":"31.19565","category":"221","category_name":"健身中心","address":"番禺路909号"},{"poiid":"B2094655D26EAAFC429C","title":"农工商超市番禺店","lon":"121.42807","lat":"31.19659","category":"117","category_name":"便民商店/便利店","address":"番禺路882号"},{"poiid":"B2094654DA6DA3FA409B","title":"八五八商务楼","lon":"121.42844","lat":"31.1974","category":"46","category_name":"楼宇","address":"沈河北中街123号"},{"poiid":"B2094655D26BA7F54098","title":"似家宾馆","lon":"121.42813","lat":"31.19605","category":"250","category_name":"公园户外","address":"番禺路888"},{"poiid":"B2094753D76AABFE469D","title":"外滩茂悦大酒店","lon":"121.427734","lat":"31.195974","category":"500","category_name":"未知分类","address":"上海市 黄浦路199号"},{"poiid":"B2094655D265A4FE429B","title":"徐汇公安分局出入境接待大厅","lon":"121.42872","lat":"31.19722","category":"248","category_name":"生活娱乐","address":"番禺路865"},{"poiid":"B2094654DA6DA3F94792","title":"新东方大愚书店(番禺路)","lon":"121.4281","lat":"31.19583","category":"125","category_name":"书店","address":"番禺路900"},{"poiid":"B2094757D06BA1FE479B","title":"千橡上海","lon":"121.42771148","lat":"31.19641304","category":"46","category_name":"楼宇","address":"上海淮海西路570号G座202"},{"poiid":"B2094654DA6DA3F94593","title":"快客(番禺路)","lon":"121.42809","lat":"31.19486","category":"117","category_name":"便民商店/便利店","address":"番禺路1000-3"},{"poiid":"B2094654DB65A1FE409C","title":"乐山六七村","lon":"121.43008","lat":"31.19564","category":"47","category_name":"住宅区","address":"徐家汇"},{"poiid":"B2094654DA6DA3F9489C","title":"交大昂立职业教育","lon":"121.42811","lat":"31.1968","category":"54","category_name":"职业技术学校","address":"番禺路880"},{"poiid":"B2094654DA6DA3FB449B","title":"真锅咖啡馆虹桥店","lon":"121.42838","lat":"31.19413","category":"260","category_name":"其他","address":"徐汇区虹桥路591号(近番禺路)"},{"poiid":"B2094654DA6DA3FF4098","title":"乐山八、九村小区","lon":"121.4295","lat":"31.19472","category":"47","category_name":"住宅区","address":"秀山路15弄1-12号"},{"poiid":"B2094655D268A3F44492","title":"昂立教育学生公寓(东门)","lon":"121.42833","lat":"31.19669","category":"47","category_name":"住宅区","address":"番禺路880"},{"poiid":"B2094655D26FA6F9469F","title":"虹桥丽园","lon":"121.4286","lat":"31.194324","category":"47","category_name":"住宅区","address":"虹桥丽园位于徐汇虹桥路591弄"},{"poiid":"B2094757D16AABF9459B","title":"康平路高安路","lon":"121.428742486","lat":"31.1966059736","category":"500","category_name":"未知分类","address":"上海徐汇区康平路高安路"},{"poiid":"B209475CD16EABFB4492","title":"IAPM","lon":"121.429931","lat":"31.196283","category":"500","category_name":"未知分类","address":"上海市 淮海中路999号"},{"poiid":"B2094757D16AA7F9489E","title":"红坊G坐","lon":"121.4281845","lat":"31.196266174","category":"500","category_name":"未知分类","address":"上海淮海西路570号"},{"poiid":"B2094757D068AAF9429B","title":"湘轩酒楼(番禺路店)","lon":"121.42898","lat":"31.19807","category":"77","category_name":"湖南菜","address":"徐汇区番禺路752号(近淮海西路)"},{"poiid":"B2094654DA6DA3FA4592","title":"上海市西南高级中学","lon":"121.42774","lat":"31.19774","category":"55","category_name":"中学","address":"徐汇区番禹路800弄22号(近上海交通大学)"},{"poiid":"B2094654DA6DA3F9499F","title":"上海电视大学交大昂立分校","lon":"121.4281","lat":"31.19709","category":"52","category_name":"高等院校","address":"番禺路868"},{"poiid":"B2094757D06AA5FC419A","title":"阿迪达斯(上海南站店)","lon":"121.429601353","lat":"31.1951906126","category":"140","category_name":"体育用品店","address":"徐汇区石龙路750-3号银泰购物中心南广场B1楼(近上海南站)  "},{"poiid":"B2094655D264A7F4439D","title":"智立方教育中学生VIP学习中心(边门)","lon":"121.42869","lat":"31.19672","category":"190","category_name":"培训机构","address":"番禺路877"},{"poiid":"B2094655D268A3F4449D","title":"昂立教育学生公寓","lon":"121.4281","lat":"31.19679","category":"47","category_name":"住宅区","address":"番禺路880"},{"poiid":"B2094750DA6DABFD419A","title":"新聚仁机构","lon":"121.42807","lat":"31.196475","category":"252","category_name":"楼宇机构","address":"番愚路878号"},{"poiid":"B2094751D26AA2FD409F","title":"溪边海鲜火锅","lon":"121.427581","lat":"31.197963","category":"86","category_name":"火锅店","address":"徐汇区番禺路878号(近虹桥路)"},{"poiid":"B2094655D268A3FE4598","title":"上海市昂立学院(东门)","lon":"121.42842","lat":"31.19719","category":"52","category_name":"高等院校","address":"番禺路868"},{"poiid":"B2094757D16BAAFD4798","title":"添亿汽车装潢","lon":"121.42825658","lat":"31.195127494","category":"163","category_name":"4S店","address":"上海番禺路953号"},{"poiid":"B2094654DA6DA3F9499D","title":"快客(八五八商务楼南)","lon":"121.42843","lat":"31.19726","category":"117","category_name":"便民商店/便利店","address":"番禺路870"},{"poiid":"B2094655D26EA1FA4899","title":"乐山二村","lon":"121.431","lat":"31.197004","category":"47","category_name":"住宅区","address":"乐山支路4弄1-13号,8弄1-32号"},{"poiid":"B2094654DA6DA3FB4292","title":"徐家汇派出所(番禺路)","lon":"121.42869","lat":"31.1972","category":"248","category_name":"生活娱乐","address":"番禺路865"},{"poiid":"B2094654DB64AAFA409A","title":"番禺文化广场","lon":"121.42729","lat":"31.19464","category":"202","category_name":"公园广场","address":"虹桥路637号"},{"poiid":"B2094753D36CA6F9479F","title":"鸟藏","lon":"121.42847","lat":"31.19751","category":"95","category_name":"日本料理","address":"番禺路828号"},{"poiid":"B2094757D569A2FD469B","title":"宜必思上海徐家汇酒店","lon":"121.42846191","lat":"31.19749539","category":"216","category_name":"经济型连锁酒店","address":"番禺路858"},{"poiid":"B2094654DA6DA3FB4499","title":"玛萨专业美容会所","lon":"121.42857","lat":"31.19403","category":"148","category_name":"美容美发店","address":"虹桥路951弄6号2层"},{"poiid":"B2094654DA6DA3FB459E","title":"乐山八九村(南门)","lon":"121.42907","lat":"31.19373","category":"47","category_name":"住宅区","address":"虹桥路411弄1-6号"},{"poiid":"B2094655D26FA5FE439A","title":"番禺小区","lon":"121.42775","lat":"31.19775","category":"47","category_name":"住宅区","address":"番禺路800弄1-26号"},{"poiid":"B2094757D66FA6FB419E","title":"The Kro's Nest 乌巢比萨主义主题餐厅(霄云路店)","lon":"121.42875058","lat":"31.19746979","category":"94","category_name":"西餐厅","address":"北京朝阳区霄云路35号(现代汽车大厦对面,吉野家旁)"},{"poiid":"B2094751D56BABFE449A","title":"上海城开国际大厦","lon":"121.431048","lat":"31.193613","category":"46","category_name":"楼宇","address":"上海市 虹桥路355号906室"},{"poiid":"B2094757D064ABF5489C","title":"家里的床上","lon":"121.430812","lat":"31.194282","category":"253","category_name":"校园生活","address":"上海徐汇区乐山路"},{"poiid":"B2094654DA6DA3FB449E","title":"克丽缇娜(虹桥路)","lon":"121.42864","lat":"31.19402","category":"148","category_name":"美容美发店","address":"虹桥路591-7识别"},{"poiid":"B2094654DA6DA3FE4892","title":"乐山二村(南门)","lon":"121.43087","lat":"31.19624","category":"47","category_name":"住宅区","address":"乐山支路4弄1-13号、8弄1-32号"},{"poiid":"B2094654DA6DA3F9439C","title":"上海市徐汇区软件协会","lon":"121.42775","lat":"31.19459","category":"250","category_name":"公园户外","address":"番禺路1028号上海数娱大厦102"},{"poiid":"B2094757DB6CAAFC4499","title":"徐汇中学","lon":"121.42910426","lat":"31.19816821","category":"55","category_name":"中学","address":"虹桥路"},{"poiid":"B209475DD16CA5FD439C","title":"上海影城","lon":"121.426429","lat":"31.194602","category":"178","category_name":"电影院","address":"上海市 长宁区新华路260号"},{"poiid":"B2094654DA6DA3FB469C","title":"阳阳食府","lon":"121.430928054","lat":"31.193776793","category":"76","category_name":"上海菜","address":"徐汇区广元西路420号(近乐山路)"},{"poiid":"B2094757D16CA6FD459C","title":"深圳发展银行市中支行","lon":"121.42781358","lat":"31.193704716","category":"46","category_name":"楼宇","address":"上海虹桥路628号"},{"poiid":"B2094654DA6DA3FB439A","title":"上海交大出版社读者服务部","lon":"121.42871","lat":"31.19672","category":"248","category_name":"生活娱乐","address":"番禺路877"},{"poiid":"B2094654DA6DA3F9459D","title":"中国银行上海市虹桥路支行","lon":"121.42794","lat":"31.19459","category":"150","category_name":"银行","address":"徐汇区番禺路1028号(番禺路虹桥路)"},{"poiid":"B2094757D16CA0FF4393","title":"沪上客苏式汤包馆","lon":"121.428811586","lat":"31.1982838063","category":"68","category_name":"快餐厅","address":"徐汇区番禺路818号(近秀山路)"},{"poiid":"B2094757D16CA1FA429D","title":"哲基公关","lon":"121.42793106","lat":"31.19492993","category":"263","category_name":"公司","address":"上海番愚路1028号"},{"poiid":"B2094757D064AAF9459F","title":"乐山新村'猪小英的家","lon":"121.430037586","lat":"31.195044743","category":"500","category_name":"未知分类","address":null},{"poiid":"B2094757D66EA3F94198","title":"钻石棋牌室","lon":"121.427915586","lat":"31.1950477431","category":"248","category_name":"生活娱乐","address":"上海番愚路1000号"},{"poiid":"B2094655D36CA7F44893","title":"广元西路虹桥路","lon":"121.42994","lat":"31.19374","category":"38","category_name":"公交车站","address":""},{"poiid":"B2094655D26CA1FE4798","title":"乐山路六七村(北门)","lon":"121.43109","lat":"31.19601","category":"47","category_name":"住宅区","address":""},{"poiid":"B2094654DA6DA3FF4099","title":"好德便利No.966","lon":"121.43074","lat":"31.19473","category":"117","category_name":"便民商店/便利店","address":"乐山路32识别"},{"poiid":"B2094750D664A0F8479B","title":"开元炒面","lon":"121.428321","lat":"31.195329","category":"260","category_name":"其他","address":"长宁区番禺路交通大学门口(近淮海西路)"},{"poiid":"B2094757D165A2F4459E","title":"乐汇面馆","lon":"121.429369","lat":"31.193879","category":"247","category_name":"餐饮美食","address":"上海徐汇区虹桥路411号"},{"poiid":"B2094757D06BA7FE419A","title":"交通大学国际教育学院","lon":"121.43132721","lat":"31.196965165","category":"253","category_name":"校园生活","address":"上海华山路1954号教一楼"},{"poiid":"B2094654DA6DA3FA469B","title":"罗森(番禺路)","lon":"121.42852","lat":"31.19799","category":"117","category_name":"便民商店/便利店","address":"徐汇区番禺路787号(近淮海西路交通大学后门)"},{"poiid":"B2094654DA6DA3F94692","title":"女帝","lon":"121.42788","lat":"31.19494","category":"248","category_name":"生活娱乐","address":"番禺路1000"},{"poiid":"B2094654DA6DA3FF409B","title":"乐山六七村(西门)","lon":"121.42968","lat":"31.19622","category":"656","category_name":"大门","address":""},{"poiid":"B2094757D66EA7F9419E","title":"江西上饶供电公司","lon":"121.42928","lat":"31.194404","category":"500","category_name":"未知分类","address":"上饶民德路1号"},{"poiid":"B2094655D268A1F44799","title":"番禺绿地(南门)","lon":"121.42678","lat":"31.19451","category":"47","category_name":"住宅区","address":"虹桥路637"},{"poiid":"B2094654DB6BA5FF4499","title":"喜士多便利连锁(东方时空公寓东北)","lon":"121.42816","lat":"31.1935","category":"117","category_name":"便民商店/便利店","address":"虹桥路550之5-6识别"},{"poiid":"B2094655D264A6FA4592","title":"上海市公安局徐汇分局出入境管理办公室","lon":"121.42871","lat":"31.19722","category":"248","category_name":"生活娱乐","address":"番禺路865"},{"poiid":"B2094757D16DAAFD4998","title":"26路 广元西路站","lon":"121.429949","lat":"31.193748","category":"38","category_name":"公交车站","address":"上海广元西路虹桥路"},{"poiid":"B2094757D16AA5F54693","title":"背词汇","lon":"121.428444","lat":"31.197239","category":"500","category_name":"未知分类","address":"上海不管是英语 日语 法语 ^~，*《(？-&amp;。*"},{"poiid":"B2094752D06FA3FC4199","title":"美罗城","lon":"121.430793","lat":"31.196436","category":"500","category_name":"未知分类","address":null},{"poiid":"B2094757D06AA4FE4199","title":"全家便利(乐山二店)","lon":"121.43054962","lat":"31.194143295","category":"117","category_name":"便民商店/便利店","address":"上海徐汇区乐山路50号"},{"poiid":"B2094654DA6DA3FB4598","title":"上海市第四建筑有限公司第二项目经营管理部","lon":"121.42927","lat":"31.1944","category":"263","category_name":"公司","address":"虹桥路411弄1-6号"},{"poiid":"B2094757D16FA0F84098","title":"北京腾信创新网络营销技术股份有限公司上海分公司","lon":"121.42780493","lat":"31.194441097","category":"500","category_name":"未知分类","address":"上海徐汇区番禺路1028号数娱大厦308室"},{"poiid":"B2094654DA6DA3FE4893","title":"紫元大厦","lon":"121.43164","lat":"31.195112","category":"47","category_name":"住宅区","address":"上海虹诚大厦位于虹口临平北路88号"},{"poiid":"B2094757D16EA6FF439F","title":"艺流美容美发(番禺路店)","lon":"121.4289","lat":"31.19793","category":"148","category_name":"美容美发店","address":"长宁区番禺路780号"},{"poiid":"B2094654DA6DA3FB4599","title":"上海新丽装饰工程有限公司","lon":"121.42928","lat":"31.1944","category":"263","category_name":"公司","address":"虹桥路411弄1-6号"},{"poiid":"B2094757D168A6F4449E","title":"徐汇区人力资源保障局","lon":"121.42988658","lat":"31.1928437","category":"500","category_name":"未知分类","address":"上海市徐汇区虹桥路432号"},{"poiid":"B2094751DA65ABFF469E","title":"上海 徐家汇","lon":"121.43128","lat":"31.195178","category":"500","category_name":"未知分类","address":"上海,上海市,宛平南路650号"},{"poiid":"B2094757D168A0F9439F","title":"中国联通上海南区分公司","lon":"121.42795958","lat":"31.194011716","category":"500","category_name":"未知分类","address":"上海番禺路1028号数娱大厦6楼"},{"poiid":"B2094757D168AAFA4199","title":"上海医疗器械高等专科学校","lon":"121.42613558","lat":"31.195460751","category":"671","category_name":"高校中心点","address":"上海杨浦区营口路101号"},{"poiid":"B2094654DA6DA3F9439F","title":"环球友好","lon":"121.42775","lat":"31.19458","category":"263","category_name":"公司","address":"番禺路1028号上海数娱大厦202"},{"poiid":"B2094655D26BA4F44693","title":"番禹绿地","lon":"121.4273","lat":"31.19465","category":"248","category_name":"生活娱乐","address":"虹桥路637号"},{"poiid":"B2094655D26BA4F94298","title":"上海市公安局徐汇分局人口管理办公室","lon":"121.42871","lat":"31.19722","category":"248","category_name":"生活娱乐","address":"番禺路865"},{"poiid":"B2094753D168A2FC489E","title":"Cheri亲爱de(虹桥路店)","lon":"121.42795","lat":"31.19356","category":"148","category_name":"美容美发店","address":"徐汇区虹桥路550号1楼(近番禺路)"},{"poiid":"B2094655D26FA5FF499B","title":"东方时空公寓","lon":"121.42794","lat":"31.192873","category":"47","category_name":"住宅区","address":"番禺路1099弄"},{"poiid":"B2094654DA6DA3F94599","title":"上海数字娱乐中心商务中心","lon":"121.42775","lat":"31.19458","category":"248","category_name":"生活娱乐","address":"番禺路1028号上海数娱大厦106B"},{"poiid":"B2094654DB65A1FD469C","title":"乐山绿地","lon":"121.43182","lat":"31.19587","category":"196","category_name":"公园","address":""},{"poiid":"B2094654DA6DA3F9499C","title":"交大昂立口译研究中心","lon":"121.4281","lat":"31.19709","category":"191","category_name":"科研机构","address":"番禺路868"},{"poiid":"B2094757D06FA0FA4498","title":"wwwins Isobar","lon":"121.428001404","lat":"31.1975002289","category":"500","category_name":"未知分类","address":null},{"poiid":"B2094655D26FABFF469F","title":"乐山八、九村小区(北门)","lon":"121.42971","lat":"31.1951","category":"656","category_name":"大门","address":"秀山路15弄1-12号"},{"poiid":"B2094654DA6DA3FB429D","title":"徐汇区房地产职业技术培训学校(番禺路)","lon":"121.42888","lat":"31.19765","category":"190","category_name":"培训机构","address":"番禺路801弄1-28号"},{"poiid":"B2094654DA6DA3FA469D","title":"世贸大楼","lon":"121.42872","lat":"31.19844","category":"46","category_name":"楼宇","address":"番禺路752"},{"poiid":"B2094757D065A3FD429A","title":"老盛兴苏州汤包馆(番禺路店)","lon":"121.42904658","lat":"31.198465809","category":"257","category_name":"中餐厅","address":"上海徐汇区番禺路828号"},{"poiid":"B2094752D164AAF4439E","title":"地铁四号线","lon":"121.429364","lat":"31.194062","category":"627","category_name":"一般地点标志","address":"地铁"},{"poiid":"B2094654DB65A3FC439A","title":"虹枫大楼","lon":"121.43111","lat":"31.194294","category":"47","category_name":"住宅区","address":"广元西路629号"},{"poiid":"B2094757D168A7FC429C","title":"G-STAR OFFICE","lon":"121.42685958","lat":"31.194235727","category":"500","category_name":"未知分类","address":"上海市徐汇区虹桥路640号"},{"poiid":"B2094654DA6DA3FB4593","title":"扬州足浴馆","lon":"121.42937","lat":"31.19388","category":"149","category_name":"洗浴推拿场所","address":"徐汇区柳州路432号(近田林路)"},{"poiid":"B2094757D16EA2FC4592","title":"百脑汇集团总部","lon":"121.428974","lat":"31.192699","category":"46","category_name":"楼宇","address":"上海市徐汇区中山西路1600号宏汇国际大厦23楼，邮编200235"},{"poiid":"B2094757D66FA0F54999","title":"Ritty's home","lon":"121.427714586","lat":"31.1940367233","category":"500","category_name":"未知分类","address":null},{"poiid":"B2094757D06BA6F94692","title":"全家便利店(清峪店)","lon":"121.430934939","lat":"31.1965131052","category":"500","category_name":"未知分类","address":"上海普陀区清峪路600号"},{"poiid":"B2094757D169AAFF4492","title":"钻石年代娱乐有限公司","lon":"121.42708151","lat":"31.194535103","category":"263","category_name":"公司","address":"上海市徐汇区番禺路1000号(近虹桥路)"},{"poiid":"B2094757D568A7FA429D","title":"欣昌土特产店","lon":"121.4307169","lat":"31.19458306","category":"255","category_name":"专卖店","address":"乐山路36号"},{"poiid":"B2094757D064A7F94293","title":"乐山菜场","lon":"121.431208586","lat":"31.1952777476","category":"249","category_name":"购物服务","address":"上海市徐汇区乐山支路"},{"poiid":"B2094757D16DA5F84699","title":"红坊G栋大堂","lon":"121.42884063","lat":"31.198450088","category":"250","category_name":"公园户外","address":"上海淮海西路570号"},{"poiid":"B2094654DA6DA3FB459B","title":"虹桥丽园(西门)","lon":"121.42833","lat":"31.19452","category":"656","category_name":"大门","address":"虹桥路591弄1-8号"},{"poiid":"B2094757D16DA3F4479C","title":"合颜悦色(虹桥路店)","lon":"121.42824","lat":"31.1935","category":"148","category_name":"美容美发店","address":"徐汇区虹桥路601号(番禺路口)"},{"poiid":"B2094750D66CAAFD489B","title":"亚历山大会馆","lon":"121.427116","lat":"31.193527","category":"500","category_name":"未知分类","address":"番愚路虹桥路"},{"poiid":"B2094655D26BA4F4479B","title":"汇乐网吧","lon":"121.431","lat":"31.1947","category":"176","category_name":"网吧","address":"乐山路115-8临2层"},{"poiid":"B2094654DA6DA3FB469B","title":"新丝美发美容(徐虹北路)","lon":"121.43037","lat":"31.19341","category":"148","category_name":"美容美发店","address":"徐虹北路98号"},{"poiid":"B2094750DB6CA1FE4493","title":"徐家汇港汇","lon":"121.429962","lat":"31.198406","category":"500","category_name":"未知分类","address":null},{"poiid":"B2094757D66CA2FE419E","title":"徐匯區勞動局","lon":"121.42732758","lat":"31.193779718","category":"500","category_name":"未知分类","address":"上海市徐汇区虹桥路432號"},{"poiid":"B2094752D46AA2F5459C","title":"凯燕加油站","lon":"121.430159","lat":"31.198489","category":"153","category_name":"加油站","address":"徐汇区凯旋路2048号"},{"poiid":"B2094757D06AAAFD419A","title":"徐汇区上海交通大学9号楼留学生宿舍","lon":"121.42987158","lat":"31.198670813","category":"500","category_name":"未知分类","address":"上海番禺路655号"},{"poiid":"B2094751D569ABFB4493","title":"港丽茶餐厅","lon":"121.425799","lat":"31.195264","category":"500","category_name":"未知分类","address":null},{"poiid":"B2094654DB65A1FF469F","title":"徐虹北路51弄3-34号小区","lon":"121.42947","lat":"31.19276","category":"47","category_name":"住宅区","address":"徐虹北路51弄3-34号"},{"poiid":"B2094751D46DA1FD449B","title":"天天周末","lon":"121.431679","lat":"31.195151","category":"249","category_name":"购物服务","address":"上海市徐汇区斜土路2200弄8号"},{"poiid":"B2094757D16FA6FA459A","title":"中国邮政宛平南路邮政所","lon":"121.430204086","lat":"31.1937227172","category":"500","category_name":"未知分类","address":"上海中山南二路917号"},{"poiid":"B2094757D569A3FF499D","title":"乐山世福熟食","lon":"121.4311669","lat":"31.19477194","category":"249","category_name":"购物服务","address":"乐山路35号"},{"poiid":"B2094655D26FABFF479A","title":"乐山八、九村小区(北一门)","lon":"121.43036","lat":"31.19486","category":"656","category_name":"大门","address":"秀山路7弄1-15号"},{"poiid":"B2094757D16AAAFA409A","title":"新丽","lon":"121.427849086","lat":"31.1935689142","category":"249","category_name":"购物服务","address":"上海虹桥路411弄"},{"poiid":"B2094757D16EA7FE419D","title":"76路终点站","lon":"121.426547806","lat":"31.1936058149","category":"500","category_name":"未知分类","address":"上海宜山路凯旋路"},{"poiid":"B2094757D168A0FA429C","title":"喜士多便利(淮海西二店)","lon":"121.42890248","lat":"31.198282006","category":"249","category_name":"购物服务","address":"长宁区淮海西路346弄1号"},{"poiid":"B2094757D16EA2FE429A","title":"哈皮宠物","lon":"121.431093451","lat":"31.1972837618","category":"249","category_name":"购物服务","address":"上海金沙江路泰辰苑二期旁边"},{"poiid":"B2094654DA6DA3F9429B","title":"上海市地下空间开发实业总公司","lon":"121.42624","lat":"31.19467","category":"263","category_name":"公司","address":"虹桥路663号5-6层"},{"poiid":"B2094654DA6DA3FA459D","title":"番禺小区(东门)","lon":"121.42851","lat":"31.19766","category":"656","category_name":"大门","address":"番禺路800弄1-26号"},{"poiid":"B2094655D268A4FD459D","title":"虹桥丽园(南门)","lon":"121.42897","lat":"31.19381","category":"656","category_name":"大门","address":""},{"poiid":"B2094655D26FA4F9489F","title":"乐山新村(西门)","lon":"121.42896","lat":"31.1978","category":"656","category_name":"大门","address":"番禺路801弄1-28号"},{"poiid":"B2094655D26CA1FE449F","title":"乐山六七村(东门)","lon":"121.43087","lat":"31.1951","category":"656","category_name":"大门","address":""},{"poiid":"B2094757D16FABFA479C","title":"Home！","lon":"121.42847758","lat":"31.193000703","category":"500","category_name":"未知分类","address":null},{"poiid":"B2094654DA6DA3F5419F","title":"G·STAR RAW","lon":"121.42627","lat":"31.19411","category":"263","category_name":"公司","address":"虹桥路640号4层"},{"poiid":"B2094654DA6DA3FB4198","title":"网翔网吧","lon":"121.42942","lat":"31.19881","category":"176","category_name":"网吧","address":"番禺路667号南洋大楼2层"},{"poiid":"B2094757D568A6FF4499","title":"99宾馆","lon":"121.43101454","lat":"31.19473117","category":"251","category_name":"出行住宿","address":"乐山路115-7"},{"poiid":"B2094655D269AAFB4193","title":"美港宾馆","lon":"121.427","lat":"31.19833","category":"217","category_name":"旅馆招待所","address":"长宁区淮海西路241号甲(近番禺路)"},{"poiid":"B2094654DA6DA3FB419A","title":"上海交大南洋股份有限公司","lon":"121.42935","lat":"31.19883","category":"263","category_name":"公司","address":"番禺路667号南洋大楼6层"},{"poiid":"B2094654DB64A4F9489F","title":"徐汇区房屋维修应急中心","lon":"121.43061","lat":"31.19331","category":"248","category_name":"生活娱乐","address":"虹桥路399"},{"poiid":"B2094655D268A3FD479B","title":"虹枫大楼(西门)","lon":"121.43096","lat":"31.19452","category":"656","category_name":"大门","address":"广元西路629"},{"poiid":"B2094655D26FABF8479B","title":"乐山绿地(西门)","lon":"121.43141","lat":"31.19572","category":"656","category_name":"大门","address":""},{"poiid":"B2094655D268A3F94799","title":"虹枫大楼(东门)","lon":"121.43132","lat":"31.19426","category":"656","category_name":"大门","address":"广元西路629"},{"poiid":"B2094654DB65A6FB449D","title":"番禺小区(北门)","lon":"121.42716","lat":"31.19834","category":"656","category_name":"大门","address":"番禺路800弄"}]