[{"poiid":"B2094654DB6AA6FF459C","title":"上海金茂君悦大酒店","lon":"121.50588","lat":"31.23522","category":"213","category_name":"五星级宾馆","address":"浦东新区世纪大道88号金茂大厦53-87楼(近二号线陆家嘴站)"},{"poiid":"B2094757D06FA2FE4493","title":"仁清•东京新怀石料理(金茂店)","lon":"121.50594","lat":"31.23477","category":"95","category_name":"日本料理","address":"浦东新区世纪大道88号金茂大厦裙楼3楼(近二号线陆家嘴站)"},{"poiid":"B2094750D26CA3FE4592","title":"鹿港小镇 正大店","lon":"121.5044996","lat":"31.2354647","category":"91","category_name":"台湾菜","address":"浦东新区陆家嘴西路168号正大广场8楼810室(近东方明珠)"},{"poiid":"B209475CD564A7F84392","title":"上海滩浦东香格里拉店","lon":"121.50058","lat":"31.23634","category":"119","category_name":"商场","address":"浦东富成路33号香格里拉酒店内大堂层"},{"poiid":"B2094750DA6AA4F4489F","title":"一风堂拉面","lon":"121.505241","lat":"31.235317","category":"247","category_name":"餐饮美食","address":"国金商场LG1"},{"poiid":"B2094757D06FA1FA4399","title":"外滩游艇会","lon":"121.50381","lat":"31.23071","category":"260","category_name":"其他","address":"浦东新区滨江大道3510号(近东昌路渡口)"},{"poiid":"B2094757D06FA2FD4698","title":"星巴克 STARBUCKS (金茂大厦店)","lon":"121.505466","lat":"31.235254","category":"65","category_name":"咖啡厅","address":"浦东新区世纪大道88号金茂大厦JLIFE时尚生活中心2楼(近二号线陆家嘴站)"},{"poiid":"B2094757D06FA6FF439A","title":"金茂君悦咖啡厅","lon":"121.50615","lat":"31.23475","category":"268","category_name":"自助","address":"浦东新区世纪大道88号金茂君悦大酒店54楼(近二号线陆家嘴站6号口)"},{"poiid":"B2094757D068ABFD489C","title":"Kaefer滨江壹号","lon":"121.50282273","lat":"31.232060339","category":"47","category_name":"住宅区","address":"浦东新区滨江大道富城路拾步街由隆花园(近花园石桥路)"},{"poiid":"B2094654DA69A7FB4792","title":"拉图餐厅 La Tour","lon":"121.50515","lat":"31.23502","category":"94","category_name":"西餐厅","address":"浦东新区世纪大道88号金茂大厦裙楼5楼(近二号线陆家嘴站)"},{"poiid":"B2094750D268A4FC499B","title":"小金牛越南餐厅","lon":"121.5044996","lat":"31.2354647","category":"99","category_name":"泰国／越南菜品餐厅","address":"浦东新区陆家嘴西路168号正大广场8楼21号铺(近东方明珠)"},{"poiid":"B2094750D26BA1FA4898","title":"玛托 MATTO","lon":"121.5044996","lat":"31.2354647","category":"94","category_name":"西餐厅","address":"浦东新区陆家嘴西路168号正大广场1楼GF50铺(近富城路)"},{"poiid":"B2094757D06FA0FB429F","title":"威尔士健身会所(金茂店)","lon":"121.50616","lat":"31.23493","category":"221","category_name":"健身中心","address":"浦东新区世纪大道88号金茂大厦裙楼生活时尚中心J.LIFE3-4楼(近二号线陆家嘴站)"},{"poiid":"B2094757D068A3F94898","title":"天萃庭","lon":"121.50614","lat":"31.23497","category":"72","category_name":"广东菜","address":"浦东新区世纪大道88号金茂大厦裙楼6楼(近二号线陆家嘴站)"},{"poiid":"B2094654DA69A7FB459E","title":"上海金茂大厦88层观光厅","lon":"121.50562","lat":"31.23524","category":"240","category_name":"国家级景点","address":"上海市浦东新区世纪大道88号金茂大厦"},{"poiid":"B2094757D068A6F4499F","title":"君悦轩(花园石桥店)","lon":"121.50239","lat":"31.23334","category":"72","category_name":"广东菜","address":"浦东新区花园石桥路66号东亚银行金融大厦3楼(近陆家嘴环路)"},{"poiid":"B2094750DB6DA0FC459A","title":"一風堂（IPPUDO SH）","lon":"121.50502","lat":"31.235397","category":"247","category_name":"餐饮美食","address":null},{"poiid":"B2094655D26EA6FF409F","title":"金茂君悦宴会厅","lon":"121.50546","lat":"31.23525","category":"257","category_name":"中餐厅","address":"浦东新区世纪大道88号金茂大厦裙楼2楼(近陆家嘴东路)查看地图"},{"poiid":"B2094757D065A7F9409F","title":"Pizzeria Alla Torre(陆家嘴店)","lon":"121.50102","lat":"31.23548","category":"94","category_name":"西餐厅","address":"上海浦东新区陆家嘴环路165号1楼(富城路名商路)"},{"poiid":"B2094654DB69A7FE409C","title":"日珍日本餐厅","lon":"121.505615054","lat":"31.235306793","category":"95","category_name":"日本料理","address":"浦东新区世纪大道88号金茂君悦大酒店56楼(近二号线陆家嘴站)"},{"poiid":"B2094757D169A3F84892","title":"金茂大厦56楼意庐Cucina","lon":"121.50576283","lat":"31.235074653","category":"500","category_name":"未知分类","address":"上海世纪大道88号"},{"poiid":"B2094757D06BA1FA459D","title":"上海中心","lon":"121.506470701","lat":"31.2333594809","category":"500","category_name":"未知分类","address":"上海银城中路501号"},{"poiid":"B2094757D065A7F54592","title":"Park Hyatt 92F Bar","lon":"121.50675873","lat":"31.234378388","category":"260","category_name":"其他","address":"上海市浦东新区世纪大道"},{"poiid":"B2094751D56DA6F4479F","title":"ifc 一风堂","lon":"121.504761","lat":"31.235413","category":"247","category_name":"餐饮美食","address":"上海浦东新区世纪大道8号国金中心LG1 79-80"},{"poiid":"B2094757D069A4FB489E","title":"普京餐厅","lon":"121.50502014","lat":"31.234098434","category":"500","category_name":"未知分类","address":"上海正大广埸"},{"poiid":"B2094757D06BA1FC429F","title":"科瓦齿科(金茂店)","lon":"121.505166736","lat":"31.235647382","category":"162","category_name":"医院","address":"浦东新区世纪大道88号金茂大厦裙房时尚生活中心3N1-3N3(近二号线陆家嘴站)"},{"poiid":"B2094757D469A2FD499B","title":"天庭 Patio Lounge","lon":"121.505615054","lat":"31.235306793","category":"65","category_name":"咖啡厅","address":"世纪大道88号金茂大厦56楼近东泰路"},{"poiid":"B2094757D06FA6FE499F","title":"肯德基 KFC (浦南店)","lon":"121.50421566","lat":"31.234155366","category":"68","category_name":"快餐厅","address":"浦东新区浦东南路800号(近东昌路)"},{"poiid":"B2094757D66EA1FC4398","title":"东昌路地铁站","lon":"121.506740438","lat":"31.2342075849","category":"36","category_name":"地铁站","address":"上海东昌路"},{"poiid":"B2094757D068A4FF489C","title":"华尔街英语上海金茂中心","lon":"121.50498875064852","lat":"31.234724185492258","category":"190","category_name":"培训机构","address":"浦东新区世纪大道88号金茂大厦3楼(近二号线陆家嘴站)"},{"poiid":"B2094654DB69A0F94493","title":"金茂俱乐部上海餐厅","lon":"121.50546","lat":"31.23525","category":"76","category_name":"上海菜","address":"浦东新区世纪大道88号金茂君悦大酒店86楼(近二号线陆家嘴站)"},{"poiid":"B209475DDB6CA0F94899","title":"糖纸","lon":"121.504615","lat":"31.235277","category":"247","category_name":"餐饮美食","address":"上海市 陆家嘴正大广场3楼"},{"poiid":"B2094750DA68A5F4449D","title":"金贸君悦大酒店","lon":"121.502555","lat":"31.234514","category":"500","category_name":"未知分类","address":null},{"poiid":"B2094757D66CABFA4898","title":"上海银行总行","lon":"121.504295","lat":"31.233946","category":"150","category_name":"银行","address":"浦东新区银城中路168号(近东园路)"},{"poiid":"B2094757D16EA5FA4293","title":"安薇塔","lon":"121.502328738","lat":"31.2342943867","category":"500","category_name":"未知分类","address":"上海市 国金中心 LG2"},{"poiid":"B2094757DA64A1F54393","title":"上海中心大厦","lon":"121.504746","lat":"31.233757","category":"252","category_name":"楼宇机构","address":"浦东新区银城中路501号(近花园石桥路)"},{"poiid":"B2094655D36DA0FB419A","title":"银城中路陆家嘴环路(环球中心)","lon":"121.50436","lat":"31.23193","category":"38","category_name":"公交车站","address":""},{"poiid":"B2094757D66CA0FD479E","title":"松鹤楼游船码头","lon":"121.502754738","lat":"31.2317393323","category":"500","category_name":"未知分类","address":"上海中山东二路505号"},{"poiid":"B2094757D069A3F4419C","title":"港泰风茶餐厅","lon":"121.50589822","lat":"31.230998536","category":"72","category_name":"广东菜","address":"浦东新区东昌路540号(近浦东南路)"},{"poiid":"B2094654DB6BABFC429E","title":"上海鹏利辉盛阁公寓(银城中路)","lon":"121.50334","lat":"31.23164","category":"47","category_name":"住宅区","address":"上海市浦东新区陆家嘴银城中路600弄1号（陆家嘴环路）"},{"poiid":"B2094654DA6EA4FC489D","title":"埃力生国际大厦","lon":"121.502","lat":"31.2333","category":"46","category_name":"楼宇","address":"上海市黄浦区南京东路409-459号"},{"poiid":"B2094757D069A4F4499A","title":"金茂时尚生活中心","lon":"121.50573","lat":"31.23498","category":"119","category_name":"商场","address":"浦东新区世纪大道88号金茂大厦裙楼内(近陆家嘴东路)"},{"poiid":"B2094753D46AA6F4429E","title":"中国海关","lon":"121.504631","lat":"31.232267","category":"500","category_name":"未知分类","address":"上海市 陆家嘴西路"},{"poiid":"B2094757D068A7FB439D","title":"盛大金磐","lon":"121.50597524","lat":"31.231531638","category":"500","category_name":"未知分类","address":"上海浦东新区东泰路200弄"},{"poiid":"B2094757D16FAAF4469F","title":"小城故乡台湾牛肉面（正大店）","lon":"121.50504303","lat":"31.234155654","category":"247","category_name":"餐饮美食","address":"上海陆家嘴正大广场b2楼"},{"poiid":"B2094757D06FABF54699","title":"都恩客(国金中心店)","lon":"121.503481707","lat":"31.2351654898","category":"112","category_name":"糕饼店","address":"浦东新区世纪大道8号国金中心商场LG2楼(近东泰路)"},{"poiid":"B2094753D568A7FF469E","title":"金牌外婆家","lon":"121.50476","lat":"31.235616","category":"247","category_name":"餐饮美食","address":"上海市 国金"},{"poiid":"B2094757D16FA1FA4693","title":"安居客","lon":"121.50455474","lat":"31.233558654","category":"500","category_name":"未知分类","address":"上海浦东陆家嘴环路166号未来资产大厦11楼"},{"poiid":"B2094757D065A7F9469C","title":"花旗大厦花旗银行","lon":"121.50367547","lat":"31.231474696","category":"500","category_name":"未知分类","address":"上海市"},{"poiid":"B2094757D76DAAFD499E","title":"The Grill 烧烤屋","lon":"121.505615054","lat":"31.235306793","category":"269","category_name":"烧烤","address":"世纪大道88号金茂大厦56楼近花园石桥路"},{"poiid":"B2094757D168A4FD4592","title":"船长2号","lon":"121.50327773","lat":"31.23165333","category":"247","category_name":"餐饮美食","address":"黄浦区延安东路外滩船长号游轮码头(中山东二路中山东一路)"},{"poiid":"B2094753D46BA2F94399","title":"广州蕉叶","lon":"121.505943","lat":"31.232324","category":"247","category_name":"餐饮美食","address":"上海市 陆家嘴西路168号正大广场7楼"},{"poiid":"B2094654DA69A7FB4793","title":"金茂音乐厅","lon":"121.50513","lat":"31.23476","category":"179","category_name":"音乐厅","address":"浦东新区世纪大道88号金茂大厦裙楼1楼6号门(近陆家嘴东路)"},{"poiid":"B2094753D66EA2F54593","title":"南京路步行街","lon":"121.50534","lat":"31.234952","category":"500","category_name":"未知分类","address":"上海市 南京西路"},{"poiid":"B2094757D164A3FB4699","title":"望香园（正大店）","lon":"121.50157181","lat":"31.233032489","category":"247","category_name":"餐饮美食","address":"上海正大广场四层"},{"poiid":"B209475CD76DA7FC469B","title":"樂新皇朝","lon":"121.502548","lat":"31.23476","category":"500","category_name":"未知分类","address":"上海市 上海ifc商場L3-36"},{"poiid":"B2094750D26EA7F8469C","title":"金茂粤珍轩餐厅","lon":"121.505615054","lat":"31.235306793","category":"72","category_name":"广东菜","address":"世纪大道88号金茂大厦55楼近东泰路"},{"poiid":"B2094654DB69A0FA4599","title":"金茂君悦精饼屋","lon":"121.505615054","lat":"31.235306793","category":"67","category_name":"甜品店","address":"浦东新区世纪大道88号金茂君悦大酒店1楼3号门(近二号线陆家嘴站)"},{"poiid":"B2094757D16AAAF8409A","title":"C 车","lon":"121.504373738","lat":"31.2322783437","category":"249","category_name":"购物服务","address":null},{"poiid":"B2094655D265A1FC4999","title":"伊藤家(陆家嘴店)","lon":"121.50519","lat":"31.23424","category":"95","category_name":"日本料理","address":"花园石桥路178号(近银城南路)"},{"poiid":"B2094655D26BA1F44092","title":"陆家嘴环路东泰路","lon":"121.5062","lat":"31.23263","category":"38","category_name":"公交车站","address":""},{"poiid":"B2094757D16CA3FD4698","title":"環球金融中心56樓","lon":"121.50571173","lat":"31.234791397","category":"46","category_name":"楼宇","address":"上海浦東新區世紀大道100號"},{"poiid":"B2094757D168A1FF4893","title":"金茂君悦CLOUD NINE","lon":"121.504519738","lat":"31.2353954102","category":"500","category_name":"未知分类","address":"上海市浦东新区世纪大道88号"},{"poiid":"B2094757D064A3FA419E","title":"Toys 'R Us","lon":"121.50372314","lat":"31.234636306","category":"500","category_name":"未知分类","address":"上海正大广场"},{"poiid":"B2094757D568A5F44292","title":"鹏利海景公寓","lon":"121.5034558","lat":"31.23157278","category":"47","category_name":"住宅区","address":"上海浦东新区东昌路、银城路交界处"},{"poiid":"B2094655D36CA7FD429C","title":"花园石桥路银城中路","lon":"121.50357","lat":"31.23462","category":"38","category_name":"公交车站","address":""},{"poiid":"B2094751D56FABFD4393","title":"百度营销体验中心","lon":"121.5045327090454","lat":"31.233885419266173","category":"263","category_name":"公司","address":"浦东新区银城中路太平洋金融大厦22楼"},{"poiid":"B209475CD265A4F84098","title":"九重天酒廊","lon":"121.50574","lat":"31.23525","category":"172","category_name":"酒吧","address":"世纪大道88号金茂君悦大酒店87楼(近二号线陆家嘴站)"},{"poiid":"B209475CD26DA4FD4099","title":"海洋馆","lon":"121.504981","lat":"31.235681","category":"247","category_name":"餐饮美食","address":"上海市 陆家嘴"},{"poiid":"B2094750DB68A5FA489B","title":"韩林烧烤（正大店）","lon":"121.503669","lat":"31.234699","category":"247","category_name":"餐饮美食","address":null},{"poiid":"B2094752DB69A4FC439B","title":"陆家嘴太平金融大厦","lon":"121.502619","lat":"31.234456","category":"500","category_name":"未知分类","address":"上海市 银城中路488号"},{"poiid":"B2094753DA64A2FB409D","title":"mizzi","lon":"121.504486","lat":"31.23162","category":"500","category_name":"未知分类","address":"上海市 滨江大道"},{"poiid":"B2094654DB64A7F9439A","title":"粤珍轩(浦东店)","lon":"121.50546","lat":"31.23525","category":"72","category_name":"广东菜","address":"浦东新区世纪大道88号金茂君悦大酒店55楼(近二号线陆家嘴站)"},{"poiid":"B209475CD765A6FA469B","title":"华公馆","lon":"121.502799","lat":"31.234403","category":"247","category_name":"餐饮美食","address":"上海市 国金"},{"poiid":"B2094655D26AA6FE449F","title":"每日新鲜水果吧 金茂店 Fresh Everday","lon":"121.505615054","lat":"31.235306793","category":"113","category_name":"冷饮店","address":"浦东新区世纪大道88号金茂君悦大酒店1楼(近二号线陆家嘴站)"},{"poiid":"B2094757D169A3FD4899","title":"烟波亭(东亚银行)","lon":"121.50180473","lat":"31.23399238","category":"68","category_name":"快餐厅","address":"浦东新区花园石桥路66号东亚银行大厦2楼(近陆家嘴环路)"},{"poiid":"B2094654DB6AA7FD449F","title":"食在56","lon":"121.50546","lat":"31.23525","category":"95","category_name":"日本料理","address":"浦东新区世纪大道2号金茂君悦大酒店56楼(近二号线陆家嘴站)"},{"poiid":"B2094750DB68A5F4429C","title":"香格里拉","lon":"121.503128","lat":"31.23508","category":"247","category_name":"餐饮美食","address":"、"},{"poiid":"B2094654DB69ABF4429E","title":"苏浙汇(金茂店)","lon":"121.50546","lat":"31.23525","category":"76","category_name":"上海菜","address":"浦东新区世纪大道88号金茂大厦裙楼6楼"},{"poiid":"B2094750D665A4FE4698","title":"太平洋咖啡(太平金融大厦店)","lon":"121.504","lat":"31.2348","category":"260","category_name":"其他","address":"浦东新区银城中路488号太平金融大厦1楼03商铺(花园石桥路)"},{"poiid":"B2094757D165ABFD499A","title":"龟房","lon":"121.50513458","lat":"31.234060287","category":"500","category_name":"未知分类","address":"上海四川北路武进路"},{"poiid":"B2094753D46AA0F4479A","title":"米子mizzi","lon":"121.50605","lat":"31.232311","category":"500","category_name":"未知分类","address":"上海市 浦东新区富城路182号"},{"poiid":"B2094752DA6AAAF8499F","title":"上海环球金融大厦","lon":"121.504135","lat":"31.231482","category":"252","category_name":"楼宇机构","address":"上海市 上海市陆家嘴Z4-1号"},{"poiid":"B2094757DB6EAAFA479A","title":"上上谦","lon":"121.5066610161229","lat":"31.23174329398022","category":"500","category_name":"未知分类","address":"新梅"},{"poiid":"B2094654DA69A7FB4799","title":"21Gem克拉钻中心","lon":"121.50515","lat":"31.23501","category":"183","category_name":"展览馆","address":"世纪大道88号金茂时尚生活中心5"},{"poiid":"B209475DD668A3F8489A","title":"Blue Frog","lon":"121.502326","lat":"31.234304","category":"247","category_name":"餐饮美食","address":"上海市 陆家嘴"},{"poiid":"B209475CD46AA1F5479D","title":"华公馆","lon":"121.50476","lat":"31.235757","category":"247","category_name":"餐饮美食","address":"上海市 国金中心"},{"poiid":"B2094655D36CA6FF4198","title":"富城路东昌路(渡口)","lon":"121.50296","lat":"31.23103","category":"38","category_name":"公交车站","address":""},{"poiid":"B2094751D264ABF8489C","title":"谷歌广告上海有限公司","lon":"121.50266","lat":"31.2339101","category":"252","category_name":"楼宇机构","address":"浦东新区世纪大道100号环球金融中心"},{"poiid":"B2094655D36DA6FF449E","title":"东昌路","lon":"121.50382","lat":"31.23039","category":"38","category_name":"公交车站","address":""},{"poiid":"B2094757D16FABFE409F","title":"陆家嘴环路 汇亚大厦","lon":"121.505749","lat":"31.235251","category":"500","category_name":"未知分类","address":"上海苏格兰皇家银行"},{"poiid":"B2094655D36CA6FA4692","title":"东泰路花园石桥路(金茂)","lon":"121.50672","lat":"31.23404","category":"38","category_name":"公交车站","address":""},{"poiid":"B209475CD66BA0F4489E","title":"Ashley","lon":"121.50283","lat":"31.234369","category":"500","category_name":"未知分类","address":"上海市 正大广场8F"},{"poiid":"B2094757D568A0F8479C","title":"阿露酒吧","lon":"121.5051889","lat":"31.2342375","category":"260","category_name":"其他","address":"浦东新区花园石桥路178号(金茂大厦3号门对面)"},{"poiid":"B2094655D268A4F9409D","title":"东亚银行(中国)(陆家嘴环路)","lon":"121.50238","lat":"31.2339","category":"150","category_name":"银行","address":""},{"poiid":"B2094654DB6AA7FA419B","title":"美丽田园(金茂店)","lon":"121.50516","lat":"31.23501","category":"148","category_name":"美容美发店","address":"世纪大道88号金茂时尚生活中心4"},{"poiid":"B2094654DB65A4FE4693","title":"轮渡广场","lon":"121.50301","lat":"31.23069","category":"201","category_name":"城市广场","address":""},{"poiid":"B2094757D16FA5FC4992","title":"东亚银行金融大厦前台","lon":"121.50287273","lat":"31.23446739","category":"500","category_name":"未知分类","address":"上海花园石桥66号东亚银行金融大厦大堂前台。"},{"poiid":"B2094757D164A6FF449F","title":"罗森便利（东亚金融大厦）","lon":"121.50611447","lat":"31.232377734","category":"249","category_name":"购物服务","address":"上海花园石桥路66号"},{"poiid":"B2094757D169A1FE479D","title":"金茂大厦53楼","lon":"121.50576018","lat":"31.235325248","category":"500","category_name":"未知分类","address":"上海世纪大道88号"},{"poiid":"B2094655D26AA2F8429D","title":"君悦大酒店行政酒廊","lon":"121.50588","lat":"31.23522","category":"260","category_name":"其他","address":"浦东新区世纪大道88号金茂君悦大酒店83楼(近二号线陆家嘴站)"},{"poiid":"B2094654DA6FA7FF479B","title":"上海鹏利辉盛阁公寓(东门)","lon":"121.50374","lat":"31.23191","category":"656","category_name":"大门","address":"上海市浦东新区陆家嘴银城中路600弄1号（陆家嘴环路）"},{"poiid":"B2094757D66EA4FE429E","title":"正大广场健身房","lon":"121.50501526","lat":"31.235418611","category":"148","category_name":"美容美发店","address":"上海陆家嘴正大广场"},{"poiid":"B2094750D768A6F4439D","title":"SnowBar","lon":"121.502","lat":"31.2318","category":"269","category_name":"烧烤","address":"滨江一号滨江富城路拾步街由隆花园(近石桥路)"},{"poiid":"B2094757D065A2FA4193","title":"金茂君悦53楼staff canteen","lon":"121.505257","lat":"31.234766","category":"500","category_name":"未知分类","address":"上海世纪大道88号"},{"poiid":"B2094753D56CA7FD4293","title":"TGI Fridays","lon":"121.502578","lat":"31.234197","category":"500","category_name":"未知分类","address":"上海市 富城路16号"},{"poiid":"B2094757D16FA2FC419C","title":"华一银行","lon":"121.50234813","lat":"31.233630952","category":"150","category_name":"银行","address":"浦东新区浦东南路360号新上海国际大厦1楼(东城路浦东南路)"},{"poiid":"B2094654DA69A7FB459F","title":"金茂演示厅","lon":"121.50562","lat":"31.23524","category":"183","category_name":"展览馆","address":"世纪大道88号金茂大厦"},{"poiid":"B2094757D065A4F44998","title":"上海轮渡","lon":"121.50332107","lat":"31.230911647","category":"260","category_name":"其他","address":"上海浦东--浦西"},{"poiid":"B2094655D269ABFC429A","title":"金茂君悦大酒店健身中心","lon":"121.50546","lat":"31.23525","category":"247","category_name":"餐饮美食","address":"浦东新区世纪大道88号金茂君悦大酒店57楼"},{"poiid":"B2094753D569A4FB499D","title":"食代馆","lon":"121.504936","lat":"31.235589","category":"247","category_name":"餐饮美食","address":"上海市 正大广场B2"},{"poiid":"B209475CD668A3F54792","title":"上海海洋水族馆","lon":"121.504692","lat":"31.235193","category":"249","category_name":"购物服务","address":"上海市 陆家嘴环路1388号"},{"poiid":"B2094757D164A1FC4593","title":"金茂大厦2楼拉图","lon":"121.505896738","lat":"31.2351474049","category":"500","category_name":"未知分类","address":"上海市浦东新区世纪大道"},{"poiid":"B2094655D265A1FC4498","title":"eddy’sfocus","lon":"121.50562","lat":"31.23525","category":"247","category_name":"餐饮美食","address":"世纪大道88号金贸大厦6层"},{"poiid":"B2094654DA6FA7FF469E","title":"汤臣一品(东门)","lon":"121.50225","lat":"31.23289","category":"656","category_name":"大门","address":""},{"poiid":"B2094753D064A4F8449F","title":"孙平形象设计(金茂店)","lon":"121.50574","lat":"31.23525","category":"148","category_name":"美容美发店","address":"浦东新区世纪大道88号金茂大厦金茂时尚生活中心4楼(近二号线陆家嘴站)"},{"poiid":"B2094757D16CA2F4449A","title":"NaNa屋里厢","lon":"121.505884","lat":"31.23503","category":"247","category_name":"餐饮美食","address":"上海秘密"},{"poiid":"B2094655D264A7FA439E","title":"中粮·海景壹号(西门)","lon":"121.5029","lat":"31.23202","category":"656","category_name":"大门","address":""},{"poiid":"B2094757DA6FA3F4479B","title":"永达陆虎捷豹展厅","lon":"121.503273100002","lat":"31.2346271000001","category":"249","category_name":"购物服务","address":"浦东新区花园石桥路"},{"poiid":"B2094757D16AA1FB499D","title":"ochirly(正大广场店)","lon":"121.50467173","lat":"31.235206406","category":"500","category_name":"未知分类","address":"上海陆家嘴"},{"poiid":"B2094654DA69A1F5439A","title":"盛大金磐(西门)","lon":"121.50459","lat":"31.23167","category":"656","category_name":"大门","address":"东泰路200弄"},{"poiid":"B2094751D56BA0FD419D","title":"黄浦江上","lon":"121.502458","lat":"31.235053","category":"627","category_name":"一般地点标志","address":"黄浦江"},{"poiid":"B2094654DA6FA7FF469D","title":"上海鹏利辉盛阁公寓(西门)","lon":"121.50294","lat":"31.23202","category":"656","category_name":"大门","address":"上海市浦东新区陆家嘴银城中路600弄1号（陆家嘴环路）"},{"poiid":"B2094750DB6CA7FC459B","title":"金茂大厦88层观光厅","lon":"121.50505","lat":"31.235292","category":"500","category_name":"未知分类","address":null},{"poiid":"B2094757D165A6FE409D","title":"富城路拾步街","lon":"121.50227","lat":"31.231618","category":"500","category_name":"未知分类","address":"上海富城路拾步街"},{"poiid":"B2094753DA6BA5FF4299","title":"东方明珠","lon":"121.504028","lat":"31.230518","category":"500","category_name":"未知分类","address":"上海市 上海市外滩"},{"poiid":"B2094757D168A3FB479C","title":"恒泰大通理财中心金茂旗舰店","lon":"121.506041704","lat":"31.2343574822","category":"500","category_name":"未知分类","address":"上海世纪大道88号金茂大厦裙楼2C-06,07"},{"poiid":"B2094757D165A3F94599","title":"金茂大厦停车场","lon":"121.50610421","lat":"31.234582238","category":"500","category_name":"未知分类","address":"上海浦东新区世纪大道88号"},{"poiid":"B2094757D064AAFB499B","title":"东华之星金茂大厦展厅","lon":"121.505562","lat":"31.235245","category":"500","category_name":"未知分类","address":"上海金茂大厦裙楼"},{"poiid":"B2094757D66DA5F4489F","title":"公主馋(桃林路店)","lon":"121.50288873","lat":"31.234655394","category":"500","category_name":"未知分类","address":"上海市浦东新区桃林路1111号 近灵山路"},{"poiid":"B2094757D16BA4F4419F","title":"中图书店 BOOKAZINE","lon":"121.50530673","lat":"31.234808397","category":"249","category_name":"购物服务","address":"浦东新区世纪大道100号环球金融中心3楼(近东泰路)"},{"poiid":"B2094757D164A5FA409A","title":"建设银行金茂支行","lon":"121.50578273","lat":"31.234865398","category":"150","category_name":"银行","address":"上海市浦东新区世纪大道88号金茂大厦底楼"},{"poiid":"B2094753DB68A4FA489A","title":"Scena","lon":"121.506011","lat":"31.234724","category":"500","category_name":"未知分类","address":"上海市 上海丽思卡尔顿酒店52楼"},{"poiid":"B2094753D469ABFD469E","title":"乐新皇朝","lon":"121.503997","lat":"31.235292","category":"500","category_name":"未知分类","address":"上海市 国金"},{"poiid":"B2094757D66DA2FA499A","title":"可丽娜 美甲","lon":"121.50382673","lat":"31.235047402","category":"148","category_name":"美容美发店","address":"浦东新区商城路800号斯米克大厦1楼(近南泉北路)"},{"poiid":"B2094757D06AABF8469A","title":"Home Sweet Home","lon":"121.505163","lat":"31.235023","category":"500","category_name":"未知分类","address":"上海Secret Location"},{"poiid":"B2094750DB65A5FC4492","title":"上海寰球金融中心100楼观光厅","lon":"121.506111","lat":"31.234416","category":"627","category_name":"一般地点标志","address":null},{"poiid":"B209475DD26EA1F4489D","title":"PASTA MANIA","lon":"121.501869","lat":"31.234209","category":"500","category_name":"未知分类","address":"上海市 正大广场3F"},{"poiid":"B2094753DB6AA3FE459C","title":"正大广场","lon":"121.504943","lat":"31.235574","category":"500","category_name":"未知分类","address":"上海市 陆家嘴西路168号"},{"poiid":"B2094654DB64A6FD449B","title":"中国银行金茂大厦支行","lon":"121.50561","lat":"31.23525","category":"150","category_name":"银行","address":""},{"poiid":"B2094757D66CA6FC449E","title":"惠普印像玩家影像中心(金茂店)","lon":"121.50575","lat":"31.23497","category":"500","category_name":"未知分类","address":"浦东新区世纪大道88号金茂大厦裙楼时尚生活中心4C-11(东泰路世纪大道)"},{"poiid":"B2094757D66DA5F94793","title":"JUNO HAIR","lon":"121.5045","lat":"31.235465","category":"500","category_name":"未知分类","address":"上海闵行区曹宝路1574号易买得3015室"},{"poiid":"B2094757D065A3FD429E","title":"messe frankfurt","lon":"121.50547553","lat":"31.235253007","category":"500","category_name":"未知分类","address":"上海银城中路488号"},{"poiid":"B2094655D26DA1F84493","title":"法兴银行","lon":"121.50561","lat":"31.23524","category":"150","category_name":"银行","address":"浦东新区世纪大道88号金茂大厦裙楼1楼(近陆家嘴东路)"},{"poiid":"B2094757D16AA6F9499B","title":"秋风之墩主题录音棚","lon":"121.50322853","lat":"31.230609408","category":"500","category_name":"未知分类","address":"上海南京西路580号南证大厦3007室"},{"poiid":"B2094655D26DA1FE489F","title":"荷兰银行上海分行理财中心","lon":"121.5056","lat":"31.23524","category":"150","category_name":"银行","address":""},{"poiid":"B2094757D169A5F44199","title":"贝克·麦坚时律师事务所","lon":"121.505311","lat":"31.235344","category":"623","category_name":"律师事务所","address":"上海浦东新区世纪大道88号"},{"poiid":"B2094757D16AABFF439B","title":"静安区工商局","lon":"121.50566973","lat":"31.235312408","category":"500","category_name":"未知分类","address":"上海胶州路58号"},{"poiid":"B2094757D568A1F8479F","title":"浦尽娱乐中心","lon":"121.505615","lat":"31.23525","category":"248","category_name":"生活娱乐","address":"世纪大道88号金茂大厦3层"},{"poiid":"B2094654DA69A1F5409C","title":"盛大金磐(东门)","lon":"121.50701","lat":"31.23214","category":"656","category_name":"大门","address":"东泰路200弄"}]