[{"poiid":"B2094654DB65A4FE4692","title":"上海新国际博览中心","lon":"121.56658","lat":"31.20897","category":"183","category_name":"展览馆","address":"浦东新区龙阳路2345号(近芳甸路)"},{"poiid":"B2094757D068A4F54298","title":"上海新国际展览中心","lon":"121.56696397","lat":"31.207406526","category":"183","category_name":"展览馆","address":"上海金桥路"},{"poiid":"B2094757D06FA1FD479D","title":"好乐迪量贩式KTV(张江店)","lon":"121.5827847","lat":"31.199233375","category":"170","category_name":"KTV","address":"上海张江碧波路635号传奇广场2楼"},{"poiid":"B2094757D069A2F84298","title":"上海轨道交通龙阳路基地","lon":"121.56873208","lat":"31.2043952824","category":"260","category_name":"其他","address":"上海市浦东新区龙阳路2520号"},{"poiid":"B2094757D06FA2F8499D","title":"中国建设银行上海市分行培训中心","lon":"121.56188201","lat":"31.192485809","category":"150","category_name":"银行","address":"上海申波路292号"},{"poiid":"B2094654DA6AA0FF4593","title":"聚龙家园","lon":"121.56866","lat":"31.196918","category":"47","category_name":"住宅区","address":"上海浦东新区芳华路916弄"},{"poiid":"B2094757DB6CA7FE419B","title":"地铁2号线龙阳路站","lon":"121.564178","lat":"31.20425","category":"627","category_name":"一般地点标志","address":"地铁2号线龙阳路站"},{"poiid":"B2094654DA6AA0FF4392","title":"龙沟新苑","lon":"121.56876","lat":"31.197325","category":"47","category_name":"住宅区","address":"芳华路933弄1-86号"},{"poiid":"B2094757D06FAAF8489F","title":"中国建设银行信用卡中心","lon":"121.56121797","lat":"31.193057191","category":"150","category_name":"银行","address":"上海申波路292号"},{"poiid":"B2094654DA6AA0FF449A","title":"情义酒家","lon":"121.57077","lat":"31.19758","category":"257","category_name":"中餐厅","address":"浦东新区芳华路1009号"},{"poiid":"B2094757D164AAFD469A","title":"上海处男集散中心","lon":"121.57037727","lat":"31.200664069","category":"500","category_name":"未知分类","address":"上海lallaa"},{"poiid":"B2094757D068ABFF489D","title":"天天渔港(永达店)","lon":"121.563","lat":"31.20427","category":"72","category_name":"广东菜","address":"浦东新区龙阳路2277号(兰花路石楠路)"},{"poiid":"B2094654DA6AA0FF4499","title":"浦东新区花灵汽车修理厂","lon":"121.57138","lat":"31.19854","category":"159","category_name":"汽车维修","address":""},{"poiid":"B2094757D069A5F44393","title":"交通银行太平洋信用卡中心","lon":"121.577638325","lat":"31.1993366082","category":"500","category_name":"未知分类","address":"上海市浦东新区松涛路80号"},{"poiid":"B2094757D16DAAFF499B","title":"地铁七号线龙阳路辅助停车场","lon":"121.57004697","lat":"31.199705346","category":"500","category_name":"未知分类","address":"上海浦东龙阳路2520号"},{"poiid":"B2094757D56CA1FD4999","title":"兄弟盱眙龙虾 芳华路店","lon":"121.55951","lat":"31.19597","category":"68","category_name":"快餐厅","address":"浦东新区芳华路452号(近乔家栅)"},{"poiid":"B2094757D16DA4F5499F","title":"嘉臣爱伊幼儿园","lon":"121.56967417","lat":"31.200210658","category":"57","category_name":"幼儿园","address":"上海市闵行区莘松路康城内"},{"poiid":"B2094654DA6AA5F84793","title":"上海小蜜蜂旅馆有限公司","lon":"121.57049","lat":"31.19716","category":"263","category_name":"公司","address":"浦东新区芳华路1010号"},{"poiid":"B2094757D168A6F9409F","title":"罗山路高架","lon":"121.57910747","lat":"31.194238819","category":"500","category_name":"未知分类","address":"上海高架"},{"poiid":"B2094654DA6AA6FC419E","title":"上海市张江高科技园区(碧波路)","lon":"121.58106","lat":"31.20162","category":"45","category_name":"产业园区","address":"碧波路572弄115号-24幢"},{"poiid":"B2094757D068A6FF469F","title":"培花小区","lon":"121.56798767714","lat":"31.201315129402","category":"500","category_name":"未知分类","address":"上海白杨路芳草路"},{"poiid":"B2094757D064A5F8429E","title":"百度上海研发中心","lon":"121.58147589","lat":"31.1990874056","category":"46","category_name":"楼宇","address":"上海浦东新区张江高科微电子港4号楼"},{"poiid":"B2094757D66FA0FF459D","title":"全家便利浦锦店","lon":"121.570336375","lat":"31.2006659693","category":"500","category_name":"未知分类","address":"上海浦锦路309号一楼"},{"poiid":"B2094752D36EA2FD439E","title":"上海浦东机场","lon":"121.562057","lat":"31.194992","category":"500","category_name":"未知分类","address":null},{"poiid":"B2094654DB6BABFA449B","title":"上海新国际博览中心(南门)","lon":"121.5652","lat":"31.20455","category":"183","category_name":"展览馆","address":"龙阳路2345"},{"poiid":"B2094654DA6AA0FF4193","title":"惠德新邨","lon":"121.569","lat":"31.2027","category":"47","category_name":"住宅区","address":"芳华路573弄1-35号"},{"poiid":"B2094757D664ABFC4093","title":"绝味鸭脖 申波路店","lon":"121.564841054","lat":"31.196708793","category":"68","category_name":"快餐厅","address":"浦东新区申波路61号(芳华路口)"},{"poiid":"B2094757D06BA7FB4993","title":"上海新国际博览中心W1展馆","lon":"121.569630975","lat":"31.2042854539","category":"500","category_name":"未知分类","address":"上海市浦东新区龙阳路2345号"},{"poiid":"B2094757D06BA2FE449B","title":"芳雅苑","lon":"121.56347","lat":"31.196285","category":"252","category_name":"楼宇机构","address":"芳华路630弄，芳华路660弄"},{"poiid":"B2094655D26FA6FD4198","title":"上海新国际博览中心(西二门)","lon":"121.56411","lat":"31.20592","category":"183","category_name":"展览馆","address":""},{"poiid":"B2094655D36CA6F9419E","title":"芳华路申波路","lon":"121.56275","lat":"31.19632","category":"38","category_name":"公交车站","address":""},{"poiid":"B2094757D06FA7F54898","title":"上海轨道交通龙阳路实训基地","lon":"121.562013193","lat":"31.2046851723","category":"190","category_name":"培训机构","address":"上海浦东龙阳路2520号"},{"poiid":"B2094757D465A4FD479E","title":"重庆鸡公煲 芳华路店","lon":"121.560450054","lat":"31.196370793","category":"247","category_name":"餐饮美食","address":"浦东新区芳华路861号(近629路终点站)"},{"poiid":"B2094757D16DABF8459C","title":"上海磁浮交通发展有限公司","lon":"121.56680811","lat":"31.204243245","category":"46","category_name":"楼宇","address":"上海市浦东新区龙阳路2520号"},{"poiid":"B2094757D069ABF4489F","title":"上海浦东国际机场快件监管中心","lon":"121.5616085","lat":"31.192903714","category":"46","category_name":"楼宇","address":"上海浦东机场海天五路600#"},{"poiid":"B2094655D36DA7FF4993","title":"中界","lon":"121.5673","lat":"31.19024","category":"38","category_name":"公交车站","address":""},{"poiid":"B2094757D06AAAFE4398","title":"坤儒体育馆","lon":"121.56925987","lat":"31.187941651","category":"633","category_name":"商务服务类公司","address":"浦东新区镇中心路185号(近高科西路)"},{"poiid":"B2094750D768A7F44092","title":"超级鸡车(龙阳路店)","lon":"121.563","lat":"31.2021","category":"68","category_name":"快餐厅","address":"浦东新区龙阳路2000号107室(近地铁7号线龙阳路站)"},{"poiid":"B2094752DA6FA7FF489C","title":"上海新国际博览中心","lon":"121.560756","lat":"31.198895","category":"500","category_name":"未知分类","address":"上海市 龙阳路"},{"poiid":"B2094654DA6AA5F8489C","title":"华新杂货店(芳华路)","lon":"121.56398","lat":"31.19662","category":"117","category_name":"便民商店/便利店","address":""},{"poiid":"B2094655D265A5F4499A","title":"磁悬浮指挥部综合办公楼","lon":"121.56677","lat":"31.20495","category":"46","category_name":"楼宇","address":"龙阳路2502号"},{"poiid":"B2094757DA6AA5F44493","title":"pptv","lon":"121.5775148","lat":"31.2016526","category":"170","category_name":"KTV","address":"碧波路690号"},{"poiid":"B2094757D664A4F9489F","title":"重庆吴记麻辣烫","lon":"121.56213","lat":"31.196484","category":"68","category_name":"快餐厅","address":"浦东新区芳华路580弄对面(芳华路申波路)"},{"poiid":"B2094757D068ABFA4598","title":"张江体育休闲中心","lon":"121.57973","lat":"31.20426","category":"76","category_name":"上海菜","address":"浦东新区张江高科技园区春晓路81号(近景明路)"},{"poiid":"B2094757D069AAFD489E","title":"金蝶软件","lon":"121.581937","lat":"31.197646","category":"249","category_name":"购物服务","address":"上海浦东新区晨晖路88号"},{"poiid":"B2094654DA6AA1F8489D","title":"培花新村","lon":"121.56741","lat":"31.192274","category":"47","category_name":"住宅区","address":"川北公路380弄"},{"poiid":"B2094757D065A6F44492","title":"通略驾校(浦东本部)","lon":"121.57996397","lat":"31.199699346","category":"253","category_name":"校园生活","address":"浦东新区景明路728号(近晨辉路)"},{"poiid":"B2094757D064AAFC489B","title":"北蔡家具广场","lon":"121.57519","lat":"31.19153","category":"123","category_name":"家具建材市场","address":"浦东新区高科西路4037号"},{"poiid":"B2094654DA6AA0FF489A","title":"花木久远小区","lon":"121.56032","lat":"31.19588","category":"47","category_name":"住宅区","address":"芳华路478弄1-86号"},{"poiid":"B2094654DA6AA0FF499C","title":"申波苑","lon":"121.56185","lat":"31.195436","category":"47","category_name":"住宅区","address":"申波路83弄1-21号"},{"poiid":"B2094654DB65A4FE4692","title":"上海新国际博览中心","lon":"121.56658","lat":"31.20897","category":"183","category_name":"展览馆","address":"浦东新区龙阳路2345号(近芳甸路)"},{"poiid":"B2094757D068A4F54298","title":"上海新国际展览中心","lon":"121.56696397","lat":"31.207406526","category":"183","category_name":"展览馆","address":"上海金桥路"},{"poiid":"B2094757D06FA1FD479D","title":"好乐迪量贩式KTV(张江店)","lon":"121.5827847","lat":"31.199233375","category":"170","category_name":"KTV","address":"上海张江碧波路635号传奇广场2楼"},{"poiid":"B2094757D069A2F84298","title":"上海轨道交通龙阳路基地","lon":"121.56873208","lat":"31.2043952824","category":"260","category_name":"其他","address":"上海市浦东新区龙阳路2520号"},{"poiid":"B2094757D06FA2F8499D","title":"中国建设银行上海市分行培训中心","lon":"121.56188201","lat":"31.192485809","category":"150","category_name":"银行","address":"上海申波路292号"},{"poiid":"B2094654DA6AA0FF4593","title":"聚龙家园","lon":"121.56866","lat":"31.196918","category":"47","category_name":"住宅区","address":"上海浦东新区芳华路916弄"},{"poiid":"B2094757DB6CA7FE419B","title":"地铁2号线龙阳路站","lon":"121.564178","lat":"31.20425","category":"627","category_name":"一般地点标志","address":"地铁2号线龙阳路站"},{"poiid":"B2094654DA6AA0FF4392","title":"龙沟新苑","lon":"121.56876","lat":"31.197325","category":"47","category_name":"住宅区","address":"芳华路933弄1-86号"},{"poiid":"B2094757D06FAAF8489F","title":"中国建设银行信用卡中心","lon":"121.56121797","lat":"31.193057191","category":"150","category_name":"银行","address":"上海申波路292号"},{"poiid":"B2094654DA6AA0FF449A","title":"情义酒家","lon":"121.57077","lat":"31.19758","category":"257","category_name":"中餐厅","address":"浦东新区芳华路1009号"},{"poiid":"B2094757D164AAFD469A","title":"上海处男集散中心","lon":"121.57037727","lat":"31.200664069","category":"500","category_name":"未知分类","address":"上海lallaa"},{"poiid":"B2094757D068ABFF489D","title":"天天渔港(永达店)","lon":"121.563","lat":"31.20427","category":"72","category_name":"广东菜","address":"浦东新区龙阳路2277号(兰花路石楠路)"},{"poiid":"B2094654DA6AA0FF4499","title":"浦东新区花灵汽车修理厂","lon":"121.57138","lat":"31.19854","category":"159","category_name":"汽车维修","address":""},{"poiid":"B2094757D069A5F44393","title":"交通银行太平洋信用卡中心","lon":"121.577638325","lat":"31.1993366082","category":"500","category_name":"未知分类","address":"上海市浦东新区松涛路80号"},{"poiid":"B2094757D16DAAFF499B","title":"地铁七号线龙阳路辅助停车场","lon":"121.57004697","lat":"31.199705346","category":"500","category_name":"未知分类","address":"上海浦东龙阳路2520号"},{"poiid":"B2094757D56CA1FD4999","title":"兄弟盱眙龙虾 芳华路店","lon":"121.55951","lat":"31.19597","category":"68","category_name":"快餐厅","address":"浦东新区芳华路452号(近乔家栅)"},{"poiid":"B2094757D16DA4F5499F","title":"嘉臣爱伊幼儿园","lon":"121.56967417","lat":"31.200210658","category":"57","category_name":"幼儿园","address":"上海市闵行区莘松路康城内"},{"poiid":"B2094654DA6AA5F84793","title":"上海小蜜蜂旅馆有限公司","lon":"121.57049","lat":"31.19716","category":"263","category_name":"公司","address":"浦东新区芳华路1010号"},{"poiid":"B2094757D168A6F9409F","title":"罗山路高架","lon":"121.57910747","lat":"31.194238819","category":"500","category_name":"未知分类","address":"上海高架"},{"poiid":"B2094654DA6AA6FC419E","title":"上海市张江高科技园区(碧波路)","lon":"121.58106","lat":"31.20162","category":"45","category_name":"产业园区","address":"碧波路572弄115号-24幢"},{"poiid":"B2094757D068A6FF469F","title":"培花小区","lon":"121.56798767714","lat":"31.201315129402","category":"500","category_name":"未知分类","address":"上海白杨路芳草路"},{"poiid":"B2094757D064A5F8429E","title":"百度上海研发中心","lon":"121.58147589","lat":"31.1990874056","category":"46","category_name":"楼宇","address":"上海浦东新区张江高科微电子港4号楼"},{"poiid":"B2094757D66FA0FF459D","title":"全家便利浦锦店","lon":"121.570336375","lat":"31.2006659693","category":"500","category_name":"未知分类","address":"上海浦锦路309号一楼"},{"poiid":"B2094752D36EA2FD439E","title":"上海浦东机场","lon":"121.562057","lat":"31.194992","category":"500","category_name":"未知分类","address":null},{"poiid":"B2094654DB6BABFA449B","title":"上海新国际博览中心(南门)","lon":"121.5652","lat":"31.20455","category":"183","category_name":"展览馆","address":"龙阳路2345"},{"poiid":"B2094654DA6AA0FF4193","title":"惠德新邨","lon":"121.569","lat":"31.2027","category":"47","category_name":"住宅区","address":"芳华路573弄1-35号"},{"poiid":"B2094757D664ABFC4093","title":"绝味鸭脖 申波路店","lon":"121.564841054","lat":"31.196708793","category":"68","category_name":"快餐厅","address":"浦东新区申波路61号(芳华路口)"},{"poiid":"B2094757D06BA7FB4993","title":"上海新国际博览中心W1展馆","lon":"121.569630975","lat":"31.2042854539","category":"500","category_name":"未知分类","address":"上海市浦东新区龙阳路2345号"},{"poiid":"B2094757D06BA2FE449B","title":"芳雅苑","lon":"121.56347","lat":"31.196285","category":"252","category_name":"楼宇机构","address":"芳华路630弄，芳华路660弄"},{"poiid":"B2094655D26FA6FD4198","title":"上海新国际博览中心(西二门)","lon":"121.56411","lat":"31.20592","category":"183","category_name":"展览馆","address":""},{"poiid":"B2094655D36CA6F9419E","title":"芳华路申波路","lon":"121.56275","lat":"31.19632","category":"38","category_name":"公交车站","address":""},{"poiid":"B2094757D06FA7F54898","title":"上海轨道交通龙阳路实训基地","lon":"121.562013193","lat":"31.2046851723","category":"190","category_name":"培训机构","address":"上海浦东龙阳路2520号"},{"poiid":"B2094757D465A4FD479E","title":"重庆鸡公煲 芳华路店","lon":"121.560450054","lat":"31.196370793","category":"247","category_name":"餐饮美食","address":"浦东新区芳华路861号(近629路终点站)"},{"poiid":"B2094757D16DABF8459C","title":"上海磁浮交通发展有限公司","lon":"121.56680811","lat":"31.204243245","category":"46","category_name":"楼宇","address":"上海市浦东新区龙阳路2520号"},{"poiid":"B2094757D069ABF4489F","title":"上海浦东国际机场快件监管中心","lon":"121.5616085","lat":"31.192903714","category":"46","category_name":"楼宇","address":"上海浦东机场海天五路600#"},{"poiid":"B2094655D36DA7FF4993","title":"中界","lon":"121.5673","lat":"31.19024","category":"38","category_name":"公交车站","address":""},{"poiid":"B2094757D06AAAFE4398","title":"坤儒体育馆","lon":"121.56925987","lat":"31.187941651","category":"633","category_name":"商务服务类公司","address":"浦东新区镇中心路185号(近高科西路)"},{"poiid":"B2094750D768A7F44092","title":"超级鸡车(龙阳路店)","lon":"121.563","lat":"31.2021","category":"68","category_name":"快餐厅","address":"浦东新区龙阳路2000号107室(近地铁7号线龙阳路站)"},{"poiid":"B2094752DA6FA7FF489C","title":"上海新国际博览中心","lon":"121.560756","lat":"31.198895","category":"500","category_name":"未知分类","address":"上海市 龙阳路"},{"poiid":"B2094654DA6AA5F8489C","title":"华新杂货店(芳华路)","lon":"121.56398","lat":"31.19662","category":"117","category_name":"便民商店/便利店","address":""},{"poiid":"B2094655D265A5F4499A","title":"磁悬浮指挥部综合办公楼","lon":"121.56677","lat":"31.20495","category":"46","category_name":"楼宇","address":"龙阳路2502号"},{"poiid":"B2094757DA6AA5F44493","title":"pptv","lon":"121.5775148","lat":"31.2016526","category":"170","category_name":"KTV","address":"碧波路690号"},{"poiid":"B2094757D664A4F9489F","title":"重庆吴记麻辣烫","lon":"121.56213","lat":"31.196484","category":"68","category_name":"快餐厅","address":"浦东新区芳华路580弄对面(芳华路申波路)"},{"poiid":"B2094757D068ABFA4598","title":"张江体育休闲中心","lon":"121.57973","lat":"31.20426","category":"76","category_name":"上海菜","address":"浦东新区张江高科技园区春晓路81号(近景明路)"},{"poiid":"B2094757D069AAFD489E","title":"金蝶软件","lon":"121.581937","lat":"31.197646","category":"249","category_name":"购物服务","address":"上海浦东新区晨晖路88号"},{"poiid":"B2094654DA6AA1F8489D","title":"培花新村","lon":"121.56741","lat":"31.192274","category":"47","category_name":"住宅区","address":"川北公路380弄"},{"poiid":"B2094757D065A6F44492","title":"通略驾校(浦东本部)","lon":"121.57996397","lat":"31.199699346","category":"253","category_name":"校园生活","address":"浦东新区景明路728号(近晨辉路)"},{"poiid":"B2094757D064AAFC489B","title":"北蔡家具广场","lon":"121.57519","lat":"31.19153","category":"123","category_name":"家具建材市场","address":"浦东新区高科西路4037号"},{"poiid":"B2094654DA6AA0FF489A","title":"花木久远小区","lon":"121.56032","lat":"31.19588","category":"47","category_name":"住宅区","address":"芳华路478弄1-86号"},{"poiid":"B2094654DA6AA0FF499C","title":"申波苑","lon":"121.56185","lat":"31.195436","category":"47","category_name":"住宅区","address":"申波路83弄1-21号"},{"poiid":"B2094654DB65A4FE4692","title":"上海新国际博览中心","lon":"121.56658","lat":"31.20897","category":"183","category_name":"展览馆","address":"浦东新区龙阳路2345号(近芳甸路)"},{"poiid":"B2094757D068A4F54298","title":"上海新国际展览中心","lon":"121.56696397","lat":"31.207406526","category":"183","category_name":"展览馆","address":"上海金桥路"},{"poiid":"B2094757D06FA1FD479D","title":"好乐迪量贩式KTV(张江店)","lon":"121.5827847","lat":"31.199233375","category":"170","category_name":"KTV","address":"上海张江碧波路635号传奇广场2楼"},{"poiid":"B2094757D069A2F84298","title":"上海轨道交通龙阳路基地","lon":"121.56873208","lat":"31.2043952824","category":"260","category_name":"其他","address":"上海市浦东新区龙阳路2520号"},{"poiid":"B2094757D06FA2F8499D","title":"中国建设银行上海市分行培训中心","lon":"121.56188201","lat":"31.192485809","category":"150","category_name":"银行","address":"上海申波路292号"},{"poiid":"B2094654DA6AA0FF4593","title":"聚龙家园","lon":"121.56866","lat":"31.196918","category":"47","category_name":"住宅区","address":"上海浦东新区芳华路916弄"},{"poiid":"B2094757DB6CA7FE419B","title":"地铁2号线龙阳路站","lon":"121.564178","lat":"31.20425","category":"627","category_name":"一般地点标志","address":"地铁2号线龙阳路站"},{"poiid":"B2094654DA6AA0FF4392","title":"龙沟新苑","lon":"121.56876","lat":"31.197325","category":"47","category_name":"住宅区","address":"芳华路933弄1-86号"},{"poiid":"B2094757D06FAAF8489F","title":"中国建设银行信用卡中心","lon":"121.56121797","lat":"31.193057191","category":"150","category_name":"银行","address":"上海申波路292号"},{"poiid":"B2094654DA6AA0FF449A","title":"情义酒家","lon":"121.57077","lat":"31.19758","category":"257","category_name":"中餐厅","address":"浦东新区芳华路1009号"},{"poiid":"B2094757D164AAFD469A","title":"上海处男集散中心","lon":"121.57037727","lat":"31.200664069","category":"500","category_name":"未知分类","address":"上海lallaa"},{"poiid":"B2094757D068ABFF489D","title":"天天渔港(永达店)","lon":"121.563","lat":"31.20427","category":"72","category_name":"广东菜","address":"浦东新区龙阳路2277号(兰花路石楠路)"},{"poiid":"B2094654DA6AA0FF4499","title":"浦东新区花灵汽车修理厂","lon":"121.57138","lat":"31.19854","category":"159","category_name":"汽车维修","address":""},{"poiid":"B2094757D069A5F44393","title":"交通银行太平洋信用卡中心","lon":"121.577638325","lat":"31.1993366082","category":"500","category_name":"未知分类","address":"上海市浦东新区松涛路80号"},{"poiid":"B2094757D16DAAFF499B","title":"地铁七号线龙阳路辅助停车场","lon":"121.57004697","lat":"31.199705346","category":"500","category_name":"未知分类","address":"上海浦东龙阳路2520号"},{"poiid":"B2094757D56CA1FD4999","title":"兄弟盱眙龙虾 芳华路店","lon":"121.55951","lat":"31.19597","category":"68","category_name":"快餐厅","address":"浦东新区芳华路452号(近乔家栅)"},{"poiid":"B2094757D16DA4F5499F","title":"嘉臣爱伊幼儿园","lon":"121.56967417","lat":"31.200210658","category":"57","category_name":"幼儿园","address":"上海市闵行区莘松路康城内"},{"poiid":"B2094654DA6AA5F84793","title":"上海小蜜蜂旅馆有限公司","lon":"121.57049","lat":"31.19716","category":"263","category_name":"公司","address":"浦东新区芳华路1010号"},{"poiid":"B2094757D168A6F9409F","title":"罗山路高架","lon":"121.57910747","lat":"31.194238819","category":"500","category_name":"未知分类","address":"上海高架"},{"poiid":"B2094654DA6AA6FC419E","title":"上海市张江高科技园区(碧波路)","lon":"121.58106","lat":"31.20162","category":"45","category_name":"产业园区","address":"碧波路572弄115号-24幢"},{"poiid":"B2094757D068A6FF469F","title":"培花小区","lon":"121.56798767714","lat":"31.201315129402","category":"500","category_name":"未知分类","address":"上海白杨路芳草路"},{"poiid":"B2094757D064A5F8429E","title":"百度上海研发中心","lon":"121.58147589","lat":"31.1990874056","category":"46","category_name":"楼宇","address":"上海浦东新区张江高科微电子港4号楼"},{"poiid":"B2094757D66FA0FF459D","title":"全家便利浦锦店","lon":"121.570336375","lat":"31.2006659693","category":"500","category_name":"未知分类","address":"上海浦锦路309号一楼"},{"poiid":"B2094752D36EA2FD439E","title":"上海浦东机场","lon":"121.562057","lat":"31.194992","category":"500","category_name":"未知分类","address":null},{"poiid":"B2094654DB6BABFA449B","title":"上海新国际博览中心(南门)","lon":"121.5652","lat":"31.20455","category":"183","category_name":"展览馆","address":"龙阳路2345"},{"poiid":"B2094654DA6AA0FF4193","title":"惠德新邨","lon":"121.569","lat":"31.2027","category":"47","category_name":"住宅区","address":"芳华路573弄1-35号"},{"poiid":"B2094757D664ABFC4093","title":"绝味鸭脖 申波路店","lon":"121.564841054","lat":"31.196708793","category":"68","category_name":"快餐厅","address":"浦东新区申波路61号(芳华路口)"},{"poiid":"B2094757D06BA7FB4993","title":"上海新国际博览中心W1展馆","lon":"121.569630975","lat":"31.2042854539","category":"500","category_name":"未知分类","address":"上海市浦东新区龙阳路2345号"},{"poiid":"B2094757D06BA2FE449B","title":"芳雅苑","lon":"121.56347","lat":"31.196285","category":"252","category_name":"楼宇机构","address":"芳华路630弄，芳华路660弄"},{"poiid":"B2094655D26FA6FD4198","title":"上海新国际博览中心(西二门)","lon":"121.56411","lat":"31.20592","category":"183","category_name":"展览馆","address":""},{"poiid":"B2094655D36CA6F9419E","title":"芳华路申波路","lon":"121.56275","lat":"31.19632","category":"38","category_name":"公交车站","address":""},{"poiid":"B2094757D06FA7F54898","title":"上海轨道交通龙阳路实训基地","lon":"121.562013193","lat":"31.2046851723","category":"190","category_name":"培训机构","address":"上海浦东龙阳路2520号"},{"poiid":"B2094757D465A4FD479E","title":"重庆鸡公煲 芳华路店","lon":"121.560450054","lat":"31.196370793","category":"247","category_name":"餐饮美食","address":"浦东新区芳华路861号(近629路终点站)"},{"poiid":"B2094757D16DABF8459C","title":"上海磁浮交通发展有限公司","lon":"121.56680811","lat":"31.204243245","category":"46","category_name":"楼宇","address":"上海市浦东新区龙阳路2520号"},{"poiid":"B2094757D069ABF4489F","title":"上海浦东国际机场快件监管中心","lon":"121.5616085","lat":"31.192903714","category":"46","category_name":"楼宇","address":"上海浦东机场海天五路600#"},{"poiid":"B2094655D36DA7FF4993","title":"中界","lon":"121.5673","lat":"31.19024","category":"38","category_name":"公交车站","address":""},{"poiid":"B2094757D06AAAFE4398","title":"坤儒体育馆","lon":"121.56925987","lat":"31.187941651","category":"633","category_name":"商务服务类公司","address":"浦东新区镇中心路185号(近高科西路)"},{"poiid":"B2094750D768A7F44092","title":"超级鸡车(龙阳路店)","lon":"121.563","lat":"31.2021","category":"68","category_name":"快餐厅","address":"浦东新区龙阳路2000号107室(近地铁7号线龙阳路站)"},{"poiid":"B2094752DA6FA7FF489C","title":"上海新国际博览中心","lon":"121.560756","lat":"31.198895","category":"500","category_name":"未知分类","address":"上海市 龙阳路"},{"poiid":"B2094654DA6AA5F8489C","title":"华新杂货店(芳华路)","lon":"121.56398","lat":"31.19662","category":"117","category_name":"便民商店/便利店","address":""},{"poiid":"B2094655D265A5F4499A","title":"磁悬浮指挥部综合办公楼","lon":"121.56677","lat":"31.20495","category":"46","category_name":"楼宇","address":"龙阳路2502号"},{"poiid":"B2094757DA6AA5F44493","title":"pptv","lon":"121.5775148","lat":"31.2016526","category":"170","category_name":"KTV","address":"碧波路690号"},{"poiid":"B2094757D664A4F9489F","title":"重庆吴记麻辣烫","lon":"121.56213","lat":"31.196484","category":"68","category_name":"快餐厅","address":"浦东新区芳华路580弄对面(芳华路申波路)"},{"poiid":"B2094757D068ABFA4598","title":"张江体育休闲中心","lon":"121.57973","lat":"31.20426","category":"76","category_name":"上海菜","address":"浦东新区张江高科技园区春晓路81号(近景明路)"},{"poiid":"B2094757D069AAFD489E","title":"金蝶软件","lon":"121.581937","lat":"31.197646","category":"249","category_name":"购物服务","address":"上海浦东新区晨晖路88号"},{"poiid":"B2094654DA6AA1F8489D","title":"培花新村","lon":"121.56741","lat":"31.192274","category":"47","category_name":"住宅区","address":"川北公路380弄"},{"poiid":"B2094757D065A6F44492","title":"通略驾校(浦东本部)","lon":"121.57996397","lat":"31.199699346","category":"253","category_name":"校园生活","address":"浦东新区景明路728号(近晨辉路)"},{"poiid":"B2094757D064AAFC489B","title":"北蔡家具广场","lon":"121.57519","lat":"31.19153","category":"123","category_name":"家具建材市场","address":"浦东新区高科西路4037号"},{"poiid":"B2094654DA6AA0FF489A","title":"花木久远小区","lon":"121.56032","lat":"31.19588","category":"47","category_name":"住宅区","address":"芳华路478弄1-86号"},{"poiid":"B2094654DA6AA0FF499C","title":"申波苑","lon":"121.56185","lat":"31.195436","category":"47","category_name":"住宅区","address":"申波路83弄1-21号"},{"poiid":"B2094654DB65A4FE4692","title":"上海新国际博览中心","lon":"121.56658","lat":"31.20897","category":"183","category_name":"展览馆","address":"浦东新区龙阳路2345号(近芳甸路)"},{"poiid":"B2094757D068A4F54298","title":"上海新国际展览中心","lon":"121.56696397","lat":"31.207406526","category":"183","category_name":"展览馆","address":"上海金桥路"},{"poiid":"B2094757D06FA1FD479D","title":"好乐迪量贩式KTV(张江店)","lon":"121.5827847","lat":"31.199233375","category":"170","category_name":"KTV","address":"上海张江碧波路635号传奇广场2楼"},{"poiid":"B2094757D069A2F84298","title":"上海轨道交通龙阳路基地","lon":"121.56873208","lat":"31.2043952824","category":"260","category_name":"其他","address":"上海市浦东新区龙阳路2520号"},{"poiid":"B2094757D06FA2F8499D","title":"中国建设银行上海市分行培训中心","lon":"121.56188201","lat":"31.192485809","category":"150","category_name":"银行","address":"上海申波路292号"},{"poiid":"B2094654DA6AA0FF4593","title":"聚龙家园","lon":"121.56866","lat":"31.196918","category":"47","category_name":"住宅区","address":"上海浦东新区芳华路916弄"},{"poiid":"B2094757DB6CA7FE419B","title":"地铁2号线龙阳路站","lon":"121.564178","lat":"31.20425","category":"627","category_name":"一般地点标志","address":"地铁2号线龙阳路站"},{"poiid":"B2094654DA6AA0FF4392","title":"龙沟新苑","lon":"121.56876","lat":"31.197325","category":"47","category_name":"住宅区","address":"芳华路933弄1-86号"},{"poiid":"B2094757D06FAAF8489F","title":"中国建设银行信用卡中心","lon":"121.56121797","lat":"31.193057191","category":"150","category_name":"银行","address":"上海申波路292号"},{"poiid":"B2094654DA6AA0FF449A","title":"情义酒家","lon":"121.57077","lat":"31.19758","category":"257","category_name":"中餐厅","address":"浦东新区芳华路1009号"},{"poiid":"B2094757D164AAFD469A","title":"上海处男集散中心","lon":"121.57037727","lat":"31.200664069","category":"500","category_name":"未知分类","address":"上海lallaa"},{"poiid":"B2094757D068ABFF489D","title":"天天渔港(永达店)","lon":"121.563","lat":"31.20427","category":"72","category_name":"广东菜","address":"浦东新区龙阳路2277号(兰花路石楠路)"},{"poiid":"B2094654DA6AA0FF4499","title":"浦东新区花灵汽车修理厂","lon":"121.57138","lat":"31.19854","category":"159","category_name":"汽车维修","address":""},{"poiid":"B2094757D069A5F44393","title":"交通银行太平洋信用卡中心","lon":"121.577638325","lat":"31.1993366082","category":"500","category_name":"未知分类","address":"上海市浦东新区松涛路80号"},{"poiid":"B2094757D16DAAFF499B","title":"地铁七号线龙阳路辅助停车场","lon":"121.57004697","lat":"31.199705346","category":"500","category_name":"未知分类","address":"上海浦东龙阳路2520号"},{"poiid":"B2094757D56CA1FD4999","title":"兄弟盱眙龙虾 芳华路店","lon":"121.55951","lat":"31.19597","category":"68","category_name":"快餐厅","address":"浦东新区芳华路452号(近乔家栅)"},{"poiid":"B2094757D16DA4F5499F","title":"嘉臣爱伊幼儿园","lon":"121.56967417","lat":"31.200210658","category":"57","category_name":"幼儿园","address":"上海市闵行区莘松路康城内"},{"poiid":"B2094654DA6AA5F84793","title":"上海小蜜蜂旅馆有限公司","lon":"121.57049","lat":"31.19716","category":"263","category_name":"公司","address":"浦东新区芳华路1010号"},{"poiid":"B2094757D168A6F9409F","title":"罗山路高架","lon":"121.57910747","lat":"31.194238819","category":"500","category_name":"未知分类","address":"上海高架"},{"poiid":"B2094654DA6AA6FC419E","title":"上海市张江高科技园区(碧波路)","lon":"121.58106","lat":"31.20162","category":"45","category_name":"产业园区","address":"碧波路572弄115号-24幢"},{"poiid":"B2094757D068A6FF469F","title":"培花小区","lon":"121.56798767714","lat":"31.201315129402","category":"500","category_name":"未知分类","address":"上海白杨路芳草路"},{"poiid":"B2094757D064A5F8429E","title":"百度上海研发中心","lon":"121.58147589","lat":"31.1990874056","category":"46","category_name":"楼宇","address":"上海浦东新区张江高科微电子港4号楼"},{"poiid":"B2094757D66FA0FF459D","title":"全家便利浦锦店","lon":"121.570336375","lat":"31.2006659693","category":"500","category_name":"未知分类","address":"上海浦锦路309号一楼"},{"poiid":"B2094752D36EA2FD439E","title":"上海浦东机场","lon":"121.562057","lat":"31.194992","category":"500","category_name":"未知分类","address":null},{"poiid":"B2094654DB6BABFA449B","title":"上海新国际博览中心(南门)","lon":"121.5652","lat":"31.20455","category":"183","category_name":"展览馆","address":"龙阳路2345"},{"poiid":"B2094654DA6AA0FF4193","title":"惠德新邨","lon":"121.569","lat":"31.2027","category":"47","category_name":"住宅区","address":"芳华路573弄1-35号"},{"poiid":"B2094757D664ABFC4093","title":"绝味鸭脖 申波路店","lon":"121.564841054","lat":"31.196708793","category":"68","category_name":"快餐厅","address":"浦东新区申波路61号(芳华路口)"},{"poiid":"B2094757D06BA7FB4993","title":"上海新国际博览中心W1展馆","lon":"121.569630975","lat":"31.2042854539","category":"500","category_name":"未知分类","address":"上海市浦东新区龙阳路2345号"},{"poiid":"B2094757D06BA2FE449B","title":"芳雅苑","lon":"121.56347","lat":"31.196285","category":"252","category_name":"楼宇机构","address":"芳华路630弄，芳华路660弄"},{"poiid":"B2094655D26FA6FD4198","title":"上海新国际博览中心(西二门)","lon":"121.56411","lat":"31.20592","category":"183","category_name":"展览馆","address":""},{"poiid":"B2094655D36CA6F9419E","title":"芳华路申波路","lon":"121.56275","lat":"31.19632","category":"38","category_name":"公交车站","address":""},{"poiid":"B2094757D06FA7F54898","title":"上海轨道交通龙阳路实训基地","lon":"121.562013193","lat":"31.2046851723","category":"190","category_name":"培训机构","address":"上海浦东龙阳路2520号"},{"poiid":"B2094757D465A4FD479E","title":"重庆鸡公煲 芳华路店","lon":"121.560450054","lat":"31.196370793","category":"247","category_name":"餐饮美食","address":"浦东新区芳华路861号(近629路终点站)"},{"poiid":"B2094757D16DABF8459C","title":"上海磁浮交通发展有限公司","lon":"121.56680811","lat":"31.204243245","category":"46","category_name":"楼宇","address":"上海市浦东新区龙阳路2520号"},{"poiid":"B2094757D069ABF4489F","title":"上海浦东国际机场快件监管中心","lon":"121.5616085","lat":"31.192903714","category":"46","category_name":"楼宇","address":"上海浦东机场海天五路600#"},{"poiid":"B2094655D36DA7FF4993","title":"中界","lon":"121.5673","lat":"31.19024","category":"38","category_name":"公交车站","address":""},{"poiid":"B2094757D06AAAFE4398","title":"坤儒体育馆","lon":"121.56925987","lat":"31.187941651","category":"633","category_name":"商务服务类公司","address":"浦东新区镇中心路185号(近高科西路)"},{"poiid":"B2094750D768A7F44092","title":"超级鸡车(龙阳路店)","lon":"121.563","lat":"31.2021","category":"68","category_name":"快餐厅","address":"浦东新区龙阳路2000号107室(近地铁7号线龙阳路站)"},{"poiid":"B2094752DA6FA7FF489C","title":"上海新国际博览中心","lon":"121.560756","lat":"31.198895","category":"500","category_name":"未知分类","address":"上海市 龙阳路"},{"poiid":"B2094654DA6AA5F8489C","title":"华新杂货店(芳华路)","lon":"121.56398","lat":"31.19662","category":"117","category_name":"便民商店/便利店","address":""},{"poiid":"B2094655D265A5F4499A","title":"磁悬浮指挥部综合办公楼","lon":"121.56677","lat":"31.20495","category":"46","category_name":"楼宇","address":"龙阳路2502号"},{"poiid":"B2094757DA6AA5F44493","title":"pptv","lon":"121.5775148","lat":"31.2016526","category":"170","category_name":"KTV","address":"碧波路690号"},{"poiid":"B2094757D664A4F9489F","title":"重庆吴记麻辣烫","lon":"121.56213","lat":"31.196484","category":"68","category_name":"快餐厅","address":"浦东新区芳华路580弄对面(芳华路申波路)"},{"poiid":"B2094757D068ABFA4598","title":"张江体育休闲中心","lon":"121.57973","lat":"31.20426","category":"76","category_name":"上海菜","address":"浦东新区张江高科技园区春晓路81号(近景明路)"},{"poiid":"B2094757D069AAFD489E","title":"金蝶软件","lon":"121.581937","lat":"31.197646","category":"249","category_name":"购物服务","address":"上海浦东新区晨晖路88号"},{"poiid":"B2094654DA6AA1F8489D","title":"培花新村","lon":"121.56741","lat":"31.192274","category":"47","category_name":"住宅区","address":"川北公路380弄"},{"poiid":"B2094757D065A6F44492","title":"通略驾校(浦东本部)","lon":"121.57996397","lat":"31.199699346","category":"253","category_name":"校园生活","address":"浦东新区景明路728号(近晨辉路)"},{"poiid":"B2094757D064AAFC489B","title":"北蔡家具广场","lon":"121.57519","lat":"31.19153","category":"123","category_name":"家具建材市场","address":"浦东新区高科西路4037号"},{"poiid":"B2094654DA6AA0FF489A","title":"花木久远小区","lon":"121.56032","lat":"31.19588","category":"47","category_name":"住宅区","address":"芳华路478弄1-86号"},{"poiid":"B2094654DA6AA0FF499C","title":"申波苑","lon":"121.56185","lat":"31.195436","category":"47","category_name":"住宅区","address":"申波路83弄1-21号"}]