[{"poiid":"B2094654DA69A3FE4799","title":"上海科技馆","lon":"121.54144","lat":"31.21851","category":"186","category_name":"科技馆","address":"浦东新区世纪大道2000号"},{"poiid":"B2094654DA69A3FE4792","title":"上海东方艺术中心(Shanghai Oriental Art Center)","lon":"121.54141","lat":"31.22273","category":"180","category_name":"剧场","address":"上海浦东新区丁香路425号(近世纪大道)"},{"poiid":"B2094757D06FA2FA429A","title":"上海东方艺术中心Shanghai Oriental Art Center","lon":"121.54141842189642","lat":"31.22291030374493","category":"179","category_name":"音乐厅","address":"上海浦东新区丁香路425号"},{"poiid":"B2094757D06EAAFA449A","title":"上海科技馆地铁站","lon":"121.54296","lat":"31.219458","category":"36","category_name":"地铁站","address":"上海轨道交通 二号线 轨交上海科技馆站 2"},{"poiid":"B2094654DB6BABF5459E","title":"星巴克咖啡(锦严路店)","lon":"121.54044","lat":"31.21641","category":"260","category_name":"其他","address":"浦东新区锦延路219号(近上海科技馆)"},{"poiid":"B2094757D06FA5FE4592","title":"世纪广场","lon":"121.54015207","lat":"31.22126886","category":"250","category_name":"公园户外","address":"浦东新区世纪大道世纪公园正门(近杨高路)"},{"poiid":"B2094757D06FA6FB4498","title":"期货大厦","lon":"121.535085","lat":"31.223555","category":"46","category_name":"楼宇","address":"上海浦东浦电路500号"},{"poiid":"B2094757D06FA6F54999","title":"东怡大酒店","lon":"121.54299542","lat":"31.22411864","category":"217","category_name":"旅馆招待所","address":"浦东新区丁香路555号(东方艺术中心旁)"},{"poiid":"B2094757D169A0FA439A","title":"由由世纪广场","lon":"121.538165738","lat":"31.2163130036","category":"500","category_name":"未知分类","address":"上海杨高南路428号"},{"poiid":"B2094655D265A7FD4293","title":"中国钻石交易中心","lon":"121.53635","lat":"31.22442","category":"46","category_name":"楼宇","address":"世纪大道1701"},{"poiid":"B2094757D068A0F44198","title":"上海东方艺术中心-演奏厅(Shanghai Oriental Art Center - Performance Hall)","lon":"121.541374736","lat":"31.2227814309","category":"260","category_name":"其他","address":"上海浦东新区丁香路425号"},{"poiid":"B2094750D165A2FF479F","title":"派对新地PartyTown","lon":"121.536459","lat":"31.217793","category":"189","category_name":"文艺团体","address":"浦东新区锦延路35号"},{"poiid":"B2094757D16BA6F4449C","title":"地铁四号线世纪大道站","lon":"121.536668738","lat":"31.2244261764","category":"36","category_name":"地铁站","address":"上海市浦东新区世纪大道"},{"poiid":"B2094757D068A3FA4993","title":"葛洲坝大厦","lon":"121.537088334","lat":"31.2252473955","category":"46","category_name":"楼宇","address":"徐汇区冠生园路223号"},{"poiid":"B2094757D068A6FF429D","title":"锦绣坊","lon":"121.54040527","lat":"31.216379165","category":"500","category_name":"未知分类","address":"浦东新区锦延路(近锦绣路)"},{"poiid":"B2094757D06FA0FC4893","title":"上海市电力公司","lon":"121.53781276","lat":"31.224534954","category":"46","category_name":"楼宇","address":"上海源深路1122号"},{"poiid":"B2094757D068ABF54998","title":"肯德基KFC(科技馆店)","lon":"121.542076333","lat":"31.2193652614","category":"68","category_name":"快餐厅","address":"浦东新区世纪大道2002号亚太盛汇广场B1楼(近二号线上海科技馆站)"},{"poiid":"B2094655D26EA2FF4192","title":"法国餐馆巴黎上海","lon":"121.54141","lat":"31.22273","category":"97","category_name":"法式菜品餐厅","address":"浦东新区丁香路425号上海东方艺术中心B1楼(近世纪大道)"},{"poiid":"B2094757D16DA4F94499","title":"御味道","lon":"121.54203973","lat":"31.216068998","category":"500","category_name":"未知分类","address":"上海市浦东新区锦严路"},{"poiid":"B2094757D06AA1FE4299","title":"名豪鱼翅海鲜(浦东店)","lon":"121.53493","lat":"31.22356","category":"72","category_name":"广东菜","address":"浦东新区世纪大道1600号陆家嘴商务广场裙楼(近浦电路)"},{"poiid":"B2094654DA69A3FE479B","title":"世纪广场(世纪大道)","lon":"121.54129","lat":"31.22065","category":"201","category_name":"城市广场","address":"从东方明珠至浦东世纪公园全长约55公里"},{"poiid":"B2094757D16DABF8489C","title":"浦东新区政府大楼一号楼","lon":"121.544685364","lat":"31.2216567993","category":"500","category_name":"未知分类","address":"上海锦带路22号"},{"poiid":"B2094757D068A1F44199","title":"阿英煲(灵山路店)","lon":"121.53893","lat":"31.22548","category":"260","category_name":"其他","address":"上海浦东新区灵山路28号(近桃林路)  "},{"poiid":"B2094757D06AA1FE4093","title":"Daisy's kitchen","lon":"121.54391","lat":"31.21765","category":"94","category_name":"西餐厅","address":"浦东新区世纪大道2002号亚太盛汇南广场J-06号(近地铁二号线上海科技馆站)"},{"poiid":"B2094655D26EA5F44598","title":"次郎日式快餐 科技馆店","lon":"121.540979054","lat":"31.220935793","category":"68","category_name":"快餐厅","address":"浦东新区世纪大道2002号亚太盛汇广场B区07室(近二号线上海科技馆站)"},{"poiid":"B2094757D068A2FB4193","title":"时计台日本料理","lon":"121.537687","lat":"31.223353","category":"95","category_name":"日本料理","address":"浦东新区世纪大道1777号东方希望大厦1楼(近源深路)"},{"poiid":"B2094655D268A1FA4499","title":"城市广场(东方希望大厦东南)","lon":"121.53914","lat":"31.22115","category":"201","category_name":"城市广场","address":""},{"poiid":"B2094655D26DAAFA4993","title":"上海亚太盛汇休闲购物广场","lon":"121.54371","lat":"31.21829","category":"119","category_name":"商场","address":"亚太盛汇位于浦东浦东新区世纪大道2002号(杨高路地铁站)"},{"poiid":"B2094655D268A1FA439D","title":"木槿","lon":"121.536317054","lat":"31.218201793","category":"96","category_name":"韩国料理","address":"浦东新区锦延路83号(近锦康路)"},{"poiid":"B2094655D36CA1FD4799","title":"世纪大道丁香路","lon":"121.54036","lat":"31.22144","category":"38","category_name":"公交车站","address":""},{"poiid":"B2094757D16CA5FE4599","title":"康亘轩法式料理 CKC","lon":"121.537618","lat":"31.216577","category":"94","category_name":"西餐厅","address":"浦东新区锦延路269号(莎莉花园小区旁)"},{"poiid":"B2094757D069ABFF419C","title":"球幕影院","lon":"121.54163346","lat":"31.218096545","category":"178","category_name":"电影院","address":"世纪大道2000号上海科技馆"},{"poiid":"B2094655D26DA4F9499B","title":"伟泰大厦","lon":"121.539","lat":"31.222","category":"46","category_name":"楼宇","address":"峨山路941弄浦东软件园58号"},{"poiid":"B2094757D169A1F54599","title":"正大广场地下二层蛋蛋屋","lon":"121.538641238","lat":"31.2210243489","category":"500","category_name":"未知分类","address":"上海陆家嘴"},{"poiid":"B2094757D169A0FD4093","title":"Latina","lon":"121.542421568","lat":"31.2196233141","category":"500","category_name":"未知分类","address":"上海科技馆"},{"poiid":"B2094655D26AABFD419A","title":"八音盒珍品陈列馆","lon":"121.54141","lat":"31.22273","category":"646","category_name":"文化体育类公司","address":"浦东新区丁香路425号东方艺术中心4楼(近世纪大道)"},{"poiid":"B2094750D76FA4F5449C","title":"美伊娜和风意大利家庭料理","lon":"121.54","lat":"31.2169","category":"94","category_name":"西餐厅","address":"浦东新区锦延路156号"},{"poiid":"B2094655D36DA0F8489B","title":"杨高南路世纪大道","lon":"121.53651","lat":"31.21991","category":"38","category_name":"公交车站","address":""},{"poiid":"B2094757D064A1FA499C","title":"友家日本料理","lon":"121.53835","lat":"31.21656","category":"95","category_name":"日本料理","address":"浦东新区锦延路69号张家浜创意街(近锦康路)"},{"poiid":"B2094757D16CA3FC479D","title":"万寿亭高丽参鸡汤陆家嘴商务广场店","lon":"121.534708019","lat":"31.2235147345","category":"96","category_name":"韩国料理","address":"浦东新区世纪大道1600号陆家嘴商务广场裙楼(近浦电路)"},{"poiid":"B2094753D56CA0F94098","title":"上海国金中心","lon":"121.542404","lat":"31.220159","category":"500","category_name":"未知分类","address":"上海市 浦东新区 世纪大道 陆家嘴"},{"poiid":"B2094757D764A5F4429C","title":"上海科技馆游客餐厅","lon":"121.540377","lat":"31.218154","category":"68","category_name":"快餐厅","address":"浦东新区世纪大道2000号上海科技馆内(近丁香路口)"},{"poiid":"B2094757D069A6FE499C","title":"棒约翰比萨(中央公寓店)","lon":"121.54036","lat":"31.2159","category":"94","category_name":"西餐厅","address":"浦东新区锦延路250号(近东绣路)"},{"poiid":"B2094757D568A7FF409A","title":"新都花园一期","lon":"121.539091","lat":"31.218896","category":"47","category_name":"住宅区","address":"上海市长宁区延安西路1235弄"},{"poiid":"B2094757D165A7FC4093","title":"上海ゼミ日本人学校","lon":"121.538826438","lat":"31.2194181697","category":"190","category_name":"培训机构","address":"上海锦延路168号"},{"poiid":"B2094757D66EA3FC409B","title":"世纪大道杨高中路","lon":"121.539192238","lat":"31.2228968438","category":"500","category_name":"未知分类","address":"上海市浦东新区世纪大道杨高中路口"},{"poiid":"B209475CD265AAFF419F","title":"囍旺咖啡  SeeWant Cafe","lon":"121.541459","lat":"31.220593","category":"67","category_name":"甜品店","address":"东方路989号中达广场大堂"},{"poiid":"B2094757D069A4FC409F","title":"世纪大道浦东南路","lon":"121.53729248","lat":"31.220455169","category":"500","category_name":"未知分类","address":"上海世纪大道浦东南路"},{"poiid":"B2094757D168ABFF409E","title":"上海移动培训中心","lon":"121.54164623","lat":"31.223074047","category":"500","category_name":"未知分类","address":"上海迎春路670号辅楼3楼"},{"poiid":"B2094757D06BABF84899","title":"公交639","lon":"121.54182507","lat":"31.221285776","category":"38","category_name":"公交车站","address":"上海周浦～巨峰路地铁站"},{"poiid":"B2094654DA69A3FE4799","title":"上海科技馆","lon":"121.54144","lat":"31.21851","category":"186","category_name":"科技馆","address":"浦东新区世纪大道2000号"},{"poiid":"B2094654DA69A3FE4792","title":"上海东方艺术中心(Shanghai Oriental Art Center)","lon":"121.54141","lat":"31.22273","category":"180","category_name":"剧场","address":"上海浦东新区丁香路425号(近世纪大道)"},{"poiid":"B2094757D06FA2FA429A","title":"上海东方艺术中心Shanghai Oriental Art Center","lon":"121.54141842189642","lat":"31.22291030374493","category":"179","category_name":"音乐厅","address":"上海浦东新区丁香路425号"},{"poiid":"B2094757D06EAAFA449A","title":"上海科技馆地铁站","lon":"121.54296","lat":"31.219458","category":"36","category_name":"地铁站","address":"上海轨道交通 二号线 轨交上海科技馆站 2"},{"poiid":"B2094654DB6BABF5459E","title":"星巴克咖啡(锦严路店)","lon":"121.54044","lat":"31.21641","category":"260","category_name":"其他","address":"浦东新区锦延路219号(近上海科技馆)"},{"poiid":"B2094757D06FA5FE4592","title":"世纪广场","lon":"121.54015207","lat":"31.22126886","category":"250","category_name":"公园户外","address":"浦东新区世纪大道世纪公园正门(近杨高路)"},{"poiid":"B2094757D06FA6FB4498","title":"期货大厦","lon":"121.535085","lat":"31.223555","category":"46","category_name":"楼宇","address":"上海浦东浦电路500号"},{"poiid":"B2094757D06FA6F54999","title":"东怡大酒店","lon":"121.54299542","lat":"31.22411864","category":"217","category_name":"旅馆招待所","address":"浦东新区丁香路555号(东方艺术中心旁)"},{"poiid":"B2094757D169A0FA439A","title":"由由世纪广场","lon":"121.538165738","lat":"31.2163130036","category":"500","category_name":"未知分类","address":"上海杨高南路428号"},{"poiid":"B2094655D265A7FD4293","title":"中国钻石交易中心","lon":"121.53635","lat":"31.22442","category":"46","category_name":"楼宇","address":"世纪大道1701"},{"poiid":"B2094757D068A0F44198","title":"上海东方艺术中心-演奏厅(Shanghai Oriental Art Center - Performance Hall)","lon":"121.541374736","lat":"31.2227814309","category":"260","category_name":"其他","address":"上海浦东新区丁香路425号"},{"poiid":"B2094750D165A2FF479F","title":"派对新地PartyTown","lon":"121.536459","lat":"31.217793","category":"189","category_name":"文艺团体","address":"浦东新区锦延路35号"},{"poiid":"B2094757D16BA6F4449C","title":"地铁四号线世纪大道站","lon":"121.536668738","lat":"31.2244261764","category":"36","category_name":"地铁站","address":"上海市浦东新区世纪大道"},{"poiid":"B2094757D068A3FA4993","title":"葛洲坝大厦","lon":"121.537088334","lat":"31.2252473955","category":"46","category_name":"楼宇","address":"徐汇区冠生园路223号"},{"poiid":"B2094757D068A6FF429D","title":"锦绣坊","lon":"121.54040527","lat":"31.216379165","category":"500","category_name":"未知分类","address":"浦东新区锦延路(近锦绣路)"},{"poiid":"B2094757D06FA0FC4893","title":"上海市电力公司","lon":"121.53781276","lat":"31.224534954","category":"46","category_name":"楼宇","address":"上海源深路1122号"},{"poiid":"B2094757D068ABF54998","title":"肯德基KFC(科技馆店)","lon":"121.542076333","lat":"31.2193652614","category":"68","category_name":"快餐厅","address":"浦东新区世纪大道2002号亚太盛汇广场B1楼(近二号线上海科技馆站)"},{"poiid":"B2094655D26EA2FF4192","title":"法国餐馆巴黎上海","lon":"121.54141","lat":"31.22273","category":"97","category_name":"法式菜品餐厅","address":"浦东新区丁香路425号上海东方艺术中心B1楼(近世纪大道)"},{"poiid":"B2094757D16DA4F94499","title":"御味道","lon":"121.54203973","lat":"31.216068998","category":"500","category_name":"未知分类","address":"上海市浦东新区锦严路"},{"poiid":"B2094757D06AA1FE4299","title":"名豪鱼翅海鲜(浦东店)","lon":"121.53493","lat":"31.22356","category":"72","category_name":"广东菜","address":"浦东新区世纪大道1600号陆家嘴商务广场裙楼(近浦电路)"},{"poiid":"B2094654DA69A3FE479B","title":"世纪广场(世纪大道)","lon":"121.54129","lat":"31.22065","category":"201","category_name":"城市广场","address":"从东方明珠至浦东世纪公园全长约55公里"},{"poiid":"B2094757D16DABF8489C","title":"浦东新区政府大楼一号楼","lon":"121.544685364","lat":"31.2216567993","category":"500","category_name":"未知分类","address":"上海锦带路22号"},{"poiid":"B2094757D068A1F44199","title":"阿英煲(灵山路店)","lon":"121.53893","lat":"31.22548","category":"260","category_name":"其他","address":"上海浦东新区灵山路28号(近桃林路)  "},{"poiid":"B2094757D06AA1FE4093","title":"Daisy's kitchen","lon":"121.54391","lat":"31.21765","category":"94","category_name":"西餐厅","address":"浦东新区世纪大道2002号亚太盛汇南广场J-06号(近地铁二号线上海科技馆站)"},{"poiid":"B2094655D26EA5F44598","title":"次郎日式快餐 科技馆店","lon":"121.540979054","lat":"31.220935793","category":"68","category_name":"快餐厅","address":"浦东新区世纪大道2002号亚太盛汇广场B区07室(近二号线上海科技馆站)"},{"poiid":"B2094757D068A2FB4193","title":"时计台日本料理","lon":"121.537687","lat":"31.223353","category":"95","category_name":"日本料理","address":"浦东新区世纪大道1777号东方希望大厦1楼(近源深路)"},{"poiid":"B2094655D268A1FA4499","title":"城市广场(东方希望大厦东南)","lon":"121.53914","lat":"31.22115","category":"201","category_name":"城市广场","address":""},{"poiid":"B2094655D26DAAFA4993","title":"上海亚太盛汇休闲购物广场","lon":"121.54371","lat":"31.21829","category":"119","category_name":"商场","address":"亚太盛汇位于浦东浦东新区世纪大道2002号(杨高路地铁站)"},{"poiid":"B2094655D268A1FA439D","title":"木槿","lon":"121.536317054","lat":"31.218201793","category":"96","category_name":"韩国料理","address":"浦东新区锦延路83号(近锦康路)"},{"poiid":"B2094655D36CA1FD4799","title":"世纪大道丁香路","lon":"121.54036","lat":"31.22144","category":"38","category_name":"公交车站","address":""},{"poiid":"B2094757D16CA5FE4599","title":"康亘轩法式料理 CKC","lon":"121.537618","lat":"31.216577","category":"94","category_name":"西餐厅","address":"浦东新区锦延路269号(莎莉花园小区旁)"},{"poiid":"B2094757D069ABFF419C","title":"球幕影院","lon":"121.54163346","lat":"31.218096545","category":"178","category_name":"电影院","address":"世纪大道2000号上海科技馆"},{"poiid":"B2094655D26DA4F9499B","title":"伟泰大厦","lon":"121.539","lat":"31.222","category":"46","category_name":"楼宇","address":"峨山路941弄浦东软件园58号"},{"poiid":"B2094757D169A1F54599","title":"正大广场地下二层蛋蛋屋","lon":"121.538641238","lat":"31.2210243489","category":"500","category_name":"未知分类","address":"上海陆家嘴"},{"poiid":"B2094757D169A0FD4093","title":"Latina","lon":"121.542421568","lat":"31.2196233141","category":"500","category_name":"未知分类","address":"上海科技馆"},{"poiid":"B2094655D26AABFD419A","title":"八音盒珍品陈列馆","lon":"121.54141","lat":"31.22273","category":"646","category_name":"文化体育类公司","address":"浦东新区丁香路425号东方艺术中心4楼(近世纪大道)"},{"poiid":"B2094750D76FA4F5449C","title":"美伊娜和风意大利家庭料理","lon":"121.54","lat":"31.2169","category":"94","category_name":"西餐厅","address":"浦东新区锦延路156号"},{"poiid":"B2094655D36DA0F8489B","title":"杨高南路世纪大道","lon":"121.53651","lat":"31.21991","category":"38","category_name":"公交车站","address":""},{"poiid":"B2094757D064A1FA499C","title":"友家日本料理","lon":"121.53835","lat":"31.21656","category":"95","category_name":"日本料理","address":"浦东新区锦延路69号张家浜创意街(近锦康路)"},{"poiid":"B2094757D16CA3FC479D","title":"万寿亭高丽参鸡汤陆家嘴商务广场店","lon":"121.534708019","lat":"31.2235147345","category":"96","category_name":"韩国料理","address":"浦东新区世纪大道1600号陆家嘴商务广场裙楼(近浦电路)"},{"poiid":"B2094753D56CA0F94098","title":"上海国金中心","lon":"121.542404","lat":"31.220159","category":"500","category_name":"未知分类","address":"上海市 浦东新区 世纪大道 陆家嘴"},{"poiid":"B2094757D764A5F4429C","title":"上海科技馆游客餐厅","lon":"121.540377","lat":"31.218154","category":"68","category_name":"快餐厅","address":"浦东新区世纪大道2000号上海科技馆内(近丁香路口)"},{"poiid":"B2094757D069A6FE499C","title":"棒约翰比萨(中央公寓店)","lon":"121.54036","lat":"31.2159","category":"94","category_name":"西餐厅","address":"浦东新区锦延路250号(近东绣路)"},{"poiid":"B2094757D568A7FF409A","title":"新都花园一期","lon":"121.539091","lat":"31.218896","category":"47","category_name":"住宅区","address":"上海市长宁区延安西路1235弄"},{"poiid":"B2094757D165A7FC4093","title":"上海ゼミ日本人学校","lon":"121.538826438","lat":"31.2194181697","category":"190","category_name":"培训机构","address":"上海锦延路168号"},{"poiid":"B2094757D66EA3FC409B","title":"世纪大道杨高中路","lon":"121.539192238","lat":"31.2228968438","category":"500","category_name":"未知分类","address":"上海市浦东新区世纪大道杨高中路口"},{"poiid":"B209475CD265AAFF419F","title":"囍旺咖啡  SeeWant Cafe","lon":"121.541459","lat":"31.220593","category":"67","category_name":"甜品店","address":"东方路989号中达广场大堂"},{"poiid":"B2094757D069A4FC409F","title":"世纪大道浦东南路","lon":"121.53729248","lat":"31.220455169","category":"500","category_name":"未知分类","address":"上海世纪大道浦东南路"},{"poiid":"B2094757D168ABFF409E","title":"上海移动培训中心","lon":"121.54164623","lat":"31.223074047","category":"500","category_name":"未知分类","address":"上海迎春路670号辅楼3楼"},{"poiid":"B2094757D06BABF84899","title":"公交639","lon":"121.54182507","lat":"31.221285776","category":"38","category_name":"公交车站","address":"上海周浦～巨峰路地铁站"},{"poiid":"B2094654DA69A3FE4799","title":"上海科技馆","lon":"121.54144","lat":"31.21851","category":"186","category_name":"科技馆","address":"浦东新区世纪大道2000号"},{"poiid":"B2094654DA69A3FE4792","title":"上海东方艺术中心(Shanghai Oriental Art Center)","lon":"121.54141","lat":"31.22273","category":"180","category_name":"剧场","address":"上海浦东新区丁香路425号(近世纪大道)"},{"poiid":"B2094757D06FA2FA429A","title":"上海东方艺术中心Shanghai Oriental Art Center","lon":"121.54141842189642","lat":"31.22291030374493","category":"179","category_name":"音乐厅","address":"上海浦东新区丁香路425号"},{"poiid":"B2094757D06EAAFA449A","title":"上海科技馆地铁站","lon":"121.54296","lat":"31.219458","category":"36","category_name":"地铁站","address":"上海轨道交通 二号线 轨交上海科技馆站 2"},{"poiid":"B2094654DB6BABF5459E","title":"星巴克咖啡(锦严路店)","lon":"121.54044","lat":"31.21641","category":"260","category_name":"其他","address":"浦东新区锦延路219号(近上海科技馆)"},{"poiid":"B2094757D06FA5FE4592","title":"世纪广场","lon":"121.54015207","lat":"31.22126886","category":"250","category_name":"公园户外","address":"浦东新区世纪大道世纪公园正门(近杨高路)"},{"poiid":"B2094757D06FA6FB4498","title":"期货大厦","lon":"121.535085","lat":"31.223555","category":"46","category_name":"楼宇","address":"上海浦东浦电路500号"},{"poiid":"B2094757D06FA6F54999","title":"东怡大酒店","lon":"121.54299542","lat":"31.22411864","category":"217","category_name":"旅馆招待所","address":"浦东新区丁香路555号(东方艺术中心旁)"},{"poiid":"B2094757D169A0FA439A","title":"由由世纪广场","lon":"121.538165738","lat":"31.2163130036","category":"500","category_name":"未知分类","address":"上海杨高南路428号"},{"poiid":"B2094655D265A7FD4293","title":"中国钻石交易中心","lon":"121.53635","lat":"31.22442","category":"46","category_name":"楼宇","address":"世纪大道1701"},{"poiid":"B2094757D068A0F44198","title":"上海东方艺术中心-演奏厅(Shanghai Oriental Art Center - Performance Hall)","lon":"121.541374736","lat":"31.2227814309","category":"260","category_name":"其他","address":"上海浦东新区丁香路425号"},{"poiid":"B2094750D165A2FF479F","title":"派对新地PartyTown","lon":"121.536459","lat":"31.217793","category":"189","category_name":"文艺团体","address":"浦东新区锦延路35号"},{"poiid":"B2094757D16BA6F4449C","title":"地铁四号线世纪大道站","lon":"121.536668738","lat":"31.2244261764","category":"36","category_name":"地铁站","address":"上海市浦东新区世纪大道"},{"poiid":"B2094757D068A3FA4993","title":"葛洲坝大厦","lon":"121.537088334","lat":"31.2252473955","category":"46","category_name":"楼宇","address":"徐汇区冠生园路223号"},{"poiid":"B2094757D068A6FF429D","title":"锦绣坊","lon":"121.54040527","lat":"31.216379165","category":"500","category_name":"未知分类","address":"浦东新区锦延路(近锦绣路)"},{"poiid":"B2094757D06FA0FC4893","title":"上海市电力公司","lon":"121.53781276","lat":"31.224534954","category":"46","category_name":"楼宇","address":"上海源深路1122号"},{"poiid":"B2094757D068ABF54998","title":"肯德基KFC(科技馆店)","lon":"121.542076333","lat":"31.2193652614","category":"68","category_name":"快餐厅","address":"浦东新区世纪大道2002号亚太盛汇广场B1楼(近二号线上海科技馆站)"},{"poiid":"B2094655D26EA2FF4192","title":"法国餐馆巴黎上海","lon":"121.54141","lat":"31.22273","category":"97","category_name":"法式菜品餐厅","address":"浦东新区丁香路425号上海东方艺术中心B1楼(近世纪大道)"},{"poiid":"B2094757D16DA4F94499","title":"御味道","lon":"121.54203973","lat":"31.216068998","category":"500","category_name":"未知分类","address":"上海市浦东新区锦严路"},{"poiid":"B2094757D06AA1FE4299","title":"名豪鱼翅海鲜(浦东店)","lon":"121.53493","lat":"31.22356","category":"72","category_name":"广东菜","address":"浦东新区世纪大道1600号陆家嘴商务广场裙楼(近浦电路)"},{"poiid":"B2094654DA69A3FE479B","title":"世纪广场(世纪大道)","lon":"121.54129","lat":"31.22065","category":"201","category_name":"城市广场","address":"从东方明珠至浦东世纪公园全长约55公里"},{"poiid":"B2094757D16DABF8489C","title":"浦东新区政府大楼一号楼","lon":"121.544685364","lat":"31.2216567993","category":"500","category_name":"未知分类","address":"上海锦带路22号"},{"poiid":"B2094757D068A1F44199","title":"阿英煲(灵山路店)","lon":"121.53893","lat":"31.22548","category":"260","category_name":"其他","address":"上海浦东新区灵山路28号(近桃林路)  "},{"poiid":"B2094757D06AA1FE4093","title":"Daisy's kitchen","lon":"121.54391","lat":"31.21765","category":"94","category_name":"西餐厅","address":"浦东新区世纪大道2002号亚太盛汇南广场J-06号(近地铁二号线上海科技馆站)"},{"poiid":"B2094655D26EA5F44598","title":"次郎日式快餐 科技馆店","lon":"121.540979054","lat":"31.220935793","category":"68","category_name":"快餐厅","address":"浦东新区世纪大道2002号亚太盛汇广场B区07室(近二号线上海科技馆站)"},{"poiid":"B2094757D068A2FB4193","title":"时计台日本料理","lon":"121.537687","lat":"31.223353","category":"95","category_name":"日本料理","address":"浦东新区世纪大道1777号东方希望大厦1楼(近源深路)"},{"poiid":"B2094655D268A1FA4499","title":"城市广场(东方希望大厦东南)","lon":"121.53914","lat":"31.22115","category":"201","category_name":"城市广场","address":""},{"poiid":"B2094655D26DAAFA4993","title":"上海亚太盛汇休闲购物广场","lon":"121.54371","lat":"31.21829","category":"119","category_name":"商场","address":"亚太盛汇位于浦东浦东新区世纪大道2002号(杨高路地铁站)"},{"poiid":"B2094655D268A1FA439D","title":"木槿","lon":"121.536317054","lat":"31.218201793","category":"96","category_name":"韩国料理","address":"浦东新区锦延路83号(近锦康路)"},{"poiid":"B2094655D36CA1FD4799","title":"世纪大道丁香路","lon":"121.54036","lat":"31.22144","category":"38","category_name":"公交车站","address":""},{"poiid":"B2094757D16CA5FE4599","title":"康亘轩法式料理 CKC","lon":"121.537618","lat":"31.216577","category":"94","category_name":"西餐厅","address":"浦东新区锦延路269号(莎莉花园小区旁)"},{"poiid":"B2094757D069ABFF419C","title":"球幕影院","lon":"121.54163346","lat":"31.218096545","category":"178","category_name":"电影院","address":"世纪大道2000号上海科技馆"},{"poiid":"B2094655D26DA4F9499B","title":"伟泰大厦","lon":"121.539","lat":"31.222","category":"46","category_name":"楼宇","address":"峨山路941弄浦东软件园58号"},{"poiid":"B2094757D169A1F54599","title":"正大广场地下二层蛋蛋屋","lon":"121.538641238","lat":"31.2210243489","category":"500","category_name":"未知分类","address":"上海陆家嘴"},{"poiid":"B2094757D169A0FD4093","title":"Latina","lon":"121.542421568","lat":"31.2196233141","category":"500","category_name":"未知分类","address":"上海科技馆"},{"poiid":"B2094655D26AABFD419A","title":"八音盒珍品陈列馆","lon":"121.54141","lat":"31.22273","category":"646","category_name":"文化体育类公司","address":"浦东新区丁香路425号东方艺术中心4楼(近世纪大道)"},{"poiid":"B2094750D76FA4F5449C","title":"美伊娜和风意大利家庭料理","lon":"121.54","lat":"31.2169","category":"94","category_name":"西餐厅","address":"浦东新区锦延路156号"},{"poiid":"B2094655D36DA0F8489B","title":"杨高南路世纪大道","lon":"121.53651","lat":"31.21991","category":"38","category_name":"公交车站","address":""},{"poiid":"B2094757D064A1FA499C","title":"友家日本料理","lon":"121.53835","lat":"31.21656","category":"95","category_name":"日本料理","address":"浦东新区锦延路69号张家浜创意街(近锦康路)"},{"poiid":"B2094757D16CA3FC479D","title":"万寿亭高丽参鸡汤陆家嘴商务广场店","lon":"121.534708019","lat":"31.2235147345","category":"96","category_name":"韩国料理","address":"浦东新区世纪大道1600号陆家嘴商务广场裙楼(近浦电路)"},{"poiid":"B2094753D56CA0F94098","title":"上海国金中心","lon":"121.542404","lat":"31.220159","category":"500","category_name":"未知分类","address":"上海市 浦东新区 世纪大道 陆家嘴"},{"poiid":"B2094757D764A5F4429C","title":"上海科技馆游客餐厅","lon":"121.540377","lat":"31.218154","category":"68","category_name":"快餐厅","address":"浦东新区世纪大道2000号上海科技馆内(近丁香路口)"},{"poiid":"B2094757D069A6FE499C","title":"棒约翰比萨(中央公寓店)","lon":"121.54036","lat":"31.2159","category":"94","category_name":"西餐厅","address":"浦东新区锦延路250号(近东绣路)"},{"poiid":"B2094757D568A7FF409A","title":"新都花园一期","lon":"121.539091","lat":"31.218896","category":"47","category_name":"住宅区","address":"上海市长宁区延安西路1235弄"},{"poiid":"B2094757D165A7FC4093","title":"上海ゼミ日本人学校","lon":"121.538826438","lat":"31.2194181697","category":"190","category_name":"培训机构","address":"上海锦延路168号"},{"poiid":"B2094757D66EA3FC409B","title":"世纪大道杨高中路","lon":"121.539192238","lat":"31.2228968438","category":"500","category_name":"未知分类","address":"上海市浦东新区世纪大道杨高中路口"},{"poiid":"B209475CD265AAFF419F","title":"囍旺咖啡  SeeWant Cafe","lon":"121.541459","lat":"31.220593","category":"67","category_name":"甜品店","address":"东方路989号中达广场大堂"},{"poiid":"B2094757D069A4FC409F","title":"世纪大道浦东南路","lon":"121.53729248","lat":"31.220455169","category":"500","category_name":"未知分类","address":"上海世纪大道浦东南路"},{"poiid":"B2094757D168ABFF409E","title":"上海移动培训中心","lon":"121.54164623","lat":"31.223074047","category":"500","category_name":"未知分类","address":"上海迎春路670号辅楼3楼"},{"poiid":"B2094757D06BABF84899","title":"公交639","lon":"121.54182507","lat":"31.221285776","category":"38","category_name":"公交车站","address":"上海周浦～巨峰路地铁站"},{"poiid":"B2094654DA69A3FE4799","title":"上海科技馆","lon":"121.54144","lat":"31.21851","category":"186","category_name":"科技馆","address":"浦东新区世纪大道2000号"},{"poiid":"B2094654DA69A3FE4792","title":"上海东方艺术中心(Shanghai Oriental Art Center)","lon":"121.54141","lat":"31.22273","category":"180","category_name":"剧场","address":"上海浦东新区丁香路425号(近世纪大道)"},{"poiid":"B2094757D06FA2FA429A","title":"上海东方艺术中心Shanghai Oriental Art Center","lon":"121.54141842189642","lat":"31.22291030374493","category":"179","category_name":"音乐厅","address":"上海浦东新区丁香路425号"},{"poiid":"B2094757D06EAAFA449A","title":"上海科技馆地铁站","lon":"121.54296","lat":"31.219458","category":"36","category_name":"地铁站","address":"上海轨道交通 二号线 轨交上海科技馆站 2"},{"poiid":"B2094654DB6BABF5459E","title":"星巴克咖啡(锦严路店)","lon":"121.54044","lat":"31.21641","category":"260","category_name":"其他","address":"浦东新区锦延路219号(近上海科技馆)"},{"poiid":"B2094757D06FA5FE4592","title":"世纪广场","lon":"121.54015207","lat":"31.22126886","category":"250","category_name":"公园户外","address":"浦东新区世纪大道世纪公园正门(近杨高路)"},{"poiid":"B2094757D06FA6FB4498","title":"期货大厦","lon":"121.535085","lat":"31.223555","category":"46","category_name":"楼宇","address":"上海浦东浦电路500号"},{"poiid":"B2094757D06FA6F54999","title":"东怡大酒店","lon":"121.54299542","lat":"31.22411864","category":"217","category_name":"旅馆招待所","address":"浦东新区丁香路555号(东方艺术中心旁)"},{"poiid":"B2094757D169A0FA439A","title":"由由世纪广场","lon":"121.538165738","lat":"31.2163130036","category":"500","category_name":"未知分类","address":"上海杨高南路428号"},{"poiid":"B2094655D265A7FD4293","title":"中国钻石交易中心","lon":"121.53635","lat":"31.22442","category":"46","category_name":"楼宇","address":"世纪大道1701"},{"poiid":"B2094757D068A0F44198","title":"上海东方艺术中心-演奏厅(Shanghai Oriental Art Center - Performance Hall)","lon":"121.541374736","lat":"31.2227814309","category":"260","category_name":"其他","address":"上海浦东新区丁香路425号"},{"poiid":"B2094750D165A2FF479F","title":"派对新地PartyTown","lon":"121.536459","lat":"31.217793","category":"189","category_name":"文艺团体","address":"浦东新区锦延路35号"},{"poiid":"B2094757D16BA6F4449C","title":"地铁四号线世纪大道站","lon":"121.536668738","lat":"31.2244261764","category":"36","category_name":"地铁站","address":"上海市浦东新区世纪大道"},{"poiid":"B2094757D068A3FA4993","title":"葛洲坝大厦","lon":"121.537088334","lat":"31.2252473955","category":"46","category_name":"楼宇","address":"徐汇区冠生园路223号"},{"poiid":"B2094757D068A6FF429D","title":"锦绣坊","lon":"121.54040527","lat":"31.216379165","category":"500","category_name":"未知分类","address":"浦东新区锦延路(近锦绣路)"},{"poiid":"B2094757D06FA0FC4893","title":"上海市电力公司","lon":"121.53781276","lat":"31.224534954","category":"46","category_name":"楼宇","address":"上海源深路1122号"},{"poiid":"B2094757D068ABF54998","title":"肯德基KFC(科技馆店)","lon":"121.542076333","lat":"31.2193652614","category":"68","category_name":"快餐厅","address":"浦东新区世纪大道2002号亚太盛汇广场B1楼(近二号线上海科技馆站)"},{"poiid":"B2094655D26EA2FF4192","title":"法国餐馆巴黎上海","lon":"121.54141","lat":"31.22273","category":"97","category_name":"法式菜品餐厅","address":"浦东新区丁香路425号上海东方艺术中心B1楼(近世纪大道)"},{"poiid":"B2094757D16DA4F94499","title":"御味道","lon":"121.54203973","lat":"31.216068998","category":"500","category_name":"未知分类","address":"上海市浦东新区锦严路"},{"poiid":"B2094757D06AA1FE4299","title":"名豪鱼翅海鲜(浦东店)","lon":"121.53493","lat":"31.22356","category":"72","category_name":"广东菜","address":"浦东新区世纪大道1600号陆家嘴商务广场裙楼(近浦电路)"},{"poiid":"B2094654DA69A3FE479B","title":"世纪广场(世纪大道)","lon":"121.54129","lat":"31.22065","category":"201","category_name":"城市广场","address":"从东方明珠至浦东世纪公园全长约55公里"},{"poiid":"B2094757D16DABF8489C","title":"浦东新区政府大楼一号楼","lon":"121.544685364","lat":"31.2216567993","category":"500","category_name":"未知分类","address":"上海锦带路22号"},{"poiid":"B2094757D068A1F44199","title":"阿英煲(灵山路店)","lon":"121.53893","lat":"31.22548","category":"260","category_name":"其他","address":"上海浦东新区灵山路28号(近桃林路)  "},{"poiid":"B2094757D06AA1FE4093","title":"Daisy's kitchen","lon":"121.54391","lat":"31.21765","category":"94","category_name":"西餐厅","address":"浦东新区世纪大道2002号亚太盛汇南广场J-06号(近地铁二号线上海科技馆站)"},{"poiid":"B2094655D26EA5F44598","title":"次郎日式快餐 科技馆店","lon":"121.540979054","lat":"31.220935793","category":"68","category_name":"快餐厅","address":"浦东新区世纪大道2002号亚太盛汇广场B区07室(近二号线上海科技馆站)"},{"poiid":"B2094757D068A2FB4193","title":"时计台日本料理","lon":"121.537687","lat":"31.223353","category":"95","category_name":"日本料理","address":"浦东新区世纪大道1777号东方希望大厦1楼(近源深路)"},{"poiid":"B2094655D268A1FA4499","title":"城市广场(东方希望大厦东南)","lon":"121.53914","lat":"31.22115","category":"201","category_name":"城市广场","address":""},{"poiid":"B2094655D26DAAFA4993","title":"上海亚太盛汇休闲购物广场","lon":"121.54371","lat":"31.21829","category":"119","category_name":"商场","address":"亚太盛汇位于浦东浦东新区世纪大道2002号(杨高路地铁站)"},{"poiid":"B2094655D268A1FA439D","title":"木槿","lon":"121.536317054","lat":"31.218201793","category":"96","category_name":"韩国料理","address":"浦东新区锦延路83号(近锦康路)"},{"poiid":"B2094655D36CA1FD4799","title":"世纪大道丁香路","lon":"121.54036","lat":"31.22144","category":"38","category_name":"公交车站","address":""},{"poiid":"B2094757D16CA5FE4599","title":"康亘轩法式料理 CKC","lon":"121.537618","lat":"31.216577","category":"94","category_name":"西餐厅","address":"浦东新区锦延路269号(莎莉花园小区旁)"},{"poiid":"B2094757D069ABFF419C","title":"球幕影院","lon":"121.54163346","lat":"31.218096545","category":"178","category_name":"电影院","address":"世纪大道2000号上海科技馆"},{"poiid":"B2094655D26DA4F9499B","title":"伟泰大厦","lon":"121.539","lat":"31.222","category":"46","category_name":"楼宇","address":"峨山路941弄浦东软件园58号"},{"poiid":"B2094757D169A1F54599","title":"正大广场地下二层蛋蛋屋","lon":"121.538641238","lat":"31.2210243489","category":"500","category_name":"未知分类","address":"上海陆家嘴"},{"poiid":"B2094757D169A0FD4093","title":"Latina","lon":"121.542421568","lat":"31.2196233141","category":"500","category_name":"未知分类","address":"上海科技馆"},{"poiid":"B2094655D26AABFD419A","title":"八音盒珍品陈列馆","lon":"121.54141","lat":"31.22273","category":"646","category_name":"文化体育类公司","address":"浦东新区丁香路425号东方艺术中心4楼(近世纪大道)"},{"poiid":"B2094750D76FA4F5449C","title":"美伊娜和风意大利家庭料理","lon":"121.54","lat":"31.2169","category":"94","category_name":"西餐厅","address":"浦东新区锦延路156号"},{"poiid":"B2094655D36DA0F8489B","title":"杨高南路世纪大道","lon":"121.53651","lat":"31.21991","category":"38","category_name":"公交车站","address":""},{"poiid":"B2094757D064A1FA499C","title":"友家日本料理","lon":"121.53835","lat":"31.21656","category":"95","category_name":"日本料理","address":"浦东新区锦延路69号张家浜创意街(近锦康路)"},{"poiid":"B2094757D16CA3FC479D","title":"万寿亭高丽参鸡汤陆家嘴商务广场店","lon":"121.534708019","lat":"31.2235147345","category":"96","category_name":"韩国料理","address":"浦东新区世纪大道1600号陆家嘴商务广场裙楼(近浦电路)"},{"poiid":"B2094753D56CA0F94098","title":"上海国金中心","lon":"121.542404","lat":"31.220159","category":"500","category_name":"未知分类","address":"上海市 浦东新区 世纪大道 陆家嘴"},{"poiid":"B2094757D764A5F4429C","title":"上海科技馆游客餐厅","lon":"121.540377","lat":"31.218154","category":"68","category_name":"快餐厅","address":"浦东新区世纪大道2000号上海科技馆内(近丁香路口)"},{"poiid":"B2094757D069A6FE499C","title":"棒约翰比萨(中央公寓店)","lon":"121.54036","lat":"31.2159","category":"94","category_name":"西餐厅","address":"浦东新区锦延路250号(近东绣路)"},{"poiid":"B2094757D568A7FF409A","title":"新都花园一期","lon":"121.539091","lat":"31.218896","category":"47","category_name":"住宅区","address":"上海市长宁区延安西路1235弄"},{"poiid":"B2094757D165A7FC4093","title":"上海ゼミ日本人学校","lon":"121.538826438","lat":"31.2194181697","category":"190","category_name":"培训机构","address":"上海锦延路168号"},{"poiid":"B2094757D66EA3FC409B","title":"世纪大道杨高中路","lon":"121.539192238","lat":"31.2228968438","category":"500","category_name":"未知分类","address":"上海市浦东新区世纪大道杨高中路口"},{"poiid":"B209475CD265AAFF419F","title":"囍旺咖啡  SeeWant Cafe","lon":"121.541459","lat":"31.220593","category":"67","category_name":"甜品店","address":"东方路989号中达广场大堂"},{"poiid":"B2094757D069A4FC409F","title":"世纪大道浦东南路","lon":"121.53729248","lat":"31.220455169","category":"500","category_name":"未知分类","address":"上海世纪大道浦东南路"},{"poiid":"B2094757D168ABFF409E","title":"上海移动培训中心","lon":"121.54164623","lat":"31.223074047","category":"500","category_name":"未知分类","address":"上海迎春路670号辅楼3楼"},{"poiid":"B2094757D06BABF84899","title":"公交639","lon":"121.54182507","lat":"31.221285776","category":"38","category_name":"公交车站","address":"上海周浦～巨峰路地铁站"}]