[{"poiid":"B2094757D06FA3F9429C","title":"银河宾馆","lon":"121.41138860008414","lat":"31.20410764288778","category":"214","category_name":"四星级宾馆","address":"长宁区中山西路888号银河宾馆内(近延安西路)"},{"poiid":"B2094655D26EA5FD4099","title":"虹桥宾馆","lon":"121.41060904662709","lat":"31.20369027936784","category":"214","category_name":"四星级宾馆","address":"上海市长宁区延安西路2000号(近中山西路口)"},{"poiid":"B2094757D06FA3F5459B","title":"唐宫(银河店)","lon":"121.4118","lat":"31.20395","category":"72","category_name":"广东菜","address":"长宁区中山西路888号银河宾馆2楼(近延安西路)"},{"poiid":"B2094757D06FA6FB479D","title":"柚子(虹桥店)","lon":"121.40877","lat":"31.20379","category":"95","category_name":"日本料理","address":"长宁区仙霞路8号仲盛金融中心2楼"},{"poiid":"B2094757D06FA2FE429E","title":"新元素餐厅 Element Fresh 古北店(上海嘉顿广场)","lon":"121.40749","lat":"31.202811","category":"260","category_name":"其他","address":"延安西路2088号虹桥嘉顿广场1楼近伊犁路"},{"poiid":"B2094757D66CA3F5429E","title":"奥巴马会所","lon":"121.40724958","lat":"31.202753893","category":"500","category_name":"未知分类","address":"上海市娄山关路"},{"poiid":"B2094655D36CA4FD4793","title":"安顺路","lon":"121.413","lat":"31.20141","category":"38","category_name":"公交车站","address":""},{"poiid":"B2094751D46BA4FA4498","title":"cat &coffee","lon":"121.40764524098302","lat":"31.20339909727332","category":"65","category_name":"咖啡厅","address":"长宁区延安西路2077号金桥大厦702室"},{"poiid":"B2094757D06FA2F8419E","title":"虹桥友谊商城","lon":"121.40708061","lat":"31.202889779","category":"119","category_name":"商场","address":"长宁区遵义南路6号(近仙霞路)"},{"poiid":"B2094757D06AABFE499C","title":"三泰养生铁板烧","lon":"121.40899658","lat":"31.20170021","category":"94","category_name":"西餐厅","address":"长宁区伊犁路135号(近安顺路)"},{"poiid":"B2094655D269AAFB429E","title":"银河宾馆宴会厅","lon":"121.4113","lat":"31.20401","category":"247","category_name":"餐饮美食","address":"长宁区中山西路888号银河宾馆内(近延安西路)查看地图"},{"poiid":"B2094757D069A7F94493","title":"东华大学 旭日楼","lon":"121.412886526","lat":"31.2028334153","category":"253","category_name":"校园生活","address":"上海长宁区延安西路1882号东华大学延安路校区"},{"poiid":"B2094757D065A7FD479E","title":"青叶家日本料理","lon":"121.408083086","lat":"31.2018559762","category":"500","category_name":"未知分类","address":"上海延安西路2077号金桥大厦一楼"},{"poiid":"B2094655D269A4FA4192","title":"哈根达斯 仙霞店 Haagen-Dazs","lon":"121.406970054","lat":"31.202718793","category":"67","category_name":"甜品店","address":"长宁区遵义南路6号虹桥友谊商城1楼(近仙霞路)"},{"poiid":"B2094655D26AA7FB469E","title":"一兆韦德虹桥店","lon":"121.41033","lat":"31.20403","category":"247","category_name":"餐饮美食","address":"长宁区延安西路2000号虹桥宾馆3楼(近中山西路)"},{"poiid":"B2094654DB6BA7FE4393","title":"澳门豆捞坊(仲盛金融中心)","lon":"121.40811","lat":"31.20396","category":"86","category_name":"火锅店","address":"长宁区延安西路2067号仲盛金融中心2楼(近仙霞路)"},{"poiid":"B2094757D464A7FE4492","title":"新元素 嘉顿广场店 Element Fresh","lon":"121.407514054","lat":"31.202745793","category":"101","category_name":"美式风味","address":"长宁区延安西路2088号虹桥嘉顿广场1楼(近伊犁路)"},{"poiid":"B2094757D069A1FB4298","title":"GUSTO","lon":"121.407469","lat":"31.20234","category":"94","category_name":"西餐厅","address":"长宁区延安西路2088号A102-103嘉顿广场1楼(遵义路与伊犁路间)"},{"poiid":"B209475DD46EA1F4439A","title":"校村Kyochon","lon":"121.407463","lat":"31.202987","category":"247","category_name":"餐饮美食","address":"上海市 上海长宁区延安西路2088号二楼A223单元"},{"poiid":"B2094757D069A7F44493","title":"青叶家","lon":"121.40830655","lat":"31.20325346","category":"95","category_name":"日本料理","address":"长宁区延安西路2071弄9号金桥大厦1楼(近仙霞路)"},{"poiid":"B2094750DB65AAF44393","title":"初花日本料理","lon":"121.406784","lat":"31.202966","category":"500","category_name":"未知分类","address":"虹桥路1446号古北湾大酒店三楼"},{"poiid":"B2094751D26DA0FE409A","title":"古北国际财富中心二期","lon":"121.41","lat":"31.2036","category":"252","category_name":"楼宇机构","address":"红宝石路200号"},{"poiid":"B2094655D26FA6FB409A","title":"汉庭快捷(伊犁路店)","lon":"121.40904","lat":"31.20235","category":"216","category_name":"经济型连锁酒店","address":"上海市长宁区伊犁路158号(近安顺路)"},{"poiid":"B2094454D26EA4F44393","title":"kyochon1991校村","lon":"121.406936","lat":"31.202878","category":"247","category_name":"餐饮美食","address":"上海市 延安西路2088号嘉顿商业广场1幢2层A223(伊犁路)"},{"poiid":"B2094654D56BA5FA459A","title":"交通银行大厦","lon":"121.40772","lat":"31.2043","category":"46","category_name":"楼宇","address":"仙霞路18"},{"poiid":"B2094655D26EA7FC4292","title":"莫泰268(上海虹桥开发区店)","lon":"121.41212","lat":"31.20283","category":"250","category_name":"公园户外","address":"上海市长宁区中山西路906号(近新华路)"},{"poiid":"B2094757D065A4FB4898","title":"城日本料理","lon":"121.4104","lat":"31.20364","category":"95","category_name":"日本料理","address":"长宁区延安西路2000号虹桥宾馆1号门1楼(近中山西路)"},{"poiid":"B2094757D06AA7F94098","title":"申汇轩(伊犁路店)","lon":"121.40793","lat":"31.20067","category":"76","category_name":"上海菜","address":"长宁区伊犁路111号(安顺路口)"},{"poiid":"B2094757D16FA3FD4698","title":"甬府酒楼","lon":"121.41141408","lat":"31.203946917","category":"75","category_name":"浙江菜","address":"长宁区中山西路888号银河宾馆1楼(近延安西路)"},{"poiid":"B2094757D069A1FA439E","title":"Obama","lon":"121.40784818","lat":"31.202628661","category":"172","category_name":"酒吧","address":"上海伊犁路"},{"poiid":"B2094757D068ABFC4092","title":"虹储小区","lon":"121.41197","lat":"31.199516","category":"47","category_name":"住宅区","address":"上海长宁区虹桥路1041弄(安顺路283弄后门)"},{"poiid":"B2094757D16CA7FF429A","title":"虹桥宾馆 虹苑厅","lon":"121.41009","lat":"31.20364","category":"76","category_name":"上海菜","address":"长宁区延安西路2000号虹桥宾馆1楼(近中山西路)"},{"poiid":"B2094750DB64AAF84498","title":"国药大厦","lon":"121.410736","lat":"31.201501","category":"252","category_name":"楼宇机构","address":"中山西路1001号"},{"poiid":"B2094655D26EAAF5449C","title":"银河咖啡厅","lon":"121.4113","lat":"31.20401","category":"65","category_name":"咖啡厅","address":"长宁区中山西路888号银河宾馆1楼(近延安西路)"},{"poiid":"B2094753D765A0FC489F","title":"糯美人韩国年糕火锅","lon":"121.408226","lat":"31.204523","category":"96","category_name":"韩国料理","address":"长宁区仙霞路8号仲盛金融中心2楼(近延安西路口)"},{"poiid":"B2094655D264A2F54199","title":"美林小厨","lon":"121.41203","lat":"31.2022","category":"76","category_name":"上海菜","address":"长宁区中山西路906号莫泰268店内1楼"},{"poiid":"B2094750D76DA6FC469B","title":"空海日本料理","lon":"121.41","lat":"31.2039","category":"95","category_name":"日本料理","address":"长宁区延安西路2000号虹桥宾馆大厅内(近中山西路)"},{"poiid":"B2094757D168A6FA4798","title":"Sushi Haru(鮨春)","lon":"121.40765558","lat":"31.20209288","category":"95","category_name":"日本料理","address":"长宁区延安西路2088号嘉顿广场(古北路虹桥路)"},{"poiid":"B2094757D16AA2F44698","title":"和之美","lon":"121.40867363","lat":"31.20410942","category":"95","category_name":"日本料理","address":"长宁区仙霞路1号(近延安西路)"},{"poiid":"B2094757D16EA0FA439B","title":"樱川","lon":"121.411448586","lat":"31.2039649174","category":"247","category_name":"餐饮美食","address":"上海市长宁区中山西路888号银河宾馆二楼"},{"poiid":"B2094655D26FA5FF499F","title":"联鑫虹桥苑","lon":"121.40961","lat":"31.201197","category":"47","category_name":"住宅区","address":"上海市长宁区安顺路358弄"},{"poiid":"B2094654DB65A0FA429F","title":"钵泉日本料理","lon":"121.40725212194","lat":"31.203228941799","category":"95","category_name":"日本料理","address":"长宁区延安西路2077号金桥大厦209B(近仙霞路)"},{"poiid":"B2094750D665ABFE409C","title":"げんこつ","lon":"121.408","lat":"31.2023","category":"95","category_name":"日本料理","address":"长宁区延安西路2088号嘉顿广场内"},{"poiid":"B2094757D16FA3F54392","title":"中国银行","lon":"121.40853171","lat":"31.203635","category":"150","category_name":"银行","address":"上海延安西路2067号"},{"poiid":"B2094655D268A5FC439A","title":"上海纺织服饰博物馆","lon":"121.41358","lat":"31.20328","category":"182","category_name":"博物馆","address":"长宁区延安西路1882号东华大学内(近虹桥路)"},{"poiid":"B2094757D16FAAF54993","title":"康骏保健中心(金桥店)","lon":"121.40775","lat":"31.20316","category":"149","category_name":"洗浴推拿场所","address":"上海长宁区延安西路2077号金桥大厦3楼301室(近友谊商城)  "},{"poiid":"B2094655D36DA0FA429C","title":"伊犁路安顺路","lon":"121.40779","lat":"31.20154","category":"38","category_name":"公交车站","address":""},{"poiid":"B2094757D068A0FD489C","title":"新鲜生活","lon":"121.408667","lat":"31.204266","category":"113","category_name":"冷饮店","address":"上海长宁区仙霞路8号仲盛金融中心一楼(近延安西路)"},{"poiid":"B209475DD46FA5FA4992","title":"艾瑞客意大利家庭料理","lon":"121.408889","lat":"31.202022","category":"247","category_name":"餐饮美食","address":"上海市 上海市长宁区凯旋路1580-1淮海坊商业街内"},{"poiid":"B2094757DA6AABFD499A","title":"上海火车站","lon":"121.412663","lat":"31.20308","category":"627","category_name":"一般地点标志","address":"上海市闸北区秣陵路303号"},{"poiid":"B2094757D06FA3F9429C","title":"银河宾馆","lon":"121.41138860008414","lat":"31.20410764288778","category":"214","category_name":"四星级宾馆","address":"长宁区中山西路888号银河宾馆内(近延安西路)"},{"poiid":"B2094655D26EA5FD4099","title":"虹桥宾馆","lon":"121.41060904662709","lat":"31.20369027936784","category":"214","category_name":"四星级宾馆","address":"上海市长宁区延安西路2000号(近中山西路口)"},{"poiid":"B2094757D06FA3F5459B","title":"唐宫(银河店)","lon":"121.4118","lat":"31.20395","category":"72","category_name":"广东菜","address":"长宁区中山西路888号银河宾馆2楼(近延安西路)"},{"poiid":"B2094757D06FA6FB479D","title":"柚子(虹桥店)","lon":"121.40877","lat":"31.20379","category":"95","category_name":"日本料理","address":"长宁区仙霞路8号仲盛金融中心2楼"},{"poiid":"B2094757D06FA2FE429E","title":"新元素餐厅 Element Fresh 古北店(上海嘉顿广场)","lon":"121.40749","lat":"31.202811","category":"260","category_name":"其他","address":"延安西路2088号虹桥嘉顿广场1楼近伊犁路"},{"poiid":"B2094757D66CA3F5429E","title":"奥巴马会所","lon":"121.40724958","lat":"31.202753893","category":"500","category_name":"未知分类","address":"上海市娄山关路"},{"poiid":"B2094655D36CA4FD4793","title":"安顺路","lon":"121.413","lat":"31.20141","category":"38","category_name":"公交车站","address":""},{"poiid":"B2094751D46BA4FA4498","title":"cat &coffee","lon":"121.40764524098302","lat":"31.20339909727332","category":"65","category_name":"咖啡厅","address":"长宁区延安西路2077号金桥大厦702室"},{"poiid":"B2094757D06FA2F8419E","title":"虹桥友谊商城","lon":"121.40708061","lat":"31.202889779","category":"119","category_name":"商场","address":"长宁区遵义南路6号(近仙霞路)"},{"poiid":"B2094757D06AABFE499C","title":"三泰养生铁板烧","lon":"121.40899658","lat":"31.20170021","category":"94","category_name":"西餐厅","address":"长宁区伊犁路135号(近安顺路)"},{"poiid":"B2094655D269AAFB429E","title":"银河宾馆宴会厅","lon":"121.4113","lat":"31.20401","category":"247","category_name":"餐饮美食","address":"长宁区中山西路888号银河宾馆内(近延安西路)查看地图"},{"poiid":"B2094757D069A7F94493","title":"东华大学 旭日楼","lon":"121.412886526","lat":"31.2028334153","category":"253","category_name":"校园生活","address":"上海长宁区延安西路1882号东华大学延安路校区"},{"poiid":"B2094757D065A7FD479E","title":"青叶家日本料理","lon":"121.408083086","lat":"31.2018559762","category":"500","category_name":"未知分类","address":"上海延安西路2077号金桥大厦一楼"},{"poiid":"B2094655D269A4FA4192","title":"哈根达斯 仙霞店 Haagen-Dazs","lon":"121.406970054","lat":"31.202718793","category":"67","category_name":"甜品店","address":"长宁区遵义南路6号虹桥友谊商城1楼(近仙霞路)"},{"poiid":"B2094655D26AA7FB469E","title":"一兆韦德虹桥店","lon":"121.41033","lat":"31.20403","category":"247","category_name":"餐饮美食","address":"长宁区延安西路2000号虹桥宾馆3楼(近中山西路)"},{"poiid":"B2094654DB6BA7FE4393","title":"澳门豆捞坊(仲盛金融中心)","lon":"121.40811","lat":"31.20396","category":"86","category_name":"火锅店","address":"长宁区延安西路2067号仲盛金融中心2楼(近仙霞路)"},{"poiid":"B2094757D464A7FE4492","title":"新元素 嘉顿广场店 Element Fresh","lon":"121.407514054","lat":"31.202745793","category":"101","category_name":"美式风味","address":"长宁区延安西路2088号虹桥嘉顿广场1楼(近伊犁路)"},{"poiid":"B2094757D069A1FB4298","title":"GUSTO","lon":"121.407469","lat":"31.20234","category":"94","category_name":"西餐厅","address":"长宁区延安西路2088号A102-103嘉顿广场1楼(遵义路与伊犁路间)"},{"poiid":"B209475DD46EA1F4439A","title":"校村Kyochon","lon":"121.407463","lat":"31.202987","category":"247","category_name":"餐饮美食","address":"上海市 上海长宁区延安西路2088号二楼A223单元"},{"poiid":"B2094757D069A7F44493","title":"青叶家","lon":"121.40830655","lat":"31.20325346","category":"95","category_name":"日本料理","address":"长宁区延安西路2071弄9号金桥大厦1楼(近仙霞路)"},{"poiid":"B2094750DB65AAF44393","title":"初花日本料理","lon":"121.406784","lat":"31.202966","category":"500","category_name":"未知分类","address":"虹桥路1446号古北湾大酒店三楼"},{"poiid":"B2094751D26DA0FE409A","title":"古北国际财富中心二期","lon":"121.41","lat":"31.2036","category":"252","category_name":"楼宇机构","address":"红宝石路200号"},{"poiid":"B2094655D26FA6FB409A","title":"汉庭快捷(伊犁路店)","lon":"121.40904","lat":"31.20235","category":"216","category_name":"经济型连锁酒店","address":"上海市长宁区伊犁路158号(近安顺路)"},{"poiid":"B2094454D26EA4F44393","title":"kyochon1991校村","lon":"121.406936","lat":"31.202878","category":"247","category_name":"餐饮美食","address":"上海市 延安西路2088号嘉顿商业广场1幢2层A223(伊犁路)"},{"poiid":"B2094654D56BA5FA459A","title":"交通银行大厦","lon":"121.40772","lat":"31.2043","category":"46","category_name":"楼宇","address":"仙霞路18"},{"poiid":"B2094655D26EA7FC4292","title":"莫泰268(上海虹桥开发区店)","lon":"121.41212","lat":"31.20283","category":"250","category_name":"公园户外","address":"上海市长宁区中山西路906号(近新华路)"},{"poiid":"B2094757D065A4FB4898","title":"城日本料理","lon":"121.4104","lat":"31.20364","category":"95","category_name":"日本料理","address":"长宁区延安西路2000号虹桥宾馆1号门1楼(近中山西路)"},{"poiid":"B2094757D06AA7F94098","title":"申汇轩(伊犁路店)","lon":"121.40793","lat":"31.20067","category":"76","category_name":"上海菜","address":"长宁区伊犁路111号(安顺路口)"},{"poiid":"B2094757D16FA3FD4698","title":"甬府酒楼","lon":"121.41141408","lat":"31.203946917","category":"75","category_name":"浙江菜","address":"长宁区中山西路888号银河宾馆1楼(近延安西路)"},{"poiid":"B2094757D069A1FA439E","title":"Obama","lon":"121.40784818","lat":"31.202628661","category":"172","category_name":"酒吧","address":"上海伊犁路"},{"poiid":"B2094757D068ABFC4092","title":"虹储小区","lon":"121.41197","lat":"31.199516","category":"47","category_name":"住宅区","address":"上海长宁区虹桥路1041弄(安顺路283弄后门)"},{"poiid":"B2094757D16CA7FF429A","title":"虹桥宾馆 虹苑厅","lon":"121.41009","lat":"31.20364","category":"76","category_name":"上海菜","address":"长宁区延安西路2000号虹桥宾馆1楼(近中山西路)"},{"poiid":"B2094750DB64AAF84498","title":"国药大厦","lon":"121.410736","lat":"31.201501","category":"252","category_name":"楼宇机构","address":"中山西路1001号"},{"poiid":"B2094655D26EAAF5449C","title":"银河咖啡厅","lon":"121.4113","lat":"31.20401","category":"65","category_name":"咖啡厅","address":"长宁区中山西路888号银河宾馆1楼(近延安西路)"},{"poiid":"B2094753D765A0FC489F","title":"糯美人韩国年糕火锅","lon":"121.408226","lat":"31.204523","category":"96","category_name":"韩国料理","address":"长宁区仙霞路8号仲盛金融中心2楼(近延安西路口)"},{"poiid":"B2094655D264A2F54199","title":"美林小厨","lon":"121.41203","lat":"31.2022","category":"76","category_name":"上海菜","address":"长宁区中山西路906号莫泰268店内1楼"},{"poiid":"B2094750D76DA6FC469B","title":"空海日本料理","lon":"121.41","lat":"31.2039","category":"95","category_name":"日本料理","address":"长宁区延安西路2000号虹桥宾馆大厅内(近中山西路)"},{"poiid":"B2094757D168A6FA4798","title":"Sushi Haru(鮨春)","lon":"121.40765558","lat":"31.20209288","category":"95","category_name":"日本料理","address":"长宁区延安西路2088号嘉顿广场(古北路虹桥路)"},{"poiid":"B2094757D16AA2F44698","title":"和之美","lon":"121.40867363","lat":"31.20410942","category":"95","category_name":"日本料理","address":"长宁区仙霞路1号(近延安西路)"},{"poiid":"B2094757D16EA0FA439B","title":"樱川","lon":"121.411448586","lat":"31.2039649174","category":"247","category_name":"餐饮美食","address":"上海市长宁区中山西路888号银河宾馆二楼"},{"poiid":"B2094655D26FA5FF499F","title":"联鑫虹桥苑","lon":"121.40961","lat":"31.201197","category":"47","category_name":"住宅区","address":"上海市长宁区安顺路358弄"},{"poiid":"B2094654DB65A0FA429F","title":"钵泉日本料理","lon":"121.40725212194","lat":"31.203228941799","category":"95","category_name":"日本料理","address":"长宁区延安西路2077号金桥大厦209B(近仙霞路)"},{"poiid":"B2094750D665ABFE409C","title":"げんこつ","lon":"121.408","lat":"31.2023","category":"95","category_name":"日本料理","address":"长宁区延安西路2088号嘉顿广场内"},{"poiid":"B2094757D16FA3F54392","title":"中国银行","lon":"121.40853171","lat":"31.203635","category":"150","category_name":"银行","address":"上海延安西路2067号"},{"poiid":"B2094655D268A5FC439A","title":"上海纺织服饰博物馆","lon":"121.41358","lat":"31.20328","category":"182","category_name":"博物馆","address":"长宁区延安西路1882号东华大学内(近虹桥路)"},{"poiid":"B2094757D16FAAF54993","title":"康骏保健中心(金桥店)","lon":"121.40775","lat":"31.20316","category":"149","category_name":"洗浴推拿场所","address":"上海长宁区延安西路2077号金桥大厦3楼301室(近友谊商城)  "},{"poiid":"B2094655D36DA0FA429C","title":"伊犁路安顺路","lon":"121.40779","lat":"31.20154","category":"38","category_name":"公交车站","address":""},{"poiid":"B2094757D068A0FD489C","title":"新鲜生活","lon":"121.408667","lat":"31.204266","category":"113","category_name":"冷饮店","address":"上海长宁区仙霞路8号仲盛金融中心一楼(近延安西路)"},{"poiid":"B209475DD46FA5FA4992","title":"艾瑞客意大利家庭料理","lon":"121.408889","lat":"31.202022","category":"247","category_name":"餐饮美食","address":"上海市 上海市长宁区凯旋路1580-1淮海坊商业街内"},{"poiid":"B2094757DA6AABFD499A","title":"上海火车站","lon":"121.412663","lat":"31.20308","category":"627","category_name":"一般地点标志","address":"上海市闸北区秣陵路303号"},{"poiid":"B2094757D06FA3F9429C","title":"银河宾馆","lon":"121.41138860008414","lat":"31.20410764288778","category":"214","category_name":"四星级宾馆","address":"长宁区中山西路888号银河宾馆内(近延安西路)"},{"poiid":"B2094655D26EA5FD4099","title":"虹桥宾馆","lon":"121.41060904662709","lat":"31.20369027936784","category":"214","category_name":"四星级宾馆","address":"上海市长宁区延安西路2000号(近中山西路口)"},{"poiid":"B2094757D06FA3F5459B","title":"唐宫(银河店)","lon":"121.4118","lat":"31.20395","category":"72","category_name":"广东菜","address":"长宁区中山西路888号银河宾馆2楼(近延安西路)"},{"poiid":"B2094757D06FA6FB479D","title":"柚子(虹桥店)","lon":"121.40877","lat":"31.20379","category":"95","category_name":"日本料理","address":"长宁区仙霞路8号仲盛金融中心2楼"},{"poiid":"B2094757D06FA2FE429E","title":"新元素餐厅 Element Fresh 古北店(上海嘉顿广场)","lon":"121.40749","lat":"31.202811","category":"260","category_name":"其他","address":"延安西路2088号虹桥嘉顿广场1楼近伊犁路"},{"poiid":"B2094757D66CA3F5429E","title":"奥巴马会所","lon":"121.40724958","lat":"31.202753893","category":"500","category_name":"未知分类","address":"上海市娄山关路"},{"poiid":"B2094655D36CA4FD4793","title":"安顺路","lon":"121.413","lat":"31.20141","category":"38","category_name":"公交车站","address":""},{"poiid":"B2094751D46BA4FA4498","title":"cat &coffee","lon":"121.40764524098302","lat":"31.20339909727332","category":"65","category_name":"咖啡厅","address":"长宁区延安西路2077号金桥大厦702室"},{"poiid":"B2094757D06FA2F8419E","title":"虹桥友谊商城","lon":"121.40708061","lat":"31.202889779","category":"119","category_name":"商场","address":"长宁区遵义南路6号(近仙霞路)"},{"poiid":"B2094757D06AABFE499C","title":"三泰养生铁板烧","lon":"121.40899658","lat":"31.20170021","category":"94","category_name":"西餐厅","address":"长宁区伊犁路135号(近安顺路)"},{"poiid":"B2094655D269AAFB429E","title":"银河宾馆宴会厅","lon":"121.4113","lat":"31.20401","category":"247","category_name":"餐饮美食","address":"长宁区中山西路888号银河宾馆内(近延安西路)查看地图"},{"poiid":"B2094757D069A7F94493","title":"东华大学 旭日楼","lon":"121.412886526","lat":"31.2028334153","category":"253","category_name":"校园生活","address":"上海长宁区延安西路1882号东华大学延安路校区"},{"poiid":"B2094757D065A7FD479E","title":"青叶家日本料理","lon":"121.408083086","lat":"31.2018559762","category":"500","category_name":"未知分类","address":"上海延安西路2077号金桥大厦一楼"},{"poiid":"B2094655D269A4FA4192","title":"哈根达斯 仙霞店 Haagen-Dazs","lon":"121.406970054","lat":"31.202718793","category":"67","category_name":"甜品店","address":"长宁区遵义南路6号虹桥友谊商城1楼(近仙霞路)"},{"poiid":"B2094655D26AA7FB469E","title":"一兆韦德虹桥店","lon":"121.41033","lat":"31.20403","category":"247","category_name":"餐饮美食","address":"长宁区延安西路2000号虹桥宾馆3楼(近中山西路)"},{"poiid":"B2094654DB6BA7FE4393","title":"澳门豆捞坊(仲盛金融中心)","lon":"121.40811","lat":"31.20396","category":"86","category_name":"火锅店","address":"长宁区延安西路2067号仲盛金融中心2楼(近仙霞路)"},{"poiid":"B2094757D464A7FE4492","title":"新元素 嘉顿广场店 Element Fresh","lon":"121.407514054","lat":"31.202745793","category":"101","category_name":"美式风味","address":"长宁区延安西路2088号虹桥嘉顿广场1楼(近伊犁路)"},{"poiid":"B2094757D069A1FB4298","title":"GUSTO","lon":"121.407469","lat":"31.20234","category":"94","category_name":"西餐厅","address":"长宁区延安西路2088号A102-103嘉顿广场1楼(遵义路与伊犁路间)"},{"poiid":"B209475DD46EA1F4439A","title":"校村Kyochon","lon":"121.407463","lat":"31.202987","category":"247","category_name":"餐饮美食","address":"上海市 上海长宁区延安西路2088号二楼A223单元"},{"poiid":"B2094757D069A7F44493","title":"青叶家","lon":"121.40830655","lat":"31.20325346","category":"95","category_name":"日本料理","address":"长宁区延安西路2071弄9号金桥大厦1楼(近仙霞路)"},{"poiid":"B2094750DB65AAF44393","title":"初花日本料理","lon":"121.406784","lat":"31.202966","category":"500","category_name":"未知分类","address":"虹桥路1446号古北湾大酒店三楼"},{"poiid":"B2094751D26DA0FE409A","title":"古北国际财富中心二期","lon":"121.41","lat":"31.2036","category":"252","category_name":"楼宇机构","address":"红宝石路200号"},{"poiid":"B2094655D26FA6FB409A","title":"汉庭快捷(伊犁路店)","lon":"121.40904","lat":"31.20235","category":"216","category_name":"经济型连锁酒店","address":"上海市长宁区伊犁路158号(近安顺路)"},{"poiid":"B2094454D26EA4F44393","title":"kyochon1991校村","lon":"121.406936","lat":"31.202878","category":"247","category_name":"餐饮美食","address":"上海市 延安西路2088号嘉顿商业广场1幢2层A223(伊犁路)"},{"poiid":"B2094654D56BA5FA459A","title":"交通银行大厦","lon":"121.40772","lat":"31.2043","category":"46","category_name":"楼宇","address":"仙霞路18"},{"poiid":"B2094655D26EA7FC4292","title":"莫泰268(上海虹桥开发区店)","lon":"121.41212","lat":"31.20283","category":"250","category_name":"公园户外","address":"上海市长宁区中山西路906号(近新华路)"},{"poiid":"B2094757D065A4FB4898","title":"城日本料理","lon":"121.4104","lat":"31.20364","category":"95","category_name":"日本料理","address":"长宁区延安西路2000号虹桥宾馆1号门1楼(近中山西路)"},{"poiid":"B2094757D06AA7F94098","title":"申汇轩(伊犁路店)","lon":"121.40793","lat":"31.20067","category":"76","category_name":"上海菜","address":"长宁区伊犁路111号(安顺路口)"},{"poiid":"B2094757D16FA3FD4698","title":"甬府酒楼","lon":"121.41141408","lat":"31.203946917","category":"75","category_name":"浙江菜","address":"长宁区中山西路888号银河宾馆1楼(近延安西路)"},{"poiid":"B2094757D069A1FA439E","title":"Obama","lon":"121.40784818","lat":"31.202628661","category":"172","category_name":"酒吧","address":"上海伊犁路"},{"poiid":"B2094757D068ABFC4092","title":"虹储小区","lon":"121.41197","lat":"31.199516","category":"47","category_name":"住宅区","address":"上海长宁区虹桥路1041弄(安顺路283弄后门)"},{"poiid":"B2094757D16CA7FF429A","title":"虹桥宾馆 虹苑厅","lon":"121.41009","lat":"31.20364","category":"76","category_name":"上海菜","address":"长宁区延安西路2000号虹桥宾馆1楼(近中山西路)"},{"poiid":"B2094750DB64AAF84498","title":"国药大厦","lon":"121.410736","lat":"31.201501","category":"252","category_name":"楼宇机构","address":"中山西路1001号"},{"poiid":"B2094655D26EAAF5449C","title":"银河咖啡厅","lon":"121.4113","lat":"31.20401","category":"65","category_name":"咖啡厅","address":"长宁区中山西路888号银河宾馆1楼(近延安西路)"},{"poiid":"B2094753D765A0FC489F","title":"糯美人韩国年糕火锅","lon":"121.408226","lat":"31.204523","category":"96","category_name":"韩国料理","address":"长宁区仙霞路8号仲盛金融中心2楼(近延安西路口)"},{"poiid":"B2094655D264A2F54199","title":"美林小厨","lon":"121.41203","lat":"31.2022","category":"76","category_name":"上海菜","address":"长宁区中山西路906号莫泰268店内1楼"},{"poiid":"B2094750D76DA6FC469B","title":"空海日本料理","lon":"121.41","lat":"31.2039","category":"95","category_name":"日本料理","address":"长宁区延安西路2000号虹桥宾馆大厅内(近中山西路)"},{"poiid":"B2094757D168A6FA4798","title":"Sushi Haru(鮨春)","lon":"121.40765558","lat":"31.20209288","category":"95","category_name":"日本料理","address":"长宁区延安西路2088号嘉顿广场(古北路虹桥路)"},{"poiid":"B2094757D16AA2F44698","title":"和之美","lon":"121.40867363","lat":"31.20410942","category":"95","category_name":"日本料理","address":"长宁区仙霞路1号(近延安西路)"},{"poiid":"B2094757D16EA0FA439B","title":"樱川","lon":"121.411448586","lat":"31.2039649174","category":"247","category_name":"餐饮美食","address":"上海市长宁区中山西路888号银河宾馆二楼"},{"poiid":"B2094655D26FA5FF499F","title":"联鑫虹桥苑","lon":"121.40961","lat":"31.201197","category":"47","category_name":"住宅区","address":"上海市长宁区安顺路358弄"},{"poiid":"B2094654DB65A0FA429F","title":"钵泉日本料理","lon":"121.40725212194","lat":"31.203228941799","category":"95","category_name":"日本料理","address":"长宁区延安西路2077号金桥大厦209B(近仙霞路)"},{"poiid":"B2094750D665ABFE409C","title":"げんこつ","lon":"121.408","lat":"31.2023","category":"95","category_name":"日本料理","address":"长宁区延安西路2088号嘉顿广场内"},{"poiid":"B2094757D16FA3F54392","title":"中国银行","lon":"121.40853171","lat":"31.203635","category":"150","category_name":"银行","address":"上海延安西路2067号"},{"poiid":"B2094655D268A5FC439A","title":"上海纺织服饰博物馆","lon":"121.41358","lat":"31.20328","category":"182","category_name":"博物馆","address":"长宁区延安西路1882号东华大学内(近虹桥路)"},{"poiid":"B2094757D16FAAF54993","title":"康骏保健中心(金桥店)","lon":"121.40775","lat":"31.20316","category":"149","category_name":"洗浴推拿场所","address":"上海长宁区延安西路2077号金桥大厦3楼301室(近友谊商城)  "},{"poiid":"B2094655D36DA0FA429C","title":"伊犁路安顺路","lon":"121.40779","lat":"31.20154","category":"38","category_name":"公交车站","address":""},{"poiid":"B2094757D068A0FD489C","title":"新鲜生活","lon":"121.408667","lat":"31.204266","category":"113","category_name":"冷饮店","address":"上海长宁区仙霞路8号仲盛金融中心一楼(近延安西路)"},{"poiid":"B209475DD46FA5FA4992","title":"艾瑞客意大利家庭料理","lon":"121.408889","lat":"31.202022","category":"247","category_name":"餐饮美食","address":"上海市 上海市长宁区凯旋路1580-1淮海坊商业街内"},{"poiid":"B2094757DA6AABFD499A","title":"上海火车站","lon":"121.412663","lat":"31.20308","category":"627","category_name":"一般地点标志","address":"上海市闸北区秣陵路303号"},{"poiid":"B2094757D06FA3F9429C","title":"银河宾馆","lon":"121.41138860008414","lat":"31.20410764288778","category":"214","category_name":"四星级宾馆","address":"长宁区中山西路888号银河宾馆内(近延安西路)"},{"poiid":"B2094655D26EA5FD4099","title":"虹桥宾馆","lon":"121.41060904662709","lat":"31.20369027936784","category":"214","category_name":"四星级宾馆","address":"上海市长宁区延安西路2000号(近中山西路口)"},{"poiid":"B2094757D06FA3F5459B","title":"唐宫(银河店)","lon":"121.4118","lat":"31.20395","category":"72","category_name":"广东菜","address":"长宁区中山西路888号银河宾馆2楼(近延安西路)"},{"poiid":"B2094757D06FA6FB479D","title":"柚子(虹桥店)","lon":"121.40877","lat":"31.20379","category":"95","category_name":"日本料理","address":"长宁区仙霞路8号仲盛金融中心2楼"},{"poiid":"B2094757D06FA2FE429E","title":"新元素餐厅 Element Fresh 古北店(上海嘉顿广场)","lon":"121.40749","lat":"31.202811","category":"260","category_name":"其他","address":"延安西路2088号虹桥嘉顿广场1楼近伊犁路"},{"poiid":"B2094757D66CA3F5429E","title":"奥巴马会所","lon":"121.40724958","lat":"31.202753893","category":"500","category_name":"未知分类","address":"上海市娄山关路"},{"poiid":"B2094655D36CA4FD4793","title":"安顺路","lon":"121.413","lat":"31.20141","category":"38","category_name":"公交车站","address":""},{"poiid":"B2094751D46BA4FA4498","title":"cat &coffee","lon":"121.40764524098302","lat":"31.20339909727332","category":"65","category_name":"咖啡厅","address":"长宁区延安西路2077号金桥大厦702室"},{"poiid":"B2094757D06FA2F8419E","title":"虹桥友谊商城","lon":"121.40708061","lat":"31.202889779","category":"119","category_name":"商场","address":"长宁区遵义南路6号(近仙霞路)"},{"poiid":"B2094757D06AABFE499C","title":"三泰养生铁板烧","lon":"121.40899658","lat":"31.20170021","category":"94","category_name":"西餐厅","address":"长宁区伊犁路135号(近安顺路)"},{"poiid":"B2094655D269AAFB429E","title":"银河宾馆宴会厅","lon":"121.4113","lat":"31.20401","category":"247","category_name":"餐饮美食","address":"长宁区中山西路888号银河宾馆内(近延安西路)查看地图"},{"poiid":"B2094757D069A7F94493","title":"东华大学 旭日楼","lon":"121.412886526","lat":"31.2028334153","category":"253","category_name":"校园生活","address":"上海长宁区延安西路1882号东华大学延安路校区"},{"poiid":"B2094757D065A7FD479E","title":"青叶家日本料理","lon":"121.408083086","lat":"31.2018559762","category":"500","category_name":"未知分类","address":"上海延安西路2077号金桥大厦一楼"},{"poiid":"B2094655D269A4FA4192","title":"哈根达斯 仙霞店 Haagen-Dazs","lon":"121.406970054","lat":"31.202718793","category":"67","category_name":"甜品店","address":"长宁区遵义南路6号虹桥友谊商城1楼(近仙霞路)"},{"poiid":"B2094655D26AA7FB469E","title":"一兆韦德虹桥店","lon":"121.41033","lat":"31.20403","category":"247","category_name":"餐饮美食","address":"长宁区延安西路2000号虹桥宾馆3楼(近中山西路)"},{"poiid":"B2094654DB6BA7FE4393","title":"澳门豆捞坊(仲盛金融中心)","lon":"121.40811","lat":"31.20396","category":"86","category_name":"火锅店","address":"长宁区延安西路2067号仲盛金融中心2楼(近仙霞路)"},{"poiid":"B2094757D464A7FE4492","title":"新元素 嘉顿广场店 Element Fresh","lon":"121.407514054","lat":"31.202745793","category":"101","category_name":"美式风味","address":"长宁区延安西路2088号虹桥嘉顿广场1楼(近伊犁路)"},{"poiid":"B2094757D069A1FB4298","title":"GUSTO","lon":"121.407469","lat":"31.20234","category":"94","category_name":"西餐厅","address":"长宁区延安西路2088号A102-103嘉顿广场1楼(遵义路与伊犁路间)"},{"poiid":"B209475DD46EA1F4439A","title":"校村Kyochon","lon":"121.407463","lat":"31.202987","category":"247","category_name":"餐饮美食","address":"上海市 上海长宁区延安西路2088号二楼A223单元"},{"poiid":"B2094757D069A7F44493","title":"青叶家","lon":"121.40830655","lat":"31.20325346","category":"95","category_name":"日本料理","address":"长宁区延安西路2071弄9号金桥大厦1楼(近仙霞路)"},{"poiid":"B2094750DB65AAF44393","title":"初花日本料理","lon":"121.406784","lat":"31.202966","category":"500","category_name":"未知分类","address":"虹桥路1446号古北湾大酒店三楼"},{"poiid":"B2094751D26DA0FE409A","title":"古北国际财富中心二期","lon":"121.41","lat":"31.2036","category":"252","category_name":"楼宇机构","address":"红宝石路200号"},{"poiid":"B2094655D26FA6FB409A","title":"汉庭快捷(伊犁路店)","lon":"121.40904","lat":"31.20235","category":"216","category_name":"经济型连锁酒店","address":"上海市长宁区伊犁路158号(近安顺路)"},{"poiid":"B2094454D26EA4F44393","title":"kyochon1991校村","lon":"121.406936","lat":"31.202878","category":"247","category_name":"餐饮美食","address":"上海市 延安西路2088号嘉顿商业广场1幢2层A223(伊犁路)"},{"poiid":"B2094654D56BA5FA459A","title":"交通银行大厦","lon":"121.40772","lat":"31.2043","category":"46","category_name":"楼宇","address":"仙霞路18"},{"poiid":"B2094655D26EA7FC4292","title":"莫泰268(上海虹桥开发区店)","lon":"121.41212","lat":"31.20283","category":"250","category_name":"公园户外","address":"上海市长宁区中山西路906号(近新华路)"},{"poiid":"B2094757D065A4FB4898","title":"城日本料理","lon":"121.4104","lat":"31.20364","category":"95","category_name":"日本料理","address":"长宁区延安西路2000号虹桥宾馆1号门1楼(近中山西路)"},{"poiid":"B2094757D06AA7F94098","title":"申汇轩(伊犁路店)","lon":"121.40793","lat":"31.20067","category":"76","category_name":"上海菜","address":"长宁区伊犁路111号(安顺路口)"},{"poiid":"B2094757D16FA3FD4698","title":"甬府酒楼","lon":"121.41141408","lat":"31.203946917","category":"75","category_name":"浙江菜","address":"长宁区中山西路888号银河宾馆1楼(近延安西路)"},{"poiid":"B2094757D069A1FA439E","title":"Obama","lon":"121.40784818","lat":"31.202628661","category":"172","category_name":"酒吧","address":"上海伊犁路"},{"poiid":"B2094757D068ABFC4092","title":"虹储小区","lon":"121.41197","lat":"31.199516","category":"47","category_name":"住宅区","address":"上海长宁区虹桥路1041弄(安顺路283弄后门)"},{"poiid":"B2094757D16CA7FF429A","title":"虹桥宾馆 虹苑厅","lon":"121.41009","lat":"31.20364","category":"76","category_name":"上海菜","address":"长宁区延安西路2000号虹桥宾馆1楼(近中山西路)"},{"poiid":"B2094750DB64AAF84498","title":"国药大厦","lon":"121.410736","lat":"31.201501","category":"252","category_name":"楼宇机构","address":"中山西路1001号"},{"poiid":"B2094655D26EAAF5449C","title":"银河咖啡厅","lon":"121.4113","lat":"31.20401","category":"65","category_name":"咖啡厅","address":"长宁区中山西路888号银河宾馆1楼(近延安西路)"},{"poiid":"B2094753D765A0FC489F","title":"糯美人韩国年糕火锅","lon":"121.408226","lat":"31.204523","category":"96","category_name":"韩国料理","address":"长宁区仙霞路8号仲盛金融中心2楼(近延安西路口)"},{"poiid":"B2094655D264A2F54199","title":"美林小厨","lon":"121.41203","lat":"31.2022","category":"76","category_name":"上海菜","address":"长宁区中山西路906号莫泰268店内1楼"},{"poiid":"B2094750D76DA6FC469B","title":"空海日本料理","lon":"121.41","lat":"31.2039","category":"95","category_name":"日本料理","address":"长宁区延安西路2000号虹桥宾馆大厅内(近中山西路)"},{"poiid":"B2094757D168A6FA4798","title":"Sushi Haru(鮨春)","lon":"121.40765558","lat":"31.20209288","category":"95","category_name":"日本料理","address":"长宁区延安西路2088号嘉顿广场(古北路虹桥路)"},{"poiid":"B2094757D16AA2F44698","title":"和之美","lon":"121.40867363","lat":"31.20410942","category":"95","category_name":"日本料理","address":"长宁区仙霞路1号(近延安西路)"},{"poiid":"B2094757D16EA0FA439B","title":"樱川","lon":"121.411448586","lat":"31.2039649174","category":"247","category_name":"餐饮美食","address":"上海市长宁区中山西路888号银河宾馆二楼"},{"poiid":"B2094655D26FA5FF499F","title":"联鑫虹桥苑","lon":"121.40961","lat":"31.201197","category":"47","category_name":"住宅区","address":"上海市长宁区安顺路358弄"},{"poiid":"B2094654DB65A0FA429F","title":"钵泉日本料理","lon":"121.40725212194","lat":"31.203228941799","category":"95","category_name":"日本料理","address":"长宁区延安西路2077号金桥大厦209B(近仙霞路)"},{"poiid":"B2094750D665ABFE409C","title":"げんこつ","lon":"121.408","lat":"31.2023","category":"95","category_name":"日本料理","address":"长宁区延安西路2088号嘉顿广场内"},{"poiid":"B2094757D16FA3F54392","title":"中国银行","lon":"121.40853171","lat":"31.203635","category":"150","category_name":"银行","address":"上海延安西路2067号"},{"poiid":"B2094655D268A5FC439A","title":"上海纺织服饰博物馆","lon":"121.41358","lat":"31.20328","category":"182","category_name":"博物馆","address":"长宁区延安西路1882号东华大学内(近虹桥路)"},{"poiid":"B2094757D16FAAF54993","title":"康骏保健中心(金桥店)","lon":"121.40775","lat":"31.20316","category":"149","category_name":"洗浴推拿场所","address":"上海长宁区延安西路2077号金桥大厦3楼301室(近友谊商城)  "},{"poiid":"B2094655D36DA0FA429C","title":"伊犁路安顺路","lon":"121.40779","lat":"31.20154","category":"38","category_name":"公交车站","address":""},{"poiid":"B2094757D068A0FD489C","title":"新鲜生活","lon":"121.408667","lat":"31.204266","category":"113","category_name":"冷饮店","address":"上海长宁区仙霞路8号仲盛金融中心一楼(近延安西路)"},{"poiid":"B209475DD46FA5FA4992","title":"艾瑞客意大利家庭料理","lon":"121.408889","lat":"31.202022","category":"247","category_name":"餐饮美食","address":"上海市 上海市长宁区凯旋路1580-1淮海坊商业街内"},{"poiid":"B2094757DA6AABFD499A","title":"上海火车站","lon":"121.412663","lat":"31.20308","category":"627","category_name":"一般地点标志","address":"上海市闸北区秣陵路303号"}]