[{"poiid":"B2094757D068AAFE489F","title":"复兴西路","lon":"121.443012","lat":"31.208405","category":"46","category_name":"楼宇","address":"上海永福路"},{"poiid":"B2094757D06FA3F54592","title":"Glo London","lon":"121.44812058","lat":"31.209113018","category":"94","category_name":"西餐厅","address":"徐汇区乌鲁木齐南路1号甲(近东平路)"},{"poiid":"B2094654D564A4F8409C","title":"小城故事 淮海店 Charmant","lon":"121.44820018243","lat":"31.211774843986","category":"91","category_name":"台湾菜","address":"徐汇区淮海中路1414号1楼(近复兴西路)"},{"poiid":"B2094753D76FAAFA449C","title":"上海滩国泰旗舰店","lon":"121.466011","lat":"31.216125","category":"249","category_name":"购物服务","address":"淮海中路868号"},{"poiid":"B209475CD564A7F84292","title":"上海滩新天地店","lon":"121.47463","lat":"31.22164","category":"119","category_name":"商场","address":"\"太仓路181弄新天地北里15号\r\n\""},{"poiid":"B209475CD564A7F8439E","title":"上海滩中信泰富店","lon":"121.45602","lat":"31.22851","category":"119","category_name":"商场","address":"\"南京西路1168号中信泰富广场，店铺号221.\r\n\""},{"poiid":"B2094757D06EAAF54992","title":"JZ club(爵士俱乐部)","lon":"121.44488035","lat":"31.210675495","category":"172","category_name":"酒吧","address":"徐汇区复兴西路46号(近乌鲁木齐中路)"},{"poiid":"B2094654D564A4F84498","title":"来福楼火锅餐厅","lon":"121.44783","lat":"31.21063","category":"86","category_name":"火锅店","address":"徐汇区淮海中路1416号2楼(近复兴西路)"},{"poiid":"B2094757D06FA3F94499","title":"欧玛莉餐厅(O'Malley's Irish Pub)","lon":"121.44824981","lat":"31.209594726","category":"260","category_name":"其他","address":"徐汇区桃江路42号(近乌鲁木齐南路)"},{"poiid":"B2094757D06FAAF44599","title":"乾悦阁(Qian Yue Court)","lon":"121.44819358","lat":"31.211111057","category":"72","category_name":"广东菜","address":"上海徐汇区淮海中路1414号2-3楼(近复兴西路)"},{"poiid":"B2094757D06FA1FA409A","title":"一品居热气羊肉馆(乌鲁木齐中路店)","lon":"121.44662","lat":"31.21043","category":"86","category_name":"火锅店","address":"徐汇区乌鲁木齐中路352号(近复兴西路)"},{"poiid":"B2094752D768A2FB409E","title":"鼎王无老锅（上海无老衡山店）","lon":"121.446411","lat":"31.211093","category":"247","category_name":"餐饮美食","address":"上海徐汇区衡山路2号甲(近桃江路)"},{"poiid":"B2094757D06FA5FF419B","title":"棉花俱乐部 Cotton Club","lon":"121.44779408","lat":"31.210617415","category":"260","category_name":"其他","address":"徐汇区淮海中路1428号(近复兴西路)"},{"poiid":"B2094757D06FA2F8489B","title":"MT Club(淮海路店)","lon":"121.44947125","lat":"31.211846925","category":"260","category_name":"其他","address":"徐汇区淮海中路1329号云海大厦3楼(近常熟路)"},{"poiid":"B2094654DB6BA7F5479E","title":"来福小馆","lon":"121.44794","lat":"31.21075","category":"71","category_name":"四川菜","address":"徐汇区淮海中路1416号1楼(近复兴西路)"},{"poiid":"B2094757D068A2F8429B","title":"PHO REAL(复兴中路店)","lon":"121.44892958","lat":"31.210494045","category":"99","category_name":"泰国／越南菜品餐厅","address":"徐汇区复兴中路1465号(近宝庆路)"},{"poiid":"B2094757D068A6FD4198","title":"Spicy Moment","lon":"121.448082","lat":"31.212697","category":"77","category_name":"湖南菜","address":"徐汇区五原路71号(近常熟路)"},{"poiid":"B2094757D06FABFD459E","title":"高丽烧烤","lon":"121.4461","lat":"31.21237","category":"96","category_name":"韩国料理","address":"徐汇区五原路181弄1号(近乌鲁木齐中路)"},{"poiid":"B2094654DB64A6F9499A","title":"美国领事馆","lon":"121.44721","lat":"31.2088","category":"252","category_name":"楼宇机构","address":"乌鲁木齐中路"},{"poiid":"B2094757D068A3FD4392","title":"俏江南(徐汇店)","lon":"121.44857","lat":"31.20908","category":"71","category_name":"四川菜","address":"徐汇区桃江路28号-1(近衡山路)"},{"poiid":"B2094757D064A3FA4792","title":"KOTA'S KITCHEN(永嘉路店)","lon":"121.44951","lat":"31.21128","category":"269","category_name":"烧烤","address":"徐汇区永嘉路335号(近襄阳路)"},{"poiid":"B2094654DB69A7FD439E","title":"品川","lon":"121.44807","lat":"31.20909","category":"71","category_name":"四川菜","address":"徐汇区桃江路47号(近乌鲁木齐南路)"},{"poiid":"B2094757D06FA2F4459E","title":"博多新记(乌鲁木齐店)","lon":"121.44655","lat":"31.21135","category":"72","category_name":"广东菜","address":"徐汇区乌鲁木齐中路300号(近五原路)"},{"poiid":"B2094757D66EA4F8419C","title":"五原路","lon":"121.44781958","lat":"31.213365101","category":"500","category_name":"未知分类","address":"上海市徐汇区五原路"},{"poiid":"B2094654DA6DA4FA489E","title":"徐汇艺术馆","lon":"121.44816","lat":"31.2102","category":"183","category_name":"展览馆","address":"徐汇区淮海中路1413号(复兴路口)"},{"poiid":"B2094750DB6DA6FE479E","title":"Maya Club","lon":"121.44942","lat":"31.21178","category":"260","category_name":"其他","address":"徐汇区淮海中路1329号云海大厦3楼(宝庆路口)"},{"poiid":"B2094757D06FA6F94598","title":"老北京涮锅店","lon":"121.44719","lat":"31.21046","category":"86","category_name":"火锅店","address":"徐汇区乌鲁木齐中路346号(近复兴路)"},{"poiid":"B2094757D06AA4F9449A","title":"乌鲁木齐中路五原路","lon":"121.445794","lat":"31.212692","category":"500","category_name":"未知分类","address":"上海乌鲁木齐中路五原路"},{"poiid":"B2094752D26AA3FE479C","title":"Shanghai Brewery","lon":"121.4475978","lat":"31.2114357","category":"247","category_name":"餐饮美食","address":"上海市东平路15号(近衡山路"},{"poiid":"B2094757D06BA7F9439B","title":"Bella mia","lon":"121.450006","lat":"31.210957","category":"94","category_name":"西餐厅","address":"徐汇区宝庆路10号(复兴中路口)"},{"poiid":"B2094757D068ABFE439C","title":"鸿艺会会所(淮海中路店)","lon":"121.44689","lat":"31.2094","category":"221","category_name":"健身中心","address":"徐汇区淮海中路1500号(近乌鲁木齐中路)"},{"poiid":"B2094757D465A3FA4399","title":"隐泉源铁板烧 Kagen Teppanyaki","lon":"121.448960054","lat":"31.209266793","category":"247","category_name":"餐饮美食","address":"徐汇区桃江路28号丁(近衡山路)"},{"poiid":"B2094757D068A2F5499B","title":"复兴汇","lon":"121.44854","lat":"31.21006","category":"76","category_name":"上海菜","address":"徐汇区复兴中路1479号(近淮海中路)"},{"poiid":"B2094757D064A2FF4098","title":"桃江路","lon":"121.448433629","lat":"31.209268655","category":"172","category_name":"酒吧","address":"上海桃江路"},{"poiid":"B2094757D06AA4F84298","title":"Hunan House","lon":"121.445337989","lat":"31.209769788","category":"77","category_name":"湖南菜","address":"徐汇区复兴西路49弄2号(近乌鲁木齐路)"},{"poiid":"B2094654DA6DAAFB4098","title":"湾仔中国餐馆宝庆路店","lon":"121.44974","lat":"31.21117","category":"71","category_name":"四川菜","address":"徐汇区宝庆路10号(近复兴中路)"},{"poiid":"B2094757D068A4F5449C","title":"淮海路宝庆路口","lon":"121.449333191","lat":"31.2118606567","category":"260","category_name":"其他","address":"上海淮海路1329号"},{"poiid":"B2094750DB69A4FD479C","title":"浦西一妇婴","lon":"121.449172","lat":"31.212591","category":"627","category_name":"一般地点标志","address":"长乐路536号"},{"poiid":"B2094654DA6DAAFB429A","title":"玛雅俱乐部","lon":"121.44926763864044","lat":"31.21184508914139","category":"248","category_name":"生活娱乐","address":"淮海中路1329号云海大厦4层"},{"poiid":"B2094757D56DABFE449D","title":"五官科医院","lon":"121.44854","lat":"31.21006","category":"162","category_name":"医院","address":"复兴中路"},{"poiid":"B2094757D76DA0FD4499","title":"和平官邸 东平路店","lon":"121.448434","lat":"31.208901","category":"76","category_name":"上海菜","address":"徐汇区东平路16号(近衡山路)"},{"poiid":"B2094757D069A6FF4893","title":"Oscar 's Pub","lon":"121.44726716","lat":"31.210363417","category":"500","category_name":"未知分类","address":"上海市复兴西路1377号"},{"poiid":"B2094757D16CA3F4409A","title":"法國領事舘官邸","lon":"121.44766677","lat":"31.209986391","category":"500","category_name":"未知分类","address":"上海淮海中路1431號"},{"poiid":"B2094757D06BA2F9409C","title":"正圆烩面","lon":"121.44937258","lat":"31.211990074","category":"68","category_name":"快餐厅","address":"徐汇区乌鲁木齐中路247号(近五原路)"},{"poiid":"B2094751D36EA4F5409B","title":"Organic Kitchen","lon":"121.44503","lat":"31.21022","category":"94","category_name":"西餐厅","address":"徐汇区复兴西路57号(近永福路)"},{"poiid":"B209475CD16DABF84899","title":"KOTA'S KITCHEN 淮海中路店","lon":"121.44951","lat":"31.21128","category":"95","category_name":"日本料理","address":"淮海中路1333号(近宝庆路)"},{"poiid":"B2094757D568A6FD4899","title":"十号名邸中餐厅","lon":"121.44970595","lat":"31.21082601","category":"76","category_name":"上海菜","address":"徐汇区宝庆路10号2-4楼(复兴中路口)"},{"poiid":"B2094654DA6DA4FA489C","title":"上海图书馆教育培训中心","lon":"121.44801","lat":"31.21019","category":"190","category_name":"培训机构","address":"卢湾区淮海路(襄阳北路襄阳南路)"},{"poiid":"B2094757D16DA6FB4892","title":"O'MALLEY'S","lon":"121.448188586","lat":"31.2097060296","category":"500","category_name":"未知分类","address":"上海桃江路42号"},{"poiid":"B2094757D06BA4FC4492","title":"吉祥馄饨(复兴西路店)","lon":"121.44671","lat":"31.21029","category":"68","category_name":"快餐厅","address":"徐汇区复兴西路26号(近乌鲁木齐南路)"},{"poiid":"B2094757D068AAFE489F","title":"复兴西路","lon":"121.443012","lat":"31.208405","category":"46","category_name":"楼宇","address":"上海永福路"},{"poiid":"B2094757D06FA3F54592","title":"Glo London","lon":"121.44812058","lat":"31.209113018","category":"94","category_name":"西餐厅","address":"徐汇区乌鲁木齐南路1号甲(近东平路)"},{"poiid":"B2094654D564A4F8409C","title":"小城故事 淮海店 Charmant","lon":"121.44820018243","lat":"31.211774843986","category":"91","category_name":"台湾菜","address":"徐汇区淮海中路1414号1楼(近复兴西路)"},{"poiid":"B2094753D76FAAFA449C","title":"上海滩国泰旗舰店","lon":"121.466011","lat":"31.216125","category":"249","category_name":"购物服务","address":"淮海中路868号"},{"poiid":"B209475CD564A7F84292","title":"上海滩新天地店","lon":"121.47463","lat":"31.22164","category":"119","category_name":"商场","address":"\"太仓路181弄新天地北里15号\r\n\""},{"poiid":"B209475CD564A7F8439E","title":"上海滩中信泰富店","lon":"121.45602","lat":"31.22851","category":"119","category_name":"商场","address":"\"南京西路1168号中信泰富广场，店铺号221.\r\n\""},{"poiid":"B2094757D06EAAF54992","title":"JZ club(爵士俱乐部)","lon":"121.44488035","lat":"31.210675495","category":"172","category_name":"酒吧","address":"徐汇区复兴西路46号(近乌鲁木齐中路)"},{"poiid":"B2094654D564A4F84498","title":"来福楼火锅餐厅","lon":"121.44783","lat":"31.21063","category":"86","category_name":"火锅店","address":"徐汇区淮海中路1416号2楼(近复兴西路)"},{"poiid":"B2094757D06FA3F94499","title":"欧玛莉餐厅(O'Malley's Irish Pub)","lon":"121.44824981","lat":"31.209594726","category":"260","category_name":"其他","address":"徐汇区桃江路42号(近乌鲁木齐南路)"},{"poiid":"B2094757D06FAAF44599","title":"乾悦阁(Qian Yue Court)","lon":"121.44819358","lat":"31.211111057","category":"72","category_name":"广东菜","address":"上海徐汇区淮海中路1414号2-3楼(近复兴西路)"},{"poiid":"B2094757D06FA1FA409A","title":"一品居热气羊肉馆(乌鲁木齐中路店)","lon":"121.44662","lat":"31.21043","category":"86","category_name":"火锅店","address":"徐汇区乌鲁木齐中路352号(近复兴西路)"},{"poiid":"B2094752D768A2FB409E","title":"鼎王无老锅（上海无老衡山店）","lon":"121.446411","lat":"31.211093","category":"247","category_name":"餐饮美食","address":"上海徐汇区衡山路2号甲(近桃江路)"},{"poiid":"B2094757D06FA5FF419B","title":"棉花俱乐部 Cotton Club","lon":"121.44779408","lat":"31.210617415","category":"260","category_name":"其他","address":"徐汇区淮海中路1428号(近复兴西路)"},{"poiid":"B2094757D06FA2F8489B","title":"MT Club(淮海路店)","lon":"121.44947125","lat":"31.211846925","category":"260","category_name":"其他","address":"徐汇区淮海中路1329号云海大厦3楼(近常熟路)"},{"poiid":"B2094654DB6BA7F5479E","title":"来福小馆","lon":"121.44794","lat":"31.21075","category":"71","category_name":"四川菜","address":"徐汇区淮海中路1416号1楼(近复兴西路)"},{"poiid":"B2094757D068A2F8429B","title":"PHO REAL(复兴中路店)","lon":"121.44892958","lat":"31.210494045","category":"99","category_name":"泰国／越南菜品餐厅","address":"徐汇区复兴中路1465号(近宝庆路)"},{"poiid":"B2094757D068A6FD4198","title":"Spicy Moment","lon":"121.448082","lat":"31.212697","category":"77","category_name":"湖南菜","address":"徐汇区五原路71号(近常熟路)"},{"poiid":"B2094757D06FABFD459E","title":"高丽烧烤","lon":"121.4461","lat":"31.21237","category":"96","category_name":"韩国料理","address":"徐汇区五原路181弄1号(近乌鲁木齐中路)"},{"poiid":"B2094654DB64A6F9499A","title":"美国领事馆","lon":"121.44721","lat":"31.2088","category":"252","category_name":"楼宇机构","address":"乌鲁木齐中路"},{"poiid":"B2094757D068A3FD4392","title":"俏江南(徐汇店)","lon":"121.44857","lat":"31.20908","category":"71","category_name":"四川菜","address":"徐汇区桃江路28号-1(近衡山路)"},{"poiid":"B2094757D064A3FA4792","title":"KOTA'S KITCHEN(永嘉路店)","lon":"121.44951","lat":"31.21128","category":"269","category_name":"烧烤","address":"徐汇区永嘉路335号(近襄阳路)"},{"poiid":"B2094654DB69A7FD439E","title":"品川","lon":"121.44807","lat":"31.20909","category":"71","category_name":"四川菜","address":"徐汇区桃江路47号(近乌鲁木齐南路)"},{"poiid":"B2094757D06FA2F4459E","title":"博多新记(乌鲁木齐店)","lon":"121.44655","lat":"31.21135","category":"72","category_name":"广东菜","address":"徐汇区乌鲁木齐中路300号(近五原路)"},{"poiid":"B2094757D66EA4F8419C","title":"五原路","lon":"121.44781958","lat":"31.213365101","category":"500","category_name":"未知分类","address":"上海市徐汇区五原路"},{"poiid":"B2094654DA6DA4FA489E","title":"徐汇艺术馆","lon":"121.44816","lat":"31.2102","category":"183","category_name":"展览馆","address":"徐汇区淮海中路1413号(复兴路口)"},{"poiid":"B2094750DB6DA6FE479E","title":"Maya Club","lon":"121.44942","lat":"31.21178","category":"260","category_name":"其他","address":"徐汇区淮海中路1329号云海大厦3楼(宝庆路口)"},{"poiid":"B2094757D06FA6F94598","title":"老北京涮锅店","lon":"121.44719","lat":"31.21046","category":"86","category_name":"火锅店","address":"徐汇区乌鲁木齐中路346号(近复兴路)"},{"poiid":"B2094757D06AA4F9449A","title":"乌鲁木齐中路五原路","lon":"121.445794","lat":"31.212692","category":"500","category_name":"未知分类","address":"上海乌鲁木齐中路五原路"},{"poiid":"B2094752D26AA3FE479C","title":"Shanghai Brewery","lon":"121.4475978","lat":"31.2114357","category":"247","category_name":"餐饮美食","address":"上海市东平路15号(近衡山路"},{"poiid":"B2094757D06BA7F9439B","title":"Bella mia","lon":"121.450006","lat":"31.210957","category":"94","category_name":"西餐厅","address":"徐汇区宝庆路10号(复兴中路口)"},{"poiid":"B2094757D068ABFE439C","title":"鸿艺会会所(淮海中路店)","lon":"121.44689","lat":"31.2094","category":"221","category_name":"健身中心","address":"徐汇区淮海中路1500号(近乌鲁木齐中路)"},{"poiid":"B2094757D465A3FA4399","title":"隐泉源铁板烧 Kagen Teppanyaki","lon":"121.448960054","lat":"31.209266793","category":"247","category_name":"餐饮美食","address":"徐汇区桃江路28号丁(近衡山路)"},{"poiid":"B2094757D068A2F5499B","title":"复兴汇","lon":"121.44854","lat":"31.21006","category":"76","category_name":"上海菜","address":"徐汇区复兴中路1479号(近淮海中路)"},{"poiid":"B2094757D064A2FF4098","title":"桃江路","lon":"121.448433629","lat":"31.209268655","category":"172","category_name":"酒吧","address":"上海桃江路"},{"poiid":"B2094757D06AA4F84298","title":"Hunan House","lon":"121.445337989","lat":"31.209769788","category":"77","category_name":"湖南菜","address":"徐汇区复兴西路49弄2号(近乌鲁木齐路)"},{"poiid":"B2094654DA6DAAFB4098","title":"湾仔中国餐馆宝庆路店","lon":"121.44974","lat":"31.21117","category":"71","category_name":"四川菜","address":"徐汇区宝庆路10号(近复兴中路)"},{"poiid":"B2094757D068A4F5449C","title":"淮海路宝庆路口","lon":"121.449333191","lat":"31.2118606567","category":"260","category_name":"其他","address":"上海淮海路1329号"},{"poiid":"B2094750DB69A4FD479C","title":"浦西一妇婴","lon":"121.449172","lat":"31.212591","category":"627","category_name":"一般地点标志","address":"长乐路536号"},{"poiid":"B2094654DA6DAAFB429A","title":"玛雅俱乐部","lon":"121.44926763864044","lat":"31.21184508914139","category":"248","category_name":"生活娱乐","address":"淮海中路1329号云海大厦4层"},{"poiid":"B2094757D56DABFE449D","title":"五官科医院","lon":"121.44854","lat":"31.21006","category":"162","category_name":"医院","address":"复兴中路"},{"poiid":"B2094757D76DA0FD4499","title":"和平官邸 东平路店","lon":"121.448434","lat":"31.208901","category":"76","category_name":"上海菜","address":"徐汇区东平路16号(近衡山路)"},{"poiid":"B2094757D069A6FF4893","title":"Oscar 's Pub","lon":"121.44726716","lat":"31.210363417","category":"500","category_name":"未知分类","address":"上海市复兴西路1377号"},{"poiid":"B2094757D16CA3F4409A","title":"法國領事舘官邸","lon":"121.44766677","lat":"31.209986391","category":"500","category_name":"未知分类","address":"上海淮海中路1431號"},{"poiid":"B2094757D06BA2F9409C","title":"正圆烩面","lon":"121.44937258","lat":"31.211990074","category":"68","category_name":"快餐厅","address":"徐汇区乌鲁木齐中路247号(近五原路)"},{"poiid":"B2094751D36EA4F5409B","title":"Organic Kitchen","lon":"121.44503","lat":"31.21022","category":"94","category_name":"西餐厅","address":"徐汇区复兴西路57号(近永福路)"},{"poiid":"B209475CD16DABF84899","title":"KOTA'S KITCHEN 淮海中路店","lon":"121.44951","lat":"31.21128","category":"95","category_name":"日本料理","address":"淮海中路1333号(近宝庆路)"},{"poiid":"B2094757D568A6FD4899","title":"十号名邸中餐厅","lon":"121.44970595","lat":"31.21082601","category":"76","category_name":"上海菜","address":"徐汇区宝庆路10号2-4楼(复兴中路口)"},{"poiid":"B2094654DA6DA4FA489C","title":"上海图书馆教育培训中心","lon":"121.44801","lat":"31.21019","category":"190","category_name":"培训机构","address":"卢湾区淮海路(襄阳北路襄阳南路)"},{"poiid":"B2094757D16DA6FB4892","title":"O'MALLEY'S","lon":"121.448188586","lat":"31.2097060296","category":"500","category_name":"未知分类","address":"上海桃江路42号"},{"poiid":"B2094757D06BA4FC4492","title":"吉祥馄饨(复兴西路店)","lon":"121.44671","lat":"31.21029","category":"68","category_name":"快餐厅","address":"徐汇区复兴西路26号(近乌鲁木齐南路)"},{"poiid":"B2094757D068AAFE489F","title":"复兴西路","lon":"121.443012","lat":"31.208405","category":"46","category_name":"楼宇","address":"上海永福路"},{"poiid":"B2094757D06FA3F54592","title":"Glo London","lon":"121.44812058","lat":"31.209113018","category":"94","category_name":"西餐厅","address":"徐汇区乌鲁木齐南路1号甲(近东平路)"},{"poiid":"B2094654D564A4F8409C","title":"小城故事 淮海店 Charmant","lon":"121.44820018243","lat":"31.211774843986","category":"91","category_name":"台湾菜","address":"徐汇区淮海中路1414号1楼(近复兴西路)"},{"poiid":"B2094753D76FAAFA449C","title":"上海滩国泰旗舰店","lon":"121.466011","lat":"31.216125","category":"249","category_name":"购物服务","address":"淮海中路868号"},{"poiid":"B209475CD564A7F84292","title":"上海滩新天地店","lon":"121.47463","lat":"31.22164","category":"119","category_name":"商场","address":"\"太仓路181弄新天地北里15号\r\n\""},{"poiid":"B209475CD564A7F8439E","title":"上海滩中信泰富店","lon":"121.45602","lat":"31.22851","category":"119","category_name":"商场","address":"\"南京西路1168号中信泰富广场，店铺号221.\r\n\""},{"poiid":"B2094757D06EAAF54992","title":"JZ club(爵士俱乐部)","lon":"121.44488035","lat":"31.210675495","category":"172","category_name":"酒吧","address":"徐汇区复兴西路46号(近乌鲁木齐中路)"},{"poiid":"B2094654D564A4F84498","title":"来福楼火锅餐厅","lon":"121.44783","lat":"31.21063","category":"86","category_name":"火锅店","address":"徐汇区淮海中路1416号2楼(近复兴西路)"},{"poiid":"B2094757D06FA3F94499","title":"欧玛莉餐厅(O'Malley's Irish Pub)","lon":"121.44824981","lat":"31.209594726","category":"260","category_name":"其他","address":"徐汇区桃江路42号(近乌鲁木齐南路)"},{"poiid":"B2094757D06FAAF44599","title":"乾悦阁(Qian Yue Court)","lon":"121.44819358","lat":"31.211111057","category":"72","category_name":"广东菜","address":"上海徐汇区淮海中路1414号2-3楼(近复兴西路)"},{"poiid":"B2094757D06FA1FA409A","title":"一品居热气羊肉馆(乌鲁木齐中路店)","lon":"121.44662","lat":"31.21043","category":"86","category_name":"火锅店","address":"徐汇区乌鲁木齐中路352号(近复兴西路)"},{"poiid":"B2094752D768A2FB409E","title":"鼎王无老锅（上海无老衡山店）","lon":"121.446411","lat":"31.211093","category":"247","category_name":"餐饮美食","address":"上海徐汇区衡山路2号甲(近桃江路)"},{"poiid":"B2094757D06FA5FF419B","title":"棉花俱乐部 Cotton Club","lon":"121.44779408","lat":"31.210617415","category":"260","category_name":"其他","address":"徐汇区淮海中路1428号(近复兴西路)"},{"poiid":"B2094757D06FA2F8489B","title":"MT Club(淮海路店)","lon":"121.44947125","lat":"31.211846925","category":"260","category_name":"其他","address":"徐汇区淮海中路1329号云海大厦3楼(近常熟路)"},{"poiid":"B2094654DB6BA7F5479E","title":"来福小馆","lon":"121.44794","lat":"31.21075","category":"71","category_name":"四川菜","address":"徐汇区淮海中路1416号1楼(近复兴西路)"},{"poiid":"B2094757D068A2F8429B","title":"PHO REAL(复兴中路店)","lon":"121.44892958","lat":"31.210494045","category":"99","category_name":"泰国／越南菜品餐厅","address":"徐汇区复兴中路1465号(近宝庆路)"},{"poiid":"B2094757D068A6FD4198","title":"Spicy Moment","lon":"121.448082","lat":"31.212697","category":"77","category_name":"湖南菜","address":"徐汇区五原路71号(近常熟路)"},{"poiid":"B2094757D06FABFD459E","title":"高丽烧烤","lon":"121.4461","lat":"31.21237","category":"96","category_name":"韩国料理","address":"徐汇区五原路181弄1号(近乌鲁木齐中路)"},{"poiid":"B2094654DB64A6F9499A","title":"美国领事馆","lon":"121.44721","lat":"31.2088","category":"252","category_name":"楼宇机构","address":"乌鲁木齐中路"},{"poiid":"B2094757D068A3FD4392","title":"俏江南(徐汇店)","lon":"121.44857","lat":"31.20908","category":"71","category_name":"四川菜","address":"徐汇区桃江路28号-1(近衡山路)"},{"poiid":"B2094757D064A3FA4792","title":"KOTA'S KITCHEN(永嘉路店)","lon":"121.44951","lat":"31.21128","category":"269","category_name":"烧烤","address":"徐汇区永嘉路335号(近襄阳路)"},{"poiid":"B2094654DB69A7FD439E","title":"品川","lon":"121.44807","lat":"31.20909","category":"71","category_name":"四川菜","address":"徐汇区桃江路47号(近乌鲁木齐南路)"},{"poiid":"B2094757D06FA2F4459E","title":"博多新记(乌鲁木齐店)","lon":"121.44655","lat":"31.21135","category":"72","category_name":"广东菜","address":"徐汇区乌鲁木齐中路300号(近五原路)"},{"poiid":"B2094757D66EA4F8419C","title":"五原路","lon":"121.44781958","lat":"31.213365101","category":"500","category_name":"未知分类","address":"上海市徐汇区五原路"},{"poiid":"B2094654DA6DA4FA489E","title":"徐汇艺术馆","lon":"121.44816","lat":"31.2102","category":"183","category_name":"展览馆","address":"徐汇区淮海中路1413号(复兴路口)"},{"poiid":"B2094750DB6DA6FE479E","title":"Maya Club","lon":"121.44942","lat":"31.21178","category":"260","category_name":"其他","address":"徐汇区淮海中路1329号云海大厦3楼(宝庆路口)"},{"poiid":"B2094757D06FA6F94598","title":"老北京涮锅店","lon":"121.44719","lat":"31.21046","category":"86","category_name":"火锅店","address":"徐汇区乌鲁木齐中路346号(近复兴路)"},{"poiid":"B2094757D06AA4F9449A","title":"乌鲁木齐中路五原路","lon":"121.445794","lat":"31.212692","category":"500","category_name":"未知分类","address":"上海乌鲁木齐中路五原路"},{"poiid":"B2094752D26AA3FE479C","title":"Shanghai Brewery","lon":"121.4475978","lat":"31.2114357","category":"247","category_name":"餐饮美食","address":"上海市东平路15号(近衡山路"},{"poiid":"B2094757D06BA7F9439B","title":"Bella mia","lon":"121.450006","lat":"31.210957","category":"94","category_name":"西餐厅","address":"徐汇区宝庆路10号(复兴中路口)"},{"poiid":"B2094757D068ABFE439C","title":"鸿艺会会所(淮海中路店)","lon":"121.44689","lat":"31.2094","category":"221","category_name":"健身中心","address":"徐汇区淮海中路1500号(近乌鲁木齐中路)"},{"poiid":"B2094757D465A3FA4399","title":"隐泉源铁板烧 Kagen Teppanyaki","lon":"121.448960054","lat":"31.209266793","category":"247","category_name":"餐饮美食","address":"徐汇区桃江路28号丁(近衡山路)"},{"poiid":"B2094757D068A2F5499B","title":"复兴汇","lon":"121.44854","lat":"31.21006","category":"76","category_name":"上海菜","address":"徐汇区复兴中路1479号(近淮海中路)"},{"poiid":"B2094757D064A2FF4098","title":"桃江路","lon":"121.448433629","lat":"31.209268655","category":"172","category_name":"酒吧","address":"上海桃江路"},{"poiid":"B2094757D06AA4F84298","title":"Hunan House","lon":"121.445337989","lat":"31.209769788","category":"77","category_name":"湖南菜","address":"徐汇区复兴西路49弄2号(近乌鲁木齐路)"},{"poiid":"B2094654DA6DAAFB4098","title":"湾仔中国餐馆宝庆路店","lon":"121.44974","lat":"31.21117","category":"71","category_name":"四川菜","address":"徐汇区宝庆路10号(近复兴中路)"},{"poiid":"B2094757D068A4F5449C","title":"淮海路宝庆路口","lon":"121.449333191","lat":"31.2118606567","category":"260","category_name":"其他","address":"上海淮海路1329号"},{"poiid":"B2094750DB69A4FD479C","title":"浦西一妇婴","lon":"121.449172","lat":"31.212591","category":"627","category_name":"一般地点标志","address":"长乐路536号"},{"poiid":"B2094654DA6DAAFB429A","title":"玛雅俱乐部","lon":"121.44926763864044","lat":"31.21184508914139","category":"248","category_name":"生活娱乐","address":"淮海中路1329号云海大厦4层"},{"poiid":"B2094757D56DABFE449D","title":"五官科医院","lon":"121.44854","lat":"31.21006","category":"162","category_name":"医院","address":"复兴中路"},{"poiid":"B2094757D76DA0FD4499","title":"和平官邸 东平路店","lon":"121.448434","lat":"31.208901","category":"76","category_name":"上海菜","address":"徐汇区东平路16号(近衡山路)"},{"poiid":"B2094757D069A6FF4893","title":"Oscar 's Pub","lon":"121.44726716","lat":"31.210363417","category":"500","category_name":"未知分类","address":"上海市复兴西路1377号"},{"poiid":"B2094757D16CA3F4409A","title":"法國領事舘官邸","lon":"121.44766677","lat":"31.209986391","category":"500","category_name":"未知分类","address":"上海淮海中路1431號"},{"poiid":"B2094757D06BA2F9409C","title":"正圆烩面","lon":"121.44937258","lat":"31.211990074","category":"68","category_name":"快餐厅","address":"徐汇区乌鲁木齐中路247号(近五原路)"},{"poiid":"B2094751D36EA4F5409B","title":"Organic Kitchen","lon":"121.44503","lat":"31.21022","category":"94","category_name":"西餐厅","address":"徐汇区复兴西路57号(近永福路)"},{"poiid":"B209475CD16DABF84899","title":"KOTA'S KITCHEN 淮海中路店","lon":"121.44951","lat":"31.21128","category":"95","category_name":"日本料理","address":"淮海中路1333号(近宝庆路)"},{"poiid":"B2094757D568A6FD4899","title":"十号名邸中餐厅","lon":"121.44970595","lat":"31.21082601","category":"76","category_name":"上海菜","address":"徐汇区宝庆路10号2-4楼(复兴中路口)"},{"poiid":"B2094654DA6DA4FA489C","title":"上海图书馆教育培训中心","lon":"121.44801","lat":"31.21019","category":"190","category_name":"培训机构","address":"卢湾区淮海路(襄阳北路襄阳南路)"},{"poiid":"B2094757D16DA6FB4892","title":"O'MALLEY'S","lon":"121.448188586","lat":"31.2097060296","category":"500","category_name":"未知分类","address":"上海桃江路42号"},{"poiid":"B2094757D06BA4FC4492","title":"吉祥馄饨(复兴西路店)","lon":"121.44671","lat":"31.21029","category":"68","category_name":"快餐厅","address":"徐汇区复兴西路26号(近乌鲁木齐南路)"},{"poiid":"B2094757D068AAFE489F","title":"复兴西路","lon":"121.443012","lat":"31.208405","category":"46","category_name":"楼宇","address":"上海永福路"},{"poiid":"B2094757D06FA3F54592","title":"Glo London","lon":"121.44812058","lat":"31.209113018","category":"94","category_name":"西餐厅","address":"徐汇区乌鲁木齐南路1号甲(近东平路)"},{"poiid":"B2094654D564A4F8409C","title":"小城故事 淮海店 Charmant","lon":"121.44820018243","lat":"31.211774843986","category":"91","category_name":"台湾菜","address":"徐汇区淮海中路1414号1楼(近复兴西路)"},{"poiid":"B2094753D76FAAFA449C","title":"上海滩国泰旗舰店","lon":"121.466011","lat":"31.216125","category":"249","category_name":"购物服务","address":"淮海中路868号"},{"poiid":"B209475CD564A7F84292","title":"上海滩新天地店","lon":"121.47463","lat":"31.22164","category":"119","category_name":"商场","address":"\"太仓路181弄新天地北里15号\r\n\""},{"poiid":"B209475CD564A7F8439E","title":"上海滩中信泰富店","lon":"121.45602","lat":"31.22851","category":"119","category_name":"商场","address":"\"南京西路1168号中信泰富广场，店铺号221.\r\n\""},{"poiid":"B2094757D06EAAF54992","title":"JZ club(爵士俱乐部)","lon":"121.44488035","lat":"31.210675495","category":"172","category_name":"酒吧","address":"徐汇区复兴西路46号(近乌鲁木齐中路)"},{"poiid":"B2094654D564A4F84498","title":"来福楼火锅餐厅","lon":"121.44783","lat":"31.21063","category":"86","category_name":"火锅店","address":"徐汇区淮海中路1416号2楼(近复兴西路)"},{"poiid":"B2094757D06FA3F94499","title":"欧玛莉餐厅(O'Malley's Irish Pub)","lon":"121.44824981","lat":"31.209594726","category":"260","category_name":"其他","address":"徐汇区桃江路42号(近乌鲁木齐南路)"},{"poiid":"B2094757D06FAAF44599","title":"乾悦阁(Qian Yue Court)","lon":"121.44819358","lat":"31.211111057","category":"72","category_name":"广东菜","address":"上海徐汇区淮海中路1414号2-3楼(近复兴西路)"},{"poiid":"B2094757D06FA1FA409A","title":"一品居热气羊肉馆(乌鲁木齐中路店)","lon":"121.44662","lat":"31.21043","category":"86","category_name":"火锅店","address":"徐汇区乌鲁木齐中路352号(近复兴西路)"},{"poiid":"B2094752D768A2FB409E","title":"鼎王无老锅（上海无老衡山店）","lon":"121.446411","lat":"31.211093","category":"247","category_name":"餐饮美食","address":"上海徐汇区衡山路2号甲(近桃江路)"},{"poiid":"B2094757D06FA5FF419B","title":"棉花俱乐部 Cotton Club","lon":"121.44779408","lat":"31.210617415","category":"260","category_name":"其他","address":"徐汇区淮海中路1428号(近复兴西路)"},{"poiid":"B2094757D06FA2F8489B","title":"MT Club(淮海路店)","lon":"121.44947125","lat":"31.211846925","category":"260","category_name":"其他","address":"徐汇区淮海中路1329号云海大厦3楼(近常熟路)"},{"poiid":"B2094654DB6BA7F5479E","title":"来福小馆","lon":"121.44794","lat":"31.21075","category":"71","category_name":"四川菜","address":"徐汇区淮海中路1416号1楼(近复兴西路)"},{"poiid":"B2094757D068A2F8429B","title":"PHO REAL(复兴中路店)","lon":"121.44892958","lat":"31.210494045","category":"99","category_name":"泰国／越南菜品餐厅","address":"徐汇区复兴中路1465号(近宝庆路)"},{"poiid":"B2094757D068A6FD4198","title":"Spicy Moment","lon":"121.448082","lat":"31.212697","category":"77","category_name":"湖南菜","address":"徐汇区五原路71号(近常熟路)"},{"poiid":"B2094757D06FABFD459E","title":"高丽烧烤","lon":"121.4461","lat":"31.21237","category":"96","category_name":"韩国料理","address":"徐汇区五原路181弄1号(近乌鲁木齐中路)"},{"poiid":"B2094654DB64A6F9499A","title":"美国领事馆","lon":"121.44721","lat":"31.2088","category":"252","category_name":"楼宇机构","address":"乌鲁木齐中路"},{"poiid":"B2094757D068A3FD4392","title":"俏江南(徐汇店)","lon":"121.44857","lat":"31.20908","category":"71","category_name":"四川菜","address":"徐汇区桃江路28号-1(近衡山路)"},{"poiid":"B2094757D064A3FA4792","title":"KOTA'S KITCHEN(永嘉路店)","lon":"121.44951","lat":"31.21128","category":"269","category_name":"烧烤","address":"徐汇区永嘉路335号(近襄阳路)"},{"poiid":"B2094654DB69A7FD439E","title":"品川","lon":"121.44807","lat":"31.20909","category":"71","category_name":"四川菜","address":"徐汇区桃江路47号(近乌鲁木齐南路)"},{"poiid":"B2094757D06FA2F4459E","title":"博多新记(乌鲁木齐店)","lon":"121.44655","lat":"31.21135","category":"72","category_name":"广东菜","address":"徐汇区乌鲁木齐中路300号(近五原路)"},{"poiid":"B2094757D66EA4F8419C","title":"五原路","lon":"121.44781958","lat":"31.213365101","category":"500","category_name":"未知分类","address":"上海市徐汇区五原路"},{"poiid":"B2094654DA6DA4FA489E","title":"徐汇艺术馆","lon":"121.44816","lat":"31.2102","category":"183","category_name":"展览馆","address":"徐汇区淮海中路1413号(复兴路口)"},{"poiid":"B2094750DB6DA6FE479E","title":"Maya Club","lon":"121.44942","lat":"31.21178","category":"260","category_name":"其他","address":"徐汇区淮海中路1329号云海大厦3楼(宝庆路口)"},{"poiid":"B2094757D06FA6F94598","title":"老北京涮锅店","lon":"121.44719","lat":"31.21046","category":"86","category_name":"火锅店","address":"徐汇区乌鲁木齐中路346号(近复兴路)"},{"poiid":"B2094757D06AA4F9449A","title":"乌鲁木齐中路五原路","lon":"121.445794","lat":"31.212692","category":"500","category_name":"未知分类","address":"上海乌鲁木齐中路五原路"},{"poiid":"B2094752D26AA3FE479C","title":"Shanghai Brewery","lon":"121.4475978","lat":"31.2114357","category":"247","category_name":"餐饮美食","address":"上海市东平路15号(近衡山路"},{"poiid":"B2094757D06BA7F9439B","title":"Bella mia","lon":"121.450006","lat":"31.210957","category":"94","category_name":"西餐厅","address":"徐汇区宝庆路10号(复兴中路口)"},{"poiid":"B2094757D068ABFE439C","title":"鸿艺会会所(淮海中路店)","lon":"121.44689","lat":"31.2094","category":"221","category_name":"健身中心","address":"徐汇区淮海中路1500号(近乌鲁木齐中路)"},{"poiid":"B2094757D465A3FA4399","title":"隐泉源铁板烧 Kagen Teppanyaki","lon":"121.448960054","lat":"31.209266793","category":"247","category_name":"餐饮美食","address":"徐汇区桃江路28号丁(近衡山路)"},{"poiid":"B2094757D068A2F5499B","title":"复兴汇","lon":"121.44854","lat":"31.21006","category":"76","category_name":"上海菜","address":"徐汇区复兴中路1479号(近淮海中路)"},{"poiid":"B2094757D064A2FF4098","title":"桃江路","lon":"121.448433629","lat":"31.209268655","category":"172","category_name":"酒吧","address":"上海桃江路"},{"poiid":"B2094757D06AA4F84298","title":"Hunan House","lon":"121.445337989","lat":"31.209769788","category":"77","category_name":"湖南菜","address":"徐汇区复兴西路49弄2号(近乌鲁木齐路)"},{"poiid":"B2094654DA6DAAFB4098","title":"湾仔中国餐馆宝庆路店","lon":"121.44974","lat":"31.21117","category":"71","category_name":"四川菜","address":"徐汇区宝庆路10号(近复兴中路)"},{"poiid":"B2094757D068A4F5449C","title":"淮海路宝庆路口","lon":"121.449333191","lat":"31.2118606567","category":"260","category_name":"其他","address":"上海淮海路1329号"},{"poiid":"B2094750DB69A4FD479C","title":"浦西一妇婴","lon":"121.449172","lat":"31.212591","category":"627","category_name":"一般地点标志","address":"长乐路536号"},{"poiid":"B2094654DA6DAAFB429A","title":"玛雅俱乐部","lon":"121.44926763864044","lat":"31.21184508914139","category":"248","category_name":"生活娱乐","address":"淮海中路1329号云海大厦4层"},{"poiid":"B2094757D56DABFE449D","title":"五官科医院","lon":"121.44854","lat":"31.21006","category":"162","category_name":"医院","address":"复兴中路"},{"poiid":"B2094757D76DA0FD4499","title":"和平官邸 东平路店","lon":"121.448434","lat":"31.208901","category":"76","category_name":"上海菜","address":"徐汇区东平路16号(近衡山路)"},{"poiid":"B2094757D069A6FF4893","title":"Oscar 's Pub","lon":"121.44726716","lat":"31.210363417","category":"500","category_name":"未知分类","address":"上海市复兴西路1377号"},{"poiid":"B2094757D16CA3F4409A","title":"法國領事舘官邸","lon":"121.44766677","lat":"31.209986391","category":"500","category_name":"未知分类","address":"上海淮海中路1431號"},{"poiid":"B2094757D06BA2F9409C","title":"正圆烩面","lon":"121.44937258","lat":"31.211990074","category":"68","category_name":"快餐厅","address":"徐汇区乌鲁木齐中路247号(近五原路)"},{"poiid":"B2094751D36EA4F5409B","title":"Organic Kitchen","lon":"121.44503","lat":"31.21022","category":"94","category_name":"西餐厅","address":"徐汇区复兴西路57号(近永福路)"},{"poiid":"B209475CD16DABF84899","title":"KOTA'S KITCHEN 淮海中路店","lon":"121.44951","lat":"31.21128","category":"95","category_name":"日本料理","address":"淮海中路1333号(近宝庆路)"},{"poiid":"B2094757D568A6FD4899","title":"十号名邸中餐厅","lon":"121.44970595","lat":"31.21082601","category":"76","category_name":"上海菜","address":"徐汇区宝庆路10号2-4楼(复兴中路口)"},{"poiid":"B2094654DA6DA4FA489C","title":"上海图书馆教育培训中心","lon":"121.44801","lat":"31.21019","category":"190","category_name":"培训机构","address":"卢湾区淮海路(襄阳北路襄阳南路)"},{"poiid":"B2094757D16DA6FB4892","title":"O'MALLEY'S","lon":"121.448188586","lat":"31.2097060296","category":"500","category_name":"未知分类","address":"上海桃江路42号"},{"poiid":"B2094757D06BA4FC4492","title":"吉祥馄饨(复兴西路店)","lon":"121.44671","lat":"31.21029","category":"68","category_name":"快餐厅","address":"徐汇区复兴西路26号(近乌鲁木齐南路)"}]