[{"poiid":"B2094654DA6EA7FF409A","title":"大肠面","lon":"121.48144","lat":"31.21834","category":"68","category_name":"快餐厅","address":"卢湾区复兴中路59号(吉安路东台路间)"},{"poiid":"B2094757D06FA2FF409B","title":"老西门","lon":"121.483696","lat":"31.219066","category":"250","category_name":"公园户外","address":"上海老西门"},{"poiid":"B2094750D26EABF8459A","title":"上海虹桥机场","lon":"121.48","lat":"31.22","category":"21","category_name":"飞机场","address":"上海长宁区虹桥路2550号"},{"poiid":"B2094753D76FAAFA449C","title":"上海滩国泰旗舰店","lon":"121.466011","lat":"31.216125","category":"249","category_name":"购物服务","address":"淮海中路868号"},{"poiid":"B209475CD564A7F84292","title":"上海滩新天地店","lon":"121.47463","lat":"31.22164","category":"119","category_name":"商场","address":"\"太仓路181弄新天地北里15号\r\n\""},{"poiid":"B209475CD564A7F8439E","title":"上海滩中信泰富店","lon":"121.45602","lat":"31.22851","category":"119","category_name":"商场","address":"\"南京西路1168号中信泰富广场，店铺号221.\r\n\""},{"poiid":"B209475CD564A7F84392","title":"上海滩浦东香格里拉店","lon":"121.50058","lat":"31.23634","category":"119","category_name":"商场","address":"浦东富成路33号香格里拉酒店内大堂层"},{"poiid":"B2094655D269AAFA479B","title":"大马头茶餐厅","lon":"121.48304","lat":"31.21943","category":"72","category_name":"广东菜","address":"黄浦区西藏南路567号(近复兴东路)"},{"poiid":"B2094757D06EAAFB489E","title":"老西门地铁站","lon":"121.483699","lat":"31.219058","category":"36","category_name":"地铁站","address":"上海轨道交通 八号线 十号线 轨交老西门站 8 10"},{"poiid":"B2094757D06AA4FD419D","title":"格澜国际大酒店","lon":"121.482429538","lat":"31.2197208762","category":"76","category_name":"上海菜","address":"黄浦区西藏南路567号(近复兴中路)"},{"poiid":"B2094654DA6EA7F84999","title":"易买得(老西门店)","lon":"121.48337","lat":"31.21698","category":"118","category_name":"超级市场","address":"黄浦区西藏南路666号(西藏南路肇周路)"},{"poiid":"B2094655D36CA1F4439B","title":"老西门","lon":"121.4842","lat":"31.22057","category":"38","category_name":"公交车站","address":"西藏南路方浜西路"},{"poiid":"B2094757D06FAAFA499D","title":"法藏讲寺","lon":"121.48161","lat":"31.21755","category":"244","category_name":"寺庙道观","address":"上海卢湾区吉安路271号(近复兴中路)"},{"poiid":"B2094757D06FA6F8429E","title":"万商花鸟市场","lon":"121.48199","lat":"31.22132","category":"249","category_name":"购物服务","address":"黄浦区西藏南路417号(近东台路)"},{"poiid":"B2094757D06FA6F84999","title":"黄浦中心","lon":"121.48331828","lat":"31.220969198","category":"46","category_name":"楼宇","address":"上海市黄浦区中华路1600号"},{"poiid":"B2094654DA6EABFB4493","title":"东台路古玩市场(自忠路)","lon":"121.48128","lat":"31.22059","category":"134","category_name":"古玩字画店","address":"自忠路28"},{"poiid":"B2094757D068A2FB4299","title":"老西门(人民路方浜中路)站","lon":"121.484038664","lat":"31.2210625482","category":"38","category_name":"公交车站","address":"上海黄浦区人民路(11,220,135,736,920,911路)"},{"poiid":"B2094757D064A7F54093","title":"usher OMG world tour","lon":"121.48348473","lat":"31.219800077","category":"500","category_name":"未知分类","address":"上海梅赛德斯•奔驰文化演艺中心"},{"poiid":"B2094655D26AA0FA4092","title":"地铁老西门站","lon":"121.48323","lat":"31.21837","category":"36","category_name":"地铁站","address":""},{"poiid":"B2094757D069A2F84099","title":"黄浦众鑫城","lon":"121.48293","lat":"31.219999","category":"47","category_name":"住宅区","address":"上海黄浦区西藏南路555弄"},{"poiid":"B2094757D16DA3F84499","title":"黄浦区民政局","lon":"121.48325573","lat":"31.218233044","category":"500","category_name":"未知分类","address":"上海市黄浦区中华路1011号"},{"poiid":"B2094757D468A0FF4099","title":"杰克的酒窝","lon":"121.483278","lat":"31.21809","category":"260","category_name":"其他","address":"黄浦区肇周路76号(近东台路)"},{"poiid":"B2094751D36BA5FF469F","title":"上海南站","lon":"121.48","lat":"31.22","category":"195","category_name":"游乐场","address":"上海徐家汇"},{"poiid":"B2094654DB69A0F94298","title":"沈家花园(黄浦店)","lon":"121.48304","lat":"31.21943","category":"47","category_name":"住宅区","address":"黄浦区西藏南路567号"},{"poiid":"B2094655D36DA7FE449B","title":"肇周路老西门","lon":"121.48302","lat":"31.21724","category":"38","category_name":"公交车站","address":""},{"poiid":"B2094757D469A7FA4098","title":"重庆鸡公煲 肇周路店","lon":"121.48189","lat":"31.21687","category":"71","category_name":"四川菜","address":"黄浦区肇周路108号(近西藏南路)"},{"poiid":"B2094655D265A0F8459E","title":"老西门茶商场","lon":"121.48403","lat":"31.21944","category":"119","category_name":"商场","address":"复兴东路1121"},{"poiid":"B2094655D268A0F94398","title":"面包新语(西藏南路)","lon":"121.48355","lat":"31.21705","category":"112","category_name":"糕饼店","address":"黄浦区西藏南路666号易买得1楼(近肇周路)"},{"poiid":"B2094757D169A7FA409E","title":"和平饭店华懋阁","lon":"121.48424073","lat":"31.219877079","category":"247","category_name":"餐饮美食","address":"上海黄浦区南京东路20号和平饭店9F"},{"poiid":"B2094654DB65A5FF4393","title":"雅叙屋食府家常菜(自忠路)","lon":"121.48136","lat":"31.22041","category":"76","category_name":"上海菜","address":"卢湾区自忠路13号(近东台路)"},{"poiid":"B2094757D069A3FB459A","title":"中华路复兴东路","lon":"121.4847201","lat":"31.219632484","category":"500","category_name":"未知分类","address":"上海中华路复兴东路"},{"poiid":"B2094654DA6EA7FE4999","title":"国际广场A座","lon":"121.4829","lat":"31.21762","category":"46","category_name":"楼宇","address":"上海东台路279号"},{"poiid":"B209475DD669A6F5469B","title":"赵小姐不等位","lon":"121.481353","lat":"31.220138","category":"247","category_name":"餐饮美食","address":"上海市 太仓路70号"},{"poiid":"B2094757D664A1F9439E","title":"慈光素食","lon":"121.48152","lat":"31.21795","category":"89","category_name":"中式素餐馆","address":"卢湾区吉安路271号法藏讲寺内(复兴中路吉安路)"},{"poiid":"B2094757D464A0F4479F","title":"乐乐新疆风味餐厅","lon":"121.482229054","lat":"31.218332793","category":"90","category_name":"清真餐馆","address":"卢湾区东台路272号(近复兴中路)"},{"poiid":"B2094654DA6EA7FE499F","title":"国际广场B座","lon":"121.4827","lat":"31.21805","category":"46","category_name":"楼宇","address":"东台路277"},{"poiid":"B2094654DA6EA7F8499E","title":"永乐生活电器老西门二店","lon":"121.48336","lat":"31.21698","category":"138","category_name":"家电电子卖场","address":"上海市黄浦区西藏南路666号"},{"poiid":"B2094654DB6BA4FA479B","title":"裕福里(自忠路)","lon":"121.48148","lat":"31.22064","category":"47","category_name":"住宅区","address":"自忠路18弄1-26号"},{"poiid":"B209475DD16BA2FB4399","title":"么么mussels","lon":"121.481315","lat":"31.220224","category":"500","category_name":"未知分类","address":"上海市 太仓路70号"},{"poiid":"B2094654DB65AAFB409D","title":"东来顺火锅 西藏南路店","lon":"121.48289696163","lat":"31.219269974767","category":"86","category_name":"火锅店","address":"西藏南路567号沈家花园1楼近复兴中路"},{"poiid":"B2094655D26AA0FB449A","title":"爵士俱乐部","lon":"121.48304","lat":"31.21943","category":"247","category_name":"餐饮美食","address":"黄浦区西藏南路567号3楼(近复兴东路)"},{"poiid":"B2094757D66EA2F8429D","title":"黄浦区豫园卫生服务中心","lon":"121.48427073","lat":"31.219771077","category":"500","category_name":"未知分类","address":"上海中华路1525号"},{"poiid":"B209475CD76BA6FB449A","title":"老友螺蛳粉","lon":"121.481895","lat":"31.220659","category":"247","category_name":"餐饮美食","address":"上海市 西藏南路390号"},{"poiid":"B2094757D465A7FF499B","title":"新新美食林","lon":"121.48006393688","lat":"31.219839547289","category":"68","category_name":"快餐厅","address":"卢湾区自忠路75号(近吉安路)"},{"poiid":"B209475DD66DA2FD4898","title":"甜品工坊","lon":"121.481758","lat":"31.219875","category":"247","category_name":"餐饮美食","address":"上海市 卢湾区太仓路济南路"},{"poiid":"B2094654DB64A5F9449D","title":"浦江之星连锁旅店","lon":"121.48198","lat":"31.21821","category":"216","category_name":"经济型连锁酒店","address":"东台路270-2、272-2"},{"poiid":"B2094654DB6BA4FF469F","title":"新疆风味餐厅(东台路)","lon":"121.482","lat":"31.21817","category":"90","category_name":"清真餐馆","address":"东台路272-1"},{"poiid":"B2094753D564A7FD429D","title":"花籠味","lon":"121.482009","lat":"31.219865","category":"247","category_name":"餐饮美食","address":"上海市 上海市济南路9号2楼"},{"poiid":"B2094654DA6EA5FC4298","title":"鑫座娱乐总汇","lon":"121.48322","lat":"31.21925","category":"170","category_name":"KTV","address":"黄浦区西藏南路567号(西藏南路肇周路)"},{"poiid":"B2094757D66DAAF84299","title":"鼎茶","lon":"121.483045738","lat":"31.2195332722","category":"113","category_name":"冷饮店","address":"上海人民路"},{"poiid":"B2094654DA6EA7FF409A","title":"大肠面","lon":"121.48144","lat":"31.21834","category":"68","category_name":"快餐厅","address":"卢湾区复兴中路59号(吉安路东台路间)"},{"poiid":"B2094757D06FA2FF409B","title":"老西门","lon":"121.483696","lat":"31.219066","category":"250","category_name":"公园户外","address":"上海老西门"},{"poiid":"B2094750D26EABF8459A","title":"上海虹桥机场","lon":"121.48","lat":"31.22","category":"21","category_name":"飞机场","address":"上海长宁区虹桥路2550号"},{"poiid":"B2094753D76FAAFA449C","title":"上海滩国泰旗舰店","lon":"121.466011","lat":"31.216125","category":"249","category_name":"购物服务","address":"淮海中路868号"},{"poiid":"B209475CD564A7F84292","title":"上海滩新天地店","lon":"121.47463","lat":"31.22164","category":"119","category_name":"商场","address":"\"太仓路181弄新天地北里15号\r\n\""},{"poiid":"B209475CD564A7F8439E","title":"上海滩中信泰富店","lon":"121.45602","lat":"31.22851","category":"119","category_name":"商场","address":"\"南京西路1168号中信泰富广场，店铺号221.\r\n\""},{"poiid":"B209475CD564A7F84392","title":"上海滩浦东香格里拉店","lon":"121.50058","lat":"31.23634","category":"119","category_name":"商场","address":"浦东富成路33号香格里拉酒店内大堂层"},{"poiid":"B2094655D269AAFA479B","title":"大马头茶餐厅","lon":"121.48304","lat":"31.21943","category":"72","category_name":"广东菜","address":"黄浦区西藏南路567号(近复兴东路)"},{"poiid":"B2094757D06EAAFB489E","title":"老西门地铁站","lon":"121.483699","lat":"31.219058","category":"36","category_name":"地铁站","address":"上海轨道交通 八号线 十号线 轨交老西门站 8 10"},{"poiid":"B2094757D06AA4FD419D","title":"格澜国际大酒店","lon":"121.482429538","lat":"31.2197208762","category":"76","category_name":"上海菜","address":"黄浦区西藏南路567号(近复兴中路)"},{"poiid":"B2094654DA6EA7F84999","title":"易买得(老西门店)","lon":"121.48337","lat":"31.21698","category":"118","category_name":"超级市场","address":"黄浦区西藏南路666号(西藏南路肇周路)"},{"poiid":"B2094655D36CA1F4439B","title":"老西门","lon":"121.4842","lat":"31.22057","category":"38","category_name":"公交车站","address":"西藏南路方浜西路"},{"poiid":"B2094757D06FAAFA499D","title":"法藏讲寺","lon":"121.48161","lat":"31.21755","category":"244","category_name":"寺庙道观","address":"上海卢湾区吉安路271号(近复兴中路)"},{"poiid":"B2094757D06FA6F8429E","title":"万商花鸟市场","lon":"121.48199","lat":"31.22132","category":"249","category_name":"购物服务","address":"黄浦区西藏南路417号(近东台路)"},{"poiid":"B2094757D06FA6F84999","title":"黄浦中心","lon":"121.48331828","lat":"31.220969198","category":"46","category_name":"楼宇","address":"上海市黄浦区中华路1600号"},{"poiid":"B2094654DA6EABFB4493","title":"东台路古玩市场(自忠路)","lon":"121.48128","lat":"31.22059","category":"134","category_name":"古玩字画店","address":"自忠路28"},{"poiid":"B2094757D068A2FB4299","title":"老西门(人民路方浜中路)站","lon":"121.484038664","lat":"31.2210625482","category":"38","category_name":"公交车站","address":"上海黄浦区人民路(11,220,135,736,920,911路)"},{"poiid":"B2094757D064A7F54093","title":"usher OMG world tour","lon":"121.48348473","lat":"31.219800077","category":"500","category_name":"未知分类","address":"上海梅赛德斯•奔驰文化演艺中心"},{"poiid":"B2094655D26AA0FA4092","title":"地铁老西门站","lon":"121.48323","lat":"31.21837","category":"36","category_name":"地铁站","address":""},{"poiid":"B2094757D069A2F84099","title":"黄浦众鑫城","lon":"121.48293","lat":"31.219999","category":"47","category_name":"住宅区","address":"上海黄浦区西藏南路555弄"},{"poiid":"B2094757D16DA3F84499","title":"黄浦区民政局","lon":"121.48325573","lat":"31.218233044","category":"500","category_name":"未知分类","address":"上海市黄浦区中华路1011号"},{"poiid":"B2094757D468A0FF4099","title":"杰克的酒窝","lon":"121.483278","lat":"31.21809","category":"260","category_name":"其他","address":"黄浦区肇周路76号(近东台路)"},{"poiid":"B2094751D36BA5FF469F","title":"上海南站","lon":"121.48","lat":"31.22","category":"195","category_name":"游乐场","address":"上海徐家汇"},{"poiid":"B2094654DB69A0F94298","title":"沈家花园(黄浦店)","lon":"121.48304","lat":"31.21943","category":"47","category_name":"住宅区","address":"黄浦区西藏南路567号"},{"poiid":"B2094655D36DA7FE449B","title":"肇周路老西门","lon":"121.48302","lat":"31.21724","category":"38","category_name":"公交车站","address":""},{"poiid":"B2094757D469A7FA4098","title":"重庆鸡公煲 肇周路店","lon":"121.48189","lat":"31.21687","category":"71","category_name":"四川菜","address":"黄浦区肇周路108号(近西藏南路)"},{"poiid":"B2094655D265A0F8459E","title":"老西门茶商场","lon":"121.48403","lat":"31.21944","category":"119","category_name":"商场","address":"复兴东路1121"},{"poiid":"B2094655D268A0F94398","title":"面包新语(西藏南路)","lon":"121.48355","lat":"31.21705","category":"112","category_name":"糕饼店","address":"黄浦区西藏南路666号易买得1楼(近肇周路)"},{"poiid":"B2094757D169A7FA409E","title":"和平饭店华懋阁","lon":"121.48424073","lat":"31.219877079","category":"247","category_name":"餐饮美食","address":"上海黄浦区南京东路20号和平饭店9F"},{"poiid":"B2094654DB65A5FF4393","title":"雅叙屋食府家常菜(自忠路)","lon":"121.48136","lat":"31.22041","category":"76","category_name":"上海菜","address":"卢湾区自忠路13号(近东台路)"},{"poiid":"B2094757D069A3FB459A","title":"中华路复兴东路","lon":"121.4847201","lat":"31.219632484","category":"500","category_name":"未知分类","address":"上海中华路复兴东路"},{"poiid":"B2094654DA6EA7FE4999","title":"国际广场A座","lon":"121.4829","lat":"31.21762","category":"46","category_name":"楼宇","address":"上海东台路279号"},{"poiid":"B209475DD669A6F5469B","title":"赵小姐不等位","lon":"121.481353","lat":"31.220138","category":"247","category_name":"餐饮美食","address":"上海市 太仓路70号"},{"poiid":"B2094757D664A1F9439E","title":"慈光素食","lon":"121.48152","lat":"31.21795","category":"89","category_name":"中式素餐馆","address":"卢湾区吉安路271号法藏讲寺内(复兴中路吉安路)"},{"poiid":"B2094757D464A0F4479F","title":"乐乐新疆风味餐厅","lon":"121.482229054","lat":"31.218332793","category":"90","category_name":"清真餐馆","address":"卢湾区东台路272号(近复兴中路)"},{"poiid":"B2094654DA6EA7FE499F","title":"国际广场B座","lon":"121.4827","lat":"31.21805","category":"46","category_name":"楼宇","address":"东台路277"},{"poiid":"B2094654DA6EA7F8499E","title":"永乐生活电器老西门二店","lon":"121.48336","lat":"31.21698","category":"138","category_name":"家电电子卖场","address":"上海市黄浦区西藏南路666号"},{"poiid":"B2094654DB6BA4FA479B","title":"裕福里(自忠路)","lon":"121.48148","lat":"31.22064","category":"47","category_name":"住宅区","address":"自忠路18弄1-26号"},{"poiid":"B209475DD16BA2FB4399","title":"么么mussels","lon":"121.481315","lat":"31.220224","category":"500","category_name":"未知分类","address":"上海市 太仓路70号"},{"poiid":"B2094654DB65AAFB409D","title":"东来顺火锅 西藏南路店","lon":"121.48289696163","lat":"31.219269974767","category":"86","category_name":"火锅店","address":"西藏南路567号沈家花园1楼近复兴中路"},{"poiid":"B2094655D26AA0FB449A","title":"爵士俱乐部","lon":"121.48304","lat":"31.21943","category":"247","category_name":"餐饮美食","address":"黄浦区西藏南路567号3楼(近复兴东路)"},{"poiid":"B2094757D66EA2F8429D","title":"黄浦区豫园卫生服务中心","lon":"121.48427073","lat":"31.219771077","category":"500","category_name":"未知分类","address":"上海中华路1525号"},{"poiid":"B209475CD76BA6FB449A","title":"老友螺蛳粉","lon":"121.481895","lat":"31.220659","category":"247","category_name":"餐饮美食","address":"上海市 西藏南路390号"},{"poiid":"B2094757D465A7FF499B","title":"新新美食林","lon":"121.48006393688","lat":"31.219839547289","category":"68","category_name":"快餐厅","address":"卢湾区自忠路75号(近吉安路)"},{"poiid":"B209475DD66DA2FD4898","title":"甜品工坊","lon":"121.481758","lat":"31.219875","category":"247","category_name":"餐饮美食","address":"上海市 卢湾区太仓路济南路"},{"poiid":"B2094654DB64A5F9449D","title":"浦江之星连锁旅店","lon":"121.48198","lat":"31.21821","category":"216","category_name":"经济型连锁酒店","address":"东台路270-2、272-2"},{"poiid":"B2094654DB6BA4FF469F","title":"新疆风味餐厅(东台路)","lon":"121.482","lat":"31.21817","category":"90","category_name":"清真餐馆","address":"东台路272-1"},{"poiid":"B2094753D564A7FD429D","title":"花籠味","lon":"121.482009","lat":"31.219865","category":"247","category_name":"餐饮美食","address":"上海市 上海市济南路9号2楼"},{"poiid":"B2094654DA6EA5FC4298","title":"鑫座娱乐总汇","lon":"121.48322","lat":"31.21925","category":"170","category_name":"KTV","address":"黄浦区西藏南路567号(西藏南路肇周路)"},{"poiid":"B2094757D66DAAF84299","title":"鼎茶","lon":"121.483045738","lat":"31.2195332722","category":"113","category_name":"冷饮店","address":"上海人民路"},{"poiid":"B2094654DA6EA7FF409A","title":"大肠面","lon":"121.48144","lat":"31.21834","category":"68","category_name":"快餐厅","address":"卢湾区复兴中路59号(吉安路东台路间)"},{"poiid":"B2094757D06FA2FF409B","title":"老西门","lon":"121.483696","lat":"31.219066","category":"250","category_name":"公园户外","address":"上海老西门"},{"poiid":"B2094750D26EABF8459A","title":"上海虹桥机场","lon":"121.48","lat":"31.22","category":"21","category_name":"飞机场","address":"上海长宁区虹桥路2550号"},{"poiid":"B2094753D76FAAFA449C","title":"上海滩国泰旗舰店","lon":"121.466011","lat":"31.216125","category":"249","category_name":"购物服务","address":"淮海中路868号"},{"poiid":"B209475CD564A7F84292","title":"上海滩新天地店","lon":"121.47463","lat":"31.22164","category":"119","category_name":"商场","address":"\"太仓路181弄新天地北里15号\r\n\""},{"poiid":"B209475CD564A7F8439E","title":"上海滩中信泰富店","lon":"121.45602","lat":"31.22851","category":"119","category_name":"商场","address":"\"南京西路1168号中信泰富广场，店铺号221.\r\n\""},{"poiid":"B209475CD564A7F84392","title":"上海滩浦东香格里拉店","lon":"121.50058","lat":"31.23634","category":"119","category_name":"商场","address":"浦东富成路33号香格里拉酒店内大堂层"},{"poiid":"B2094655D269AAFA479B","title":"大马头茶餐厅","lon":"121.48304","lat":"31.21943","category":"72","category_name":"广东菜","address":"黄浦区西藏南路567号(近复兴东路)"},{"poiid":"B2094757D06EAAFB489E","title":"老西门地铁站","lon":"121.483699","lat":"31.219058","category":"36","category_name":"地铁站","address":"上海轨道交通 八号线 十号线 轨交老西门站 8 10"},{"poiid":"B2094757D06AA4FD419D","title":"格澜国际大酒店","lon":"121.482429538","lat":"31.2197208762","category":"76","category_name":"上海菜","address":"黄浦区西藏南路567号(近复兴中路)"},{"poiid":"B2094654DA6EA7F84999","title":"易买得(老西门店)","lon":"121.48337","lat":"31.21698","category":"118","category_name":"超级市场","address":"黄浦区西藏南路666号(西藏南路肇周路)"},{"poiid":"B2094655D36CA1F4439B","title":"老西门","lon":"121.4842","lat":"31.22057","category":"38","category_name":"公交车站","address":"西藏南路方浜西路"},{"poiid":"B2094757D06FAAFA499D","title":"法藏讲寺","lon":"121.48161","lat":"31.21755","category":"244","category_name":"寺庙道观","address":"上海卢湾区吉安路271号(近复兴中路)"},{"poiid":"B2094757D06FA6F8429E","title":"万商花鸟市场","lon":"121.48199","lat":"31.22132","category":"249","category_name":"购物服务","address":"黄浦区西藏南路417号(近东台路)"},{"poiid":"B2094757D06FA6F84999","title":"黄浦中心","lon":"121.48331828","lat":"31.220969198","category":"46","category_name":"楼宇","address":"上海市黄浦区中华路1600号"},{"poiid":"B2094654DA6EABFB4493","title":"东台路古玩市场(自忠路)","lon":"121.48128","lat":"31.22059","category":"134","category_name":"古玩字画店","address":"自忠路28"},{"poiid":"B2094757D068A2FB4299","title":"老西门(人民路方浜中路)站","lon":"121.484038664","lat":"31.2210625482","category":"38","category_name":"公交车站","address":"上海黄浦区人民路(11,220,135,736,920,911路)"},{"poiid":"B2094757D064A7F54093","title":"usher OMG world tour","lon":"121.48348473","lat":"31.219800077","category":"500","category_name":"未知分类","address":"上海梅赛德斯•奔驰文化演艺中心"},{"poiid":"B2094655D26AA0FA4092","title":"地铁老西门站","lon":"121.48323","lat":"31.21837","category":"36","category_name":"地铁站","address":""},{"poiid":"B2094757D069A2F84099","title":"黄浦众鑫城","lon":"121.48293","lat":"31.219999","category":"47","category_name":"住宅区","address":"上海黄浦区西藏南路555弄"},{"poiid":"B2094757D16DA3F84499","title":"黄浦区民政局","lon":"121.48325573","lat":"31.218233044","category":"500","category_name":"未知分类","address":"上海市黄浦区中华路1011号"},{"poiid":"B2094757D468A0FF4099","title":"杰克的酒窝","lon":"121.483278","lat":"31.21809","category":"260","category_name":"其他","address":"黄浦区肇周路76号(近东台路)"},{"poiid":"B2094751D36BA5FF469F","title":"上海南站","lon":"121.48","lat":"31.22","category":"195","category_name":"游乐场","address":"上海徐家汇"},{"poiid":"B2094654DB69A0F94298","title":"沈家花园(黄浦店)","lon":"121.48304","lat":"31.21943","category":"47","category_name":"住宅区","address":"黄浦区西藏南路567号"},{"poiid":"B2094655D36DA7FE449B","title":"肇周路老西门","lon":"121.48302","lat":"31.21724","category":"38","category_name":"公交车站","address":""},{"poiid":"B2094757D469A7FA4098","title":"重庆鸡公煲 肇周路店","lon":"121.48189","lat":"31.21687","category":"71","category_name":"四川菜","address":"黄浦区肇周路108号(近西藏南路)"},{"poiid":"B2094655D265A0F8459E","title":"老西门茶商场","lon":"121.48403","lat":"31.21944","category":"119","category_name":"商场","address":"复兴东路1121"},{"poiid":"B2094655D268A0F94398","title":"面包新语(西藏南路)","lon":"121.48355","lat":"31.21705","category":"112","category_name":"糕饼店","address":"黄浦区西藏南路666号易买得1楼(近肇周路)"},{"poiid":"B2094757D169A7FA409E","title":"和平饭店华懋阁","lon":"121.48424073","lat":"31.219877079","category":"247","category_name":"餐饮美食","address":"上海黄浦区南京东路20号和平饭店9F"},{"poiid":"B2094654DB65A5FF4393","title":"雅叙屋食府家常菜(自忠路)","lon":"121.48136","lat":"31.22041","category":"76","category_name":"上海菜","address":"卢湾区自忠路13号(近东台路)"},{"poiid":"B2094757D069A3FB459A","title":"中华路复兴东路","lon":"121.4847201","lat":"31.219632484","category":"500","category_name":"未知分类","address":"上海中华路复兴东路"},{"poiid":"B2094654DA6EA7FE4999","title":"国际广场A座","lon":"121.4829","lat":"31.21762","category":"46","category_name":"楼宇","address":"上海东台路279号"},{"poiid":"B209475DD669A6F5469B","title":"赵小姐不等位","lon":"121.481353","lat":"31.220138","category":"247","category_name":"餐饮美食","address":"上海市 太仓路70号"},{"poiid":"B2094757D664A1F9439E","title":"慈光素食","lon":"121.48152","lat":"31.21795","category":"89","category_name":"中式素餐馆","address":"卢湾区吉安路271号法藏讲寺内(复兴中路吉安路)"},{"poiid":"B2094757D464A0F4479F","title":"乐乐新疆风味餐厅","lon":"121.482229054","lat":"31.218332793","category":"90","category_name":"清真餐馆","address":"卢湾区东台路272号(近复兴中路)"},{"poiid":"B2094654DA6EA7FE499F","title":"国际广场B座","lon":"121.4827","lat":"31.21805","category":"46","category_name":"楼宇","address":"东台路277"},{"poiid":"B2094654DA6EA7F8499E","title":"永乐生活电器老西门二店","lon":"121.48336","lat":"31.21698","category":"138","category_name":"家电电子卖场","address":"上海市黄浦区西藏南路666号"},{"poiid":"B2094654DB6BA4FA479B","title":"裕福里(自忠路)","lon":"121.48148","lat":"31.22064","category":"47","category_name":"住宅区","address":"自忠路18弄1-26号"},{"poiid":"B209475DD16BA2FB4399","title":"么么mussels","lon":"121.481315","lat":"31.220224","category":"500","category_name":"未知分类","address":"上海市 太仓路70号"},{"poiid":"B2094654DB65AAFB409D","title":"东来顺火锅 西藏南路店","lon":"121.48289696163","lat":"31.219269974767","category":"86","category_name":"火锅店","address":"西藏南路567号沈家花园1楼近复兴中路"},{"poiid":"B2094655D26AA0FB449A","title":"爵士俱乐部","lon":"121.48304","lat":"31.21943","category":"247","category_name":"餐饮美食","address":"黄浦区西藏南路567号3楼(近复兴东路)"},{"poiid":"B2094757D66EA2F8429D","title":"黄浦区豫园卫生服务中心","lon":"121.48427073","lat":"31.219771077","category":"500","category_name":"未知分类","address":"上海中华路1525号"},{"poiid":"B209475CD76BA6FB449A","title":"老友螺蛳粉","lon":"121.481895","lat":"31.220659","category":"247","category_name":"餐饮美食","address":"上海市 西藏南路390号"},{"poiid":"B2094757D465A7FF499B","title":"新新美食林","lon":"121.48006393688","lat":"31.219839547289","category":"68","category_name":"快餐厅","address":"卢湾区自忠路75号(近吉安路)"},{"poiid":"B209475DD66DA2FD4898","title":"甜品工坊","lon":"121.481758","lat":"31.219875","category":"247","category_name":"餐饮美食","address":"上海市 卢湾区太仓路济南路"},{"poiid":"B2094654DB64A5F9449D","title":"浦江之星连锁旅店","lon":"121.48198","lat":"31.21821","category":"216","category_name":"经济型连锁酒店","address":"东台路270-2、272-2"},{"poiid":"B2094654DB6BA4FF469F","title":"新疆风味餐厅(东台路)","lon":"121.482","lat":"31.21817","category":"90","category_name":"清真餐馆","address":"东台路272-1"},{"poiid":"B2094753D564A7FD429D","title":"花籠味","lon":"121.482009","lat":"31.219865","category":"247","category_name":"餐饮美食","address":"上海市 上海市济南路9号2楼"},{"poiid":"B2094654DA6EA5FC4298","title":"鑫座娱乐总汇","lon":"121.48322","lat":"31.21925","category":"170","category_name":"KTV","address":"黄浦区西藏南路567号(西藏南路肇周路)"},{"poiid":"B2094757D66DAAF84299","title":"鼎茶","lon":"121.483045738","lat":"31.2195332722","category":"113","category_name":"冷饮店","address":"上海人民路"},{"poiid":"B2094654DA6EA7FF409A","title":"大肠面","lon":"121.48144","lat":"31.21834","category":"68","category_name":"快餐厅","address":"卢湾区复兴中路59号(吉安路东台路间)"},{"poiid":"B2094757D06FA2FF409B","title":"老西门","lon":"121.483696","lat":"31.219066","category":"250","category_name":"公园户外","address":"上海老西门"},{"poiid":"B2094750D26EABF8459A","title":"上海虹桥机场","lon":"121.48","lat":"31.22","category":"21","category_name":"飞机场","address":"上海长宁区虹桥路2550号"},{"poiid":"B2094753D76FAAFA449C","title":"上海滩国泰旗舰店","lon":"121.466011","lat":"31.216125","category":"249","category_name":"购物服务","address":"淮海中路868号"},{"poiid":"B209475CD564A7F84292","title":"上海滩新天地店","lon":"121.47463","lat":"31.22164","category":"119","category_name":"商场","address":"\"太仓路181弄新天地北里15号\r\n\""},{"poiid":"B209475CD564A7F8439E","title":"上海滩中信泰富店","lon":"121.45602","lat":"31.22851","category":"119","category_name":"商场","address":"\"南京西路1168号中信泰富广场，店铺号221.\r\n\""},{"poiid":"B209475CD564A7F84392","title":"上海滩浦东香格里拉店","lon":"121.50058","lat":"31.23634","category":"119","category_name":"商场","address":"浦东富成路33号香格里拉酒店内大堂层"},{"poiid":"B2094655D269AAFA479B","title":"大马头茶餐厅","lon":"121.48304","lat":"31.21943","category":"72","category_name":"广东菜","address":"黄浦区西藏南路567号(近复兴东路)"},{"poiid":"B2094757D06EAAFB489E","title":"老西门地铁站","lon":"121.483699","lat":"31.219058","category":"36","category_name":"地铁站","address":"上海轨道交通 八号线 十号线 轨交老西门站 8 10"},{"poiid":"B2094757D06AA4FD419D","title":"格澜国际大酒店","lon":"121.482429538","lat":"31.2197208762","category":"76","category_name":"上海菜","address":"黄浦区西藏南路567号(近复兴中路)"},{"poiid":"B2094654DA6EA7F84999","title":"易买得(老西门店)","lon":"121.48337","lat":"31.21698","category":"118","category_name":"超级市场","address":"黄浦区西藏南路666号(西藏南路肇周路)"},{"poiid":"B2094655D36CA1F4439B","title":"老西门","lon":"121.4842","lat":"31.22057","category":"38","category_name":"公交车站","address":"西藏南路方浜西路"},{"poiid":"B2094757D06FAAFA499D","title":"法藏讲寺","lon":"121.48161","lat":"31.21755","category":"244","category_name":"寺庙道观","address":"上海卢湾区吉安路271号(近复兴中路)"},{"poiid":"B2094757D06FA6F8429E","title":"万商花鸟市场","lon":"121.48199","lat":"31.22132","category":"249","category_name":"购物服务","address":"黄浦区西藏南路417号(近东台路)"},{"poiid":"B2094757D06FA6F84999","title":"黄浦中心","lon":"121.48331828","lat":"31.220969198","category":"46","category_name":"楼宇","address":"上海市黄浦区中华路1600号"},{"poiid":"B2094654DA6EABFB4493","title":"东台路古玩市场(自忠路)","lon":"121.48128","lat":"31.22059","category":"134","category_name":"古玩字画店","address":"自忠路28"},{"poiid":"B2094757D068A2FB4299","title":"老西门(人民路方浜中路)站","lon":"121.484038664","lat":"31.2210625482","category":"38","category_name":"公交车站","address":"上海黄浦区人民路(11,220,135,736,920,911路)"},{"poiid":"B2094757D064A7F54093","title":"usher OMG world tour","lon":"121.48348473","lat":"31.219800077","category":"500","category_name":"未知分类","address":"上海梅赛德斯•奔驰文化演艺中心"},{"poiid":"B2094655D26AA0FA4092","title":"地铁老西门站","lon":"121.48323","lat":"31.21837","category":"36","category_name":"地铁站","address":""},{"poiid":"B2094757D069A2F84099","title":"黄浦众鑫城","lon":"121.48293","lat":"31.219999","category":"47","category_name":"住宅区","address":"上海黄浦区西藏南路555弄"},{"poiid":"B2094757D16DA3F84499","title":"黄浦区民政局","lon":"121.48325573","lat":"31.218233044","category":"500","category_name":"未知分类","address":"上海市黄浦区中华路1011号"},{"poiid":"B2094757D468A0FF4099","title":"杰克的酒窝","lon":"121.483278","lat":"31.21809","category":"260","category_name":"其他","address":"黄浦区肇周路76号(近东台路)"},{"poiid":"B2094751D36BA5FF469F","title":"上海南站","lon":"121.48","lat":"31.22","category":"195","category_name":"游乐场","address":"上海徐家汇"},{"poiid":"B2094654DB69A0F94298","title":"沈家花园(黄浦店)","lon":"121.48304","lat":"31.21943","category":"47","category_name":"住宅区","address":"黄浦区西藏南路567号"},{"poiid":"B2094655D36DA7FE449B","title":"肇周路老西门","lon":"121.48302","lat":"31.21724","category":"38","category_name":"公交车站","address":""},{"poiid":"B2094757D469A7FA4098","title":"重庆鸡公煲 肇周路店","lon":"121.48189","lat":"31.21687","category":"71","category_name":"四川菜","address":"黄浦区肇周路108号(近西藏南路)"},{"poiid":"B2094655D265A0F8459E","title":"老西门茶商场","lon":"121.48403","lat":"31.21944","category":"119","category_name":"商场","address":"复兴东路1121"},{"poiid":"B2094655D268A0F94398","title":"面包新语(西藏南路)","lon":"121.48355","lat":"31.21705","category":"112","category_name":"糕饼店","address":"黄浦区西藏南路666号易买得1楼(近肇周路)"},{"poiid":"B2094757D169A7FA409E","title":"和平饭店华懋阁","lon":"121.48424073","lat":"31.219877079","category":"247","category_name":"餐饮美食","address":"上海黄浦区南京东路20号和平饭店9F"},{"poiid":"B2094654DB65A5FF4393","title":"雅叙屋食府家常菜(自忠路)","lon":"121.48136","lat":"31.22041","category":"76","category_name":"上海菜","address":"卢湾区自忠路13号(近东台路)"},{"poiid":"B2094757D069A3FB459A","title":"中华路复兴东路","lon":"121.4847201","lat":"31.219632484","category":"500","category_name":"未知分类","address":"上海中华路复兴东路"},{"poiid":"B2094654DA6EA7FE4999","title":"国际广场A座","lon":"121.4829","lat":"31.21762","category":"46","category_name":"楼宇","address":"上海东台路279号"},{"poiid":"B209475DD669A6F5469B","title":"赵小姐不等位","lon":"121.481353","lat":"31.220138","category":"247","category_name":"餐饮美食","address":"上海市 太仓路70号"},{"poiid":"B2094757D664A1F9439E","title":"慈光素食","lon":"121.48152","lat":"31.21795","category":"89","category_name":"中式素餐馆","address":"卢湾区吉安路271号法藏讲寺内(复兴中路吉安路)"},{"poiid":"B2094757D464A0F4479F","title":"乐乐新疆风味餐厅","lon":"121.482229054","lat":"31.218332793","category":"90","category_name":"清真餐馆","address":"卢湾区东台路272号(近复兴中路)"},{"poiid":"B2094654DA6EA7FE499F","title":"国际广场B座","lon":"121.4827","lat":"31.21805","category":"46","category_name":"楼宇","address":"东台路277"},{"poiid":"B2094654DA6EA7F8499E","title":"永乐生活电器老西门二店","lon":"121.48336","lat":"31.21698","category":"138","category_name":"家电电子卖场","address":"上海市黄浦区西藏南路666号"},{"poiid":"B2094654DB6BA4FA479B","title":"裕福里(自忠路)","lon":"121.48148","lat":"31.22064","category":"47","category_name":"住宅区","address":"自忠路18弄1-26号"},{"poiid":"B209475DD16BA2FB4399","title":"么么mussels","lon":"121.481315","lat":"31.220224","category":"500","category_name":"未知分类","address":"上海市 太仓路70号"},{"poiid":"B2094654DB65AAFB409D","title":"东来顺火锅 西藏南路店","lon":"121.48289696163","lat":"31.219269974767","category":"86","category_name":"火锅店","address":"西藏南路567号沈家花园1楼近复兴中路"},{"poiid":"B2094655D26AA0FB449A","title":"爵士俱乐部","lon":"121.48304","lat":"31.21943","category":"247","category_name":"餐饮美食","address":"黄浦区西藏南路567号3楼(近复兴东路)"},{"poiid":"B2094757D66EA2F8429D","title":"黄浦区豫园卫生服务中心","lon":"121.48427073","lat":"31.219771077","category":"500","category_name":"未知分类","address":"上海中华路1525号"},{"poiid":"B209475CD76BA6FB449A","title":"老友螺蛳粉","lon":"121.481895","lat":"31.220659","category":"247","category_name":"餐饮美食","address":"上海市 西藏南路390号"},{"poiid":"B2094757D465A7FF499B","title":"新新美食林","lon":"121.48006393688","lat":"31.219839547289","category":"68","category_name":"快餐厅","address":"卢湾区自忠路75号(近吉安路)"},{"poiid":"B209475DD66DA2FD4898","title":"甜品工坊","lon":"121.481758","lat":"31.219875","category":"247","category_name":"餐饮美食","address":"上海市 卢湾区太仓路济南路"},{"poiid":"B2094654DB64A5F9449D","title":"浦江之星连锁旅店","lon":"121.48198","lat":"31.21821","category":"216","category_name":"经济型连锁酒店","address":"东台路270-2、272-2"},{"poiid":"B2094654DB6BA4FF469F","title":"新疆风味餐厅(东台路)","lon":"121.482","lat":"31.21817","category":"90","category_name":"清真餐馆","address":"东台路272-1"},{"poiid":"B2094753D564A7FD429D","title":"花籠味","lon":"121.482009","lat":"31.219865","category":"247","category_name":"餐饮美食","address":"上海市 上海市济南路9号2楼"},{"poiid":"B2094654DA6EA5FC4298","title":"鑫座娱乐总汇","lon":"121.48322","lat":"31.21925","category":"170","category_name":"KTV","address":"黄浦区西藏南路567号(西藏南路肇周路)"},{"poiid":"B2094757D66DAAF84299","title":"鼎茶","lon":"121.483045738","lat":"31.2195332722","category":"113","category_name":"冷饮店","address":"上海人民路"}]