[{"poiid":"B2094757D06FA3FA499C","title":"长白山韩国烧烤店(武川总店)","lon":"121.49485","lat":"31.30224","category":"96","category_name":"韩国料理","address":"杨浦区武川路47号(近武东路)"},{"poiid":"B2094757D06FA3F8429E","title":"上海财经大学图书馆","lon":"121.49477791","lat":"31.303851515","category":"253","category_name":"校园生活","address":"上海市杨浦区武川路111号上海财经大学内"},{"poiid":"B2094757D06FA1FF459F","title":"郑阿姨的家","lon":"121.4948311","lat":"31.300688055","category":"96","category_name":"韩国料理","address":"杨浦区武川路13号(近武东路)"},{"poiid":"B2094757D068A4FA4993","title":"上海财大豪生大酒店","lon":"121.491975103","lat":"31.3046381377","category":"217","category_name":"旅馆招待所","address":"上海市杨浦区武东路188号"},{"poiid":"B2094757D06FA7FE419D","title":"釜山火炉","lon":"121.49385","lat":"31.30046","category":"96","category_name":"韩国料理","address":"杨浦区武川路11号(近纪念路)"},{"poiid":"B2094757D06FA1FB469E","title":"复旦大学北区学生公寓","lon":"121.49717156","lat":"31.300906941","category":"253","category_name":"校园生活","address":"上海杨浦区邯郸路220号复旦大学邯郸校区"},{"poiid":"B2094654DB65A6F5469F","title":"Ing韩国料理","lon":"121.49424","lat":"31.30133","category":"96","category_name":"韩国料理","address":"杨浦区武川路49号1楼(近纪念路)"},{"poiid":"B2094757D16CA1FA499F","title":"Helen's酒吧","lon":"121.49433494","lat":"31.301696696","category":"172","category_name":"酒吧","address":"上海杨浦区武川路51号"},{"poiid":"B2094757D068A5FC479A","title":"Ricco Cafe","lon":"121.495382","lat":"31.304011","category":"260","category_name":"其他","address":"杨浦区武川路107号(近武东路)"},{"poiid":"B2094654D56DA3FF439A","title":"上海财经大学","lon":"121.4989","lat":"31.30643","category":"671","category_name":"高校中心点","address":"杨浦区武川路111号"},{"poiid":"B2094757D069A0F44299","title":"上海财经大学 会计学院","lon":"121.49037188","lat":"31.306741198","category":"253","category_name":"校园生活","address":"上海武川路111弄"},{"poiid":"B2094654D56CABF5409A","title":"文化花园","lon":"121.49307","lat":"31.302458","category":"47","category_name":"住宅区","address":"上海武川路75弄"},{"poiid":"B2094654D56DA3FF499D","title":"复旦大学北苑学生生活园区","lon":"121.49686","lat":"31.30193","category":"47","category_name":"住宅区","address":"武东路57号"},{"poiid":"B2094757D064A5F84398","title":"三湘世纪花城","lon":"121.49545951341","lat":"31.305311026976","category":"500","category_name":"未知分类","address":"上海市纪念路289弄"},{"poiid":"B2094757D164A5FA449B","title":"宁国府","lon":"121.48960089","lat":"31.304209778","category":"76","category_name":"上海菜","address":"杨浦区吉浦路309号(近武东路)"},{"poiid":"B2094757D06BAAFE469A","title":"文化名园","lon":"121.49146","lat":"31.307182","category":"47","category_name":"住宅区","address":"上海市杨浦区吉浦路375号"},{"poiid":"B2094757D469A5FA419C","title":"一期一会","lon":"121.497397054","lat":"31.303044793","category":"95","category_name":"日本料理","address":"杨浦区武东路38号(近复旦大学北门)"},{"poiid":"B2094757D068A1F4419D","title":"新新潘晓婷撞球俱乐部(财大店)","lon":"121.49138","lat":"31.30397","category":"500","category_name":"未知分类","address":"杨浦区武东路311号3楼(近吉浦路)"},{"poiid":"B2094654D56CAAF54198","title":"元和投资大厦","lon":"121.493601","lat":"31.304054","category":"46","category_name":"楼宇","address":"上海市虹口区逸仙路270号"},{"poiid":"B2094751D36FA1FC489F","title":"Helens Bar","lon":"121.49422","lat":"31.3013","category":"247","category_name":"餐饮美食","address":"杨浦区武川路49号2楼(近武东路)"},{"poiid":"B2094757D464A7FB489A","title":"夏朵德蕾","lon":"121.49966","lat":"31.30171","category":"67","category_name":"甜品店","address":"杨浦区武东路28弄1号楼(近复旦北区后门)"},{"poiid":"B2094757D069A3FA439F","title":"上海财经大学新园食堂","lon":"121.496303","lat":"31.306886","category":"253","category_name":"校园生活","address":"杨浦区武川路111号上海财经大学内"},{"poiid":"B2094654D56DA3FF4993","title":"复旦大学留学生公寓","lon":"121.49571","lat":"31.30254","category":"47","category_name":"住宅区","address":"上海杨浦区邯郸路220号复旦大学邯郸校区"},{"poiid":"B2094757D66BA3F44992","title":"原味湘菜馆","lon":"121.4950477","lat":"31.3031112","category":"77","category_name":"湖南菜","address":"杨浦区武东路(近武川路)"},{"poiid":"B2094655D26BA2FC469B","title":"武川路武东路","lon":"121.49291","lat":"31.30384","category":"38","category_name":"公交车站","address":""},{"poiid":"B2094655D26AA7FB4398","title":"财经大学游泳馆","lon":"121.49578","lat":"31.30645","category":"247","category_name":"餐饮美食","address":"杨浦区武川路111号"},{"poiid":"B2094655D26AABF84998","title":"财大豪生碧丽斯西餐厅","lon":"121.49201","lat":"31.30431","category":"268","category_name":"自助","address":"杨浦区武东路188号上海财大豪生大酒店1楼(近上海财经大学)"},{"poiid":"B2094750DA6EA2FC479F","title":"财大武东校区","lon":"121.490539","lat":"31.303375","category":"253","category_name":"校园生活","address":"武东路321号"},{"poiid":"B2094654D56CAAF44799","title":"荣振大厦","lon":"121.492","lat":"31.3019","category":"46","category_name":"楼宇","address":"松江区工业区鼎源路广富林路路口"},{"poiid":"B2094654D56CABF5499D","title":"香莉缘西点坊武东分店","lon":"121.49411","lat":"31.30353","category":"112","category_name":"糕饼店","address":"武东路122"},{"poiid":"B2094757D568A4F4469F","title":"武川图书馆","lon":"121.494704","lat":"31.304322","category":"181","category_name":"图书馆","address":"中国上海市杨浦区"},{"poiid":"B2094654D56CAAFC409A","title":"JJ SALON","lon":"121.49419","lat":"31.30351","category":"148","category_name":"美容美发店","address":"武东路120"},{"poiid":"B2094757D065A2FC4698","title":"新园餐厅","lon":"121.49609","lat":"31.30431","category":"68","category_name":"快餐厅","address":"杨浦区国定路777号上海财经大学内(近政立路)"},{"poiid":"B2094757D068A0FC489D","title":"洛克琴行","lon":"121.49502","lat":"31.30304","category":"179","category_name":"音乐厅","address":"杨浦区武东路112号(近复旦大学北区)"},{"poiid":"B2094654D56CABF4489C","title":"新疆烧烤王学府街店","lon":"121.49375","lat":"31.30082","category":"68","category_name":"快餐厅","address":"杨浦区学府街76号(近武川路)"},{"poiid":"B2094654DB6AAAF4429B","title":"良友(武东路)","lon":"121.4946","lat":"31.30338","category":"117","category_name":"便民商店/便利店","address":"武东路112"},{"poiid":"B2094750D56EA1FA4699","title":"阿吉特韩式家庭料理","lon":"121.492698","lat":"31.301237","category":"247","category_name":"餐饮美食","address":"学府街116号"},{"poiid":"B2094655D26BA2FC4493","title":"武东路武川路","lon":"121.49581","lat":"31.3029","category":"38","category_name":"公交车站","address":""},{"poiid":"B2094654D56CAAFC419C","title":"可的(同济大学沪东校区西北)","lon":"121.49489","lat":"31.30329","category":"117","category_name":"便民商店/便利店","address":"五角场"},{"poiid":"B2094655D26AA4FD4399","title":"复旦北门黑暗料理","lon":"121.49728","lat":"31.30215","category":"68","category_name":"快餐厅","address":"杨浦区武东路57号"},{"poiid":"B2094654D56CABF54999","title":"同济大学实验学校","lon":"121.49202","lat":"31.3029","category":"55","category_name":"中学","address":"武东路295"},{"poiid":"B2094655D26BA3F5449A","title":"逸居虹口","lon":"121.493532","lat":"31.304725","category":"47","category_name":"住宅区","address":"上海市虹口区逸仙路288弄"},{"poiid":"B2094655D26AABF44092","title":"复旦大学北区学生餐厅","lon":"121.49732","lat":"31.30214","category":"68","category_name":"快餐厅","address":"杨浦区武东路57号复旦大学北区学生宿舍(武川路武东路)"},{"poiid":"B2094655D26CA1FD479D","title":"同济大学实验学校(北门)","lon":"121.49248","lat":"31.30382","category":"678","category_name":"学校大门","address":"武东路295"},{"poiid":"B2094654D56DA3FF439C","title":"同济大学沪东校区(南门)","lon":"121.49552","lat":"31.30314","category":"52","category_name":"高等院校","address":"杨浦区武东路100"},{"poiid":"B2094757D569A1FE439E","title":"上海财经大学继续教育学院","lon":"121.49064182","lat":"31.30405762","category":"53","category_name":"成人教育","address":"武东路321"},{"poiid":"B209475CDA6DA5FF439D","title":"上海财经大学皇家图书馆","lon":"121.49501","lat":"31.303958","category":"500","category_name":"未知分类","address":"上海市 武川路111号"},{"poiid":"B2094751D76CA2FB449E","title":"重庆格格面","lon":"121.496084","lat":"31.303315","category":"500","category_name":"未知分类","address":"武东路23号"},{"poiid":"B2094757D568A1F9409E","title":"财大豪生淳大轩","lon":"121.4918439","lat":"31.30447306","category":"247","category_name":"餐饮美食","address":"武东路188号上海财大豪生大酒店"},{"poiid":"B2094654D56CAAFC419A","title":"载乐琴行","lon":"121.4947","lat":"31.30335","category":"255","category_name":"专卖店","address":"杨浦区武东路110号(近武川路)"},{"poiid":"B2094757D06FA3FA499C","title":"长白山韩国烧烤店(武川总店)","lon":"121.49485","lat":"31.30224","category":"96","category_name":"韩国料理","address":"杨浦区武川路47号(近武东路)"},{"poiid":"B2094757D06FA3F8429E","title":"上海财经大学图书馆","lon":"121.49477791","lat":"31.303851515","category":"253","category_name":"校园生活","address":"上海市杨浦区武川路111号上海财经大学内"},{"poiid":"B2094757D06FA1FF459F","title":"郑阿姨的家","lon":"121.4948311","lat":"31.300688055","category":"96","category_name":"韩国料理","address":"杨浦区武川路13号(近武东路)"},{"poiid":"B2094757D068A4FA4993","title":"上海财大豪生大酒店","lon":"121.491975103","lat":"31.3046381377","category":"217","category_name":"旅馆招待所","address":"上海市杨浦区武东路188号"},{"poiid":"B2094757D06FA7FE419D","title":"釜山火炉","lon":"121.49385","lat":"31.30046","category":"96","category_name":"韩国料理","address":"杨浦区武川路11号(近纪念路)"},{"poiid":"B2094757D06FA1FB469E","title":"复旦大学北区学生公寓","lon":"121.49717156","lat":"31.300906941","category":"253","category_name":"校园生活","address":"上海杨浦区邯郸路220号复旦大学邯郸校区"},{"poiid":"B2094654DB65A6F5469F","title":"Ing韩国料理","lon":"121.49424","lat":"31.30133","category":"96","category_name":"韩国料理","address":"杨浦区武川路49号1楼(近纪念路)"},{"poiid":"B2094757D16CA1FA499F","title":"Helen's酒吧","lon":"121.49433494","lat":"31.301696696","category":"172","category_name":"酒吧","address":"上海杨浦区武川路51号"},{"poiid":"B2094757D068A5FC479A","title":"Ricco Cafe","lon":"121.495382","lat":"31.304011","category":"260","category_name":"其他","address":"杨浦区武川路107号(近武东路)"},{"poiid":"B2094654D56DA3FF439A","title":"上海财经大学","lon":"121.4989","lat":"31.30643","category":"671","category_name":"高校中心点","address":"杨浦区武川路111号"},{"poiid":"B2094757D069A0F44299","title":"上海财经大学 会计学院","lon":"121.49037188","lat":"31.306741198","category":"253","category_name":"校园生活","address":"上海武川路111弄"},{"poiid":"B2094654D56CABF5409A","title":"文化花园","lon":"121.49307","lat":"31.302458","category":"47","category_name":"住宅区","address":"上海武川路75弄"},{"poiid":"B2094654D56DA3FF499D","title":"复旦大学北苑学生生活园区","lon":"121.49686","lat":"31.30193","category":"47","category_name":"住宅区","address":"武东路57号"},{"poiid":"B2094757D064A5F84398","title":"三湘世纪花城","lon":"121.49545951341","lat":"31.305311026976","category":"500","category_name":"未知分类","address":"上海市纪念路289弄"},{"poiid":"B2094757D164A5FA449B","title":"宁国府","lon":"121.48960089","lat":"31.304209778","category":"76","category_name":"上海菜","address":"杨浦区吉浦路309号(近武东路)"},{"poiid":"B2094757D06BAAFE469A","title":"文化名园","lon":"121.49146","lat":"31.307182","category":"47","category_name":"住宅区","address":"上海市杨浦区吉浦路375号"},{"poiid":"B2094757D469A5FA419C","title":"一期一会","lon":"121.497397054","lat":"31.303044793","category":"95","category_name":"日本料理","address":"杨浦区武东路38号(近复旦大学北门)"},{"poiid":"B2094757D068A1F4419D","title":"新新潘晓婷撞球俱乐部(财大店)","lon":"121.49138","lat":"31.30397","category":"500","category_name":"未知分类","address":"杨浦区武东路311号3楼(近吉浦路)"},{"poiid":"B2094654D56CAAF54198","title":"元和投资大厦","lon":"121.493601","lat":"31.304054","category":"46","category_name":"楼宇","address":"上海市虹口区逸仙路270号"},{"poiid":"B2094751D36FA1FC489F","title":"Helens Bar","lon":"121.49422","lat":"31.3013","category":"247","category_name":"餐饮美食","address":"杨浦区武川路49号2楼(近武东路)"},{"poiid":"B2094757D464A7FB489A","title":"夏朵德蕾","lon":"121.49966","lat":"31.30171","category":"67","category_name":"甜品店","address":"杨浦区武东路28弄1号楼(近复旦北区后门)"},{"poiid":"B2094757D069A3FA439F","title":"上海财经大学新园食堂","lon":"121.496303","lat":"31.306886","category":"253","category_name":"校园生活","address":"杨浦区武川路111号上海财经大学内"},{"poiid":"B2094654D56DA3FF4993","title":"复旦大学留学生公寓","lon":"121.49571","lat":"31.30254","category":"47","category_name":"住宅区","address":"上海杨浦区邯郸路220号复旦大学邯郸校区"},{"poiid":"B2094757D66BA3F44992","title":"原味湘菜馆","lon":"121.4950477","lat":"31.3031112","category":"77","category_name":"湖南菜","address":"杨浦区武东路(近武川路)"},{"poiid":"B2094655D26BA2FC469B","title":"武川路武东路","lon":"121.49291","lat":"31.30384","category":"38","category_name":"公交车站","address":""},{"poiid":"B2094655D26AA7FB4398","title":"财经大学游泳馆","lon":"121.49578","lat":"31.30645","category":"247","category_name":"餐饮美食","address":"杨浦区武川路111号"},{"poiid":"B2094655D26AABF84998","title":"财大豪生碧丽斯西餐厅","lon":"121.49201","lat":"31.30431","category":"268","category_name":"自助","address":"杨浦区武东路188号上海财大豪生大酒店1楼(近上海财经大学)"},{"poiid":"B2094750DA6EA2FC479F","title":"财大武东校区","lon":"121.490539","lat":"31.303375","category":"253","category_name":"校园生活","address":"武东路321号"},{"poiid":"B2094654D56CAAF44799","title":"荣振大厦","lon":"121.492","lat":"31.3019","category":"46","category_name":"楼宇","address":"松江区工业区鼎源路广富林路路口"},{"poiid":"B2094654D56CABF5499D","title":"香莉缘西点坊武东分店","lon":"121.49411","lat":"31.30353","category":"112","category_name":"糕饼店","address":"武东路122"},{"poiid":"B2094757D568A4F4469F","title":"武川图书馆","lon":"121.494704","lat":"31.304322","category":"181","category_name":"图书馆","address":"中国上海市杨浦区"},{"poiid":"B2094654D56CAAFC409A","title":"JJ SALON","lon":"121.49419","lat":"31.30351","category":"148","category_name":"美容美发店","address":"武东路120"},{"poiid":"B2094757D065A2FC4698","title":"新园餐厅","lon":"121.49609","lat":"31.30431","category":"68","category_name":"快餐厅","address":"杨浦区国定路777号上海财经大学内(近政立路)"},{"poiid":"B2094757D068A0FC489D","title":"洛克琴行","lon":"121.49502","lat":"31.30304","category":"179","category_name":"音乐厅","address":"杨浦区武东路112号(近复旦大学北区)"},{"poiid":"B2094654D56CABF4489C","title":"新疆烧烤王学府街店","lon":"121.49375","lat":"31.30082","category":"68","category_name":"快餐厅","address":"杨浦区学府街76号(近武川路)"},{"poiid":"B2094654DB6AAAF4429B","title":"良友(武东路)","lon":"121.4946","lat":"31.30338","category":"117","category_name":"便民商店/便利店","address":"武东路112"},{"poiid":"B2094750D56EA1FA4699","title":"阿吉特韩式家庭料理","lon":"121.492698","lat":"31.301237","category":"247","category_name":"餐饮美食","address":"学府街116号"},{"poiid":"B2094655D26BA2FC4493","title":"武东路武川路","lon":"121.49581","lat":"31.3029","category":"38","category_name":"公交车站","address":""},{"poiid":"B2094654D56CAAFC419C","title":"可的(同济大学沪东校区西北)","lon":"121.49489","lat":"31.30329","category":"117","category_name":"便民商店/便利店","address":"五角场"},{"poiid":"B2094655D26AA4FD4399","title":"复旦北门黑暗料理","lon":"121.49728","lat":"31.30215","category":"68","category_name":"快餐厅","address":"杨浦区武东路57号"},{"poiid":"B2094654D56CABF54999","title":"同济大学实验学校","lon":"121.49202","lat":"31.3029","category":"55","category_name":"中学","address":"武东路295"},{"poiid":"B2094655D26BA3F5449A","title":"逸居虹口","lon":"121.493532","lat":"31.304725","category":"47","category_name":"住宅区","address":"上海市虹口区逸仙路288弄"},{"poiid":"B2094655D26AABF44092","title":"复旦大学北区学生餐厅","lon":"121.49732","lat":"31.30214","category":"68","category_name":"快餐厅","address":"杨浦区武东路57号复旦大学北区学生宿舍(武川路武东路)"},{"poiid":"B2094655D26CA1FD479D","title":"同济大学实验学校(北门)","lon":"121.49248","lat":"31.30382","category":"678","category_name":"学校大门","address":"武东路295"},{"poiid":"B2094654D56DA3FF439C","title":"同济大学沪东校区(南门)","lon":"121.49552","lat":"31.30314","category":"52","category_name":"高等院校","address":"杨浦区武东路100"},{"poiid":"B2094757D569A1FE439E","title":"上海财经大学继续教育学院","lon":"121.49064182","lat":"31.30405762","category":"53","category_name":"成人教育","address":"武东路321"},{"poiid":"B209475CDA6DA5FF439D","title":"上海财经大学皇家图书馆","lon":"121.49501","lat":"31.303958","category":"500","category_name":"未知分类","address":"上海市 武川路111号"},{"poiid":"B2094751D76CA2FB449E","title":"重庆格格面","lon":"121.496084","lat":"31.303315","category":"500","category_name":"未知分类","address":"武东路23号"},{"poiid":"B2094757D568A1F9409E","title":"财大豪生淳大轩","lon":"121.4918439","lat":"31.30447306","category":"247","category_name":"餐饮美食","address":"武东路188号上海财大豪生大酒店"},{"poiid":"B2094654D56CAAFC419A","title":"载乐琴行","lon":"121.4947","lat":"31.30335","category":"255","category_name":"专卖店","address":"杨浦区武东路110号(近武川路)"},{"poiid":"B2094757D06FA3FA499C","title":"长白山韩国烧烤店(武川总店)","lon":"121.49485","lat":"31.30224","category":"96","category_name":"韩国料理","address":"杨浦区武川路47号(近武东路)"},{"poiid":"B2094757D06FA3F8429E","title":"上海财经大学图书馆","lon":"121.49477791","lat":"31.303851515","category":"253","category_name":"校园生活","address":"上海市杨浦区武川路111号上海财经大学内"},{"poiid":"B2094757D06FA1FF459F","title":"郑阿姨的家","lon":"121.4948311","lat":"31.300688055","category":"96","category_name":"韩国料理","address":"杨浦区武川路13号(近武东路)"},{"poiid":"B2094757D068A4FA4993","title":"上海财大豪生大酒店","lon":"121.491975103","lat":"31.3046381377","category":"217","category_name":"旅馆招待所","address":"上海市杨浦区武东路188号"},{"poiid":"B2094757D06FA7FE419D","title":"釜山火炉","lon":"121.49385","lat":"31.30046","category":"96","category_name":"韩国料理","address":"杨浦区武川路11号(近纪念路)"},{"poiid":"B2094757D06FA1FB469E","title":"复旦大学北区学生公寓","lon":"121.49717156","lat":"31.300906941","category":"253","category_name":"校园生活","address":"上海杨浦区邯郸路220号复旦大学邯郸校区"},{"poiid":"B2094654DB65A6F5469F","title":"Ing韩国料理","lon":"121.49424","lat":"31.30133","category":"96","category_name":"韩国料理","address":"杨浦区武川路49号1楼(近纪念路)"},{"poiid":"B2094757D16CA1FA499F","title":"Helen's酒吧","lon":"121.49433494","lat":"31.301696696","category":"172","category_name":"酒吧","address":"上海杨浦区武川路51号"},{"poiid":"B2094757D068A5FC479A","title":"Ricco Cafe","lon":"121.495382","lat":"31.304011","category":"260","category_name":"其他","address":"杨浦区武川路107号(近武东路)"},{"poiid":"B2094654D56DA3FF439A","title":"上海财经大学","lon":"121.4989","lat":"31.30643","category":"671","category_name":"高校中心点","address":"杨浦区武川路111号"},{"poiid":"B2094757D069A0F44299","title":"上海财经大学 会计学院","lon":"121.49037188","lat":"31.306741198","category":"253","category_name":"校园生活","address":"上海武川路111弄"},{"poiid":"B2094654D56CABF5409A","title":"文化花园","lon":"121.49307","lat":"31.302458","category":"47","category_name":"住宅区","address":"上海武川路75弄"},{"poiid":"B2094654D56DA3FF499D","title":"复旦大学北苑学生生活园区","lon":"121.49686","lat":"31.30193","category":"47","category_name":"住宅区","address":"武东路57号"},{"poiid":"B2094757D064A5F84398","title":"三湘世纪花城","lon":"121.49545951341","lat":"31.305311026976","category":"500","category_name":"未知分类","address":"上海市纪念路289弄"},{"poiid":"B2094757D164A5FA449B","title":"宁国府","lon":"121.48960089","lat":"31.304209778","category":"76","category_name":"上海菜","address":"杨浦区吉浦路309号(近武东路)"},{"poiid":"B2094757D06BAAFE469A","title":"文化名园","lon":"121.49146","lat":"31.307182","category":"47","category_name":"住宅区","address":"上海市杨浦区吉浦路375号"},{"poiid":"B2094757D469A5FA419C","title":"一期一会","lon":"121.497397054","lat":"31.303044793","category":"95","category_name":"日本料理","address":"杨浦区武东路38号(近复旦大学北门)"},{"poiid":"B2094757D068A1F4419D","title":"新新潘晓婷撞球俱乐部(财大店)","lon":"121.49138","lat":"31.30397","category":"500","category_name":"未知分类","address":"杨浦区武东路311号3楼(近吉浦路)"},{"poiid":"B2094654D56CAAF54198","title":"元和投资大厦","lon":"121.493601","lat":"31.304054","category":"46","category_name":"楼宇","address":"上海市虹口区逸仙路270号"},{"poiid":"B2094751D36FA1FC489F","title":"Helens Bar","lon":"121.49422","lat":"31.3013","category":"247","category_name":"餐饮美食","address":"杨浦区武川路49号2楼(近武东路)"},{"poiid":"B2094757D464A7FB489A","title":"夏朵德蕾","lon":"121.49966","lat":"31.30171","category":"67","category_name":"甜品店","address":"杨浦区武东路28弄1号楼(近复旦北区后门)"},{"poiid":"B2094757D069A3FA439F","title":"上海财经大学新园食堂","lon":"121.496303","lat":"31.306886","category":"253","category_name":"校园生活","address":"杨浦区武川路111号上海财经大学内"},{"poiid":"B2094654D56DA3FF4993","title":"复旦大学留学生公寓","lon":"121.49571","lat":"31.30254","category":"47","category_name":"住宅区","address":"上海杨浦区邯郸路220号复旦大学邯郸校区"},{"poiid":"B2094757D66BA3F44992","title":"原味湘菜馆","lon":"121.4950477","lat":"31.3031112","category":"77","category_name":"湖南菜","address":"杨浦区武东路(近武川路)"},{"poiid":"B2094655D26BA2FC469B","title":"武川路武东路","lon":"121.49291","lat":"31.30384","category":"38","category_name":"公交车站","address":""},{"poiid":"B2094655D26AA7FB4398","title":"财经大学游泳馆","lon":"121.49578","lat":"31.30645","category":"247","category_name":"餐饮美食","address":"杨浦区武川路111号"},{"poiid":"B2094655D26AABF84998","title":"财大豪生碧丽斯西餐厅","lon":"121.49201","lat":"31.30431","category":"268","category_name":"自助","address":"杨浦区武东路188号上海财大豪生大酒店1楼(近上海财经大学)"},{"poiid":"B2094750DA6EA2FC479F","title":"财大武东校区","lon":"121.490539","lat":"31.303375","category":"253","category_name":"校园生活","address":"武东路321号"},{"poiid":"B2094654D56CAAF44799","title":"荣振大厦","lon":"121.492","lat":"31.3019","category":"46","category_name":"楼宇","address":"松江区工业区鼎源路广富林路路口"},{"poiid":"B2094654D56CABF5499D","title":"香莉缘西点坊武东分店","lon":"121.49411","lat":"31.30353","category":"112","category_name":"糕饼店","address":"武东路122"},{"poiid":"B2094757D568A4F4469F","title":"武川图书馆","lon":"121.494704","lat":"31.304322","category":"181","category_name":"图书馆","address":"中国上海市杨浦区"},{"poiid":"B2094654D56CAAFC409A","title":"JJ SALON","lon":"121.49419","lat":"31.30351","category":"148","category_name":"美容美发店","address":"武东路120"},{"poiid":"B2094757D065A2FC4698","title":"新园餐厅","lon":"121.49609","lat":"31.30431","category":"68","category_name":"快餐厅","address":"杨浦区国定路777号上海财经大学内(近政立路)"},{"poiid":"B2094757D068A0FC489D","title":"洛克琴行","lon":"121.49502","lat":"31.30304","category":"179","category_name":"音乐厅","address":"杨浦区武东路112号(近复旦大学北区)"},{"poiid":"B2094654D56CABF4489C","title":"新疆烧烤王学府街店","lon":"121.49375","lat":"31.30082","category":"68","category_name":"快餐厅","address":"杨浦区学府街76号(近武川路)"},{"poiid":"B2094654DB6AAAF4429B","title":"良友(武东路)","lon":"121.4946","lat":"31.30338","category":"117","category_name":"便民商店/便利店","address":"武东路112"},{"poiid":"B2094750D56EA1FA4699","title":"阿吉特韩式家庭料理","lon":"121.492698","lat":"31.301237","category":"247","category_name":"餐饮美食","address":"学府街116号"},{"poiid":"B2094655D26BA2FC4493","title":"武东路武川路","lon":"121.49581","lat":"31.3029","category":"38","category_name":"公交车站","address":""},{"poiid":"B2094654D56CAAFC419C","title":"可的(同济大学沪东校区西北)","lon":"121.49489","lat":"31.30329","category":"117","category_name":"便民商店/便利店","address":"五角场"},{"poiid":"B2094655D26AA4FD4399","title":"复旦北门黑暗料理","lon":"121.49728","lat":"31.30215","category":"68","category_name":"快餐厅","address":"杨浦区武东路57号"},{"poiid":"B2094654D56CABF54999","title":"同济大学实验学校","lon":"121.49202","lat":"31.3029","category":"55","category_name":"中学","address":"武东路295"},{"poiid":"B2094655D26BA3F5449A","title":"逸居虹口","lon":"121.493532","lat":"31.304725","category":"47","category_name":"住宅区","address":"上海市虹口区逸仙路288弄"},{"poiid":"B2094655D26AABF44092","title":"复旦大学北区学生餐厅","lon":"121.49732","lat":"31.30214","category":"68","category_name":"快餐厅","address":"杨浦区武东路57号复旦大学北区学生宿舍(武川路武东路)"},{"poiid":"B2094655D26CA1FD479D","title":"同济大学实验学校(北门)","lon":"121.49248","lat":"31.30382","category":"678","category_name":"学校大门","address":"武东路295"},{"poiid":"B2094654D56DA3FF439C","title":"同济大学沪东校区(南门)","lon":"121.49552","lat":"31.30314","category":"52","category_name":"高等院校","address":"杨浦区武东路100"},{"poiid":"B2094757D569A1FE439E","title":"上海财经大学继续教育学院","lon":"121.49064182","lat":"31.30405762","category":"53","category_name":"成人教育","address":"武东路321"},{"poiid":"B209475CDA6DA5FF439D","title":"上海财经大学皇家图书馆","lon":"121.49501","lat":"31.303958","category":"500","category_name":"未知分类","address":"上海市 武川路111号"},{"poiid":"B2094751D76CA2FB449E","title":"重庆格格面","lon":"121.496084","lat":"31.303315","category":"500","category_name":"未知分类","address":"武东路23号"},{"poiid":"B2094757D568A1F9409E","title":"财大豪生淳大轩","lon":"121.4918439","lat":"31.30447306","category":"247","category_name":"餐饮美食","address":"武东路188号上海财大豪生大酒店"},{"poiid":"B2094654D56CAAFC419A","title":"载乐琴行","lon":"121.4947","lat":"31.30335","category":"255","category_name":"专卖店","address":"杨浦区武东路110号(近武川路)"},{"poiid":"B2094757D06FA3FA499C","title":"长白山韩国烧烤店(武川总店)","lon":"121.49485","lat":"31.30224","category":"96","category_name":"韩国料理","address":"杨浦区武川路47号(近武东路)"},{"poiid":"B2094757D06FA3F8429E","title":"上海财经大学图书馆","lon":"121.49477791","lat":"31.303851515","category":"253","category_name":"校园生活","address":"上海市杨浦区武川路111号上海财经大学内"},{"poiid":"B2094757D06FA1FF459F","title":"郑阿姨的家","lon":"121.4948311","lat":"31.300688055","category":"96","category_name":"韩国料理","address":"杨浦区武川路13号(近武东路)"},{"poiid":"B2094757D068A4FA4993","title":"上海财大豪生大酒店","lon":"121.491975103","lat":"31.3046381377","category":"217","category_name":"旅馆招待所","address":"上海市杨浦区武东路188号"},{"poiid":"B2094757D06FA7FE419D","title":"釜山火炉","lon":"121.49385","lat":"31.30046","category":"96","category_name":"韩国料理","address":"杨浦区武川路11号(近纪念路)"},{"poiid":"B2094757D06FA1FB469E","title":"复旦大学北区学生公寓","lon":"121.49717156","lat":"31.300906941","category":"253","category_name":"校园生活","address":"上海杨浦区邯郸路220号复旦大学邯郸校区"},{"poiid":"B2094654DB65A6F5469F","title":"Ing韩国料理","lon":"121.49424","lat":"31.30133","category":"96","category_name":"韩国料理","address":"杨浦区武川路49号1楼(近纪念路)"},{"poiid":"B2094757D16CA1FA499F","title":"Helen's酒吧","lon":"121.49433494","lat":"31.301696696","category":"172","category_name":"酒吧","address":"上海杨浦区武川路51号"},{"poiid":"B2094757D068A5FC479A","title":"Ricco Cafe","lon":"121.495382","lat":"31.304011","category":"260","category_name":"其他","address":"杨浦区武川路107号(近武东路)"},{"poiid":"B2094654D56DA3FF439A","title":"上海财经大学","lon":"121.4989","lat":"31.30643","category":"671","category_name":"高校中心点","address":"杨浦区武川路111号"},{"poiid":"B2094757D069A0F44299","title":"上海财经大学 会计学院","lon":"121.49037188","lat":"31.306741198","category":"253","category_name":"校园生活","address":"上海武川路111弄"},{"poiid":"B2094654D56CABF5409A","title":"文化花园","lon":"121.49307","lat":"31.302458","category":"47","category_name":"住宅区","address":"上海武川路75弄"},{"poiid":"B2094654D56DA3FF499D","title":"复旦大学北苑学生生活园区","lon":"121.49686","lat":"31.30193","category":"47","category_name":"住宅区","address":"武东路57号"},{"poiid":"B2094757D064A5F84398","title":"三湘世纪花城","lon":"121.49545951341","lat":"31.305311026976","category":"500","category_name":"未知分类","address":"上海市纪念路289弄"},{"poiid":"B2094757D164A5FA449B","title":"宁国府","lon":"121.48960089","lat":"31.304209778","category":"76","category_name":"上海菜","address":"杨浦区吉浦路309号(近武东路)"},{"poiid":"B2094757D06BAAFE469A","title":"文化名园","lon":"121.49146","lat":"31.307182","category":"47","category_name":"住宅区","address":"上海市杨浦区吉浦路375号"},{"poiid":"B2094757D469A5FA419C","title":"一期一会","lon":"121.497397054","lat":"31.303044793","category":"95","category_name":"日本料理","address":"杨浦区武东路38号(近复旦大学北门)"},{"poiid":"B2094757D068A1F4419D","title":"新新潘晓婷撞球俱乐部(财大店)","lon":"121.49138","lat":"31.30397","category":"500","category_name":"未知分类","address":"杨浦区武东路311号3楼(近吉浦路)"},{"poiid":"B2094654D56CAAF54198","title":"元和投资大厦","lon":"121.493601","lat":"31.304054","category":"46","category_name":"楼宇","address":"上海市虹口区逸仙路270号"},{"poiid":"B2094751D36FA1FC489F","title":"Helens Bar","lon":"121.49422","lat":"31.3013","category":"247","category_name":"餐饮美食","address":"杨浦区武川路49号2楼(近武东路)"},{"poiid":"B2094757D464A7FB489A","title":"夏朵德蕾","lon":"121.49966","lat":"31.30171","category":"67","category_name":"甜品店","address":"杨浦区武东路28弄1号楼(近复旦北区后门)"},{"poiid":"B2094757D069A3FA439F","title":"上海财经大学新园食堂","lon":"121.496303","lat":"31.306886","category":"253","category_name":"校园生活","address":"杨浦区武川路111号上海财经大学内"},{"poiid":"B2094654D56DA3FF4993","title":"复旦大学留学生公寓","lon":"121.49571","lat":"31.30254","category":"47","category_name":"住宅区","address":"上海杨浦区邯郸路220号复旦大学邯郸校区"},{"poiid":"B2094757D66BA3F44992","title":"原味湘菜馆","lon":"121.4950477","lat":"31.3031112","category":"77","category_name":"湖南菜","address":"杨浦区武东路(近武川路)"},{"poiid":"B2094655D26BA2FC469B","title":"武川路武东路","lon":"121.49291","lat":"31.30384","category":"38","category_name":"公交车站","address":""},{"poiid":"B2094655D26AA7FB4398","title":"财经大学游泳馆","lon":"121.49578","lat":"31.30645","category":"247","category_name":"餐饮美食","address":"杨浦区武川路111号"},{"poiid":"B2094655D26AABF84998","title":"财大豪生碧丽斯西餐厅","lon":"121.49201","lat":"31.30431","category":"268","category_name":"自助","address":"杨浦区武东路188号上海财大豪生大酒店1楼(近上海财经大学)"},{"poiid":"B2094750DA6EA2FC479F","title":"财大武东校区","lon":"121.490539","lat":"31.303375","category":"253","category_name":"校园生活","address":"武东路321号"},{"poiid":"B2094654D56CAAF44799","title":"荣振大厦","lon":"121.492","lat":"31.3019","category":"46","category_name":"楼宇","address":"松江区工业区鼎源路广富林路路口"},{"poiid":"B2094654D56CABF5499D","title":"香莉缘西点坊武东分店","lon":"121.49411","lat":"31.30353","category":"112","category_name":"糕饼店","address":"武东路122"},{"poiid":"B2094757D568A4F4469F","title":"武川图书馆","lon":"121.494704","lat":"31.304322","category":"181","category_name":"图书馆","address":"中国上海市杨浦区"},{"poiid":"B2094654D56CAAFC409A","title":"JJ SALON","lon":"121.49419","lat":"31.30351","category":"148","category_name":"美容美发店","address":"武东路120"},{"poiid":"B2094757D065A2FC4698","title":"新园餐厅","lon":"121.49609","lat":"31.30431","category":"68","category_name":"快餐厅","address":"杨浦区国定路777号上海财经大学内(近政立路)"},{"poiid":"B2094757D068A0FC489D","title":"洛克琴行","lon":"121.49502","lat":"31.30304","category":"179","category_name":"音乐厅","address":"杨浦区武东路112号(近复旦大学北区)"},{"poiid":"B2094654D56CABF4489C","title":"新疆烧烤王学府街店","lon":"121.49375","lat":"31.30082","category":"68","category_name":"快餐厅","address":"杨浦区学府街76号(近武川路)"},{"poiid":"B2094654DB6AAAF4429B","title":"良友(武东路)","lon":"121.4946","lat":"31.30338","category":"117","category_name":"便民商店/便利店","address":"武东路112"},{"poiid":"B2094750D56EA1FA4699","title":"阿吉特韩式家庭料理","lon":"121.492698","lat":"31.301237","category":"247","category_name":"餐饮美食","address":"学府街116号"},{"poiid":"B2094655D26BA2FC4493","title":"武东路武川路","lon":"121.49581","lat":"31.3029","category":"38","category_name":"公交车站","address":""},{"poiid":"B2094654D56CAAFC419C","title":"可的(同济大学沪东校区西北)","lon":"121.49489","lat":"31.30329","category":"117","category_name":"便民商店/便利店","address":"五角场"},{"poiid":"B2094655D26AA4FD4399","title":"复旦北门黑暗料理","lon":"121.49728","lat":"31.30215","category":"68","category_name":"快餐厅","address":"杨浦区武东路57号"},{"poiid":"B2094654D56CABF54999","title":"同济大学实验学校","lon":"121.49202","lat":"31.3029","category":"55","category_name":"中学","address":"武东路295"},{"poiid":"B2094655D26BA3F5449A","title":"逸居虹口","lon":"121.493532","lat":"31.304725","category":"47","category_name":"住宅区","address":"上海市虹口区逸仙路288弄"},{"poiid":"B2094655D26AABF44092","title":"复旦大学北区学生餐厅","lon":"121.49732","lat":"31.30214","category":"68","category_name":"快餐厅","address":"杨浦区武东路57号复旦大学北区学生宿舍(武川路武东路)"},{"poiid":"B2094655D26CA1FD479D","title":"同济大学实验学校(北门)","lon":"121.49248","lat":"31.30382","category":"678","category_name":"学校大门","address":"武东路295"},{"poiid":"B2094654D56DA3FF439C","title":"同济大学沪东校区(南门)","lon":"121.49552","lat":"31.30314","category":"52","category_name":"高等院校","address":"杨浦区武东路100"},{"poiid":"B2094757D569A1FE439E","title":"上海财经大学继续教育学院","lon":"121.49064182","lat":"31.30405762","category":"53","category_name":"成人教育","address":"武东路321"},{"poiid":"B209475CDA6DA5FF439D","title":"上海财经大学皇家图书馆","lon":"121.49501","lat":"31.303958","category":"500","category_name":"未知分类","address":"上海市 武川路111号"},{"poiid":"B2094751D76CA2FB449E","title":"重庆格格面","lon":"121.496084","lat":"31.303315","category":"500","category_name":"未知分类","address":"武东路23号"},{"poiid":"B2094757D568A1F9409E","title":"财大豪生淳大轩","lon":"121.4918439","lat":"31.30447306","category":"247","category_name":"餐饮美食","address":"武东路188号上海财大豪生大酒店"},{"poiid":"B2094654D56CAAFC419A","title":"载乐琴行","lon":"121.4947","lat":"31.30335","category":"255","category_name":"专卖店","address":"杨浦区武东路110号(近武川路)"}]