[{"poiid":"B2094655D36CA6FF449A","title":"复旦大学江湾校区","lon":"121.51079","lat":"31.33611","category":"38","category_name":"公交车站","address":"上海杨浦区淞沪路2005号"},{"poiid":"B2094654D568A2FA4299","title":"新江湾城","lon":"121.52291","lat":"31.32975","category":"47","category_name":"住宅区","address":""},{"poiid":"B2094757D568ABFE479D","title":"江湾湿地公园","lon":"121.5242553","lat":"31.32879889","category":"196","category_name":"公园","address":"杨浦区殷行路880号(近政悦路)"},{"poiid":"B2094757D06FA3FC439B","title":"淞发路地铁站","lon":"121.500579","lat":"31.344674","category":"36","category_name":"地铁站","address":"上海轨道交通 三号线 轨交淞发路站 轻轨 3"},{"poiid":"B2094757D06FA2F84692","title":"新江湾城SMP滑板公园","lon":"121.51166895","lat":"31.3363108705","category":"196","category_name":"公园","address":"杨浦区淞沪路2100号(近国浩路)"},{"poiid":"B2094757D06AA2F8489B","title":"合生江湾国际公寓","lon":"121.5153901","lat":"31.340062371","category":"47","category_name":"住宅区","address":"上海政和路999弄"},{"poiid":"B2094757D065AAFF409C","title":"汽車夢工場","lon":"121.50068383","lat":"31.349958154","category":"500","category_name":"未知分类","address":"上海市寶山區軍工路5169號"},{"poiid":"B2094757D064AAFD4593","title":"华润新江湾九里","lon":"121.52614512144","lat":"31.341748554472","category":"500","category_name":"未知分类","address":"杨浦区国浩路88号"},{"poiid":"B2094757D069A3F9489C","title":"芭堤雅假日酒店","lon":"121.52464866","lat":"31.3263011405","category":"99","category_name":"泰国／越南菜品餐厅","address":"杨浦区闸殷路311号(近世界路)"},{"poiid":"B2094757D06FA0FD4493","title":"汽车梦工厂","lon":"121.504417419","lat":"31.3494625092","category":"500","category_name":"未知分类","address":"上海宝山区军工路5169"},{"poiid":"B2094757D06AA2FC469D","title":"上海市电力公司教育培训中心","lon":"121.5287321","lat":"31.336349801","category":"500","category_name":"未知分类","address":"上海市杨浦区闸殷路60弄15号"},{"poiid":"B2094757D06AA2F9499C","title":"上海国际港务(集团)股份有限公司军工路分公司","lon":"121.513896","lat":"31.347006","category":"46","category_name":"楼宇","address":"上海宝山区军工路4501号"},{"poiid":"B2094750DB68A0F9469E","title":"同济大学第一附属中学","lon":"121.518768","lat":"31.33612","category":"253","category_name":"校园生活","address":"杨浦区国浩路100号(近复旦新校区)"},{"poiid":"B2094757D16DA0FC449C","title":"巴斯夫(中国)有限公司","lon":"121.538418023","lat":"31.3452782416","category":"263","category_name":"公司","address":"上海浦东江心沙路300号"},{"poiid":"B2094757D068A4FB4192","title":"复旦大学江湾校区李兆基图书馆","lon":"121.50644591","lat":"31.3361329136","category":"253","category_name":"校园生活","address":"上海杨浦区淞沪路2005号"},{"poiid":"B2094757D569A2F84192","title":"九龙仓玺园","lon":"121.514","lat":"31.3328","category":"47","category_name":"住宅区","address":"上海市杨浦区国晓路500弄(新江湾城)"},{"poiid":"B2094655D264A0FF419B","title":"建德国际公寓","lon":"121.52459","lat":"31.334923","category":"47","category_name":"住宅区","address":"上海市杨浦区政悦路588弄"},{"poiid":"B2094654DB64A5FC449E","title":"美格菲健身中心(新江湾店)","lon":"121.51195","lat":"31.3361","category":"221","category_name":"健身中心","address":"杨浦区淞沪路2100号新江湾会所(近国浩路)"},{"poiid":"B2094757D069A5F44692","title":"上海音乐学院实验学校(新江湾城政和路北区)","lon":"121.512098103","lat":"31.3277106205","category":"55","category_name":"中学","address":"上海市杨浦区政和路359号"},{"poiid":"B2094757DA6FA3FA489D","title":"华润置地橡树湾","lon":"121.51965","lat":"31.335945","category":"47","category_name":"住宅区","address":"国浩路88号，政和路1088号,江湾城路1299弄"},{"poiid":"B2094655D36CA0FC4092","title":"军工路陈家宅","lon":"121.51458","lat":"31.34655","category":"38","category_name":"公交车站","address":""},{"poiid":"B2094757D06BA0FE419C","title":"水电新村","lon":"121.52902","lat":"31.335836","category":"47","category_name":"住宅区","address":"闸殷路90弄"},{"poiid":"B2094757D16BA7F4459C","title":"吉发大厦","lon":"121.51587642","lat":"31.344690527","category":"252","category_name":"楼宇机构","address":"上海宝山区军工路4049号"},{"poiid":"B2094655D265A5FC419E","title":"新城御景","lon":"121.51685","lat":"31.336962","category":"47","category_name":"住宅区","address":"杨浦区政和路999弄"},{"poiid":"B2094757D16AA3FC4492","title":"新江湾城湿地","lon":"121.5239101","lat":"31.337660828","category":"500","category_name":"未知分类","address":"上海政悦路"},{"poiid":"B2094655D36DA7FF439D","title":"政和路国帆路","lon":"121.51742","lat":"31.33948","category":"38","category_name":"公交车站","address":""},{"poiid":"B2094655D36CA1F5499D","title":"军工路逸仙路","lon":"121.50859","lat":"31.34915","category":"38","category_name":"公交车站","address":""},{"poiid":"B2094654D46BA3F5439E","title":"快客NO.6188","lon":"121.51317","lat":"31.34727","category":"117","category_name":"便民商店/便利店","address":"军工路"},{"poiid":"B2094655D36CA7F4409C","title":"国帆路淞沪路","lon":"121.51377","lat":"31.34041","category":"38","category_name":"公交车站","address":""},{"poiid":"B2094655D265A7FE4999","title":"加州水郡","lon":"121.51234","lat":"31.332561","category":"47","category_name":"住宅区","address":"杨浦区国秀路599号"},{"poiid":"B2094757D065A7F84399","title":"逸仙公寓","lon":"121.505","lat":"31.3528","category":"252","category_name":"楼宇机构","address":"上海逸仙路3458弄"},{"poiid":"B2094757D06FA2FF479A","title":"殷行路","lon":"121.52777099","lat":"31.328643798","category":"260","category_name":"其他","address":"上海杨浦区殷行路"},{"poiid":"B2094750D76EABFB489C","title":"诺丁山家庭式咖啡馆","lon":"121.517","lat":"31.3395","category":"260","category_name":"其他","address":"杨浦区政和路1119号(近国帆路)"},{"poiid":"B2094757D16EA7FA449D","title":"仁恒怡庭","lon":"121.51923278636","lat":"31.333501535868","category":"47","category_name":"住宅区","address":"东至化工路,南至水月街,西至益乐路,北至方家北路"},{"poiid":"B2094757D06AAAFB479A","title":"闸北电厂","lon":"121.526214303","lat":"31.3403075842","category":"500","category_name":"未知分类","address":"上海军工路"},{"poiid":"B2094654D46BA3F84093","title":"上海港公安局集装箱货场派出所","lon":"121.51341","lat":"31.34473","category":"609","category_name":"警察局","address":"军工路4049号"},{"poiid":"B2094757D16EA1F44498","title":"闸殷路军工路站","lon":"121.529123889","lat":"31.3392284251","category":"35","category_name":"长途汽车站","address":"上海杨浦区闸殷路军工路(公交90,147,522终,726)"},{"poiid":"B2094750D56FA7FC4292","title":"同济一附中","lon":"121.518005","lat":"31.336988","category":"500","category_name":"未知分类","address":"国浩路100号"},{"poiid":"B2094654D46BA3F8419A","title":"上海港集装箱综合发展公司","lon":"121.51341","lat":"31.34474","category":"263","category_name":"公司","address":"军工路4049号"},{"poiid":"B2094655D36DA7FD409D","title":"闸殷路军工路","lon":"121.52912","lat":"31.33923","category":"38","category_name":"公交车站","address":""},{"poiid":"B2094654D46BA3FF4292","title":"上海东方海外集装箱货运有限公司","lon":"121.51255","lat":"31.3439","category":"263","category_name":"公司","address":""},{"poiid":"B2094757D06FA5F5489F","title":"兴浦小区","lon":"121.530461","lat":"31.334979","category":"47","category_name":"住宅区","address":"上海闸殷路81弄"},{"poiid":"B2094757D16BA2FC449E","title":"江湾新城","lon":"121.524588","lat":"31.334923","category":"47","category_name":"住宅区","address":"上海政悦路"},{"poiid":"B2094654D46BA3F54292","title":"临江路轮渡站","lon":"121.5326","lat":"31.3405","category":"34","category_name":"港口码头","address":"军工路"},{"poiid":"B2094757D66DABF94992","title":"华润置地","lon":"121.517082","lat":"31.33948","category":"263","category_name":"公司","address":"上海赤峰路63号创意设计工厂22层"},{"poiid":"B2094655D36CA7F4409D","title":"国浩路政和路","lon":"121.51571","lat":"31.33565","category":"38","category_name":"公交车站","address":""},{"poiid":"B2094654D46BA3F84198","title":"上海东亚运输仓储有限公司(集发酒店西北)","lon":"121.51229","lat":"31.34566","category":"263","category_name":"公司","address":""},{"poiid":"B2094655D265AAF5449F","title":"快客","lon":"121.51652","lat":"31.33613","category":"117","category_name":"便民商店/便利店","address":"政和路931号"},{"poiid":"B2094655D26BA2FC479A","title":"吴淞船厂","lon":"121.52995","lat":"31.3489","category":"38","category_name":"公交车站","address":""},{"poiid":"B2094757D065A6F44092","title":"华东电力培训中心","lon":"121.52621","lat":"31.3372","category":"500","category_name":"未知分类","address":"上海杨浦区闸殷路60弄50号  "},{"poiid":"B2094655D36CA6FF449A","title":"复旦大学江湾校区","lon":"121.51079","lat":"31.33611","category":"38","category_name":"公交车站","address":"上海杨浦区淞沪路2005号"},{"poiid":"B2094654D568A2FA4299","title":"新江湾城","lon":"121.52291","lat":"31.32975","category":"47","category_name":"住宅区","address":""},{"poiid":"B2094757D568ABFE479D","title":"江湾湿地公园","lon":"121.5242553","lat":"31.32879889","category":"196","category_name":"公园","address":"杨浦区殷行路880号(近政悦路)"},{"poiid":"B2094757D06FA3FC439B","title":"淞发路地铁站","lon":"121.500579","lat":"31.344674","category":"36","category_name":"地铁站","address":"上海轨道交通 三号线 轨交淞发路站 轻轨 3"},{"poiid":"B2094757D06FA2F84692","title":"新江湾城SMP滑板公园","lon":"121.51166895","lat":"31.3363108705","category":"196","category_name":"公园","address":"杨浦区淞沪路2100号(近国浩路)"},{"poiid":"B2094757D06AA2F8489B","title":"合生江湾国际公寓","lon":"121.5153901","lat":"31.340062371","category":"47","category_name":"住宅区","address":"上海政和路999弄"},{"poiid":"B2094757D065AAFF409C","title":"汽車夢工場","lon":"121.50068383","lat":"31.349958154","category":"500","category_name":"未知分类","address":"上海市寶山區軍工路5169號"},{"poiid":"B2094757D064AAFD4593","title":"华润新江湾九里","lon":"121.52614512144","lat":"31.341748554472","category":"500","category_name":"未知分类","address":"杨浦区国浩路88号"},{"poiid":"B2094757D069A3F9489C","title":"芭堤雅假日酒店","lon":"121.52464866","lat":"31.3263011405","category":"99","category_name":"泰国／越南菜品餐厅","address":"杨浦区闸殷路311号(近世界路)"},{"poiid":"B2094757D06FA0FD4493","title":"汽车梦工厂","lon":"121.504417419","lat":"31.3494625092","category":"500","category_name":"未知分类","address":"上海宝山区军工路5169"},{"poiid":"B2094757D06AA2FC469D","title":"上海市电力公司教育培训中心","lon":"121.5287321","lat":"31.336349801","category":"500","category_name":"未知分类","address":"上海市杨浦区闸殷路60弄15号"},{"poiid":"B2094757D06AA2F9499C","title":"上海国际港务(集团)股份有限公司军工路分公司","lon":"121.513896","lat":"31.347006","category":"46","category_name":"楼宇","address":"上海宝山区军工路4501号"},{"poiid":"B2094750DB68A0F9469E","title":"同济大学第一附属中学","lon":"121.518768","lat":"31.33612","category":"253","category_name":"校园生活","address":"杨浦区国浩路100号(近复旦新校区)"},{"poiid":"B2094757D16DA0FC449C","title":"巴斯夫(中国)有限公司","lon":"121.538418023","lat":"31.3452782416","category":"263","category_name":"公司","address":"上海浦东江心沙路300号"},{"poiid":"B2094757D068A4FB4192","title":"复旦大学江湾校区李兆基图书馆","lon":"121.50644591","lat":"31.3361329136","category":"253","category_name":"校园生活","address":"上海杨浦区淞沪路2005号"},{"poiid":"B2094757D569A2F84192","title":"九龙仓玺园","lon":"121.514","lat":"31.3328","category":"47","category_name":"住宅区","address":"上海市杨浦区国晓路500弄(新江湾城)"},{"poiid":"B2094655D264A0FF419B","title":"建德国际公寓","lon":"121.52459","lat":"31.334923","category":"47","category_name":"住宅区","address":"上海市杨浦区政悦路588弄"},{"poiid":"B2094654DB64A5FC449E","title":"美格菲健身中心(新江湾店)","lon":"121.51195","lat":"31.3361","category":"221","category_name":"健身中心","address":"杨浦区淞沪路2100号新江湾会所(近国浩路)"},{"poiid":"B2094757D069A5F44692","title":"上海音乐学院实验学校(新江湾城政和路北区)","lon":"121.512098103","lat":"31.3277106205","category":"55","category_name":"中学","address":"上海市杨浦区政和路359号"},{"poiid":"B2094757DA6FA3FA489D","title":"华润置地橡树湾","lon":"121.51965","lat":"31.335945","category":"47","category_name":"住宅区","address":"国浩路88号，政和路1088号,江湾城路1299弄"},{"poiid":"B2094655D36CA0FC4092","title":"军工路陈家宅","lon":"121.51458","lat":"31.34655","category":"38","category_name":"公交车站","address":""},{"poiid":"B2094757D06BA0FE419C","title":"水电新村","lon":"121.52902","lat":"31.335836","category":"47","category_name":"住宅区","address":"闸殷路90弄"},{"poiid":"B2094757D16BA7F4459C","title":"吉发大厦","lon":"121.51587642","lat":"31.344690527","category":"252","category_name":"楼宇机构","address":"上海宝山区军工路4049号"},{"poiid":"B2094655D265A5FC419E","title":"新城御景","lon":"121.51685","lat":"31.336962","category":"47","category_name":"住宅区","address":"杨浦区政和路999弄"},{"poiid":"B2094757D16AA3FC4492","title":"新江湾城湿地","lon":"121.5239101","lat":"31.337660828","category":"500","category_name":"未知分类","address":"上海政悦路"},{"poiid":"B2094655D36DA7FF439D","title":"政和路国帆路","lon":"121.51742","lat":"31.33948","category":"38","category_name":"公交车站","address":""},{"poiid":"B2094655D36CA1F5499D","title":"军工路逸仙路","lon":"121.50859","lat":"31.34915","category":"38","category_name":"公交车站","address":""},{"poiid":"B2094654D46BA3F5439E","title":"快客NO.6188","lon":"121.51317","lat":"31.34727","category":"117","category_name":"便民商店/便利店","address":"军工路"},{"poiid":"B2094655D36CA7F4409C","title":"国帆路淞沪路","lon":"121.51377","lat":"31.34041","category":"38","category_name":"公交车站","address":""},{"poiid":"B2094655D265A7FE4999","title":"加州水郡","lon":"121.51234","lat":"31.332561","category":"47","category_name":"住宅区","address":"杨浦区国秀路599号"},{"poiid":"B2094757D065A7F84399","title":"逸仙公寓","lon":"121.505","lat":"31.3528","category":"252","category_name":"楼宇机构","address":"上海逸仙路3458弄"},{"poiid":"B2094757D06FA2FF479A","title":"殷行路","lon":"121.52777099","lat":"31.328643798","category":"260","category_name":"其他","address":"上海杨浦区殷行路"},{"poiid":"B2094750D76EABFB489C","title":"诺丁山家庭式咖啡馆","lon":"121.517","lat":"31.3395","category":"260","category_name":"其他","address":"杨浦区政和路1119号(近国帆路)"},{"poiid":"B2094757D16EA7FA449D","title":"仁恒怡庭","lon":"121.51923278636","lat":"31.333501535868","category":"47","category_name":"住宅区","address":"东至化工路,南至水月街,西至益乐路,北至方家北路"},{"poiid":"B2094757D06AAAFB479A","title":"闸北电厂","lon":"121.526214303","lat":"31.3403075842","category":"500","category_name":"未知分类","address":"上海军工路"},{"poiid":"B2094654D46BA3F84093","title":"上海港公安局集装箱货场派出所","lon":"121.51341","lat":"31.34473","category":"609","category_name":"警察局","address":"军工路4049号"},{"poiid":"B2094757D16EA1F44498","title":"闸殷路军工路站","lon":"121.529123889","lat":"31.3392284251","category":"35","category_name":"长途汽车站","address":"上海杨浦区闸殷路军工路(公交90,147,522终,726)"},{"poiid":"B2094750D56FA7FC4292","title":"同济一附中","lon":"121.518005","lat":"31.336988","category":"500","category_name":"未知分类","address":"国浩路100号"},{"poiid":"B2094654D46BA3F8419A","title":"上海港集装箱综合发展公司","lon":"121.51341","lat":"31.34474","category":"263","category_name":"公司","address":"军工路4049号"},{"poiid":"B2094655D36DA7FD409D","title":"闸殷路军工路","lon":"121.52912","lat":"31.33923","category":"38","category_name":"公交车站","address":""},{"poiid":"B2094654D46BA3FF4292","title":"上海东方海外集装箱货运有限公司","lon":"121.51255","lat":"31.3439","category":"263","category_name":"公司","address":""},{"poiid":"B2094757D06FA5F5489F","title":"兴浦小区","lon":"121.530461","lat":"31.334979","category":"47","category_name":"住宅区","address":"上海闸殷路81弄"},{"poiid":"B2094757D16BA2FC449E","title":"江湾新城","lon":"121.524588","lat":"31.334923","category":"47","category_name":"住宅区","address":"上海政悦路"},{"poiid":"B2094654D46BA3F54292","title":"临江路轮渡站","lon":"121.5326","lat":"31.3405","category":"34","category_name":"港口码头","address":"军工路"},{"poiid":"B2094757D66DABF94992","title":"华润置地","lon":"121.517082","lat":"31.33948","category":"263","category_name":"公司","address":"上海赤峰路63号创意设计工厂22层"},{"poiid":"B2094655D36CA7F4409D","title":"国浩路政和路","lon":"121.51571","lat":"31.33565","category":"38","category_name":"公交车站","address":""},{"poiid":"B2094654D46BA3F84198","title":"上海东亚运输仓储有限公司(集发酒店西北)","lon":"121.51229","lat":"31.34566","category":"263","category_name":"公司","address":""},{"poiid":"B2094655D265AAF5449F","title":"快客","lon":"121.51652","lat":"31.33613","category":"117","category_name":"便民商店/便利店","address":"政和路931号"},{"poiid":"B2094655D26BA2FC479A","title":"吴淞船厂","lon":"121.52995","lat":"31.3489","category":"38","category_name":"公交车站","address":""},{"poiid":"B2094757D065A6F44092","title":"华东电力培训中心","lon":"121.52621","lat":"31.3372","category":"500","category_name":"未知分类","address":"上海杨浦区闸殷路60弄50号  "},{"poiid":"B2094655D36CA6FF449A","title":"复旦大学江湾校区","lon":"121.51079","lat":"31.33611","category":"38","category_name":"公交车站","address":"上海杨浦区淞沪路2005号"},{"poiid":"B2094654D568A2FA4299","title":"新江湾城","lon":"121.52291","lat":"31.32975","category":"47","category_name":"住宅区","address":""},{"poiid":"B2094757D568ABFE479D","title":"江湾湿地公园","lon":"121.5242553","lat":"31.32879889","category":"196","category_name":"公园","address":"杨浦区殷行路880号(近政悦路)"},{"poiid":"B2094757D06FA3FC439B","title":"淞发路地铁站","lon":"121.500579","lat":"31.344674","category":"36","category_name":"地铁站","address":"上海轨道交通 三号线 轨交淞发路站 轻轨 3"},{"poiid":"B2094757D06FA2F84692","title":"新江湾城SMP滑板公园","lon":"121.51166895","lat":"31.3363108705","category":"196","category_name":"公园","address":"杨浦区淞沪路2100号(近国浩路)"},{"poiid":"B2094757D06AA2F8489B","title":"合生江湾国际公寓","lon":"121.5153901","lat":"31.340062371","category":"47","category_name":"住宅区","address":"上海政和路999弄"},{"poiid":"B2094757D065AAFF409C","title":"汽車夢工場","lon":"121.50068383","lat":"31.349958154","category":"500","category_name":"未知分类","address":"上海市寶山區軍工路5169號"},{"poiid":"B2094757D064AAFD4593","title":"华润新江湾九里","lon":"121.52614512144","lat":"31.341748554472","category":"500","category_name":"未知分类","address":"杨浦区国浩路88号"},{"poiid":"B2094757D069A3F9489C","title":"芭堤雅假日酒店","lon":"121.52464866","lat":"31.3263011405","category":"99","category_name":"泰国／越南菜品餐厅","address":"杨浦区闸殷路311号(近世界路)"},{"poiid":"B2094757D06FA0FD4493","title":"汽车梦工厂","lon":"121.504417419","lat":"31.3494625092","category":"500","category_name":"未知分类","address":"上海宝山区军工路5169"},{"poiid":"B2094757D06AA2FC469D","title":"上海市电力公司教育培训中心","lon":"121.5287321","lat":"31.336349801","category":"500","category_name":"未知分类","address":"上海市杨浦区闸殷路60弄15号"},{"poiid":"B2094757D06AA2F9499C","title":"上海国际港务(集团)股份有限公司军工路分公司","lon":"121.513896","lat":"31.347006","category":"46","category_name":"楼宇","address":"上海宝山区军工路4501号"},{"poiid":"B2094750DB68A0F9469E","title":"同济大学第一附属中学","lon":"121.518768","lat":"31.33612","category":"253","category_name":"校园生活","address":"杨浦区国浩路100号(近复旦新校区)"},{"poiid":"B2094757D16DA0FC449C","title":"巴斯夫(中国)有限公司","lon":"121.538418023","lat":"31.3452782416","category":"263","category_name":"公司","address":"上海浦东江心沙路300号"},{"poiid":"B2094757D068A4FB4192","title":"复旦大学江湾校区李兆基图书馆","lon":"121.50644591","lat":"31.3361329136","category":"253","category_name":"校园生活","address":"上海杨浦区淞沪路2005号"},{"poiid":"B2094757D569A2F84192","title":"九龙仓玺园","lon":"121.514","lat":"31.3328","category":"47","category_name":"住宅区","address":"上海市杨浦区国晓路500弄(新江湾城)"},{"poiid":"B2094655D264A0FF419B","title":"建德国际公寓","lon":"121.52459","lat":"31.334923","category":"47","category_name":"住宅区","address":"上海市杨浦区政悦路588弄"},{"poiid":"B2094654DB64A5FC449E","title":"美格菲健身中心(新江湾店)","lon":"121.51195","lat":"31.3361","category":"221","category_name":"健身中心","address":"杨浦区淞沪路2100号新江湾会所(近国浩路)"},{"poiid":"B2094757D069A5F44692","title":"上海音乐学院实验学校(新江湾城政和路北区)","lon":"121.512098103","lat":"31.3277106205","category":"55","category_name":"中学","address":"上海市杨浦区政和路359号"},{"poiid":"B2094757DA6FA3FA489D","title":"华润置地橡树湾","lon":"121.51965","lat":"31.335945","category":"47","category_name":"住宅区","address":"国浩路88号，政和路1088号,江湾城路1299弄"},{"poiid":"B2094655D36CA0FC4092","title":"军工路陈家宅","lon":"121.51458","lat":"31.34655","category":"38","category_name":"公交车站","address":""},{"poiid":"B2094757D06BA0FE419C","title":"水电新村","lon":"121.52902","lat":"31.335836","category":"47","category_name":"住宅区","address":"闸殷路90弄"},{"poiid":"B2094757D16BA7F4459C","title":"吉发大厦","lon":"121.51587642","lat":"31.344690527","category":"252","category_name":"楼宇机构","address":"上海宝山区军工路4049号"},{"poiid":"B2094655D265A5FC419E","title":"新城御景","lon":"121.51685","lat":"31.336962","category":"47","category_name":"住宅区","address":"杨浦区政和路999弄"},{"poiid":"B2094757D16AA3FC4492","title":"新江湾城湿地","lon":"121.5239101","lat":"31.337660828","category":"500","category_name":"未知分类","address":"上海政悦路"},{"poiid":"B2094655D36DA7FF439D","title":"政和路国帆路","lon":"121.51742","lat":"31.33948","category":"38","category_name":"公交车站","address":""},{"poiid":"B2094655D36CA1F5499D","title":"军工路逸仙路","lon":"121.50859","lat":"31.34915","category":"38","category_name":"公交车站","address":""},{"poiid":"B2094654D46BA3F5439E","title":"快客NO.6188","lon":"121.51317","lat":"31.34727","category":"117","category_name":"便民商店/便利店","address":"军工路"},{"poiid":"B2094655D36CA7F4409C","title":"国帆路淞沪路","lon":"121.51377","lat":"31.34041","category":"38","category_name":"公交车站","address":""},{"poiid":"B2094655D265A7FE4999","title":"加州水郡","lon":"121.51234","lat":"31.332561","category":"47","category_name":"住宅区","address":"杨浦区国秀路599号"},{"poiid":"B2094757D065A7F84399","title":"逸仙公寓","lon":"121.505","lat":"31.3528","category":"252","category_name":"楼宇机构","address":"上海逸仙路3458弄"},{"poiid":"B2094757D06FA2FF479A","title":"殷行路","lon":"121.52777099","lat":"31.328643798","category":"260","category_name":"其他","address":"上海杨浦区殷行路"},{"poiid":"B2094750D76EABFB489C","title":"诺丁山家庭式咖啡馆","lon":"121.517","lat":"31.3395","category":"260","category_name":"其他","address":"杨浦区政和路1119号(近国帆路)"},{"poiid":"B2094757D16EA7FA449D","title":"仁恒怡庭","lon":"121.51923278636","lat":"31.333501535868","category":"47","category_name":"住宅区","address":"东至化工路,南至水月街,西至益乐路,北至方家北路"},{"poiid":"B2094757D06AAAFB479A","title":"闸北电厂","lon":"121.526214303","lat":"31.3403075842","category":"500","category_name":"未知分类","address":"上海军工路"},{"poiid":"B2094654D46BA3F84093","title":"上海港公安局集装箱货场派出所","lon":"121.51341","lat":"31.34473","category":"609","category_name":"警察局","address":"军工路4049号"},{"poiid":"B2094757D16EA1F44498","title":"闸殷路军工路站","lon":"121.529123889","lat":"31.3392284251","category":"35","category_name":"长途汽车站","address":"上海杨浦区闸殷路军工路(公交90,147,522终,726)"},{"poiid":"B2094750D56FA7FC4292","title":"同济一附中","lon":"121.518005","lat":"31.336988","category":"500","category_name":"未知分类","address":"国浩路100号"},{"poiid":"B2094654D46BA3F8419A","title":"上海港集装箱综合发展公司","lon":"121.51341","lat":"31.34474","category":"263","category_name":"公司","address":"军工路4049号"},{"poiid":"B2094655D36DA7FD409D","title":"闸殷路军工路","lon":"121.52912","lat":"31.33923","category":"38","category_name":"公交车站","address":""},{"poiid":"B2094654D46BA3FF4292","title":"上海东方海外集装箱货运有限公司","lon":"121.51255","lat":"31.3439","category":"263","category_name":"公司","address":""},{"poiid":"B2094757D06FA5F5489F","title":"兴浦小区","lon":"121.530461","lat":"31.334979","category":"47","category_name":"住宅区","address":"上海闸殷路81弄"},{"poiid":"B2094757D16BA2FC449E","title":"江湾新城","lon":"121.524588","lat":"31.334923","category":"47","category_name":"住宅区","address":"上海政悦路"},{"poiid":"B2094654D46BA3F54292","title":"临江路轮渡站","lon":"121.5326","lat":"31.3405","category":"34","category_name":"港口码头","address":"军工路"},{"poiid":"B2094757D66DABF94992","title":"华润置地","lon":"121.517082","lat":"31.33948","category":"263","category_name":"公司","address":"上海赤峰路63号创意设计工厂22层"},{"poiid":"B2094655D36CA7F4409D","title":"国浩路政和路","lon":"121.51571","lat":"31.33565","category":"38","category_name":"公交车站","address":""},{"poiid":"B2094654D46BA3F84198","title":"上海东亚运输仓储有限公司(集发酒店西北)","lon":"121.51229","lat":"31.34566","category":"263","category_name":"公司","address":""},{"poiid":"B2094655D265AAF5449F","title":"快客","lon":"121.51652","lat":"31.33613","category":"117","category_name":"便民商店/便利店","address":"政和路931号"},{"poiid":"B2094655D26BA2FC479A","title":"吴淞船厂","lon":"121.52995","lat":"31.3489","category":"38","category_name":"公交车站","address":""},{"poiid":"B2094757D065A6F44092","title":"华东电力培训中心","lon":"121.52621","lat":"31.3372","category":"500","category_name":"未知分类","address":"上海杨浦区闸殷路60弄50号  "},{"poiid":"B2094655D36CA6FF449A","title":"复旦大学江湾校区","lon":"121.51079","lat":"31.33611","category":"38","category_name":"公交车站","address":"上海杨浦区淞沪路2005号"},{"poiid":"B2094654D568A2FA4299","title":"新江湾城","lon":"121.52291","lat":"31.32975","category":"47","category_name":"住宅区","address":""},{"poiid":"B2094757D568ABFE479D","title":"江湾湿地公园","lon":"121.5242553","lat":"31.32879889","category":"196","category_name":"公园","address":"杨浦区殷行路880号(近政悦路)"},{"poiid":"B2094757D06FA3FC439B","title":"淞发路地铁站","lon":"121.500579","lat":"31.344674","category":"36","category_name":"地铁站","address":"上海轨道交通 三号线 轨交淞发路站 轻轨 3"},{"poiid":"B2094757D06FA2F84692","title":"新江湾城SMP滑板公园","lon":"121.51166895","lat":"31.3363108705","category":"196","category_name":"公园","address":"杨浦区淞沪路2100号(近国浩路)"},{"poiid":"B2094757D06AA2F8489B","title":"合生江湾国际公寓","lon":"121.5153901","lat":"31.340062371","category":"47","category_name":"住宅区","address":"上海政和路999弄"},{"poiid":"B2094757D065AAFF409C","title":"汽車夢工場","lon":"121.50068383","lat":"31.349958154","category":"500","category_name":"未知分类","address":"上海市寶山區軍工路5169號"},{"poiid":"B2094757D064AAFD4593","title":"华润新江湾九里","lon":"121.52614512144","lat":"31.341748554472","category":"500","category_name":"未知分类","address":"杨浦区国浩路88号"},{"poiid":"B2094757D069A3F9489C","title":"芭堤雅假日酒店","lon":"121.52464866","lat":"31.3263011405","category":"99","category_name":"泰国／越南菜品餐厅","address":"杨浦区闸殷路311号(近世界路)"},{"poiid":"B2094757D06FA0FD4493","title":"汽车梦工厂","lon":"121.504417419","lat":"31.3494625092","category":"500","category_name":"未知分类","address":"上海宝山区军工路5169"},{"poiid":"B2094757D06AA2FC469D","title":"上海市电力公司教育培训中心","lon":"121.5287321","lat":"31.336349801","category":"500","category_name":"未知分类","address":"上海市杨浦区闸殷路60弄15号"},{"poiid":"B2094757D06AA2F9499C","title":"上海国际港务(集团)股份有限公司军工路分公司","lon":"121.513896","lat":"31.347006","category":"46","category_name":"楼宇","address":"上海宝山区军工路4501号"},{"poiid":"B2094750DB68A0F9469E","title":"同济大学第一附属中学","lon":"121.518768","lat":"31.33612","category":"253","category_name":"校园生活","address":"杨浦区国浩路100号(近复旦新校区)"},{"poiid":"B2094757D16DA0FC449C","title":"巴斯夫(中国)有限公司","lon":"121.538418023","lat":"31.3452782416","category":"263","category_name":"公司","address":"上海浦东江心沙路300号"},{"poiid":"B2094757D068A4FB4192","title":"复旦大学江湾校区李兆基图书馆","lon":"121.50644591","lat":"31.3361329136","category":"253","category_name":"校园生活","address":"上海杨浦区淞沪路2005号"},{"poiid":"B2094757D569A2F84192","title":"九龙仓玺园","lon":"121.514","lat":"31.3328","category":"47","category_name":"住宅区","address":"上海市杨浦区国晓路500弄(新江湾城)"},{"poiid":"B2094655D264A0FF419B","title":"建德国际公寓","lon":"121.52459","lat":"31.334923","category":"47","category_name":"住宅区","address":"上海市杨浦区政悦路588弄"},{"poiid":"B2094654DB64A5FC449E","title":"美格菲健身中心(新江湾店)","lon":"121.51195","lat":"31.3361","category":"221","category_name":"健身中心","address":"杨浦区淞沪路2100号新江湾会所(近国浩路)"},{"poiid":"B2094757D069A5F44692","title":"上海音乐学院实验学校(新江湾城政和路北区)","lon":"121.512098103","lat":"31.3277106205","category":"55","category_name":"中学","address":"上海市杨浦区政和路359号"},{"poiid":"B2094757DA6FA3FA489D","title":"华润置地橡树湾","lon":"121.51965","lat":"31.335945","category":"47","category_name":"住宅区","address":"国浩路88号，政和路1088号,江湾城路1299弄"},{"poiid":"B2094655D36CA0FC4092","title":"军工路陈家宅","lon":"121.51458","lat":"31.34655","category":"38","category_name":"公交车站","address":""},{"poiid":"B2094757D06BA0FE419C","title":"水电新村","lon":"121.52902","lat":"31.335836","category":"47","category_name":"住宅区","address":"闸殷路90弄"},{"poiid":"B2094757D16BA7F4459C","title":"吉发大厦","lon":"121.51587642","lat":"31.344690527","category":"252","category_name":"楼宇机构","address":"上海宝山区军工路4049号"},{"poiid":"B2094655D265A5FC419E","title":"新城御景","lon":"121.51685","lat":"31.336962","category":"47","category_name":"住宅区","address":"杨浦区政和路999弄"},{"poiid":"B2094757D16AA3FC4492","title":"新江湾城湿地","lon":"121.5239101","lat":"31.337660828","category":"500","category_name":"未知分类","address":"上海政悦路"},{"poiid":"B2094655D36DA7FF439D","title":"政和路国帆路","lon":"121.51742","lat":"31.33948","category":"38","category_name":"公交车站","address":""},{"poiid":"B2094655D36CA1F5499D","title":"军工路逸仙路","lon":"121.50859","lat":"31.34915","category":"38","category_name":"公交车站","address":""},{"poiid":"B2094654D46BA3F5439E","title":"快客NO.6188","lon":"121.51317","lat":"31.34727","category":"117","category_name":"便民商店/便利店","address":"军工路"},{"poiid":"B2094655D36CA7F4409C","title":"国帆路淞沪路","lon":"121.51377","lat":"31.34041","category":"38","category_name":"公交车站","address":""},{"poiid":"B2094655D265A7FE4999","title":"加州水郡","lon":"121.51234","lat":"31.332561","category":"47","category_name":"住宅区","address":"杨浦区国秀路599号"},{"poiid":"B2094757D065A7F84399","title":"逸仙公寓","lon":"121.505","lat":"31.3528","category":"252","category_name":"楼宇机构","address":"上海逸仙路3458弄"},{"poiid":"B2094757D06FA2FF479A","title":"殷行路","lon":"121.52777099","lat":"31.328643798","category":"260","category_name":"其他","address":"上海杨浦区殷行路"},{"poiid":"B2094750D76EABFB489C","title":"诺丁山家庭式咖啡馆","lon":"121.517","lat":"31.3395","category":"260","category_name":"其他","address":"杨浦区政和路1119号(近国帆路)"},{"poiid":"B2094757D16EA7FA449D","title":"仁恒怡庭","lon":"121.51923278636","lat":"31.333501535868","category":"47","category_name":"住宅区","address":"东至化工路,南至水月街,西至益乐路,北至方家北路"},{"poiid":"B2094757D06AAAFB479A","title":"闸北电厂","lon":"121.526214303","lat":"31.3403075842","category":"500","category_name":"未知分类","address":"上海军工路"},{"poiid":"B2094654D46BA3F84093","title":"上海港公安局集装箱货场派出所","lon":"121.51341","lat":"31.34473","category":"609","category_name":"警察局","address":"军工路4049号"},{"poiid":"B2094757D16EA1F44498","title":"闸殷路军工路站","lon":"121.529123889","lat":"31.3392284251","category":"35","category_name":"长途汽车站","address":"上海杨浦区闸殷路军工路(公交90,147,522终,726)"},{"poiid":"B2094750D56FA7FC4292","title":"同济一附中","lon":"121.518005","lat":"31.336988","category":"500","category_name":"未知分类","address":"国浩路100号"},{"poiid":"B2094654D46BA3F8419A","title":"上海港集装箱综合发展公司","lon":"121.51341","lat":"31.34474","category":"263","category_name":"公司","address":"军工路4049号"},{"poiid":"B2094655D36DA7FD409D","title":"闸殷路军工路","lon":"121.52912","lat":"31.33923","category":"38","category_name":"公交车站","address":""},{"poiid":"B2094654D46BA3FF4292","title":"上海东方海外集装箱货运有限公司","lon":"121.51255","lat":"31.3439","category":"263","category_name":"公司","address":""},{"poiid":"B2094757D06FA5F5489F","title":"兴浦小区","lon":"121.530461","lat":"31.334979","category":"47","category_name":"住宅区","address":"上海闸殷路81弄"},{"poiid":"B2094757D16BA2FC449E","title":"江湾新城","lon":"121.524588","lat":"31.334923","category":"47","category_name":"住宅区","address":"上海政悦路"},{"poiid":"B2094654D46BA3F54292","title":"临江路轮渡站","lon":"121.5326","lat":"31.3405","category":"34","category_name":"港口码头","address":"军工路"},{"poiid":"B2094757D66DABF94992","title":"华润置地","lon":"121.517082","lat":"31.33948","category":"263","category_name":"公司","address":"上海赤峰路63号创意设计工厂22层"},{"poiid":"B2094655D36CA7F4409D","title":"国浩路政和路","lon":"121.51571","lat":"31.33565","category":"38","category_name":"公交车站","address":""},{"poiid":"B2094654D46BA3F84198","title":"上海东亚运输仓储有限公司(集发酒店西北)","lon":"121.51229","lat":"31.34566","category":"263","category_name":"公司","address":""},{"poiid":"B2094655D265AAF5449F","title":"快客","lon":"121.51652","lat":"31.33613","category":"117","category_name":"便民商店/便利店","address":"政和路931号"},{"poiid":"B2094655D26BA2FC479A","title":"吴淞船厂","lon":"121.52995","lat":"31.3489","category":"38","category_name":"公交车站","address":""},{"poiid":"B2094757D065A6F44092","title":"华东电力培训中心","lon":"121.52621","lat":"31.3372","category":"500","category_name":"未知分类","address":"上海杨浦区闸殷路60弄50号  "}]