[{"poiid":"B2094757D165A6FD409E","title":"外滩二十二号","lon":"121.48842638473934","lat":"31.239447501314032","category":"627","category_name":"一般地点标志","address":"上海市黄埔区中山东一路"},{"poiid":"B2094757D06EABF54998","title":"上海外滩华尔道夫酒店(Waldorf Astoria Shanghai on the Bund)","lon":"121.4912967","lat":"31.232828526","category":"217","category_name":"旅馆招待所","address":"黄浦区中山东一路2号(近延安东路)"},{"poiid":"B2094757D06FA3F54792","title":"花马天堂云南餐厅(延安东路店)","lon":"121.49086","lat":"31.23225","category":"260","category_name":"其他","address":"黄浦区延安东路17号甲(近四川南路)"},{"poiid":"B2094753D76FAAFA449C","title":"上海滩国泰旗舰店","lon":"121.466011","lat":"31.216125","category":"249","category_name":"购物服务","address":"淮海中路868号"},{"poiid":"B209475CD564A7F84292","title":"上海滩新天地店","lon":"121.47463","lat":"31.22164","category":"119","category_name":"商场","address":"\"太仓路181弄新天地北里15号\r\n\""},{"poiid":"B209475CD564A7F84392","title":"上海滩浦东香格里拉店","lon":"121.50058","lat":"31.23634","category":"119","category_name":"商场","address":"浦东富成路33号香格里拉酒店内大堂层"},{"poiid":"B2094757D06FA6F4449A","title":"城隍庙第一购物中心","lon":"121.490396152","lat":"31.229039814","category":"119","category_name":"商场","address":"黄浦区丽水路88号城隍珠宝内(近城隍庙)"},{"poiid":"B2094757D069A2F44693","title":"黄浦江畔","lon":"121.490871","lat":"31.230903","category":"260","category_name":"其他","address":"上海黄浦江畔"},{"poiid":"B2094757D06FA1FA409D","title":"淮海中华大厦","lon":"121.49016706473","lat":"31.231560906818","category":"46","category_name":"楼宇","address":"朝阳华威桥东北角"},{"poiid":"B2094757D068A6F54593","title":"lost heaven","lon":"121.49070111","lat":"31.232868432","category":"500","category_name":"未知分类","address":"上海延安东路17号"},{"poiid":"B2094654DB65AAF4439B","title":"麦当劳(豫园店)","lon":"121.49037","lat":"31.22825","category":"68","category_name":"快餐厅","address":"黄浦区丽水路88号城隍珠宝内(近城隍庙)"},{"poiid":"B2094757D468A4FE489A","title":"Horizen","lon":"121.492901","lat":"31.231715","category":"247","category_name":"餐饮美食","address":"金陵东路1号近中山东二路"},{"poiid":"B2094757D06FABFF409D","title":"上海市档案馆外滩新馆","lon":"121.492291924","lat":"31.2324161636","category":"181","category_name":"图书馆","address":"上海黄浦区中山东二路9号(近延安东路)"},{"poiid":"B2094757D06FABFF4699","title":"东方商旅 Les Suites Orient","lon":"121.492741","lat":"31.231819","category":"217","category_name":"旅馆招待所","address":"黄浦区金陵东路1号(近中山东二路)"},{"poiid":"B2094757D06FA4FB4493","title":"黄浦区业余大学","lon":"121.4913","lat":"31.22992","category":"52","category_name":"高等院校","address":"黄浦区四川南路37号(近金陵东路)"},{"poiid":"B2094757D069A0FC4992","title":"松月楼","lon":"121.49108","lat":"31.22666","category":"89","category_name":"中式素餐馆","address":"黄浦区旧校场路99号(近方浜中路)"},{"poiid":"B2094654DA6FABFE4598","title":"联谊大厦","lon":"121.48997","lat":"31.23307","category":"46","category_name":"楼宇","address":"希尔斯联邦位于沈河北站路117号(北站家乐福东北角)"},{"poiid":"B2094757D16FA4FA409C","title":"慧丰大酒店","lon":"121.48761","lat":"31.23082","category":"76","category_name":"上海菜","address":"黄浦区延安东路55号工商联大厦3楼(近江西中路)"},{"poiid":"B2094753D76AAAF9429C","title":"鹿港小镇（宏伊店）","lon":"121.489372","lat":"31.231023","category":"500","category_name":"未知分类","address":"上海市 山东路"},{"poiid":"B2094757D06FABF5479F","title":"Dai's  Kitchen","lon":"121.48997","lat":"31.23235","category":"94","category_name":"西餐厅","address":"黄浦区延安东路110号四川大楼1楼门口弄堂(四川路口)"},{"poiid":"B2094654DA6EA5FB4298","title":"天主堂(四川南路)","lon":"121.49021","lat":"31.23067","category":"245","category_name":"教堂","address":"四川南路36"},{"poiid":"B2094654DA6EA5F8479E","title":"大壶春生煎","lon":"121.49049","lat":"31.23191","category":"68","category_name":"快餐厅","address":"黄浦区四川南路11号(延安东路)"},{"poiid":"B2094757D069A3F4479F","title":"阿四妈","lon":"121.48989107489","lat":"31.23097215007","category":"257","category_name":"中餐厅","address":"黄浦区金陵东路79号(近四川南路)"},{"poiid":"B2094654DB69A0FA4692","title":"可颂坊(金陵店)","lon":"121.49076","lat":"31.23143","category":"112","category_name":"糕饼店","address":"黄浦区金陵东路14号乙(近四川南路口)"},{"poiid":"B2094655D26AABFA469B","title":"上海兴宇大酒店——原东莱大酒店","lon":"121.492","lat":"31.22982","category":"250","category_name":"公园户外","address":"上海市黄浦区人民路386号(永安路口)"},{"poiid":"B2094655D265AAF54293","title":"对外贸易展览馆","lon":"121.49076","lat":"31.23064","category":"183","category_name":"展览馆","address":"黄浦区四川南路38号(四川南路新永安路)"},{"poiid":"B2094654DA6EA5FB429D","title":"来来永和豆浆(四川南路)","lon":"121.4906","lat":"31.23112","category":"68","category_name":"快餐厅","address":"黄浦区四川南路30号(近金陵东路)"},{"poiid":"B2094654DA6EA5FA4993","title":"上海市商贸旅游学校四川路校区","lon":"121.49089","lat":"31.23075","category":"54","category_name":"职业技术学校","address":"四川南路35"},{"poiid":"B2094757D069A2F9419C","title":"Horizen Lounge","lon":"121.49230372","lat":"31.230716185","category":"260","category_name":"其他","address":"黄浦区中山东二路12号23楼(近金陵东路)"},{"poiid":"B2094757D16CA5F84192","title":"福都商厦","lon":"121.49040773","lat":"31.229416282","category":"119","category_name":"商场","address":"黄浦区丽水路(近福佑路)"},{"poiid":"B2094757D568A0F5489D","title":"城隍庙香酥鸡摊","lon":"121.4906767","lat":"31.22967639","category":"68","category_name":"快餐厅","address":"黄浦区四川南路80弄(近人民路)"},{"poiid":"B2094654DB65A7FE4498","title":"巴比馒头 新永安路店 Babi Food","lon":"121.491625054","lat":"31.230168793","category":"68","category_name":"快餐厅","address":"黄浦区新永安路62号(近四川南路)"},{"poiid":"B2094757D465A5FF4793","title":"小绍兴 丽水路店","lon":"121.490792054","lat":"31.229288793","category":"68","category_name":"快餐厅","address":"黄浦区丽水路1号悦园商厦6楼六纯香美食港内(丽水路四川南路)"},{"poiid":"B2094655D26EA4FA429C","title":"克莉丝汀饼屋(金陵店)","lon":"121.48999","lat":"31.23104","category":"112","category_name":"糕饼店","address":"黄浦区金陵东路105号"},{"poiid":"B2094757D069A0FC4792","title":"阿塔努酒吧1907","lon":"121.49199125","lat":"31.232749913","category":"260","category_name":"其他","address":"黄浦区中山东二路1号甲(金陵东路中山东二路)"},{"poiid":"B2094757D16AA1F9449F","title":"四川南路","lon":"121.490944","lat":"31.230566","category":"500","category_name":"未知分类","address":"上海黄浦业余大学"},{"poiid":"B2094654DA6EA5FB449E","title":"祥兴里","lon":"121.48999","lat":"31.23055","category":"47","category_name":"住宅区","address":"金陵东路119弄1-7号"},{"poiid":"B2094757D465A1F94493","title":"南海饭店","lon":"121.49040986505","lat":"31.231928452001","category":"76","category_name":"上海菜","address":"黄浦区四川南路11号(金陵东路延安东路间)"},{"poiid":"B2094655D268A7F84399","title":"宏玲餐厅","lon":"121.49058","lat":"31.23173","category":"76","category_name":"上海菜","address":"黄浦区四川南路29号(近金陵东路)"},{"poiid":"B2094757D069AAFC469B","title":"金陵中学","lon":"121.4924","lat":"31.23156","category":"55","category_name":"中学","address":"黄浦区金陵东路4号(近外滩)"},{"poiid":"B2094750DA6DA7FF4892","title":"均鲜","lon":"121.490104","lat":"31.229932","category":"68","category_name":"快餐厅","address":"黄浦区金陵东路68号(近江西南路)"},{"poiid":"B2094757D06BA4FC479A","title":"仙芋奇圆","lon":"121.488421738","lat":"31.2310923185","category":"67","category_name":"甜品店","address":"黄浦区金陵东路68号工商联大厦裙楼1楼B-2铺(近江西南路)"},{"poiid":"B2094654DA6EA5FA4692","title":"上海市旅游服务职业技术学校","lon":"121.49152","lat":"31.23083","category":"54","category_name":"职业技术学校","address":"永安路8"},{"poiid":"B2094757D66CA2F4439F","title":"海防路西康路","lon":"121.490957","lat":"31.230873","category":"500","category_name":"未知分类","address":"上海旅职"},{"poiid":"B2094654DA6EA5F44899","title":"帕格尼尼KTV","lon":"121.49114","lat":"31.22978","category":"170","category_name":"KTV","address":"人民路388号"},{"poiid":"B2094757D16BAAFF439B","title":"超好吃豆腐花","lon":"121.489257738","lat":"31.2314763266","category":"247","category_name":"餐饮美食","address":"上海霍山路临潼路"},{"poiid":"B2094655D36DA2F94592","title":"延安东路隧道","lon":"121.49035","lat":"31.23237","category":"250","category_name":"公园户外","address":""},{"poiid":"B2094757D165A3FF4099","title":"四川南路香酥鸡","lon":"121.490683","lat":"31.229918","category":"500","category_name":"未知分类","address":"上海四川南路人民路"},{"poiid":"B2094655D26FA7F4499C","title":"祥兴里(北门)","lon":"121.48971","lat":"31.23096","category":"47","category_name":"住宅区","address":"金陵东路119弄1-7号"},{"poiid":"B2094654DA6EA5F8489A","title":"可的(四川南路)","lon":"121.49058","lat":"31.23171","category":"117","category_name":"便民商店/便利店","address":""},{"poiid":"B2094757D165A6FD409E","title":"外滩二十二号","lon":"121.48842638473934","lat":"31.239447501314032","category":"627","category_name":"一般地点标志","address":"上海市黄埔区中山东一路"},{"poiid":"B2094757D06EABF54998","title":"上海外滩华尔道夫酒店(Waldorf Astoria Shanghai on the Bund)","lon":"121.4912967","lat":"31.232828526","category":"217","category_name":"旅馆招待所","address":"黄浦区中山东一路2号(近延安东路)"},{"poiid":"B2094757D06FA3F54792","title":"花马天堂云南餐厅(延安东路店)","lon":"121.49086","lat":"31.23225","category":"260","category_name":"其他","address":"黄浦区延安东路17号甲(近四川南路)"},{"poiid":"B2094753D76FAAFA449C","title":"上海滩国泰旗舰店","lon":"121.466011","lat":"31.216125","category":"249","category_name":"购物服务","address":"淮海中路868号"},{"poiid":"B209475CD564A7F84292","title":"上海滩新天地店","lon":"121.47463","lat":"31.22164","category":"119","category_name":"商场","address":"\"太仓路181弄新天地北里15号\r\n\""},{"poiid":"B209475CD564A7F84392","title":"上海滩浦东香格里拉店","lon":"121.50058","lat":"31.23634","category":"119","category_name":"商场","address":"浦东富成路33号香格里拉酒店内大堂层"},{"poiid":"B2094757D06FA6F4449A","title":"城隍庙第一购物中心","lon":"121.490396152","lat":"31.229039814","category":"119","category_name":"商场","address":"黄浦区丽水路88号城隍珠宝内(近城隍庙)"},{"poiid":"B2094757D069A2F44693","title":"黄浦江畔","lon":"121.490871","lat":"31.230903","category":"260","category_name":"其他","address":"上海黄浦江畔"},{"poiid":"B2094757D06FA1FA409D","title":"淮海中华大厦","lon":"121.49016706473","lat":"31.231560906818","category":"46","category_name":"楼宇","address":"朝阳华威桥东北角"},{"poiid":"B2094757D068A6F54593","title":"lost heaven","lon":"121.49070111","lat":"31.232868432","category":"500","category_name":"未知分类","address":"上海延安东路17号"},{"poiid":"B2094654DB65AAF4439B","title":"麦当劳(豫园店)","lon":"121.49037","lat":"31.22825","category":"68","category_name":"快餐厅","address":"黄浦区丽水路88号城隍珠宝内(近城隍庙)"},{"poiid":"B2094757D468A4FE489A","title":"Horizen","lon":"121.492901","lat":"31.231715","category":"247","category_name":"餐饮美食","address":"金陵东路1号近中山东二路"},{"poiid":"B2094757D06FABFF409D","title":"上海市档案馆外滩新馆","lon":"121.492291924","lat":"31.2324161636","category":"181","category_name":"图书馆","address":"上海黄浦区中山东二路9号(近延安东路)"},{"poiid":"B2094757D06FABFF4699","title":"东方商旅 Les Suites Orient","lon":"121.492741","lat":"31.231819","category":"217","category_name":"旅馆招待所","address":"黄浦区金陵东路1号(近中山东二路)"},{"poiid":"B2094757D06FA4FB4493","title":"黄浦区业余大学","lon":"121.4913","lat":"31.22992","category":"52","category_name":"高等院校","address":"黄浦区四川南路37号(近金陵东路)"},{"poiid":"B2094757D069A0FC4992","title":"松月楼","lon":"121.49108","lat":"31.22666","category":"89","category_name":"中式素餐馆","address":"黄浦区旧校场路99号(近方浜中路)"},{"poiid":"B2094654DA6FABFE4598","title":"联谊大厦","lon":"121.48997","lat":"31.23307","category":"46","category_name":"楼宇","address":"希尔斯联邦位于沈河北站路117号(北站家乐福东北角)"},{"poiid":"B2094757D16FA4FA409C","title":"慧丰大酒店","lon":"121.48761","lat":"31.23082","category":"76","category_name":"上海菜","address":"黄浦区延安东路55号工商联大厦3楼(近江西中路)"},{"poiid":"B2094753D76AAAF9429C","title":"鹿港小镇（宏伊店）","lon":"121.489372","lat":"31.231023","category":"500","category_name":"未知分类","address":"上海市 山东路"},{"poiid":"B2094757D06FABF5479F","title":"Dai's  Kitchen","lon":"121.48997","lat":"31.23235","category":"94","category_name":"西餐厅","address":"黄浦区延安东路110号四川大楼1楼门口弄堂(四川路口)"},{"poiid":"B2094654DA6EA5FB4298","title":"天主堂(四川南路)","lon":"121.49021","lat":"31.23067","category":"245","category_name":"教堂","address":"四川南路36"},{"poiid":"B2094654DA6EA5F8479E","title":"大壶春生煎","lon":"121.49049","lat":"31.23191","category":"68","category_name":"快餐厅","address":"黄浦区四川南路11号(延安东路)"},{"poiid":"B2094757D069A3F4479F","title":"阿四妈","lon":"121.48989107489","lat":"31.23097215007","category":"257","category_name":"中餐厅","address":"黄浦区金陵东路79号(近四川南路)"},{"poiid":"B2094654DB69A0FA4692","title":"可颂坊(金陵店)","lon":"121.49076","lat":"31.23143","category":"112","category_name":"糕饼店","address":"黄浦区金陵东路14号乙(近四川南路口)"},{"poiid":"B2094655D26AABFA469B","title":"上海兴宇大酒店——原东莱大酒店","lon":"121.492","lat":"31.22982","category":"250","category_name":"公园户外","address":"上海市黄浦区人民路386号(永安路口)"},{"poiid":"B2094655D265AAF54293","title":"对外贸易展览馆","lon":"121.49076","lat":"31.23064","category":"183","category_name":"展览馆","address":"黄浦区四川南路38号(四川南路新永安路)"},{"poiid":"B2094654DA6EA5FB429D","title":"来来永和豆浆(四川南路)","lon":"121.4906","lat":"31.23112","category":"68","category_name":"快餐厅","address":"黄浦区四川南路30号(近金陵东路)"},{"poiid":"B2094654DA6EA5FA4993","title":"上海市商贸旅游学校四川路校区","lon":"121.49089","lat":"31.23075","category":"54","category_name":"职业技术学校","address":"四川南路35"},{"poiid":"B2094757D069A2F9419C","title":"Horizen Lounge","lon":"121.49230372","lat":"31.230716185","category":"260","category_name":"其他","address":"黄浦区中山东二路12号23楼(近金陵东路)"},{"poiid":"B2094757D16CA5F84192","title":"福都商厦","lon":"121.49040773","lat":"31.229416282","category":"119","category_name":"商场","address":"黄浦区丽水路(近福佑路)"},{"poiid":"B2094757D568A0F5489D","title":"城隍庙香酥鸡摊","lon":"121.4906767","lat":"31.22967639","category":"68","category_name":"快餐厅","address":"黄浦区四川南路80弄(近人民路)"},{"poiid":"B2094654DB65A7FE4498","title":"巴比馒头 新永安路店 Babi Food","lon":"121.491625054","lat":"31.230168793","category":"68","category_name":"快餐厅","address":"黄浦区新永安路62号(近四川南路)"},{"poiid":"B2094757D465A5FF4793","title":"小绍兴 丽水路店","lon":"121.490792054","lat":"31.229288793","category":"68","category_name":"快餐厅","address":"黄浦区丽水路1号悦园商厦6楼六纯香美食港内(丽水路四川南路)"},{"poiid":"B2094655D26EA4FA429C","title":"克莉丝汀饼屋(金陵店)","lon":"121.48999","lat":"31.23104","category":"112","category_name":"糕饼店","address":"黄浦区金陵东路105号"},{"poiid":"B2094757D069A0FC4792","title":"阿塔努酒吧1907","lon":"121.49199125","lat":"31.232749913","category":"260","category_name":"其他","address":"黄浦区中山东二路1号甲(金陵东路中山东二路)"},{"poiid":"B2094757D16AA1F9449F","title":"四川南路","lon":"121.490944","lat":"31.230566","category":"500","category_name":"未知分类","address":"上海黄浦业余大学"},{"poiid":"B2094654DA6EA5FB449E","title":"祥兴里","lon":"121.48999","lat":"31.23055","category":"47","category_name":"住宅区","address":"金陵东路119弄1-7号"},{"poiid":"B2094757D465A1F94493","title":"南海饭店","lon":"121.49040986505","lat":"31.231928452001","category":"76","category_name":"上海菜","address":"黄浦区四川南路11号(金陵东路延安东路间)"},{"poiid":"B2094655D268A7F84399","title":"宏玲餐厅","lon":"121.49058","lat":"31.23173","category":"76","category_name":"上海菜","address":"黄浦区四川南路29号(近金陵东路)"},{"poiid":"B2094757D069AAFC469B","title":"金陵中学","lon":"121.4924","lat":"31.23156","category":"55","category_name":"中学","address":"黄浦区金陵东路4号(近外滩)"},{"poiid":"B2094750DA6DA7FF4892","title":"均鲜","lon":"121.490104","lat":"31.229932","category":"68","category_name":"快餐厅","address":"黄浦区金陵东路68号(近江西南路)"},{"poiid":"B2094757D06BA4FC479A","title":"仙芋奇圆","lon":"121.488421738","lat":"31.2310923185","category":"67","category_name":"甜品店","address":"黄浦区金陵东路68号工商联大厦裙楼1楼B-2铺(近江西南路)"},{"poiid":"B2094654DA6EA5FA4692","title":"上海市旅游服务职业技术学校","lon":"121.49152","lat":"31.23083","category":"54","category_name":"职业技术学校","address":"永安路8"},{"poiid":"B2094757D66CA2F4439F","title":"海防路西康路","lon":"121.490957","lat":"31.230873","category":"500","category_name":"未知分类","address":"上海旅职"},{"poiid":"B2094654DA6EA5F44899","title":"帕格尼尼KTV","lon":"121.49114","lat":"31.22978","category":"170","category_name":"KTV","address":"人民路388号"},{"poiid":"B2094757D16BAAFF439B","title":"超好吃豆腐花","lon":"121.489257738","lat":"31.2314763266","category":"247","category_name":"餐饮美食","address":"上海霍山路临潼路"},{"poiid":"B2094655D36DA2F94592","title":"延安东路隧道","lon":"121.49035","lat":"31.23237","category":"250","category_name":"公园户外","address":""},{"poiid":"B2094757D165A3FF4099","title":"四川南路香酥鸡","lon":"121.490683","lat":"31.229918","category":"500","category_name":"未知分类","address":"上海四川南路人民路"},{"poiid":"B2094655D26FA7F4499C","title":"祥兴里(北门)","lon":"121.48971","lat":"31.23096","category":"47","category_name":"住宅区","address":"金陵东路119弄1-7号"},{"poiid":"B2094654DA6EA5F8489A","title":"可的(四川南路)","lon":"121.49058","lat":"31.23171","category":"117","category_name":"便民商店/便利店","address":""},{"poiid":"B2094757D165A6FD409E","title":"外滩二十二号","lon":"121.48842638473934","lat":"31.239447501314032","category":"627","category_name":"一般地点标志","address":"上海市黄埔区中山东一路"},{"poiid":"B2094757D06EABF54998","title":"上海外滩华尔道夫酒店(Waldorf Astoria Shanghai on the Bund)","lon":"121.4912967","lat":"31.232828526","category":"217","category_name":"旅馆招待所","address":"黄浦区中山东一路2号(近延安东路)"},{"poiid":"B2094757D06FA3F54792","title":"花马天堂云南餐厅(延安东路店)","lon":"121.49086","lat":"31.23225","category":"260","category_name":"其他","address":"黄浦区延安东路17号甲(近四川南路)"},{"poiid":"B2094753D76FAAFA449C","title":"上海滩国泰旗舰店","lon":"121.466011","lat":"31.216125","category":"249","category_name":"购物服务","address":"淮海中路868号"},{"poiid":"B209475CD564A7F84292","title":"上海滩新天地店","lon":"121.47463","lat":"31.22164","category":"119","category_name":"商场","address":"\"太仓路181弄新天地北里15号\r\n\""},{"poiid":"B209475CD564A7F84392","title":"上海滩浦东香格里拉店","lon":"121.50058","lat":"31.23634","category":"119","category_name":"商场","address":"浦东富成路33号香格里拉酒店内大堂层"},{"poiid":"B2094757D06FA6F4449A","title":"城隍庙第一购物中心","lon":"121.490396152","lat":"31.229039814","category":"119","category_name":"商场","address":"黄浦区丽水路88号城隍珠宝内(近城隍庙)"},{"poiid":"B2094757D069A2F44693","title":"黄浦江畔","lon":"121.490871","lat":"31.230903","category":"260","category_name":"其他","address":"上海黄浦江畔"},{"poiid":"B2094757D06FA1FA409D","title":"淮海中华大厦","lon":"121.49016706473","lat":"31.231560906818","category":"46","category_name":"楼宇","address":"朝阳华威桥东北角"},{"poiid":"B2094757D068A6F54593","title":"lost heaven","lon":"121.49070111","lat":"31.232868432","category":"500","category_name":"未知分类","address":"上海延安东路17号"},{"poiid":"B2094654DB65AAF4439B","title":"麦当劳(豫园店)","lon":"121.49037","lat":"31.22825","category":"68","category_name":"快餐厅","address":"黄浦区丽水路88号城隍珠宝内(近城隍庙)"},{"poiid":"B2094757D468A4FE489A","title":"Horizen","lon":"121.492901","lat":"31.231715","category":"247","category_name":"餐饮美食","address":"金陵东路1号近中山东二路"},{"poiid":"B2094757D06FABFF409D","title":"上海市档案馆外滩新馆","lon":"121.492291924","lat":"31.2324161636","category":"181","category_name":"图书馆","address":"上海黄浦区中山东二路9号(近延安东路)"},{"poiid":"B2094757D06FABFF4699","title":"东方商旅 Les Suites Orient","lon":"121.492741","lat":"31.231819","category":"217","category_name":"旅馆招待所","address":"黄浦区金陵东路1号(近中山东二路)"},{"poiid":"B2094757D06FA4FB4493","title":"黄浦区业余大学","lon":"121.4913","lat":"31.22992","category":"52","category_name":"高等院校","address":"黄浦区四川南路37号(近金陵东路)"},{"poiid":"B2094757D069A0FC4992","title":"松月楼","lon":"121.49108","lat":"31.22666","category":"89","category_name":"中式素餐馆","address":"黄浦区旧校场路99号(近方浜中路)"},{"poiid":"B2094654DA6FABFE4598","title":"联谊大厦","lon":"121.48997","lat":"31.23307","category":"46","category_name":"楼宇","address":"希尔斯联邦位于沈河北站路117号(北站家乐福东北角)"},{"poiid":"B2094757D16FA4FA409C","title":"慧丰大酒店","lon":"121.48761","lat":"31.23082","category":"76","category_name":"上海菜","address":"黄浦区延安东路55号工商联大厦3楼(近江西中路)"},{"poiid":"B2094753D76AAAF9429C","title":"鹿港小镇（宏伊店）","lon":"121.489372","lat":"31.231023","category":"500","category_name":"未知分类","address":"上海市 山东路"},{"poiid":"B2094757D06FABF5479F","title":"Dai's  Kitchen","lon":"121.48997","lat":"31.23235","category":"94","category_name":"西餐厅","address":"黄浦区延安东路110号四川大楼1楼门口弄堂(四川路口)"},{"poiid":"B2094654DA6EA5FB4298","title":"天主堂(四川南路)","lon":"121.49021","lat":"31.23067","category":"245","category_name":"教堂","address":"四川南路36"},{"poiid":"B2094654DA6EA5F8479E","title":"大壶春生煎","lon":"121.49049","lat":"31.23191","category":"68","category_name":"快餐厅","address":"黄浦区四川南路11号(延安东路)"},{"poiid":"B2094757D069A3F4479F","title":"阿四妈","lon":"121.48989107489","lat":"31.23097215007","category":"257","category_name":"中餐厅","address":"黄浦区金陵东路79号(近四川南路)"},{"poiid":"B2094654DB69A0FA4692","title":"可颂坊(金陵店)","lon":"121.49076","lat":"31.23143","category":"112","category_name":"糕饼店","address":"黄浦区金陵东路14号乙(近四川南路口)"},{"poiid":"B2094655D26AABFA469B","title":"上海兴宇大酒店——原东莱大酒店","lon":"121.492","lat":"31.22982","category":"250","category_name":"公园户外","address":"上海市黄浦区人民路386号(永安路口)"},{"poiid":"B2094655D265AAF54293","title":"对外贸易展览馆","lon":"121.49076","lat":"31.23064","category":"183","category_name":"展览馆","address":"黄浦区四川南路38号(四川南路新永安路)"},{"poiid":"B2094654DA6EA5FB429D","title":"来来永和豆浆(四川南路)","lon":"121.4906","lat":"31.23112","category":"68","category_name":"快餐厅","address":"黄浦区四川南路30号(近金陵东路)"},{"poiid":"B2094654DA6EA5FA4993","title":"上海市商贸旅游学校四川路校区","lon":"121.49089","lat":"31.23075","category":"54","category_name":"职业技术学校","address":"四川南路35"},{"poiid":"B2094757D069A2F9419C","title":"Horizen Lounge","lon":"121.49230372","lat":"31.230716185","category":"260","category_name":"其他","address":"黄浦区中山东二路12号23楼(近金陵东路)"},{"poiid":"B2094757D16CA5F84192","title":"福都商厦","lon":"121.49040773","lat":"31.229416282","category":"119","category_name":"商场","address":"黄浦区丽水路(近福佑路)"},{"poiid":"B2094757D568A0F5489D","title":"城隍庙香酥鸡摊","lon":"121.4906767","lat":"31.22967639","category":"68","category_name":"快餐厅","address":"黄浦区四川南路80弄(近人民路)"},{"poiid":"B2094654DB65A7FE4498","title":"巴比馒头 新永安路店 Babi Food","lon":"121.491625054","lat":"31.230168793","category":"68","category_name":"快餐厅","address":"黄浦区新永安路62号(近四川南路)"},{"poiid":"B2094757D465A5FF4793","title":"小绍兴 丽水路店","lon":"121.490792054","lat":"31.229288793","category":"68","category_name":"快餐厅","address":"黄浦区丽水路1号悦园商厦6楼六纯香美食港内(丽水路四川南路)"},{"poiid":"B2094655D26EA4FA429C","title":"克莉丝汀饼屋(金陵店)","lon":"121.48999","lat":"31.23104","category":"112","category_name":"糕饼店","address":"黄浦区金陵东路105号"},{"poiid":"B2094757D069A0FC4792","title":"阿塔努酒吧1907","lon":"121.49199125","lat":"31.232749913","category":"260","category_name":"其他","address":"黄浦区中山东二路1号甲(金陵东路中山东二路)"},{"poiid":"B2094757D16AA1F9449F","title":"四川南路","lon":"121.490944","lat":"31.230566","category":"500","category_name":"未知分类","address":"上海黄浦业余大学"},{"poiid":"B2094654DA6EA5FB449E","title":"祥兴里","lon":"121.48999","lat":"31.23055","category":"47","category_name":"住宅区","address":"金陵东路119弄1-7号"},{"poiid":"B2094757D465A1F94493","title":"南海饭店","lon":"121.49040986505","lat":"31.231928452001","category":"76","category_name":"上海菜","address":"黄浦区四川南路11号(金陵东路延安东路间)"},{"poiid":"B2094655D268A7F84399","title":"宏玲餐厅","lon":"121.49058","lat":"31.23173","category":"76","category_name":"上海菜","address":"黄浦区四川南路29号(近金陵东路)"},{"poiid":"B2094757D069AAFC469B","title":"金陵中学","lon":"121.4924","lat":"31.23156","category":"55","category_name":"中学","address":"黄浦区金陵东路4号(近外滩)"},{"poiid":"B2094750DA6DA7FF4892","title":"均鲜","lon":"121.490104","lat":"31.229932","category":"68","category_name":"快餐厅","address":"黄浦区金陵东路68号(近江西南路)"},{"poiid":"B2094757D06BA4FC479A","title":"仙芋奇圆","lon":"121.488421738","lat":"31.2310923185","category":"67","category_name":"甜品店","address":"黄浦区金陵东路68号工商联大厦裙楼1楼B-2铺(近江西南路)"},{"poiid":"B2094654DA6EA5FA4692","title":"上海市旅游服务职业技术学校","lon":"121.49152","lat":"31.23083","category":"54","category_name":"职业技术学校","address":"永安路8"},{"poiid":"B2094757D66CA2F4439F","title":"海防路西康路","lon":"121.490957","lat":"31.230873","category":"500","category_name":"未知分类","address":"上海旅职"},{"poiid":"B2094654DA6EA5F44899","title":"帕格尼尼KTV","lon":"121.49114","lat":"31.22978","category":"170","category_name":"KTV","address":"人民路388号"},{"poiid":"B2094757D16BAAFF439B","title":"超好吃豆腐花","lon":"121.489257738","lat":"31.2314763266","category":"247","category_name":"餐饮美食","address":"上海霍山路临潼路"},{"poiid":"B2094655D36DA2F94592","title":"延安东路隧道","lon":"121.49035","lat":"31.23237","category":"250","category_name":"公园户外","address":""},{"poiid":"B2094757D165A3FF4099","title":"四川南路香酥鸡","lon":"121.490683","lat":"31.229918","category":"500","category_name":"未知分类","address":"上海四川南路人民路"},{"poiid":"B2094655D26FA7F4499C","title":"祥兴里(北门)","lon":"121.48971","lat":"31.23096","category":"47","category_name":"住宅区","address":"金陵东路119弄1-7号"},{"poiid":"B2094654DA6EA5F8489A","title":"可的(四川南路)","lon":"121.49058","lat":"31.23171","category":"117","category_name":"便民商店/便利店","address":""},{"poiid":"B2094757D165A6FD409E","title":"外滩二十二号","lon":"121.48842638473934","lat":"31.239447501314032","category":"627","category_name":"一般地点标志","address":"上海市黄埔区中山东一路"},{"poiid":"B2094757D06EABF54998","title":"上海外滩华尔道夫酒店(Waldorf Astoria Shanghai on the Bund)","lon":"121.4912967","lat":"31.232828526","category":"217","category_name":"旅馆招待所","address":"黄浦区中山东一路2号(近延安东路)"},{"poiid":"B2094757D06FA3F54792","title":"花马天堂云南餐厅(延安东路店)","lon":"121.49086","lat":"31.23225","category":"260","category_name":"其他","address":"黄浦区延安东路17号甲(近四川南路)"},{"poiid":"B2094753D76FAAFA449C","title":"上海滩国泰旗舰店","lon":"121.466011","lat":"31.216125","category":"249","category_name":"购物服务","address":"淮海中路868号"},{"poiid":"B209475CD564A7F84292","title":"上海滩新天地店","lon":"121.47463","lat":"31.22164","category":"119","category_name":"商场","address":"\"太仓路181弄新天地北里15号\r\n\""},{"poiid":"B209475CD564A7F84392","title":"上海滩浦东香格里拉店","lon":"121.50058","lat":"31.23634","category":"119","category_name":"商场","address":"浦东富成路33号香格里拉酒店内大堂层"},{"poiid":"B2094757D06FA6F4449A","title":"城隍庙第一购物中心","lon":"121.490396152","lat":"31.229039814","category":"119","category_name":"商场","address":"黄浦区丽水路88号城隍珠宝内(近城隍庙)"},{"poiid":"B2094757D069A2F44693","title":"黄浦江畔","lon":"121.490871","lat":"31.230903","category":"260","category_name":"其他","address":"上海黄浦江畔"},{"poiid":"B2094757D06FA1FA409D","title":"淮海中华大厦","lon":"121.49016706473","lat":"31.231560906818","category":"46","category_name":"楼宇","address":"朝阳华威桥东北角"},{"poiid":"B2094757D068A6F54593","title":"lost heaven","lon":"121.49070111","lat":"31.232868432","category":"500","category_name":"未知分类","address":"上海延安东路17号"},{"poiid":"B2094654DB65AAF4439B","title":"麦当劳(豫园店)","lon":"121.49037","lat":"31.22825","category":"68","category_name":"快餐厅","address":"黄浦区丽水路88号城隍珠宝内(近城隍庙)"},{"poiid":"B2094757D468A4FE489A","title":"Horizen","lon":"121.492901","lat":"31.231715","category":"247","category_name":"餐饮美食","address":"金陵东路1号近中山东二路"},{"poiid":"B2094757D06FABFF409D","title":"上海市档案馆外滩新馆","lon":"121.492291924","lat":"31.2324161636","category":"181","category_name":"图书馆","address":"上海黄浦区中山东二路9号(近延安东路)"},{"poiid":"B2094757D06FABFF4699","title":"东方商旅 Les Suites Orient","lon":"121.492741","lat":"31.231819","category":"217","category_name":"旅馆招待所","address":"黄浦区金陵东路1号(近中山东二路)"},{"poiid":"B2094757D06FA4FB4493","title":"黄浦区业余大学","lon":"121.4913","lat":"31.22992","category":"52","category_name":"高等院校","address":"黄浦区四川南路37号(近金陵东路)"},{"poiid":"B2094757D069A0FC4992","title":"松月楼","lon":"121.49108","lat":"31.22666","category":"89","category_name":"中式素餐馆","address":"黄浦区旧校场路99号(近方浜中路)"},{"poiid":"B2094654DA6FABFE4598","title":"联谊大厦","lon":"121.48997","lat":"31.23307","category":"46","category_name":"楼宇","address":"希尔斯联邦位于沈河北站路117号(北站家乐福东北角)"},{"poiid":"B2094757D16FA4FA409C","title":"慧丰大酒店","lon":"121.48761","lat":"31.23082","category":"76","category_name":"上海菜","address":"黄浦区延安东路55号工商联大厦3楼(近江西中路)"},{"poiid":"B2094753D76AAAF9429C","title":"鹿港小镇（宏伊店）","lon":"121.489372","lat":"31.231023","category":"500","category_name":"未知分类","address":"上海市 山东路"},{"poiid":"B2094757D06FABF5479F","title":"Dai's  Kitchen","lon":"121.48997","lat":"31.23235","category":"94","category_name":"西餐厅","address":"黄浦区延安东路110号四川大楼1楼门口弄堂(四川路口)"},{"poiid":"B2094654DA6EA5FB4298","title":"天主堂(四川南路)","lon":"121.49021","lat":"31.23067","category":"245","category_name":"教堂","address":"四川南路36"},{"poiid":"B2094654DA6EA5F8479E","title":"大壶春生煎","lon":"121.49049","lat":"31.23191","category":"68","category_name":"快餐厅","address":"黄浦区四川南路11号(延安东路)"},{"poiid":"B2094757D069A3F4479F","title":"阿四妈","lon":"121.48989107489","lat":"31.23097215007","category":"257","category_name":"中餐厅","address":"黄浦区金陵东路79号(近四川南路)"},{"poiid":"B2094654DB69A0FA4692","title":"可颂坊(金陵店)","lon":"121.49076","lat":"31.23143","category":"112","category_name":"糕饼店","address":"黄浦区金陵东路14号乙(近四川南路口)"},{"poiid":"B2094655D26AABFA469B","title":"上海兴宇大酒店——原东莱大酒店","lon":"121.492","lat":"31.22982","category":"250","category_name":"公园户外","address":"上海市黄浦区人民路386号(永安路口)"},{"poiid":"B2094655D265AAF54293","title":"对外贸易展览馆","lon":"121.49076","lat":"31.23064","category":"183","category_name":"展览馆","address":"黄浦区四川南路38号(四川南路新永安路)"},{"poiid":"B2094654DA6EA5FB429D","title":"来来永和豆浆(四川南路)","lon":"121.4906","lat":"31.23112","category":"68","category_name":"快餐厅","address":"黄浦区四川南路30号(近金陵东路)"},{"poiid":"B2094654DA6EA5FA4993","title":"上海市商贸旅游学校四川路校区","lon":"121.49089","lat":"31.23075","category":"54","category_name":"职业技术学校","address":"四川南路35"},{"poiid":"B2094757D069A2F9419C","title":"Horizen Lounge","lon":"121.49230372","lat":"31.230716185","category":"260","category_name":"其他","address":"黄浦区中山东二路12号23楼(近金陵东路)"},{"poiid":"B2094757D16CA5F84192","title":"福都商厦","lon":"121.49040773","lat":"31.229416282","category":"119","category_name":"商场","address":"黄浦区丽水路(近福佑路)"},{"poiid":"B2094757D568A0F5489D","title":"城隍庙香酥鸡摊","lon":"121.4906767","lat":"31.22967639","category":"68","category_name":"快餐厅","address":"黄浦区四川南路80弄(近人民路)"},{"poiid":"B2094654DB65A7FE4498","title":"巴比馒头 新永安路店 Babi Food","lon":"121.491625054","lat":"31.230168793","category":"68","category_name":"快餐厅","address":"黄浦区新永安路62号(近四川南路)"},{"poiid":"B2094757D465A5FF4793","title":"小绍兴 丽水路店","lon":"121.490792054","lat":"31.229288793","category":"68","category_name":"快餐厅","address":"黄浦区丽水路1号悦园商厦6楼六纯香美食港内(丽水路四川南路)"},{"poiid":"B2094655D26EA4FA429C","title":"克莉丝汀饼屋(金陵店)","lon":"121.48999","lat":"31.23104","category":"112","category_name":"糕饼店","address":"黄浦区金陵东路105号"},{"poiid":"B2094757D069A0FC4792","title":"阿塔努酒吧1907","lon":"121.49199125","lat":"31.232749913","category":"260","category_name":"其他","address":"黄浦区中山东二路1号甲(金陵东路中山东二路)"},{"poiid":"B2094757D16AA1F9449F","title":"四川南路","lon":"121.490944","lat":"31.230566","category":"500","category_name":"未知分类","address":"上海黄浦业余大学"},{"poiid":"B2094654DA6EA5FB449E","title":"祥兴里","lon":"121.48999","lat":"31.23055","category":"47","category_name":"住宅区","address":"金陵东路119弄1-7号"},{"poiid":"B2094757D465A1F94493","title":"南海饭店","lon":"121.49040986505","lat":"31.231928452001","category":"76","category_name":"上海菜","address":"黄浦区四川南路11号(金陵东路延安东路间)"},{"poiid":"B2094655D268A7F84399","title":"宏玲餐厅","lon":"121.49058","lat":"31.23173","category":"76","category_name":"上海菜","address":"黄浦区四川南路29号(近金陵东路)"},{"poiid":"B2094757D069AAFC469B","title":"金陵中学","lon":"121.4924","lat":"31.23156","category":"55","category_name":"中学","address":"黄浦区金陵东路4号(近外滩)"},{"poiid":"B2094750DA6DA7FF4892","title":"均鲜","lon":"121.490104","lat":"31.229932","category":"68","category_name":"快餐厅","address":"黄浦区金陵东路68号(近江西南路)"},{"poiid":"B2094757D06BA4FC479A","title":"仙芋奇圆","lon":"121.488421738","lat":"31.2310923185","category":"67","category_name":"甜品店","address":"黄浦区金陵东路68号工商联大厦裙楼1楼B-2铺(近江西南路)"},{"poiid":"B2094654DA6EA5FA4692","title":"上海市旅游服务职业技术学校","lon":"121.49152","lat":"31.23083","category":"54","category_name":"职业技术学校","address":"永安路8"},{"poiid":"B2094757D66CA2F4439F","title":"海防路西康路","lon":"121.490957","lat":"31.230873","category":"500","category_name":"未知分类","address":"上海旅职"},{"poiid":"B2094654DA6EA5F44899","title":"帕格尼尼KTV","lon":"121.49114","lat":"31.22978","category":"170","category_name":"KTV","address":"人民路388号"},{"poiid":"B2094757D16BAAFF439B","title":"超好吃豆腐花","lon":"121.489257738","lat":"31.2314763266","category":"247","category_name":"餐饮美食","address":"上海霍山路临潼路"},{"poiid":"B2094655D36DA2F94592","title":"延安东路隧道","lon":"121.49035","lat":"31.23237","category":"250","category_name":"公园户外","address":""},{"poiid":"B2094757D165A3FF4099","title":"四川南路香酥鸡","lon":"121.490683","lat":"31.229918","category":"500","category_name":"未知分类","address":"上海四川南路人民路"},{"poiid":"B2094655D26FA7F4499C","title":"祥兴里(北门)","lon":"121.48971","lat":"31.23096","category":"47","category_name":"住宅区","address":"金陵东路119弄1-7号"},{"poiid":"B2094654DA6EA5F8489A","title":"可的(四川南路)","lon":"121.49058","lat":"31.23171","category":"117","category_name":"便民商店/便利店","address":""}]