[{"poiid":"B2094757D66DA7F4469B","title":"外滩","lon":"121.490535738","lat":"31.2383514732","category":"240","category_name":"国家级景点","address":"上海市中心区黄浦江畔"},{"poiid":"B2094655D268ABFD489E","title":"外滩18号","lon":"121.48960930059434","lat":"31.238450813410314","category":"76","category_name":"上海菜","address":"黄浦区中山东一路18号"},{"poiid":"B2094654DB6BABFD469C","title":"上海和平饭店","lon":"121.48945","lat":"31.23901","category":"213","category_name":"五星级宾馆","address":"黄浦区南京东路20号和平饭店北楼夹层(近中山东一路)"},{"poiid":"B209475CD564A7F84292","title":"上海滩新天地店","lon":"121.47463","lat":"31.22164","category":"119","category_name":"商场","address":"\"太仓路181弄新天地北里15号\r\n\""},{"poiid":"B209475CD564A7F84392","title":"上海滩浦东香格里拉店","lon":"121.50058","lat":"31.23634","category":"119","category_name":"商场","address":"浦东富成路33号香格里拉酒店内大堂层"},{"poiid":"B2094654DA6FAAF84098","title":"外滩中心","lon":"121.494","lat":"31.238","category":"46","category_name":"楼宇","address":"上海黄浦区延安东路222号"},{"poiid":"B2094757D06EAAFB419B","title":"罗斯福会所 The House of Roosevelt","lon":"121.49012383","lat":"31.240403643","category":"94","category_name":"西餐厅","address":"黄浦区中山东一路27号罗斯福8楼"},{"poiid":"B2094757D064A5FD4593","title":"外灘","lon":"121.49375073","lat":"31.240939528","category":"500","category_name":"未知分类","address":"上海市黄浦区南苏州路"},{"poiid":"B2094757D06FA1FC439D","title":"Bar Rouge","lon":"121.49011","lat":"31.2386","category":"260","category_name":"其他","address":"黄浦区中山东一路18号外滩18号7楼(近南京东路)"},{"poiid":"B2094757D06FA5FC439A","title":"Mr &amp; Mrs Bund","lon":"121.4901","lat":"31.23816","category":"94","category_name":"西餐厅","address":"上海黄浦区中山东一路18号外滩18号6楼(近南京东路)"},{"poiid":"B2094757D06FA1FD439B","title":"COSTA COFFEE(新外滩店)","lon":"121.490879","lat":"31.240587","category":"65","category_name":"咖啡厅","address":"黄浦区中山东一路388号(北京东路口)"},{"poiid":"B2094750D464A6F94792","title":"星巴克","lon":"121.490264","lat":"31.240295","category":"247","category_name":"餐饮美食","address":"黄浦区中山东一路363号(近北京东路)"},{"poiid":"B2094757D06FA2F5489C","title":"中国银行(上海市分行营业部)","lon":"121.489781","lat":"31.239521","category":"150","category_name":"银行","address":"上海市黄浦区中山东一路23号"},{"poiid":"B2094655D26EA2F5479B","title":"海关大楼","lon":"121.49002","lat":"31.23668","category":"46","category_name":"楼宇","address":"鲁尔大厦位于铁西兴华南街5号"},{"poiid":"B2094757D06BABFB449A","title":"Shook！上海","lon":"121.49010773","lat":"31.238661479","category":"94","category_name":"西餐厅","address":"黄浦区南京东路23号5-6楼(外滩19号)"},{"poiid":"B2094757D16CA4FE469A","title":"罗斯福9楼露天酒吧","lon":"121.49195883","lat":"31.237938814","category":"172","category_name":"酒吧","address":"上海外滩27号"},{"poiid":"B2094757D069A2FA419B","title":"哈根达斯(外滩店)","lon":"121.49029","lat":"31.23784","category":"113","category_name":"冷饮店","address":"黄浦区中山东一路365号(近九江路)"},{"poiid":"B2094757D468A4FC4598","title":"艾利爵士餐厅 Sir Elly's Restaurant & Bar","lon":"121.490123054","lat":"31.240919793","category":"97","category_name":"法式菜品餐厅","address":"黄浦区中山东一路32号半岛酒店13楼(近北京东路)"},{"poiid":"B2094757DB6FA2FF419C","title":"避風塘","lon":"121.4943869958333","lat":"31.23857748583332","category":"500","category_name":"未知分类","address":"正大廣場"},{"poiid":"B2094757D469A7F4429D","title":"悦粤茶餐厅","lon":"121.49097","lat":"31.2412","category":"72","category_name":"广东菜","address":"黄浦区中山东一路429号(近北京东路)"},{"poiid":"B2094757D06FA2FD4298","title":"上海陈毅广场","lon":"121.490514434","lat":"31.2389924275","category":"250","category_name":"公园户外","address":"黄浦区中山东一路外滩(近南京东路)"},{"poiid":"B2094655D265A0F5459F","title":"斯沃琪和平饭店艺术中心","lon":"121.48965","lat":"31.23871","category":"183","category_name":"展览馆","address":"黄浦区南京东路23号(近中山东一路)"},{"poiid":"B2094752DA6DA0F8499D","title":"星期五餐厅Friday","lon":"121.493575","lat":"31.238085","category":"247","category_name":"餐饮美食","address":"上海浦东陆家嘴富城路16号"},{"poiid":"B2094655D26DA3FF489A","title":"Bund18","lon":"121.48978","lat":"31.23842","category":"119","category_name":"商场","address":"中山东一路18"},{"poiid":"B2094655D26BA4FD489D","title":"中行大楼","lon":"121.48978","lat":"31.23953","category":"46","category_name":"楼宇","address":"重庆北部新区金渝大道89号(北部新区管委会对面)"},{"poiid":"B2094757DA6AAAF54598","title":"Matto","lon":"121.4938641230534","lat":"31.23920718760844","category":"247","category_name":"餐饮美食","address":"浦东正大广场1楼"},{"poiid":"B2094757D068A4FB4692","title":"外滩观光隧道","lon":"121.49087","lat":"31.23984","category":"260","category_name":"其他","address":"黄浦区外滩中山东一路300号(外滩与陆家嘴间)"},{"poiid":"B2094751D268A4FC4798","title":"罗斯福八楼色戒餐厅酒吧","lon":"121.489883","lat":"31.240287","category":"247","category_name":"餐饮美食","address":"黄浦区中山东一路27号"},{"poiid":"B2094752D364A4FE4298","title":"家有好面(南京东路店)","lon":"121.49277","lat":"31.2376","category":"68","category_name":"快餐厅","address":"黄浦区南京东路720号第一食品3楼(近贵州路)"},{"poiid":"B2094750D16BA6FA439D","title":"外白渡大桥","lon":"121.491432","lat":"31.238191","category":"500","category_name":"未知分类","address":null},{"poiid":"B2094654DA6FA4F8429B","title":"中国工商银行上海市分行营业部","lon":"121.48982","lat":"31.23983","category":"150","category_name":"银行","address":"中山东一路24"},{"poiid":"B2094757D76AA1F8469A","title":"半岛茶座","lon":"121.490114054","lat":"31.240935793","category":"99","category_name":"泰国／越南菜品餐厅","address":"黄浦区中山东一路32号半岛酒店2楼(近北京东路)"},{"poiid":"B2094757D069A6FE4593","title":"Lounge 18","lon":"121.48999","lat":"31.23888","category":"184","category_name":"美术馆","address":"黄浦区中山东一路18号外滩18号4楼(近南京东路)"},{"poiid":"B2094752DB6AA7FF419B","title":"东方明珠","lon":"121.492796","lat":"31.238949","category":"500","category_name":"未知分类","address":"上海市 外滩东方明珠"},{"poiid":"B2094655D269ABFD4098","title":"外滩十八号创意中心","lon":"121.48974","lat":"31.2384","category":"247","category_name":"餐饮美食","address":"黄浦区中山东一路18号4楼(近南京东路)"},{"poiid":"B2094757D16CA3FE469A","title":"外滩18号十八空间Space18","lon":"121.490429722","lat":"31.240429529","category":"184","category_name":"美术馆","address":"中山东一路18号外滩18号(近南京东路)"},{"poiid":"B2094757D56DAAFD4593","title":"正大小南国","lon":"121.493159","lat":"31.237652","category":"247","category_name":"餐饮美食","address":"陆家嘴"},{"poiid":"B2094757D16DA6F9479B","title":"十六浦码头浦江游船","lon":"121.49041273","lat":"31.238635479","category":"247","category_name":"餐饮美食","address":"上海中山东二路501号"},{"poiid":"B2094757D16DA2FB419B","title":"浦西外滩滨江大道","lon":"121.490415","lat":"31.239759","category":"500","category_name":"未知分类","address":"上海浦东滨江大道江对岸"},{"poiid":"B2094752DA6CAAFD429F","title":"T.G.I.FRiDAY浦东滨江店","lon":"121.493807","lat":"31.237982","category":"247","category_name":"餐饮美食","address":"富城路16号"},{"poiid":"B2094655D26DA3FF4793","title":"和平大厦","lon":"121.48948","lat":"31.23905","category":"46","category_name":"楼宇","address":"昌平区回龙观镇国际信息产业基地高新二街"},{"poiid":"B2094757D66DA2FE4393","title":"飞利浦游轮","lon":"121.49259217","lat":"31.238654113","category":"247","category_name":"餐饮美食","address":"上海黄浦江"},{"poiid":"B2094757D06FABFE409D","title":"滩外楼","lon":"121.49025","lat":"31.23845","category":"72","category_name":"广东菜","address":"黄浦区中山东一路18号外滩18号5楼(近南京东路)"},{"poiid":"B2094757D068A1FF469C","title":"招商银行(外滩支行)","lon":"121.48987579","lat":"31.238119125","category":"150","category_name":"银行","address":"黄浦区中山东一路16号(近九江路)"},{"poiid":"B2094654DB69A6FA4099","title":"外滩情人墙","lon":"121.49021","lat":"31.2369","category":"250","category_name":"公园户外","address":"黄浦区中山东一路黄浦江边"},{"poiid":"B2094654DB65A2FE4993","title":"南京路步行街(友邦大厦西北)","lon":"121.48942","lat":"31.23846","category":"116","category_name":"特色商业街","address":""},{"poiid":"B2094757D068ABFD469F","title":"友邦大厦","lon":"121.48980712","lat":"31.238212585","category":"46","category_name":"楼宇","address":"上海中山东一路17号"},{"poiid":"B2094655D264A2FA419D","title":"Chanel(半岛精品店)","lon":"121.49023","lat":"31.23997","category":"122","category_name":"个人用品/化妆品店","address":"中山东一路32号半岛酒店内"},{"poiid":"B2094752D46AA3FB4199","title":"外滩十八号","lon":"121.490014","lat":"31.238674","category":"119","category_name":"商场","address":"黄浦区中山东一路18号"},{"poiid":"B2094751DA6DAAFD499B","title":"Cathay Room","lon":"121.489936","lat":"31.239029","category":"247","category_name":"餐饮美食","address":"黄浦区南京东路20号费尔蒙和平饭店9楼(近中山东一路)"},{"poiid":"B2094757D66DA7F4469B","title":"外滩","lon":"121.490535738","lat":"31.2383514732","category":"240","category_name":"国家级景点","address":"上海市中心区黄浦江畔"},{"poiid":"B2094655D268ABFD489E","title":"外滩18号","lon":"121.48960930059434","lat":"31.238450813410314","category":"76","category_name":"上海菜","address":"黄浦区中山东一路18号"},{"poiid":"B2094654DB6BABFD469C","title":"上海和平饭店","lon":"121.48945","lat":"31.23901","category":"213","category_name":"五星级宾馆","address":"黄浦区南京东路20号和平饭店北楼夹层(近中山东一路)"},{"poiid":"B209475CD564A7F84292","title":"上海滩新天地店","lon":"121.47463","lat":"31.22164","category":"119","category_name":"商场","address":"\"太仓路181弄新天地北里15号\r\n\""},{"poiid":"B209475CD564A7F84392","title":"上海滩浦东香格里拉店","lon":"121.50058","lat":"31.23634","category":"119","category_name":"商场","address":"浦东富成路33号香格里拉酒店内大堂层"},{"poiid":"B2094654DA6FAAF84098","title":"外滩中心","lon":"121.494","lat":"31.238","category":"46","category_name":"楼宇","address":"上海黄浦区延安东路222号"},{"poiid":"B2094757D06EAAFB419B","title":"罗斯福会所 The House of Roosevelt","lon":"121.49012383","lat":"31.240403643","category":"94","category_name":"西餐厅","address":"黄浦区中山东一路27号罗斯福8楼"},{"poiid":"B2094757D064A5FD4593","title":"外灘","lon":"121.49375073","lat":"31.240939528","category":"500","category_name":"未知分类","address":"上海市黄浦区南苏州路"},{"poiid":"B2094757D06FA1FC439D","title":"Bar Rouge","lon":"121.49011","lat":"31.2386","category":"260","category_name":"其他","address":"黄浦区中山东一路18号外滩18号7楼(近南京东路)"},{"poiid":"B2094757D06FA5FC439A","title":"Mr &amp; Mrs Bund","lon":"121.4901","lat":"31.23816","category":"94","category_name":"西餐厅","address":"上海黄浦区中山东一路18号外滩18号6楼(近南京东路)"},{"poiid":"B2094757D06FA1FD439B","title":"COSTA COFFEE(新外滩店)","lon":"121.490879","lat":"31.240587","category":"65","category_name":"咖啡厅","address":"黄浦区中山东一路388号(北京东路口)"},{"poiid":"B2094750D464A6F94792","title":"星巴克","lon":"121.490264","lat":"31.240295","category":"247","category_name":"餐饮美食","address":"黄浦区中山东一路363号(近北京东路)"},{"poiid":"B2094757D06FA2F5489C","title":"中国银行(上海市分行营业部)","lon":"121.489781","lat":"31.239521","category":"150","category_name":"银行","address":"上海市黄浦区中山东一路23号"},{"poiid":"B2094655D26EA2F5479B","title":"海关大楼","lon":"121.49002","lat":"31.23668","category":"46","category_name":"楼宇","address":"鲁尔大厦位于铁西兴华南街5号"},{"poiid":"B2094757D06BABFB449A","title":"Shook！上海","lon":"121.49010773","lat":"31.238661479","category":"94","category_name":"西餐厅","address":"黄浦区南京东路23号5-6楼(外滩19号)"},{"poiid":"B2094757D16CA4FE469A","title":"罗斯福9楼露天酒吧","lon":"121.49195883","lat":"31.237938814","category":"172","category_name":"酒吧","address":"上海外滩27号"},{"poiid":"B2094757D069A2FA419B","title":"哈根达斯(外滩店)","lon":"121.49029","lat":"31.23784","category":"113","category_name":"冷饮店","address":"黄浦区中山东一路365号(近九江路)"},{"poiid":"B2094757D468A4FC4598","title":"艾利爵士餐厅 Sir Elly's Restaurant & Bar","lon":"121.490123054","lat":"31.240919793","category":"97","category_name":"法式菜品餐厅","address":"黄浦区中山东一路32号半岛酒店13楼(近北京东路)"},{"poiid":"B2094757DB6FA2FF419C","title":"避風塘","lon":"121.4943869958333","lat":"31.23857748583332","category":"500","category_name":"未知分类","address":"正大廣場"},{"poiid":"B2094757D469A7F4429D","title":"悦粤茶餐厅","lon":"121.49097","lat":"31.2412","category":"72","category_name":"广东菜","address":"黄浦区中山东一路429号(近北京东路)"},{"poiid":"B2094757D06FA2FD4298","title":"上海陈毅广场","lon":"121.490514434","lat":"31.2389924275","category":"250","category_name":"公园户外","address":"黄浦区中山东一路外滩(近南京东路)"},{"poiid":"B2094655D265A0F5459F","title":"斯沃琪和平饭店艺术中心","lon":"121.48965","lat":"31.23871","category":"183","category_name":"展览馆","address":"黄浦区南京东路23号(近中山东一路)"},{"poiid":"B2094752DA6DA0F8499D","title":"星期五餐厅Friday","lon":"121.493575","lat":"31.238085","category":"247","category_name":"餐饮美食","address":"上海浦东陆家嘴富城路16号"},{"poiid":"B2094655D26DA3FF489A","title":"Bund18","lon":"121.48978","lat":"31.23842","category":"119","category_name":"商场","address":"中山东一路18"},{"poiid":"B2094655D26BA4FD489D","title":"中行大楼","lon":"121.48978","lat":"31.23953","category":"46","category_name":"楼宇","address":"重庆北部新区金渝大道89号(北部新区管委会对面)"},{"poiid":"B2094757DA6AAAF54598","title":"Matto","lon":"121.4938641230534","lat":"31.23920718760844","category":"247","category_name":"餐饮美食","address":"浦东正大广场1楼"},{"poiid":"B2094757D068A4FB4692","title":"外滩观光隧道","lon":"121.49087","lat":"31.23984","category":"260","category_name":"其他","address":"黄浦区外滩中山东一路300号(外滩与陆家嘴间)"},{"poiid":"B2094751D268A4FC4798","title":"罗斯福八楼色戒餐厅酒吧","lon":"121.489883","lat":"31.240287","category":"247","category_name":"餐饮美食","address":"黄浦区中山东一路27号"},{"poiid":"B2094752D364A4FE4298","title":"家有好面(南京东路店)","lon":"121.49277","lat":"31.2376","category":"68","category_name":"快餐厅","address":"黄浦区南京东路720号第一食品3楼(近贵州路)"},{"poiid":"B2094750D16BA6FA439D","title":"外白渡大桥","lon":"121.491432","lat":"31.238191","category":"500","category_name":"未知分类","address":null},{"poiid":"B2094654DA6FA4F8429B","title":"中国工商银行上海市分行营业部","lon":"121.48982","lat":"31.23983","category":"150","category_name":"银行","address":"中山东一路24"},{"poiid":"B2094757D76AA1F8469A","title":"半岛茶座","lon":"121.490114054","lat":"31.240935793","category":"99","category_name":"泰国／越南菜品餐厅","address":"黄浦区中山东一路32号半岛酒店2楼(近北京东路)"},{"poiid":"B2094757D069A6FE4593","title":"Lounge 18","lon":"121.48999","lat":"31.23888","category":"184","category_name":"美术馆","address":"黄浦区中山东一路18号外滩18号4楼(近南京东路)"},{"poiid":"B2094752DB6AA7FF419B","title":"东方明珠","lon":"121.492796","lat":"31.238949","category":"500","category_name":"未知分类","address":"上海市 外滩东方明珠"},{"poiid":"B2094655D269ABFD4098","title":"外滩十八号创意中心","lon":"121.48974","lat":"31.2384","category":"247","category_name":"餐饮美食","address":"黄浦区中山东一路18号4楼(近南京东路)"},{"poiid":"B2094757D16CA3FE469A","title":"外滩18号十八空间Space18","lon":"121.490429722","lat":"31.240429529","category":"184","category_name":"美术馆","address":"中山东一路18号外滩18号(近南京东路)"},{"poiid":"B2094757D56DAAFD4593","title":"正大小南国","lon":"121.493159","lat":"31.237652","category":"247","category_name":"餐饮美食","address":"陆家嘴"},{"poiid":"B2094757D16DA6F9479B","title":"十六浦码头浦江游船","lon":"121.49041273","lat":"31.238635479","category":"247","category_name":"餐饮美食","address":"上海中山东二路501号"},{"poiid":"B2094757D16DA2FB419B","title":"浦西外滩滨江大道","lon":"121.490415","lat":"31.239759","category":"500","category_name":"未知分类","address":"上海浦东滨江大道江对岸"},{"poiid":"B2094752DA6CAAFD429F","title":"T.G.I.FRiDAY浦东滨江店","lon":"121.493807","lat":"31.237982","category":"247","category_name":"餐饮美食","address":"富城路16号"},{"poiid":"B2094655D26DA3FF4793","title":"和平大厦","lon":"121.48948","lat":"31.23905","category":"46","category_name":"楼宇","address":"昌平区回龙观镇国际信息产业基地高新二街"},{"poiid":"B2094757D66DA2FE4393","title":"飞利浦游轮","lon":"121.49259217","lat":"31.238654113","category":"247","category_name":"餐饮美食","address":"上海黄浦江"},{"poiid":"B2094757D06FABFE409D","title":"滩外楼","lon":"121.49025","lat":"31.23845","category":"72","category_name":"广东菜","address":"黄浦区中山东一路18号外滩18号5楼(近南京东路)"},{"poiid":"B2094757D068A1FF469C","title":"招商银行(外滩支行)","lon":"121.48987579","lat":"31.238119125","category":"150","category_name":"银行","address":"黄浦区中山东一路16号(近九江路)"},{"poiid":"B2094654DB69A6FA4099","title":"外滩情人墙","lon":"121.49021","lat":"31.2369","category":"250","category_name":"公园户外","address":"黄浦区中山东一路黄浦江边"},{"poiid":"B2094654DB65A2FE4993","title":"南京路步行街(友邦大厦西北)","lon":"121.48942","lat":"31.23846","category":"116","category_name":"特色商业街","address":""},{"poiid":"B2094757D068ABFD469F","title":"友邦大厦","lon":"121.48980712","lat":"31.238212585","category":"46","category_name":"楼宇","address":"上海中山东一路17号"},{"poiid":"B2094655D264A2FA419D","title":"Chanel(半岛精品店)","lon":"121.49023","lat":"31.23997","category":"122","category_name":"个人用品/化妆品店","address":"中山东一路32号半岛酒店内"},{"poiid":"B2094752D46AA3FB4199","title":"外滩十八号","lon":"121.490014","lat":"31.238674","category":"119","category_name":"商场","address":"黄浦区中山东一路18号"},{"poiid":"B2094751DA6DAAFD499B","title":"Cathay Room","lon":"121.489936","lat":"31.239029","category":"247","category_name":"餐饮美食","address":"黄浦区南京东路20号费尔蒙和平饭店9楼(近中山东一路)"},{"poiid":"B2094757D66DA7F4469B","title":"外滩","lon":"121.490535738","lat":"31.2383514732","category":"240","category_name":"国家级景点","address":"上海市中心区黄浦江畔"},{"poiid":"B2094655D268ABFD489E","title":"外滩18号","lon":"121.48960930059434","lat":"31.238450813410314","category":"76","category_name":"上海菜","address":"黄浦区中山东一路18号"},{"poiid":"B2094654DB6BABFD469C","title":"上海和平饭店","lon":"121.48945","lat":"31.23901","category":"213","category_name":"五星级宾馆","address":"黄浦区南京东路20号和平饭店北楼夹层(近中山东一路)"},{"poiid":"B209475CD564A7F84292","title":"上海滩新天地店","lon":"121.47463","lat":"31.22164","category":"119","category_name":"商场","address":"\"太仓路181弄新天地北里15号\r\n\""},{"poiid":"B209475CD564A7F84392","title":"上海滩浦东香格里拉店","lon":"121.50058","lat":"31.23634","category":"119","category_name":"商场","address":"浦东富成路33号香格里拉酒店内大堂层"},{"poiid":"B2094654DA6FAAF84098","title":"外滩中心","lon":"121.494","lat":"31.238","category":"46","category_name":"楼宇","address":"上海黄浦区延安东路222号"},{"poiid":"B2094757D06EAAFB419B","title":"罗斯福会所 The House of Roosevelt","lon":"121.49012383","lat":"31.240403643","category":"94","category_name":"西餐厅","address":"黄浦区中山东一路27号罗斯福8楼"},{"poiid":"B2094757D064A5FD4593","title":"外灘","lon":"121.49375073","lat":"31.240939528","category":"500","category_name":"未知分类","address":"上海市黄浦区南苏州路"},{"poiid":"B2094757D06FA1FC439D","title":"Bar Rouge","lon":"121.49011","lat":"31.2386","category":"260","category_name":"其他","address":"黄浦区中山东一路18号外滩18号7楼(近南京东路)"},{"poiid":"B2094757D06FA5FC439A","title":"Mr &amp; Mrs Bund","lon":"121.4901","lat":"31.23816","category":"94","category_name":"西餐厅","address":"上海黄浦区中山东一路18号外滩18号6楼(近南京东路)"},{"poiid":"B2094757D06FA1FD439B","title":"COSTA COFFEE(新外滩店)","lon":"121.490879","lat":"31.240587","category":"65","category_name":"咖啡厅","address":"黄浦区中山东一路388号(北京东路口)"},{"poiid":"B2094750D464A6F94792","title":"星巴克","lon":"121.490264","lat":"31.240295","category":"247","category_name":"餐饮美食","address":"黄浦区中山东一路363号(近北京东路)"},{"poiid":"B2094757D06FA2F5489C","title":"中国银行(上海市分行营业部)","lon":"121.489781","lat":"31.239521","category":"150","category_name":"银行","address":"上海市黄浦区中山东一路23号"},{"poiid":"B2094655D26EA2F5479B","title":"海关大楼","lon":"121.49002","lat":"31.23668","category":"46","category_name":"楼宇","address":"鲁尔大厦位于铁西兴华南街5号"},{"poiid":"B2094757D06BABFB449A","title":"Shook！上海","lon":"121.49010773","lat":"31.238661479","category":"94","category_name":"西餐厅","address":"黄浦区南京东路23号5-6楼(外滩19号)"},{"poiid":"B2094757D16CA4FE469A","title":"罗斯福9楼露天酒吧","lon":"121.49195883","lat":"31.237938814","category":"172","category_name":"酒吧","address":"上海外滩27号"},{"poiid":"B2094757D069A2FA419B","title":"哈根达斯(外滩店)","lon":"121.49029","lat":"31.23784","category":"113","category_name":"冷饮店","address":"黄浦区中山东一路365号(近九江路)"},{"poiid":"B2094757D468A4FC4598","title":"艾利爵士餐厅 Sir Elly's Restaurant & Bar","lon":"121.490123054","lat":"31.240919793","category":"97","category_name":"法式菜品餐厅","address":"黄浦区中山东一路32号半岛酒店13楼(近北京东路)"},{"poiid":"B2094757DB6FA2FF419C","title":"避風塘","lon":"121.4943869958333","lat":"31.23857748583332","category":"500","category_name":"未知分类","address":"正大廣場"},{"poiid":"B2094757D469A7F4429D","title":"悦粤茶餐厅","lon":"121.49097","lat":"31.2412","category":"72","category_name":"广东菜","address":"黄浦区中山东一路429号(近北京东路)"},{"poiid":"B2094757D06FA2FD4298","title":"上海陈毅广场","lon":"121.490514434","lat":"31.2389924275","category":"250","category_name":"公园户外","address":"黄浦区中山东一路外滩(近南京东路)"},{"poiid":"B2094655D265A0F5459F","title":"斯沃琪和平饭店艺术中心","lon":"121.48965","lat":"31.23871","category":"183","category_name":"展览馆","address":"黄浦区南京东路23号(近中山东一路)"},{"poiid":"B2094752DA6DA0F8499D","title":"星期五餐厅Friday","lon":"121.493575","lat":"31.238085","category":"247","category_name":"餐饮美食","address":"上海浦东陆家嘴富城路16号"},{"poiid":"B2094655D26DA3FF489A","title":"Bund18","lon":"121.48978","lat":"31.23842","category":"119","category_name":"商场","address":"中山东一路18"},{"poiid":"B2094655D26BA4FD489D","title":"中行大楼","lon":"121.48978","lat":"31.23953","category":"46","category_name":"楼宇","address":"重庆北部新区金渝大道89号(北部新区管委会对面)"},{"poiid":"B2094757DA6AAAF54598","title":"Matto","lon":"121.4938641230534","lat":"31.23920718760844","category":"247","category_name":"餐饮美食","address":"浦东正大广场1楼"},{"poiid":"B2094757D068A4FB4692","title":"外滩观光隧道","lon":"121.49087","lat":"31.23984","category":"260","category_name":"其他","address":"黄浦区外滩中山东一路300号(外滩与陆家嘴间)"},{"poiid":"B2094751D268A4FC4798","title":"罗斯福八楼色戒餐厅酒吧","lon":"121.489883","lat":"31.240287","category":"247","category_name":"餐饮美食","address":"黄浦区中山东一路27号"},{"poiid":"B2094752D364A4FE4298","title":"家有好面(南京东路店)","lon":"121.49277","lat":"31.2376","category":"68","category_name":"快餐厅","address":"黄浦区南京东路720号第一食品3楼(近贵州路)"},{"poiid":"B2094750D16BA6FA439D","title":"外白渡大桥","lon":"121.491432","lat":"31.238191","category":"500","category_name":"未知分类","address":null},{"poiid":"B2094654DA6FA4F8429B","title":"中国工商银行上海市分行营业部","lon":"121.48982","lat":"31.23983","category":"150","category_name":"银行","address":"中山东一路24"},{"poiid":"B2094757D76AA1F8469A","title":"半岛茶座","lon":"121.490114054","lat":"31.240935793","category":"99","category_name":"泰国／越南菜品餐厅","address":"黄浦区中山东一路32号半岛酒店2楼(近北京东路)"},{"poiid":"B2094757D069A6FE4593","title":"Lounge 18","lon":"121.48999","lat":"31.23888","category":"184","category_name":"美术馆","address":"黄浦区中山东一路18号外滩18号4楼(近南京东路)"},{"poiid":"B2094752DB6AA7FF419B","title":"东方明珠","lon":"121.492796","lat":"31.238949","category":"500","category_name":"未知分类","address":"上海市 外滩东方明珠"},{"poiid":"B2094655D269ABFD4098","title":"外滩十八号创意中心","lon":"121.48974","lat":"31.2384","category":"247","category_name":"餐饮美食","address":"黄浦区中山东一路18号4楼(近南京东路)"},{"poiid":"B2094757D16CA3FE469A","title":"外滩18号十八空间Space18","lon":"121.490429722","lat":"31.240429529","category":"184","category_name":"美术馆","address":"中山东一路18号外滩18号(近南京东路)"},{"poiid":"B2094757D56DAAFD4593","title":"正大小南国","lon":"121.493159","lat":"31.237652","category":"247","category_name":"餐饮美食","address":"陆家嘴"},{"poiid":"B2094757D16DA6F9479B","title":"十六浦码头浦江游船","lon":"121.49041273","lat":"31.238635479","category":"247","category_name":"餐饮美食","address":"上海中山东二路501号"},{"poiid":"B2094757D16DA2FB419B","title":"浦西外滩滨江大道","lon":"121.490415","lat":"31.239759","category":"500","category_name":"未知分类","address":"上海浦东滨江大道江对岸"},{"poiid":"B2094752DA6CAAFD429F","title":"T.G.I.FRiDAY浦东滨江店","lon":"121.493807","lat":"31.237982","category":"247","category_name":"餐饮美食","address":"富城路16号"},{"poiid":"B2094655D26DA3FF4793","title":"和平大厦","lon":"121.48948","lat":"31.23905","category":"46","category_name":"楼宇","address":"昌平区回龙观镇国际信息产业基地高新二街"},{"poiid":"B2094757D66DA2FE4393","title":"飞利浦游轮","lon":"121.49259217","lat":"31.238654113","category":"247","category_name":"餐饮美食","address":"上海黄浦江"},{"poiid":"B2094757D06FABFE409D","title":"滩外楼","lon":"121.49025","lat":"31.23845","category":"72","category_name":"广东菜","address":"黄浦区中山东一路18号外滩18号5楼(近南京东路)"},{"poiid":"B2094757D068A1FF469C","title":"招商银行(外滩支行)","lon":"121.48987579","lat":"31.238119125","category":"150","category_name":"银行","address":"黄浦区中山东一路16号(近九江路)"},{"poiid":"B2094654DB69A6FA4099","title":"外滩情人墙","lon":"121.49021","lat":"31.2369","category":"250","category_name":"公园户外","address":"黄浦区中山东一路黄浦江边"},{"poiid":"B2094654DB65A2FE4993","title":"南京路步行街(友邦大厦西北)","lon":"121.48942","lat":"31.23846","category":"116","category_name":"特色商业街","address":""},{"poiid":"B2094757D068ABFD469F","title":"友邦大厦","lon":"121.48980712","lat":"31.238212585","category":"46","category_name":"楼宇","address":"上海中山东一路17号"},{"poiid":"B2094655D264A2FA419D","title":"Chanel(半岛精品店)","lon":"121.49023","lat":"31.23997","category":"122","category_name":"个人用品/化妆品店","address":"中山东一路32号半岛酒店内"},{"poiid":"B2094752D46AA3FB4199","title":"外滩十八号","lon":"121.490014","lat":"31.238674","category":"119","category_name":"商场","address":"黄浦区中山东一路18号"},{"poiid":"B2094751DA6DAAFD499B","title":"Cathay Room","lon":"121.489936","lat":"31.239029","category":"247","category_name":"餐饮美食","address":"黄浦区南京东路20号费尔蒙和平饭店9楼(近中山东一路)"},{"poiid":"B2094757D66DA7F4469B","title":"外滩","lon":"121.490535738","lat":"31.2383514732","category":"240","category_name":"国家级景点","address":"上海市中心区黄浦江畔"},{"poiid":"B2094655D268ABFD489E","title":"外滩18号","lon":"121.48960930059434","lat":"31.238450813410314","category":"76","category_name":"上海菜","address":"黄浦区中山东一路18号"},{"poiid":"B2094654DB6BABFD469C","title":"上海和平饭店","lon":"121.48945","lat":"31.23901","category":"213","category_name":"五星级宾馆","address":"黄浦区南京东路20号和平饭店北楼夹层(近中山东一路)"},{"poiid":"B209475CD564A7F84292","title":"上海滩新天地店","lon":"121.47463","lat":"31.22164","category":"119","category_name":"商场","address":"\"太仓路181弄新天地北里15号\r\n\""},{"poiid":"B209475CD564A7F84392","title":"上海滩浦东香格里拉店","lon":"121.50058","lat":"31.23634","category":"119","category_name":"商场","address":"浦东富成路33号香格里拉酒店内大堂层"},{"poiid":"B2094654DA6FAAF84098","title":"外滩中心","lon":"121.494","lat":"31.238","category":"46","category_name":"楼宇","address":"上海黄浦区延安东路222号"},{"poiid":"B2094757D06EAAFB419B","title":"罗斯福会所 The House of Roosevelt","lon":"121.49012383","lat":"31.240403643","category":"94","category_name":"西餐厅","address":"黄浦区中山东一路27号罗斯福8楼"},{"poiid":"B2094757D064A5FD4593","title":"外灘","lon":"121.49375073","lat":"31.240939528","category":"500","category_name":"未知分类","address":"上海市黄浦区南苏州路"},{"poiid":"B2094757D06FA1FC439D","title":"Bar Rouge","lon":"121.49011","lat":"31.2386","category":"260","category_name":"其他","address":"黄浦区中山东一路18号外滩18号7楼(近南京东路)"},{"poiid":"B2094757D06FA5FC439A","title":"Mr &amp; Mrs Bund","lon":"121.4901","lat":"31.23816","category":"94","category_name":"西餐厅","address":"上海黄浦区中山东一路18号外滩18号6楼(近南京东路)"},{"poiid":"B2094757D06FA1FD439B","title":"COSTA COFFEE(新外滩店)","lon":"121.490879","lat":"31.240587","category":"65","category_name":"咖啡厅","address":"黄浦区中山东一路388号(北京东路口)"},{"poiid":"B2094750D464A6F94792","title":"星巴克","lon":"121.490264","lat":"31.240295","category":"247","category_name":"餐饮美食","address":"黄浦区中山东一路363号(近北京东路)"},{"poiid":"B2094757D06FA2F5489C","title":"中国银行(上海市分行营业部)","lon":"121.489781","lat":"31.239521","category":"150","category_name":"银行","address":"上海市黄浦区中山东一路23号"},{"poiid":"B2094655D26EA2F5479B","title":"海关大楼","lon":"121.49002","lat":"31.23668","category":"46","category_name":"楼宇","address":"鲁尔大厦位于铁西兴华南街5号"},{"poiid":"B2094757D06BABFB449A","title":"Shook！上海","lon":"121.49010773","lat":"31.238661479","category":"94","category_name":"西餐厅","address":"黄浦区南京东路23号5-6楼(外滩19号)"},{"poiid":"B2094757D16CA4FE469A","title":"罗斯福9楼露天酒吧","lon":"121.49195883","lat":"31.237938814","category":"172","category_name":"酒吧","address":"上海外滩27号"},{"poiid":"B2094757D069A2FA419B","title":"哈根达斯(外滩店)","lon":"121.49029","lat":"31.23784","category":"113","category_name":"冷饮店","address":"黄浦区中山东一路365号(近九江路)"},{"poiid":"B2094757D468A4FC4598","title":"艾利爵士餐厅 Sir Elly's Restaurant & Bar","lon":"121.490123054","lat":"31.240919793","category":"97","category_name":"法式菜品餐厅","address":"黄浦区中山东一路32号半岛酒店13楼(近北京东路)"},{"poiid":"B2094757DB6FA2FF419C","title":"避風塘","lon":"121.4943869958333","lat":"31.23857748583332","category":"500","category_name":"未知分类","address":"正大廣場"},{"poiid":"B2094757D469A7F4429D","title":"悦粤茶餐厅","lon":"121.49097","lat":"31.2412","category":"72","category_name":"广东菜","address":"黄浦区中山东一路429号(近北京东路)"},{"poiid":"B2094757D06FA2FD4298","title":"上海陈毅广场","lon":"121.490514434","lat":"31.2389924275","category":"250","category_name":"公园户外","address":"黄浦区中山东一路外滩(近南京东路)"},{"poiid":"B2094655D265A0F5459F","title":"斯沃琪和平饭店艺术中心","lon":"121.48965","lat":"31.23871","category":"183","category_name":"展览馆","address":"黄浦区南京东路23号(近中山东一路)"},{"poiid":"B2094752DA6DA0F8499D","title":"星期五餐厅Friday","lon":"121.493575","lat":"31.238085","category":"247","category_name":"餐饮美食","address":"上海浦东陆家嘴富城路16号"},{"poiid":"B2094655D26DA3FF489A","title":"Bund18","lon":"121.48978","lat":"31.23842","category":"119","category_name":"商场","address":"中山东一路18"},{"poiid":"B2094655D26BA4FD489D","title":"中行大楼","lon":"121.48978","lat":"31.23953","category":"46","category_name":"楼宇","address":"重庆北部新区金渝大道89号(北部新区管委会对面)"},{"poiid":"B2094757DA6AAAF54598","title":"Matto","lon":"121.4938641230534","lat":"31.23920718760844","category":"247","category_name":"餐饮美食","address":"浦东正大广场1楼"},{"poiid":"B2094757D068A4FB4692","title":"外滩观光隧道","lon":"121.49087","lat":"31.23984","category":"260","category_name":"其他","address":"黄浦区外滩中山东一路300号(外滩与陆家嘴间)"},{"poiid":"B2094751D268A4FC4798","title":"罗斯福八楼色戒餐厅酒吧","lon":"121.489883","lat":"31.240287","category":"247","category_name":"餐饮美食","address":"黄浦区中山东一路27号"},{"poiid":"B2094752D364A4FE4298","title":"家有好面(南京东路店)","lon":"121.49277","lat":"31.2376","category":"68","category_name":"快餐厅","address":"黄浦区南京东路720号第一食品3楼(近贵州路)"},{"poiid":"B2094750D16BA6FA439D","title":"外白渡大桥","lon":"121.491432","lat":"31.238191","category":"500","category_name":"未知分类","address":null},{"poiid":"B2094654DA6FA4F8429B","title":"中国工商银行上海市分行营业部","lon":"121.48982","lat":"31.23983","category":"150","category_name":"银行","address":"中山东一路24"},{"poiid":"B2094757D76AA1F8469A","title":"半岛茶座","lon":"121.490114054","lat":"31.240935793","category":"99","category_name":"泰国／越南菜品餐厅","address":"黄浦区中山东一路32号半岛酒店2楼(近北京东路)"},{"poiid":"B2094757D069A6FE4593","title":"Lounge 18","lon":"121.48999","lat":"31.23888","category":"184","category_name":"美术馆","address":"黄浦区中山东一路18号外滩18号4楼(近南京东路)"},{"poiid":"B2094752DB6AA7FF419B","title":"东方明珠","lon":"121.492796","lat":"31.238949","category":"500","category_name":"未知分类","address":"上海市 外滩东方明珠"},{"poiid":"B2094655D269ABFD4098","title":"外滩十八号创意中心","lon":"121.48974","lat":"31.2384","category":"247","category_name":"餐饮美食","address":"黄浦区中山东一路18号4楼(近南京东路)"},{"poiid":"B2094757D16CA3FE469A","title":"外滩18号十八空间Space18","lon":"121.490429722","lat":"31.240429529","category":"184","category_name":"美术馆","address":"中山东一路18号外滩18号(近南京东路)"},{"poiid":"B2094757D56DAAFD4593","title":"正大小南国","lon":"121.493159","lat":"31.237652","category":"247","category_name":"餐饮美食","address":"陆家嘴"},{"poiid":"B2094757D16DA6F9479B","title":"十六浦码头浦江游船","lon":"121.49041273","lat":"31.238635479","category":"247","category_name":"餐饮美食","address":"上海中山东二路501号"},{"poiid":"B2094757D16DA2FB419B","title":"浦西外滩滨江大道","lon":"121.490415","lat":"31.239759","category":"500","category_name":"未知分类","address":"上海浦东滨江大道江对岸"},{"poiid":"B2094752DA6CAAFD429F","title":"T.G.I.FRiDAY浦东滨江店","lon":"121.493807","lat":"31.237982","category":"247","category_name":"餐饮美食","address":"富城路16号"},{"poiid":"B2094655D26DA3FF4793","title":"和平大厦","lon":"121.48948","lat":"31.23905","category":"46","category_name":"楼宇","address":"昌平区回龙观镇国际信息产业基地高新二街"},{"poiid":"B2094757D66DA2FE4393","title":"飞利浦游轮","lon":"121.49259217","lat":"31.238654113","category":"247","category_name":"餐饮美食","address":"上海黄浦江"},{"poiid":"B2094757D06FABFE409D","title":"滩外楼","lon":"121.49025","lat":"31.23845","category":"72","category_name":"广东菜","address":"黄浦区中山东一路18号外滩18号5楼(近南京东路)"},{"poiid":"B2094757D068A1FF469C","title":"招商银行(外滩支行)","lon":"121.48987579","lat":"31.238119125","category":"150","category_name":"银行","address":"黄浦区中山东一路16号(近九江路)"},{"poiid":"B2094654DB69A6FA4099","title":"外滩情人墙","lon":"121.49021","lat":"31.2369","category":"250","category_name":"公园户外","address":"黄浦区中山东一路黄浦江边"},{"poiid":"B2094654DB65A2FE4993","title":"南京路步行街(友邦大厦西北)","lon":"121.48942","lat":"31.23846","category":"116","category_name":"特色商业街","address":""},{"poiid":"B2094757D068ABFD469F","title":"友邦大厦","lon":"121.48980712","lat":"31.238212585","category":"46","category_name":"楼宇","address":"上海中山东一路17号"},{"poiid":"B2094655D264A2FA419D","title":"Chanel(半岛精品店)","lon":"121.49023","lat":"31.23997","category":"122","category_name":"个人用品/化妆品店","address":"中山东一路32号半岛酒店内"},{"poiid":"B2094752D46AA3FB4199","title":"外滩十八号","lon":"121.490014","lat":"31.238674","category":"119","category_name":"商场","address":"黄浦区中山东一路18号"},{"poiid":"B2094751DA6DAAFD499B","title":"Cathay Room","lon":"121.489936","lat":"31.239029","category":"247","category_name":"餐饮美食","address":"黄浦区南京东路20号费尔蒙和平饭店9楼(近中山东一路)"}]