[{"poiid":"B2094654DA6FA7FD459E","title":"上海海洋水族馆","lon":"121.50194","lat":"31.24064","category":"199","category_name":"水族馆","address":"上海市浦东新区陆家嘴环路1388号"},{"poiid":"B2094757D06EABF5499C","title":"上海新天哈瓦那酒店","lon":"121.50419627","lat":"31.2422169954","category":"260","category_name":"其他","address":"浦东新区陆家嘴环路1288号(近东方明珠)"},{"poiid":"B2094757D06FA1FD4592","title":"上海外滩浦华大酒店","lon":"121.50274","lat":"31.25086","category":"213","category_name":"五星级宾馆","address":"上海市虹口区高阳路168号(北外滩地区 近东大名路)"},{"poiid":"B209475CD564A7F84392","title":"上海滩浦东香格里拉店","lon":"121.50058","lat":"31.23634","category":"119","category_name":"商场","address":"浦东富成路33号香格里拉酒店内大堂层"},{"poiid":"B2094757D06EAAF9469F","title":"星展银行大厦","lon":"121.504057228","lat":"31.2418020945","category":"46","category_name":"楼宇","address":"浦东新区陆家嘴环路1318号B109"},{"poiid":"B2094757D06FA2FC4593","title":"hoF(陆家嘴店)","lon":"121.503866724","lat":"31.2410764887","category":"260","category_name":"其他","address":"浦东新区陆家嘴环路1318号星展银行大厦下沉式广场8号商铺(近东园路)"},{"poiid":"B2094654DA6FA7FD439C","title":"汇亚大厦","lon":"121.50415","lat":"31.24097","category":"46","category_name":"楼宇","address":"重庆北部新区金渝大道89号(北部新区管委会对面)"},{"poiid":"B2094757D06FA7FA4993","title":"北外滩","lon":"121.50491413","lat":"31.250150968","category":"260","category_name":"其他","address":"虹口区高阳路(近东大名路)"},{"poiid":"B2094655D26CA4FB4499","title":"上海滩国际大厦","lon":"121.499","lat":"31.2502","category":"46","category_name":"楼宇","address":"丰台学城海鹰路1号,3号"},{"poiid":"B2094753D66DA6FD409B","title":"上海凯宾斯基大酒店","lon":"121.504465341568","lat":"31.2420219309263","category":"213","category_name":"五星级宾馆","address":"陆家嘴环路1288号"},{"poiid":"B2094757D064ABF5479C","title":"Tavola Italian Dining","lon":"121.502135738","lat":"31.2423945594","category":"500","category_name":"未知分类","address":"上海浦东新区滨江大道2500号"},{"poiid":"B2094757D068AAF9489B","title":"海逸海鲜(滨江大道店)","lon":"121.5021791","lat":"31.242800436","category":"72","category_name":"广东菜","address":"浦东新区滨江大道2450号(近星展银行大厦停车场)"},{"poiid":"B2094750D26AA6FB489F","title":"北外滩滨江绿地","lon":"121.499412","lat":"31.243846","category":"248","category_name":"生活娱乐","address":"东大名路新建路"},{"poiid":"B2094751D36BA4F5469D","title":"上海浦东文华东方酒店","lon":"121.50686659720611","lat":"31.243665106676545","category":"251","category_name":"出行住宿","address":"浦东新区浦东南路111号"},{"poiid":"B2094757D06FA6F54893","title":"上海港国际客运中心","lon":"121.50271","lat":"31.24954","category":"35","category_name":"长途汽车站","address":"虹口区东大名路800号(近高阳路)"},{"poiid":"B2094757D06AA1FC489E","title":"上海港","lon":"121.497051","lat":"31.247305","category":"500","category_name":"未知分类","address":"上海东大名路500号"},{"poiid":"B2094757D068ABFF429C","title":"老船长酒吧","lon":"121.502755758","lat":"31.2507747333","category":"172","category_name":"酒吧","address":"虹口区高阳路168号外滩浦华大酒店(东长治路高阳路)"},{"poiid":"B2094757D064A3F8429D","title":"上海建工集团总公司","lon":"121.501623103","lat":"31.2491349775","category":"263","category_name":"公司","address":"上海市虹口区东大名路666号"},{"poiid":"B2094757D068A6F4459F","title":"芳庭海鲜酒店","lon":"121.50299835","lat":"31.25","category":"88","category_name":"海鲜酒楼","address":"虹口区东大名路809号(近高阳路)"},{"poiid":"B2094757D06FA7FA459A","title":"宝寿司(陆家嘴店)","lon":"121.503959724","lat":"31.2409894884","category":"95","category_name":"日本料理","address":"浦东新区陆家嘴环路1318号星展银行大厦B1楼5号铺(近东园路)"},{"poiid":"B2094757D065A0FD459A","title":"星巴克 STARBICKS (汇亚大厦店)","lon":"121.503237538","lat":"31.2409458285","category":"65","category_name":"咖啡厅","address":"浦东新区陆家嘴环路1233号汇亚大厦1楼大厅(近海族馆)"},{"poiid":"B2094757D168AAF44793","title":"Tavola","lon":"121.50140267","lat":"31.242693473","category":"94","category_name":"西餐厅","address":"浦东新区滨江大道2500号(近星展银行)"},{"poiid":"B2094757D168A5F9409F","title":"Sunflour 星展银行店","lon":"121.50335","lat":"31.241352","category":"94","category_name":"西餐厅","address":"浦东新区陆家嘴环路1318号星展银行大厦美食广场(近东方明珠)"},{"poiid":"B2094757D069AAFF4192","title":"COSTA COFFEE (星展店)","lon":"121.50335442","lat":"31.241647043","category":"65","category_name":"咖啡厅","address":"浦东新区陆家嘴环路1318号星展银行大厦B104号商铺(近海洋水族馆)"},{"poiid":"B2094757D06AA6FA4192","title":"泰东路渡口","lon":"121.50572636","lat":"31.2436887252","category":"34","category_name":"港口码头","address":"上海浦东新区滨江大道"},{"poiid":"B2094757D568A1FD429C","title":"上海港国际客运中心1号游艇码头","lon":"121.503768","lat":"31.248825","category":"35","category_name":"长途汽车站","address":"中国上海市虹口区"},{"poiid":"B2094757D069A7FE499D","title":"伊藤家(汇亚店)","lon":"121.504283","lat":"31.241407","category":"95","category_name":"日本料理","address":"浦东新区陆家嘴环路1233号汇亚大厦M楼(近海族馆)"},{"poiid":"B2094757D06AA3FF499C","title":"中国海运","lon":"121.50300508","lat":"31.249953241","category":"46","category_name":"楼宇","address":"上海东大名路700号"},{"poiid":"B2094655D26FAAF8489D","title":"港务大厦","lon":"121.504","lat":"31.2459","category":"46","category_name":"楼宇","address":"丰和路1号"},{"poiid":"B2094654DB6AA2FC4898","title":"沃歌斯 汇亚店 Wagas","lon":"121.504424054","lat":"31.241192793","category":"94","category_name":"西餐厅","address":"浦东新区陆家嘴环路1233号汇亚大厦1楼(近海族馆)"},{"poiid":"B2094757D16CABFD429F","title":"浦江二号","lon":"121.5048131","lat":"31.248448963","category":"252","category_name":"楼宇机构","address":"上海市浦东新区滨江大道2050号"},{"poiid":"B2094655D36CA6FB4992","title":"东大名路旅顺路","lon":"121.49738","lat":"31.24778","category":"38","category_name":"公交车站","address":""},{"poiid":"B2094757D068A3FE4998","title":"火车头","lon":"121.50325071","lat":"31.241650306","category":"99","category_name":"泰国／越南菜品餐厅","address":"浦东新区陆家嘴环路1318号星展银行大厦B1楼02号(东园路陆家嘴环路)"},{"poiid":"B2094654D56DA4FA409E","title":"高阳商务中心","lon":"121.50376","lat":"31.25102","category":"46","category_name":"楼宇","address":"虹口区东大名路879号"},{"poiid":"B2094752D069A2FF419A","title":"新白鹿","lon":"121.4996283","lat":"31.2488492","category":"247","category_name":"餐饮美食","address":"南京东路800号东方商厦9楼"},{"poiid":"B2094757D06AA7FA409D","title":"东长治路","lon":"121.5008371","lat":"31.250816012","category":"500","category_name":"未知分类","address":"上海东长治路"},{"poiid":"B2094751D26AA3FA479F","title":"东方明珠电视塔","lon":"121.505035","lat":"31.245845","category":"250","category_name":"公园户外","address":"上海"},{"poiid":"B2094757D16FA3FE429D","title":"上海现代服务业联合会","lon":"121.49942873","lat":"31.242220555","category":"500","category_name":"未知分类","address":"上海市滨江大道2525弄5号A幢"},{"poiid":"B2094753D56CA0F54798","title":"皇玺酒家","lon":"121.50669","lat":"31.243375","category":"247","category_name":"餐饮美食","address":"上海市 浦东南路27号"},{"poiid":"B209475CD069A3FA419D","title":"皇璽","lon":"121.50641","lat":"31.24304","category":"47","category_name":"住宅区","address":"浦东南路27号(近银城路)"},{"poiid":"B2094757D065A0FE4492","title":"乔治咖喱屋","lon":"121.504274738","lat":"31.2413885379","category":"68","category_name":"快餐厅","address":"浦东新区陆家嘴环路1318号星展银行大厦B1楼3铺(汇亚大厦对面)"},{"poiid":"B2094757D66CA5F8419D","title":"泰同栈渡口","lon":"121.505786388","lat":"31.2438970109","category":"34","category_name":"港口码头","address":"上海市浦东新区浦东南路1号"},{"poiid":"B2094757D468ABFD4692","title":"壹萃NCE","lon":"121.50335","lat":"31.241352","category":"72","category_name":"广东菜","address":"浦东新区陆家嘴环路1318号星展银行大厦B103-01单元(近正大广场)"},{"poiid":"B2094757D06BA1FB439A","title":"上海市杨浦区大连路1190-1号全家便利","lon":"121.50366584","lat":"31.245027063","category":"500","category_name":"未知分类","address":"上海市杨浦区大连路1190-1号"},{"poiid":"B2094655D26DA2FE469E","title":"中欧陆家嘴国际金融研究院","lon":"121.50205","lat":"31.24154","category":"191","category_name":"科研机构","address":""},{"poiid":"B2094757D16FA0FC4593","title":"金贸大厦56楼意庐Cucina","lon":"121.5048173","lat":"31.24449427","category":"500","category_name":"未知分类","address":"上海世纪大道88号"},{"poiid":"B2094757D16DA5F5469C","title":"DIESEL (国金中心店)","lon":"121.50080905","lat":"31.24400486","category":"500","category_name":"未知分类","address":"浦东新区世纪大道8号国金中心商场B1楼(近东泰路)"},{"poiid":"B2094757D16FA0FB4792","title":"韶山湘菜","lon":"121.501586","lat":"31.249933","category":"77","category_name":"湖南菜","address":"虹口区东大名路713号"},{"poiid":"B2094751D56DA3F8459B","title":"Red Passion","lon":"121.50439","lat":"31.24204","category":"247","category_name":"餐饮美食","address":"浦东新区浦东新区陆家嘴环路1288号新天哈瓦那大酒店30楼(近东方明珠)"},{"poiid":"B2094655D36CA6F4409E","title":"东大名路高阳路","lon":"121.50246","lat":"31.25008","category":"38","category_name":"公交车站","address":""},{"poiid":"B2094654DA6FA7FD459E","title":"上海海洋水族馆","lon":"121.50194","lat":"31.24064","category":"199","category_name":"水族馆","address":"上海市浦东新区陆家嘴环路1388号"},{"poiid":"B2094757D06EABF5499C","title":"上海新天哈瓦那酒店","lon":"121.50419627","lat":"31.2422169954","category":"260","category_name":"其他","address":"浦东新区陆家嘴环路1288号(近东方明珠)"},{"poiid":"B2094757D06FA1FD4592","title":"上海外滩浦华大酒店","lon":"121.50274","lat":"31.25086","category":"213","category_name":"五星级宾馆","address":"上海市虹口区高阳路168号(北外滩地区 近东大名路)"},{"poiid":"B209475CD564A7F84392","title":"上海滩浦东香格里拉店","lon":"121.50058","lat":"31.23634","category":"119","category_name":"商场","address":"浦东富成路33号香格里拉酒店内大堂层"},{"poiid":"B2094757D06EAAF9469F","title":"星展银行大厦","lon":"121.504057228","lat":"31.2418020945","category":"46","category_name":"楼宇","address":"浦东新区陆家嘴环路1318号B109"},{"poiid":"B2094757D06FA2FC4593","title":"hoF(陆家嘴店)","lon":"121.503866724","lat":"31.2410764887","category":"260","category_name":"其他","address":"浦东新区陆家嘴环路1318号星展银行大厦下沉式广场8号商铺(近东园路)"},{"poiid":"B2094654DA6FA7FD439C","title":"汇亚大厦","lon":"121.50415","lat":"31.24097","category":"46","category_name":"楼宇","address":"重庆北部新区金渝大道89号(北部新区管委会对面)"},{"poiid":"B2094757D06FA7FA4993","title":"北外滩","lon":"121.50491413","lat":"31.250150968","category":"260","category_name":"其他","address":"虹口区高阳路(近东大名路)"},{"poiid":"B2094655D26CA4FB4499","title":"上海滩国际大厦","lon":"121.499","lat":"31.2502","category":"46","category_name":"楼宇","address":"丰台学城海鹰路1号,3号"},{"poiid":"B2094753D66DA6FD409B","title":"上海凯宾斯基大酒店","lon":"121.504465341568","lat":"31.2420219309263","category":"213","category_name":"五星级宾馆","address":"陆家嘴环路1288号"},{"poiid":"B2094757D064ABF5479C","title":"Tavola Italian Dining","lon":"121.502135738","lat":"31.2423945594","category":"500","category_name":"未知分类","address":"上海浦东新区滨江大道2500号"},{"poiid":"B2094757D068AAF9489B","title":"海逸海鲜(滨江大道店)","lon":"121.5021791","lat":"31.242800436","category":"72","category_name":"广东菜","address":"浦东新区滨江大道2450号(近星展银行大厦停车场)"},{"poiid":"B2094750D26AA6FB489F","title":"北外滩滨江绿地","lon":"121.499412","lat":"31.243846","category":"248","category_name":"生活娱乐","address":"东大名路新建路"},{"poiid":"B2094751D36BA4F5469D","title":"上海浦东文华东方酒店","lon":"121.50686659720611","lat":"31.243665106676545","category":"251","category_name":"出行住宿","address":"浦东新区浦东南路111号"},{"poiid":"B2094757D06FA6F54893","title":"上海港国际客运中心","lon":"121.50271","lat":"31.24954","category":"35","category_name":"长途汽车站","address":"虹口区东大名路800号(近高阳路)"},{"poiid":"B2094757D06AA1FC489E","title":"上海港","lon":"121.497051","lat":"31.247305","category":"500","category_name":"未知分类","address":"上海东大名路500号"},{"poiid":"B2094757D068ABFF429C","title":"老船长酒吧","lon":"121.502755758","lat":"31.2507747333","category":"172","category_name":"酒吧","address":"虹口区高阳路168号外滩浦华大酒店(东长治路高阳路)"},{"poiid":"B2094757D064A3F8429D","title":"上海建工集团总公司","lon":"121.501623103","lat":"31.2491349775","category":"263","category_name":"公司","address":"上海市虹口区东大名路666号"},{"poiid":"B2094757D068A6F4459F","title":"芳庭海鲜酒店","lon":"121.50299835","lat":"31.25","category":"88","category_name":"海鲜酒楼","address":"虹口区东大名路809号(近高阳路)"},{"poiid":"B2094757D06FA7FA459A","title":"宝寿司(陆家嘴店)","lon":"121.503959724","lat":"31.2409894884","category":"95","category_name":"日本料理","address":"浦东新区陆家嘴环路1318号星展银行大厦B1楼5号铺(近东园路)"},{"poiid":"B2094757D065A0FD459A","title":"星巴克 STARBICKS (汇亚大厦店)","lon":"121.503237538","lat":"31.2409458285","category":"65","category_name":"咖啡厅","address":"浦东新区陆家嘴环路1233号汇亚大厦1楼大厅(近海族馆)"},{"poiid":"B2094757D168AAF44793","title":"Tavola","lon":"121.50140267","lat":"31.242693473","category":"94","category_name":"西餐厅","address":"浦东新区滨江大道2500号(近星展银行)"},{"poiid":"B2094757D168A5F9409F","title":"Sunflour 星展银行店","lon":"121.50335","lat":"31.241352","category":"94","category_name":"西餐厅","address":"浦东新区陆家嘴环路1318号星展银行大厦美食广场(近东方明珠)"},{"poiid":"B2094757D069AAFF4192","title":"COSTA COFFEE (星展店)","lon":"121.50335442","lat":"31.241647043","category":"65","category_name":"咖啡厅","address":"浦东新区陆家嘴环路1318号星展银行大厦B104号商铺(近海洋水族馆)"},{"poiid":"B2094757D06AA6FA4192","title":"泰东路渡口","lon":"121.50572636","lat":"31.2436887252","category":"34","category_name":"港口码头","address":"上海浦东新区滨江大道"},{"poiid":"B2094757D568A1FD429C","title":"上海港国际客运中心1号游艇码头","lon":"121.503768","lat":"31.248825","category":"35","category_name":"长途汽车站","address":"中国上海市虹口区"},{"poiid":"B2094757D069A7FE499D","title":"伊藤家(汇亚店)","lon":"121.504283","lat":"31.241407","category":"95","category_name":"日本料理","address":"浦东新区陆家嘴环路1233号汇亚大厦M楼(近海族馆)"},{"poiid":"B2094757D06AA3FF499C","title":"中国海运","lon":"121.50300508","lat":"31.249953241","category":"46","category_name":"楼宇","address":"上海东大名路700号"},{"poiid":"B2094655D26FAAF8489D","title":"港务大厦","lon":"121.504","lat":"31.2459","category":"46","category_name":"楼宇","address":"丰和路1号"},{"poiid":"B2094654DB6AA2FC4898","title":"沃歌斯 汇亚店 Wagas","lon":"121.504424054","lat":"31.241192793","category":"94","category_name":"西餐厅","address":"浦东新区陆家嘴环路1233号汇亚大厦1楼(近海族馆)"},{"poiid":"B2094757D16CABFD429F","title":"浦江二号","lon":"121.5048131","lat":"31.248448963","category":"252","category_name":"楼宇机构","address":"上海市浦东新区滨江大道2050号"},{"poiid":"B2094655D36CA6FB4992","title":"东大名路旅顺路","lon":"121.49738","lat":"31.24778","category":"38","category_name":"公交车站","address":""},{"poiid":"B2094757D068A3FE4998","title":"火车头","lon":"121.50325071","lat":"31.241650306","category":"99","category_name":"泰国／越南菜品餐厅","address":"浦东新区陆家嘴环路1318号星展银行大厦B1楼02号(东园路陆家嘴环路)"},{"poiid":"B2094654D56DA4FA409E","title":"高阳商务中心","lon":"121.50376","lat":"31.25102","category":"46","category_name":"楼宇","address":"虹口区东大名路879号"},{"poiid":"B2094752D069A2FF419A","title":"新白鹿","lon":"121.4996283","lat":"31.2488492","category":"247","category_name":"餐饮美食","address":"南京东路800号东方商厦9楼"},{"poiid":"B2094757D06AA7FA409D","title":"东长治路","lon":"121.5008371","lat":"31.250816012","category":"500","category_name":"未知分类","address":"上海东长治路"},{"poiid":"B2094751D26AA3FA479F","title":"东方明珠电视塔","lon":"121.505035","lat":"31.245845","category":"250","category_name":"公园户外","address":"上海"},{"poiid":"B2094757D16FA3FE429D","title":"上海现代服务业联合会","lon":"121.49942873","lat":"31.242220555","category":"500","category_name":"未知分类","address":"上海市滨江大道2525弄5号A幢"},{"poiid":"B2094753D56CA0F54798","title":"皇玺酒家","lon":"121.50669","lat":"31.243375","category":"247","category_name":"餐饮美食","address":"上海市 浦东南路27号"},{"poiid":"B209475CD069A3FA419D","title":"皇璽","lon":"121.50641","lat":"31.24304","category":"47","category_name":"住宅区","address":"浦东南路27号(近银城路)"},{"poiid":"B2094757D065A0FE4492","title":"乔治咖喱屋","lon":"121.504274738","lat":"31.2413885379","category":"68","category_name":"快餐厅","address":"浦东新区陆家嘴环路1318号星展银行大厦B1楼3铺(汇亚大厦对面)"},{"poiid":"B2094757D66CA5F8419D","title":"泰同栈渡口","lon":"121.505786388","lat":"31.2438970109","category":"34","category_name":"港口码头","address":"上海市浦东新区浦东南路1号"},{"poiid":"B2094757D468ABFD4692","title":"壹萃NCE","lon":"121.50335","lat":"31.241352","category":"72","category_name":"广东菜","address":"浦东新区陆家嘴环路1318号星展银行大厦B103-01单元(近正大广场)"},{"poiid":"B2094757D06BA1FB439A","title":"上海市杨浦区大连路1190-1号全家便利","lon":"121.50366584","lat":"31.245027063","category":"500","category_name":"未知分类","address":"上海市杨浦区大连路1190-1号"},{"poiid":"B2094655D26DA2FE469E","title":"中欧陆家嘴国际金融研究院","lon":"121.50205","lat":"31.24154","category":"191","category_name":"科研机构","address":""},{"poiid":"B2094757D16FA0FC4593","title":"金贸大厦56楼意庐Cucina","lon":"121.5048173","lat":"31.24449427","category":"500","category_name":"未知分类","address":"上海世纪大道88号"},{"poiid":"B2094757D16DA5F5469C","title":"DIESEL (国金中心店)","lon":"121.50080905","lat":"31.24400486","category":"500","category_name":"未知分类","address":"浦东新区世纪大道8号国金中心商场B1楼(近东泰路)"},{"poiid":"B2094757D16FA0FB4792","title":"韶山湘菜","lon":"121.501586","lat":"31.249933","category":"77","category_name":"湖南菜","address":"虹口区东大名路713号"},{"poiid":"B2094751D56DA3F8459B","title":"Red Passion","lon":"121.50439","lat":"31.24204","category":"247","category_name":"餐饮美食","address":"浦东新区浦东新区陆家嘴环路1288号新天哈瓦那大酒店30楼(近东方明珠)"},{"poiid":"B2094655D36CA6F4409E","title":"东大名路高阳路","lon":"121.50246","lat":"31.25008","category":"38","category_name":"公交车站","address":""},{"poiid":"B2094654DA6FA7FD459E","title":"上海海洋水族馆","lon":"121.50194","lat":"31.24064","category":"199","category_name":"水族馆","address":"上海市浦东新区陆家嘴环路1388号"},{"poiid":"B2094757D06EABF5499C","title":"上海新天哈瓦那酒店","lon":"121.50419627","lat":"31.2422169954","category":"260","category_name":"其他","address":"浦东新区陆家嘴环路1288号(近东方明珠)"},{"poiid":"B2094757D06FA1FD4592","title":"上海外滩浦华大酒店","lon":"121.50274","lat":"31.25086","category":"213","category_name":"五星级宾馆","address":"上海市虹口区高阳路168号(北外滩地区 近东大名路)"},{"poiid":"B209475CD564A7F84392","title":"上海滩浦东香格里拉店","lon":"121.50058","lat":"31.23634","category":"119","category_name":"商场","address":"浦东富成路33号香格里拉酒店内大堂层"},{"poiid":"B2094757D06EAAF9469F","title":"星展银行大厦","lon":"121.504057228","lat":"31.2418020945","category":"46","category_name":"楼宇","address":"浦东新区陆家嘴环路1318号B109"},{"poiid":"B2094757D06FA2FC4593","title":"hoF(陆家嘴店)","lon":"121.503866724","lat":"31.2410764887","category":"260","category_name":"其他","address":"浦东新区陆家嘴环路1318号星展银行大厦下沉式广场8号商铺(近东园路)"},{"poiid":"B2094654DA6FA7FD439C","title":"汇亚大厦","lon":"121.50415","lat":"31.24097","category":"46","category_name":"楼宇","address":"重庆北部新区金渝大道89号(北部新区管委会对面)"},{"poiid":"B2094757D06FA7FA4993","title":"北外滩","lon":"121.50491413","lat":"31.250150968","category":"260","category_name":"其他","address":"虹口区高阳路(近东大名路)"},{"poiid":"B2094655D26CA4FB4499","title":"上海滩国际大厦","lon":"121.499","lat":"31.2502","category":"46","category_name":"楼宇","address":"丰台学城海鹰路1号,3号"},{"poiid":"B2094753D66DA6FD409B","title":"上海凯宾斯基大酒店","lon":"121.504465341568","lat":"31.2420219309263","category":"213","category_name":"五星级宾馆","address":"陆家嘴环路1288号"},{"poiid":"B2094757D064ABF5479C","title":"Tavola Italian Dining","lon":"121.502135738","lat":"31.2423945594","category":"500","category_name":"未知分类","address":"上海浦东新区滨江大道2500号"},{"poiid":"B2094757D068AAF9489B","title":"海逸海鲜(滨江大道店)","lon":"121.5021791","lat":"31.242800436","category":"72","category_name":"广东菜","address":"浦东新区滨江大道2450号(近星展银行大厦停车场)"},{"poiid":"B2094750D26AA6FB489F","title":"北外滩滨江绿地","lon":"121.499412","lat":"31.243846","category":"248","category_name":"生活娱乐","address":"东大名路新建路"},{"poiid":"B2094751D36BA4F5469D","title":"上海浦东文华东方酒店","lon":"121.50686659720611","lat":"31.243665106676545","category":"251","category_name":"出行住宿","address":"浦东新区浦东南路111号"},{"poiid":"B2094757D06FA6F54893","title":"上海港国际客运中心","lon":"121.50271","lat":"31.24954","category":"35","category_name":"长途汽车站","address":"虹口区东大名路800号(近高阳路)"},{"poiid":"B2094757D06AA1FC489E","title":"上海港","lon":"121.497051","lat":"31.247305","category":"500","category_name":"未知分类","address":"上海东大名路500号"},{"poiid":"B2094757D068ABFF429C","title":"老船长酒吧","lon":"121.502755758","lat":"31.2507747333","category":"172","category_name":"酒吧","address":"虹口区高阳路168号外滩浦华大酒店(东长治路高阳路)"},{"poiid":"B2094757D064A3F8429D","title":"上海建工集团总公司","lon":"121.501623103","lat":"31.2491349775","category":"263","category_name":"公司","address":"上海市虹口区东大名路666号"},{"poiid":"B2094757D068A6F4459F","title":"芳庭海鲜酒店","lon":"121.50299835","lat":"31.25","category":"88","category_name":"海鲜酒楼","address":"虹口区东大名路809号(近高阳路)"},{"poiid":"B2094757D06FA7FA459A","title":"宝寿司(陆家嘴店)","lon":"121.503959724","lat":"31.2409894884","category":"95","category_name":"日本料理","address":"浦东新区陆家嘴环路1318号星展银行大厦B1楼5号铺(近东园路)"},{"poiid":"B2094757D065A0FD459A","title":"星巴克 STARBICKS (汇亚大厦店)","lon":"121.503237538","lat":"31.2409458285","category":"65","category_name":"咖啡厅","address":"浦东新区陆家嘴环路1233号汇亚大厦1楼大厅(近海族馆)"},{"poiid":"B2094757D168AAF44793","title":"Tavola","lon":"121.50140267","lat":"31.242693473","category":"94","category_name":"西餐厅","address":"浦东新区滨江大道2500号(近星展银行)"},{"poiid":"B2094757D168A5F9409F","title":"Sunflour 星展银行店","lon":"121.50335","lat":"31.241352","category":"94","category_name":"西餐厅","address":"浦东新区陆家嘴环路1318号星展银行大厦美食广场(近东方明珠)"},{"poiid":"B2094757D069AAFF4192","title":"COSTA COFFEE (星展店)","lon":"121.50335442","lat":"31.241647043","category":"65","category_name":"咖啡厅","address":"浦东新区陆家嘴环路1318号星展银行大厦B104号商铺(近海洋水族馆)"},{"poiid":"B2094757D06AA6FA4192","title":"泰东路渡口","lon":"121.50572636","lat":"31.2436887252","category":"34","category_name":"港口码头","address":"上海浦东新区滨江大道"},{"poiid":"B2094757D568A1FD429C","title":"上海港国际客运中心1号游艇码头","lon":"121.503768","lat":"31.248825","category":"35","category_name":"长途汽车站","address":"中国上海市虹口区"},{"poiid":"B2094757D069A7FE499D","title":"伊藤家(汇亚店)","lon":"121.504283","lat":"31.241407","category":"95","category_name":"日本料理","address":"浦东新区陆家嘴环路1233号汇亚大厦M楼(近海族馆)"},{"poiid":"B2094757D06AA3FF499C","title":"中国海运","lon":"121.50300508","lat":"31.249953241","category":"46","category_name":"楼宇","address":"上海东大名路700号"},{"poiid":"B2094655D26FAAF8489D","title":"港务大厦","lon":"121.504","lat":"31.2459","category":"46","category_name":"楼宇","address":"丰和路1号"},{"poiid":"B2094654DB6AA2FC4898","title":"沃歌斯 汇亚店 Wagas","lon":"121.504424054","lat":"31.241192793","category":"94","category_name":"西餐厅","address":"浦东新区陆家嘴环路1233号汇亚大厦1楼(近海族馆)"},{"poiid":"B2094757D16CABFD429F","title":"浦江二号","lon":"121.5048131","lat":"31.248448963","category":"252","category_name":"楼宇机构","address":"上海市浦东新区滨江大道2050号"},{"poiid":"B2094655D36CA6FB4992","title":"东大名路旅顺路","lon":"121.49738","lat":"31.24778","category":"38","category_name":"公交车站","address":""},{"poiid":"B2094757D068A3FE4998","title":"火车头","lon":"121.50325071","lat":"31.241650306","category":"99","category_name":"泰国／越南菜品餐厅","address":"浦东新区陆家嘴环路1318号星展银行大厦B1楼02号(东园路陆家嘴环路)"},{"poiid":"B2094654D56DA4FA409E","title":"高阳商务中心","lon":"121.50376","lat":"31.25102","category":"46","category_name":"楼宇","address":"虹口区东大名路879号"},{"poiid":"B2094752D069A2FF419A","title":"新白鹿","lon":"121.4996283","lat":"31.2488492","category":"247","category_name":"餐饮美食","address":"南京东路800号东方商厦9楼"},{"poiid":"B2094757D06AA7FA409D","title":"东长治路","lon":"121.5008371","lat":"31.250816012","category":"500","category_name":"未知分类","address":"上海东长治路"},{"poiid":"B2094751D26AA3FA479F","title":"东方明珠电视塔","lon":"121.505035","lat":"31.245845","category":"250","category_name":"公园户外","address":"上海"},{"poiid":"B2094757D16FA3FE429D","title":"上海现代服务业联合会","lon":"121.49942873","lat":"31.242220555","category":"500","category_name":"未知分类","address":"上海市滨江大道2525弄5号A幢"},{"poiid":"B2094753D56CA0F54798","title":"皇玺酒家","lon":"121.50669","lat":"31.243375","category":"247","category_name":"餐饮美食","address":"上海市 浦东南路27号"},{"poiid":"B209475CD069A3FA419D","title":"皇璽","lon":"121.50641","lat":"31.24304","category":"47","category_name":"住宅区","address":"浦东南路27号(近银城路)"},{"poiid":"B2094757D065A0FE4492","title":"乔治咖喱屋","lon":"121.504274738","lat":"31.2413885379","category":"68","category_name":"快餐厅","address":"浦东新区陆家嘴环路1318号星展银行大厦B1楼3铺(汇亚大厦对面)"},{"poiid":"B2094757D66CA5F8419D","title":"泰同栈渡口","lon":"121.505786388","lat":"31.2438970109","category":"34","category_name":"港口码头","address":"上海市浦东新区浦东南路1号"},{"poiid":"B2094757D468ABFD4692","title":"壹萃NCE","lon":"121.50335","lat":"31.241352","category":"72","category_name":"广东菜","address":"浦东新区陆家嘴环路1318号星展银行大厦B103-01单元(近正大广场)"},{"poiid":"B2094757D06BA1FB439A","title":"上海市杨浦区大连路1190-1号全家便利","lon":"121.50366584","lat":"31.245027063","category":"500","category_name":"未知分类","address":"上海市杨浦区大连路1190-1号"},{"poiid":"B2094655D26DA2FE469E","title":"中欧陆家嘴国际金融研究院","lon":"121.50205","lat":"31.24154","category":"191","category_name":"科研机构","address":""},{"poiid":"B2094757D16FA0FC4593","title":"金贸大厦56楼意庐Cucina","lon":"121.5048173","lat":"31.24449427","category":"500","category_name":"未知分类","address":"上海世纪大道88号"},{"poiid":"B2094757D16DA5F5469C","title":"DIESEL (国金中心店)","lon":"121.50080905","lat":"31.24400486","category":"500","category_name":"未知分类","address":"浦东新区世纪大道8号国金中心商场B1楼(近东泰路)"},{"poiid":"B2094757D16FA0FB4792","title":"韶山湘菜","lon":"121.501586","lat":"31.249933","category":"77","category_name":"湖南菜","address":"虹口区东大名路713号"},{"poiid":"B2094751D56DA3F8459B","title":"Red Passion","lon":"121.50439","lat":"31.24204","category":"247","category_name":"餐饮美食","address":"浦东新区浦东新区陆家嘴环路1288号新天哈瓦那大酒店30楼(近东方明珠)"},{"poiid":"B2094655D36CA6F4409E","title":"东大名路高阳路","lon":"121.50246","lat":"31.25008","category":"38","category_name":"公交车站","address":""}]