[{"poiid":"B2094654DB69ABF9469D","title":"上海歌城(四川北路店)","lon":"121.48368","lat":"31.26186","category":"170","category_name":"KTV","address":"虹口区四川北路1885号多伦生活广场5楼(近多伦路)"},{"poiid":"B2094757D06EAAFD4893","title":"海伦路地铁站","lon":"121.48851616","lat":"31.259517259","category":"36","category_name":"地铁站","address":"上海轨道交通 四号线 十号线 轨交海伦路站 轻轨 4 10"},{"poiid":"B2094654D56CA7FA489F","title":"上海市第一人民医院分院","lon":"121.48416","lat":"31.2611","category":"162","category_name":"医院","address":"虹口区四川北路1878号2号楼7楼(近荣欣大酒店)"},{"poiid":"B2094757D06FA3F84392","title":"南华火锅(四川路店)","lon":"121.48408","lat":"31.26301","category":"86","category_name":"火锅店","address":"虹口区四川北路1975-1985号(长春路口)"},{"poiid":"B209475CD769A7F94093","title":"王子公主奇遇记主题KTV","lon":"121.488833","lat":"31.261971","category":"170","category_name":"KTV","address":"上海市虹口区四平路257号1-3楼(近溧阳路)"},{"poiid":"B2094654DB6AAAF84898","title":"美林阁 四平路店 MeiLinGe","lon":"121.489139054","lat":"31.262070793","category":"76","category_name":"上海菜","address":"虹口区四平路257号虹口世纪酒店1-2楼(近溧阳路)"},{"poiid":"B2094757D06FA5FF469A","title":"普乐迪量贩KTV","lon":"121.483738206","lat":"31.2622111583","category":"170","category_name":"KTV","address":"虹口区四川北路1915号时装大厦7楼(近多伦路)"},{"poiid":"B2094757D06EAAF9429B","title":"麦当劳(四平路店)","lon":"121.48855","lat":"31.26093","category":"68","category_name":"快餐厅","address":"虹口区溧阳路1114号(近四平路)"},{"poiid":"B2094757D068A1F8499E","title":"独门冲炭火自助烤肉","lon":"121.4837534","lat":"31.26218585","category":"268","category_name":"自助","address":"虹口区四川北路1885号多伦生活广场B1楼"},{"poiid":"B2094757D06FA6F94392","title":"四新食苑","lon":"121.48449","lat":"31.26215","category":"68","category_name":"快餐厅","address":"虹口区四川北路1908号(近多伦路)"},{"poiid":"B2094757D06BA7FB4298","title":"海伦路","lon":"121.488512","lat":"31.259589","category":"500","category_name":"未知分类","address":"上海海伦路"},{"poiid":"B2094757D168A3FA449B","title":"避风塘","lon":"121.484212703","lat":"31.2602332094","category":"500","category_name":"未知分类","address":"上海市虹口区四川北路1885号"},{"poiid":"B2094655D26AA0F9409E","title":"地铁海伦路站","lon":"121.48851233539108","lat":"31.259587013563777","category":"36","category_name":"地铁站","address":"上海轨道交通 四号线 轨交海伦路站 4"},{"poiid":"B2094757D068A3FA4398","title":"呷哺呷哺(虹口区多伦路店)","lon":"121.484077603","lat":"31.2612013296","category":"86","category_name":"火锅店","address":"虹口区四川北路1885号1楼101B室"},{"poiid":"B2094757D06FA5FF4893","title":"溧园咖啡","lon":"121.487339","lat":"31.262971","category":"260","category_name":"其他","address":"虹口区溧阳路1208弄5号老洋房花园内(四川北路四平路间)"},{"poiid":"B2094757D06FA0F94298","title":"望湘园(四川北路店)","lon":"121.48399","lat":"31.26204","category":"77","category_name":"湖南菜","address":"虹口区四川北路1941号金海岸大厦4楼(近多伦路)"},{"poiid":"B2094655D26DA4FB449A","title":"溧阳华府","lon":"121.48854","lat":"31.26298","category":"47","category_name":"住宅区","address":"上海市虹口区宝安路1号"},{"poiid":"B2094757D06FAAFE479D","title":"三商巧福(四川北路店)","lon":"121.48457","lat":"31.26162","category":"68","category_name":"快餐厅","address":"虹口区四川北路1840号(近海伦路)"},{"poiid":"B2094757D06FABF8439F","title":"虹叶花苑","lon":"121.48671","lat":"31.261433","category":"47","category_name":"住宅区","address":"上海虹口区长春路158号"},{"poiid":"B2094654DB6AAAF9429A","title":"傣妹(四川路二店)","lon":"121.48404","lat":"31.26201","category":"87","category_name":"特色／地方风味餐厅","address":"虹口区四川北路1898号3楼(近多伦路)"},{"poiid":"B2094757D06FA4F84993","title":"振鼎鸡(溧阳路店)","lon":"121.48465","lat":"31.26335","category":"68","category_name":"快餐厅","address":"虹口区溧阳路1400号(近四川北路)"},{"poiid":"B2094654DB6AA6FF449D","title":"上海虹叶酒店","lon":"121.48644","lat":"31.26183","category":"215","category_name":"三星级宾馆","address":"上海虹口区长春路158号(近溧阳路)"},{"poiid":"B2094757D469A5FF4699","title":"煲煲赞广东煲仔饭","lon":"121.486095","lat":"31.260743","category":"72","category_name":"广东菜","address":"虹口区长春路152号(近四川北路)"},{"poiid":"B2094757D06FA6F54193","title":"巴贝拉(四川北路店)","lon":"121.483688659","lat":"31.2617686525","category":"94","category_name":"西餐厅","address":"虹口区四川北路1885号多伦生活广场2楼(近多伦路)"},{"poiid":"B2094757D16AABFB449F","title":"溧阳路","lon":"121.486091","lat":"31.263604","category":"500","category_name":"未知分类","address":"上海溧阳路四川北路"},{"poiid":"B2094757D068AAF5469B","title":"美豪酒店多伦路店","lon":"121.4841961","lat":"31.262308252","category":"214","category_name":"四星级宾馆","address":"上海市虹口区四川北路1885号(近多伦路)"},{"poiid":"B2094654D56CA7FA4793","title":"维纳斯婚纱(四川北路)","lon":"121.48404","lat":"31.26183","category":"141","category_name":"服装鞋帽皮具店","address":"虹口区四川北路1888号(近多伦路)查看地图"},{"poiid":"B2094757D068A7FB4999","title":"面大王","lon":"121.48809","lat":"31.26132","category":"68","category_name":"快餐厅","address":"虹口区溧阳路1114弄4号(近四平路)"},{"poiid":"B2094757D06EAAFF4798","title":"新世界电影城","lon":"121.48867321","lat":"31.2608388428","category":"178","category_name":"电影院","address":"上海南京西路2～68号新世界城12楼"},{"poiid":"B2094654D56CA7FA499B","title":"上海市虹口区教育学院实验中学","lon":"121.48423","lat":"31.26054","category":"55","category_name":"中学","address":"虹口区四川北路1838号(近海伦路)"},{"poiid":"B2094655D26BA6F5439E","title":"红叶东苑","lon":"121.48651","lat":"31.26083","category":"47","category_name":"住宅区","address":"红叶东苑位于虹口长春路158号"},{"poiid":"B2094757D66EA6FB4498","title":"禧勃坊","lon":"121.4873048","lat":"31.261372533","category":"500","category_name":"未知分类","address":"上海虹口区多伦路文化名人街32号"},{"poiid":"B2094750D76EA3FE489F","title":"富源春鸡汤面(四川北路店)","lon":"121.484","lat":"31.2622","category":"68","category_name":"快餐厅","address":"虹口区四川北路1906弄100号(近多伦路)"},{"poiid":"B2094757D66FA2FC4099","title":"鱼林港","lon":"121.484525103","lat":"31.2620422471","category":"500","category_name":"未知分类","address":"上海四川北路东泰休闲广场"},{"poiid":"B2094654D56CA6FF449E","title":"泰业公寓","lon":"121.4856","lat":"31.260582","category":"47","category_name":"住宅区","address":"泰业公寓位于虹口四川北路1856弄20-22号"},{"poiid":"B2094757D569A3FD499B","title":"小胖子烧烤摊","lon":"121.4877469","lat":"31.26159194","category":"87","category_name":"特色／地方风味餐厅","address":"虹口区溧阳路1114号麦当劳门口(近四平路)"},{"poiid":"B2094757D06AA3F4459F","title":"多伦路粥摊","lon":"121.48199","lat":"31.2648","category":"68","category_name":"快餐厅","address":"虹口区多伦路250号对面(东江湾路口)"},{"poiid":"B2094750D768ABFE4999","title":"巴黎贝甜(四川北路店)","lon":"121.484","lat":"31.2619","category":"68","category_name":"快餐厅","address":"虹口区四川北路1885号多伦生活广场内(近多伦路)"},{"poiid":"B2094655D26CA0FD4499","title":"启秀坊","lon":"121.48587","lat":"31.2616","category":"47","category_name":"住宅区","address":"长春路214弄1-21号"},{"poiid":"B2094750D269A1FC4493","title":"荣欣大酒店","lon":"121.483675","lat":"31.261341","category":"76","category_name":"上海菜","address":"虹口区四川北路1851号5楼(近多伦路)"},{"poiid":"B2094757D068A4FB459D","title":"莉莲蛋挞(四川北路店)","lon":"121.48418","lat":"31.2606","category":"67","category_name":"甜品店","address":"虹口区四川北路1846号(近海伦路)"},{"poiid":"B2094753D269A1FB419C","title":"古徽州馄饨店","lon":"121.486998","lat":"31.260177","category":"247","category_name":"餐饮美食","address":"上海市 邢家桥北路158号"},{"poiid":"B2094757D069ABF54899","title":"Barba-baba台球馆","lon":"121.483850786","lat":"31.2615875487","category":"171","category_name":"台球厅","address":"上海多伦路"},{"poiid":"B2094654D56CA7FF409E","title":"邢长小区","lon":"121.48643","lat":"31.260311","category":"47","category_name":"住宅区","address":"长春路126弄1-4号"},{"poiid":"B2094757D16BA1FF479B","title":"多伦路口小吃摊","lon":"121.4859291","lat":"31.262087248","category":"247","category_name":"餐饮美食","address":"上海四川北路多伦路"},{"poiid":"B2094654D56CA7FE499F","title":"上海杰克形象设计连锁","lon":"121.48617","lat":"31.26057","category":"148","category_name":"美容美发店","address":""},{"poiid":"B2094757D069A3FE4299","title":"香港金龙船海鲜酒家","lon":"121.48849","lat":"31.26113","category":"72","category_name":"广东菜","address":"上海虹口区四平路257号虹口世纪大酒店3楼(近物华路)"},{"poiid":"B2094655D26AA1F44192","title":"虹口世纪大酒店宴会厅","lon":"121.48858","lat":"31.26202","category":"247","category_name":"餐饮美食","address":"虹口区溧阳路1111号虹口世纪大酒店内(近四平路)查看地图"},{"poiid":"B2094655D26CA0F94493","title":"启秀坊(西门)","lon":"121.48564","lat":"31.26162","category":"47","category_name":"住宅区","address":"长春路214弄1-21号"},{"poiid":"B2094757D068A6F4479E","title":"招商银行(川北支行)","lon":"121.48377719","lat":"31.261439893","category":"150","category_name":"银行","address":"上海虹口区四川北路1689号"},{"poiid":"B2094654DB69ABF9469D","title":"上海歌城(四川北路店)","lon":"121.48368","lat":"31.26186","category":"170","category_name":"KTV","address":"虹口区四川北路1885号多伦生活广场5楼(近多伦路)"},{"poiid":"B2094757D06EAAFD4893","title":"海伦路地铁站","lon":"121.48851616","lat":"31.259517259","category":"36","category_name":"地铁站","address":"上海轨道交通 四号线 十号线 轨交海伦路站 轻轨 4 10"},{"poiid":"B2094654D56CA7FA489F","title":"上海市第一人民医院分院","lon":"121.48416","lat":"31.2611","category":"162","category_name":"医院","address":"虹口区四川北路1878号2号楼7楼(近荣欣大酒店)"},{"poiid":"B2094757D06FA3F84392","title":"南华火锅(四川路店)","lon":"121.48408","lat":"31.26301","category":"86","category_name":"火锅店","address":"虹口区四川北路1975-1985号(长春路口)"},{"poiid":"B209475CD769A7F94093","title":"王子公主奇遇记主题KTV","lon":"121.488833","lat":"31.261971","category":"170","category_name":"KTV","address":"上海市虹口区四平路257号1-3楼(近溧阳路)"},{"poiid":"B2094654DB6AAAF84898","title":"美林阁 四平路店 MeiLinGe","lon":"121.489139054","lat":"31.262070793","category":"76","category_name":"上海菜","address":"虹口区四平路257号虹口世纪酒店1-2楼(近溧阳路)"},{"poiid":"B2094757D06FA5FF469A","title":"普乐迪量贩KTV","lon":"121.483738206","lat":"31.2622111583","category":"170","category_name":"KTV","address":"虹口区四川北路1915号时装大厦7楼(近多伦路)"},{"poiid":"B2094757D06EAAF9429B","title":"麦当劳(四平路店)","lon":"121.48855","lat":"31.26093","category":"68","category_name":"快餐厅","address":"虹口区溧阳路1114号(近四平路)"},{"poiid":"B2094757D068A1F8499E","title":"独门冲炭火自助烤肉","lon":"121.4837534","lat":"31.26218585","category":"268","category_name":"自助","address":"虹口区四川北路1885号多伦生活广场B1楼"},{"poiid":"B2094757D06FA6F94392","title":"四新食苑","lon":"121.48449","lat":"31.26215","category":"68","category_name":"快餐厅","address":"虹口区四川北路1908号(近多伦路)"},{"poiid":"B2094757D06BA7FB4298","title":"海伦路","lon":"121.488512","lat":"31.259589","category":"500","category_name":"未知分类","address":"上海海伦路"},{"poiid":"B2094757D168A3FA449B","title":"避风塘","lon":"121.484212703","lat":"31.2602332094","category":"500","category_name":"未知分类","address":"上海市虹口区四川北路1885号"},{"poiid":"B2094655D26AA0F9409E","title":"地铁海伦路站","lon":"121.48851233539108","lat":"31.259587013563777","category":"36","category_name":"地铁站","address":"上海轨道交通 四号线 轨交海伦路站 4"},{"poiid":"B2094757D068A3FA4398","title":"呷哺呷哺(虹口区多伦路店)","lon":"121.484077603","lat":"31.2612013296","category":"86","category_name":"火锅店","address":"虹口区四川北路1885号1楼101B室"},{"poiid":"B2094757D06FA5FF4893","title":"溧园咖啡","lon":"121.487339","lat":"31.262971","category":"260","category_name":"其他","address":"虹口区溧阳路1208弄5号老洋房花园内(四川北路四平路间)"},{"poiid":"B2094757D06FA0F94298","title":"望湘园(四川北路店)","lon":"121.48399","lat":"31.26204","category":"77","category_name":"湖南菜","address":"虹口区四川北路1941号金海岸大厦4楼(近多伦路)"},{"poiid":"B2094655D26DA4FB449A","title":"溧阳华府","lon":"121.48854","lat":"31.26298","category":"47","category_name":"住宅区","address":"上海市虹口区宝安路1号"},{"poiid":"B2094757D06FAAFE479D","title":"三商巧福(四川北路店)","lon":"121.48457","lat":"31.26162","category":"68","category_name":"快餐厅","address":"虹口区四川北路1840号(近海伦路)"},{"poiid":"B2094757D06FABF8439F","title":"虹叶花苑","lon":"121.48671","lat":"31.261433","category":"47","category_name":"住宅区","address":"上海虹口区长春路158号"},{"poiid":"B2094654DB6AAAF9429A","title":"傣妹(四川路二店)","lon":"121.48404","lat":"31.26201","category":"87","category_name":"特色／地方风味餐厅","address":"虹口区四川北路1898号3楼(近多伦路)"},{"poiid":"B2094757D06FA4F84993","title":"振鼎鸡(溧阳路店)","lon":"121.48465","lat":"31.26335","category":"68","category_name":"快餐厅","address":"虹口区溧阳路1400号(近四川北路)"},{"poiid":"B2094654DB6AA6FF449D","title":"上海虹叶酒店","lon":"121.48644","lat":"31.26183","category":"215","category_name":"三星级宾馆","address":"上海虹口区长春路158号(近溧阳路)"},{"poiid":"B2094757D469A5FF4699","title":"煲煲赞广东煲仔饭","lon":"121.486095","lat":"31.260743","category":"72","category_name":"广东菜","address":"虹口区长春路152号(近四川北路)"},{"poiid":"B2094757D06FA6F54193","title":"巴贝拉(四川北路店)","lon":"121.483688659","lat":"31.2617686525","category":"94","category_name":"西餐厅","address":"虹口区四川北路1885号多伦生活广场2楼(近多伦路)"},{"poiid":"B2094757D16AABFB449F","title":"溧阳路","lon":"121.486091","lat":"31.263604","category":"500","category_name":"未知分类","address":"上海溧阳路四川北路"},{"poiid":"B2094757D068AAF5469B","title":"美豪酒店多伦路店","lon":"121.4841961","lat":"31.262308252","category":"214","category_name":"四星级宾馆","address":"上海市虹口区四川北路1885号(近多伦路)"},{"poiid":"B2094654D56CA7FA4793","title":"维纳斯婚纱(四川北路)","lon":"121.48404","lat":"31.26183","category":"141","category_name":"服装鞋帽皮具店","address":"虹口区四川北路1888号(近多伦路)查看地图"},{"poiid":"B2094757D068A7FB4999","title":"面大王","lon":"121.48809","lat":"31.26132","category":"68","category_name":"快餐厅","address":"虹口区溧阳路1114弄4号(近四平路)"},{"poiid":"B2094757D06EAAFF4798","title":"新世界电影城","lon":"121.48867321","lat":"31.2608388428","category":"178","category_name":"电影院","address":"上海南京西路2～68号新世界城12楼"},{"poiid":"B2094654D56CA7FA499B","title":"上海市虹口区教育学院实验中学","lon":"121.48423","lat":"31.26054","category":"55","category_name":"中学","address":"虹口区四川北路1838号(近海伦路)"},{"poiid":"B2094655D26BA6F5439E","title":"红叶东苑","lon":"121.48651","lat":"31.26083","category":"47","category_name":"住宅区","address":"红叶东苑位于虹口长春路158号"},{"poiid":"B2094757D66EA6FB4498","title":"禧勃坊","lon":"121.4873048","lat":"31.261372533","category":"500","category_name":"未知分类","address":"上海虹口区多伦路文化名人街32号"},{"poiid":"B2094750D76EA3FE489F","title":"富源春鸡汤面(四川北路店)","lon":"121.484","lat":"31.2622","category":"68","category_name":"快餐厅","address":"虹口区四川北路1906弄100号(近多伦路)"},{"poiid":"B2094757D66FA2FC4099","title":"鱼林港","lon":"121.484525103","lat":"31.2620422471","category":"500","category_name":"未知分类","address":"上海四川北路东泰休闲广场"},{"poiid":"B2094654D56CA6FF449E","title":"泰业公寓","lon":"121.4856","lat":"31.260582","category":"47","category_name":"住宅区","address":"泰业公寓位于虹口四川北路1856弄20-22号"},{"poiid":"B2094757D569A3FD499B","title":"小胖子烧烤摊","lon":"121.4877469","lat":"31.26159194","category":"87","category_name":"特色／地方风味餐厅","address":"虹口区溧阳路1114号麦当劳门口(近四平路)"},{"poiid":"B2094757D06AA3F4459F","title":"多伦路粥摊","lon":"121.48199","lat":"31.2648","category":"68","category_name":"快餐厅","address":"虹口区多伦路250号对面(东江湾路口)"},{"poiid":"B2094750D768ABFE4999","title":"巴黎贝甜(四川北路店)","lon":"121.484","lat":"31.2619","category":"68","category_name":"快餐厅","address":"虹口区四川北路1885号多伦生活广场内(近多伦路)"},{"poiid":"B2094655D26CA0FD4499","title":"启秀坊","lon":"121.48587","lat":"31.2616","category":"47","category_name":"住宅区","address":"长春路214弄1-21号"},{"poiid":"B2094750D269A1FC4493","title":"荣欣大酒店","lon":"121.483675","lat":"31.261341","category":"76","category_name":"上海菜","address":"虹口区四川北路1851号5楼(近多伦路)"},{"poiid":"B2094757D068A4FB459D","title":"莉莲蛋挞(四川北路店)","lon":"121.48418","lat":"31.2606","category":"67","category_name":"甜品店","address":"虹口区四川北路1846号(近海伦路)"},{"poiid":"B2094753D269A1FB419C","title":"古徽州馄饨店","lon":"121.486998","lat":"31.260177","category":"247","category_name":"餐饮美食","address":"上海市 邢家桥北路158号"},{"poiid":"B2094757D069ABF54899","title":"Barba-baba台球馆","lon":"121.483850786","lat":"31.2615875487","category":"171","category_name":"台球厅","address":"上海多伦路"},{"poiid":"B2094654D56CA7FF409E","title":"邢长小区","lon":"121.48643","lat":"31.260311","category":"47","category_name":"住宅区","address":"长春路126弄1-4号"},{"poiid":"B2094757D16BA1FF479B","title":"多伦路口小吃摊","lon":"121.4859291","lat":"31.262087248","category":"247","category_name":"餐饮美食","address":"上海四川北路多伦路"},{"poiid":"B2094654D56CA7FE499F","title":"上海杰克形象设计连锁","lon":"121.48617","lat":"31.26057","category":"148","category_name":"美容美发店","address":""},{"poiid":"B2094757D069A3FE4299","title":"香港金龙船海鲜酒家","lon":"121.48849","lat":"31.26113","category":"72","category_name":"广东菜","address":"上海虹口区四平路257号虹口世纪大酒店3楼(近物华路)"},{"poiid":"B2094655D26AA1F44192","title":"虹口世纪大酒店宴会厅","lon":"121.48858","lat":"31.26202","category":"247","category_name":"餐饮美食","address":"虹口区溧阳路1111号虹口世纪大酒店内(近四平路)查看地图"},{"poiid":"B2094655D26CA0F94493","title":"启秀坊(西门)","lon":"121.48564","lat":"31.26162","category":"47","category_name":"住宅区","address":"长春路214弄1-21号"},{"poiid":"B2094757D068A6F4479E","title":"招商银行(川北支行)","lon":"121.48377719","lat":"31.261439893","category":"150","category_name":"银行","address":"上海虹口区四川北路1689号"},{"poiid":"B2094654DB69ABF9469D","title":"上海歌城(四川北路店)","lon":"121.48368","lat":"31.26186","category":"170","category_name":"KTV","address":"虹口区四川北路1885号多伦生活广场5楼(近多伦路)"},{"poiid":"B2094757D06EAAFD4893","title":"海伦路地铁站","lon":"121.48851616","lat":"31.259517259","category":"36","category_name":"地铁站","address":"上海轨道交通 四号线 十号线 轨交海伦路站 轻轨 4 10"},{"poiid":"B2094654D56CA7FA489F","title":"上海市第一人民医院分院","lon":"121.48416","lat":"31.2611","category":"162","category_name":"医院","address":"虹口区四川北路1878号2号楼7楼(近荣欣大酒店)"},{"poiid":"B2094757D06FA3F84392","title":"南华火锅(四川路店)","lon":"121.48408","lat":"31.26301","category":"86","category_name":"火锅店","address":"虹口区四川北路1975-1985号(长春路口)"},{"poiid":"B209475CD769A7F94093","title":"王子公主奇遇记主题KTV","lon":"121.488833","lat":"31.261971","category":"170","category_name":"KTV","address":"上海市虹口区四平路257号1-3楼(近溧阳路)"},{"poiid":"B2094654DB6AAAF84898","title":"美林阁 四平路店 MeiLinGe","lon":"121.489139054","lat":"31.262070793","category":"76","category_name":"上海菜","address":"虹口区四平路257号虹口世纪酒店1-2楼(近溧阳路)"},{"poiid":"B2094757D06FA5FF469A","title":"普乐迪量贩KTV","lon":"121.483738206","lat":"31.2622111583","category":"170","category_name":"KTV","address":"虹口区四川北路1915号时装大厦7楼(近多伦路)"},{"poiid":"B2094757D06EAAF9429B","title":"麦当劳(四平路店)","lon":"121.48855","lat":"31.26093","category":"68","category_name":"快餐厅","address":"虹口区溧阳路1114号(近四平路)"},{"poiid":"B2094757D068A1F8499E","title":"独门冲炭火自助烤肉","lon":"121.4837534","lat":"31.26218585","category":"268","category_name":"自助","address":"虹口区四川北路1885号多伦生活广场B1楼"},{"poiid":"B2094757D06FA6F94392","title":"四新食苑","lon":"121.48449","lat":"31.26215","category":"68","category_name":"快餐厅","address":"虹口区四川北路1908号(近多伦路)"},{"poiid":"B2094757D06BA7FB4298","title":"海伦路","lon":"121.488512","lat":"31.259589","category":"500","category_name":"未知分类","address":"上海海伦路"},{"poiid":"B2094757D168A3FA449B","title":"避风塘","lon":"121.484212703","lat":"31.2602332094","category":"500","category_name":"未知分类","address":"上海市虹口区四川北路1885号"},{"poiid":"B2094655D26AA0F9409E","title":"地铁海伦路站","lon":"121.48851233539108","lat":"31.259587013563777","category":"36","category_name":"地铁站","address":"上海轨道交通 四号线 轨交海伦路站 4"},{"poiid":"B2094757D068A3FA4398","title":"呷哺呷哺(虹口区多伦路店)","lon":"121.484077603","lat":"31.2612013296","category":"86","category_name":"火锅店","address":"虹口区四川北路1885号1楼101B室"},{"poiid":"B2094757D06FA5FF4893","title":"溧园咖啡","lon":"121.487339","lat":"31.262971","category":"260","category_name":"其他","address":"虹口区溧阳路1208弄5号老洋房花园内(四川北路四平路间)"},{"poiid":"B2094757D06FA0F94298","title":"望湘园(四川北路店)","lon":"121.48399","lat":"31.26204","category":"77","category_name":"湖南菜","address":"虹口区四川北路1941号金海岸大厦4楼(近多伦路)"},{"poiid":"B2094655D26DA4FB449A","title":"溧阳华府","lon":"121.48854","lat":"31.26298","category":"47","category_name":"住宅区","address":"上海市虹口区宝安路1号"},{"poiid":"B2094757D06FAAFE479D","title":"三商巧福(四川北路店)","lon":"121.48457","lat":"31.26162","category":"68","category_name":"快餐厅","address":"虹口区四川北路1840号(近海伦路)"},{"poiid":"B2094757D06FABF8439F","title":"虹叶花苑","lon":"121.48671","lat":"31.261433","category":"47","category_name":"住宅区","address":"上海虹口区长春路158号"},{"poiid":"B2094654DB6AAAF9429A","title":"傣妹(四川路二店)","lon":"121.48404","lat":"31.26201","category":"87","category_name":"特色／地方风味餐厅","address":"虹口区四川北路1898号3楼(近多伦路)"},{"poiid":"B2094757D06FA4F84993","title":"振鼎鸡(溧阳路店)","lon":"121.48465","lat":"31.26335","category":"68","category_name":"快餐厅","address":"虹口区溧阳路1400号(近四川北路)"},{"poiid":"B2094654DB6AA6FF449D","title":"上海虹叶酒店","lon":"121.48644","lat":"31.26183","category":"215","category_name":"三星级宾馆","address":"上海虹口区长春路158号(近溧阳路)"},{"poiid":"B2094757D469A5FF4699","title":"煲煲赞广东煲仔饭","lon":"121.486095","lat":"31.260743","category":"72","category_name":"广东菜","address":"虹口区长春路152号(近四川北路)"},{"poiid":"B2094757D06FA6F54193","title":"巴贝拉(四川北路店)","lon":"121.483688659","lat":"31.2617686525","category":"94","category_name":"西餐厅","address":"虹口区四川北路1885号多伦生活广场2楼(近多伦路)"},{"poiid":"B2094757D16AABFB449F","title":"溧阳路","lon":"121.486091","lat":"31.263604","category":"500","category_name":"未知分类","address":"上海溧阳路四川北路"},{"poiid":"B2094757D068AAF5469B","title":"美豪酒店多伦路店","lon":"121.4841961","lat":"31.262308252","category":"214","category_name":"四星级宾馆","address":"上海市虹口区四川北路1885号(近多伦路)"},{"poiid":"B2094654D56CA7FA4793","title":"维纳斯婚纱(四川北路)","lon":"121.48404","lat":"31.26183","category":"141","category_name":"服装鞋帽皮具店","address":"虹口区四川北路1888号(近多伦路)查看地图"},{"poiid":"B2094757D068A7FB4999","title":"面大王","lon":"121.48809","lat":"31.26132","category":"68","category_name":"快餐厅","address":"虹口区溧阳路1114弄4号(近四平路)"},{"poiid":"B2094757D06EAAFF4798","title":"新世界电影城","lon":"121.48867321","lat":"31.2608388428","category":"178","category_name":"电影院","address":"上海南京西路2～68号新世界城12楼"},{"poiid":"B2094654D56CA7FA499B","title":"上海市虹口区教育学院实验中学","lon":"121.48423","lat":"31.26054","category":"55","category_name":"中学","address":"虹口区四川北路1838号(近海伦路)"},{"poiid":"B2094655D26BA6F5439E","title":"红叶东苑","lon":"121.48651","lat":"31.26083","category":"47","category_name":"住宅区","address":"红叶东苑位于虹口长春路158号"},{"poiid":"B2094757D66EA6FB4498","title":"禧勃坊","lon":"121.4873048","lat":"31.261372533","category":"500","category_name":"未知分类","address":"上海虹口区多伦路文化名人街32号"},{"poiid":"B2094750D76EA3FE489F","title":"富源春鸡汤面(四川北路店)","lon":"121.484","lat":"31.2622","category":"68","category_name":"快餐厅","address":"虹口区四川北路1906弄100号(近多伦路)"},{"poiid":"B2094757D66FA2FC4099","title":"鱼林港","lon":"121.484525103","lat":"31.2620422471","category":"500","category_name":"未知分类","address":"上海四川北路东泰休闲广场"},{"poiid":"B2094654D56CA6FF449E","title":"泰业公寓","lon":"121.4856","lat":"31.260582","category":"47","category_name":"住宅区","address":"泰业公寓位于虹口四川北路1856弄20-22号"},{"poiid":"B2094757D569A3FD499B","title":"小胖子烧烤摊","lon":"121.4877469","lat":"31.26159194","category":"87","category_name":"特色／地方风味餐厅","address":"虹口区溧阳路1114号麦当劳门口(近四平路)"},{"poiid":"B2094757D06AA3F4459F","title":"多伦路粥摊","lon":"121.48199","lat":"31.2648","category":"68","category_name":"快餐厅","address":"虹口区多伦路250号对面(东江湾路口)"},{"poiid":"B2094750D768ABFE4999","title":"巴黎贝甜(四川北路店)","lon":"121.484","lat":"31.2619","category":"68","category_name":"快餐厅","address":"虹口区四川北路1885号多伦生活广场内(近多伦路)"},{"poiid":"B2094655D26CA0FD4499","title":"启秀坊","lon":"121.48587","lat":"31.2616","category":"47","category_name":"住宅区","address":"长春路214弄1-21号"},{"poiid":"B2094750D269A1FC4493","title":"荣欣大酒店","lon":"121.483675","lat":"31.261341","category":"76","category_name":"上海菜","address":"虹口区四川北路1851号5楼(近多伦路)"},{"poiid":"B2094757D068A4FB459D","title":"莉莲蛋挞(四川北路店)","lon":"121.48418","lat":"31.2606","category":"67","category_name":"甜品店","address":"虹口区四川北路1846号(近海伦路)"},{"poiid":"B2094753D269A1FB419C","title":"古徽州馄饨店","lon":"121.486998","lat":"31.260177","category":"247","category_name":"餐饮美食","address":"上海市 邢家桥北路158号"},{"poiid":"B2094757D069ABF54899","title":"Barba-baba台球馆","lon":"121.483850786","lat":"31.2615875487","category":"171","category_name":"台球厅","address":"上海多伦路"},{"poiid":"B2094654D56CA7FF409E","title":"邢长小区","lon":"121.48643","lat":"31.260311","category":"47","category_name":"住宅区","address":"长春路126弄1-4号"},{"poiid":"B2094757D16BA1FF479B","title":"多伦路口小吃摊","lon":"121.4859291","lat":"31.262087248","category":"247","category_name":"餐饮美食","address":"上海四川北路多伦路"},{"poiid":"B2094654D56CA7FE499F","title":"上海杰克形象设计连锁","lon":"121.48617","lat":"31.26057","category":"148","category_name":"美容美发店","address":""},{"poiid":"B2094757D069A3FE4299","title":"香港金龙船海鲜酒家","lon":"121.48849","lat":"31.26113","category":"72","category_name":"广东菜","address":"上海虹口区四平路257号虹口世纪大酒店3楼(近物华路)"},{"poiid":"B2094655D26AA1F44192","title":"虹口世纪大酒店宴会厅","lon":"121.48858","lat":"31.26202","category":"247","category_name":"餐饮美食","address":"虹口区溧阳路1111号虹口世纪大酒店内(近四平路)查看地图"},{"poiid":"B2094655D26CA0F94493","title":"启秀坊(西门)","lon":"121.48564","lat":"31.26162","category":"47","category_name":"住宅区","address":"长春路214弄1-21号"},{"poiid":"B2094757D068A6F4479E","title":"招商银行(川北支行)","lon":"121.48377719","lat":"31.261439893","category":"150","category_name":"银行","address":"上海虹口区四川北路1689号"},{"poiid":"B2094654DB69ABF9469D","title":"上海歌城(四川北路店)","lon":"121.48368","lat":"31.26186","category":"170","category_name":"KTV","address":"虹口区四川北路1885号多伦生活广场5楼(近多伦路)"},{"poiid":"B2094757D06EAAFD4893","title":"海伦路地铁站","lon":"121.48851616","lat":"31.259517259","category":"36","category_name":"地铁站","address":"上海轨道交通 四号线 十号线 轨交海伦路站 轻轨 4 10"},{"poiid":"B2094654D56CA7FA489F","title":"上海市第一人民医院分院","lon":"121.48416","lat":"31.2611","category":"162","category_name":"医院","address":"虹口区四川北路1878号2号楼7楼(近荣欣大酒店)"},{"poiid":"B2094757D06FA3F84392","title":"南华火锅(四川路店)","lon":"121.48408","lat":"31.26301","category":"86","category_name":"火锅店","address":"虹口区四川北路1975-1985号(长春路口)"},{"poiid":"B209475CD769A7F94093","title":"王子公主奇遇记主题KTV","lon":"121.488833","lat":"31.261971","category":"170","category_name":"KTV","address":"上海市虹口区四平路257号1-3楼(近溧阳路)"},{"poiid":"B2094654DB6AAAF84898","title":"美林阁 四平路店 MeiLinGe","lon":"121.489139054","lat":"31.262070793","category":"76","category_name":"上海菜","address":"虹口区四平路257号虹口世纪酒店1-2楼(近溧阳路)"},{"poiid":"B2094757D06FA5FF469A","title":"普乐迪量贩KTV","lon":"121.483738206","lat":"31.2622111583","category":"170","category_name":"KTV","address":"虹口区四川北路1915号时装大厦7楼(近多伦路)"},{"poiid":"B2094757D06EAAF9429B","title":"麦当劳(四平路店)","lon":"121.48855","lat":"31.26093","category":"68","category_name":"快餐厅","address":"虹口区溧阳路1114号(近四平路)"},{"poiid":"B2094757D068A1F8499E","title":"独门冲炭火自助烤肉","lon":"121.4837534","lat":"31.26218585","category":"268","category_name":"自助","address":"虹口区四川北路1885号多伦生活广场B1楼"},{"poiid":"B2094757D06FA6F94392","title":"四新食苑","lon":"121.48449","lat":"31.26215","category":"68","category_name":"快餐厅","address":"虹口区四川北路1908号(近多伦路)"},{"poiid":"B2094757D06BA7FB4298","title":"海伦路","lon":"121.488512","lat":"31.259589","category":"500","category_name":"未知分类","address":"上海海伦路"},{"poiid":"B2094757D168A3FA449B","title":"避风塘","lon":"121.484212703","lat":"31.2602332094","category":"500","category_name":"未知分类","address":"上海市虹口区四川北路1885号"},{"poiid":"B2094655D26AA0F9409E","title":"地铁海伦路站","lon":"121.48851233539108","lat":"31.259587013563777","category":"36","category_name":"地铁站","address":"上海轨道交通 四号线 轨交海伦路站 4"},{"poiid":"B2094757D068A3FA4398","title":"呷哺呷哺(虹口区多伦路店)","lon":"121.484077603","lat":"31.2612013296","category":"86","category_name":"火锅店","address":"虹口区四川北路1885号1楼101B室"},{"poiid":"B2094757D06FA5FF4893","title":"溧园咖啡","lon":"121.487339","lat":"31.262971","category":"260","category_name":"其他","address":"虹口区溧阳路1208弄5号老洋房花园内(四川北路四平路间)"},{"poiid":"B2094757D06FA0F94298","title":"望湘园(四川北路店)","lon":"121.48399","lat":"31.26204","category":"77","category_name":"湖南菜","address":"虹口区四川北路1941号金海岸大厦4楼(近多伦路)"},{"poiid":"B2094655D26DA4FB449A","title":"溧阳华府","lon":"121.48854","lat":"31.26298","category":"47","category_name":"住宅区","address":"上海市虹口区宝安路1号"},{"poiid":"B2094757D06FAAFE479D","title":"三商巧福(四川北路店)","lon":"121.48457","lat":"31.26162","category":"68","category_name":"快餐厅","address":"虹口区四川北路1840号(近海伦路)"},{"poiid":"B2094757D06FABF8439F","title":"虹叶花苑","lon":"121.48671","lat":"31.261433","category":"47","category_name":"住宅区","address":"上海虹口区长春路158号"},{"poiid":"B2094654DB6AAAF9429A","title":"傣妹(四川路二店)","lon":"121.48404","lat":"31.26201","category":"87","category_name":"特色／地方风味餐厅","address":"虹口区四川北路1898号3楼(近多伦路)"},{"poiid":"B2094757D06FA4F84993","title":"振鼎鸡(溧阳路店)","lon":"121.48465","lat":"31.26335","category":"68","category_name":"快餐厅","address":"虹口区溧阳路1400号(近四川北路)"},{"poiid":"B2094654DB6AA6FF449D","title":"上海虹叶酒店","lon":"121.48644","lat":"31.26183","category":"215","category_name":"三星级宾馆","address":"上海虹口区长春路158号(近溧阳路)"},{"poiid":"B2094757D469A5FF4699","title":"煲煲赞广东煲仔饭","lon":"121.486095","lat":"31.260743","category":"72","category_name":"广东菜","address":"虹口区长春路152号(近四川北路)"},{"poiid":"B2094757D06FA6F54193","title":"巴贝拉(四川北路店)","lon":"121.483688659","lat":"31.2617686525","category":"94","category_name":"西餐厅","address":"虹口区四川北路1885号多伦生活广场2楼(近多伦路)"},{"poiid":"B2094757D16AABFB449F","title":"溧阳路","lon":"121.486091","lat":"31.263604","category":"500","category_name":"未知分类","address":"上海溧阳路四川北路"},{"poiid":"B2094757D068AAF5469B","title":"美豪酒店多伦路店","lon":"121.4841961","lat":"31.262308252","category":"214","category_name":"四星级宾馆","address":"上海市虹口区四川北路1885号(近多伦路)"},{"poiid":"B2094654D56CA7FA4793","title":"维纳斯婚纱(四川北路)","lon":"121.48404","lat":"31.26183","category":"141","category_name":"服装鞋帽皮具店","address":"虹口区四川北路1888号(近多伦路)查看地图"},{"poiid":"B2094757D068A7FB4999","title":"面大王","lon":"121.48809","lat":"31.26132","category":"68","category_name":"快餐厅","address":"虹口区溧阳路1114弄4号(近四平路)"},{"poiid":"B2094757D06EAAFF4798","title":"新世界电影城","lon":"121.48867321","lat":"31.2608388428","category":"178","category_name":"电影院","address":"上海南京西路2～68号新世界城12楼"},{"poiid":"B2094654D56CA7FA499B","title":"上海市虹口区教育学院实验中学","lon":"121.48423","lat":"31.26054","category":"55","category_name":"中学","address":"虹口区四川北路1838号(近海伦路)"},{"poiid":"B2094655D26BA6F5439E","title":"红叶东苑","lon":"121.48651","lat":"31.26083","category":"47","category_name":"住宅区","address":"红叶东苑位于虹口长春路158号"},{"poiid":"B2094757D66EA6FB4498","title":"禧勃坊","lon":"121.4873048","lat":"31.261372533","category":"500","category_name":"未知分类","address":"上海虹口区多伦路文化名人街32号"},{"poiid":"B2094750D76EA3FE489F","title":"富源春鸡汤面(四川北路店)","lon":"121.484","lat":"31.2622","category":"68","category_name":"快餐厅","address":"虹口区四川北路1906弄100号(近多伦路)"},{"poiid":"B2094757D66FA2FC4099","title":"鱼林港","lon":"121.484525103","lat":"31.2620422471","category":"500","category_name":"未知分类","address":"上海四川北路东泰休闲广场"},{"poiid":"B2094654D56CA6FF449E","title":"泰业公寓","lon":"121.4856","lat":"31.260582","category":"47","category_name":"住宅区","address":"泰业公寓位于虹口四川北路1856弄20-22号"},{"poiid":"B2094757D569A3FD499B","title":"小胖子烧烤摊","lon":"121.4877469","lat":"31.26159194","category":"87","category_name":"特色／地方风味餐厅","address":"虹口区溧阳路1114号麦当劳门口(近四平路)"},{"poiid":"B2094757D06AA3F4459F","title":"多伦路粥摊","lon":"121.48199","lat":"31.2648","category":"68","category_name":"快餐厅","address":"虹口区多伦路250号对面(东江湾路口)"},{"poiid":"B2094750D768ABFE4999","title":"巴黎贝甜(四川北路店)","lon":"121.484","lat":"31.2619","category":"68","category_name":"快餐厅","address":"虹口区四川北路1885号多伦生活广场内(近多伦路)"},{"poiid":"B2094655D26CA0FD4499","title":"启秀坊","lon":"121.48587","lat":"31.2616","category":"47","category_name":"住宅区","address":"长春路214弄1-21号"},{"poiid":"B2094750D269A1FC4493","title":"荣欣大酒店","lon":"121.483675","lat":"31.261341","category":"76","category_name":"上海菜","address":"虹口区四川北路1851号5楼(近多伦路)"},{"poiid":"B2094757D068A4FB459D","title":"莉莲蛋挞(四川北路店)","lon":"121.48418","lat":"31.2606","category":"67","category_name":"甜品店","address":"虹口区四川北路1846号(近海伦路)"},{"poiid":"B2094753D269A1FB419C","title":"古徽州馄饨店","lon":"121.486998","lat":"31.260177","category":"247","category_name":"餐饮美食","address":"上海市 邢家桥北路158号"},{"poiid":"B2094757D069ABF54899","title":"Barba-baba台球馆","lon":"121.483850786","lat":"31.2615875487","category":"171","category_name":"台球厅","address":"上海多伦路"},{"poiid":"B2094654D56CA7FF409E","title":"邢长小区","lon":"121.48643","lat":"31.260311","category":"47","category_name":"住宅区","address":"长春路126弄1-4号"},{"poiid":"B2094757D16BA1FF479B","title":"多伦路口小吃摊","lon":"121.4859291","lat":"31.262087248","category":"247","category_name":"餐饮美食","address":"上海四川北路多伦路"},{"poiid":"B2094654D56CA7FE499F","title":"上海杰克形象设计连锁","lon":"121.48617","lat":"31.26057","category":"148","category_name":"美容美发店","address":""},{"poiid":"B2094757D069A3FE4299","title":"香港金龙船海鲜酒家","lon":"121.48849","lat":"31.26113","category":"72","category_name":"广东菜","address":"上海虹口区四平路257号虹口世纪大酒店3楼(近物华路)"},{"poiid":"B2094655D26AA1F44192","title":"虹口世纪大酒店宴会厅","lon":"121.48858","lat":"31.26202","category":"247","category_name":"餐饮美食","address":"虹口区溧阳路1111号虹口世纪大酒店内(近四平路)查看地图"},{"poiid":"B2094655D26CA0F94493","title":"启秀坊(西门)","lon":"121.48564","lat":"31.26162","category":"47","category_name":"住宅区","address":"长春路214弄1-21号"},{"poiid":"B2094757D068A6F4479E","title":"招商银行(川北支行)","lon":"121.48377719","lat":"31.261439893","category":"150","category_name":"银行","address":"上海虹口区四川北路1689号"}]