[{"poiid":"B2094757D06EAAFB4398","title":"邮电新村地铁站","lon":"121.49450107","lat":"31.268612797","category":"36","category_name":"地铁站","address":"上海轨道交通 十号线 轨交邮电新村站 10"},{"poiid":"B2094757D069A3FB4798","title":"四平路临平北路","lon":"121.4908431","lat":"31.264171","category":"260","category_name":"其他","address":"上海虹口区四平路临平北路"},{"poiid":"B2094757D06FA3FA489E","title":"瑞虹新城一期","lon":"121.495416194","lat":"31.263365933","category":"47","category_name":"住宅区","address":"上海市虹口区临平路333号"},{"poiid":"B2094757D06FABFD459D","title":"荣欣大厦","lon":"121.490138","lat":"31.26684","category":"252","category_name":"楼宇机构","address":"上海市四川北路1851号"},{"poiid":"B2094654D56DAAF4449D","title":"上海市地方税务局虹口区分局","lon":"121.49301","lat":"31.26348","category":"250","category_name":"公园户外","address":"虹口区临平北路35号"},{"poiid":"B2094751D56CABF8409A","title":"上海大饭堂(四平路店)","lon":"121.49058","lat":"31.26357","category":"76","category_name":"上海菜","address":"虹口区四平路216号新能源大厦内(近临平北路)"},{"poiid":"B2094654D56DABFA469D","title":"爱家国际大厦","lon":"121.498","lat":"31.2673","category":"46","category_name":"楼宇","address":"上海市虹口区物华路288号"},{"poiid":"B2094757D06FA5FE449E","title":"四平路曲阳路口","lon":"121.495693","lat":"31.269823","category":"500","category_name":"未知分类","address":"上海四平路曲阳路"},{"poiid":"B2094757D069AAF9479B","title":"老盛昌苏州汤包馆(临平店)","lon":"121.49756","lat":"31.26158","category":"68","category_name":"快餐厅","address":"虹口区临平路333号瑞虹新城正门旁(近天宝路)"},{"poiid":"B2094655D26AAAFD4492","title":"上海莫泰168连锁酒店四平路店","lon":"121.49122","lat":"31.26606","category":"250","category_name":"公园户外","address":"上海市虹口区四平路333号（近四达路）"},{"poiid":"B2094757D06BAAF4409F","title":"巨麦KTV","lon":"121.4916901","lat":"31.264270293","category":"170","category_name":"KTV","address":"虹口区物华路300号(近四平路)"},{"poiid":"B2094654DB6BA3F84993","title":"致真酒家 虹口店 Sincere Restaurant","lon":"121.490685054","lat":"31.263551793","category":"76","category_name":"上海菜","address":"虹口区四平路208号(近物华路)"},{"poiid":"B2094654D56DAAF44592","title":"渡边国际商务楼","lon":"121.49254932887084","lat":"31.263657606365875","category":"46","category_name":"楼宇","address":"上海市虹口区临平北路55号"},{"poiid":"B2094654D56DABF54398","title":"上海商贸大厦","lon":"121.497","lat":"31.2681","category":"46","category_name":"楼宇","address":"人民路885号-889号"},{"poiid":"B2094757DA6EAAF8439C","title":"深井大叔港式烧腊(瑞虹生活广场店)","lon":"121.49768","lat":"31.2613","category":"72","category_name":"广东菜","address":"虹口区临平路133弄瑞虹生活广场1-01室(近天宝路)"},{"poiid":"B2094654D56CA7FE4392","title":"龙邸大厦","lon":"121.495557","lat":"31.266546","category":"46","category_name":"楼宇","address":"徐汇区田林路388号"},{"poiid":"B2094757D164A7F5469B","title":"瑞虹新城","lon":"121.495373","lat":"31.263544","category":"47","category_name":"住宅区","address":"虹口区临平路333号"},{"poiid":"B2094757D068A1F5469B","title":"中国建设银行(临平路支行)","lon":"121.49348","lat":"31.26289","category":"150","category_name":"银行","address":"虹口区临平北路12号(临平北路临平路)"},{"poiid":"B2094654D56DABF5439E","title":"银欣花苑","lon":"121.49253","lat":"31.262911","category":"47","category_name":"住宅区","address":"临平北路36-58号,60弄1-8号"},{"poiid":"B2094757D06AAAF54798","title":"欧洲花园","lon":"121.492105","lat":"31.26443","category":"47","category_name":"住宅区","address":"上海临平北路89弄"},{"poiid":"B2094757D16CA3FA4992","title":"同济大学雅憩","lon":"121.49458812","lat":"31.266952489","category":"253","category_name":"校园生活","address":"上海同济大学四平路建筑与城规学苑"},{"poiid":"B2094757D66AA5FD4793","title":"次郎日式快餐 四平店","lon":"121.49134445846","lat":"31.265653123995","category":"68","category_name":"快餐厅","address":"虹口区四平路170号(近溧阳路)"},{"poiid":"B2094654D56DAAFC419A","title":"海事大厦","lon":"121.4972158025","lat":"31.268584709787","category":"46","category_name":"楼宇","address":"昌平区回龙观镇国际信息产业基地高新二街"},{"poiid":"B2094654D56DABF5469E","title":"盛泰国际大厦","lon":"121.49125","lat":"31.26289","category":"46","category_name":"楼宇","address":"上海市虹口区四平路200号"},{"poiid":"B2094757D06FA5F4409E","title":"JEANS108SALON(京世曲阳店)","lon":"121.49333","lat":"31.27012","category":"148","category_name":"美容美发店","address":"上海虹口区曲阳路108号(近四平路)"},{"poiid":"B2094757D16CA2FB4699","title":"福龙大厦","lon":"121.496","lat":"31.2681","category":"46","category_name":"楼宇","address":"上海市虹口区四平路277号"},{"poiid":"B2094757D069A1FA4492","title":"云酒楼","lon":"121.49545","lat":"31.26243","category":"260","category_name":"其他","address":"上海虹口区临平路303号(近天宝路瑞虹新城一期)  "},{"poiid":"B2094757D465ABFE469C","title":"重庆鸡公煲 临平路店","lon":"121.494897054","lat":"31.262573793","category":"71","category_name":"四川菜","address":"虹口区临平路78号(近天宝路)"},{"poiid":"B2094654D56DAAF5439C","title":"新陆花苑","lon":"121.49319","lat":"31.266626","category":"47","category_name":"住宅区","address":"莘华世家南园位于闵行莘西南路沁春路口"},{"poiid":"B2094654D56CA7FE409C","title":"喜临门大厦","lon":"121.496","lat":"31.2675","category":"46","category_name":"楼宇","address":"长宁路1158号贝多芬广场618室"},{"poiid":"B2094655D265A1F4479B","title":"新陸花苑(北2号门)","lon":"121.49311","lat":"31.26705","category":"47","category_name":"住宅区","address":"四平路480弄1-2号"},{"poiid":"B2094751D56AABFC4098","title":"康骏会馆","lon":"121.494596","lat":"31.266421","category":"248","category_name":"生活娱乐","address":"临平路133弄13号"},{"poiid":"B2094757DA64A6F5429B","title":"瑞虹新城铭庭","lon":"121.492920491457","lat":"31.26354000573943","category":"47","category_name":"住宅区","address":"虹口区天宝路181弄"},{"poiid":"B2094753D56AA3F84393","title":"五角场","lon":"121.492378","lat":"31.26682","category":"500","category_name":"未知分类","address":"上海市 淞沪路"},{"poiid":"B2094752DB65ABF5409E","title":"文艺小榴芒","lon":"121.492629","lat":"31.263812","category":"247","category_name":"餐饮美食","address":"上海市 临平路74号"},{"poiid":"B2094757D66EABFC449E","title":"85c","lon":"121.4939487","lat":"31.265484719","category":"500","category_name":"未知分类","address":"上海临平路333"},{"poiid":"B2094757D76CA3F84298","title":"卧云茶敘","lon":"121.493871","lat":"31.268995","category":"66","category_name":"茶艺馆","address":"虹口区曲阳路26号(近四平路)"},{"poiid":"B2094757D069A3FB459D","title":"一品干锅蛙","lon":"121.48837","lat":"31.26689","category":"71","category_name":"四川菜","address":"虹口区欧阳路196号法兰桥创意园1号楼2楼(近四达路)"},{"poiid":"B209475CDA6AA5FC4593","title":"许留山（瑞虹店）","lon":"121.494926","lat":"31.26576","category":"500","category_name":"未知分类","address":"上海市 上海市虹口区临平路123号瑞虹生活广场1楼"},{"poiid":"B2094654DB6BA3F9469C","title":"可的","lon":"121.49245","lat":"31.26651","category":"117","category_name":"便民商店/便利店","address":"虹口区四平路324号(近临平北路)"},{"poiid":"B2094757D069A0F94792","title":"临平路小吃摊","lon":"121.495465773","lat":"31.2624106022","category":"68","category_name":"快餐厅","address":"虹口区临平路333号瑞虹一期对面(近天宝路)"},{"poiid":"B2094757D568ABFA4398","title":"必胜客(临平北路店)","lon":"121.4923239","lat":"31.26388694","category":"68","category_name":"快餐厅","address":"临平北路55号"},{"poiid":"B2094757D66DA3FA419C","title":"1933老廠房","lon":"121.4938251","lat":"31.262522257","category":"500","category_name":"未知分类","address":"上海九龍路法拉利俱樂部"},{"poiid":"B2094654D56DAAFC4298","title":"虹诚大厦","lon":"121.49148","lat":"31.263783","category":"47","category_name":"住宅区","address":"上海虹诚大厦位于虹口临平北路88号"},{"poiid":"B2094757D06BA0FC429E","title":"玛萨SPA专业美容香熏生活馆(旗舰店)","lon":"121.4926","lat":"31.26603","category":"149","category_name":"洗浴推拿场所","address":"上海虹口区四平路293号(近临平路)  "},{"poiid":"B2094753D468ABFF459C","title":"上海黄浦江外滩","lon":"121.496299","lat":"31.264156","category":"500","category_name":"未知分类","address":"上海市 黄浦江"},{"poiid":"B2094654D56DAAF44292","title":"泾东工业园区","lon":"121.49419","lat":"31.26438","category":"45","category_name":"产业园区","address":"泾东路236号"},{"poiid":"B2094655D26AA4F5429B","title":"玛萨SPA专业美容香熏生活馆曲阳店","lon":"121.49359","lat":"31.26848","category":"247","category_name":"餐饮美食","address":"虹口区曲阳路1号(近四平路)"},{"poiid":"B2094654DB6AA3FB429B","title":"龟兔锅贴包子铺 临平北路店","lon":"121.490890054","lat":"31.264039793","category":"68","category_name":"快餐厅","address":"虹口区临平北路55号(近四平路)"},{"poiid":"B2094757D56CA0FC429B","title":"甜蜜生活 虹口店","lon":"121.498579054","lat":"31.261225793","category":"247","category_name":"餐饮美食","address":"临平路123号瑞虹生活广场1-16号近瑞虹路"},{"poiid":"B2094757D06EAAFB4398","title":"邮电新村地铁站","lon":"121.49450107","lat":"31.268612797","category":"36","category_name":"地铁站","address":"上海轨道交通 十号线 轨交邮电新村站 10"},{"poiid":"B2094757D069A3FB4798","title":"四平路临平北路","lon":"121.4908431","lat":"31.264171","category":"260","category_name":"其他","address":"上海虹口区四平路临平北路"},{"poiid":"B2094757D06FA3FA489E","title":"瑞虹新城一期","lon":"121.495416194","lat":"31.263365933","category":"47","category_name":"住宅区","address":"上海市虹口区临平路333号"},{"poiid":"B2094757D06FABFD459D","title":"荣欣大厦","lon":"121.490138","lat":"31.26684","category":"252","category_name":"楼宇机构","address":"上海市四川北路1851号"},{"poiid":"B2094654D56DAAF4449D","title":"上海市地方税务局虹口区分局","lon":"121.49301","lat":"31.26348","category":"250","category_name":"公园户外","address":"虹口区临平北路35号"},{"poiid":"B2094751D56CABF8409A","title":"上海大饭堂(四平路店)","lon":"121.49058","lat":"31.26357","category":"76","category_name":"上海菜","address":"虹口区四平路216号新能源大厦内(近临平北路)"},{"poiid":"B2094654D56DABFA469D","title":"爱家国际大厦","lon":"121.498","lat":"31.2673","category":"46","category_name":"楼宇","address":"上海市虹口区物华路288号"},{"poiid":"B2094757D06FA5FE449E","title":"四平路曲阳路口","lon":"121.495693","lat":"31.269823","category":"500","category_name":"未知分类","address":"上海四平路曲阳路"},{"poiid":"B2094757D069AAF9479B","title":"老盛昌苏州汤包馆(临平店)","lon":"121.49756","lat":"31.26158","category":"68","category_name":"快餐厅","address":"虹口区临平路333号瑞虹新城正门旁(近天宝路)"},{"poiid":"B2094655D26AAAFD4492","title":"上海莫泰168连锁酒店四平路店","lon":"121.49122","lat":"31.26606","category":"250","category_name":"公园户外","address":"上海市虹口区四平路333号（近四达路）"},{"poiid":"B2094757D06BAAF4409F","title":"巨麦KTV","lon":"121.4916901","lat":"31.264270293","category":"170","category_name":"KTV","address":"虹口区物华路300号(近四平路)"},{"poiid":"B2094654DB6BA3F84993","title":"致真酒家 虹口店 Sincere Restaurant","lon":"121.490685054","lat":"31.263551793","category":"76","category_name":"上海菜","address":"虹口区四平路208号(近物华路)"},{"poiid":"B2094654D56DAAF44592","title":"渡边国际商务楼","lon":"121.49254932887084","lat":"31.263657606365875","category":"46","category_name":"楼宇","address":"上海市虹口区临平北路55号"},{"poiid":"B2094654D56DABF54398","title":"上海商贸大厦","lon":"121.497","lat":"31.2681","category":"46","category_name":"楼宇","address":"人民路885号-889号"},{"poiid":"B2094757DA6EAAF8439C","title":"深井大叔港式烧腊(瑞虹生活广场店)","lon":"121.49768","lat":"31.2613","category":"72","category_name":"广东菜","address":"虹口区临平路133弄瑞虹生活广场1-01室(近天宝路)"},{"poiid":"B2094654D56CA7FE4392","title":"龙邸大厦","lon":"121.495557","lat":"31.266546","category":"46","category_name":"楼宇","address":"徐汇区田林路388号"},{"poiid":"B2094757D164A7F5469B","title":"瑞虹新城","lon":"121.495373","lat":"31.263544","category":"47","category_name":"住宅区","address":"虹口区临平路333号"},{"poiid":"B2094757D068A1F5469B","title":"中国建设银行(临平路支行)","lon":"121.49348","lat":"31.26289","category":"150","category_name":"银行","address":"虹口区临平北路12号(临平北路临平路)"},{"poiid":"B2094654D56DABF5439E","title":"银欣花苑","lon":"121.49253","lat":"31.262911","category":"47","category_name":"住宅区","address":"临平北路36-58号,60弄1-8号"},{"poiid":"B2094757D06AAAF54798","title":"欧洲花园","lon":"121.492105","lat":"31.26443","category":"47","category_name":"住宅区","address":"上海临平北路89弄"},{"poiid":"B2094757D16CA3FA4992","title":"同济大学雅憩","lon":"121.49458812","lat":"31.266952489","category":"253","category_name":"校园生活","address":"上海同济大学四平路建筑与城规学苑"},{"poiid":"B2094757D66AA5FD4793","title":"次郎日式快餐 四平店","lon":"121.49134445846","lat":"31.265653123995","category":"68","category_name":"快餐厅","address":"虹口区四平路170号(近溧阳路)"},{"poiid":"B2094654D56DAAFC419A","title":"海事大厦","lon":"121.4972158025","lat":"31.268584709787","category":"46","category_name":"楼宇","address":"昌平区回龙观镇国际信息产业基地高新二街"},{"poiid":"B2094654D56DABF5469E","title":"盛泰国际大厦","lon":"121.49125","lat":"31.26289","category":"46","category_name":"楼宇","address":"上海市虹口区四平路200号"},{"poiid":"B2094757D06FA5F4409E","title":"JEANS108SALON(京世曲阳店)","lon":"121.49333","lat":"31.27012","category":"148","category_name":"美容美发店","address":"上海虹口区曲阳路108号(近四平路)"},{"poiid":"B2094757D16CA2FB4699","title":"福龙大厦","lon":"121.496","lat":"31.2681","category":"46","category_name":"楼宇","address":"上海市虹口区四平路277号"},{"poiid":"B2094757D069A1FA4492","title":"云酒楼","lon":"121.49545","lat":"31.26243","category":"260","category_name":"其他","address":"上海虹口区临平路303号(近天宝路瑞虹新城一期)  "},{"poiid":"B2094757D465ABFE469C","title":"重庆鸡公煲 临平路店","lon":"121.494897054","lat":"31.262573793","category":"71","category_name":"四川菜","address":"虹口区临平路78号(近天宝路)"},{"poiid":"B2094654D56DAAF5439C","title":"新陆花苑","lon":"121.49319","lat":"31.266626","category":"47","category_name":"住宅区","address":"莘华世家南园位于闵行莘西南路沁春路口"},{"poiid":"B2094654D56CA7FE409C","title":"喜临门大厦","lon":"121.496","lat":"31.2675","category":"46","category_name":"楼宇","address":"长宁路1158号贝多芬广场618室"},{"poiid":"B2094655D265A1F4479B","title":"新陸花苑(北2号门)","lon":"121.49311","lat":"31.26705","category":"47","category_name":"住宅区","address":"四平路480弄1-2号"},{"poiid":"B2094751D56AABFC4098","title":"康骏会馆","lon":"121.494596","lat":"31.266421","category":"248","category_name":"生活娱乐","address":"临平路133弄13号"},{"poiid":"B2094757DA64A6F5429B","title":"瑞虹新城铭庭","lon":"121.492920491457","lat":"31.26354000573943","category":"47","category_name":"住宅区","address":"虹口区天宝路181弄"},{"poiid":"B2094753D56AA3F84393","title":"五角场","lon":"121.492378","lat":"31.26682","category":"500","category_name":"未知分类","address":"上海市 淞沪路"},{"poiid":"B2094752DB65ABF5409E","title":"文艺小榴芒","lon":"121.492629","lat":"31.263812","category":"247","category_name":"餐饮美食","address":"上海市 临平路74号"},{"poiid":"B2094757D66EABFC449E","title":"85c","lon":"121.4939487","lat":"31.265484719","category":"500","category_name":"未知分类","address":"上海临平路333"},{"poiid":"B2094757D76CA3F84298","title":"卧云茶敘","lon":"121.493871","lat":"31.268995","category":"66","category_name":"茶艺馆","address":"虹口区曲阳路26号(近四平路)"},{"poiid":"B2094757D069A3FB459D","title":"一品干锅蛙","lon":"121.48837","lat":"31.26689","category":"71","category_name":"四川菜","address":"虹口区欧阳路196号法兰桥创意园1号楼2楼(近四达路)"},{"poiid":"B209475CDA6AA5FC4593","title":"许留山（瑞虹店）","lon":"121.494926","lat":"31.26576","category":"500","category_name":"未知分类","address":"上海市 上海市虹口区临平路123号瑞虹生活广场1楼"},{"poiid":"B2094654DB6BA3F9469C","title":"可的","lon":"121.49245","lat":"31.26651","category":"117","category_name":"便民商店/便利店","address":"虹口区四平路324号(近临平北路)"},{"poiid":"B2094757D069A0F94792","title":"临平路小吃摊","lon":"121.495465773","lat":"31.2624106022","category":"68","category_name":"快餐厅","address":"虹口区临平路333号瑞虹一期对面(近天宝路)"},{"poiid":"B2094757D568ABFA4398","title":"必胜客(临平北路店)","lon":"121.4923239","lat":"31.26388694","category":"68","category_name":"快餐厅","address":"临平北路55号"},{"poiid":"B2094757D66DA3FA419C","title":"1933老廠房","lon":"121.4938251","lat":"31.262522257","category":"500","category_name":"未知分类","address":"上海九龍路法拉利俱樂部"},{"poiid":"B2094654D56DAAFC4298","title":"虹诚大厦","lon":"121.49148","lat":"31.263783","category":"47","category_name":"住宅区","address":"上海虹诚大厦位于虹口临平北路88号"},{"poiid":"B2094757D06BA0FC429E","title":"玛萨SPA专业美容香熏生活馆(旗舰店)","lon":"121.4926","lat":"31.26603","category":"149","category_name":"洗浴推拿场所","address":"上海虹口区四平路293号(近临平路)  "},{"poiid":"B2094753D468ABFF459C","title":"上海黄浦江外滩","lon":"121.496299","lat":"31.264156","category":"500","category_name":"未知分类","address":"上海市 黄浦江"},{"poiid":"B2094654D56DAAF44292","title":"泾东工业园区","lon":"121.49419","lat":"31.26438","category":"45","category_name":"产业园区","address":"泾东路236号"},{"poiid":"B2094655D26AA4F5429B","title":"玛萨SPA专业美容香熏生活馆曲阳店","lon":"121.49359","lat":"31.26848","category":"247","category_name":"餐饮美食","address":"虹口区曲阳路1号(近四平路)"},{"poiid":"B2094654DB6AA3FB429B","title":"龟兔锅贴包子铺 临平北路店","lon":"121.490890054","lat":"31.264039793","category":"68","category_name":"快餐厅","address":"虹口区临平北路55号(近四平路)"},{"poiid":"B2094757D56CA0FC429B","title":"甜蜜生活 虹口店","lon":"121.498579054","lat":"31.261225793","category":"247","category_name":"餐饮美食","address":"临平路123号瑞虹生活广场1-16号近瑞虹路"},{"poiid":"B2094757D06EAAFB4398","title":"邮电新村地铁站","lon":"121.49450107","lat":"31.268612797","category":"36","category_name":"地铁站","address":"上海轨道交通 十号线 轨交邮电新村站 10"},{"poiid":"B2094757D069A3FB4798","title":"四平路临平北路","lon":"121.4908431","lat":"31.264171","category":"260","category_name":"其他","address":"上海虹口区四平路临平北路"},{"poiid":"B2094757D06FA3FA489E","title":"瑞虹新城一期","lon":"121.495416194","lat":"31.263365933","category":"47","category_name":"住宅区","address":"上海市虹口区临平路333号"},{"poiid":"B2094757D06FABFD459D","title":"荣欣大厦","lon":"121.490138","lat":"31.26684","category":"252","category_name":"楼宇机构","address":"上海市四川北路1851号"},{"poiid":"B2094654D56DAAF4449D","title":"上海市地方税务局虹口区分局","lon":"121.49301","lat":"31.26348","category":"250","category_name":"公园户外","address":"虹口区临平北路35号"},{"poiid":"B2094751D56CABF8409A","title":"上海大饭堂(四平路店)","lon":"121.49058","lat":"31.26357","category":"76","category_name":"上海菜","address":"虹口区四平路216号新能源大厦内(近临平北路)"},{"poiid":"B2094654D56DABFA469D","title":"爱家国际大厦","lon":"121.498","lat":"31.2673","category":"46","category_name":"楼宇","address":"上海市虹口区物华路288号"},{"poiid":"B2094757D06FA5FE449E","title":"四平路曲阳路口","lon":"121.495693","lat":"31.269823","category":"500","category_name":"未知分类","address":"上海四平路曲阳路"},{"poiid":"B2094757D069AAF9479B","title":"老盛昌苏州汤包馆(临平店)","lon":"121.49756","lat":"31.26158","category":"68","category_name":"快餐厅","address":"虹口区临平路333号瑞虹新城正门旁(近天宝路)"},{"poiid":"B2094655D26AAAFD4492","title":"上海莫泰168连锁酒店四平路店","lon":"121.49122","lat":"31.26606","category":"250","category_name":"公园户外","address":"上海市虹口区四平路333号（近四达路）"},{"poiid":"B2094757D06BAAF4409F","title":"巨麦KTV","lon":"121.4916901","lat":"31.264270293","category":"170","category_name":"KTV","address":"虹口区物华路300号(近四平路)"},{"poiid":"B2094654DB6BA3F84993","title":"致真酒家 虹口店 Sincere Restaurant","lon":"121.490685054","lat":"31.263551793","category":"76","category_name":"上海菜","address":"虹口区四平路208号(近物华路)"},{"poiid":"B2094654D56DAAF44592","title":"渡边国际商务楼","lon":"121.49254932887084","lat":"31.263657606365875","category":"46","category_name":"楼宇","address":"上海市虹口区临平北路55号"},{"poiid":"B2094654D56DABF54398","title":"上海商贸大厦","lon":"121.497","lat":"31.2681","category":"46","category_name":"楼宇","address":"人民路885号-889号"},{"poiid":"B2094757DA6EAAF8439C","title":"深井大叔港式烧腊(瑞虹生活广场店)","lon":"121.49768","lat":"31.2613","category":"72","category_name":"广东菜","address":"虹口区临平路133弄瑞虹生活广场1-01室(近天宝路)"},{"poiid":"B2094654D56CA7FE4392","title":"龙邸大厦","lon":"121.495557","lat":"31.266546","category":"46","category_name":"楼宇","address":"徐汇区田林路388号"},{"poiid":"B2094757D164A7F5469B","title":"瑞虹新城","lon":"121.495373","lat":"31.263544","category":"47","category_name":"住宅区","address":"虹口区临平路333号"},{"poiid":"B2094757D068A1F5469B","title":"中国建设银行(临平路支行)","lon":"121.49348","lat":"31.26289","category":"150","category_name":"银行","address":"虹口区临平北路12号(临平北路临平路)"},{"poiid":"B2094654D56DABF5439E","title":"银欣花苑","lon":"121.49253","lat":"31.262911","category":"47","category_name":"住宅区","address":"临平北路36-58号,60弄1-8号"},{"poiid":"B2094757D06AAAF54798","title":"欧洲花园","lon":"121.492105","lat":"31.26443","category":"47","category_name":"住宅区","address":"上海临平北路89弄"},{"poiid":"B2094757D16CA3FA4992","title":"同济大学雅憩","lon":"121.49458812","lat":"31.266952489","category":"253","category_name":"校园生活","address":"上海同济大学四平路建筑与城规学苑"},{"poiid":"B2094757D66AA5FD4793","title":"次郎日式快餐 四平店","lon":"121.49134445846","lat":"31.265653123995","category":"68","category_name":"快餐厅","address":"虹口区四平路170号(近溧阳路)"},{"poiid":"B2094654D56DAAFC419A","title":"海事大厦","lon":"121.4972158025","lat":"31.268584709787","category":"46","category_name":"楼宇","address":"昌平区回龙观镇国际信息产业基地高新二街"},{"poiid":"B2094654D56DABF5469E","title":"盛泰国际大厦","lon":"121.49125","lat":"31.26289","category":"46","category_name":"楼宇","address":"上海市虹口区四平路200号"},{"poiid":"B2094757D06FA5F4409E","title":"JEANS108SALON(京世曲阳店)","lon":"121.49333","lat":"31.27012","category":"148","category_name":"美容美发店","address":"上海虹口区曲阳路108号(近四平路)"},{"poiid":"B2094757D16CA2FB4699","title":"福龙大厦","lon":"121.496","lat":"31.2681","category":"46","category_name":"楼宇","address":"上海市虹口区四平路277号"},{"poiid":"B2094757D069A1FA4492","title":"云酒楼","lon":"121.49545","lat":"31.26243","category":"260","category_name":"其他","address":"上海虹口区临平路303号(近天宝路瑞虹新城一期)  "},{"poiid":"B2094757D465ABFE469C","title":"重庆鸡公煲 临平路店","lon":"121.494897054","lat":"31.262573793","category":"71","category_name":"四川菜","address":"虹口区临平路78号(近天宝路)"},{"poiid":"B2094654D56DAAF5439C","title":"新陆花苑","lon":"121.49319","lat":"31.266626","category":"47","category_name":"住宅区","address":"莘华世家南园位于闵行莘西南路沁春路口"},{"poiid":"B2094654D56CA7FE409C","title":"喜临门大厦","lon":"121.496","lat":"31.2675","category":"46","category_name":"楼宇","address":"长宁路1158号贝多芬广场618室"},{"poiid":"B2094655D265A1F4479B","title":"新陸花苑(北2号门)","lon":"121.49311","lat":"31.26705","category":"47","category_name":"住宅区","address":"四平路480弄1-2号"},{"poiid":"B2094751D56AABFC4098","title":"康骏会馆","lon":"121.494596","lat":"31.266421","category":"248","category_name":"生活娱乐","address":"临平路133弄13号"},{"poiid":"B2094757DA64A6F5429B","title":"瑞虹新城铭庭","lon":"121.492920491457","lat":"31.26354000573943","category":"47","category_name":"住宅区","address":"虹口区天宝路181弄"},{"poiid":"B2094753D56AA3F84393","title":"五角场","lon":"121.492378","lat":"31.26682","category":"500","category_name":"未知分类","address":"上海市 淞沪路"},{"poiid":"B2094752DB65ABF5409E","title":"文艺小榴芒","lon":"121.492629","lat":"31.263812","category":"247","category_name":"餐饮美食","address":"上海市 临平路74号"},{"poiid":"B2094757D66EABFC449E","title":"85c","lon":"121.4939487","lat":"31.265484719","category":"500","category_name":"未知分类","address":"上海临平路333"},{"poiid":"B2094757D76CA3F84298","title":"卧云茶敘","lon":"121.493871","lat":"31.268995","category":"66","category_name":"茶艺馆","address":"虹口区曲阳路26号(近四平路)"},{"poiid":"B2094757D069A3FB459D","title":"一品干锅蛙","lon":"121.48837","lat":"31.26689","category":"71","category_name":"四川菜","address":"虹口区欧阳路196号法兰桥创意园1号楼2楼(近四达路)"},{"poiid":"B209475CDA6AA5FC4593","title":"许留山（瑞虹店）","lon":"121.494926","lat":"31.26576","category":"500","category_name":"未知分类","address":"上海市 上海市虹口区临平路123号瑞虹生活广场1楼"},{"poiid":"B2094654DB6BA3F9469C","title":"可的","lon":"121.49245","lat":"31.26651","category":"117","category_name":"便民商店/便利店","address":"虹口区四平路324号(近临平北路)"},{"poiid":"B2094757D069A0F94792","title":"临平路小吃摊","lon":"121.495465773","lat":"31.2624106022","category":"68","category_name":"快餐厅","address":"虹口区临平路333号瑞虹一期对面(近天宝路)"},{"poiid":"B2094757D568ABFA4398","title":"必胜客(临平北路店)","lon":"121.4923239","lat":"31.26388694","category":"68","category_name":"快餐厅","address":"临平北路55号"},{"poiid":"B2094757D66DA3FA419C","title":"1933老廠房","lon":"121.4938251","lat":"31.262522257","category":"500","category_name":"未知分类","address":"上海九龍路法拉利俱樂部"},{"poiid":"B2094654D56DAAFC4298","title":"虹诚大厦","lon":"121.49148","lat":"31.263783","category":"47","category_name":"住宅区","address":"上海虹诚大厦位于虹口临平北路88号"},{"poiid":"B2094757D06BA0FC429E","title":"玛萨SPA专业美容香熏生活馆(旗舰店)","lon":"121.4926","lat":"31.26603","category":"149","category_name":"洗浴推拿场所","address":"上海虹口区四平路293号(近临平路)  "},{"poiid":"B2094753D468ABFF459C","title":"上海黄浦江外滩","lon":"121.496299","lat":"31.264156","category":"500","category_name":"未知分类","address":"上海市 黄浦江"},{"poiid":"B2094654D56DAAF44292","title":"泾东工业园区","lon":"121.49419","lat":"31.26438","category":"45","category_name":"产业园区","address":"泾东路236号"},{"poiid":"B2094655D26AA4F5429B","title":"玛萨SPA专业美容香熏生活馆曲阳店","lon":"121.49359","lat":"31.26848","category":"247","category_name":"餐饮美食","address":"虹口区曲阳路1号(近四平路)"},{"poiid":"B2094654DB6AA3FB429B","title":"龟兔锅贴包子铺 临平北路店","lon":"121.490890054","lat":"31.264039793","category":"68","category_name":"快餐厅","address":"虹口区临平北路55号(近四平路)"},{"poiid":"B2094757D56CA0FC429B","title":"甜蜜生活 虹口店","lon":"121.498579054","lat":"31.261225793","category":"247","category_name":"餐饮美食","address":"临平路123号瑞虹生活广场1-16号近瑞虹路"},{"poiid":"B2094757D06EAAFB4398","title":"邮电新村地铁站","lon":"121.49450107","lat":"31.268612797","category":"36","category_name":"地铁站","address":"上海轨道交通 十号线 轨交邮电新村站 10"},{"poiid":"B2094757D069A3FB4798","title":"四平路临平北路","lon":"121.4908431","lat":"31.264171","category":"260","category_name":"其他","address":"上海虹口区四平路临平北路"},{"poiid":"B2094757D06FA3FA489E","title":"瑞虹新城一期","lon":"121.495416194","lat":"31.263365933","category":"47","category_name":"住宅区","address":"上海市虹口区临平路333号"},{"poiid":"B2094757D06FABFD459D","title":"荣欣大厦","lon":"121.490138","lat":"31.26684","category":"252","category_name":"楼宇机构","address":"上海市四川北路1851号"},{"poiid":"B2094654D56DAAF4449D","title":"上海市地方税务局虹口区分局","lon":"121.49301","lat":"31.26348","category":"250","category_name":"公园户外","address":"虹口区临平北路35号"},{"poiid":"B2094751D56CABF8409A","title":"上海大饭堂(四平路店)","lon":"121.49058","lat":"31.26357","category":"76","category_name":"上海菜","address":"虹口区四平路216号新能源大厦内(近临平北路)"},{"poiid":"B2094654D56DABFA469D","title":"爱家国际大厦","lon":"121.498","lat":"31.2673","category":"46","category_name":"楼宇","address":"上海市虹口区物华路288号"},{"poiid":"B2094757D06FA5FE449E","title":"四平路曲阳路口","lon":"121.495693","lat":"31.269823","category":"500","category_name":"未知分类","address":"上海四平路曲阳路"},{"poiid":"B2094757D069AAF9479B","title":"老盛昌苏州汤包馆(临平店)","lon":"121.49756","lat":"31.26158","category":"68","category_name":"快餐厅","address":"虹口区临平路333号瑞虹新城正门旁(近天宝路)"},{"poiid":"B2094655D26AAAFD4492","title":"上海莫泰168连锁酒店四平路店","lon":"121.49122","lat":"31.26606","category":"250","category_name":"公园户外","address":"上海市虹口区四平路333号（近四达路）"},{"poiid":"B2094757D06BAAF4409F","title":"巨麦KTV","lon":"121.4916901","lat":"31.264270293","category":"170","category_name":"KTV","address":"虹口区物华路300号(近四平路)"},{"poiid":"B2094654DB6BA3F84993","title":"致真酒家 虹口店 Sincere Restaurant","lon":"121.490685054","lat":"31.263551793","category":"76","category_name":"上海菜","address":"虹口区四平路208号(近物华路)"},{"poiid":"B2094654D56DAAF44592","title":"渡边国际商务楼","lon":"121.49254932887084","lat":"31.263657606365875","category":"46","category_name":"楼宇","address":"上海市虹口区临平北路55号"},{"poiid":"B2094654D56DABF54398","title":"上海商贸大厦","lon":"121.497","lat":"31.2681","category":"46","category_name":"楼宇","address":"人民路885号-889号"},{"poiid":"B2094757DA6EAAF8439C","title":"深井大叔港式烧腊(瑞虹生活广场店)","lon":"121.49768","lat":"31.2613","category":"72","category_name":"广东菜","address":"虹口区临平路133弄瑞虹生活广场1-01室(近天宝路)"},{"poiid":"B2094654D56CA7FE4392","title":"龙邸大厦","lon":"121.495557","lat":"31.266546","category":"46","category_name":"楼宇","address":"徐汇区田林路388号"},{"poiid":"B2094757D164A7F5469B","title":"瑞虹新城","lon":"121.495373","lat":"31.263544","category":"47","category_name":"住宅区","address":"虹口区临平路333号"},{"poiid":"B2094757D068A1F5469B","title":"中国建设银行(临平路支行)","lon":"121.49348","lat":"31.26289","category":"150","category_name":"银行","address":"虹口区临平北路12号(临平北路临平路)"},{"poiid":"B2094654D56DABF5439E","title":"银欣花苑","lon":"121.49253","lat":"31.262911","category":"47","category_name":"住宅区","address":"临平北路36-58号,60弄1-8号"},{"poiid":"B2094757D06AAAF54798","title":"欧洲花园","lon":"121.492105","lat":"31.26443","category":"47","category_name":"住宅区","address":"上海临平北路89弄"},{"poiid":"B2094757D16CA3FA4992","title":"同济大学雅憩","lon":"121.49458812","lat":"31.266952489","category":"253","category_name":"校园生活","address":"上海同济大学四平路建筑与城规学苑"},{"poiid":"B2094757D66AA5FD4793","title":"次郎日式快餐 四平店","lon":"121.49134445846","lat":"31.265653123995","category":"68","category_name":"快餐厅","address":"虹口区四平路170号(近溧阳路)"},{"poiid":"B2094654D56DAAFC419A","title":"海事大厦","lon":"121.4972158025","lat":"31.268584709787","category":"46","category_name":"楼宇","address":"昌平区回龙观镇国际信息产业基地高新二街"},{"poiid":"B2094654D56DABF5469E","title":"盛泰国际大厦","lon":"121.49125","lat":"31.26289","category":"46","category_name":"楼宇","address":"上海市虹口区四平路200号"},{"poiid":"B2094757D06FA5F4409E","title":"JEANS108SALON(京世曲阳店)","lon":"121.49333","lat":"31.27012","category":"148","category_name":"美容美发店","address":"上海虹口区曲阳路108号(近四平路)"},{"poiid":"B2094757D16CA2FB4699","title":"福龙大厦","lon":"121.496","lat":"31.2681","category":"46","category_name":"楼宇","address":"上海市虹口区四平路277号"},{"poiid":"B2094757D069A1FA4492","title":"云酒楼","lon":"121.49545","lat":"31.26243","category":"260","category_name":"其他","address":"上海虹口区临平路303号(近天宝路瑞虹新城一期)  "},{"poiid":"B2094757D465ABFE469C","title":"重庆鸡公煲 临平路店","lon":"121.494897054","lat":"31.262573793","category":"71","category_name":"四川菜","address":"虹口区临平路78号(近天宝路)"},{"poiid":"B2094654D56DAAF5439C","title":"新陆花苑","lon":"121.49319","lat":"31.266626","category":"47","category_name":"住宅区","address":"莘华世家南园位于闵行莘西南路沁春路口"},{"poiid":"B2094654D56CA7FE409C","title":"喜临门大厦","lon":"121.496","lat":"31.2675","category":"46","category_name":"楼宇","address":"长宁路1158号贝多芬广场618室"},{"poiid":"B2094655D265A1F4479B","title":"新陸花苑(北2号门)","lon":"121.49311","lat":"31.26705","category":"47","category_name":"住宅区","address":"四平路480弄1-2号"},{"poiid":"B2094751D56AABFC4098","title":"康骏会馆","lon":"121.494596","lat":"31.266421","category":"248","category_name":"生活娱乐","address":"临平路133弄13号"},{"poiid":"B2094757DA64A6F5429B","title":"瑞虹新城铭庭","lon":"121.492920491457","lat":"31.26354000573943","category":"47","category_name":"住宅区","address":"虹口区天宝路181弄"},{"poiid":"B2094753D56AA3F84393","title":"五角场","lon":"121.492378","lat":"31.26682","category":"500","category_name":"未知分类","address":"上海市 淞沪路"},{"poiid":"B2094752DB65ABF5409E","title":"文艺小榴芒","lon":"121.492629","lat":"31.263812","category":"247","category_name":"餐饮美食","address":"上海市 临平路74号"},{"poiid":"B2094757D66EABFC449E","title":"85c","lon":"121.4939487","lat":"31.265484719","category":"500","category_name":"未知分类","address":"上海临平路333"},{"poiid":"B2094757D76CA3F84298","title":"卧云茶敘","lon":"121.493871","lat":"31.268995","category":"66","category_name":"茶艺馆","address":"虹口区曲阳路26号(近四平路)"},{"poiid":"B2094757D069A3FB459D","title":"一品干锅蛙","lon":"121.48837","lat":"31.26689","category":"71","category_name":"四川菜","address":"虹口区欧阳路196号法兰桥创意园1号楼2楼(近四达路)"},{"poiid":"B209475CDA6AA5FC4593","title":"许留山（瑞虹店）","lon":"121.494926","lat":"31.26576","category":"500","category_name":"未知分类","address":"上海市 上海市虹口区临平路123号瑞虹生活广场1楼"},{"poiid":"B2094654DB6BA3F9469C","title":"可的","lon":"121.49245","lat":"31.26651","category":"117","category_name":"便民商店/便利店","address":"虹口区四平路324号(近临平北路)"},{"poiid":"B2094757D069A0F94792","title":"临平路小吃摊","lon":"121.495465773","lat":"31.2624106022","category":"68","category_name":"快餐厅","address":"虹口区临平路333号瑞虹一期对面(近天宝路)"},{"poiid":"B2094757D568ABFA4398","title":"必胜客(临平北路店)","lon":"121.4923239","lat":"31.26388694","category":"68","category_name":"快餐厅","address":"临平北路55号"},{"poiid":"B2094757D66DA3FA419C","title":"1933老廠房","lon":"121.4938251","lat":"31.262522257","category":"500","category_name":"未知分类","address":"上海九龍路法拉利俱樂部"},{"poiid":"B2094654D56DAAFC4298","title":"虹诚大厦","lon":"121.49148","lat":"31.263783","category":"47","category_name":"住宅区","address":"上海虹诚大厦位于虹口临平北路88号"},{"poiid":"B2094757D06BA0FC429E","title":"玛萨SPA专业美容香熏生活馆(旗舰店)","lon":"121.4926","lat":"31.26603","category":"149","category_name":"洗浴推拿场所","address":"上海虹口区四平路293号(近临平路)  "},{"poiid":"B2094753D468ABFF459C","title":"上海黄浦江外滩","lon":"121.496299","lat":"31.264156","category":"500","category_name":"未知分类","address":"上海市 黄浦江"},{"poiid":"B2094654D56DAAF44292","title":"泾东工业园区","lon":"121.49419","lat":"31.26438","category":"45","category_name":"产业园区","address":"泾东路236号"},{"poiid":"B2094655D26AA4F5429B","title":"玛萨SPA专业美容香熏生活馆曲阳店","lon":"121.49359","lat":"31.26848","category":"247","category_name":"餐饮美食","address":"虹口区曲阳路1号(近四平路)"},{"poiid":"B2094654DB6AA3FB429B","title":"龟兔锅贴包子铺 临平北路店","lon":"121.490890054","lat":"31.264039793","category":"68","category_name":"快餐厅","address":"虹口区临平北路55号(近四平路)"},{"poiid":"B2094757D56CA0FC429B","title":"甜蜜生活 虹口店","lon":"121.498579054","lat":"31.261225793","category":"247","category_name":"餐饮美食","address":"临平路123号瑞虹生活广场1-16号近瑞虹路"}]