[{"poiid":"B2094757D06FA7FD4293","title":"通北路海鲜","lon":"121.521346","lat":"31.25516","category":"68","category_name":"快餐厅","address":"杨浦区通北路176号(近平凉路)"},{"poiid":"B2094757D06EAAFF479A","title":"杨树浦路地铁站","lon":"121.51719604","lat":"31.252407847","category":"36","category_name":"地铁站","address":"上海轨道交通 四号线 轨交杨树浦路站 轻轨 4"},{"poiid":"B2094757D06FA3FA4993","title":"老四烧烤(通北路店)","lon":"121.52195","lat":"31.25455","category":"68","category_name":"快餐厅","address":"杨浦区通北路183号(平凉路口)"},{"poiid":"B209475CD564A7F84392","title":"上海滩浦东香格里拉店","lon":"121.50058","lat":"31.23634","category":"119","category_name":"商场","address":"浦东富成路33号香格里拉酒店内大堂层"},{"poiid":"B2094757D06FA0FA489F","title":"秦皇岛路轮渡站","lon":"121.51639044","lat":"31.249174771","category":"35","category_name":"长途汽车站","address":"上海虹口区秦皇岛路1号"},{"poiid":"B2094757D16CABF8439C","title":"老四海鮮","lon":"121.521366103","lat":"31.2538765766","category":"247","category_name":"餐饮美食","address":"上海楊浦區通北路"},{"poiid":"B2094757D065A5FA449E","title":"阿根廷庄园","lon":"121.517910103","lat":"31.2503280024","category":"94","category_name":"西餐厅","address":"杨浦区秦皇岛路32号19幢(近北外滩东码头)"},{"poiid":"B2094655D26BA1FC479B","title":"平凉路通北路","lon":"121.52108","lat":"31.25504","category":"38","category_name":"公交车站","address":""},{"poiid":"B2094654DA69AAFB4798","title":"裕景国际","lon":"121.52645574206","lat":"31.248226919703","category":"46","category_name":"楼宇","address":"东方路69号"},{"poiid":"B2094757D16DABF9429A","title":"浦江游览","lon":"121.516154","lat":"31.249603","category":"607","category_name":"一般景点","address":"上海秦皇岛"},{"poiid":"B2094757D068A7FF4499","title":"老板娘海鲜大排档","lon":"121.52253","lat":"31.25424","category":"260","category_name":"其他","address":"通北路149号,156号,158号,160号"},{"poiid":"B2094757D76CA2FE429C","title":"段氏龙虾 通北路店","lon":"121.52229","lat":"31.25462","category":"68","category_name":"快餐厅","address":"杨浦区通北路146号(近平凉路)"},{"poiid":"B2094757D06FA6F84798","title":"长脚海鲜餐馆","lon":"121.5224","lat":"31.25459","category":"260","category_name":"其他","address":"杨浦区通北路167号(近平凉路)"},{"poiid":"B2094757D065A4FA419E","title":"大连路杨树浦路","lon":"121.521541103","lat":"31.2529070896","category":"500","category_name":"未知分类","address":"上海杨浦区"},{"poiid":"B2094757D06EAAFB4598","title":"黄浦江畔其昌栈码头","lon":"121.525503","lat":"31.249784","category":"34","category_name":"港口码头","address":"上海东方路1号"},{"poiid":"B2094757D068A1F9499A","title":"振鼎鸡(平凉路店)","lon":"121.52162","lat":"31.25474","category":"68","category_name":"快餐厅","address":"杨浦区平凉路412号(近通北路)"},{"poiid":"B2094757D064AAF84392","title":"东码头","lon":"121.5206998","lat":"31.25262055","category":"500","category_name":"未知分类","address":"上海市杨浦区秦皇岛路32号"},{"poiid":"B2094654D56EA5FB449B","title":"上海船厂总部码头","lon":"121.51973","lat":"31.25131","category":"34","category_name":"港口码头","address":""},{"poiid":"B2094757D16CA1FC429C","title":"coco都可茶饮(通北店)","lon":"121.52152","lat":"31.25556","category":"113","category_name":"冷饮店","address":"杨浦区平凉路429号(近通北路)"},{"poiid":"B2094654D56EA5FB4192","title":"上海康翔商务楼A.D座","lon":"121.52227","lat":"31.2521","category":"46","category_name":"楼宇","address":"杨树浦路622号"},{"poiid":"B2094654D56EA5F94798","title":"好来西海鲜排档","lon":"121.52141","lat":"31.25548","category":"260","category_name":"其他","address":"杨浦区通北路217号(平凉路口)"},{"poiid":"B2094655D26AA0F9409B","title":"地铁杨树浦路站","lon":"121.5172","lat":"31.25241","category":"36","category_name":"地铁站","address":""},{"poiid":"B2094654DB6BAAFE4298","title":"良丰大厦","lon":"121.525","lat":"31.2489","category":"46","category_name":"楼宇","address":"松江区工业区鼎源路广富林路路口"},{"poiid":"B2094654D56EA5FA4893","title":"满灵阁大宝海鲜大排挡","lon":"121.52191","lat":"31.25484","category":"88","category_name":"海鲜酒楼","address":"通北路173-177号"},{"poiid":"B2094757D66FA3FD449C","title":"鲁陈路张行路公交车站","lon":"121.5208131","lat":"31.250970015","category":"38","category_name":"公交车站","address":"上海鲁陈路张行路(公交有闵行10、11路；浦江9、10路)"},{"poiid":"B2094757D06FABFC469C","title":"平凉路大连路站(公交842,155,137,25,853,申川线,921终,79终)","lon":"121.518741","lat":"31.252096","category":"38","category_name":"公交车站","address":"上海市杨浦区平凉路179号"},{"poiid":"B2094655D36DA6FE4992","title":"杨树浦路","lon":"121.5172","lat":"31.25241","category":"38","category_name":"公交车站","address":""},{"poiid":"B2094655D26BAAFF429E","title":"丰泰世纪大厦","lon":"121.52152","lat":"31.25216","category":"46","category_name":"楼宇","address":"杨树浦路1736号"},{"poiid":"B2094655D26BA1FC489F","title":"平凉路大连路","lon":"121.51745","lat":"31.25307","category":"38","category_name":"公交车站","address":""},{"poiid":"B2094654D56EA5FB419D","title":"杨浦平凉开业园区","lon":"121.52245","lat":"31.2519","category":"45","category_name":"产业园区","address":"杨树浦路622"},{"poiid":"B2094757D06AA5FC439C","title":"舟山海鲜舫","lon":"121.52164","lat":"31.25528","category":"260","category_name":"其他","address":"杨浦区通北路163号(近平凉路)"},{"poiid":"B2094654DB6BA3F54398","title":"快客No.6950","lon":"121.52216","lat":"31.25209","category":"117","category_name":"便民商店/便利店","address":"杨树浦路622号A-7"},{"poiid":"B2094655D36DA0F94198","title":"杨树浦路大连路","lon":"121.51857","lat":"31.25196","category":"38","category_name":"公交车站","address":""},{"poiid":"B2094654D56EA5FA499B","title":"宁波海鲜(通北路)","lon":"121.52201","lat":"31.25474","category":"88","category_name":"海鲜酒楼","address":"杨浦区通北路161-165号(近平凉路)"},{"poiid":"B2094757D068A4F5479A","title":"隧道工程股份有限公司","lon":"121.517015","lat":"31.253451","category":"263","category_name":"公司","address":"上海大连路118号"},{"poiid":"B2094655D26DABFE429A","title":"杨树浦路471弄小区","lon":"121.52003","lat":"31.25246","category":"47","category_name":"住宅区","address":"杨树浦路471弄"},{"poiid":"B2094654D56EA5F9479F","title":"沪东状元楼","lon":"121.52121","lat":"31.25524","category":"257","category_name":"中餐厅","address":"平凉路403号近通北路"},{"poiid":"B2094757D169A2F4479D","title":"翡翠公主号","lon":"121.5164","lat":"31.2507","category":"76","category_name":"上海菜","address":"杨浦区秦皇岛路码头(近杨树浦路)"},{"poiid":"B2094757D06FA3FA499A","title":"宋记粥铺","lon":"121.52108764","lat":"31.255048751","category":"68","category_name":"快餐厅","address":"杨浦区平凉路(通北路口)"},{"poiid":"B2094655D26CA7F5449B","title":"杨树浦路471弄小区(南门)","lon":"121.52007","lat":"31.25223","category":"47","category_name":"住宅区","address":"杨树浦路471弄"},{"poiid":"B2094757D065A7FC4892","title":"世博秦皇岛水门","lon":"121.52025604","lat":"31.248537063","category":"500","category_name":"未知分类","address":"上海秦皇岛路"},{"poiid":"B2094757D068A4F54099","title":"劲强桌球俱乐部(平凉路店)","lon":"121.52283","lat":"31.25558","category":"171","category_name":"台球厅","address":"杨浦区平凉路480号2楼(近通北路)"},{"poiid":"B2094757D068A4FD449A","title":"平凉街道社区卫生服务中心","lon":"121.520317959","lat":"31.2547247168","category":"162","category_name":"医院","address":"杨浦区平凉路335号(福禄街平凉路)"},{"poiid":"B2094757D06AABFE489C","title":"梦里","lon":"121.522359903","lat":"31.2520060475","category":"500","category_name":"未知分类","address":"上海盗梦空间"},{"poiid":"B2094654D56EA5F94693","title":"海北饭店 通北路店","lon":"121.52125537439","lat":"31.255798446073","category":"247","category_name":"餐饮美食","address":"杨浦区通北路231号(近平凉路)"},{"poiid":"B2094655D26CA4FA409B","title":"隆仁里","lon":"121.52243","lat":"31.25621","category":"47","category_name":"住宅区","address":"上海市榆林路464弄"},{"poiid":"B2094757D06BAAF44292","title":"杨浦牙防所","lon":"121.520728","lat":"31.254932","category":"500","category_name":"未知分类","address":"杨浦区平凉路337-339号(近通北路)"},{"poiid":"B2094655D26CA7F44392","title":"新康里居委百忍坊小区(西门)","lon":"121.52358","lat":"31.25282","category":"47","category_name":"住宅区","address":"通北路22弄"},{"poiid":"B2094655D26DABFB429E","title":"杨树浦路461弄小区(南门)","lon":"121.5193","lat":"31.25217","category":"47","category_name":"住宅区","address":"杨树浦路461弄"},{"poiid":"B2094757D66DA7F5409C","title":"爱妖流社团","lon":"121.521287803","lat":"31.252271843","category":"253","category_name":"校园生活","address":null},{"poiid":"B2094757D06FA7FD4293","title":"通北路海鲜","lon":"121.521346","lat":"31.25516","category":"68","category_name":"快餐厅","address":"杨浦区通北路176号(近平凉路)"},{"poiid":"B2094757D06EAAFF479A","title":"杨树浦路地铁站","lon":"121.51719604","lat":"31.252407847","category":"36","category_name":"地铁站","address":"上海轨道交通 四号线 轨交杨树浦路站 轻轨 4"},{"poiid":"B2094757D06FA3FA4993","title":"老四烧烤(通北路店)","lon":"121.52195","lat":"31.25455","category":"68","category_name":"快餐厅","address":"杨浦区通北路183号(平凉路口)"},{"poiid":"B209475CD564A7F84392","title":"上海滩浦东香格里拉店","lon":"121.50058","lat":"31.23634","category":"119","category_name":"商场","address":"浦东富成路33号香格里拉酒店内大堂层"},{"poiid":"B2094757D06FA0FA489F","title":"秦皇岛路轮渡站","lon":"121.51639044","lat":"31.249174771","category":"35","category_name":"长途汽车站","address":"上海虹口区秦皇岛路1号"},{"poiid":"B2094757D16CABF8439C","title":"老四海鮮","lon":"121.521366103","lat":"31.2538765766","category":"247","category_name":"餐饮美食","address":"上海楊浦區通北路"},{"poiid":"B2094757D065A5FA449E","title":"阿根廷庄园","lon":"121.517910103","lat":"31.2503280024","category":"94","category_name":"西餐厅","address":"杨浦区秦皇岛路32号19幢(近北外滩东码头)"},{"poiid":"B2094655D26BA1FC479B","title":"平凉路通北路","lon":"121.52108","lat":"31.25504","category":"38","category_name":"公交车站","address":""},{"poiid":"B2094654DA69AAFB4798","title":"裕景国际","lon":"121.52645574206","lat":"31.248226919703","category":"46","category_name":"楼宇","address":"东方路69号"},{"poiid":"B2094757D16DABF9429A","title":"浦江游览","lon":"121.516154","lat":"31.249603","category":"607","category_name":"一般景点","address":"上海秦皇岛"},{"poiid":"B2094757D068A7FF4499","title":"老板娘海鲜大排档","lon":"121.52253","lat":"31.25424","category":"260","category_name":"其他","address":"通北路149号,156号,158号,160号"},{"poiid":"B2094757D76CA2FE429C","title":"段氏龙虾 通北路店","lon":"121.52229","lat":"31.25462","category":"68","category_name":"快餐厅","address":"杨浦区通北路146号(近平凉路)"},{"poiid":"B2094757D06FA6F84798","title":"长脚海鲜餐馆","lon":"121.5224","lat":"31.25459","category":"260","category_name":"其他","address":"杨浦区通北路167号(近平凉路)"},{"poiid":"B2094757D065A4FA419E","title":"大连路杨树浦路","lon":"121.521541103","lat":"31.2529070896","category":"500","category_name":"未知分类","address":"上海杨浦区"},{"poiid":"B2094757D06EAAFB4598","title":"黄浦江畔其昌栈码头","lon":"121.525503","lat":"31.249784","category":"34","category_name":"港口码头","address":"上海东方路1号"},{"poiid":"B2094757D068A1F9499A","title":"振鼎鸡(平凉路店)","lon":"121.52162","lat":"31.25474","category":"68","category_name":"快餐厅","address":"杨浦区平凉路412号(近通北路)"},{"poiid":"B2094757D064AAF84392","title":"东码头","lon":"121.5206998","lat":"31.25262055","category":"500","category_name":"未知分类","address":"上海市杨浦区秦皇岛路32号"},{"poiid":"B2094654D56EA5FB449B","title":"上海船厂总部码头","lon":"121.51973","lat":"31.25131","category":"34","category_name":"港口码头","address":""},{"poiid":"B2094757D16CA1FC429C","title":"coco都可茶饮(通北店)","lon":"121.52152","lat":"31.25556","category":"113","category_name":"冷饮店","address":"杨浦区平凉路429号(近通北路)"},{"poiid":"B2094654D56EA5FB4192","title":"上海康翔商务楼A.D座","lon":"121.52227","lat":"31.2521","category":"46","category_name":"楼宇","address":"杨树浦路622号"},{"poiid":"B2094654D56EA5F94798","title":"好来西海鲜排档","lon":"121.52141","lat":"31.25548","category":"260","category_name":"其他","address":"杨浦区通北路217号(平凉路口)"},{"poiid":"B2094655D26AA0F9409B","title":"地铁杨树浦路站","lon":"121.5172","lat":"31.25241","category":"36","category_name":"地铁站","address":""},{"poiid":"B2094654DB6BAAFE4298","title":"良丰大厦","lon":"121.525","lat":"31.2489","category":"46","category_name":"楼宇","address":"松江区工业区鼎源路广富林路路口"},{"poiid":"B2094654D56EA5FA4893","title":"满灵阁大宝海鲜大排挡","lon":"121.52191","lat":"31.25484","category":"88","category_name":"海鲜酒楼","address":"通北路173-177号"},{"poiid":"B2094757D66FA3FD449C","title":"鲁陈路张行路公交车站","lon":"121.5208131","lat":"31.250970015","category":"38","category_name":"公交车站","address":"上海鲁陈路张行路(公交有闵行10、11路；浦江9、10路)"},{"poiid":"B2094757D06FABFC469C","title":"平凉路大连路站(公交842,155,137,25,853,申川线,921终,79终)","lon":"121.518741","lat":"31.252096","category":"38","category_name":"公交车站","address":"上海市杨浦区平凉路179号"},{"poiid":"B2094655D36DA6FE4992","title":"杨树浦路","lon":"121.5172","lat":"31.25241","category":"38","category_name":"公交车站","address":""},{"poiid":"B2094655D26BAAFF429E","title":"丰泰世纪大厦","lon":"121.52152","lat":"31.25216","category":"46","category_name":"楼宇","address":"杨树浦路1736号"},{"poiid":"B2094655D26BA1FC489F","title":"平凉路大连路","lon":"121.51745","lat":"31.25307","category":"38","category_name":"公交车站","address":""},{"poiid":"B2094654D56EA5FB419D","title":"杨浦平凉开业园区","lon":"121.52245","lat":"31.2519","category":"45","category_name":"产业园区","address":"杨树浦路622"},{"poiid":"B2094757D06AA5FC439C","title":"舟山海鲜舫","lon":"121.52164","lat":"31.25528","category":"260","category_name":"其他","address":"杨浦区通北路163号(近平凉路)"},{"poiid":"B2094654DB6BA3F54398","title":"快客No.6950","lon":"121.52216","lat":"31.25209","category":"117","category_name":"便民商店/便利店","address":"杨树浦路622号A-7"},{"poiid":"B2094655D36DA0F94198","title":"杨树浦路大连路","lon":"121.51857","lat":"31.25196","category":"38","category_name":"公交车站","address":""},{"poiid":"B2094654D56EA5FA499B","title":"宁波海鲜(通北路)","lon":"121.52201","lat":"31.25474","category":"88","category_name":"海鲜酒楼","address":"杨浦区通北路161-165号(近平凉路)"},{"poiid":"B2094757D068A4F5479A","title":"隧道工程股份有限公司","lon":"121.517015","lat":"31.253451","category":"263","category_name":"公司","address":"上海大连路118号"},{"poiid":"B2094655D26DABFE429A","title":"杨树浦路471弄小区","lon":"121.52003","lat":"31.25246","category":"47","category_name":"住宅区","address":"杨树浦路471弄"},{"poiid":"B2094654D56EA5F9479F","title":"沪东状元楼","lon":"121.52121","lat":"31.25524","category":"257","category_name":"中餐厅","address":"平凉路403号近通北路"},{"poiid":"B2094757D169A2F4479D","title":"翡翠公主号","lon":"121.5164","lat":"31.2507","category":"76","category_name":"上海菜","address":"杨浦区秦皇岛路码头(近杨树浦路)"},{"poiid":"B2094757D06FA3FA499A","title":"宋记粥铺","lon":"121.52108764","lat":"31.255048751","category":"68","category_name":"快餐厅","address":"杨浦区平凉路(通北路口)"},{"poiid":"B2094655D26CA7F5449B","title":"杨树浦路471弄小区(南门)","lon":"121.52007","lat":"31.25223","category":"47","category_name":"住宅区","address":"杨树浦路471弄"},{"poiid":"B2094757D065A7FC4892","title":"世博秦皇岛水门","lon":"121.52025604","lat":"31.248537063","category":"500","category_name":"未知分类","address":"上海秦皇岛路"},{"poiid":"B2094757D068A4F54099","title":"劲强桌球俱乐部(平凉路店)","lon":"121.52283","lat":"31.25558","category":"171","category_name":"台球厅","address":"杨浦区平凉路480号2楼(近通北路)"},{"poiid":"B2094757D068A4FD449A","title":"平凉街道社区卫生服务中心","lon":"121.520317959","lat":"31.2547247168","category":"162","category_name":"医院","address":"杨浦区平凉路335号(福禄街平凉路)"},{"poiid":"B2094757D06AABFE489C","title":"梦里","lon":"121.522359903","lat":"31.2520060475","category":"500","category_name":"未知分类","address":"上海盗梦空间"},{"poiid":"B2094654D56EA5F94693","title":"海北饭店 通北路店","lon":"121.52125537439","lat":"31.255798446073","category":"247","category_name":"餐饮美食","address":"杨浦区通北路231号(近平凉路)"},{"poiid":"B2094655D26CA4FA409B","title":"隆仁里","lon":"121.52243","lat":"31.25621","category":"47","category_name":"住宅区","address":"上海市榆林路464弄"},{"poiid":"B2094757D06BAAF44292","title":"杨浦牙防所","lon":"121.520728","lat":"31.254932","category":"500","category_name":"未知分类","address":"杨浦区平凉路337-339号(近通北路)"},{"poiid":"B2094655D26CA7F44392","title":"新康里居委百忍坊小区(西门)","lon":"121.52358","lat":"31.25282","category":"47","category_name":"住宅区","address":"通北路22弄"},{"poiid":"B2094655D26DABFB429E","title":"杨树浦路461弄小区(南门)","lon":"121.5193","lat":"31.25217","category":"47","category_name":"住宅区","address":"杨树浦路461弄"},{"poiid":"B2094757D66DA7F5409C","title":"爱妖流社团","lon":"121.521287803","lat":"31.252271843","category":"253","category_name":"校园生活","address":null},{"poiid":"B2094757D06FA7FD4293","title":"通北路海鲜","lon":"121.521346","lat":"31.25516","category":"68","category_name":"快餐厅","address":"杨浦区通北路176号(近平凉路)"},{"poiid":"B2094757D06EAAFF479A","title":"杨树浦路地铁站","lon":"121.51719604","lat":"31.252407847","category":"36","category_name":"地铁站","address":"上海轨道交通 四号线 轨交杨树浦路站 轻轨 4"},{"poiid":"B2094757D06FA3FA4993","title":"老四烧烤(通北路店)","lon":"121.52195","lat":"31.25455","category":"68","category_name":"快餐厅","address":"杨浦区通北路183号(平凉路口)"},{"poiid":"B209475CD564A7F84392","title":"上海滩浦东香格里拉店","lon":"121.50058","lat":"31.23634","category":"119","category_name":"商场","address":"浦东富成路33号香格里拉酒店内大堂层"},{"poiid":"B2094757D06FA0FA489F","title":"秦皇岛路轮渡站","lon":"121.51639044","lat":"31.249174771","category":"35","category_name":"长途汽车站","address":"上海虹口区秦皇岛路1号"},{"poiid":"B2094757D16CABF8439C","title":"老四海鮮","lon":"121.521366103","lat":"31.2538765766","category":"247","category_name":"餐饮美食","address":"上海楊浦區通北路"},{"poiid":"B2094757D065A5FA449E","title":"阿根廷庄园","lon":"121.517910103","lat":"31.2503280024","category":"94","category_name":"西餐厅","address":"杨浦区秦皇岛路32号19幢(近北外滩东码头)"},{"poiid":"B2094655D26BA1FC479B","title":"平凉路通北路","lon":"121.52108","lat":"31.25504","category":"38","category_name":"公交车站","address":""},{"poiid":"B2094654DA69AAFB4798","title":"裕景国际","lon":"121.52645574206","lat":"31.248226919703","category":"46","category_name":"楼宇","address":"东方路69号"},{"poiid":"B2094757D16DABF9429A","title":"浦江游览","lon":"121.516154","lat":"31.249603","category":"607","category_name":"一般景点","address":"上海秦皇岛"},{"poiid":"B2094757D068A7FF4499","title":"老板娘海鲜大排档","lon":"121.52253","lat":"31.25424","category":"260","category_name":"其他","address":"通北路149号,156号,158号,160号"},{"poiid":"B2094757D76CA2FE429C","title":"段氏龙虾 通北路店","lon":"121.52229","lat":"31.25462","category":"68","category_name":"快餐厅","address":"杨浦区通北路146号(近平凉路)"},{"poiid":"B2094757D06FA6F84798","title":"长脚海鲜餐馆","lon":"121.5224","lat":"31.25459","category":"260","category_name":"其他","address":"杨浦区通北路167号(近平凉路)"},{"poiid":"B2094757D065A4FA419E","title":"大连路杨树浦路","lon":"121.521541103","lat":"31.2529070896","category":"500","category_name":"未知分类","address":"上海杨浦区"},{"poiid":"B2094757D06EAAFB4598","title":"黄浦江畔其昌栈码头","lon":"121.525503","lat":"31.249784","category":"34","category_name":"港口码头","address":"上海东方路1号"},{"poiid":"B2094757D068A1F9499A","title":"振鼎鸡(平凉路店)","lon":"121.52162","lat":"31.25474","category":"68","category_name":"快餐厅","address":"杨浦区平凉路412号(近通北路)"},{"poiid":"B2094757D064AAF84392","title":"东码头","lon":"121.5206998","lat":"31.25262055","category":"500","category_name":"未知分类","address":"上海市杨浦区秦皇岛路32号"},{"poiid":"B2094654D56EA5FB449B","title":"上海船厂总部码头","lon":"121.51973","lat":"31.25131","category":"34","category_name":"港口码头","address":""},{"poiid":"B2094757D16CA1FC429C","title":"coco都可茶饮(通北店)","lon":"121.52152","lat":"31.25556","category":"113","category_name":"冷饮店","address":"杨浦区平凉路429号(近通北路)"},{"poiid":"B2094654D56EA5FB4192","title":"上海康翔商务楼A.D座","lon":"121.52227","lat":"31.2521","category":"46","category_name":"楼宇","address":"杨树浦路622号"},{"poiid":"B2094654D56EA5F94798","title":"好来西海鲜排档","lon":"121.52141","lat":"31.25548","category":"260","category_name":"其他","address":"杨浦区通北路217号(平凉路口)"},{"poiid":"B2094655D26AA0F9409B","title":"地铁杨树浦路站","lon":"121.5172","lat":"31.25241","category":"36","category_name":"地铁站","address":""},{"poiid":"B2094654DB6BAAFE4298","title":"良丰大厦","lon":"121.525","lat":"31.2489","category":"46","category_name":"楼宇","address":"松江区工业区鼎源路广富林路路口"},{"poiid":"B2094654D56EA5FA4893","title":"满灵阁大宝海鲜大排挡","lon":"121.52191","lat":"31.25484","category":"88","category_name":"海鲜酒楼","address":"通北路173-177号"},{"poiid":"B2094757D66FA3FD449C","title":"鲁陈路张行路公交车站","lon":"121.5208131","lat":"31.250970015","category":"38","category_name":"公交车站","address":"上海鲁陈路张行路(公交有闵行10、11路；浦江9、10路)"},{"poiid":"B2094757D06FABFC469C","title":"平凉路大连路站(公交842,155,137,25,853,申川线,921终,79终)","lon":"121.518741","lat":"31.252096","category":"38","category_name":"公交车站","address":"上海市杨浦区平凉路179号"},{"poiid":"B2094655D36DA6FE4992","title":"杨树浦路","lon":"121.5172","lat":"31.25241","category":"38","category_name":"公交车站","address":""},{"poiid":"B2094655D26BAAFF429E","title":"丰泰世纪大厦","lon":"121.52152","lat":"31.25216","category":"46","category_name":"楼宇","address":"杨树浦路1736号"},{"poiid":"B2094655D26BA1FC489F","title":"平凉路大连路","lon":"121.51745","lat":"31.25307","category":"38","category_name":"公交车站","address":""},{"poiid":"B2094654D56EA5FB419D","title":"杨浦平凉开业园区","lon":"121.52245","lat":"31.2519","category":"45","category_name":"产业园区","address":"杨树浦路622"},{"poiid":"B2094757D06AA5FC439C","title":"舟山海鲜舫","lon":"121.52164","lat":"31.25528","category":"260","category_name":"其他","address":"杨浦区通北路163号(近平凉路)"},{"poiid":"B2094654DB6BA3F54398","title":"快客No.6950","lon":"121.52216","lat":"31.25209","category":"117","category_name":"便民商店/便利店","address":"杨树浦路622号A-7"},{"poiid":"B2094655D36DA0F94198","title":"杨树浦路大连路","lon":"121.51857","lat":"31.25196","category":"38","category_name":"公交车站","address":""},{"poiid":"B2094654D56EA5FA499B","title":"宁波海鲜(通北路)","lon":"121.52201","lat":"31.25474","category":"88","category_name":"海鲜酒楼","address":"杨浦区通北路161-165号(近平凉路)"},{"poiid":"B2094757D068A4F5479A","title":"隧道工程股份有限公司","lon":"121.517015","lat":"31.253451","category":"263","category_name":"公司","address":"上海大连路118号"},{"poiid":"B2094655D26DABFE429A","title":"杨树浦路471弄小区","lon":"121.52003","lat":"31.25246","category":"47","category_name":"住宅区","address":"杨树浦路471弄"},{"poiid":"B2094654D56EA5F9479F","title":"沪东状元楼","lon":"121.52121","lat":"31.25524","category":"257","category_name":"中餐厅","address":"平凉路403号近通北路"},{"poiid":"B2094757D169A2F4479D","title":"翡翠公主号","lon":"121.5164","lat":"31.2507","category":"76","category_name":"上海菜","address":"杨浦区秦皇岛路码头(近杨树浦路)"},{"poiid":"B2094757D06FA3FA499A","title":"宋记粥铺","lon":"121.52108764","lat":"31.255048751","category":"68","category_name":"快餐厅","address":"杨浦区平凉路(通北路口)"},{"poiid":"B2094655D26CA7F5449B","title":"杨树浦路471弄小区(南门)","lon":"121.52007","lat":"31.25223","category":"47","category_name":"住宅区","address":"杨树浦路471弄"},{"poiid":"B2094757D065A7FC4892","title":"世博秦皇岛水门","lon":"121.52025604","lat":"31.248537063","category":"500","category_name":"未知分类","address":"上海秦皇岛路"},{"poiid":"B2094757D068A4F54099","title":"劲强桌球俱乐部(平凉路店)","lon":"121.52283","lat":"31.25558","category":"171","category_name":"台球厅","address":"杨浦区平凉路480号2楼(近通北路)"},{"poiid":"B2094757D068A4FD449A","title":"平凉街道社区卫生服务中心","lon":"121.520317959","lat":"31.2547247168","category":"162","category_name":"医院","address":"杨浦区平凉路335号(福禄街平凉路)"},{"poiid":"B2094757D06AABFE489C","title":"梦里","lon":"121.522359903","lat":"31.2520060475","category":"500","category_name":"未知分类","address":"上海盗梦空间"},{"poiid":"B2094654D56EA5F94693","title":"海北饭店 通北路店","lon":"121.52125537439","lat":"31.255798446073","category":"247","category_name":"餐饮美食","address":"杨浦区通北路231号(近平凉路)"},{"poiid":"B2094655D26CA4FA409B","title":"隆仁里","lon":"121.52243","lat":"31.25621","category":"47","category_name":"住宅区","address":"上海市榆林路464弄"},{"poiid":"B2094757D06BAAF44292","title":"杨浦牙防所","lon":"121.520728","lat":"31.254932","category":"500","category_name":"未知分类","address":"杨浦区平凉路337-339号(近通北路)"},{"poiid":"B2094655D26CA7F44392","title":"新康里居委百忍坊小区(西门)","lon":"121.52358","lat":"31.25282","category":"47","category_name":"住宅区","address":"通北路22弄"},{"poiid":"B2094655D26DABFB429E","title":"杨树浦路461弄小区(南门)","lon":"121.5193","lat":"31.25217","category":"47","category_name":"住宅区","address":"杨树浦路461弄"},{"poiid":"B2094757D66DA7F5409C","title":"爱妖流社团","lon":"121.521287803","lat":"31.252271843","category":"253","category_name":"校园生活","address":null},{"poiid":"B2094757D06FA7FD4293","title":"通北路海鲜","lon":"121.521346","lat":"31.25516","category":"68","category_name":"快餐厅","address":"杨浦区通北路176号(近平凉路)"},{"poiid":"B2094757D06EAAFF479A","title":"杨树浦路地铁站","lon":"121.51719604","lat":"31.252407847","category":"36","category_name":"地铁站","address":"上海轨道交通 四号线 轨交杨树浦路站 轻轨 4"},{"poiid":"B2094757D06FA3FA4993","title":"老四烧烤(通北路店)","lon":"121.52195","lat":"31.25455","category":"68","category_name":"快餐厅","address":"杨浦区通北路183号(平凉路口)"},{"poiid":"B209475CD564A7F84392","title":"上海滩浦东香格里拉店","lon":"121.50058","lat":"31.23634","category":"119","category_name":"商场","address":"浦东富成路33号香格里拉酒店内大堂层"},{"poiid":"B2094757D06FA0FA489F","title":"秦皇岛路轮渡站","lon":"121.51639044","lat":"31.249174771","category":"35","category_name":"长途汽车站","address":"上海虹口区秦皇岛路1号"},{"poiid":"B2094757D16CABF8439C","title":"老四海鮮","lon":"121.521366103","lat":"31.2538765766","category":"247","category_name":"餐饮美食","address":"上海楊浦區通北路"},{"poiid":"B2094757D065A5FA449E","title":"阿根廷庄园","lon":"121.517910103","lat":"31.2503280024","category":"94","category_name":"西餐厅","address":"杨浦区秦皇岛路32号19幢(近北外滩东码头)"},{"poiid":"B2094655D26BA1FC479B","title":"平凉路通北路","lon":"121.52108","lat":"31.25504","category":"38","category_name":"公交车站","address":""},{"poiid":"B2094654DA69AAFB4798","title":"裕景国际","lon":"121.52645574206","lat":"31.248226919703","category":"46","category_name":"楼宇","address":"东方路69号"},{"poiid":"B2094757D16DABF9429A","title":"浦江游览","lon":"121.516154","lat":"31.249603","category":"607","category_name":"一般景点","address":"上海秦皇岛"},{"poiid":"B2094757D068A7FF4499","title":"老板娘海鲜大排档","lon":"121.52253","lat":"31.25424","category":"260","category_name":"其他","address":"通北路149号,156号,158号,160号"},{"poiid":"B2094757D76CA2FE429C","title":"段氏龙虾 通北路店","lon":"121.52229","lat":"31.25462","category":"68","category_name":"快餐厅","address":"杨浦区通北路146号(近平凉路)"},{"poiid":"B2094757D06FA6F84798","title":"长脚海鲜餐馆","lon":"121.5224","lat":"31.25459","category":"260","category_name":"其他","address":"杨浦区通北路167号(近平凉路)"},{"poiid":"B2094757D065A4FA419E","title":"大连路杨树浦路","lon":"121.521541103","lat":"31.2529070896","category":"500","category_name":"未知分类","address":"上海杨浦区"},{"poiid":"B2094757D06EAAFB4598","title":"黄浦江畔其昌栈码头","lon":"121.525503","lat":"31.249784","category":"34","category_name":"港口码头","address":"上海东方路1号"},{"poiid":"B2094757D068A1F9499A","title":"振鼎鸡(平凉路店)","lon":"121.52162","lat":"31.25474","category":"68","category_name":"快餐厅","address":"杨浦区平凉路412号(近通北路)"},{"poiid":"B2094757D064AAF84392","title":"东码头","lon":"121.5206998","lat":"31.25262055","category":"500","category_name":"未知分类","address":"上海市杨浦区秦皇岛路32号"},{"poiid":"B2094654D56EA5FB449B","title":"上海船厂总部码头","lon":"121.51973","lat":"31.25131","category":"34","category_name":"港口码头","address":""},{"poiid":"B2094757D16CA1FC429C","title":"coco都可茶饮(通北店)","lon":"121.52152","lat":"31.25556","category":"113","category_name":"冷饮店","address":"杨浦区平凉路429号(近通北路)"},{"poiid":"B2094654D56EA5FB4192","title":"上海康翔商务楼A.D座","lon":"121.52227","lat":"31.2521","category":"46","category_name":"楼宇","address":"杨树浦路622号"},{"poiid":"B2094654D56EA5F94798","title":"好来西海鲜排档","lon":"121.52141","lat":"31.25548","category":"260","category_name":"其他","address":"杨浦区通北路217号(平凉路口)"},{"poiid":"B2094655D26AA0F9409B","title":"地铁杨树浦路站","lon":"121.5172","lat":"31.25241","category":"36","category_name":"地铁站","address":""},{"poiid":"B2094654DB6BAAFE4298","title":"良丰大厦","lon":"121.525","lat":"31.2489","category":"46","category_name":"楼宇","address":"松江区工业区鼎源路广富林路路口"},{"poiid":"B2094654D56EA5FA4893","title":"满灵阁大宝海鲜大排挡","lon":"121.52191","lat":"31.25484","category":"88","category_name":"海鲜酒楼","address":"通北路173-177号"},{"poiid":"B2094757D66FA3FD449C","title":"鲁陈路张行路公交车站","lon":"121.5208131","lat":"31.250970015","category":"38","category_name":"公交车站","address":"上海鲁陈路张行路(公交有闵行10、11路；浦江9、10路)"},{"poiid":"B2094757D06FABFC469C","title":"平凉路大连路站(公交842,155,137,25,853,申川线,921终,79终)","lon":"121.518741","lat":"31.252096","category":"38","category_name":"公交车站","address":"上海市杨浦区平凉路179号"},{"poiid":"B2094655D36DA6FE4992","title":"杨树浦路","lon":"121.5172","lat":"31.25241","category":"38","category_name":"公交车站","address":""},{"poiid":"B2094655D26BAAFF429E","title":"丰泰世纪大厦","lon":"121.52152","lat":"31.25216","category":"46","category_name":"楼宇","address":"杨树浦路1736号"},{"poiid":"B2094655D26BA1FC489F","title":"平凉路大连路","lon":"121.51745","lat":"31.25307","category":"38","category_name":"公交车站","address":""},{"poiid":"B2094654D56EA5FB419D","title":"杨浦平凉开业园区","lon":"121.52245","lat":"31.2519","category":"45","category_name":"产业园区","address":"杨树浦路622"},{"poiid":"B2094757D06AA5FC439C","title":"舟山海鲜舫","lon":"121.52164","lat":"31.25528","category":"260","category_name":"其他","address":"杨浦区通北路163号(近平凉路)"},{"poiid":"B2094654DB6BA3F54398","title":"快客No.6950","lon":"121.52216","lat":"31.25209","category":"117","category_name":"便民商店/便利店","address":"杨树浦路622号A-7"},{"poiid":"B2094655D36DA0F94198","title":"杨树浦路大连路","lon":"121.51857","lat":"31.25196","category":"38","category_name":"公交车站","address":""},{"poiid":"B2094654D56EA5FA499B","title":"宁波海鲜(通北路)","lon":"121.52201","lat":"31.25474","category":"88","category_name":"海鲜酒楼","address":"杨浦区通北路161-165号(近平凉路)"},{"poiid":"B2094757D068A4F5479A","title":"隧道工程股份有限公司","lon":"121.517015","lat":"31.253451","category":"263","category_name":"公司","address":"上海大连路118号"},{"poiid":"B2094655D26DABFE429A","title":"杨树浦路471弄小区","lon":"121.52003","lat":"31.25246","category":"47","category_name":"住宅区","address":"杨树浦路471弄"},{"poiid":"B2094654D56EA5F9479F","title":"沪东状元楼","lon":"121.52121","lat":"31.25524","category":"257","category_name":"中餐厅","address":"平凉路403号近通北路"},{"poiid":"B2094757D169A2F4479D","title":"翡翠公主号","lon":"121.5164","lat":"31.2507","category":"76","category_name":"上海菜","address":"杨浦区秦皇岛路码头(近杨树浦路)"},{"poiid":"B2094757D06FA3FA499A","title":"宋记粥铺","lon":"121.52108764","lat":"31.255048751","category":"68","category_name":"快餐厅","address":"杨浦区平凉路(通北路口)"},{"poiid":"B2094655D26CA7F5449B","title":"杨树浦路471弄小区(南门)","lon":"121.52007","lat":"31.25223","category":"47","category_name":"住宅区","address":"杨树浦路471弄"},{"poiid":"B2094757D065A7FC4892","title":"世博秦皇岛水门","lon":"121.52025604","lat":"31.248537063","category":"500","category_name":"未知分类","address":"上海秦皇岛路"},{"poiid":"B2094757D068A4F54099","title":"劲强桌球俱乐部(平凉路店)","lon":"121.52283","lat":"31.25558","category":"171","category_name":"台球厅","address":"杨浦区平凉路480号2楼(近通北路)"},{"poiid":"B2094757D068A4FD449A","title":"平凉街道社区卫生服务中心","lon":"121.520317959","lat":"31.2547247168","category":"162","category_name":"医院","address":"杨浦区平凉路335号(福禄街平凉路)"},{"poiid":"B2094757D06AABFE489C","title":"梦里","lon":"121.522359903","lat":"31.2520060475","category":"500","category_name":"未知分类","address":"上海盗梦空间"},{"poiid":"B2094654D56EA5F94693","title":"海北饭店 通北路店","lon":"121.52125537439","lat":"31.255798446073","category":"247","category_name":"餐饮美食","address":"杨浦区通北路231号(近平凉路)"},{"poiid":"B2094655D26CA4FA409B","title":"隆仁里","lon":"121.52243","lat":"31.25621","category":"47","category_name":"住宅区","address":"上海市榆林路464弄"},{"poiid":"B2094757D06BAAF44292","title":"杨浦牙防所","lon":"121.520728","lat":"31.254932","category":"500","category_name":"未知分类","address":"杨浦区平凉路337-339号(近通北路)"},{"poiid":"B2094655D26CA7F44392","title":"新康里居委百忍坊小区(西门)","lon":"121.52358","lat":"31.25282","category":"47","category_name":"住宅区","address":"通北路22弄"},{"poiid":"B2094655D26DABFB429E","title":"杨树浦路461弄小区(南门)","lon":"121.5193","lat":"31.25217","category":"47","category_name":"住宅区","address":"杨树浦路461弄"},{"poiid":"B2094757D66DA7F5409C","title":"爱妖流社团","lon":"121.521287803","lat":"31.252271843","category":"253","category_name":"校园生活","address":null}]