[{"poiid":"B2094654DA6EAAFD479A","title":"力宝广场","lon":"121.482","lat":"31.2305","category":"119","category_name":"商场","address":"卢湾区淮海中路222号(近嵩山路)"},{"poiid":"B2094654DA6EAAF84098","title":"兰生大厦","lon":"121.48613790537","lat":"31.231558720298","category":"46","category_name":"楼宇","address":"卢湾区淮海中路2-8号"},{"poiid":"B2094654DA6EAAF8449D","title":"金钟广场","lon":"121.486","lat":"31.2316","category":"46","category_name":"楼宇","address":"卢湾区淮海中路98号(近柳林路)"},{"poiid":"B2094753D76FAAFA449C","title":"上海滩国泰旗舰店","lon":"121.466011","lat":"31.216125","category":"249","category_name":"购物服务","address":"淮海中路868号"},{"poiid":"B209475CD564A7F84292","title":"上海滩新天地店","lon":"121.47463","lat":"31.22164","category":"119","category_name":"商场","address":"\"太仓路181弄新天地北里15号\r\n\""},{"poiid":"B209475CD564A7F8439E","title":"上海滩中信泰富店","lon":"121.45602","lat":"31.22851","category":"119","category_name":"商场","address":"\"南京西路1168号中信泰富广场，店铺号221.\r\n\""},{"poiid":"B209475CD564A7F84392","title":"上海滩浦东香格里拉店","lon":"121.50058","lat":"31.23634","category":"119","category_name":"商场","address":"浦东富成路33号香格里拉酒店内大堂层"},{"poiid":"B2094757DA6FA1FC489E","title":"南京路","lon":"121.48612976074219","lat":"31.23181184772342","category":"248","category_name":"生活娱乐","address":"上海 上海市 上海市南京路"},{"poiid":"B2094757D06EAAFD489D","title":"一兆韦德(城市会所店)","lon":"121.48567","lat":"31.23132","category":"221","category_name":"健身中心","address":"黄浦区河南中路1号(近延安东路)"},{"poiid":"B2094757D068A1F94693","title":"中福世福汇大酒店","lon":"121.48475","lat":"31.23242","category":"217","category_name":"旅馆招待所","address":"黄浦区广东路339号(山东中路口)"},{"poiid":"B2094757D06FA3FE459E","title":"沈家门兰嫂海鲜面(福建中路一店)","lon":"121.48276","lat":"31.23214","category":"88","category_name":"海鲜酒楼","address":"黄浦区福建中路120号(近福州路)"},{"poiid":"B2094654DA6EA6FC4699","title":"旺角广场","lon":"121.48483","lat":"31.23069","category":"46","category_name":"楼宇","address":"上海市虹口区四川北路1318号"},{"poiid":"B2094757D06FA6FF4498","title":"老北京前门烤鸭","lon":"121.4867704","lat":"31.2308891","category":"260","category_name":"其他","address":"黄浦区河南南路1号星腾大厦(延安东路口)"},{"poiid":"B2094757D069A3F44892","title":"上海市延安路隧道","lon":"121.484965738","lat":"31.2313593242","category":"500","category_name":"未知分类","address":"上海市延安路隧道"},{"poiid":"B2094757D06FABFE499C","title":"慈铭健康体检(广东路门诊部)","lon":"121.4836","lat":"31.23179","category":"162","category_name":"医院","address":"黄浦区广东路429号天赐公寓2楼(近上海书城)"},{"poiid":"B2094750DA6CA6FC4198","title":"台北纯k","lon":"121.483436","lat":"31.22928","category":"500","category_name":"未知分类","address":"浙江南路68号"},{"poiid":"B2094757D06FA2FA469F","title":"同济大学成人继续教育学院黄浦分校","lon":"121.48387908","lat":"31.230630874","category":"52","category_name":"高等院校","address":"上海延安东路205号"},{"poiid":"B2094757D06FA5F94992","title":"游人馆 桌面游戏 游乐场","lon":"121.48209669","lat":"31.230753554","category":"175","category_name":"棋牌室","address":"黄浦区湖北路20号中信福申大楼2楼A室(近上海书城)"},{"poiid":"B2094757D064A2FC419D","title":"避風塘","lon":"121.481941636","lat":"31.2304952344","category":"500","category_name":"未知分类","address":"上海福州路666號"},{"poiid":"B2094757D06FABFA469E","title":"中汇大厦","lon":"121.48686831","lat":"31.230220304","category":"46","category_name":"楼宇","address":"丰台学城海鹰路1号,3号"},{"poiid":"B2094757D165A2FF4398","title":"黄浦区","lon":"121.482597239","lat":"31.2320581764","category":"250","category_name":"公园户外","address":"上海黄浦区区域"},{"poiid":"B2094654DA6EA6FA409B","title":"金陵东路营业厅","lon":"121.48404","lat":"31.2287","category":"151","category_name":"电讯营业厅","address":"黄浦区金陵东路391号"},{"poiid":"B2094654DB6BA4F8419C","title":"锦江之星(外滩店)","lon":"121.48383","lat":"31.23028","category":"216","category_name":"经济型连锁酒店","address":"上海市福建南路33号(近延安东路隧道口)"},{"poiid":"B2094757D06FAAFD419E","title":"黄浦区机关大楼","lon":"121.484796694","lat":"31.2309905459","category":"252","category_name":"楼宇机构","address":"上海延安东路300号"},{"poiid":"B2094654DA6EA6FC479D","title":"上海新世界进修学院(延安东路)","lon":"121.48416","lat":"31.23063","category":"53","category_name":"成人教育","address":"延安东路205号"},{"poiid":"B2094751DA6DA1F4419D","title":"八佰伴","lon":"121.484531","lat":"31.231188","category":"500","category_name":"未知分类","address":null},{"poiid":"B2094654DA6FAAF8479C","title":"天赐酒店公寓","lon":"121.48318","lat":"31.23209","category":"250","category_name":"公园户外","address":"黄浦区广东路429号(福建中路口)"},{"poiid":"B209475DD265ABF5439D","title":"猫山榴莲王","lon":"121.482299","lat":"31.229858","category":"247","category_name":"餐饮美食","address":"上海市 浙江中路58号"},{"poiid":"B2094757D068A2FD4192","title":"荣腾渔乡 金陵店","lon":"121.48633527655","lat":"31.229725756023","category":"71","category_name":"四川菜","address":"黄浦区金陵东路275号(近河南南路)"},{"poiid":"B2094750D36BA5FA409A","title":"超级密室X-ROOM","lon":"121.48442","lat":"31.23169","category":"196","category_name":"公园","address":"黄浦区中山南路1029号幸福码头6号楼2楼(近南浦大桥)"},{"poiid":"B2094757D66EA4F94699","title":"一兆伟德城市会所","lon":"121.485223738","lat":"31.2317693329","category":"500","category_name":"未知分类","address":"黄浦区河南中路1号5楼(河南中路延安东路)"},{"poiid":"B2094757D068A3FD469A","title":"埃洛美甲","lon":"121.482538","lat":"31.229008","category":"149","category_name":"洗浴推拿场所","address":"上海浙江南路69号"},{"poiid":"B2094757D06FABF5479B","title":"福井日本料理(广东路店)","lon":"121.48504","lat":"31.23219","category":"95","category_name":"日本料理","address":"黄浦区广东路339号中福世福汇酒店(山东中路口)"},{"poiid":"B2094757D569A3FF469A","title":"萨莉亚意式餐厅(广东路店)","lon":"121.4831389","lat":"31.2322100000001","category":"98","category_name":"意式菜品餐厅","address":"黄浦区广东路429号天赐公寓(福建中路口)"},{"poiid":"B2094757D068A0FA459D","title":"自力教育福州路校区","lon":"121.48357426","lat":"31.232512423","category":"500","category_name":"未知分类","address":"黄浦区福州路355号东门文化商厦5楼(近山东中路)"},{"poiid":"B2094655D26EA5F54193","title":"贝纳斯西餐厅","lon":"121.48475","lat":"31.23233","category":"268","category_name":"自助","address":"黄浦区广东路339号中福世福汇酒店31楼(山东中路口)"},{"poiid":"B2094757D064A2FA4799","title":"海底捞","lon":"121.48322301","lat":"31.230217549","category":"500","category_name":"未知分类","address":"上海八佰伴"},{"poiid":"B2094757D068A0FB439B","title":"港乐港式茶餐厅","lon":"121.48488069","lat":"31.232128545","category":"72","category_name":"广东菜","address":"黄浦区广东路340号(近山东中路)"},{"poiid":"B2094753D66BA0FA4793","title":"豪厨","lon":"121.482566","lat":"31.230209","category":"247","category_name":"餐饮美食","address":"上海市 福州路666号2楼"},{"poiid":"B2094757D065A5FA499A","title":"星巴克 STARBUCKS (青浦东方商厦)","lon":"121.484208588","lat":"31.2312779524","category":"247","category_name":"餐饮美食","address":"上海青浦区公园路666号东方商厦"},{"poiid":"B2094757D065A4FC489B","title":"杏满楼","lon":"121.484336799","lat":"31.2300896628","category":"76","category_name":"上海菜","address":"黄浦区宁海东路48号1楼(近福建南路)"},{"poiid":"B2094750D568A3FC469B","title":"星巴克(海洋大厦店)","lon":"121.482","lat":"31.2308","category":"260","category_name":"其他","address":"黄浦区延安东路550号海洋大厦1楼(近浙江中路)"},{"poiid":"B2094757D06AA0FE4493","title":"香喷喷好面馆","lon":"121.48482810903","lat":"31.232632885867","category":"68","category_name":"快餐厅","address":"黄浦区山东中路95号(近广东路)"},{"poiid":"B2094654DA6EA6FF4499","title":"台园圆圆香云吞(浙江南路)","lon":"121.48259","lat":"31.22893","category":"68","category_name":"快餐厅","address":"黄浦区浙江南路75号(近延安东路)"},{"poiid":"B2094757D06AAAFC4093","title":"黄浦商业人才培训中心","lon":"121.48413","lat":"31.23034","category":"253","category_name":"校园生活","address":"黄浦区延安东路205号(近福建南路)"},{"poiid":"B2094757D469A1FE489C","title":"台园圆圆香云吞 广东路店","lon":"121.48454750232","lat":"31.232625932109","category":"87","category_name":"特色／地方风味餐厅","address":"黄浦区广东路360号(近山东中路)"},{"poiid":"B2094753D76CA3FB4393","title":"新天地","lon":"121.486091","lat":"31.229488","category":"500","category_name":"未知分类","address":"上海市 上海"},{"poiid":"B2094654DA6FAAFF4892","title":"延福大厦","lon":"121.48258","lat":"31.23141","category":"46","category_name":"楼宇","address":"浦东新区东方路2号"},{"poiid":"B2094753D26EA6FC409C","title":"龙拳功夫小龙虾","lon":"121.482101","lat":"31.229828","category":"247","category_name":"餐饮美食","address":"上海市 浙江南路48号"},{"poiid":"B2094757D464AAFB429A","title":"新亚大包 福建南路店","lon":"121.483850054","lat":"31.230013793","category":"68","category_name":"快餐厅","address":"黄浦区福建南路33号(近宁海东路)"},{"poiid":"B2094654DA6EAAFD479A","title":"力宝广场","lon":"121.482","lat":"31.2305","category":"119","category_name":"商场","address":"卢湾区淮海中路222号(近嵩山路)"},{"poiid":"B2094654DA6EAAF84098","title":"兰生大厦","lon":"121.48613790537","lat":"31.231558720298","category":"46","category_name":"楼宇","address":"卢湾区淮海中路2-8号"},{"poiid":"B2094654DA6EAAF8449D","title":"金钟广场","lon":"121.486","lat":"31.2316","category":"46","category_name":"楼宇","address":"卢湾区淮海中路98号(近柳林路)"},{"poiid":"B2094753D76FAAFA449C","title":"上海滩国泰旗舰店","lon":"121.466011","lat":"31.216125","category":"249","category_name":"购物服务","address":"淮海中路868号"},{"poiid":"B209475CD564A7F84292","title":"上海滩新天地店","lon":"121.47463","lat":"31.22164","category":"119","category_name":"商场","address":"\"太仓路181弄新天地北里15号\r\n\""},{"poiid":"B209475CD564A7F8439E","title":"上海滩中信泰富店","lon":"121.45602","lat":"31.22851","category":"119","category_name":"商场","address":"\"南京西路1168号中信泰富广场，店铺号221.\r\n\""},{"poiid":"B209475CD564A7F84392","title":"上海滩浦东香格里拉店","lon":"121.50058","lat":"31.23634","category":"119","category_name":"商场","address":"浦东富成路33号香格里拉酒店内大堂层"},{"poiid":"B2094757DA6FA1FC489E","title":"南京路","lon":"121.48612976074219","lat":"31.23181184772342","category":"248","category_name":"生活娱乐","address":"上海 上海市 上海市南京路"},{"poiid":"B2094757D06EAAFD489D","title":"一兆韦德(城市会所店)","lon":"121.48567","lat":"31.23132","category":"221","category_name":"健身中心","address":"黄浦区河南中路1号(近延安东路)"},{"poiid":"B2094757D068A1F94693","title":"中福世福汇大酒店","lon":"121.48475","lat":"31.23242","category":"217","category_name":"旅馆招待所","address":"黄浦区广东路339号(山东中路口)"},{"poiid":"B2094757D06FA3FE459E","title":"沈家门兰嫂海鲜面(福建中路一店)","lon":"121.48276","lat":"31.23214","category":"88","category_name":"海鲜酒楼","address":"黄浦区福建中路120号(近福州路)"},{"poiid":"B2094654DA6EA6FC4699","title":"旺角广场","lon":"121.48483","lat":"31.23069","category":"46","category_name":"楼宇","address":"上海市虹口区四川北路1318号"},{"poiid":"B2094757D06FA6FF4498","title":"老北京前门烤鸭","lon":"121.4867704","lat":"31.2308891","category":"260","category_name":"其他","address":"黄浦区河南南路1号星腾大厦(延安东路口)"},{"poiid":"B2094757D069A3F44892","title":"上海市延安路隧道","lon":"121.484965738","lat":"31.2313593242","category":"500","category_name":"未知分类","address":"上海市延安路隧道"},{"poiid":"B2094757D06FABFE499C","title":"慈铭健康体检(广东路门诊部)","lon":"121.4836","lat":"31.23179","category":"162","category_name":"医院","address":"黄浦区广东路429号天赐公寓2楼(近上海书城)"},{"poiid":"B2094750DA6CA6FC4198","title":"台北纯k","lon":"121.483436","lat":"31.22928","category":"500","category_name":"未知分类","address":"浙江南路68号"},{"poiid":"B2094757D06FA2FA469F","title":"同济大学成人继续教育学院黄浦分校","lon":"121.48387908","lat":"31.230630874","category":"52","category_name":"高等院校","address":"上海延安东路205号"},{"poiid":"B2094757D06FA5F94992","title":"游人馆 桌面游戏 游乐场","lon":"121.48209669","lat":"31.230753554","category":"175","category_name":"棋牌室","address":"黄浦区湖北路20号中信福申大楼2楼A室(近上海书城)"},{"poiid":"B2094757D064A2FC419D","title":"避風塘","lon":"121.481941636","lat":"31.2304952344","category":"500","category_name":"未知分类","address":"上海福州路666號"},{"poiid":"B2094757D06FABFA469E","title":"中汇大厦","lon":"121.48686831","lat":"31.230220304","category":"46","category_name":"楼宇","address":"丰台学城海鹰路1号,3号"},{"poiid":"B2094757D165A2FF4398","title":"黄浦区","lon":"121.482597239","lat":"31.2320581764","category":"250","category_name":"公园户外","address":"上海黄浦区区域"},{"poiid":"B2094654DA6EA6FA409B","title":"金陵东路营业厅","lon":"121.48404","lat":"31.2287","category":"151","category_name":"电讯营业厅","address":"黄浦区金陵东路391号"},{"poiid":"B2094654DB6BA4F8419C","title":"锦江之星(外滩店)","lon":"121.48383","lat":"31.23028","category":"216","category_name":"经济型连锁酒店","address":"上海市福建南路33号(近延安东路隧道口)"},{"poiid":"B2094757D06FAAFD419E","title":"黄浦区机关大楼","lon":"121.484796694","lat":"31.2309905459","category":"252","category_name":"楼宇机构","address":"上海延安东路300号"},{"poiid":"B2094654DA6EA6FC479D","title":"上海新世界进修学院(延安东路)","lon":"121.48416","lat":"31.23063","category":"53","category_name":"成人教育","address":"延安东路205号"},{"poiid":"B2094751DA6DA1F4419D","title":"八佰伴","lon":"121.484531","lat":"31.231188","category":"500","category_name":"未知分类","address":null},{"poiid":"B2094654DA6FAAF8479C","title":"天赐酒店公寓","lon":"121.48318","lat":"31.23209","category":"250","category_name":"公园户外","address":"黄浦区广东路429号(福建中路口)"},{"poiid":"B209475DD265ABF5439D","title":"猫山榴莲王","lon":"121.482299","lat":"31.229858","category":"247","category_name":"餐饮美食","address":"上海市 浙江中路58号"},{"poiid":"B2094757D068A2FD4192","title":"荣腾渔乡 金陵店","lon":"121.48633527655","lat":"31.229725756023","category":"71","category_name":"四川菜","address":"黄浦区金陵东路275号(近河南南路)"},{"poiid":"B2094750D36BA5FA409A","title":"超级密室X-ROOM","lon":"121.48442","lat":"31.23169","category":"196","category_name":"公园","address":"黄浦区中山南路1029号幸福码头6号楼2楼(近南浦大桥)"},{"poiid":"B2094757D66EA4F94699","title":"一兆伟德城市会所","lon":"121.485223738","lat":"31.2317693329","category":"500","category_name":"未知分类","address":"黄浦区河南中路1号5楼(河南中路延安东路)"},{"poiid":"B2094757D068A3FD469A","title":"埃洛美甲","lon":"121.482538","lat":"31.229008","category":"149","category_name":"洗浴推拿场所","address":"上海浙江南路69号"},{"poiid":"B2094757D06FABF5479B","title":"福井日本料理(广东路店)","lon":"121.48504","lat":"31.23219","category":"95","category_name":"日本料理","address":"黄浦区广东路339号中福世福汇酒店(山东中路口)"},{"poiid":"B2094757D569A3FF469A","title":"萨莉亚意式餐厅(广东路店)","lon":"121.4831389","lat":"31.2322100000001","category":"98","category_name":"意式菜品餐厅","address":"黄浦区广东路429号天赐公寓(福建中路口)"},{"poiid":"B2094757D068A0FA459D","title":"自力教育福州路校区","lon":"121.48357426","lat":"31.232512423","category":"500","category_name":"未知分类","address":"黄浦区福州路355号东门文化商厦5楼(近山东中路)"},{"poiid":"B2094655D26EA5F54193","title":"贝纳斯西餐厅","lon":"121.48475","lat":"31.23233","category":"268","category_name":"自助","address":"黄浦区广东路339号中福世福汇酒店31楼(山东中路口)"},{"poiid":"B2094757D064A2FA4799","title":"海底捞","lon":"121.48322301","lat":"31.230217549","category":"500","category_name":"未知分类","address":"上海八佰伴"},{"poiid":"B2094757D068A0FB439B","title":"港乐港式茶餐厅","lon":"121.48488069","lat":"31.232128545","category":"72","category_name":"广东菜","address":"黄浦区广东路340号(近山东中路)"},{"poiid":"B2094753D66BA0FA4793","title":"豪厨","lon":"121.482566","lat":"31.230209","category":"247","category_name":"餐饮美食","address":"上海市 福州路666号2楼"},{"poiid":"B2094757D065A5FA499A","title":"星巴克 STARBUCKS (青浦东方商厦)","lon":"121.484208588","lat":"31.2312779524","category":"247","category_name":"餐饮美食","address":"上海青浦区公园路666号东方商厦"},{"poiid":"B2094757D065A4FC489B","title":"杏满楼","lon":"121.484336799","lat":"31.2300896628","category":"76","category_name":"上海菜","address":"黄浦区宁海东路48号1楼(近福建南路)"},{"poiid":"B2094750D568A3FC469B","title":"星巴克(海洋大厦店)","lon":"121.482","lat":"31.2308","category":"260","category_name":"其他","address":"黄浦区延安东路550号海洋大厦1楼(近浙江中路)"},{"poiid":"B2094757D06AA0FE4493","title":"香喷喷好面馆","lon":"121.48482810903","lat":"31.232632885867","category":"68","category_name":"快餐厅","address":"黄浦区山东中路95号(近广东路)"},{"poiid":"B2094654DA6EA6FF4499","title":"台园圆圆香云吞(浙江南路)","lon":"121.48259","lat":"31.22893","category":"68","category_name":"快餐厅","address":"黄浦区浙江南路75号(近延安东路)"},{"poiid":"B2094757D06AAAFC4093","title":"黄浦商业人才培训中心","lon":"121.48413","lat":"31.23034","category":"253","category_name":"校园生活","address":"黄浦区延安东路205号(近福建南路)"},{"poiid":"B2094757D469A1FE489C","title":"台园圆圆香云吞 广东路店","lon":"121.48454750232","lat":"31.232625932109","category":"87","category_name":"特色／地方风味餐厅","address":"黄浦区广东路360号(近山东中路)"},{"poiid":"B2094753D76CA3FB4393","title":"新天地","lon":"121.486091","lat":"31.229488","category":"500","category_name":"未知分类","address":"上海市 上海"},{"poiid":"B2094654DA6FAAFF4892","title":"延福大厦","lon":"121.48258","lat":"31.23141","category":"46","category_name":"楼宇","address":"浦东新区东方路2号"},{"poiid":"B2094753D26EA6FC409C","title":"龙拳功夫小龙虾","lon":"121.482101","lat":"31.229828","category":"247","category_name":"餐饮美食","address":"上海市 浙江南路48号"},{"poiid":"B2094757D464AAFB429A","title":"新亚大包 福建南路店","lon":"121.483850054","lat":"31.230013793","category":"68","category_name":"快餐厅","address":"黄浦区福建南路33号(近宁海东路)"},{"poiid":"B2094654DA6EAAFD479A","title":"力宝广场","lon":"121.482","lat":"31.2305","category":"119","category_name":"商场","address":"卢湾区淮海中路222号(近嵩山路)"},{"poiid":"B2094654DA6EAAF84098","title":"兰生大厦","lon":"121.48613790537","lat":"31.231558720298","category":"46","category_name":"楼宇","address":"卢湾区淮海中路2-8号"},{"poiid":"B2094654DA6EAAF8449D","title":"金钟广场","lon":"121.486","lat":"31.2316","category":"46","category_name":"楼宇","address":"卢湾区淮海中路98号(近柳林路)"},{"poiid":"B2094753D76FAAFA449C","title":"上海滩国泰旗舰店","lon":"121.466011","lat":"31.216125","category":"249","category_name":"购物服务","address":"淮海中路868号"},{"poiid":"B209475CD564A7F84292","title":"上海滩新天地店","lon":"121.47463","lat":"31.22164","category":"119","category_name":"商场","address":"\"太仓路181弄新天地北里15号\r\n\""},{"poiid":"B209475CD564A7F8439E","title":"上海滩中信泰富店","lon":"121.45602","lat":"31.22851","category":"119","category_name":"商场","address":"\"南京西路1168号中信泰富广场，店铺号221.\r\n\""},{"poiid":"B209475CD564A7F84392","title":"上海滩浦东香格里拉店","lon":"121.50058","lat":"31.23634","category":"119","category_name":"商场","address":"浦东富成路33号香格里拉酒店内大堂层"},{"poiid":"B2094757DA6FA1FC489E","title":"南京路","lon":"121.48612976074219","lat":"31.23181184772342","category":"248","category_name":"生活娱乐","address":"上海 上海市 上海市南京路"},{"poiid":"B2094757D06EAAFD489D","title":"一兆韦德(城市会所店)","lon":"121.48567","lat":"31.23132","category":"221","category_name":"健身中心","address":"黄浦区河南中路1号(近延安东路)"},{"poiid":"B2094757D068A1F94693","title":"中福世福汇大酒店","lon":"121.48475","lat":"31.23242","category":"217","category_name":"旅馆招待所","address":"黄浦区广东路339号(山东中路口)"},{"poiid":"B2094757D06FA3FE459E","title":"沈家门兰嫂海鲜面(福建中路一店)","lon":"121.48276","lat":"31.23214","category":"88","category_name":"海鲜酒楼","address":"黄浦区福建中路120号(近福州路)"},{"poiid":"B2094654DA6EA6FC4699","title":"旺角广场","lon":"121.48483","lat":"31.23069","category":"46","category_name":"楼宇","address":"上海市虹口区四川北路1318号"},{"poiid":"B2094757D06FA6FF4498","title":"老北京前门烤鸭","lon":"121.4867704","lat":"31.2308891","category":"260","category_name":"其他","address":"黄浦区河南南路1号星腾大厦(延安东路口)"},{"poiid":"B2094757D069A3F44892","title":"上海市延安路隧道","lon":"121.484965738","lat":"31.2313593242","category":"500","category_name":"未知分类","address":"上海市延安路隧道"},{"poiid":"B2094757D06FABFE499C","title":"慈铭健康体检(广东路门诊部)","lon":"121.4836","lat":"31.23179","category":"162","category_name":"医院","address":"黄浦区广东路429号天赐公寓2楼(近上海书城)"},{"poiid":"B2094750DA6CA6FC4198","title":"台北纯k","lon":"121.483436","lat":"31.22928","category":"500","category_name":"未知分类","address":"浙江南路68号"},{"poiid":"B2094757D06FA2FA469F","title":"同济大学成人继续教育学院黄浦分校","lon":"121.48387908","lat":"31.230630874","category":"52","category_name":"高等院校","address":"上海延安东路205号"},{"poiid":"B2094757D06FA5F94992","title":"游人馆 桌面游戏 游乐场","lon":"121.48209669","lat":"31.230753554","category":"175","category_name":"棋牌室","address":"黄浦区湖北路20号中信福申大楼2楼A室(近上海书城)"},{"poiid":"B2094757D064A2FC419D","title":"避風塘","lon":"121.481941636","lat":"31.2304952344","category":"500","category_name":"未知分类","address":"上海福州路666號"},{"poiid":"B2094757D06FABFA469E","title":"中汇大厦","lon":"121.48686831","lat":"31.230220304","category":"46","category_name":"楼宇","address":"丰台学城海鹰路1号,3号"},{"poiid":"B2094757D165A2FF4398","title":"黄浦区","lon":"121.482597239","lat":"31.2320581764","category":"250","category_name":"公园户外","address":"上海黄浦区区域"},{"poiid":"B2094654DA6EA6FA409B","title":"金陵东路营业厅","lon":"121.48404","lat":"31.2287","category":"151","category_name":"电讯营业厅","address":"黄浦区金陵东路391号"},{"poiid":"B2094654DB6BA4F8419C","title":"锦江之星(外滩店)","lon":"121.48383","lat":"31.23028","category":"216","category_name":"经济型连锁酒店","address":"上海市福建南路33号(近延安东路隧道口)"},{"poiid":"B2094757D06FAAFD419E","title":"黄浦区机关大楼","lon":"121.484796694","lat":"31.2309905459","category":"252","category_name":"楼宇机构","address":"上海延安东路300号"},{"poiid":"B2094654DA6EA6FC479D","title":"上海新世界进修学院(延安东路)","lon":"121.48416","lat":"31.23063","category":"53","category_name":"成人教育","address":"延安东路205号"},{"poiid":"B2094751DA6DA1F4419D","title":"八佰伴","lon":"121.484531","lat":"31.231188","category":"500","category_name":"未知分类","address":null},{"poiid":"B2094654DA6FAAF8479C","title":"天赐酒店公寓","lon":"121.48318","lat":"31.23209","category":"250","category_name":"公园户外","address":"黄浦区广东路429号(福建中路口)"},{"poiid":"B209475DD265ABF5439D","title":"猫山榴莲王","lon":"121.482299","lat":"31.229858","category":"247","category_name":"餐饮美食","address":"上海市 浙江中路58号"},{"poiid":"B2094757D068A2FD4192","title":"荣腾渔乡 金陵店","lon":"121.48633527655","lat":"31.229725756023","category":"71","category_name":"四川菜","address":"黄浦区金陵东路275号(近河南南路)"},{"poiid":"B2094750D36BA5FA409A","title":"超级密室X-ROOM","lon":"121.48442","lat":"31.23169","category":"196","category_name":"公园","address":"黄浦区中山南路1029号幸福码头6号楼2楼(近南浦大桥)"},{"poiid":"B2094757D66EA4F94699","title":"一兆伟德城市会所","lon":"121.485223738","lat":"31.2317693329","category":"500","category_name":"未知分类","address":"黄浦区河南中路1号5楼(河南中路延安东路)"},{"poiid":"B2094757D068A3FD469A","title":"埃洛美甲","lon":"121.482538","lat":"31.229008","category":"149","category_name":"洗浴推拿场所","address":"上海浙江南路69号"},{"poiid":"B2094757D06FABF5479B","title":"福井日本料理(广东路店)","lon":"121.48504","lat":"31.23219","category":"95","category_name":"日本料理","address":"黄浦区广东路339号中福世福汇酒店(山东中路口)"},{"poiid":"B2094757D569A3FF469A","title":"萨莉亚意式餐厅(广东路店)","lon":"121.4831389","lat":"31.2322100000001","category":"98","category_name":"意式菜品餐厅","address":"黄浦区广东路429号天赐公寓(福建中路口)"},{"poiid":"B2094757D068A0FA459D","title":"自力教育福州路校区","lon":"121.48357426","lat":"31.232512423","category":"500","category_name":"未知分类","address":"黄浦区福州路355号东门文化商厦5楼(近山东中路)"},{"poiid":"B2094655D26EA5F54193","title":"贝纳斯西餐厅","lon":"121.48475","lat":"31.23233","category":"268","category_name":"自助","address":"黄浦区广东路339号中福世福汇酒店31楼(山东中路口)"},{"poiid":"B2094757D064A2FA4799","title":"海底捞","lon":"121.48322301","lat":"31.230217549","category":"500","category_name":"未知分类","address":"上海八佰伴"},{"poiid":"B2094757D068A0FB439B","title":"港乐港式茶餐厅","lon":"121.48488069","lat":"31.232128545","category":"72","category_name":"广东菜","address":"黄浦区广东路340号(近山东中路)"},{"poiid":"B2094753D66BA0FA4793","title":"豪厨","lon":"121.482566","lat":"31.230209","category":"247","category_name":"餐饮美食","address":"上海市 福州路666号2楼"},{"poiid":"B2094757D065A5FA499A","title":"星巴克 STARBUCKS (青浦东方商厦)","lon":"121.484208588","lat":"31.2312779524","category":"247","category_name":"餐饮美食","address":"上海青浦区公园路666号东方商厦"},{"poiid":"B2094757D065A4FC489B","title":"杏满楼","lon":"121.484336799","lat":"31.2300896628","category":"76","category_name":"上海菜","address":"黄浦区宁海东路48号1楼(近福建南路)"},{"poiid":"B2094750D568A3FC469B","title":"星巴克(海洋大厦店)","lon":"121.482","lat":"31.2308","category":"260","category_name":"其他","address":"黄浦区延安东路550号海洋大厦1楼(近浙江中路)"},{"poiid":"B2094757D06AA0FE4493","title":"香喷喷好面馆","lon":"121.48482810903","lat":"31.232632885867","category":"68","category_name":"快餐厅","address":"黄浦区山东中路95号(近广东路)"},{"poiid":"B2094654DA6EA6FF4499","title":"台园圆圆香云吞(浙江南路)","lon":"121.48259","lat":"31.22893","category":"68","category_name":"快餐厅","address":"黄浦区浙江南路75号(近延安东路)"},{"poiid":"B2094757D06AAAFC4093","title":"黄浦商业人才培训中心","lon":"121.48413","lat":"31.23034","category":"253","category_name":"校园生活","address":"黄浦区延安东路205号(近福建南路)"},{"poiid":"B2094757D469A1FE489C","title":"台园圆圆香云吞 广东路店","lon":"121.48454750232","lat":"31.232625932109","category":"87","category_name":"特色／地方风味餐厅","address":"黄浦区广东路360号(近山东中路)"},{"poiid":"B2094753D76CA3FB4393","title":"新天地","lon":"121.486091","lat":"31.229488","category":"500","category_name":"未知分类","address":"上海市 上海"},{"poiid":"B2094654DA6FAAFF4892","title":"延福大厦","lon":"121.48258","lat":"31.23141","category":"46","category_name":"楼宇","address":"浦东新区东方路2号"},{"poiid":"B2094753D26EA6FC409C","title":"龙拳功夫小龙虾","lon":"121.482101","lat":"31.229828","category":"247","category_name":"餐饮美食","address":"上海市 浙江南路48号"},{"poiid":"B2094757D464AAFB429A","title":"新亚大包 福建南路店","lon":"121.483850054","lat":"31.230013793","category":"68","category_name":"快餐厅","address":"黄浦区福建南路33号(近宁海东路)"},{"poiid":"B2094654DA6EAAFD479A","title":"力宝广场","lon":"121.482","lat":"31.2305","category":"119","category_name":"商场","address":"卢湾区淮海中路222号(近嵩山路)"},{"poiid":"B2094654DA6EAAF84098","title":"兰生大厦","lon":"121.48613790537","lat":"31.231558720298","category":"46","category_name":"楼宇","address":"卢湾区淮海中路2-8号"},{"poiid":"B2094654DA6EAAF8449D","title":"金钟广场","lon":"121.486","lat":"31.2316","category":"46","category_name":"楼宇","address":"卢湾区淮海中路98号(近柳林路)"},{"poiid":"B2094753D76FAAFA449C","title":"上海滩国泰旗舰店","lon":"121.466011","lat":"31.216125","category":"249","category_name":"购物服务","address":"淮海中路868号"},{"poiid":"B209475CD564A7F84292","title":"上海滩新天地店","lon":"121.47463","lat":"31.22164","category":"119","category_name":"商场","address":"\"太仓路181弄新天地北里15号\r\n\""},{"poiid":"B209475CD564A7F8439E","title":"上海滩中信泰富店","lon":"121.45602","lat":"31.22851","category":"119","category_name":"商场","address":"\"南京西路1168号中信泰富广场，店铺号221.\r\n\""},{"poiid":"B209475CD564A7F84392","title":"上海滩浦东香格里拉店","lon":"121.50058","lat":"31.23634","category":"119","category_name":"商场","address":"浦东富成路33号香格里拉酒店内大堂层"},{"poiid":"B2094757DA6FA1FC489E","title":"南京路","lon":"121.48612976074219","lat":"31.23181184772342","category":"248","category_name":"生活娱乐","address":"上海 上海市 上海市南京路"},{"poiid":"B2094757D06EAAFD489D","title":"一兆韦德(城市会所店)","lon":"121.48567","lat":"31.23132","category":"221","category_name":"健身中心","address":"黄浦区河南中路1号(近延安东路)"},{"poiid":"B2094757D068A1F94693","title":"中福世福汇大酒店","lon":"121.48475","lat":"31.23242","category":"217","category_name":"旅馆招待所","address":"黄浦区广东路339号(山东中路口)"},{"poiid":"B2094757D06FA3FE459E","title":"沈家门兰嫂海鲜面(福建中路一店)","lon":"121.48276","lat":"31.23214","category":"88","category_name":"海鲜酒楼","address":"黄浦区福建中路120号(近福州路)"},{"poiid":"B2094654DA6EA6FC4699","title":"旺角广场","lon":"121.48483","lat":"31.23069","category":"46","category_name":"楼宇","address":"上海市虹口区四川北路1318号"},{"poiid":"B2094757D06FA6FF4498","title":"老北京前门烤鸭","lon":"121.4867704","lat":"31.2308891","category":"260","category_name":"其他","address":"黄浦区河南南路1号星腾大厦(延安东路口)"},{"poiid":"B2094757D069A3F44892","title":"上海市延安路隧道","lon":"121.484965738","lat":"31.2313593242","category":"500","category_name":"未知分类","address":"上海市延安路隧道"},{"poiid":"B2094757D06FABFE499C","title":"慈铭健康体检(广东路门诊部)","lon":"121.4836","lat":"31.23179","category":"162","category_name":"医院","address":"黄浦区广东路429号天赐公寓2楼(近上海书城)"},{"poiid":"B2094750DA6CA6FC4198","title":"台北纯k","lon":"121.483436","lat":"31.22928","category":"500","category_name":"未知分类","address":"浙江南路68号"},{"poiid":"B2094757D06FA2FA469F","title":"同济大学成人继续教育学院黄浦分校","lon":"121.48387908","lat":"31.230630874","category":"52","category_name":"高等院校","address":"上海延安东路205号"},{"poiid":"B2094757D06FA5F94992","title":"游人馆 桌面游戏 游乐场","lon":"121.48209669","lat":"31.230753554","category":"175","category_name":"棋牌室","address":"黄浦区湖北路20号中信福申大楼2楼A室(近上海书城)"},{"poiid":"B2094757D064A2FC419D","title":"避風塘","lon":"121.481941636","lat":"31.2304952344","category":"500","category_name":"未知分类","address":"上海福州路666號"},{"poiid":"B2094757D06FABFA469E","title":"中汇大厦","lon":"121.48686831","lat":"31.230220304","category":"46","category_name":"楼宇","address":"丰台学城海鹰路1号,3号"},{"poiid":"B2094757D165A2FF4398","title":"黄浦区","lon":"121.482597239","lat":"31.2320581764","category":"250","category_name":"公园户外","address":"上海黄浦区区域"},{"poiid":"B2094654DA6EA6FA409B","title":"金陵东路营业厅","lon":"121.48404","lat":"31.2287","category":"151","category_name":"电讯营业厅","address":"黄浦区金陵东路391号"},{"poiid":"B2094654DB6BA4F8419C","title":"锦江之星(外滩店)","lon":"121.48383","lat":"31.23028","category":"216","category_name":"经济型连锁酒店","address":"上海市福建南路33号(近延安东路隧道口)"},{"poiid":"B2094757D06FAAFD419E","title":"黄浦区机关大楼","lon":"121.484796694","lat":"31.2309905459","category":"252","category_name":"楼宇机构","address":"上海延安东路300号"},{"poiid":"B2094654DA6EA6FC479D","title":"上海新世界进修学院(延安东路)","lon":"121.48416","lat":"31.23063","category":"53","category_name":"成人教育","address":"延安东路205号"},{"poiid":"B2094751DA6DA1F4419D","title":"八佰伴","lon":"121.484531","lat":"31.231188","category":"500","category_name":"未知分类","address":null},{"poiid":"B2094654DA6FAAF8479C","title":"天赐酒店公寓","lon":"121.48318","lat":"31.23209","category":"250","category_name":"公园户外","address":"黄浦区广东路429号(福建中路口)"},{"poiid":"B209475DD265ABF5439D","title":"猫山榴莲王","lon":"121.482299","lat":"31.229858","category":"247","category_name":"餐饮美食","address":"上海市 浙江中路58号"},{"poiid":"B2094757D068A2FD4192","title":"荣腾渔乡 金陵店","lon":"121.48633527655","lat":"31.229725756023","category":"71","category_name":"四川菜","address":"黄浦区金陵东路275号(近河南南路)"},{"poiid":"B2094750D36BA5FA409A","title":"超级密室X-ROOM","lon":"121.48442","lat":"31.23169","category":"196","category_name":"公园","address":"黄浦区中山南路1029号幸福码头6号楼2楼(近南浦大桥)"},{"poiid":"B2094757D66EA4F94699","title":"一兆伟德城市会所","lon":"121.485223738","lat":"31.2317693329","category":"500","category_name":"未知分类","address":"黄浦区河南中路1号5楼(河南中路延安东路)"},{"poiid":"B2094757D068A3FD469A","title":"埃洛美甲","lon":"121.482538","lat":"31.229008","category":"149","category_name":"洗浴推拿场所","address":"上海浙江南路69号"},{"poiid":"B2094757D06FABF5479B","title":"福井日本料理(广东路店)","lon":"121.48504","lat":"31.23219","category":"95","category_name":"日本料理","address":"黄浦区广东路339号中福世福汇酒店(山东中路口)"},{"poiid":"B2094757D569A3FF469A","title":"萨莉亚意式餐厅(广东路店)","lon":"121.4831389","lat":"31.2322100000001","category":"98","category_name":"意式菜品餐厅","address":"黄浦区广东路429号天赐公寓(福建中路口)"},{"poiid":"B2094757D068A0FA459D","title":"自力教育福州路校区","lon":"121.48357426","lat":"31.232512423","category":"500","category_name":"未知分类","address":"黄浦区福州路355号东门文化商厦5楼(近山东中路)"},{"poiid":"B2094655D26EA5F54193","title":"贝纳斯西餐厅","lon":"121.48475","lat":"31.23233","category":"268","category_name":"自助","address":"黄浦区广东路339号中福世福汇酒店31楼(山东中路口)"},{"poiid":"B2094757D064A2FA4799","title":"海底捞","lon":"121.48322301","lat":"31.230217549","category":"500","category_name":"未知分类","address":"上海八佰伴"},{"poiid":"B2094757D068A0FB439B","title":"港乐港式茶餐厅","lon":"121.48488069","lat":"31.232128545","category":"72","category_name":"广东菜","address":"黄浦区广东路340号(近山东中路)"},{"poiid":"B2094753D66BA0FA4793","title":"豪厨","lon":"121.482566","lat":"31.230209","category":"247","category_name":"餐饮美食","address":"上海市 福州路666号2楼"},{"poiid":"B2094757D065A5FA499A","title":"星巴克 STARBUCKS (青浦东方商厦)","lon":"121.484208588","lat":"31.2312779524","category":"247","category_name":"餐饮美食","address":"上海青浦区公园路666号东方商厦"},{"poiid":"B2094757D065A4FC489B","title":"杏满楼","lon":"121.484336799","lat":"31.2300896628","category":"76","category_name":"上海菜","address":"黄浦区宁海东路48号1楼(近福建南路)"},{"poiid":"B2094750D568A3FC469B","title":"星巴克(海洋大厦店)","lon":"121.482","lat":"31.2308","category":"260","category_name":"其他","address":"黄浦区延安东路550号海洋大厦1楼(近浙江中路)"},{"poiid":"B2094757D06AA0FE4493","title":"香喷喷好面馆","lon":"121.48482810903","lat":"31.232632885867","category":"68","category_name":"快餐厅","address":"黄浦区山东中路95号(近广东路)"},{"poiid":"B2094654DA6EA6FF4499","title":"台园圆圆香云吞(浙江南路)","lon":"121.48259","lat":"31.22893","category":"68","category_name":"快餐厅","address":"黄浦区浙江南路75号(近延安东路)"},{"poiid":"B2094757D06AAAFC4093","title":"黄浦商业人才培训中心","lon":"121.48413","lat":"31.23034","category":"253","category_name":"校园生活","address":"黄浦区延安东路205号(近福建南路)"},{"poiid":"B2094757D469A1FE489C","title":"台园圆圆香云吞 广东路店","lon":"121.48454750232","lat":"31.232625932109","category":"87","category_name":"特色／地方风味餐厅","address":"黄浦区广东路360号(近山东中路)"},{"poiid":"B2094753D76CA3FB4393","title":"新天地","lon":"121.486091","lat":"31.229488","category":"500","category_name":"未知分类","address":"上海市 上海"},{"poiid":"B2094654DA6FAAFF4892","title":"延福大厦","lon":"121.48258","lat":"31.23141","category":"46","category_name":"楼宇","address":"浦东新区东方路2号"},{"poiid":"B2094753D26EA6FC409C","title":"龙拳功夫小龙虾","lon":"121.482101","lat":"31.229828","category":"247","category_name":"餐饮美食","address":"上海市 浙江南路48号"},{"poiid":"B2094757D464AAFB429A","title":"新亚大包 福建南路店","lon":"121.483850054","lat":"31.230013793","category":"68","category_name":"快餐厅","address":"黄浦区福建南路33号(近宁海东路)"},{"poiid":"B2094654DA6EAAFD479A","title":"力宝广场","lon":"121.482","lat":"31.2305","category":"119","category_name":"商场","address":"卢湾区淮海中路222号(近嵩山路)"},{"poiid":"B2094654DA6EAAF84098","title":"兰生大厦","lon":"121.48613790537","lat":"31.231558720298","category":"46","category_name":"楼宇","address":"卢湾区淮海中路2-8号"},{"poiid":"B2094654DA6EAAF8449D","title":"金钟广场","lon":"121.486","lat":"31.2316","category":"46","category_name":"楼宇","address":"卢湾区淮海中路98号(近柳林路)"},{"poiid":"B2094753D76FAAFA449C","title":"上海滩国泰旗舰店","lon":"121.466011","lat":"31.216125","category":"249","category_name":"购物服务","address":"淮海中路868号"},{"poiid":"B209475CD564A7F84292","title":"上海滩新天地店","lon":"121.47463","lat":"31.22164","category":"119","category_name":"商场","address":"\"太仓路181弄新天地北里15号\r\n\""},{"poiid":"B209475CD564A7F8439E","title":"上海滩中信泰富店","lon":"121.45602","lat":"31.22851","category":"119","category_name":"商场","address":"\"南京西路1168号中信泰富广场，店铺号221.\r\n\""},{"poiid":"B209475CD564A7F84392","title":"上海滩浦东香格里拉店","lon":"121.50058","lat":"31.23634","category":"119","category_name":"商场","address":"浦东富成路33号香格里拉酒店内大堂层"},{"poiid":"B2094757DA6FA1FC489E","title":"南京路","lon":"121.48612976074219","lat":"31.23181184772342","category":"248","category_name":"生活娱乐","address":"上海 上海市 上海市南京路"},{"poiid":"B2094757D06EAAFD489D","title":"一兆韦德(城市会所店)","lon":"121.48567","lat":"31.23132","category":"221","category_name":"健身中心","address":"黄浦区河南中路1号(近延安东路)"},{"poiid":"B2094757D068A1F94693","title":"中福世福汇大酒店","lon":"121.48475","lat":"31.23242","category":"217","category_name":"旅馆招待所","address":"黄浦区广东路339号(山东中路口)"},{"poiid":"B2094757D06FA3FE459E","title":"沈家门兰嫂海鲜面(福建中路一店)","lon":"121.48276","lat":"31.23214","category":"88","category_name":"海鲜酒楼","address":"黄浦区福建中路120号(近福州路)"},{"poiid":"B2094654DA6EA6FC4699","title":"旺角广场","lon":"121.48483","lat":"31.23069","category":"46","category_name":"楼宇","address":"上海市虹口区四川北路1318号"},{"poiid":"B2094757D06FA6FF4498","title":"老北京前门烤鸭","lon":"121.4867704","lat":"31.2308891","category":"260","category_name":"其他","address":"黄浦区河南南路1号星腾大厦(延安东路口)"},{"poiid":"B2094757D069A3F44892","title":"上海市延安路隧道","lon":"121.484965738","lat":"31.2313593242","category":"500","category_name":"未知分类","address":"上海市延安路隧道"},{"poiid":"B2094757D06FABFE499C","title":"慈铭健康体检(广东路门诊部)","lon":"121.4836","lat":"31.23179","category":"162","category_name":"医院","address":"黄浦区广东路429号天赐公寓2楼(近上海书城)"},{"poiid":"B2094750DA6CA6FC4198","title":"台北纯k","lon":"121.483436","lat":"31.22928","category":"500","category_name":"未知分类","address":"浙江南路68号"},{"poiid":"B2094757D06FA2FA469F","title":"同济大学成人继续教育学院黄浦分校","lon":"121.48387908","lat":"31.230630874","category":"52","category_name":"高等院校","address":"上海延安东路205号"},{"poiid":"B2094757D06FA5F94992","title":"游人馆 桌面游戏 游乐场","lon":"121.48209669","lat":"31.230753554","category":"175","category_name":"棋牌室","address":"黄浦区湖北路20号中信福申大楼2楼A室(近上海书城)"},{"poiid":"B2094757D064A2FC419D","title":"避風塘","lon":"121.481941636","lat":"31.2304952344","category":"500","category_name":"未知分类","address":"上海福州路666號"},{"poiid":"B2094757D06FABFA469E","title":"中汇大厦","lon":"121.48686831","lat":"31.230220304","category":"46","category_name":"楼宇","address":"丰台学城海鹰路1号,3号"},{"poiid":"B2094757D165A2FF4398","title":"黄浦区","lon":"121.482597239","lat":"31.2320581764","category":"250","category_name":"公园户外","address":"上海黄浦区区域"},{"poiid":"B2094654DA6EA6FA409B","title":"金陵东路营业厅","lon":"121.48404","lat":"31.2287","category":"151","category_name":"电讯营业厅","address":"黄浦区金陵东路391号"},{"poiid":"B2094654DB6BA4F8419C","title":"锦江之星(外滩店)","lon":"121.48383","lat":"31.23028","category":"216","category_name":"经济型连锁酒店","address":"上海市福建南路33号(近延安东路隧道口)"},{"poiid":"B2094757D06FAAFD419E","title":"黄浦区机关大楼","lon":"121.484796694","lat":"31.2309905459","category":"252","category_name":"楼宇机构","address":"上海延安东路300号"},{"poiid":"B2094654DA6EA6FC479D","title":"上海新世界进修学院(延安东路)","lon":"121.48416","lat":"31.23063","category":"53","category_name":"成人教育","address":"延安东路205号"},{"poiid":"B2094751DA6DA1F4419D","title":"八佰伴","lon":"121.484531","lat":"31.231188","category":"500","category_name":"未知分类","address":null},{"poiid":"B2094654DA6FAAF8479C","title":"天赐酒店公寓","lon":"121.48318","lat":"31.23209","category":"250","category_name":"公园户外","address":"黄浦区广东路429号(福建中路口)"},{"poiid":"B209475DD265ABF5439D","title":"猫山榴莲王","lon":"121.482299","lat":"31.229858","category":"247","category_name":"餐饮美食","address":"上海市 浙江中路58号"},{"poiid":"B2094757D068A2FD4192","title":"荣腾渔乡 金陵店","lon":"121.48633527655","lat":"31.229725756023","category":"71","category_name":"四川菜","address":"黄浦区金陵东路275号(近河南南路)"},{"poiid":"B2094750D36BA5FA409A","title":"超级密室X-ROOM","lon":"121.48442","lat":"31.23169","category":"196","category_name":"公园","address":"黄浦区中山南路1029号幸福码头6号楼2楼(近南浦大桥)"},{"poiid":"B2094757D66EA4F94699","title":"一兆伟德城市会所","lon":"121.485223738","lat":"31.2317693329","category":"500","category_name":"未知分类","address":"黄浦区河南中路1号5楼(河南中路延安东路)"},{"poiid":"B2094757D068A3FD469A","title":"埃洛美甲","lon":"121.482538","lat":"31.229008","category":"149","category_name":"洗浴推拿场所","address":"上海浙江南路69号"},{"poiid":"B2094757D06FABF5479B","title":"福井日本料理(广东路店)","lon":"121.48504","lat":"31.23219","category":"95","category_name":"日本料理","address":"黄浦区广东路339号中福世福汇酒店(山东中路口)"},{"poiid":"B2094757D569A3FF469A","title":"萨莉亚意式餐厅(广东路店)","lon":"121.4831389","lat":"31.2322100000001","category":"98","category_name":"意式菜品餐厅","address":"黄浦区广东路429号天赐公寓(福建中路口)"},{"poiid":"B2094757D068A0FA459D","title":"自力教育福州路校区","lon":"121.48357426","lat":"31.232512423","category":"500","category_name":"未知分类","address":"黄浦区福州路355号东门文化商厦5楼(近山东中路)"},{"poiid":"B2094655D26EA5F54193","title":"贝纳斯西餐厅","lon":"121.48475","lat":"31.23233","category":"268","category_name":"自助","address":"黄浦区广东路339号中福世福汇酒店31楼(山东中路口)"},{"poiid":"B2094757D064A2FA4799","title":"海底捞","lon":"121.48322301","lat":"31.230217549","category":"500","category_name":"未知分类","address":"上海八佰伴"},{"poiid":"B2094757D068A0FB439B","title":"港乐港式茶餐厅","lon":"121.48488069","lat":"31.232128545","category":"72","category_name":"广东菜","address":"黄浦区广东路340号(近山东中路)"},{"poiid":"B2094753D66BA0FA4793","title":"豪厨","lon":"121.482566","lat":"31.230209","category":"247","category_name":"餐饮美食","address":"上海市 福州路666号2楼"},{"poiid":"B2094757D065A5FA499A","title":"星巴克 STARBUCKS (青浦东方商厦)","lon":"121.484208588","lat":"31.2312779524","category":"247","category_name":"餐饮美食","address":"上海青浦区公园路666号东方商厦"},{"poiid":"B2094757D065A4FC489B","title":"杏满楼","lon":"121.484336799","lat":"31.2300896628","category":"76","category_name":"上海菜","address":"黄浦区宁海东路48号1楼(近福建南路)"},{"poiid":"B2094750D568A3FC469B","title":"星巴克(海洋大厦店)","lon":"121.482","lat":"31.2308","category":"260","category_name":"其他","address":"黄浦区延安东路550号海洋大厦1楼(近浙江中路)"},{"poiid":"B2094757D06AA0FE4493","title":"香喷喷好面馆","lon":"121.48482810903","lat":"31.232632885867","category":"68","category_name":"快餐厅","address":"黄浦区山东中路95号(近广东路)"},{"poiid":"B2094654DA6EA6FF4499","title":"台园圆圆香云吞(浙江南路)","lon":"121.48259","lat":"31.22893","category":"68","category_name":"快餐厅","address":"黄浦区浙江南路75号(近延安东路)"},{"poiid":"B2094757D06AAAFC4093","title":"黄浦商业人才培训中心","lon":"121.48413","lat":"31.23034","category":"253","category_name":"校园生活","address":"黄浦区延安东路205号(近福建南路)"},{"poiid":"B2094757D469A1FE489C","title":"台园圆圆香云吞 广东路店","lon":"121.48454750232","lat":"31.232625932109","category":"87","category_name":"特色／地方风味餐厅","address":"黄浦区广东路360号(近山东中路)"},{"poiid":"B2094753D76CA3FB4393","title":"新天地","lon":"121.486091","lat":"31.229488","category":"500","category_name":"未知分类","address":"上海市 上海"},{"poiid":"B2094654DA6FAAFF4892","title":"延福大厦","lon":"121.48258","lat":"31.23141","category":"46","category_name":"楼宇","address":"浦东新区东方路2号"},{"poiid":"B2094753D26EA6FC409C","title":"龙拳功夫小龙虾","lon":"121.482101","lat":"31.229828","category":"247","category_name":"餐饮美食","address":"上海市 浙江南路48号"},{"poiid":"B2094757D464AAFB429A","title":"新亚大包 福建南路店","lon":"121.483850054","lat":"31.230013793","category":"68","category_name":"快餐厅","address":"黄浦区福建南路33号(近宁海东路)"}]