[{"poiid":"B2094757D06FAAFA4099","title":"位育中学","lon":"121.44379197","lat":"31.121022923","category":"55","category_name":"中学","address":"徐汇区位育路1号(近徐浦大桥)"},{"poiid":"B2094757D06FA1F5489B","title":"徐汇新城","lon":"121.453094482","lat":"31.1309185028","category":"47","category_name":"住宅区","address":"上海市徐汇区龙吴路1595号"},{"poiid":"B2094757D065A0FA4999","title":"馨宁公寓","lon":"121.44778","lat":"31.128372","category":"47","category_name":"住宅区","address":"上海华发路368弄"},{"poiid":"B2094655D26FA3F44393","title":"漓江山水花园","lon":"121.44562","lat":"31.116489","category":"47","category_name":"住宅区","address":"上海市徐汇区华泾路900号"},{"poiid":"B2094757D068A1F8419D","title":"上海市材料工程学校","lon":"121.446624394","lat":"31.1310546604","category":"52","category_name":"高等院校","address":"徐汇区罗秀新村136号(近龙吴路)"},{"poiid":"B2094655D26FAAFC479E","title":"徐汇臻园","lon":"121.45024","lat":"31.126078","category":"47","category_name":"住宅区","address":"上海市徐汇区华发路151号"},{"poiid":"B2094757D06FA2FA4192","title":"明丰新纪苑","lon":"121.45352","lat":"31.126495","category":"47","category_name":"住宅区","address":"上海市徐汇区华发路99弄"},{"poiid":"B2094757D068A0FF4693","title":"罗秀新村","lon":"121.44658","lat":"31.133022","category":"47","category_name":"住宅区","address":"上海市徐汇区龙川路"},{"poiid":"B2094757D068A2FF4499","title":"徐汇区体育馆","lon":"121.4476242","lat":"31.118782043","category":"220","category_name":"运动场所","address":"上海华泾路1190号"},{"poiid":"B2094757D068A4F4459B","title":"宁国禅寺","lon":"121.450095","lat":"31.116805","category":"244","category_name":"寺庙道观","address":"徐汇区长华路(近华泾路)"},{"poiid":"B2094757D065ABF4479E","title":"老沪闵路 朱梅路","lon":"121.436587","lat":"31.122507","category":"500","category_name":"未知分类","address":"上海老沪闵路,朱梅路"},{"poiid":"B2094757D065A2FB4799","title":"Agnes.b Sports 国金中心店","lon":"121.446125539","lat":"31.1264652854","category":"141","category_name":"服装鞋帽皮具店","address":"上海浦东新区陆家嘴世纪大道8号国金中心LG1"},{"poiid":"B2094757D06AA0FF429E","title":"外环高架","lon":"121.448594","lat":"31.121452","category":"500","category_name":"未知分类","address":"上海外环高架"},{"poiid":"B2094757D16CA1F8489D","title":"华发小区","lon":"121.45112485","lat":"31.128025923","category":"47","category_name":"住宅区","address":"华发小区位于徐汇华发路176号"},{"poiid":"B2094757DB6DA5FF409B","title":"格林豪泰商务酒店（上海徐浦大桥店）","lon":"121.445955634","lat":"31.126426767","category":"216","category_name":"经济型连锁酒店","address":"上海市徐汇区华发路411号(近长桥路)"},{"poiid":"B2094757D06FAAF44299","title":"JEANS日系造型SALON(京世罗秀店)","lon":"121.446207492","lat":"31.1338958601","category":"148","category_name":"美容美发店","address":"上海徐汇区罗秀路222号(近龙川北路)"},{"poiid":"B2094654DB6CA6F4459D","title":"徐汇区华泾地段医院","lon":"121.44448","lat":"31.12129","category":"162","category_name":"医院","address":"徐汇区建华路180号"},{"poiid":"B2094654DB6CA2FF4498","title":"长桥八村","lon":"121.43988","lat":"31.130894","category":"47","category_name":"住宅区","address":"上海罗秀路龙临路"},{"poiid":"B2094654DB6CA2FA4798","title":"徐汇臻园(边门)","lon":"121.44693","lat":"31.12648","category":"47","category_name":"住宅区","address":"华发路333弄"},{"poiid":"B2094757D16DA6FC4392","title":"华建一街坊","lon":"121.44035","lat":"31.120861","category":"500","category_name":"未知分类","address":"上海老沪闵路1296弄"},{"poiid":"B2094654DB6CA2FA459C","title":"黄道婆纪念馆","lon":"121.44872","lat":"31.12482","category":"243","category_name":"纪念馆","address":"徐梅路700号"},{"poiid":"B2094655D26EAAF5459D","title":"陈化成纪念馆","lon":"121.44872","lat":"31.12482","category":"243","category_name":"纪念馆","address":"徐汇区华泾镇东湾村13号"},{"poiid":"B2094654DB6CA6F4429C","title":"华径五村","lon":"121.44529","lat":"31.1191","category":"47","category_name":"住宅区","address":"上海市华泾路1000弄"},{"poiid":"B2094654DB6CA2FA449D","title":"徐汇区华泾镇建华村许家里","lon":"121.44286","lat":"31.12371","category":"47","category_name":"住宅区","address":""},{"poiid":"B2094654DB6CA2FA439D","title":"徐汇区华泾镇建华村许家里(南门)","lon":"121.44302","lat":"31.12338","category":"47","category_name":"住宅区","address":""},{"poiid":"B2094655D26FA5FD469A","title":"徐汇区逸夫小学","lon":"121.44274","lat":"31.13374","category":"56","category_name":"小学","address":"上海罗秀路400号"},{"poiid":"B2094654DB6CA5F8419F","title":"位育幼儿园","lon":"121.44548","lat":"31.12151","category":"57","category_name":"幼儿园","address":"徐汇区建华路102号(近位育路)"},{"poiid":"B2094757D06FA5FE469D","title":"徐汇华园","lon":"121.45417","lat":"31.128843","category":"47","category_name":"住宅区","address":"上海华发路58弄"},{"poiid":"B2094654DB6CA5F8489B","title":"上海市徐汇位育体校","lon":"121.4423","lat":"31.11761","category":"55","category_name":"中学","address":"徐汇区华泾路1190号"},{"poiid":"B2094757D165A1F44399","title":"华氏大药房(华泾店)","lon":"121.445419157","lat":"31.121020483","category":"162","category_name":"医院","address":"上海徐汇区建华路101号"},{"poiid":"B2094655D26EAAF9459F","title":"华泾四村","lon":"121.44778","lat":"31.119989","category":"47","category_name":"住宅区","address":"华泾路880弄"},{"poiid":"B2094654DB6CA4F9409A","title":"小区(建华路)","lon":"121.44739","lat":"31.12147","category":"47","category_name":"住宅区","address":"建华路"},{"poiid":"B2094655D26DA7F5419E","title":"长桥八村(北门)","lon":"121.44001","lat":"31.13194","category":"47","category_name":"住宅区","address":""},{"poiid":"B2094654DB6CA5F8499C","title":"联华(建华路)","lon":"121.44771","lat":"31.12154","category":"118","category_name":"超级市场","address":""},{"poiid":"B2094757D16BA7FF409D","title":"酩悦碳烧火锅","lon":"121.450950257","lat":"31.1240592438","category":"247","category_name":"餐饮美食","address":"上海莘庄龙之梦"},{"poiid":"B2094655D26EABFF499F","title":"好德便利No.143","lon":"121.45059","lat":"31.12679","category":"117","category_name":"便民商店/便利店","address":"华发路273-275"},{"poiid":"B2094654DB6CA5F4469B","title":"光明乳业徐浦配送站","lon":"121.44845","lat":"31.12052","category":"117","category_name":"便民商店/便利店","address":""},{"poiid":"B2094654DB6CA2FA439E","title":"上海广电电子学校住宿部","lon":"121.44013","lat":"31.12387","category":"47","category_name":"住宅区","address":""},{"poiid":"B2094757D66EABFB4499","title":"华泾镇社区卫生服务中心","lon":"121.445448057","lat":"31.1211615858","category":"500","category_name":"未知分类","address":"上海建华路180号"},{"poiid":"B2094655D26BA1FB4192","title":"罗秀路龙川路","lon":"121.44582","lat":"31.13364","category":"38","category_name":"公交车站","address":""},{"poiid":"B2094655D26EABFD459E","title":"上海市徐汇体育馆(南门)","lon":"121.44235","lat":"31.11746","category":"224","category_name":"综合体育馆","address":"华泾路1190"},{"poiid":"B2094757D16CA4F94198","title":"易初莲花(紫荆山路店)","lon":"121.44763262","lat":"31.1268896","category":"249","category_name":"购物服务","address":"郑州东大街(紫荆山路口)  "},{"poiid":"B2094654DB6CA2FA4393","title":"上海广电电子学校","lon":"121.43847","lat":"31.12314","category":"54","category_name":"职业技术学校","address":"老沪闵路1262、1266"},{"poiid":"B2094655D26FAAFC479C","title":"北杨村(南门)","lon":"121.43878","lat":"31.1245","category":"47","category_name":"住宅区","address":""},{"poiid":"B2094757D16BA3F4419B","title":"正好百貨商店","lon":"121.442585257","lat":"31.1228412194","category":"249","category_name":"购物服务","address":"上海徐匯區建華路99號"},{"poiid":"B2094654DB6CA6F4429F","title":"华泾新村","lon":"121.44799","lat":"31.11926","category":"47","category_name":"住宅区","address":"罗秀路1000号"},{"poiid":"B2094654DB6CA2FA4292","title":"上海现代物流公司长桥园区","lon":"121.44004","lat":"31.12428","category":"248","category_name":"生活娱乐","address":"老沪闵路1226"},{"poiid":"B2094655D268A7FA409D","title":"好又多超市","lon":"121.45323","lat":"31.12682","category":"118","category_name":"超级市场","address":""},{"poiid":"B2094654DB6CA2FF439D","title":"上海市长桥中学","lon":"121.43844","lat":"31.1303","category":"55","category_name":"中学","address":"徐汇区罗秀路400号(长华路罗秀路)"},{"poiid":"B2094655D268A7FD4893","title":"上海城市管理职业技术学院长桥分院","lon":"121.44671","lat":"31.13111","category":"54","category_name":"职业技术学校","address":"罗秀新村136号"},{"poiid":"B2094757D06FAAFA4099","title":"位育中学","lon":"121.44379197","lat":"31.121022923","category":"55","category_name":"中学","address":"徐汇区位育路1号(近徐浦大桥)"},{"poiid":"B2094757D06FA1F5489B","title":"徐汇新城","lon":"121.453094482","lat":"31.1309185028","category":"47","category_name":"住宅区","address":"上海市徐汇区龙吴路1595号"},{"poiid":"B2094757D065A0FA4999","title":"馨宁公寓","lon":"121.44778","lat":"31.128372","category":"47","category_name":"住宅区","address":"上海华发路368弄"},{"poiid":"B2094655D26FA3F44393","title":"漓江山水花园","lon":"121.44562","lat":"31.116489","category":"47","category_name":"住宅区","address":"上海市徐汇区华泾路900号"},{"poiid":"B2094757D068A1F8419D","title":"上海市材料工程学校","lon":"121.446624394","lat":"31.1310546604","category":"52","category_name":"高等院校","address":"徐汇区罗秀新村136号(近龙吴路)"},{"poiid":"B2094655D26FAAFC479E","title":"徐汇臻园","lon":"121.45024","lat":"31.126078","category":"47","category_name":"住宅区","address":"上海市徐汇区华发路151号"},{"poiid":"B2094757D06FA2FA4192","title":"明丰新纪苑","lon":"121.45352","lat":"31.126495","category":"47","category_name":"住宅区","address":"上海市徐汇区华发路99弄"},{"poiid":"B2094757D068A0FF4693","title":"罗秀新村","lon":"121.44658","lat":"31.133022","category":"47","category_name":"住宅区","address":"上海市徐汇区龙川路"},{"poiid":"B2094757D068A2FF4499","title":"徐汇区体育馆","lon":"121.4476242","lat":"31.118782043","category":"220","category_name":"运动场所","address":"上海华泾路1190号"},{"poiid":"B2094757D068A4F4459B","title":"宁国禅寺","lon":"121.450095","lat":"31.116805","category":"244","category_name":"寺庙道观","address":"徐汇区长华路(近华泾路)"},{"poiid":"B2094757D065ABF4479E","title":"老沪闵路 朱梅路","lon":"121.436587","lat":"31.122507","category":"500","category_name":"未知分类","address":"上海老沪闵路,朱梅路"},{"poiid":"B2094757D065A2FB4799","title":"Agnes.b Sports 国金中心店","lon":"121.446125539","lat":"31.1264652854","category":"141","category_name":"服装鞋帽皮具店","address":"上海浦东新区陆家嘴世纪大道8号国金中心LG1"},{"poiid":"B2094757D06AA0FF429E","title":"外环高架","lon":"121.448594","lat":"31.121452","category":"500","category_name":"未知分类","address":"上海外环高架"},{"poiid":"B2094757D16CA1F8489D","title":"华发小区","lon":"121.45112485","lat":"31.128025923","category":"47","category_name":"住宅区","address":"华发小区位于徐汇华发路176号"},{"poiid":"B2094757DB6DA5FF409B","title":"格林豪泰商务酒店（上海徐浦大桥店）","lon":"121.445955634","lat":"31.126426767","category":"216","category_name":"经济型连锁酒店","address":"上海市徐汇区华发路411号(近长桥路)"},{"poiid":"B2094757D06FAAF44299","title":"JEANS日系造型SALON(京世罗秀店)","lon":"121.446207492","lat":"31.1338958601","category":"148","category_name":"美容美发店","address":"上海徐汇区罗秀路222号(近龙川北路)"},{"poiid":"B2094654DB6CA6F4459D","title":"徐汇区华泾地段医院","lon":"121.44448","lat":"31.12129","category":"162","category_name":"医院","address":"徐汇区建华路180号"},{"poiid":"B2094654DB6CA2FF4498","title":"长桥八村","lon":"121.43988","lat":"31.130894","category":"47","category_name":"住宅区","address":"上海罗秀路龙临路"},{"poiid":"B2094654DB6CA2FA4798","title":"徐汇臻园(边门)","lon":"121.44693","lat":"31.12648","category":"47","category_name":"住宅区","address":"华发路333弄"},{"poiid":"B2094757D16DA6FC4392","title":"华建一街坊","lon":"121.44035","lat":"31.120861","category":"500","category_name":"未知分类","address":"上海老沪闵路1296弄"},{"poiid":"B2094654DB6CA2FA459C","title":"黄道婆纪念馆","lon":"121.44872","lat":"31.12482","category":"243","category_name":"纪念馆","address":"徐梅路700号"},{"poiid":"B2094655D26EAAF5459D","title":"陈化成纪念馆","lon":"121.44872","lat":"31.12482","category":"243","category_name":"纪念馆","address":"徐汇区华泾镇东湾村13号"},{"poiid":"B2094654DB6CA6F4429C","title":"华径五村","lon":"121.44529","lat":"31.1191","category":"47","category_name":"住宅区","address":"上海市华泾路1000弄"},{"poiid":"B2094654DB6CA2FA449D","title":"徐汇区华泾镇建华村许家里","lon":"121.44286","lat":"31.12371","category":"47","category_name":"住宅区","address":""},{"poiid":"B2094654DB6CA2FA439D","title":"徐汇区华泾镇建华村许家里(南门)","lon":"121.44302","lat":"31.12338","category":"47","category_name":"住宅区","address":""},{"poiid":"B2094655D26FA5FD469A","title":"徐汇区逸夫小学","lon":"121.44274","lat":"31.13374","category":"56","category_name":"小学","address":"上海罗秀路400号"},{"poiid":"B2094654DB6CA5F8419F","title":"位育幼儿园","lon":"121.44548","lat":"31.12151","category":"57","category_name":"幼儿园","address":"徐汇区建华路102号(近位育路)"},{"poiid":"B2094757D06FA5FE469D","title":"徐汇华园","lon":"121.45417","lat":"31.128843","category":"47","category_name":"住宅区","address":"上海华发路58弄"},{"poiid":"B2094654DB6CA5F8489B","title":"上海市徐汇位育体校","lon":"121.4423","lat":"31.11761","category":"55","category_name":"中学","address":"徐汇区华泾路1190号"},{"poiid":"B2094757D165A1F44399","title":"华氏大药房(华泾店)","lon":"121.445419157","lat":"31.121020483","category":"162","category_name":"医院","address":"上海徐汇区建华路101号"},{"poiid":"B2094655D26EAAF9459F","title":"华泾四村","lon":"121.44778","lat":"31.119989","category":"47","category_name":"住宅区","address":"华泾路880弄"},{"poiid":"B2094654DB6CA4F9409A","title":"小区(建华路)","lon":"121.44739","lat":"31.12147","category":"47","category_name":"住宅区","address":"建华路"},{"poiid":"B2094655D26DA7F5419E","title":"长桥八村(北门)","lon":"121.44001","lat":"31.13194","category":"47","category_name":"住宅区","address":""},{"poiid":"B2094654DB6CA5F8499C","title":"联华(建华路)","lon":"121.44771","lat":"31.12154","category":"118","category_name":"超级市场","address":""},{"poiid":"B2094757D16BA7FF409D","title":"酩悦碳烧火锅","lon":"121.450950257","lat":"31.1240592438","category":"247","category_name":"餐饮美食","address":"上海莘庄龙之梦"},{"poiid":"B2094655D26EABFF499F","title":"好德便利No.143","lon":"121.45059","lat":"31.12679","category":"117","category_name":"便民商店/便利店","address":"华发路273-275"},{"poiid":"B2094654DB6CA5F4469B","title":"光明乳业徐浦配送站","lon":"121.44845","lat":"31.12052","category":"117","category_name":"便民商店/便利店","address":""},{"poiid":"B2094654DB6CA2FA439E","title":"上海广电电子学校住宿部","lon":"121.44013","lat":"31.12387","category":"47","category_name":"住宅区","address":""},{"poiid":"B2094757D66EABFB4499","title":"华泾镇社区卫生服务中心","lon":"121.445448057","lat":"31.1211615858","category":"500","category_name":"未知分类","address":"上海建华路180号"},{"poiid":"B2094655D26BA1FB4192","title":"罗秀路龙川路","lon":"121.44582","lat":"31.13364","category":"38","category_name":"公交车站","address":""},{"poiid":"B2094655D26EABFD459E","title":"上海市徐汇体育馆(南门)","lon":"121.44235","lat":"31.11746","category":"224","category_name":"综合体育馆","address":"华泾路1190"},{"poiid":"B2094757D16CA4F94198","title":"易初莲花(紫荆山路店)","lon":"121.44763262","lat":"31.1268896","category":"249","category_name":"购物服务","address":"郑州东大街(紫荆山路口)  "},{"poiid":"B2094654DB6CA2FA4393","title":"上海广电电子学校","lon":"121.43847","lat":"31.12314","category":"54","category_name":"职业技术学校","address":"老沪闵路1262、1266"},{"poiid":"B2094655D26FAAFC479C","title":"北杨村(南门)","lon":"121.43878","lat":"31.1245","category":"47","category_name":"住宅区","address":""},{"poiid":"B2094757D16BA3F4419B","title":"正好百貨商店","lon":"121.442585257","lat":"31.1228412194","category":"249","category_name":"购物服务","address":"上海徐匯區建華路99號"},{"poiid":"B2094654DB6CA6F4429F","title":"华泾新村","lon":"121.44799","lat":"31.11926","category":"47","category_name":"住宅区","address":"罗秀路1000号"},{"poiid":"B2094654DB6CA2FA4292","title":"上海现代物流公司长桥园区","lon":"121.44004","lat":"31.12428","category":"248","category_name":"生活娱乐","address":"老沪闵路1226"},{"poiid":"B2094655D268A7FA409D","title":"好又多超市","lon":"121.45323","lat":"31.12682","category":"118","category_name":"超级市场","address":""},{"poiid":"B2094654DB6CA2FF439D","title":"上海市长桥中学","lon":"121.43844","lat":"31.1303","category":"55","category_name":"中学","address":"徐汇区罗秀路400号(长华路罗秀路)"},{"poiid":"B2094655D268A7FD4893","title":"上海城市管理职业技术学院长桥分院","lon":"121.44671","lat":"31.13111","category":"54","category_name":"职业技术学校","address":"罗秀新村136号"},{"poiid":"B2094757D06FAAFA4099","title":"位育中学","lon":"121.44379197","lat":"31.121022923","category":"55","category_name":"中学","address":"徐汇区位育路1号(近徐浦大桥)"},{"poiid":"B2094757D06FA1F5489B","title":"徐汇新城","lon":"121.453094482","lat":"31.1309185028","category":"47","category_name":"住宅区","address":"上海市徐汇区龙吴路1595号"},{"poiid":"B2094757D065A0FA4999","title":"馨宁公寓","lon":"121.44778","lat":"31.128372","category":"47","category_name":"住宅区","address":"上海华发路368弄"},{"poiid":"B2094655D26FA3F44393","title":"漓江山水花园","lon":"121.44562","lat":"31.116489","category":"47","category_name":"住宅区","address":"上海市徐汇区华泾路900号"},{"poiid":"B2094757D068A1F8419D","title":"上海市材料工程学校","lon":"121.446624394","lat":"31.1310546604","category":"52","category_name":"高等院校","address":"徐汇区罗秀新村136号(近龙吴路)"},{"poiid":"B2094655D26FAAFC479E","title":"徐汇臻园","lon":"121.45024","lat":"31.126078","category":"47","category_name":"住宅区","address":"上海市徐汇区华发路151号"},{"poiid":"B2094757D06FA2FA4192","title":"明丰新纪苑","lon":"121.45352","lat":"31.126495","category":"47","category_name":"住宅区","address":"上海市徐汇区华发路99弄"},{"poiid":"B2094757D068A0FF4693","title":"罗秀新村","lon":"121.44658","lat":"31.133022","category":"47","category_name":"住宅区","address":"上海市徐汇区龙川路"},{"poiid":"B2094757D068A2FF4499","title":"徐汇区体育馆","lon":"121.4476242","lat":"31.118782043","category":"220","category_name":"运动场所","address":"上海华泾路1190号"},{"poiid":"B2094757D068A4F4459B","title":"宁国禅寺","lon":"121.450095","lat":"31.116805","category":"244","category_name":"寺庙道观","address":"徐汇区长华路(近华泾路)"},{"poiid":"B2094757D065ABF4479E","title":"老沪闵路 朱梅路","lon":"121.436587","lat":"31.122507","category":"500","category_name":"未知分类","address":"上海老沪闵路,朱梅路"},{"poiid":"B2094757D065A2FB4799","title":"Agnes.b Sports 国金中心店","lon":"121.446125539","lat":"31.1264652854","category":"141","category_name":"服装鞋帽皮具店","address":"上海浦东新区陆家嘴世纪大道8号国金中心LG1"},{"poiid":"B2094757D06AA0FF429E","title":"外环高架","lon":"121.448594","lat":"31.121452","category":"500","category_name":"未知分类","address":"上海外环高架"},{"poiid":"B2094757D16CA1F8489D","title":"华发小区","lon":"121.45112485","lat":"31.128025923","category":"47","category_name":"住宅区","address":"华发小区位于徐汇华发路176号"},{"poiid":"B2094757DB6DA5FF409B","title":"格林豪泰商务酒店（上海徐浦大桥店）","lon":"121.445955634","lat":"31.126426767","category":"216","category_name":"经济型连锁酒店","address":"上海市徐汇区华发路411号(近长桥路)"},{"poiid":"B2094757D06FAAF44299","title":"JEANS日系造型SALON(京世罗秀店)","lon":"121.446207492","lat":"31.1338958601","category":"148","category_name":"美容美发店","address":"上海徐汇区罗秀路222号(近龙川北路)"},{"poiid":"B2094654DB6CA6F4459D","title":"徐汇区华泾地段医院","lon":"121.44448","lat":"31.12129","category":"162","category_name":"医院","address":"徐汇区建华路180号"},{"poiid":"B2094654DB6CA2FF4498","title":"长桥八村","lon":"121.43988","lat":"31.130894","category":"47","category_name":"住宅区","address":"上海罗秀路龙临路"},{"poiid":"B2094654DB6CA2FA4798","title":"徐汇臻园(边门)","lon":"121.44693","lat":"31.12648","category":"47","category_name":"住宅区","address":"华发路333弄"},{"poiid":"B2094757D16DA6FC4392","title":"华建一街坊","lon":"121.44035","lat":"31.120861","category":"500","category_name":"未知分类","address":"上海老沪闵路1296弄"},{"poiid":"B2094654DB6CA2FA459C","title":"黄道婆纪念馆","lon":"121.44872","lat":"31.12482","category":"243","category_name":"纪念馆","address":"徐梅路700号"},{"poiid":"B2094655D26EAAF5459D","title":"陈化成纪念馆","lon":"121.44872","lat":"31.12482","category":"243","category_name":"纪念馆","address":"徐汇区华泾镇东湾村13号"},{"poiid":"B2094654DB6CA6F4429C","title":"华径五村","lon":"121.44529","lat":"31.1191","category":"47","category_name":"住宅区","address":"上海市华泾路1000弄"},{"poiid":"B2094654DB6CA2FA449D","title":"徐汇区华泾镇建华村许家里","lon":"121.44286","lat":"31.12371","category":"47","category_name":"住宅区","address":""},{"poiid":"B2094654DB6CA2FA439D","title":"徐汇区华泾镇建华村许家里(南门)","lon":"121.44302","lat":"31.12338","category":"47","category_name":"住宅区","address":""},{"poiid":"B2094655D26FA5FD469A","title":"徐汇区逸夫小学","lon":"121.44274","lat":"31.13374","category":"56","category_name":"小学","address":"上海罗秀路400号"},{"poiid":"B2094654DB6CA5F8419F","title":"位育幼儿园","lon":"121.44548","lat":"31.12151","category":"57","category_name":"幼儿园","address":"徐汇区建华路102号(近位育路)"},{"poiid":"B2094757D06FA5FE469D","title":"徐汇华园","lon":"121.45417","lat":"31.128843","category":"47","category_name":"住宅区","address":"上海华发路58弄"},{"poiid":"B2094654DB6CA5F8489B","title":"上海市徐汇位育体校","lon":"121.4423","lat":"31.11761","category":"55","category_name":"中学","address":"徐汇区华泾路1190号"},{"poiid":"B2094757D165A1F44399","title":"华氏大药房(华泾店)","lon":"121.445419157","lat":"31.121020483","category":"162","category_name":"医院","address":"上海徐汇区建华路101号"},{"poiid":"B2094655D26EAAF9459F","title":"华泾四村","lon":"121.44778","lat":"31.119989","category":"47","category_name":"住宅区","address":"华泾路880弄"},{"poiid":"B2094654DB6CA4F9409A","title":"小区(建华路)","lon":"121.44739","lat":"31.12147","category":"47","category_name":"住宅区","address":"建华路"},{"poiid":"B2094655D26DA7F5419E","title":"长桥八村(北门)","lon":"121.44001","lat":"31.13194","category":"47","category_name":"住宅区","address":""},{"poiid":"B2094654DB6CA5F8499C","title":"联华(建华路)","lon":"121.44771","lat":"31.12154","category":"118","category_name":"超级市场","address":""},{"poiid":"B2094757D16BA7FF409D","title":"酩悦碳烧火锅","lon":"121.450950257","lat":"31.1240592438","category":"247","category_name":"餐饮美食","address":"上海莘庄龙之梦"},{"poiid":"B2094655D26EABFF499F","title":"好德便利No.143","lon":"121.45059","lat":"31.12679","category":"117","category_name":"便民商店/便利店","address":"华发路273-275"},{"poiid":"B2094654DB6CA5F4469B","title":"光明乳业徐浦配送站","lon":"121.44845","lat":"31.12052","category":"117","category_name":"便民商店/便利店","address":""},{"poiid":"B2094654DB6CA2FA439E","title":"上海广电电子学校住宿部","lon":"121.44013","lat":"31.12387","category":"47","category_name":"住宅区","address":""},{"poiid":"B2094757D66EABFB4499","title":"华泾镇社区卫生服务中心","lon":"121.445448057","lat":"31.1211615858","category":"500","category_name":"未知分类","address":"上海建华路180号"},{"poiid":"B2094655D26BA1FB4192","title":"罗秀路龙川路","lon":"121.44582","lat":"31.13364","category":"38","category_name":"公交车站","address":""},{"poiid":"B2094655D26EABFD459E","title":"上海市徐汇体育馆(南门)","lon":"121.44235","lat":"31.11746","category":"224","category_name":"综合体育馆","address":"华泾路1190"},{"poiid":"B2094757D16CA4F94198","title":"易初莲花(紫荆山路店)","lon":"121.44763262","lat":"31.1268896","category":"249","category_name":"购物服务","address":"郑州东大街(紫荆山路口)  "},{"poiid":"B2094654DB6CA2FA4393","title":"上海广电电子学校","lon":"121.43847","lat":"31.12314","category":"54","category_name":"职业技术学校","address":"老沪闵路1262、1266"},{"poiid":"B2094655D26FAAFC479C","title":"北杨村(南门)","lon":"121.43878","lat":"31.1245","category":"47","category_name":"住宅区","address":""},{"poiid":"B2094757D16BA3F4419B","title":"正好百貨商店","lon":"121.442585257","lat":"31.1228412194","category":"249","category_name":"购物服务","address":"上海徐匯區建華路99號"},{"poiid":"B2094654DB6CA6F4429F","title":"华泾新村","lon":"121.44799","lat":"31.11926","category":"47","category_name":"住宅区","address":"罗秀路1000号"},{"poiid":"B2094654DB6CA2FA4292","title":"上海现代物流公司长桥园区","lon":"121.44004","lat":"31.12428","category":"248","category_name":"生活娱乐","address":"老沪闵路1226"},{"poiid":"B2094655D268A7FA409D","title":"好又多超市","lon":"121.45323","lat":"31.12682","category":"118","category_name":"超级市场","address":""},{"poiid":"B2094654DB6CA2FF439D","title":"上海市长桥中学","lon":"121.43844","lat":"31.1303","category":"55","category_name":"中学","address":"徐汇区罗秀路400号(长华路罗秀路)"},{"poiid":"B2094655D268A7FD4893","title":"上海城市管理职业技术学院长桥分院","lon":"121.44671","lat":"31.13111","category":"54","category_name":"职业技术学校","address":"罗秀新村136号"}]