[{"poiid":"B2094654DB65A1F54199","title":"南翔馒头店 豫园店","lon":"121.491505","lat":"31.226656","category":"68","category_name":"快餐厅","address":"黄浦区豫园路85号"},{"poiid":"B2094757D06FA1FF4799","title":"豫园","lon":"121.49209476305077","lat":"31.227224682757594","category":"240","category_name":"国家级景点","address":"上海市黄浦区安仁街218号"},{"poiid":"B2094654DA6EA4FD459E","title":"上海城隍庙","lon":"121.476706","lat":"31.227173","category":"244","category_name":"寺庙道观","address":"上海市黄浦区方浜中路249号"},{"poiid":"B2094753D76FAAFA449C","title":"上海滩国泰旗舰店","lon":"121.466011","lat":"31.216125","category":"249","category_name":"购物服务","address":"淮海中路868号"},{"poiid":"B209475CD564A7F84292","title":"上海滩新天地店","lon":"121.47463","lat":"31.22164","category":"119","category_name":"商场","address":"\"太仓路181弄新天地北里15号\r\n\""},{"poiid":"B209475CD564A7F84392","title":"上海滩浦东香格里拉店","lon":"121.50058","lat":"31.23634","category":"119","category_name":"商场","address":"浦东富成路33号香格里拉酒店内大堂层"},{"poiid":"B2094757D06FA3F5499B","title":"绿波廊(豫园路店)","lon":"121.49221","lat":"31.22628","category":"76","category_name":"上海菜","address":"黄浦区老城隍庙内豫园路115号(近九曲桥)"},{"poiid":"B2094757D468A6FE4392","title":"星巴克 豫园店 Starbucks Cafe","lon":"121.49193120286","lat":"31.226836909199","category":"65","category_name":"咖啡厅","address":"豫园路100号近福佑路"},{"poiid":"B2094757D06FA1FE439B","title":"老城隍庙小吃广场","lon":"121.49257","lat":"31.22648","category":"68","category_name":"快餐厅","address":"黄浦区福佑路238号豫园内"},{"poiid":"B2094757D06FA1F94792","title":"香港名都","lon":"121.496","lat":"31.228","category":"119","category_name":"商场","address":"黄浦区河南南路489号(近复兴东路)"},{"poiid":"B2094757D06FA3FC419B","title":"小林煎饼 豫园店","lon":"121.490016054","lat":"31.227538793","category":"67","category_name":"甜品店","address":"黄浦区豫春路9号豫园商城内B室(近老庙黄金广场)"},{"poiid":"B2094654DB6BA4F9449B","title":"豫园老街","lon":"121.49114","lat":"31.22713","category":"116","category_name":"特色商业街","address":"黄浦区福佑路238号豫园内(近河南南路)"},{"poiid":"B2094654DB64AAF44592","title":"哈根达斯豫园店","lon":"121.49119","lat":"31.2269","category":"113","category_name":"冷饮店","address":"黄浦区方浜中路168号豫龙坊1楼L122A号商铺(近昼锦路)"},{"poiid":"B2094757D06FA0F5449B","title":"必胜客(丽水店)","lon":"121.490532","lat":"31.228192","category":"94","category_name":"西餐厅","address":"黄浦区丽水路69号(近福佑路)"},{"poiid":"B2094757D568A6FE449D","title":"松鹤楼(外滩店)","lon":"121.49712782","lat":"31.22868273","category":"76","category_name":"上海菜","address":"黄浦区中山东二路505号(近外马路)"},{"poiid":"B2094757D06FA4FF4298","title":"Zeal","lon":"121.494104619","lat":"31.230399184","category":"260","category_name":"其他","address":"黄浦区中山东二路22号6楼(近金陵东路)"},{"poiid":"B2094757D06FA6F8429D","title":"古城公园","lon":"121.493892508","lat":"31.2285424773","category":"196","category_name":"公园","address":"黄浦区人民路333号(近福佑路)"},{"poiid":"B2094757D06FABFD409A","title":"上海老街","lon":"121.49305","lat":"31.22534","category":"249","category_name":"购物服务","address":"黄浦区方浜中路"},{"poiid":"B2094757D06FA3FC439D","title":"城隍庙九曲桥","lon":"121.49238","lat":"31.22698","category":"260","category_name":"其他","address":"黄浦区福佑路238号豫园内"},{"poiid":"B2094654DA6EA5F54399","title":"小世界会所","lon":"121.4914","lat":"31.22774","category":"76","category_name":"上海菜","address":"黄浦区福佑路234号豫园3-4楼"},{"poiid":"B2094750D26EA2FB419E","title":"El Willy","lon":"121.493644","lat":"31.231233","category":"94","category_name":"西餐厅","address":"黄浦区中山东二路22号5楼(近新永安路)"},{"poiid":"B2094757D069A6FE449C","title":"十六铺码头边","lon":"121.49703768","lat":"31.228610509","category":"500","category_name":"未知分类","address":"上海市,上海中山东二路"},{"poiid":"B2094654DA6EA5F54699","title":"豫园商城","lon":"121.49107","lat":"31.22773","category":"119","category_name":"商场","address":"黄浦区方浜中路269号(近城隍庙豫龙坊)"},{"poiid":"B2094757D06FA3FF419C","title":"星巴克 STARBUCKS (豫园二店)","lon":"121.49199","lat":"31.22696","category":"260","category_name":"其他","address":"黄浦区福佑路238号豫园内"},{"poiid":"B2094757D06FA0F5499C","title":"DQ冰雪皇后(豫园店)","lon":"121.4921","lat":"31.22631","category":"113","category_name":"冷饮店","address":"黄浦区豫园路112号(安仁街梧桐路)"},{"poiid":"B2094654DB65A1F5419F","title":"湖心亭","lon":"121.49141945573","lat":"31.227068113629","category":"260","category_name":"其他","address":"黄浦区豫园路257号(近九曲桥荷花池)"},{"poiid":"B2094750D26FABF44592","title":"Bocca","lon":"121.4960508","lat":"31.2293856","category":"98","category_name":"意式菜品餐厅","address":"黄浦区中山东二路22号5楼(近新永安路)"},{"poiid":"B2094757D069A0FC4992","title":"松月楼","lon":"121.49108","lat":"31.22666","category":"89","category_name":"中式素餐馆","address":"黄浦区旧校场路99号(近方浜中路)"},{"poiid":"B2094750DA6AA7FC489A","title":"COSTA COFFEE(豫城时尚店)","lon":"121.492561","lat":"31.225528","category":"65","category_name":"咖啡厅","address":"黄浦区昼锦路63号一层"},{"poiid":"B2094757D068A2FA4192","title":"肯德基 KFC (豫园店)","lon":"121.491322","lat":"31.227603","category":"68","category_name":"快餐厅","address":"黄浦区福佑路234号豫园商城内(近旧校场路)"},{"poiid":"B209475CD76BA0F9469E","title":"大蔬无界 外滩22号馆","lon":"121.493989","lat":"31.230711","category":"111","category_name":"休闲餐饮场所","address":"上海市黄浦区中山东二路外滩22号4楼"},{"poiid":"B2094757D068A7F8429A","title":"老凤祥银楼(福佑路店)","lon":"121.49116","lat":"31.22737","category":"500","category_name":"未知分类","address":"黄浦区福佑路239号1-3楼(近旧校场路)查看地图"},{"poiid":"B2094757D06FA4FB4493","title":"黄浦区业余大学","lon":"121.4913","lat":"31.22992","category":"52","category_name":"高等院校","address":"黄浦区四川南路37号(近金陵东路)"},{"poiid":"B2094757D06FA1FA449D","title":"城隍庙小商品市场","lon":"121.49124873","lat":"31.226930229","category":"249","category_name":"购物服务","address":"上海福佑路"},{"poiid":"B2094757D068ABF4459F","title":"耕月人茶馆","lon":"121.4933","lat":"31.22533","category":"260","category_name":"其他","address":"上海黄浦区方浜中路235号豫安阁4楼(近安仁街)"},{"poiid":"B2094757D06FA7FD4592","title":"网鱼网咖(张杨店)","lon":"121.49722426","lat":"31.229141715","category":"173","category_name":"游戏厅","address":"浦东新区张杨路640号3楼A座(近第一八佰伴)"},{"poiid":"B2094654DA6EA5F5459A","title":"宁波汤团店","lon":"121.49182","lat":"31.22629","category":"68","category_name":"快餐厅","address":"黄浦区福佑路238号豫园内"},{"poiid":"B2094757D764A5F94099","title":"拿渡麻辣香锅 方浜中路店","lon":"121.492599","lat":"31.225421","category":"86","category_name":"火锅店","address":"黄浦区方浜中路168号豫城时尚3楼(近三牌楼路)"},{"poiid":"B2094757D069A2F8419D","title":"黄浦江游览","lon":"121.49412","lat":"31.23077","category":"260","category_name":"其他","address":"黄浦区中山东二路531号(近新开河)查看地图"},{"poiid":"B2094757D06BA2FA4499","title":"新开河","lon":"121.495265841","lat":"31.2296010434","category":"38","category_name":"公交车站","address":"上海外滩"},{"poiid":"B2094757D16CA6F9459E","title":"徐家私房菜(城隍庙店)","lon":"121.49298238","lat":"31.22507574","category":"74","category_name":"江苏菜","address":"黄浦区方浜中路168号豫城时尚3楼(近三牌楼路)"},{"poiid":"B2094654DA6EA5FA419E","title":"新外滩商厦","lon":"121.49335","lat":"31.23127","category":"46","category_name":"楼宇","address":"黄浦区中山东二路15号(龙潭路中山东二路)"},{"poiid":"B2094757D069A3FE459C","title":"欢乐谷 古木游龙","lon":"121.4943161","lat":"31.227687835","category":"195","category_name":"游乐场","address":"上海欢乐谷"},{"poiid":"B2094757D66AAAFB439C","title":"江畔Quay","lon":"121.496346","lat":"31.229182","category":"94","category_name":"西餐厅","address":"黄浦区中山东二路585号外滩英迪格酒店6楼"},{"poiid":"B2094757D569A2FE4693","title":"新外滩15号","lon":"121.4933389","lat":"31.23143889","category":"47","category_name":"住宅区","address":"黄浦区中山东二路15号"},{"poiid":"B2094757D46BA1FD489C","title":"十二果芬 中山东二路店 Brix12","lon":"121.495787","lat":"31.2293892","category":"67","category_name":"甜品店","address":"中山东二路22号5楼近新开河路"},{"poiid":"B2094655D26AABFA469B","title":"上海兴宇大酒店——原东莱大酒店","lon":"121.492","lat":"31.22982","category":"250","category_name":"公园户外","address":"上海市黄浦区人民路386号(永安路口)"},{"poiid":"B2094750D36EAAF44699","title":"上海话剧艺术中心","lon":"121.491188","lat":"31.2268","category":"248","category_name":"生活娱乐","address":"安福路288号"},{"poiid":"B2094750D665A0FB469C","title":"船长5号","lon":"121.494","lat":"31.2295","category":"47","category_name":"住宅区","address":"黄浦区中山东二路531号(近东门路)"},{"poiid":"B2094654DA6EA5F5439A","title":"豫园(南门)","lon":"121.49247","lat":"31.22772","category":"680","category_name":"楼宇机构","address":""},{"poiid":"B2094654DB65A1F54199","title":"南翔馒头店 豫园店","lon":"121.491505","lat":"31.226656","category":"68","category_name":"快餐厅","address":"黄浦区豫园路85号"},{"poiid":"B2094757D06FA1FF4799","title":"豫园","lon":"121.49209476305077","lat":"31.227224682757594","category":"240","category_name":"国家级景点","address":"上海市黄浦区安仁街218号"},{"poiid":"B2094654DA6EA4FD459E","title":"上海城隍庙","lon":"121.476706","lat":"31.227173","category":"244","category_name":"寺庙道观","address":"上海市黄浦区方浜中路249号"},{"poiid":"B2094753D76FAAFA449C","title":"上海滩国泰旗舰店","lon":"121.466011","lat":"31.216125","category":"249","category_name":"购物服务","address":"淮海中路868号"},{"poiid":"B209475CD564A7F84292","title":"上海滩新天地店","lon":"121.47463","lat":"31.22164","category":"119","category_name":"商场","address":"\"太仓路181弄新天地北里15号\r\n\""},{"poiid":"B209475CD564A7F84392","title":"上海滩浦东香格里拉店","lon":"121.50058","lat":"31.23634","category":"119","category_name":"商场","address":"浦东富成路33号香格里拉酒店内大堂层"},{"poiid":"B2094757D06FA3F5499B","title":"绿波廊(豫园路店)","lon":"121.49221","lat":"31.22628","category":"76","category_name":"上海菜","address":"黄浦区老城隍庙内豫园路115号(近九曲桥)"},{"poiid":"B2094757D468A6FE4392","title":"星巴克 豫园店 Starbucks Cafe","lon":"121.49193120286","lat":"31.226836909199","category":"65","category_name":"咖啡厅","address":"豫园路100号近福佑路"},{"poiid":"B2094757D06FA1FE439B","title":"老城隍庙小吃广场","lon":"121.49257","lat":"31.22648","category":"68","category_name":"快餐厅","address":"黄浦区福佑路238号豫园内"},{"poiid":"B2094757D06FA1F94792","title":"香港名都","lon":"121.496","lat":"31.228","category":"119","category_name":"商场","address":"黄浦区河南南路489号(近复兴东路)"},{"poiid":"B2094757D06FA3FC419B","title":"小林煎饼 豫园店","lon":"121.490016054","lat":"31.227538793","category":"67","category_name":"甜品店","address":"黄浦区豫春路9号豫园商城内B室(近老庙黄金广场)"},{"poiid":"B2094654DB6BA4F9449B","title":"豫园老街","lon":"121.49114","lat":"31.22713","category":"116","category_name":"特色商业街","address":"黄浦区福佑路238号豫园内(近河南南路)"},{"poiid":"B2094654DB64AAF44592","title":"哈根达斯豫园店","lon":"121.49119","lat":"31.2269","category":"113","category_name":"冷饮店","address":"黄浦区方浜中路168号豫龙坊1楼L122A号商铺(近昼锦路)"},{"poiid":"B2094757D06FA0F5449B","title":"必胜客(丽水店)","lon":"121.490532","lat":"31.228192","category":"94","category_name":"西餐厅","address":"黄浦区丽水路69号(近福佑路)"},{"poiid":"B2094757D568A6FE449D","title":"松鹤楼(外滩店)","lon":"121.49712782","lat":"31.22868273","category":"76","category_name":"上海菜","address":"黄浦区中山东二路505号(近外马路)"},{"poiid":"B2094757D06FA4FF4298","title":"Zeal","lon":"121.494104619","lat":"31.230399184","category":"260","category_name":"其他","address":"黄浦区中山东二路22号6楼(近金陵东路)"},{"poiid":"B2094757D06FA6F8429D","title":"古城公园","lon":"121.493892508","lat":"31.2285424773","category":"196","category_name":"公园","address":"黄浦区人民路333号(近福佑路)"},{"poiid":"B2094757D06FABFD409A","title":"上海老街","lon":"121.49305","lat":"31.22534","category":"249","category_name":"购物服务","address":"黄浦区方浜中路"},{"poiid":"B2094757D06FA3FC439D","title":"城隍庙九曲桥","lon":"121.49238","lat":"31.22698","category":"260","category_name":"其他","address":"黄浦区福佑路238号豫园内"},{"poiid":"B2094654DA6EA5F54399","title":"小世界会所","lon":"121.4914","lat":"31.22774","category":"76","category_name":"上海菜","address":"黄浦区福佑路234号豫园3-4楼"},{"poiid":"B2094750D26EA2FB419E","title":"El Willy","lon":"121.493644","lat":"31.231233","category":"94","category_name":"西餐厅","address":"黄浦区中山东二路22号5楼(近新永安路)"},{"poiid":"B2094757D069A6FE449C","title":"十六铺码头边","lon":"121.49703768","lat":"31.228610509","category":"500","category_name":"未知分类","address":"上海市,上海中山东二路"},{"poiid":"B2094654DA6EA5F54699","title":"豫园商城","lon":"121.49107","lat":"31.22773","category":"119","category_name":"商场","address":"黄浦区方浜中路269号(近城隍庙豫龙坊)"},{"poiid":"B2094757D06FA3FF419C","title":"星巴克 STARBUCKS (豫园二店)","lon":"121.49199","lat":"31.22696","category":"260","category_name":"其他","address":"黄浦区福佑路238号豫园内"},{"poiid":"B2094757D06FA0F5499C","title":"DQ冰雪皇后(豫园店)","lon":"121.4921","lat":"31.22631","category":"113","category_name":"冷饮店","address":"黄浦区豫园路112号(安仁街梧桐路)"},{"poiid":"B2094654DB65A1F5419F","title":"湖心亭","lon":"121.49141945573","lat":"31.227068113629","category":"260","category_name":"其他","address":"黄浦区豫园路257号(近九曲桥荷花池)"},{"poiid":"B2094750D26FABF44592","title":"Bocca","lon":"121.4960508","lat":"31.2293856","category":"98","category_name":"意式菜品餐厅","address":"黄浦区中山东二路22号5楼(近新永安路)"},{"poiid":"B2094757D069A0FC4992","title":"松月楼","lon":"121.49108","lat":"31.22666","category":"89","category_name":"中式素餐馆","address":"黄浦区旧校场路99号(近方浜中路)"},{"poiid":"B2094750DA6AA7FC489A","title":"COSTA COFFEE(豫城时尚店)","lon":"121.492561","lat":"31.225528","category":"65","category_name":"咖啡厅","address":"黄浦区昼锦路63号一层"},{"poiid":"B2094757D068A2FA4192","title":"肯德基 KFC (豫园店)","lon":"121.491322","lat":"31.227603","category":"68","category_name":"快餐厅","address":"黄浦区福佑路234号豫园商城内(近旧校场路)"},{"poiid":"B209475CD76BA0F9469E","title":"大蔬无界 外滩22号馆","lon":"121.493989","lat":"31.230711","category":"111","category_name":"休闲餐饮场所","address":"上海市黄浦区中山东二路外滩22号4楼"},{"poiid":"B2094757D068A7F8429A","title":"老凤祥银楼(福佑路店)","lon":"121.49116","lat":"31.22737","category":"500","category_name":"未知分类","address":"黄浦区福佑路239号1-3楼(近旧校场路)查看地图"},{"poiid":"B2094757D06FA4FB4493","title":"黄浦区业余大学","lon":"121.4913","lat":"31.22992","category":"52","category_name":"高等院校","address":"黄浦区四川南路37号(近金陵东路)"},{"poiid":"B2094757D06FA1FA449D","title":"城隍庙小商品市场","lon":"121.49124873","lat":"31.226930229","category":"249","category_name":"购物服务","address":"上海福佑路"},{"poiid":"B2094757D068ABF4459F","title":"耕月人茶馆","lon":"121.4933","lat":"31.22533","category":"260","category_name":"其他","address":"上海黄浦区方浜中路235号豫安阁4楼(近安仁街)"},{"poiid":"B2094757D06FA7FD4592","title":"网鱼网咖(张杨店)","lon":"121.49722426","lat":"31.229141715","category":"173","category_name":"游戏厅","address":"浦东新区张杨路640号3楼A座(近第一八佰伴)"},{"poiid":"B2094654DA6EA5F5459A","title":"宁波汤团店","lon":"121.49182","lat":"31.22629","category":"68","category_name":"快餐厅","address":"黄浦区福佑路238号豫园内"},{"poiid":"B2094757D764A5F94099","title":"拿渡麻辣香锅 方浜中路店","lon":"121.492599","lat":"31.225421","category":"86","category_name":"火锅店","address":"黄浦区方浜中路168号豫城时尚3楼(近三牌楼路)"},{"poiid":"B2094757D069A2F8419D","title":"黄浦江游览","lon":"121.49412","lat":"31.23077","category":"260","category_name":"其他","address":"黄浦区中山东二路531号(近新开河)查看地图"},{"poiid":"B2094757D06BA2FA4499","title":"新开河","lon":"121.495265841","lat":"31.2296010434","category":"38","category_name":"公交车站","address":"上海外滩"},{"poiid":"B2094757D16CA6F9459E","title":"徐家私房菜(城隍庙店)","lon":"121.49298238","lat":"31.22507574","category":"74","category_name":"江苏菜","address":"黄浦区方浜中路168号豫城时尚3楼(近三牌楼路)"},{"poiid":"B2094654DA6EA5FA419E","title":"新外滩商厦","lon":"121.49335","lat":"31.23127","category":"46","category_name":"楼宇","address":"黄浦区中山东二路15号(龙潭路中山东二路)"},{"poiid":"B2094757D069A3FE459C","title":"欢乐谷 古木游龙","lon":"121.4943161","lat":"31.227687835","category":"195","category_name":"游乐场","address":"上海欢乐谷"},{"poiid":"B2094757D66AAAFB439C","title":"江畔Quay","lon":"121.496346","lat":"31.229182","category":"94","category_name":"西餐厅","address":"黄浦区中山东二路585号外滩英迪格酒店6楼"},{"poiid":"B2094757D569A2FE4693","title":"新外滩15号","lon":"121.4933389","lat":"31.23143889","category":"47","category_name":"住宅区","address":"黄浦区中山东二路15号"},{"poiid":"B2094757D46BA1FD489C","title":"十二果芬 中山东二路店 Brix12","lon":"121.495787","lat":"31.2293892","category":"67","category_name":"甜品店","address":"中山东二路22号5楼近新开河路"},{"poiid":"B2094655D26AABFA469B","title":"上海兴宇大酒店——原东莱大酒店","lon":"121.492","lat":"31.22982","category":"250","category_name":"公园户外","address":"上海市黄浦区人民路386号(永安路口)"},{"poiid":"B2094750D36EAAF44699","title":"上海话剧艺术中心","lon":"121.491188","lat":"31.2268","category":"248","category_name":"生活娱乐","address":"安福路288号"},{"poiid":"B2094750D665A0FB469C","title":"船长5号","lon":"121.494","lat":"31.2295","category":"47","category_name":"住宅区","address":"黄浦区中山东二路531号(近东门路)"},{"poiid":"B2094654DA6EA5F5439A","title":"豫园(南门)","lon":"121.49247","lat":"31.22772","category":"680","category_name":"楼宇机构","address":""},{"poiid":"B2094654DB65A1F54199","title":"南翔馒头店 豫园店","lon":"121.491505","lat":"31.226656","category":"68","category_name":"快餐厅","address":"黄浦区豫园路85号"},{"poiid":"B2094757D06FA1FF4799","title":"豫园","lon":"121.49209476305077","lat":"31.227224682757594","category":"240","category_name":"国家级景点","address":"上海市黄浦区安仁街218号"},{"poiid":"B2094654DA6EA4FD459E","title":"上海城隍庙","lon":"121.476706","lat":"31.227173","category":"244","category_name":"寺庙道观","address":"上海市黄浦区方浜中路249号"},{"poiid":"B2094753D76FAAFA449C","title":"上海滩国泰旗舰店","lon":"121.466011","lat":"31.216125","category":"249","category_name":"购物服务","address":"淮海中路868号"},{"poiid":"B209475CD564A7F84292","title":"上海滩新天地店","lon":"121.47463","lat":"31.22164","category":"119","category_name":"商场","address":"\"太仓路181弄新天地北里15号\r\n\""},{"poiid":"B209475CD564A7F84392","title":"上海滩浦东香格里拉店","lon":"121.50058","lat":"31.23634","category":"119","category_name":"商场","address":"浦东富成路33号香格里拉酒店内大堂层"},{"poiid":"B2094757D06FA3F5499B","title":"绿波廊(豫园路店)","lon":"121.49221","lat":"31.22628","category":"76","category_name":"上海菜","address":"黄浦区老城隍庙内豫园路115号(近九曲桥)"},{"poiid":"B2094757D468A6FE4392","title":"星巴克 豫园店 Starbucks Cafe","lon":"121.49193120286","lat":"31.226836909199","category":"65","category_name":"咖啡厅","address":"豫园路100号近福佑路"},{"poiid":"B2094757D06FA1FE439B","title":"老城隍庙小吃广场","lon":"121.49257","lat":"31.22648","category":"68","category_name":"快餐厅","address":"黄浦区福佑路238号豫园内"},{"poiid":"B2094757D06FA1F94792","title":"香港名都","lon":"121.496","lat":"31.228","category":"119","category_name":"商场","address":"黄浦区河南南路489号(近复兴东路)"},{"poiid":"B2094757D06FA3FC419B","title":"小林煎饼 豫园店","lon":"121.490016054","lat":"31.227538793","category":"67","category_name":"甜品店","address":"黄浦区豫春路9号豫园商城内B室(近老庙黄金广场)"},{"poiid":"B2094654DB6BA4F9449B","title":"豫园老街","lon":"121.49114","lat":"31.22713","category":"116","category_name":"特色商业街","address":"黄浦区福佑路238号豫园内(近河南南路)"},{"poiid":"B2094654DB64AAF44592","title":"哈根达斯豫园店","lon":"121.49119","lat":"31.2269","category":"113","category_name":"冷饮店","address":"黄浦区方浜中路168号豫龙坊1楼L122A号商铺(近昼锦路)"},{"poiid":"B2094757D06FA0F5449B","title":"必胜客(丽水店)","lon":"121.490532","lat":"31.228192","category":"94","category_name":"西餐厅","address":"黄浦区丽水路69号(近福佑路)"},{"poiid":"B2094757D568A6FE449D","title":"松鹤楼(外滩店)","lon":"121.49712782","lat":"31.22868273","category":"76","category_name":"上海菜","address":"黄浦区中山东二路505号(近外马路)"},{"poiid":"B2094757D06FA4FF4298","title":"Zeal","lon":"121.494104619","lat":"31.230399184","category":"260","category_name":"其他","address":"黄浦区中山东二路22号6楼(近金陵东路)"},{"poiid":"B2094757D06FA6F8429D","title":"古城公园","lon":"121.493892508","lat":"31.2285424773","category":"196","category_name":"公园","address":"黄浦区人民路333号(近福佑路)"},{"poiid":"B2094757D06FABFD409A","title":"上海老街","lon":"121.49305","lat":"31.22534","category":"249","category_name":"购物服务","address":"黄浦区方浜中路"},{"poiid":"B2094757D06FA3FC439D","title":"城隍庙九曲桥","lon":"121.49238","lat":"31.22698","category":"260","category_name":"其他","address":"黄浦区福佑路238号豫园内"},{"poiid":"B2094654DA6EA5F54399","title":"小世界会所","lon":"121.4914","lat":"31.22774","category":"76","category_name":"上海菜","address":"黄浦区福佑路234号豫园3-4楼"},{"poiid":"B2094750D26EA2FB419E","title":"El Willy","lon":"121.493644","lat":"31.231233","category":"94","category_name":"西餐厅","address":"黄浦区中山东二路22号5楼(近新永安路)"},{"poiid":"B2094757D069A6FE449C","title":"十六铺码头边","lon":"121.49703768","lat":"31.228610509","category":"500","category_name":"未知分类","address":"上海市,上海中山东二路"},{"poiid":"B2094654DA6EA5F54699","title":"豫园商城","lon":"121.49107","lat":"31.22773","category":"119","category_name":"商场","address":"黄浦区方浜中路269号(近城隍庙豫龙坊)"},{"poiid":"B2094757D06FA3FF419C","title":"星巴克 STARBUCKS (豫园二店)","lon":"121.49199","lat":"31.22696","category":"260","category_name":"其他","address":"黄浦区福佑路238号豫园内"},{"poiid":"B2094757D06FA0F5499C","title":"DQ冰雪皇后(豫园店)","lon":"121.4921","lat":"31.22631","category":"113","category_name":"冷饮店","address":"黄浦区豫园路112号(安仁街梧桐路)"},{"poiid":"B2094654DB65A1F5419F","title":"湖心亭","lon":"121.49141945573","lat":"31.227068113629","category":"260","category_name":"其他","address":"黄浦区豫园路257号(近九曲桥荷花池)"},{"poiid":"B2094750D26FABF44592","title":"Bocca","lon":"121.4960508","lat":"31.2293856","category":"98","category_name":"意式菜品餐厅","address":"黄浦区中山东二路22号5楼(近新永安路)"},{"poiid":"B2094757D069A0FC4992","title":"松月楼","lon":"121.49108","lat":"31.22666","category":"89","category_name":"中式素餐馆","address":"黄浦区旧校场路99号(近方浜中路)"},{"poiid":"B2094750DA6AA7FC489A","title":"COSTA COFFEE(豫城时尚店)","lon":"121.492561","lat":"31.225528","category":"65","category_name":"咖啡厅","address":"黄浦区昼锦路63号一层"},{"poiid":"B2094757D068A2FA4192","title":"肯德基 KFC (豫园店)","lon":"121.491322","lat":"31.227603","category":"68","category_name":"快餐厅","address":"黄浦区福佑路234号豫园商城内(近旧校场路)"},{"poiid":"B209475CD76BA0F9469E","title":"大蔬无界 外滩22号馆","lon":"121.493989","lat":"31.230711","category":"111","category_name":"休闲餐饮场所","address":"上海市黄浦区中山东二路外滩22号4楼"},{"poiid":"B2094757D068A7F8429A","title":"老凤祥银楼(福佑路店)","lon":"121.49116","lat":"31.22737","category":"500","category_name":"未知分类","address":"黄浦区福佑路239号1-3楼(近旧校场路)查看地图"},{"poiid":"B2094757D06FA4FB4493","title":"黄浦区业余大学","lon":"121.4913","lat":"31.22992","category":"52","category_name":"高等院校","address":"黄浦区四川南路37号(近金陵东路)"},{"poiid":"B2094757D06FA1FA449D","title":"城隍庙小商品市场","lon":"121.49124873","lat":"31.226930229","category":"249","category_name":"购物服务","address":"上海福佑路"},{"poiid":"B2094757D068ABF4459F","title":"耕月人茶馆","lon":"121.4933","lat":"31.22533","category":"260","category_name":"其他","address":"上海黄浦区方浜中路235号豫安阁4楼(近安仁街)"},{"poiid":"B2094757D06FA7FD4592","title":"网鱼网咖(张杨店)","lon":"121.49722426","lat":"31.229141715","category":"173","category_name":"游戏厅","address":"浦东新区张杨路640号3楼A座(近第一八佰伴)"},{"poiid":"B2094654DA6EA5F5459A","title":"宁波汤团店","lon":"121.49182","lat":"31.22629","category":"68","category_name":"快餐厅","address":"黄浦区福佑路238号豫园内"},{"poiid":"B2094757D764A5F94099","title":"拿渡麻辣香锅 方浜中路店","lon":"121.492599","lat":"31.225421","category":"86","category_name":"火锅店","address":"黄浦区方浜中路168号豫城时尚3楼(近三牌楼路)"},{"poiid":"B2094757D069A2F8419D","title":"黄浦江游览","lon":"121.49412","lat":"31.23077","category":"260","category_name":"其他","address":"黄浦区中山东二路531号(近新开河)查看地图"},{"poiid":"B2094757D06BA2FA4499","title":"新开河","lon":"121.495265841","lat":"31.2296010434","category":"38","category_name":"公交车站","address":"上海外滩"},{"poiid":"B2094757D16CA6F9459E","title":"徐家私房菜(城隍庙店)","lon":"121.49298238","lat":"31.22507574","category":"74","category_name":"江苏菜","address":"黄浦区方浜中路168号豫城时尚3楼(近三牌楼路)"},{"poiid":"B2094654DA6EA5FA419E","title":"新外滩商厦","lon":"121.49335","lat":"31.23127","category":"46","category_name":"楼宇","address":"黄浦区中山东二路15号(龙潭路中山东二路)"},{"poiid":"B2094757D069A3FE459C","title":"欢乐谷 古木游龙","lon":"121.4943161","lat":"31.227687835","category":"195","category_name":"游乐场","address":"上海欢乐谷"},{"poiid":"B2094757D66AAAFB439C","title":"江畔Quay","lon":"121.496346","lat":"31.229182","category":"94","category_name":"西餐厅","address":"黄浦区中山东二路585号外滩英迪格酒店6楼"},{"poiid":"B2094757D569A2FE4693","title":"新外滩15号","lon":"121.4933389","lat":"31.23143889","category":"47","category_name":"住宅区","address":"黄浦区中山东二路15号"},{"poiid":"B2094757D46BA1FD489C","title":"十二果芬 中山东二路店 Brix12","lon":"121.495787","lat":"31.2293892","category":"67","category_name":"甜品店","address":"中山东二路22号5楼近新开河路"},{"poiid":"B2094655D26AABFA469B","title":"上海兴宇大酒店——原东莱大酒店","lon":"121.492","lat":"31.22982","category":"250","category_name":"公园户外","address":"上海市黄浦区人民路386号(永安路口)"},{"poiid":"B2094750D36EAAF44699","title":"上海话剧艺术中心","lon":"121.491188","lat":"31.2268","category":"248","category_name":"生活娱乐","address":"安福路288号"},{"poiid":"B2094750D665A0FB469C","title":"船长5号","lon":"121.494","lat":"31.2295","category":"47","category_name":"住宅区","address":"黄浦区中山东二路531号(近东门路)"},{"poiid":"B2094654DA6EA5F5439A","title":"豫园(南门)","lon":"121.49247","lat":"31.22772","category":"680","category_name":"楼宇机构","address":""},{"poiid":"B2094654DB65A1F54199","title":"南翔馒头店 豫园店","lon":"121.491505","lat":"31.226656","category":"68","category_name":"快餐厅","address":"黄浦区豫园路85号"},{"poiid":"B2094757D06FA1FF4799","title":"豫园","lon":"121.49209476305077","lat":"31.227224682757594","category":"240","category_name":"国家级景点","address":"上海市黄浦区安仁街218号"},{"poiid":"B2094654DA6EA4FD459E","title":"上海城隍庙","lon":"121.476706","lat":"31.227173","category":"244","category_name":"寺庙道观","address":"上海市黄浦区方浜中路249号"},{"poiid":"B2094753D76FAAFA449C","title":"上海滩国泰旗舰店","lon":"121.466011","lat":"31.216125","category":"249","category_name":"购物服务","address":"淮海中路868号"},{"poiid":"B209475CD564A7F84292","title":"上海滩新天地店","lon":"121.47463","lat":"31.22164","category":"119","category_name":"商场","address":"\"太仓路181弄新天地北里15号\r\n\""},{"poiid":"B209475CD564A7F84392","title":"上海滩浦东香格里拉店","lon":"121.50058","lat":"31.23634","category":"119","category_name":"商场","address":"浦东富成路33号香格里拉酒店内大堂层"},{"poiid":"B2094757D06FA3F5499B","title":"绿波廊(豫园路店)","lon":"121.49221","lat":"31.22628","category":"76","category_name":"上海菜","address":"黄浦区老城隍庙内豫园路115号(近九曲桥)"},{"poiid":"B2094757D468A6FE4392","title":"星巴克 豫园店 Starbucks Cafe","lon":"121.49193120286","lat":"31.226836909199","category":"65","category_name":"咖啡厅","address":"豫园路100号近福佑路"},{"poiid":"B2094757D06FA1FE439B","title":"老城隍庙小吃广场","lon":"121.49257","lat":"31.22648","category":"68","category_name":"快餐厅","address":"黄浦区福佑路238号豫园内"},{"poiid":"B2094757D06FA1F94792","title":"香港名都","lon":"121.496","lat":"31.228","category":"119","category_name":"商场","address":"黄浦区河南南路489号(近复兴东路)"},{"poiid":"B2094757D06FA3FC419B","title":"小林煎饼 豫园店","lon":"121.490016054","lat":"31.227538793","category":"67","category_name":"甜品店","address":"黄浦区豫春路9号豫园商城内B室(近老庙黄金广场)"},{"poiid":"B2094654DB6BA4F9449B","title":"豫园老街","lon":"121.49114","lat":"31.22713","category":"116","category_name":"特色商业街","address":"黄浦区福佑路238号豫园内(近河南南路)"},{"poiid":"B2094654DB64AAF44592","title":"哈根达斯豫园店","lon":"121.49119","lat":"31.2269","category":"113","category_name":"冷饮店","address":"黄浦区方浜中路168号豫龙坊1楼L122A号商铺(近昼锦路)"},{"poiid":"B2094757D06FA0F5449B","title":"必胜客(丽水店)","lon":"121.490532","lat":"31.228192","category":"94","category_name":"西餐厅","address":"黄浦区丽水路69号(近福佑路)"},{"poiid":"B2094757D568A6FE449D","title":"松鹤楼(外滩店)","lon":"121.49712782","lat":"31.22868273","category":"76","category_name":"上海菜","address":"黄浦区中山东二路505号(近外马路)"},{"poiid":"B2094757D06FA4FF4298","title":"Zeal","lon":"121.494104619","lat":"31.230399184","category":"260","category_name":"其他","address":"黄浦区中山东二路22号6楼(近金陵东路)"},{"poiid":"B2094757D06FA6F8429D","title":"古城公园","lon":"121.493892508","lat":"31.2285424773","category":"196","category_name":"公园","address":"黄浦区人民路333号(近福佑路)"},{"poiid":"B2094757D06FABFD409A","title":"上海老街","lon":"121.49305","lat":"31.22534","category":"249","category_name":"购物服务","address":"黄浦区方浜中路"},{"poiid":"B2094757D06FA3FC439D","title":"城隍庙九曲桥","lon":"121.49238","lat":"31.22698","category":"260","category_name":"其他","address":"黄浦区福佑路238号豫园内"},{"poiid":"B2094654DA6EA5F54399","title":"小世界会所","lon":"121.4914","lat":"31.22774","category":"76","category_name":"上海菜","address":"黄浦区福佑路234号豫园3-4楼"},{"poiid":"B2094750D26EA2FB419E","title":"El Willy","lon":"121.493644","lat":"31.231233","category":"94","category_name":"西餐厅","address":"黄浦区中山东二路22号5楼(近新永安路)"},{"poiid":"B2094757D069A6FE449C","title":"十六铺码头边","lon":"121.49703768","lat":"31.228610509","category":"500","category_name":"未知分类","address":"上海市,上海中山东二路"},{"poiid":"B2094654DA6EA5F54699","title":"豫园商城","lon":"121.49107","lat":"31.22773","category":"119","category_name":"商场","address":"黄浦区方浜中路269号(近城隍庙豫龙坊)"},{"poiid":"B2094757D06FA3FF419C","title":"星巴克 STARBUCKS (豫园二店)","lon":"121.49199","lat":"31.22696","category":"260","category_name":"其他","address":"黄浦区福佑路238号豫园内"},{"poiid":"B2094757D06FA0F5499C","title":"DQ冰雪皇后(豫园店)","lon":"121.4921","lat":"31.22631","category":"113","category_name":"冷饮店","address":"黄浦区豫园路112号(安仁街梧桐路)"},{"poiid":"B2094654DB65A1F5419F","title":"湖心亭","lon":"121.49141945573","lat":"31.227068113629","category":"260","category_name":"其他","address":"黄浦区豫园路257号(近九曲桥荷花池)"},{"poiid":"B2094750D26FABF44592","title":"Bocca","lon":"121.4960508","lat":"31.2293856","category":"98","category_name":"意式菜品餐厅","address":"黄浦区中山东二路22号5楼(近新永安路)"},{"poiid":"B2094757D069A0FC4992","title":"松月楼","lon":"121.49108","lat":"31.22666","category":"89","category_name":"中式素餐馆","address":"黄浦区旧校场路99号(近方浜中路)"},{"poiid":"B2094750DA6AA7FC489A","title":"COSTA COFFEE(豫城时尚店)","lon":"121.492561","lat":"31.225528","category":"65","category_name":"咖啡厅","address":"黄浦区昼锦路63号一层"},{"poiid":"B2094757D068A2FA4192","title":"肯德基 KFC (豫园店)","lon":"121.491322","lat":"31.227603","category":"68","category_name":"快餐厅","address":"黄浦区福佑路234号豫园商城内(近旧校场路)"},{"poiid":"B209475CD76BA0F9469E","title":"大蔬无界 外滩22号馆","lon":"121.493989","lat":"31.230711","category":"111","category_name":"休闲餐饮场所","address":"上海市黄浦区中山东二路外滩22号4楼"},{"poiid":"B2094757D068A7F8429A","title":"老凤祥银楼(福佑路店)","lon":"121.49116","lat":"31.22737","category":"500","category_name":"未知分类","address":"黄浦区福佑路239号1-3楼(近旧校场路)查看地图"},{"poiid":"B2094757D06FA4FB4493","title":"黄浦区业余大学","lon":"121.4913","lat":"31.22992","category":"52","category_name":"高等院校","address":"黄浦区四川南路37号(近金陵东路)"},{"poiid":"B2094757D06FA1FA449D","title":"城隍庙小商品市场","lon":"121.49124873","lat":"31.226930229","category":"249","category_name":"购物服务","address":"上海福佑路"},{"poiid":"B2094757D068ABF4459F","title":"耕月人茶馆","lon":"121.4933","lat":"31.22533","category":"260","category_name":"其他","address":"上海黄浦区方浜中路235号豫安阁4楼(近安仁街)"},{"poiid":"B2094757D06FA7FD4592","title":"网鱼网咖(张杨店)","lon":"121.49722426","lat":"31.229141715","category":"173","category_name":"游戏厅","address":"浦东新区张杨路640号3楼A座(近第一八佰伴)"},{"poiid":"B2094654DA6EA5F5459A","title":"宁波汤团店","lon":"121.49182","lat":"31.22629","category":"68","category_name":"快餐厅","address":"黄浦区福佑路238号豫园内"},{"poiid":"B2094757D764A5F94099","title":"拿渡麻辣香锅 方浜中路店","lon":"121.492599","lat":"31.225421","category":"86","category_name":"火锅店","address":"黄浦区方浜中路168号豫城时尚3楼(近三牌楼路)"},{"poiid":"B2094757D069A2F8419D","title":"黄浦江游览","lon":"121.49412","lat":"31.23077","category":"260","category_name":"其他","address":"黄浦区中山东二路531号(近新开河)查看地图"},{"poiid":"B2094757D06BA2FA4499","title":"新开河","lon":"121.495265841","lat":"31.2296010434","category":"38","category_name":"公交车站","address":"上海外滩"},{"poiid":"B2094757D16CA6F9459E","title":"徐家私房菜(城隍庙店)","lon":"121.49298238","lat":"31.22507574","category":"74","category_name":"江苏菜","address":"黄浦区方浜中路168号豫城时尚3楼(近三牌楼路)"},{"poiid":"B2094654DA6EA5FA419E","title":"新外滩商厦","lon":"121.49335","lat":"31.23127","category":"46","category_name":"楼宇","address":"黄浦区中山东二路15号(龙潭路中山东二路)"},{"poiid":"B2094757D069A3FE459C","title":"欢乐谷 古木游龙","lon":"121.4943161","lat":"31.227687835","category":"195","category_name":"游乐场","address":"上海欢乐谷"},{"poiid":"B2094757D66AAAFB439C","title":"江畔Quay","lon":"121.496346","lat":"31.229182","category":"94","category_name":"西餐厅","address":"黄浦区中山东二路585号外滩英迪格酒店6楼"},{"poiid":"B2094757D569A2FE4693","title":"新外滩15号","lon":"121.4933389","lat":"31.23143889","category":"47","category_name":"住宅区","address":"黄浦区中山东二路15号"},{"poiid":"B2094757D46BA1FD489C","title":"十二果芬 中山东二路店 Brix12","lon":"121.495787","lat":"31.2293892","category":"67","category_name":"甜品店","address":"中山东二路22号5楼近新开河路"},{"poiid":"B2094655D26AABFA469B","title":"上海兴宇大酒店——原东莱大酒店","lon":"121.492","lat":"31.22982","category":"250","category_name":"公园户外","address":"上海市黄浦区人民路386号(永安路口)"},{"poiid":"B2094750D36EAAF44699","title":"上海话剧艺术中心","lon":"121.491188","lat":"31.2268","category":"248","category_name":"生活娱乐","address":"安福路288号"},{"poiid":"B2094750D665A0FB469C","title":"船长5号","lon":"121.494","lat":"31.2295","category":"47","category_name":"住宅区","address":"黄浦区中山东二路531号(近东门路)"},{"poiid":"B2094654DA6EA5F5439A","title":"豫园(南门)","lon":"121.49247","lat":"31.22772","category":"680","category_name":"楼宇机构","address":""},{"poiid":"B2094654DB65A1F54199","title":"南翔馒头店 豫园店","lon":"121.491505","lat":"31.226656","category":"68","category_name":"快餐厅","address":"黄浦区豫园路85号"},{"poiid":"B2094757D06FA1FF4799","title":"豫园","lon":"121.49209476305077","lat":"31.227224682757594","category":"240","category_name":"国家级景点","address":"上海市黄浦区安仁街218号"},{"poiid":"B2094654DA6EA4FD459E","title":"上海城隍庙","lon":"121.476706","lat":"31.227173","category":"244","category_name":"寺庙道观","address":"上海市黄浦区方浜中路249号"},{"poiid":"B2094753D76FAAFA449C","title":"上海滩国泰旗舰店","lon":"121.466011","lat":"31.216125","category":"249","category_name":"购物服务","address":"淮海中路868号"},{"poiid":"B209475CD564A7F84292","title":"上海滩新天地店","lon":"121.47463","lat":"31.22164","category":"119","category_name":"商场","address":"\"太仓路181弄新天地北里15号\r\n\""},{"poiid":"B209475CD564A7F84392","title":"上海滩浦东香格里拉店","lon":"121.50058","lat":"31.23634","category":"119","category_name":"商场","address":"浦东富成路33号香格里拉酒店内大堂层"},{"poiid":"B2094757D06FA3F5499B","title":"绿波廊(豫园路店)","lon":"121.49221","lat":"31.22628","category":"76","category_name":"上海菜","address":"黄浦区老城隍庙内豫园路115号(近九曲桥)"},{"poiid":"B2094757D468A6FE4392","title":"星巴克 豫园店 Starbucks Cafe","lon":"121.49193120286","lat":"31.226836909199","category":"65","category_name":"咖啡厅","address":"豫园路100号近福佑路"},{"poiid":"B2094757D06FA1FE439B","title":"老城隍庙小吃广场","lon":"121.49257","lat":"31.22648","category":"68","category_name":"快餐厅","address":"黄浦区福佑路238号豫园内"},{"poiid":"B2094757D06FA1F94792","title":"香港名都","lon":"121.496","lat":"31.228","category":"119","category_name":"商场","address":"黄浦区河南南路489号(近复兴东路)"},{"poiid":"B2094757D06FA3FC419B","title":"小林煎饼 豫园店","lon":"121.490016054","lat":"31.227538793","category":"67","category_name":"甜品店","address":"黄浦区豫春路9号豫园商城内B室(近老庙黄金广场)"},{"poiid":"B2094654DB6BA4F9449B","title":"豫园老街","lon":"121.49114","lat":"31.22713","category":"116","category_name":"特色商业街","address":"黄浦区福佑路238号豫园内(近河南南路)"},{"poiid":"B2094654DB64AAF44592","title":"哈根达斯豫园店","lon":"121.49119","lat":"31.2269","category":"113","category_name":"冷饮店","address":"黄浦区方浜中路168号豫龙坊1楼L122A号商铺(近昼锦路)"},{"poiid":"B2094757D06FA0F5449B","title":"必胜客(丽水店)","lon":"121.490532","lat":"31.228192","category":"94","category_name":"西餐厅","address":"黄浦区丽水路69号(近福佑路)"},{"poiid":"B2094757D568A6FE449D","title":"松鹤楼(外滩店)","lon":"121.49712782","lat":"31.22868273","category":"76","category_name":"上海菜","address":"黄浦区中山东二路505号(近外马路)"},{"poiid":"B2094757D06FA4FF4298","title":"Zeal","lon":"121.494104619","lat":"31.230399184","category":"260","category_name":"其他","address":"黄浦区中山东二路22号6楼(近金陵东路)"},{"poiid":"B2094757D06FA6F8429D","title":"古城公园","lon":"121.493892508","lat":"31.2285424773","category":"196","category_name":"公园","address":"黄浦区人民路333号(近福佑路)"},{"poiid":"B2094757D06FABFD409A","title":"上海老街","lon":"121.49305","lat":"31.22534","category":"249","category_name":"购物服务","address":"黄浦区方浜中路"},{"poiid":"B2094757D06FA3FC439D","title":"城隍庙九曲桥","lon":"121.49238","lat":"31.22698","category":"260","category_name":"其他","address":"黄浦区福佑路238号豫园内"},{"poiid":"B2094654DA6EA5F54399","title":"小世界会所","lon":"121.4914","lat":"31.22774","category":"76","category_name":"上海菜","address":"黄浦区福佑路234号豫园3-4楼"},{"poiid":"B2094750D26EA2FB419E","title":"El Willy","lon":"121.493644","lat":"31.231233","category":"94","category_name":"西餐厅","address":"黄浦区中山东二路22号5楼(近新永安路)"},{"poiid":"B2094757D069A6FE449C","title":"十六铺码头边","lon":"121.49703768","lat":"31.228610509","category":"500","category_name":"未知分类","address":"上海市,上海中山东二路"},{"poiid":"B2094654DA6EA5F54699","title":"豫园商城","lon":"121.49107","lat":"31.22773","category":"119","category_name":"商场","address":"黄浦区方浜中路269号(近城隍庙豫龙坊)"},{"poiid":"B2094757D06FA3FF419C","title":"星巴克 STARBUCKS (豫园二店)","lon":"121.49199","lat":"31.22696","category":"260","category_name":"其他","address":"黄浦区福佑路238号豫园内"},{"poiid":"B2094757D06FA0F5499C","title":"DQ冰雪皇后(豫园店)","lon":"121.4921","lat":"31.22631","category":"113","category_name":"冷饮店","address":"黄浦区豫园路112号(安仁街梧桐路)"},{"poiid":"B2094654DB65A1F5419F","title":"湖心亭","lon":"121.49141945573","lat":"31.227068113629","category":"260","category_name":"其他","address":"黄浦区豫园路257号(近九曲桥荷花池)"},{"poiid":"B2094750D26FABF44592","title":"Bocca","lon":"121.4960508","lat":"31.2293856","category":"98","category_name":"意式菜品餐厅","address":"黄浦区中山东二路22号5楼(近新永安路)"},{"poiid":"B2094757D069A0FC4992","title":"松月楼","lon":"121.49108","lat":"31.22666","category":"89","category_name":"中式素餐馆","address":"黄浦区旧校场路99号(近方浜中路)"},{"poiid":"B2094750DA6AA7FC489A","title":"COSTA COFFEE(豫城时尚店)","lon":"121.492561","lat":"31.225528","category":"65","category_name":"咖啡厅","address":"黄浦区昼锦路63号一层"},{"poiid":"B2094757D068A2FA4192","title":"肯德基 KFC (豫园店)","lon":"121.491322","lat":"31.227603","category":"68","category_name":"快餐厅","address":"黄浦区福佑路234号豫园商城内(近旧校场路)"},{"poiid":"B209475CD76BA0F9469E","title":"大蔬无界 外滩22号馆","lon":"121.493989","lat":"31.230711","category":"111","category_name":"休闲餐饮场所","address":"上海市黄浦区中山东二路外滩22号4楼"},{"poiid":"B2094757D068A7F8429A","title":"老凤祥银楼(福佑路店)","lon":"121.49116","lat":"31.22737","category":"500","category_name":"未知分类","address":"黄浦区福佑路239号1-3楼(近旧校场路)查看地图"},{"poiid":"B2094757D06FA4FB4493","title":"黄浦区业余大学","lon":"121.4913","lat":"31.22992","category":"52","category_name":"高等院校","address":"黄浦区四川南路37号(近金陵东路)"},{"poiid":"B2094757D06FA1FA449D","title":"城隍庙小商品市场","lon":"121.49124873","lat":"31.226930229","category":"249","category_name":"购物服务","address":"上海福佑路"},{"poiid":"B2094757D068ABF4459F","title":"耕月人茶馆","lon":"121.4933","lat":"31.22533","category":"260","category_name":"其他","address":"上海黄浦区方浜中路235号豫安阁4楼(近安仁街)"},{"poiid":"B2094757D06FA7FD4592","title":"网鱼网咖(张杨店)","lon":"121.49722426","lat":"31.229141715","category":"173","category_name":"游戏厅","address":"浦东新区张杨路640号3楼A座(近第一八佰伴)"},{"poiid":"B2094654DA6EA5F5459A","title":"宁波汤团店","lon":"121.49182","lat":"31.22629","category":"68","category_name":"快餐厅","address":"黄浦区福佑路238号豫园内"},{"poiid":"B2094757D764A5F94099","title":"拿渡麻辣香锅 方浜中路店","lon":"121.492599","lat":"31.225421","category":"86","category_name":"火锅店","address":"黄浦区方浜中路168号豫城时尚3楼(近三牌楼路)"},{"poiid":"B2094757D069A2F8419D","title":"黄浦江游览","lon":"121.49412","lat":"31.23077","category":"260","category_name":"其他","address":"黄浦区中山东二路531号(近新开河)查看地图"},{"poiid":"B2094757D06BA2FA4499","title":"新开河","lon":"121.495265841","lat":"31.2296010434","category":"38","category_name":"公交车站","address":"上海外滩"},{"poiid":"B2094757D16CA6F9459E","title":"徐家私房菜(城隍庙店)","lon":"121.49298238","lat":"31.22507574","category":"74","category_name":"江苏菜","address":"黄浦区方浜中路168号豫城时尚3楼(近三牌楼路)"},{"poiid":"B2094654DA6EA5FA419E","title":"新外滩商厦","lon":"121.49335","lat":"31.23127","category":"46","category_name":"楼宇","address":"黄浦区中山东二路15号(龙潭路中山东二路)"},{"poiid":"B2094757D069A3FE459C","title":"欢乐谷 古木游龙","lon":"121.4943161","lat":"31.227687835","category":"195","category_name":"游乐场","address":"上海欢乐谷"},{"poiid":"B2094757D66AAAFB439C","title":"江畔Quay","lon":"121.496346","lat":"31.229182","category":"94","category_name":"西餐厅","address":"黄浦区中山东二路585号外滩英迪格酒店6楼"},{"poiid":"B2094757D569A2FE4693","title":"新外滩15号","lon":"121.4933389","lat":"31.23143889","category":"47","category_name":"住宅区","address":"黄浦区中山东二路15号"},{"poiid":"B2094757D46BA1FD489C","title":"十二果芬 中山东二路店 Brix12","lon":"121.495787","lat":"31.2293892","category":"67","category_name":"甜品店","address":"中山东二路22号5楼近新开河路"},{"poiid":"B2094655D26AABFA469B","title":"上海兴宇大酒店——原东莱大酒店","lon":"121.492","lat":"31.22982","category":"250","category_name":"公园户外","address":"上海市黄浦区人民路386号(永安路口)"},{"poiid":"B2094750D36EAAF44699","title":"上海话剧艺术中心","lon":"121.491188","lat":"31.2268","category":"248","category_name":"生活娱乐","address":"安福路288号"},{"poiid":"B2094750D665A0FB469C","title":"船长5号","lon":"121.494","lat":"31.2295","category":"47","category_name":"住宅区","address":"黄浦区中山东二路531号(近东门路)"},{"poiid":"B2094654DA6EA5F5439A","title":"豫园(南门)","lon":"121.49247","lat":"31.22772","category":"680","category_name":"楼宇机构","address":""}]