[{"poiid":"B2094757D06FA4FD439B","title":"场中路少年村路","lon":"121.429806911","lat":"31.3033917109","category":"500","category_name":"未知分类","address":"上海场中路少年村路"},{"poiid":"B2094757D06FA3F8469A","title":"场中路地铁站","lon":"121.41373969","lat":"31.303964334","category":"36","category_name":"地铁站","address":"上海轨道交通 七号线 轨交场中路站 7"},{"poiid":"B2094654D464A0FF4999","title":"宝华寺","lon":"121.42852","lat":"31.29731","category":"244","category_name":"寺庙道观","address":"闸北区高平路1000号(近江场西路)"},{"poiid":"B2094757D06FA3FF4999","title":"上海飞机制造有限公司","lon":"121.43297576","lat":"31.304088592","category":"263","category_name":"公司","address":"上海市闸北区场中路3115号"},{"poiid":"B2094757D06FA5FE4899","title":"家乐福(大场店)","lon":"121.41809409","lat":"31.302195446","category":"118","category_name":"超级市场","address":"上海宝山区场中路4048号"},{"poiid":"B2094757D069A0FD4493","title":"雪佛兰锦骏店","lon":"121.42529","lat":"31.303517","category":"500","category_name":"未知分类","address":"上海场中路3535-1号"},{"poiid":"B2094757D06FABF9459E","title":"大场医院","lon":"121.42565953","lat":"31.300639866","category":"162","category_name":"医院","address":"宝山区少年村路1号"},{"poiid":"B2094654DB65A6FA499B","title":"宝山区大场体育场","lon":"121.42079","lat":"31.30011","category":"224","category_name":"综合体育馆","address":"少年村路2号"},{"poiid":"B2094757D068A3FF459F","title":"龙馨嘉园","lon":"121.4285","lat":"31.302309","category":"47","category_name":"住宅区","address":"上海场中路3386弄"},{"poiid":"B2094757D068ABFA4793","title":"中国人民解放军四七二四工厂","lon":"121.4311834","lat":"31.303639","category":"46","category_name":"楼宇","address":"上海场中路3127号"},{"poiid":"B2094757D06FA4FC4299","title":"白玉兰馨园","lon":"121.43127","lat":"31.301296","category":"500","category_name":"未知分类","address":"上海市闸北区少年村路479弄"},{"poiid":"B2094757D16DA1FF469A","title":"新石器烤肉","lon":"121.41698291","lat":"31.302963749","category":"68","category_name":"快餐厅","address":"宝山区场中路4048号家乐福107A室"},{"poiid":"B2094757D06AA7FF4599","title":"大众4S店","lon":"121.42581526","lat":"31.30339024","category":"500","category_name":"未知分类","address":"上海场中路3525号"},{"poiid":"B2094757D06FAAFF479B","title":"海福瑞大酒店","lon":"121.42712402","lat":"31.291561801","category":"217","category_name":"旅馆招待所","address":"上海高平路847号"},{"poiid":"B2094757DB68A5F5419B","title":"鱼林王 场中路店","lon":"121.428581054","lat":"31.303392793","category":"86","category_name":"火锅店","address":"闸北区场中路3333号(近少年村路)"},{"poiid":"B2094654D465A4FD459E","title":"上海嘉定工业园区宝山招商总部","lon":"121.42293","lat":"31.30327","category":"45","category_name":"产业园区","address":"场中路3675号201室-202室"},{"poiid":"B2094654D465A6FE449E","title":"上海万通汽车销售服务有限公司","lon":"121.42568","lat":"31.30343","category":"158","category_name":"汽车销售","address":"闸北区场中路3535号"},{"poiid":"B2094757D16BA2F44099","title":"My Home(^_−)−☆","lon":"121.42720495","lat":"31.3006806462","category":"500","category_name":"未知分类","address":null},{"poiid":"B2094757D165A2FD459C","title":"四季宜景苑","lon":"121.42619","lat":"31.302063","category":"47","category_name":"住宅区","address":"上海市宝山区场中路3656号"},{"poiid":"B2094655D36CA5F9499E","title":"场中路守仁桥街","lon":"121.42115","lat":"31.30297","category":"38","category_name":"公交车站","address":""},{"poiid":"B2094757D568A7FC4899","title":"如家快捷酒店(场中路店)","lon":"121.42792806","lat":"31.30356852","category":"216","category_name":"经济型连锁酒店","address":"上海市宝山区场中路3333号"},{"poiid":"B2094757D168A0F5479E","title":"鑫亮酒家私房菜","lon":"121.42984","lat":"31.30287","category":"76","category_name":"上海菜","address":"闸北区少年村路740号(近场中路)"},{"poiid":"B2094757D064AAFD4293","title":"老绍兴三黄鸡酒家(沪太支路店)","lon":"121.4175","lat":"31.29954","category":"76","category_name":"上海菜","address":"宝山区沪太支路1388号"},{"poiid":"B2094757D069A6F8469D","title":"绿雅苑","lon":"121.4268","lat":"31.302687","category":"252","category_name":"楼宇机构","address":"上海市闸北区场中路3428号"},{"poiid":"B2094757D169A0FF409F","title":"味千拉面(大场家乐福店)","lon":"121.41577065","lat":"31.3014165603","category":"95","category_name":"日本料理","address":"宝山区场中路4048号家乐福购物中心1楼(近守仁桥路)"},{"poiid":"B2094757D069A4FA409D","title":"新中初级中学羽毛球馆","lon":"121.42844","lat":"31.29478","category":"253","category_name":"校园生活","address":"上海闸北区高平路968号(近江场西路)"},{"poiid":"B2094654D465A6FE4898","title":"上海锦骏","lon":"121.42529","lat":"31.30352","category":"159","category_name":"汽车维修","address":"场中路3535号-1"},{"poiid":"B2094757D16AA0FB489E","title":"上海农商银行大场支行","lon":"121.42300195","lat":"31.3018536686","category":"150","category_name":"银行","address":"上海市宝山区界华路88号"},{"poiid":"B2094655D26FA5F5449A","title":"上海锦骏汽车销售服务有限公司","lon":"121.42529","lat":"31.30351","category":"158","category_name":"汽车销售","address":"闸北区场中路3535号-1"},{"poiid":"B2094654D464A0FA4992","title":"上海远东芭蕾艺术中等专业学校","lon":"121.42987","lat":"31.30243","category":"54","category_name":"职业技术学校","address":"闸北区少年村路685号(近场中路)"},{"poiid":"B2094757D66FA7F8489D","title":"OMEGA(外滩19号)","lon":"121.42760495","lat":"31.3025966828","category":"500","category_name":"未知分类","address":"上海南京东路23号"},{"poiid":"B2094655D26DA4FB489D","title":"上海海博广得利汽车销售有限公司","lon":"121.42633","lat":"31.3035","category":"159","category_name":"汽车维修","address":"闸北区场中路3525号(近少年村路)"},{"poiid":"B2094757D068A1F4499E","title":"永和家园","lon":"121.42509","lat":"31.291039","category":"252","category_name":"楼宇机构","address":"上海市闸北区高平路809弄"},{"poiid":"B2094757D66BA2FC479E","title":"少年村路东北人家","lon":"121.429372054","lat":"31.302165793","category":"82","category_name":"东北菜","address":"闸北区少年村路(近场中路)"},{"poiid":"B2094757D068A2FF449A","title":"永和三村","lon":"121.43068093","lat":"31.294750729","category":"500","category_name":"未知分类","address":"上海交城路原平路"},{"poiid":"B2094757D06AAAFC409F","title":"华山医院(永和分院)","lon":"121.431919203","lat":"31.2936133915","category":"162","category_name":"医院","address":"闸北区交城路100号(近原平路)"},{"poiid":"B2094753D66BA4FA4699","title":"田子坊","lon":"121.420753","lat":"31.300685","category":"500","category_name":"未知分类","address":"上海市 上海市打浦桥站田子坊"},{"poiid":"B2094757D064A0FF4592","title":"J&amp;J 新巢","lon":"121.42697531","lat":"31.30317766","category":"500","category_name":"未知分类","address":"上海场中路3332弄"},{"poiid":"B2094654D464A0F84399","title":"基督教大场堂","lon":"121.41996","lat":"31.30023","category":"245","category_name":"教堂","address":"闸北区沪太支路1225号(近守仁桥街路)"},{"poiid":"B2094655D26FA7FC4499","title":"绿雅苑(北一门)","lon":"121.42677","lat":"31.30294","category":"48","category_name":"楼宇大门","address":""},{"poiid":"B2094757DA69A1FE479F","title":"海博大众","lon":"121.42659747275","lat":"31.303380958793","category":"639","category_name":"汽车交通类公司","address":"场中路3525号"},{"poiid":"B2094752D56DABF5479C","title":"彭浦新村","lon":"121.425376","lat":"31.30003","category":"500","category_name":"未知分类","address":null},{"poiid":"B2094655D26CA1FA419F","title":"巴黎欧莱雅专业美发上海概念店","lon":"121.42893","lat":"31.30315","category":"148","category_name":"美容美发店","address":""},{"poiid":"B2094655D26FA0F9459D","title":"四季宜景苑(北门)","lon":"121.42661","lat":"31.30271","category":"48","category_name":"楼宇大门","address":"场中路3656弄"},{"poiid":"B2094654D464A0FB409C","title":"东营房小区","lon":"121.4328","lat":"31.30255","category":"47","category_name":"住宅区","address":"场中路3300弄"},{"poiid":"B2094654DB6AA4F5409A","title":"旺武宾馆","lon":"121.42901","lat":"31.29911","category":"217","category_name":"旅馆招待所","address":"上海市闸北区少年村路408号(近场中路)"},{"poiid":"B2094654D464A0FA489F","title":"快客No.6675","lon":"121.42942","lat":"31.30206","category":"117","category_name":"便民商店/便利店","address":"少年村路696-2识别"},{"poiid":"B2094757D069A4FC4492","title":"国药控股","lon":"121.43312095","lat":"31.308941804","category":"263","category_name":"公司","address":"上海市宝山区康宁路1089号"},{"poiid":"B2094757D16BA5FB409E","title":"场中路少年村路站(公交110,159,165,527,551,845)","lon":"121.431025109","lat":"31.3036368687","category":"38","category_name":"公交车站","address":"上海市闸北区场中路少年村路"},{"poiid":"B2094654D464A0FA469F","title":"良友金伴(上海市闸北区皓馨养老院西)","lon":"121.42953","lat":"31.30318","category":"117","category_name":"便民商店/便利店","address":""},{"poiid":"B2094757D06FA4FD439B","title":"场中路少年村路","lon":"121.429806911","lat":"31.3033917109","category":"500","category_name":"未知分类","address":"上海场中路少年村路"},{"poiid":"B2094757D06FA3F8469A","title":"场中路地铁站","lon":"121.41373969","lat":"31.303964334","category":"36","category_name":"地铁站","address":"上海轨道交通 七号线 轨交场中路站 7"},{"poiid":"B2094654D464A0FF4999","title":"宝华寺","lon":"121.42852","lat":"31.29731","category":"244","category_name":"寺庙道观","address":"闸北区高平路1000号(近江场西路)"},{"poiid":"B2094757D06FA3FF4999","title":"上海飞机制造有限公司","lon":"121.43297576","lat":"31.304088592","category":"263","category_name":"公司","address":"上海市闸北区场中路3115号"},{"poiid":"B2094757D06FA5FE4899","title":"家乐福(大场店)","lon":"121.41809409","lat":"31.302195446","category":"118","category_name":"超级市场","address":"上海宝山区场中路4048号"},{"poiid":"B2094757D069A0FD4493","title":"雪佛兰锦骏店","lon":"121.42529","lat":"31.303517","category":"500","category_name":"未知分类","address":"上海场中路3535-1号"},{"poiid":"B2094757D06FABF9459E","title":"大场医院","lon":"121.42565953","lat":"31.300639866","category":"162","category_name":"医院","address":"宝山区少年村路1号"},{"poiid":"B2094654DB65A6FA499B","title":"宝山区大场体育场","lon":"121.42079","lat":"31.30011","category":"224","category_name":"综合体育馆","address":"少年村路2号"},{"poiid":"B2094757D068A3FF459F","title":"龙馨嘉园","lon":"121.4285","lat":"31.302309","category":"47","category_name":"住宅区","address":"上海场中路3386弄"},{"poiid":"B2094757D068ABFA4793","title":"中国人民解放军四七二四工厂","lon":"121.4311834","lat":"31.303639","category":"46","category_name":"楼宇","address":"上海场中路3127号"},{"poiid":"B2094757D06FA4FC4299","title":"白玉兰馨园","lon":"121.43127","lat":"31.301296","category":"500","category_name":"未知分类","address":"上海市闸北区少年村路479弄"},{"poiid":"B2094757D16DA1FF469A","title":"新石器烤肉","lon":"121.41698291","lat":"31.302963749","category":"68","category_name":"快餐厅","address":"宝山区场中路4048号家乐福107A室"},{"poiid":"B2094757D06AA7FF4599","title":"大众4S店","lon":"121.42581526","lat":"31.30339024","category":"500","category_name":"未知分类","address":"上海场中路3525号"},{"poiid":"B2094757D06FAAFF479B","title":"海福瑞大酒店","lon":"121.42712402","lat":"31.291561801","category":"217","category_name":"旅馆招待所","address":"上海高平路847号"},{"poiid":"B2094757DB68A5F5419B","title":"鱼林王 场中路店","lon":"121.428581054","lat":"31.303392793","category":"86","category_name":"火锅店","address":"闸北区场中路3333号(近少年村路)"},{"poiid":"B2094654D465A4FD459E","title":"上海嘉定工业园区宝山招商总部","lon":"121.42293","lat":"31.30327","category":"45","category_name":"产业园区","address":"场中路3675号201室-202室"},{"poiid":"B2094654D465A6FE449E","title":"上海万通汽车销售服务有限公司","lon":"121.42568","lat":"31.30343","category":"158","category_name":"汽车销售","address":"闸北区场中路3535号"},{"poiid":"B2094757D16BA2F44099","title":"My Home(^_−)−☆","lon":"121.42720495","lat":"31.3006806462","category":"500","category_name":"未知分类","address":null},{"poiid":"B2094757D165A2FD459C","title":"四季宜景苑","lon":"121.42619","lat":"31.302063","category":"47","category_name":"住宅区","address":"上海市宝山区场中路3656号"},{"poiid":"B2094655D36CA5F9499E","title":"场中路守仁桥街","lon":"121.42115","lat":"31.30297","category":"38","category_name":"公交车站","address":""},{"poiid":"B2094757D568A7FC4899","title":"如家快捷酒店(场中路店)","lon":"121.42792806","lat":"31.30356852","category":"216","category_name":"经济型连锁酒店","address":"上海市宝山区场中路3333号"},{"poiid":"B2094757D168A0F5479E","title":"鑫亮酒家私房菜","lon":"121.42984","lat":"31.30287","category":"76","category_name":"上海菜","address":"闸北区少年村路740号(近场中路)"},{"poiid":"B2094757D064AAFD4293","title":"老绍兴三黄鸡酒家(沪太支路店)","lon":"121.4175","lat":"31.29954","category":"76","category_name":"上海菜","address":"宝山区沪太支路1388号"},{"poiid":"B2094757D069A6F8469D","title":"绿雅苑","lon":"121.4268","lat":"31.302687","category":"252","category_name":"楼宇机构","address":"上海市闸北区场中路3428号"},{"poiid":"B2094757D169A0FF409F","title":"味千拉面(大场家乐福店)","lon":"121.41577065","lat":"31.3014165603","category":"95","category_name":"日本料理","address":"宝山区场中路4048号家乐福购物中心1楼(近守仁桥路)"},{"poiid":"B2094757D069A4FA409D","title":"新中初级中学羽毛球馆","lon":"121.42844","lat":"31.29478","category":"253","category_name":"校园生活","address":"上海闸北区高平路968号(近江场西路)"},{"poiid":"B2094654D465A6FE4898","title":"上海锦骏","lon":"121.42529","lat":"31.30352","category":"159","category_name":"汽车维修","address":"场中路3535号-1"},{"poiid":"B2094757D16AA0FB489E","title":"上海农商银行大场支行","lon":"121.42300195","lat":"31.3018536686","category":"150","category_name":"银行","address":"上海市宝山区界华路88号"},{"poiid":"B2094655D26FA5F5449A","title":"上海锦骏汽车销售服务有限公司","lon":"121.42529","lat":"31.30351","category":"158","category_name":"汽车销售","address":"闸北区场中路3535号-1"},{"poiid":"B2094654D464A0FA4992","title":"上海远东芭蕾艺术中等专业学校","lon":"121.42987","lat":"31.30243","category":"54","category_name":"职业技术学校","address":"闸北区少年村路685号(近场中路)"},{"poiid":"B2094757D66FA7F8489D","title":"OMEGA(外滩19号)","lon":"121.42760495","lat":"31.3025966828","category":"500","category_name":"未知分类","address":"上海南京东路23号"},{"poiid":"B2094655D26DA4FB489D","title":"上海海博广得利汽车销售有限公司","lon":"121.42633","lat":"31.3035","category":"159","category_name":"汽车维修","address":"闸北区场中路3525号(近少年村路)"},{"poiid":"B2094757D068A1F4499E","title":"永和家园","lon":"121.42509","lat":"31.291039","category":"252","category_name":"楼宇机构","address":"上海市闸北区高平路809弄"},{"poiid":"B2094757D66BA2FC479E","title":"少年村路东北人家","lon":"121.429372054","lat":"31.302165793","category":"82","category_name":"东北菜","address":"闸北区少年村路(近场中路)"},{"poiid":"B2094757D068A2FF449A","title":"永和三村","lon":"121.43068093","lat":"31.294750729","category":"500","category_name":"未知分类","address":"上海交城路原平路"},{"poiid":"B2094757D06AAAFC409F","title":"华山医院(永和分院)","lon":"121.431919203","lat":"31.2936133915","category":"162","category_name":"医院","address":"闸北区交城路100号(近原平路)"},{"poiid":"B2094753D66BA4FA4699","title":"田子坊","lon":"121.420753","lat":"31.300685","category":"500","category_name":"未知分类","address":"上海市 上海市打浦桥站田子坊"},{"poiid":"B2094757D064A0FF4592","title":"J&amp;J 新巢","lon":"121.42697531","lat":"31.30317766","category":"500","category_name":"未知分类","address":"上海场中路3332弄"},{"poiid":"B2094654D464A0F84399","title":"基督教大场堂","lon":"121.41996","lat":"31.30023","category":"245","category_name":"教堂","address":"闸北区沪太支路1225号(近守仁桥街路)"},{"poiid":"B2094655D26FA7FC4499","title":"绿雅苑(北一门)","lon":"121.42677","lat":"31.30294","category":"48","category_name":"楼宇大门","address":""},{"poiid":"B2094757DA69A1FE479F","title":"海博大众","lon":"121.42659747275","lat":"31.303380958793","category":"639","category_name":"汽车交通类公司","address":"场中路3525号"},{"poiid":"B2094752D56DABF5479C","title":"彭浦新村","lon":"121.425376","lat":"31.30003","category":"500","category_name":"未知分类","address":null},{"poiid":"B2094655D26CA1FA419F","title":"巴黎欧莱雅专业美发上海概念店","lon":"121.42893","lat":"31.30315","category":"148","category_name":"美容美发店","address":""},{"poiid":"B2094655D26FA0F9459D","title":"四季宜景苑(北门)","lon":"121.42661","lat":"31.30271","category":"48","category_name":"楼宇大门","address":"场中路3656弄"},{"poiid":"B2094654D464A0FB409C","title":"东营房小区","lon":"121.4328","lat":"31.30255","category":"47","category_name":"住宅区","address":"场中路3300弄"},{"poiid":"B2094654DB6AA4F5409A","title":"旺武宾馆","lon":"121.42901","lat":"31.29911","category":"217","category_name":"旅馆招待所","address":"上海市闸北区少年村路408号(近场中路)"},{"poiid":"B2094654D464A0FA489F","title":"快客No.6675","lon":"121.42942","lat":"31.30206","category":"117","category_name":"便民商店/便利店","address":"少年村路696-2识别"},{"poiid":"B2094757D069A4FC4492","title":"国药控股","lon":"121.43312095","lat":"31.308941804","category":"263","category_name":"公司","address":"上海市宝山区康宁路1089号"},{"poiid":"B2094757D16BA5FB409E","title":"场中路少年村路站(公交110,159,165,527,551,845)","lon":"121.431025109","lat":"31.3036368687","category":"38","category_name":"公交车站","address":"上海市闸北区场中路少年村路"},{"poiid":"B2094654D464A0FA469F","title":"良友金伴(上海市闸北区皓馨养老院西)","lon":"121.42953","lat":"31.30318","category":"117","category_name":"便民商店/便利店","address":""},{"poiid":"B2094757D06FA4FD439B","title":"场中路少年村路","lon":"121.429806911","lat":"31.3033917109","category":"500","category_name":"未知分类","address":"上海场中路少年村路"},{"poiid":"B2094757D06FA3F8469A","title":"场中路地铁站","lon":"121.41373969","lat":"31.303964334","category":"36","category_name":"地铁站","address":"上海轨道交通 七号线 轨交场中路站 7"},{"poiid":"B2094654D464A0FF4999","title":"宝华寺","lon":"121.42852","lat":"31.29731","category":"244","category_name":"寺庙道观","address":"闸北区高平路1000号(近江场西路)"},{"poiid":"B2094757D06FA3FF4999","title":"上海飞机制造有限公司","lon":"121.43297576","lat":"31.304088592","category":"263","category_name":"公司","address":"上海市闸北区场中路3115号"},{"poiid":"B2094757D06FA5FE4899","title":"家乐福(大场店)","lon":"121.41809409","lat":"31.302195446","category":"118","category_name":"超级市场","address":"上海宝山区场中路4048号"},{"poiid":"B2094757D069A0FD4493","title":"雪佛兰锦骏店","lon":"121.42529","lat":"31.303517","category":"500","category_name":"未知分类","address":"上海场中路3535-1号"},{"poiid":"B2094757D06FABF9459E","title":"大场医院","lon":"121.42565953","lat":"31.300639866","category":"162","category_name":"医院","address":"宝山区少年村路1号"},{"poiid":"B2094654DB65A6FA499B","title":"宝山区大场体育场","lon":"121.42079","lat":"31.30011","category":"224","category_name":"综合体育馆","address":"少年村路2号"},{"poiid":"B2094757D068A3FF459F","title":"龙馨嘉园","lon":"121.4285","lat":"31.302309","category":"47","category_name":"住宅区","address":"上海场中路3386弄"},{"poiid":"B2094757D068ABFA4793","title":"中国人民解放军四七二四工厂","lon":"121.4311834","lat":"31.303639","category":"46","category_name":"楼宇","address":"上海场中路3127号"},{"poiid":"B2094757D06FA4FC4299","title":"白玉兰馨园","lon":"121.43127","lat":"31.301296","category":"500","category_name":"未知分类","address":"上海市闸北区少年村路479弄"},{"poiid":"B2094757D16DA1FF469A","title":"新石器烤肉","lon":"121.41698291","lat":"31.302963749","category":"68","category_name":"快餐厅","address":"宝山区场中路4048号家乐福107A室"},{"poiid":"B2094757D06AA7FF4599","title":"大众4S店","lon":"121.42581526","lat":"31.30339024","category":"500","category_name":"未知分类","address":"上海场中路3525号"},{"poiid":"B2094757D06FAAFF479B","title":"海福瑞大酒店","lon":"121.42712402","lat":"31.291561801","category":"217","category_name":"旅馆招待所","address":"上海高平路847号"},{"poiid":"B2094757DB68A5F5419B","title":"鱼林王 场中路店","lon":"121.428581054","lat":"31.303392793","category":"86","category_name":"火锅店","address":"闸北区场中路3333号(近少年村路)"},{"poiid":"B2094654D465A4FD459E","title":"上海嘉定工业园区宝山招商总部","lon":"121.42293","lat":"31.30327","category":"45","category_name":"产业园区","address":"场中路3675号201室-202室"},{"poiid":"B2094654D465A6FE449E","title":"上海万通汽车销售服务有限公司","lon":"121.42568","lat":"31.30343","category":"158","category_name":"汽车销售","address":"闸北区场中路3535号"},{"poiid":"B2094757D16BA2F44099","title":"My Home(^_−)−☆","lon":"121.42720495","lat":"31.3006806462","category":"500","category_name":"未知分类","address":null},{"poiid":"B2094757D165A2FD459C","title":"四季宜景苑","lon":"121.42619","lat":"31.302063","category":"47","category_name":"住宅区","address":"上海市宝山区场中路3656号"},{"poiid":"B2094655D36CA5F9499E","title":"场中路守仁桥街","lon":"121.42115","lat":"31.30297","category":"38","category_name":"公交车站","address":""},{"poiid":"B2094757D568A7FC4899","title":"如家快捷酒店(场中路店)","lon":"121.42792806","lat":"31.30356852","category":"216","category_name":"经济型连锁酒店","address":"上海市宝山区场中路3333号"},{"poiid":"B2094757D168A0F5479E","title":"鑫亮酒家私房菜","lon":"121.42984","lat":"31.30287","category":"76","category_name":"上海菜","address":"闸北区少年村路740号(近场中路)"},{"poiid":"B2094757D064AAFD4293","title":"老绍兴三黄鸡酒家(沪太支路店)","lon":"121.4175","lat":"31.29954","category":"76","category_name":"上海菜","address":"宝山区沪太支路1388号"},{"poiid":"B2094757D069A6F8469D","title":"绿雅苑","lon":"121.4268","lat":"31.302687","category":"252","category_name":"楼宇机构","address":"上海市闸北区场中路3428号"},{"poiid":"B2094757D169A0FF409F","title":"味千拉面(大场家乐福店)","lon":"121.41577065","lat":"31.3014165603","category":"95","category_name":"日本料理","address":"宝山区场中路4048号家乐福购物中心1楼(近守仁桥路)"},{"poiid":"B2094757D069A4FA409D","title":"新中初级中学羽毛球馆","lon":"121.42844","lat":"31.29478","category":"253","category_name":"校园生活","address":"上海闸北区高平路968号(近江场西路)"},{"poiid":"B2094654D465A6FE4898","title":"上海锦骏","lon":"121.42529","lat":"31.30352","category":"159","category_name":"汽车维修","address":"场中路3535号-1"},{"poiid":"B2094757D16AA0FB489E","title":"上海农商银行大场支行","lon":"121.42300195","lat":"31.3018536686","category":"150","category_name":"银行","address":"上海市宝山区界华路88号"},{"poiid":"B2094655D26FA5F5449A","title":"上海锦骏汽车销售服务有限公司","lon":"121.42529","lat":"31.30351","category":"158","category_name":"汽车销售","address":"闸北区场中路3535号-1"},{"poiid":"B2094654D464A0FA4992","title":"上海远东芭蕾艺术中等专业学校","lon":"121.42987","lat":"31.30243","category":"54","category_name":"职业技术学校","address":"闸北区少年村路685号(近场中路)"},{"poiid":"B2094757D66FA7F8489D","title":"OMEGA(外滩19号)","lon":"121.42760495","lat":"31.3025966828","category":"500","category_name":"未知分类","address":"上海南京东路23号"},{"poiid":"B2094655D26DA4FB489D","title":"上海海博广得利汽车销售有限公司","lon":"121.42633","lat":"31.3035","category":"159","category_name":"汽车维修","address":"闸北区场中路3525号(近少年村路)"},{"poiid":"B2094757D068A1F4499E","title":"永和家园","lon":"121.42509","lat":"31.291039","category":"252","category_name":"楼宇机构","address":"上海市闸北区高平路809弄"},{"poiid":"B2094757D66BA2FC479E","title":"少年村路东北人家","lon":"121.429372054","lat":"31.302165793","category":"82","category_name":"东北菜","address":"闸北区少年村路(近场中路)"},{"poiid":"B2094757D068A2FF449A","title":"永和三村","lon":"121.43068093","lat":"31.294750729","category":"500","category_name":"未知分类","address":"上海交城路原平路"},{"poiid":"B2094757D06AAAFC409F","title":"华山医院(永和分院)","lon":"121.431919203","lat":"31.2936133915","category":"162","category_name":"医院","address":"闸北区交城路100号(近原平路)"},{"poiid":"B2094753D66BA4FA4699","title":"田子坊","lon":"121.420753","lat":"31.300685","category":"500","category_name":"未知分类","address":"上海市 上海市打浦桥站田子坊"},{"poiid":"B2094757D064A0FF4592","title":"J&amp;J 新巢","lon":"121.42697531","lat":"31.30317766","category":"500","category_name":"未知分类","address":"上海场中路3332弄"},{"poiid":"B2094654D464A0F84399","title":"基督教大场堂","lon":"121.41996","lat":"31.30023","category":"245","category_name":"教堂","address":"闸北区沪太支路1225号(近守仁桥街路)"},{"poiid":"B2094655D26FA7FC4499","title":"绿雅苑(北一门)","lon":"121.42677","lat":"31.30294","category":"48","category_name":"楼宇大门","address":""},{"poiid":"B2094757DA69A1FE479F","title":"海博大众","lon":"121.42659747275","lat":"31.303380958793","category":"639","category_name":"汽车交通类公司","address":"场中路3525号"},{"poiid":"B2094752D56DABF5479C","title":"彭浦新村","lon":"121.425376","lat":"31.30003","category":"500","category_name":"未知分类","address":null},{"poiid":"B2094655D26CA1FA419F","title":"巴黎欧莱雅专业美发上海概念店","lon":"121.42893","lat":"31.30315","category":"148","category_name":"美容美发店","address":""},{"poiid":"B2094655D26FA0F9459D","title":"四季宜景苑(北门)","lon":"121.42661","lat":"31.30271","category":"48","category_name":"楼宇大门","address":"场中路3656弄"},{"poiid":"B2094654D464A0FB409C","title":"东营房小区","lon":"121.4328","lat":"31.30255","category":"47","category_name":"住宅区","address":"场中路3300弄"},{"poiid":"B2094654DB6AA4F5409A","title":"旺武宾馆","lon":"121.42901","lat":"31.29911","category":"217","category_name":"旅馆招待所","address":"上海市闸北区少年村路408号(近场中路)"},{"poiid":"B2094654D464A0FA489F","title":"快客No.6675","lon":"121.42942","lat":"31.30206","category":"117","category_name":"便民商店/便利店","address":"少年村路696-2识别"},{"poiid":"B2094757D069A4FC4492","title":"国药控股","lon":"121.43312095","lat":"31.308941804","category":"263","category_name":"公司","address":"上海市宝山区康宁路1089号"},{"poiid":"B2094757D16BA5FB409E","title":"场中路少年村路站(公交110,159,165,527,551,845)","lon":"121.431025109","lat":"31.3036368687","category":"38","category_name":"公交车站","address":"上海市闸北区场中路少年村路"},{"poiid":"B2094654D464A0FA469F","title":"良友金伴(上海市闸北区皓馨养老院西)","lon":"121.42953","lat":"31.30318","category":"117","category_name":"便民商店/便利店","address":""},{"poiid":"B2094757D06FA4FD439B","title":"场中路少年村路","lon":"121.429806911","lat":"31.3033917109","category":"500","category_name":"未知分类","address":"上海场中路少年村路"},{"poiid":"B2094757D06FA3F8469A","title":"场中路地铁站","lon":"121.41373969","lat":"31.303964334","category":"36","category_name":"地铁站","address":"上海轨道交通 七号线 轨交场中路站 7"},{"poiid":"B2094654D464A0FF4999","title":"宝华寺","lon":"121.42852","lat":"31.29731","category":"244","category_name":"寺庙道观","address":"闸北区高平路1000号(近江场西路)"},{"poiid":"B2094757D06FA3FF4999","title":"上海飞机制造有限公司","lon":"121.43297576","lat":"31.304088592","category":"263","category_name":"公司","address":"上海市闸北区场中路3115号"},{"poiid":"B2094757D06FA5FE4899","title":"家乐福(大场店)","lon":"121.41809409","lat":"31.302195446","category":"118","category_name":"超级市场","address":"上海宝山区场中路4048号"},{"poiid":"B2094757D069A0FD4493","title":"雪佛兰锦骏店","lon":"121.42529","lat":"31.303517","category":"500","category_name":"未知分类","address":"上海场中路3535-1号"},{"poiid":"B2094757D06FABF9459E","title":"大场医院","lon":"121.42565953","lat":"31.300639866","category":"162","category_name":"医院","address":"宝山区少年村路1号"},{"poiid":"B2094654DB65A6FA499B","title":"宝山区大场体育场","lon":"121.42079","lat":"31.30011","category":"224","category_name":"综合体育馆","address":"少年村路2号"},{"poiid":"B2094757D068A3FF459F","title":"龙馨嘉园","lon":"121.4285","lat":"31.302309","category":"47","category_name":"住宅区","address":"上海场中路3386弄"},{"poiid":"B2094757D068ABFA4793","title":"中国人民解放军四七二四工厂","lon":"121.4311834","lat":"31.303639","category":"46","category_name":"楼宇","address":"上海场中路3127号"},{"poiid":"B2094757D06FA4FC4299","title":"白玉兰馨园","lon":"121.43127","lat":"31.301296","category":"500","category_name":"未知分类","address":"上海市闸北区少年村路479弄"},{"poiid":"B2094757D16DA1FF469A","title":"新石器烤肉","lon":"121.41698291","lat":"31.302963749","category":"68","category_name":"快餐厅","address":"宝山区场中路4048号家乐福107A室"},{"poiid":"B2094757D06AA7FF4599","title":"大众4S店","lon":"121.42581526","lat":"31.30339024","category":"500","category_name":"未知分类","address":"上海场中路3525号"},{"poiid":"B2094757D06FAAFF479B","title":"海福瑞大酒店","lon":"121.42712402","lat":"31.291561801","category":"217","category_name":"旅馆招待所","address":"上海高平路847号"},{"poiid":"B2094757DB68A5F5419B","title":"鱼林王 场中路店","lon":"121.428581054","lat":"31.303392793","category":"86","category_name":"火锅店","address":"闸北区场中路3333号(近少年村路)"},{"poiid":"B2094654D465A4FD459E","title":"上海嘉定工业园区宝山招商总部","lon":"121.42293","lat":"31.30327","category":"45","category_name":"产业园区","address":"场中路3675号201室-202室"},{"poiid":"B2094654D465A6FE449E","title":"上海万通汽车销售服务有限公司","lon":"121.42568","lat":"31.30343","category":"158","category_name":"汽车销售","address":"闸北区场中路3535号"},{"poiid":"B2094757D16BA2F44099","title":"My Home(^_−)−☆","lon":"121.42720495","lat":"31.3006806462","category":"500","category_name":"未知分类","address":null},{"poiid":"B2094757D165A2FD459C","title":"四季宜景苑","lon":"121.42619","lat":"31.302063","category":"47","category_name":"住宅区","address":"上海市宝山区场中路3656号"},{"poiid":"B2094655D36CA5F9499E","title":"场中路守仁桥街","lon":"121.42115","lat":"31.30297","category":"38","category_name":"公交车站","address":""},{"poiid":"B2094757D568A7FC4899","title":"如家快捷酒店(场中路店)","lon":"121.42792806","lat":"31.30356852","category":"216","category_name":"经济型连锁酒店","address":"上海市宝山区场中路3333号"},{"poiid":"B2094757D168A0F5479E","title":"鑫亮酒家私房菜","lon":"121.42984","lat":"31.30287","category":"76","category_name":"上海菜","address":"闸北区少年村路740号(近场中路)"},{"poiid":"B2094757D064AAFD4293","title":"老绍兴三黄鸡酒家(沪太支路店)","lon":"121.4175","lat":"31.29954","category":"76","category_name":"上海菜","address":"宝山区沪太支路1388号"},{"poiid":"B2094757D069A6F8469D","title":"绿雅苑","lon":"121.4268","lat":"31.302687","category":"252","category_name":"楼宇机构","address":"上海市闸北区场中路3428号"},{"poiid":"B2094757D169A0FF409F","title":"味千拉面(大场家乐福店)","lon":"121.41577065","lat":"31.3014165603","category":"95","category_name":"日本料理","address":"宝山区场中路4048号家乐福购物中心1楼(近守仁桥路)"},{"poiid":"B2094757D069A4FA409D","title":"新中初级中学羽毛球馆","lon":"121.42844","lat":"31.29478","category":"253","category_name":"校园生活","address":"上海闸北区高平路968号(近江场西路)"},{"poiid":"B2094654D465A6FE4898","title":"上海锦骏","lon":"121.42529","lat":"31.30352","category":"159","category_name":"汽车维修","address":"场中路3535号-1"},{"poiid":"B2094757D16AA0FB489E","title":"上海农商银行大场支行","lon":"121.42300195","lat":"31.3018536686","category":"150","category_name":"银行","address":"上海市宝山区界华路88号"},{"poiid":"B2094655D26FA5F5449A","title":"上海锦骏汽车销售服务有限公司","lon":"121.42529","lat":"31.30351","category":"158","category_name":"汽车销售","address":"闸北区场中路3535号-1"},{"poiid":"B2094654D464A0FA4992","title":"上海远东芭蕾艺术中等专业学校","lon":"121.42987","lat":"31.30243","category":"54","category_name":"职业技术学校","address":"闸北区少年村路685号(近场中路)"},{"poiid":"B2094757D66FA7F8489D","title":"OMEGA(外滩19号)","lon":"121.42760495","lat":"31.3025966828","category":"500","category_name":"未知分类","address":"上海南京东路23号"},{"poiid":"B2094655D26DA4FB489D","title":"上海海博广得利汽车销售有限公司","lon":"121.42633","lat":"31.3035","category":"159","category_name":"汽车维修","address":"闸北区场中路3525号(近少年村路)"},{"poiid":"B2094757D068A1F4499E","title":"永和家园","lon":"121.42509","lat":"31.291039","category":"252","category_name":"楼宇机构","address":"上海市闸北区高平路809弄"},{"poiid":"B2094757D66BA2FC479E","title":"少年村路东北人家","lon":"121.429372054","lat":"31.302165793","category":"82","category_name":"东北菜","address":"闸北区少年村路(近场中路)"},{"poiid":"B2094757D068A2FF449A","title":"永和三村","lon":"121.43068093","lat":"31.294750729","category":"500","category_name":"未知分类","address":"上海交城路原平路"},{"poiid":"B2094757D06AAAFC409F","title":"华山医院(永和分院)","lon":"121.431919203","lat":"31.2936133915","category":"162","category_name":"医院","address":"闸北区交城路100号(近原平路)"},{"poiid":"B2094753D66BA4FA4699","title":"田子坊","lon":"121.420753","lat":"31.300685","category":"500","category_name":"未知分类","address":"上海市 上海市打浦桥站田子坊"},{"poiid":"B2094757D064A0FF4592","title":"J&amp;J 新巢","lon":"121.42697531","lat":"31.30317766","category":"500","category_name":"未知分类","address":"上海场中路3332弄"},{"poiid":"B2094654D464A0F84399","title":"基督教大场堂","lon":"121.41996","lat":"31.30023","category":"245","category_name":"教堂","address":"闸北区沪太支路1225号(近守仁桥街路)"},{"poiid":"B2094655D26FA7FC4499","title":"绿雅苑(北一门)","lon":"121.42677","lat":"31.30294","category":"48","category_name":"楼宇大门","address":""},{"poiid":"B2094757DA69A1FE479F","title":"海博大众","lon":"121.42659747275","lat":"31.303380958793","category":"639","category_name":"汽车交通类公司","address":"场中路3525号"},{"poiid":"B2094752D56DABF5479C","title":"彭浦新村","lon":"121.425376","lat":"31.30003","category":"500","category_name":"未知分类","address":null},{"poiid":"B2094655D26CA1FA419F","title":"巴黎欧莱雅专业美发上海概念店","lon":"121.42893","lat":"31.30315","category":"148","category_name":"美容美发店","address":""},{"poiid":"B2094655D26FA0F9459D","title":"四季宜景苑(北门)","lon":"121.42661","lat":"31.30271","category":"48","category_name":"楼宇大门","address":"场中路3656弄"},{"poiid":"B2094654D464A0FB409C","title":"东营房小区","lon":"121.4328","lat":"31.30255","category":"47","category_name":"住宅区","address":"场中路3300弄"},{"poiid":"B2094654DB6AA4F5409A","title":"旺武宾馆","lon":"121.42901","lat":"31.29911","category":"217","category_name":"旅馆招待所","address":"上海市闸北区少年村路408号(近场中路)"},{"poiid":"B2094654D464A0FA489F","title":"快客No.6675","lon":"121.42942","lat":"31.30206","category":"117","category_name":"便民商店/便利店","address":"少年村路696-2识别"},{"poiid":"B2094757D069A4FC4492","title":"国药控股","lon":"121.43312095","lat":"31.308941804","category":"263","category_name":"公司","address":"上海市宝山区康宁路1089号"},{"poiid":"B2094757D16BA5FB409E","title":"场中路少年村路站(公交110,159,165,527,551,845)","lon":"121.431025109","lat":"31.3036368687","category":"38","category_name":"公交车站","address":"上海市闸北区场中路少年村路"},{"poiid":"B2094654D464A0FA469F","title":"良友金伴(上海市闸北区皓馨养老院西)","lon":"121.42953","lat":"31.30318","category":"117","category_name":"便民商店/便利店","address":""}]